{"last_updated":1691388538,"ttl":30,"version":"2.2","data":{"bikes":[{"bike_id":"f2b1424f-3f15-4662-9a2f-2bee2c3499f6","system_id":"levelo_inurba_marseille","lat":43.31342,"lon":5.36716,"is_reserved":false,"is_disabled":false,"rental_uris":{"android":"levelo://app?vid=f2b1424f-3f15-4662-9a2f-2bee2c3499f6","ios":"levelo://app?vid=f2b1424f-3f15-4662-9a2f-2bee2c3499f6"},"vehicle_type_id":"4","last_reported":1691388538,"current_range_meters":31200,"station_id":"ce4bgr92rcd13ifvqc6g","pricing_plan_id":"free"},{"bike_id":"f14382f7-ab86-4f14-ac6f-32d80de09ee1","system_id":"levelo_inurba_marseille","lat":43.31341,"lon":5.367098,"is_reserved":false,"is_disabled":false,"rental_uris":{"android":"levelo://app?vid=f14382f7-ab86-4f14-ac6f-32d80de09ee1","ios":"levelo://app?vid=f14382f7-ab86-4f14-ac6f-32d80de09ee1"},"vehicle_type_id":"4","last_reported":1691388538,"current_range_meters":21200,"station_id":"ce4bgr92rcd13ifvqc6g","pricing_plan_id":"free"},{"bike_id":"ede5c54a-a38a-4a89-bece-5acdc85d15d4","system_id":"levelo_inurba_marseille","lat":43.31345,"lon":5.36711,"is_reserved":false,"is_disabled":false,"rental_uris":{"android":"levelo://app?vid=ede5c54a-a38a-4a89-bece-5acdc85d15d4","ios":"levelo://app?vid=ede5c54a-a38a-4a89-bece-5acdc85d15d4"},"vehicle_type_id":"4","last_reported":1691388538,"current_range_meters":30400,"station_id":"ce4bgr92rcd13ifvqc6g","pricing_plan_id":"free"},{"bike_id":"4c780052-4892-4c99-b67c-67626519f7ef","system_id":"levelo_inurba_marseille","lat":43.31341,"lon":5.367098,"is_reserved":false,"is_disabled":false,"rental_uris":{"android":"levelo://app?vid=4c780052-4892-4c99-b67c-67626519f7ef","ios":"levelo://app?vid=4c780052-4892-4c99-b67c-67626519f7ef"},"vehicle_type_id":"4","last_reported":1691388538,"current_range_meters":22400,"station_id":"ce4bgr92rcd13ifvqc6g","pricing_plan_id":"free"},{"bike_id":"096632cf-36a1-4744-ae6e-538eae5eaff6","system_id":"levelo_inurba_marseille","lat":43.31341,"lon":5.367098,"is_reserved":false,"is_disabled":false,"rental_uris":{"android":"levelo://app?vid=096632cf-36a1-4744-ae6e-538eae5eaff6","ios":"levelo://app?vid=096632cf-36a1-4744-ae6e-538eae5eaff6"},"vehicle_type_id":"4","last_reported":1691388538,"current_range_meters":28400,"station_id":"ce4bgr92rcd13ifvqc6g","pricing_plan_id":"free"},{"bike_id":"d248b7df-946c-4e6a-af7e-0a3f02cb4872","system_id":"levelo_inurba_marseille","lat":43.31341,"lon":5.367098,"is_reserved":false,"is_disabled":false,"rental_uris":{"android":"levelo://app?vid=d248b7df-946c-4e6a-af7e-0a3f02cb4872","ios":"levelo://app?vid=d248b7df-946c-4e6a-af7e-0a3f02cb4872"},"vehicle_type_id":"4","last_reported":1691388538,"current_range_meters":31200,"station_id":"ce4bgr92rcd13ifvqc6g","pricing_plan_id":"free"},{"bike_id":"58734183-fbb9-4227-8fe3-e6c489de409f","system_id":"levelo_inurba_marseille","lat":43.31341,"lon":5.367098,"is_reserved":false,"is_disabled":false,"rental_uris":{"android":"levelo://app?vid=58734183-fbb9-4227-8fe3-e6c489de409f","ios":"levelo://app?vid=58734183-fbb9-4227-8fe3-e6c489de409f"},"vehicle_type_id":"4","last_reported":1691388538,"current_range_meters":31600,"station_id":"ce4bgr92rcd13ifvqc6g","pricing_plan_id":"free"},{"bike_id":"4d42cadd-1604-4736-8127-f5282c4d913d","system_id":"levelo_inurba_marseille","lat":43.312239,"lon":5.368562,"is_reserved":false,"is_disabled":false,"rental_uris":{"android":"levelo://app?vid=4d42cadd-1604-4736-8127-f5282c4d913d","ios":"levelo://app?vid=4d42cadd-1604-4736-8127-f5282c4d913d"},"vehicle_type_id":"4","last_reported":1691388538,"current_range_meters":6800,"station_id":"ce4bgl92rcd13ifvqbq0","pricing_plan_id":"free"},{"bike_id":"727228c4-ce1d-4ac1-8720-a69dfeab4bb2","system_id":"levelo_inurba_marseille","lat":43.31341,"lon":5.367098,"is_reserved":false,"is_disabled":false,"rental_uris":{"android":"levelo://app?vid=727228c4-ce1d-4ac1-8720-a69dfeab4bb2","ios":"levelo://app?vid=727228c4-ce1d-4ac1-8720-a69dfeab4bb2"},"vehicle_type_id":"4","last_reported":1691388538,"current_range_meters":31200,"station_id":"ce4bgr92rcd13ifvqc6g","pricing_plan_id":"free"},{"bike_id":"8edc703d-1f7c-4cc9-a8fb-d56db2638c27","system_id":"levelo_inurba_marseille","lat":43.309076,"lon":5.368465,"is_reserved":false,"is_disabled":false,"rental_uris":{"android":"levelo://app?vid=8edc703d-1f7c-4cc9-a8fb-d56db2638c27","ios":"levelo://app?vid=8edc703d-1f7c-4cc9-a8fb-d56db2638c27"},"vehicle_type_id":"4","last_reported":1691388538,"current_range_meters":21600,"station_id":"ce4bgn92rcd13ifvqbvg","pricing_plan_id":"free"},{"bike_id":"0fe97655-c3c5-4ffe-98a3-bcbafdf0e564","system_id":"levelo_inurba_marseille","lat":43.309076,"lon":5.368465,"is_reserved":false,"is_disabled":false,"rental_uris":{"android":"levelo://app?vid=0fe97655-c3c5-4ffe-98a3-bcbafdf0e564","ios":"levelo://app?vid=0fe97655-c3c5-4ffe-98a3-bcbafdf0e564"},"vehicle_type_id":"4","last_reported":1691388538,"current_range_meters":30400,"station_id":"ce4bgn92rcd13ifvqbvg","pricing_plan_id":"free"},{"bike_id":"13adb9b9-76ca-4f44-b86d-d4857270aebe","system_id":"levelo_inurba_marseille","lat":43.309076,"lon":5.368465,"is_reserved":false,"is_disabled":false,"rental_uris":{"android":"levelo://app?vid=13adb9b9-76ca-4f44-b86d-d4857270aebe","ios":"levelo://app?vid=13adb9b9-76ca-4f44-b86d-d4857270aebe"},"vehicle_type_id":"4","last_reported":1691388538,"current_range_meters":31200,"station_id":"ce4bgn92rcd13ifvqbvg","pricing_plan_id":"free"},{"bike_id":"b4884c58-bba5-4a4b-85b8-384daf0c2e9d","system_id":"levelo_inurba_marseille","lat":43.309076,"lon":5.368465,"is_reserved":false,"is_disabled":false,"rental_uris":{"android":"levelo://app?vid=b4884c58-bba5-4a4b-85b8-384daf0c2e9d","ios":"levelo://app?vid=b4884c58-bba5-4a4b-85b8-384daf0c2e9d"},"vehicle_type_id":"4","last_reported":1691388538,"current_range_meters":30400,"station_id":"ce4bgn92rcd13ifvqbvg","pricing_plan_id":"free"},{"bike_id":"5d7c5b08-a21a-4f7e-a562-2dba32f7ff17","system_id":"levelo_inurba_marseille","lat":43.309076,"lon":5.368465,"is_reserved":false,"is_disabled":false,"rental_uris":{"android":"levelo://app?vid=5d7c5b08-a21a-4f7e-a562-2dba32f7ff17","ios":"levelo://app?vid=5d7c5b08-a21a-4f7e-a562-2dba32f7ff17"},"vehicle_type_id":"4","last_reported":1691388538,"current_range_meters":31200,"station_id":"ce4bgn92rcd13ifvqbvg","pricing_plan_id":"free"},{"bike_id":"6d163158-d664-4a87-a327-013183520d82","system_id":"levelo_inurba_marseille","lat":43.309076,"lon":5.368465,"is_reserved":false,"is_disabled":false,"rental_uris":{"android":"levelo://app?vid=6d163158-d664-4a87-a327-013183520d82","ios":"levelo://app?vid=6d163158-d664-4a87-a327-013183520d82"},"vehicle_type_id":"4","last_reported":1691388538,"current_range_meters":30400,"station_id":"ce4bgn92rcd13ifvqbvg","pricing_plan_id":"free"},{"bike_id":"01b71fd1-923f-456d-9ce9-c3ccef430198","system_id":"levelo_inurba_marseille","lat":43.309076,"lon":5.368465,"is_reserved":false,"is_disabled":false,"rental_uris":{"android":"levelo://app?vid=01b71fd1-923f-456d-9ce9-c3ccef430198","ios":"levelo://app?vid=01b71fd1-923f-456d-9ce9-c3ccef430198"},"vehicle_type_id":"4","last_reported":1691388538,"current_range_meters":30800,"station_id":"ce4bgn92rcd13ifvqbvg","pricing_plan_id":"free"},{"bike_id":"dc4f77c7-1cb3-40e3-aeab-c9218f21a0e3","system_id":"levelo_inurba_marseille","lat":43.31717,"lon":5.36892,"is_reserved":false,"is_disabled":false,"rental_uris":{"android":"levelo://app?vid=dc4f77c7-1cb3-40e3-aeab-c9218f21a0e3","ios":"levelo://app?vid=dc4f77c7-1cb3-40e3-aeab-c9218f21a0e3"},"vehicle_type_id":"4","last_reported":1691388538,"current_range_meters":800,"station_id":"","pricing_plan_id":"free"},{"bike_id":"4e80bc1e-7cd4-45e9-909f-f6aa097242b8","system_id":"levelo_inurba_marseille","lat":43.314811,"lon":5.373103,"is_reserved":false,"is_disabled":false,"rental_uris":{"android":"levelo://app?vid=4e80bc1e-7cd4-45e9-909f-f6aa097242b8","ios":"levelo://app?vid=4e80bc1e-7cd4-45e9-909f-f6aa097242b8"},"vehicle_type_id":"4","last_reported":1691388538,"current_range_meters":31200,"station_id":"ce4bgt12rcd13ifvqcd0","pricing_plan_id":"free"},{"bike_id":"9c9eb38d-69c2-46bd-8115-73ce923f71a7","system_id":"levelo_inurba_marseille","lat":43.314811,"lon":5.373103,"is_reserved":false,"is_disabled":false,"rental_uris":{"android":"levelo://app?vid=9c9eb38d-69c2-46bd-8115-73ce923f71a7","ios":"levelo://app?vid=9c9eb38d-69c2-46bd-8115-73ce923f71a7"},"vehicle_type_id":"4","last_reported":1691388538,"current_range_meters":23200,"station_id":"ce4bgt12rcd13ifvqcd0","pricing_plan_id":"free"},{"bike_id":"3cc517b7-0119-4f8d-9ee3-005d14968e2a","system_id":"levelo_inurba_marseille","lat":43.314811,"lon":5.373103,"is_reserved":false,"is_disabled":false,"rental_uris":{"android":"levelo://app?vid=3cc517b7-0119-4f8d-9ee3-005d14968e2a","ios":"levelo://app?vid=3cc517b7-0119-4f8d-9ee3-005d14968e2a"},"vehicle_type_id":"4","last_reported":1691388538,"current_range_meters":17600,"station_id":"ce4bgt12rcd13ifvqcd0","pricing_plan_id":"free"},{"bike_id":"7ebe81c7-0ecd-4c49-8de7-2dec2dab2f35","system_id":"levelo_inurba_marseille","lat":43.314811,"lon":5.373103,"is_reserved":false,"is_disabled":false,"rental_uris":{"android":"levelo://app?vid=7ebe81c7-0ecd-4c49-8de7-2dec2dab2f35","ios":"levelo://app?vid=7ebe81c7-0ecd-4c49-8de7-2dec2dab2f35"},"vehicle_type_id":"4","last_reported":1691388538,"current_range_meters":31200,"station_id":"ce4bgt12rcd13ifvqcd0","pricing_plan_id":"free"},{"bike_id":"9052ceb8-6a37-4770-9a88-a07de0a402a4","system_id":"levelo_inurba_marseille","lat":43.314811,"lon":5.373103,"is_reserved":false,"is_disabled":false,"rental_uris":{"android":"levelo://app?vid=9052ceb8-6a37-4770-9a88-a07de0a402a4","ios":"levelo://app?vid=9052ceb8-6a37-4770-9a88-a07de0a402a4"},"vehicle_type_id":"4","last_reported":1691388538,"current_range_meters":31200,"station_id":"ce4bgt12rcd13ifvqcd0","pricing_plan_id":"free"},{"bike_id":"372a9253-7e0a-428e-80c8-f31558e83d75","system_id":"levelo_inurba_marseille","lat":43.314811,"lon":5.373103,"is_reserved":false,"is_disabled":false,"rental_uris":{"android":"levelo://app?vid=372a9253-7e0a-428e-80c8-f31558e83d75","ios":"levelo://app?vid=372a9253-7e0a-428e-80c8-f31558e83d75"},"vehicle_type_id":"4","last_reported":1691388538,"current_range_meters":28800,"station_id":"ce4bgt12rcd13ifvqcd0","pricing_plan_id":"free"},{"bike_id":"50145e8c-a66e-4e28-bddf-8fe55d9f8ea9","system_id":"levelo_inurba_marseille","lat":43.314811,"lon":5.373103,"is_reserved":false,"is_disabled":false,"rental_uris":{"android":"levelo://app?vid=50145e8c-a66e-4e28-bddf-8fe55d9f8ea9","ios":"levelo://app?vid=50145e8c-a66e-4e28-bddf-8fe55d9f8ea9"},"vehicle_type_id":"4","last_reported":1691388538,"current_range_meters":31200,"station_id":"ce4bgt12rcd13ifvqcd0","pricing_plan_id":"free"},{"bike_id":"31b00e4f-682c-40a6-b1f9-e2330604b2bd","system_id":"levelo_inurba_marseille","lat":43.309039,"lon":5.371797,"is_reserved":false,"is_disabled":false,"rental_uris":{"android":"levelo://app?vid=31b00e4f-682c-40a6-b1f9-e2330604b2bd","ios":"levelo://app?vid=31b00e4f-682c-40a6-b1f9-e2330604b2bd"},"vehicle_type_id":"4","last_reported":1691388538,"current_range_meters":28800,"station_id":"ce4bguh2rcd13ifvqckg","pricing_plan_id":"free"},{"bike_id":"9474cce3-0038-4eb5-9135-9ded16c4879b","system_id":"levelo_inurba_marseille","lat":43.30537,"lon":5.367345,"is_reserved":false,"is_disabled":false,"rental_uris":{"android":"levelo://app?vid=9474cce3-0038-4eb5-9135-9ded16c4879b","ios":"levelo://app?vid=9474cce3-0038-4eb5-9135-9ded16c4879b"},"vehicle_type_id":"4","last_reported":1691388538,"current_range_meters":6000,"station_id":"ce4bgrp2rcd13ifvqc9g","pricing_plan_id":"free"},{"bike_id":"9596bc02-7ce0-4ded-a958-4d04d46de484","system_id":"levelo_inurba_marseille","lat":43.30544,"lon":5.36731,"is_reserved":false,"is_disabled":false,"rental_uris":{"android":"levelo://app?vid=9596bc02-7ce0-4ded-a958-4d04d46de484","ios":"levelo://app?vid=9596bc02-7ce0-4ded-a958-4d04d46de484"},"vehicle_type_id":"4","last_reported":1691388538,"current_range_meters":18800,"station_id":"ce4bgrp2rcd13ifvqc9g","pricing_plan_id":"free"},{"bike_id":"acb426cf-03a8-4915-8df9-05f6de30a3a1","system_id":"levelo_inurba_marseille","lat":43.30542,"lon":5.36724,"is_reserved":false,"is_disabled":false,"rental_uris":{"android":"levelo://app?vid=acb426cf-03a8-4915-8df9-05f6de30a3a1","ios":"levelo://app?vid=acb426cf-03a8-4915-8df9-05f6de30a3a1"},"vehicle_type_id":"4","last_reported":1691388538,"current_range_meters":4800,"station_id":"ce4bgrp2rcd13ifvqc9g","pricing_plan_id":"free"},{"bike_id":"8bc4b2c4-c58d-4858-8279-12344101a3b3","system_id":"levelo_inurba_marseille","lat":43.30541,"lon":5.36733,"is_reserved":false,"is_disabled":false,"rental_uris":{"android":"levelo://app?vid=8bc4b2c4-c58d-4858-8279-12344101a3b3","ios":"levelo://app?vid=8bc4b2c4-c58d-4858-8279-12344101a3b3"},"vehicle_type_id":"4","last_reported":1691388538,"current_range_meters":26000,"station_id":"ce4bgrp2rcd13ifvqc9g","pricing_plan_id":"free"},{"bike_id":"2fd1a928-314a-488e-86a3-26d059b31800","system_id":"levelo_inurba_marseille","lat":43.305714,"lon":5.365633,"is_reserved":false,"is_disabled":false,"rental_uris":{"android":"levelo://app?vid=2fd1a928-314a-488e-86a3-26d059b31800","ios":"levelo://app?vid=2fd1a928-314a-488e-86a3-26d059b31800"},"vehicle_type_id":"4","last_reported":1691388538,"current_range_meters":31600,"station_id":"ce4bgs12rcd13ifvqcag","pricing_plan_id":"free"},{"bike_id":"8c79794f-1226-4944-966e-7f74ce8ea8c1","system_id":"levelo_inurba_marseille","lat":43.30534,"lon":5.3671,"is_reserved":false,"is_disabled":false,"rental_uris":{"android":"levelo://app?vid=8c79794f-1226-4944-966e-7f74ce8ea8c1","ios":"levelo://app?vid=8c79794f-1226-4944-966e-7f74ce8ea8c1"},"vehicle_type_id":"4","last_reported":1691388538,"current_range_meters":0,"station_id":"ce4bgrp2rcd13ifvqc9g","pricing_plan_id":"free"},{"bike_id":"fba256a5-f7fb-42bc-8f2b-7e1a346da873","system_id":"levelo_inurba_marseille","lat":43.30537,"lon":5.367345,"is_reserved":false,"is_disabled":false,"rental_uris":{"android":"levelo://app?vid=fba256a5-f7fb-42bc-8f2b-7e1a346da873","ios":"levelo://app?vid=fba256a5-f7fb-42bc-8f2b-7e1a346da873"},"vehicle_type_id":"4","last_reported":1691388538,"current_range_meters":23600,"station_id":"ce4bgrp2rcd13ifvqc9g","pricing_plan_id":"free"},{"bike_id":"f20ea888-8740-440b-bfeb-8eb2a7c1f652","system_id":"levelo_inurba_marseille","lat":43.305989,"lon":5.37225,"is_reserved":false,"is_disabled":false,"rental_uris":{"android":"levelo://app?vid=f20ea888-8740-440b-bfeb-8eb2a7c1f652","ios":"levelo://app?vid=f20ea888-8740-440b-bfeb-8eb2a7c1f652"},"vehicle_type_id":"4","last_reported":1691388538,"current_range_meters":31200,"station_id":"ce4bgqh2rcd13ifvqc4g","pricing_plan_id":"free"},{"bike_id":"c2ec888d-56f4-436c-875b-f4cab607cbe0","system_id":"levelo_inurba_marseille","lat":43.311125,"lon":5.377624,"is_reserved":false,"is_disabled":false,"rental_uris":{"android":"levelo://app?vid=c2ec888d-56f4-436c-875b-f4cab607cbe0","ios":"levelo://app?vid=c2ec888d-56f4-436c-875b-f4cab607cbe0"},"vehicle_type_id":"4","last_reported":1691388538,"current_range_meters":26800,"station_id":"ce4bgt92rcd13ifvqcg0","pricing_plan_id":"free"},{"bike_id":"36ea8287-97db-4eee-ac55-8ca09c6322ac","system_id":"levelo_inurba_marseille","lat":43.317075,"lon":5.377367,"is_reserved":false,"is_disabled":false,"rental_uris":{"android":"levelo://app?vid=36ea8287-97db-4eee-ac55-8ca09c6322ac","ios":"levelo://app?vid=36ea8287-97db-4eee-ac55-8ca09c6322ac"},"vehicle_type_id":"4","last_reported":1691388538,"current_range_meters":26000,"station_id":"ce4bgth2rcd13ifvqch0","pricing_plan_id":"free"},{"bike_id":"5030652d-61fb-4c70-abbb-2198e02d212c","system_id":"levelo_inurba_marseille","lat":43.317075,"lon":5.377367,"is_reserved":false,"is_disabled":false,"rental_uris":{"android":"levelo://app?vid=5030652d-61fb-4c70-abbb-2198e02d212c","ios":"levelo://app?vid=5030652d-61fb-4c70-abbb-2198e02d212c"},"vehicle_type_id":"4","last_reported":1691388538,"current_range_meters":0,"station_id":"ce4bgth2rcd13ifvqch0","pricing_plan_id":"free"},{"bike_id":"132357af-7e1e-499a-ba3e-67111202f1ef","system_id":"levelo_inurba_marseille","lat":43.317075,"lon":5.377367,"is_reserved":false,"is_disabled":false,"rental_uris":{"android":"levelo://app?vid=132357af-7e1e-499a-ba3e-67111202f1ef","ios":"levelo://app?vid=132357af-7e1e-499a-ba3e-67111202f1ef"},"vehicle_type_id":"4","last_reported":1691388538,"current_range_meters":31200,"station_id":"ce4bgth2rcd13ifvqch0","pricing_plan_id":"free"},{"bike_id":"78f7e95d-1125-448d-b35b-45451bbce9d8","system_id":"levelo_inurba_marseille","lat":43.305714,"lon":5.365633,"is_reserved":false,"is_disabled":false,"rental_uris":{"android":"levelo://app?vid=78f7e95d-1125-448d-b35b-45451bbce9d8","ios":"levelo://app?vid=78f7e95d-1125-448d-b35b-45451bbce9d8"},"vehicle_type_id":"4","last_reported":1691388538,"current_range_meters":18000,"station_id":"ce4bgs12rcd13ifvqcag","pricing_plan_id":"free"},{"bike_id":"da7192df-cc92-4a60-b7af-bedaf31de69b","system_id":"levelo_inurba_marseille","lat":43.31531,"lon":5.38025,"is_reserved":false,"is_disabled":false,"rental_uris":{"android":"levelo://app?vid=da7192df-cc92-4a60-b7af-bedaf31de69b","ios":"levelo://app?vid=da7192df-cc92-4a60-b7af-bedaf31de69b"},"vehicle_type_id":"4","last_reported":1691388538,"current_range_meters":11600,"station_id":"ce4bhsp2rcd13ifvqi50","pricing_plan_id":"free"},{"bike_id":"e8747a1a-7648-4082-aa55-0edab6c63dcd","system_id":"levelo_inurba_marseille","lat":43.31529,"lon":5.38026,"is_reserved":false,"is_disabled":false,"rental_uris":{"android":"levelo://app?vid=e8747a1a-7648-4082-aa55-0edab6c63dcd","ios":"levelo://app?vid=e8747a1a-7648-4082-aa55-0edab6c63dcd"},"vehicle_type_id":"4","last_reported":1691388538,"current_range_meters":6800,"station_id":"ce4bhsp2rcd13ifvqi50","pricing_plan_id":"free"},{"bike_id":"7734379d-2e0b-471f-85c4-4383f9016985","system_id":"levelo_inurba_marseille","lat":43.301891,"lon":5.366171,"is_reserved":false,"is_disabled":false,"rental_uris":{"android":"levelo://app?vid=7734379d-2e0b-471f-85c4-4383f9016985","ios":"levelo://app?vid=7734379d-2e0b-471f-85c4-4383f9016985"},"vehicle_type_id":"4","last_reported":1691388538,"current_range_meters":30000,"station_id":"","pricing_plan_id":"free"},{"bike_id":"d6ac2061-bcdc-455e-b1f0-2b803a6a6bd6","system_id":"levelo_inurba_marseille","lat":43.304606,"lon":5.379026,"is_reserved":false,"is_disabled":false,"rental_uris":{"android":"levelo://app?vid=d6ac2061-bcdc-455e-b1f0-2b803a6a6bd6","ios":"levelo://app?vid=d6ac2061-bcdc-455e-b1f0-2b803a6a6bd6"},"vehicle_type_id":"4","last_reported":1691388538,"current_range_meters":30400,"station_id":"ce4bgup2rcd13ifvqcn0","pricing_plan_id":"free"},{"bike_id":"c94db853-7bc0-4c52-adc9-cd5e60c80b69","system_id":"levelo_inurba_marseille","lat":43.304606,"lon":5.379026,"is_reserved":false,"is_disabled":false,"rental_uris":{"android":"levelo://app?vid=c94db853-7bc0-4c52-adc9-cd5e60c80b69","ios":"levelo://app?vid=c94db853-7bc0-4c52-adc9-cd5e60c80b69"},"vehicle_type_id":"4","last_reported":1691388538,"current_range_meters":21200,"station_id":"ce4bgup2rcd13ifvqcn0","pricing_plan_id":"free"},{"bike_id":"a3903d75-29a3-42cc-8e0d-4b7d6bf6c7f1","system_id":"levelo_inurba_marseille","lat":43.304606,"lon":5.379026,"is_reserved":false,"is_disabled":false,"rental_uris":{"android":"levelo://app?vid=a3903d75-29a3-42cc-8e0d-4b7d6bf6c7f1","ios":"levelo://app?vid=a3903d75-29a3-42cc-8e0d-4b7d6bf6c7f1"},"vehicle_type_id":"4","last_reported":1691388538,"current_range_meters":21200,"station_id":"ce4bgup2rcd13ifvqcn0","pricing_plan_id":"free"},{"bike_id":"7014da8b-3d86-447f-ade9-d0b37878d9b5","system_id":"levelo_inurba_marseille","lat":43.304606,"lon":5.379026,"is_reserved":false,"is_disabled":false,"rental_uris":{"android":"levelo://app?vid=7014da8b-3d86-447f-ade9-d0b37878d9b5","ios":"levelo://app?vid=7014da8b-3d86-447f-ade9-d0b37878d9b5"},"vehicle_type_id":"4","last_reported":1691388538,"current_range_meters":10800,"station_id":"ce4bgup2rcd13ifvqcn0","pricing_plan_id":"free"},{"bike_id":"e5d54a91-65c8-4cde-961d-4c4882ee6bb2","system_id":"levelo_inurba_marseille","lat":43.304606,"lon":5.379026,"is_reserved":false,"is_disabled":false,"rental_uris":{"android":"levelo://app?vid=e5d54a91-65c8-4cde-961d-4c4882ee6bb2","ios":"levelo://app?vid=e5d54a91-65c8-4cde-961d-4c4882ee6bb2"},"vehicle_type_id":"4","last_reported":1691388538,"current_range_meters":19200,"station_id":"ce4bgup2rcd13ifvqcn0","pricing_plan_id":"free"},{"bike_id":"4e21ca2b-2f59-4ae8-92c2-5b4f3c86cca8","system_id":"levelo_inurba_marseille","lat":43.304606,"lon":5.379026,"is_reserved":false,"is_disabled":false,"rental_uris":{"android":"levelo://app?vid=4e21ca2b-2f59-4ae8-92c2-5b4f3c86cca8","ios":"levelo://app?vid=4e21ca2b-2f59-4ae8-92c2-5b4f3c86cca8"},"vehicle_type_id":"4","last_reported":1691388538,"current_range_meters":26800,"station_id":"ce4bgup2rcd13ifvqcn0","pricing_plan_id":"free"},{"bike_id":"8c2c67d6-0e9b-4cae-be93-e9a37b6f7cdb","system_id":"levelo_inurba_marseille","lat":43.304606,"lon":5.379026,"is_reserved":false,"is_disabled":false,"rental_uris":{"android":"levelo://app?vid=8c2c67d6-0e9b-4cae-be93-e9a37b6f7cdb","ios":"levelo://app?vid=8c2c67d6-0e9b-4cae-be93-e9a37b6f7cdb"},"vehicle_type_id":"4","last_reported":1691388538,"current_range_meters":9600,"station_id":"ce4bgup2rcd13ifvqcn0","pricing_plan_id":"free"},{"bike_id":"74aeb99a-8bb3-4962-9c6d-15731ae57abc","system_id":"levelo_inurba_marseille","lat":43.304606,"lon":5.379026,"is_reserved":false,"is_disabled":false,"rental_uris":{"android":"levelo://app?vid=74aeb99a-8bb3-4962-9c6d-15731ae57abc","ios":"levelo://app?vid=74aeb99a-8bb3-4962-9c6d-15731ae57abc"},"vehicle_type_id":"4","last_reported":1691388538,"current_range_meters":16400,"station_id":"ce4bgup2rcd13ifvqcn0","pricing_plan_id":"free"},{"bike_id":"de6da4aa-ab7e-405d-9b46-648a8cd6e715","system_id":"levelo_inurba_marseille","lat":43.304606,"lon":5.379026,"is_reserved":false,"is_disabled":false,"rental_uris":{"android":"levelo://app?vid=de6da4aa-ab7e-405d-9b46-648a8cd6e715","ios":"levelo://app?vid=de6da4aa-ab7e-405d-9b46-648a8cd6e715"},"vehicle_type_id":"4","last_reported":1691388538,"current_range_meters":31200,"station_id":"ce4bgup2rcd13ifvqcn0","pricing_plan_id":"free"},{"bike_id":"72fc7672-4a20-49bf-adc4-e6f86e16169b","system_id":"levelo_inurba_marseille","lat":43.304606,"lon":5.379026,"is_reserved":false,"is_disabled":false,"rental_uris":{"android":"levelo://app?vid=72fc7672-4a20-49bf-adc4-e6f86e16169b","ios":"levelo://app?vid=72fc7672-4a20-49bf-adc4-e6f86e16169b"},"vehicle_type_id":"4","last_reported":1691388538,"current_range_meters":24800,"station_id":"ce4bgup2rcd13ifvqcn0","pricing_plan_id":"free"},{"bike_id":"7cc6ff7c-8df1-434c-ab6f-ae92c0e4178b","system_id":"levelo_inurba_marseille","lat":43.304606,"lon":5.379026,"is_reserved":false,"is_disabled":false,"rental_uris":{"android":"levelo://app?vid=7cc6ff7c-8df1-434c-ab6f-ae92c0e4178b","ios":"levelo://app?vid=7cc6ff7c-8df1-434c-ab6f-ae92c0e4178b"},"vehicle_type_id":"4","last_reported":1691388538,"current_range_meters":3600,"station_id":"ce4bgup2rcd13ifvqcn0","pricing_plan_id":"free"},{"bike_id":"bba3d322-8696-49e6-8bc3-83d39fee2121","system_id":"levelo_inurba_marseille","lat":43.304606,"lon":5.379026,"is_reserved":false,"is_disabled":false,"rental_uris":{"android":"levelo://app?vid=bba3d322-8696-49e6-8bc3-83d39fee2121","ios":"levelo://app?vid=bba3d322-8696-49e6-8bc3-83d39fee2121"},"vehicle_type_id":"4","last_reported":1691388538,"current_range_meters":26400,"station_id":"ce4bgup2rcd13ifvqcn0","pricing_plan_id":"free"},{"bike_id":"dc7d1ca1-9399-4cd8-b69a-77e7bfb1aae6","system_id":"levelo_inurba_marseille","lat":43.304606,"lon":5.379026,"is_reserved":false,"is_disabled":false,"rental_uris":{"android":"levelo://app?vid=dc7d1ca1-9399-4cd8-b69a-77e7bfb1aae6","ios":"levelo://app?vid=dc7d1ca1-9399-4cd8-b69a-77e7bfb1aae6"},"vehicle_type_id":"4","last_reported":1691388538,"current_range_meters":22400,"station_id":"ce4bgup2rcd13ifvqcn0","pricing_plan_id":"free"},{"bike_id":"6cd25249-194e-44fc-bc74-ea58d12d69c9","system_id":"levelo_inurba_marseille","lat":43.304606,"lon":5.379026,"is_reserved":false,"is_disabled":false,"rental_uris":{"android":"levelo://app?vid=6cd25249-194e-44fc-bc74-ea58d12d69c9","ios":"levelo://app?vid=6cd25249-194e-44fc-bc74-ea58d12d69c9"},"vehicle_type_id":"4","last_reported":1691388538,"current_range_meters":7200,"station_id":"ce4bgup2rcd13ifvqcn0","pricing_plan_id":"free"},{"bike_id":"1a4d2a60-30e0-4af9-9485-3f64a4a6f698","system_id":"levelo_inurba_marseille","lat":43.304606,"lon":5.379026,"is_reserved":false,"is_disabled":false,"rental_uris":{"android":"levelo://app?vid=1a4d2a60-30e0-4af9-9485-3f64a4a6f698","ios":"levelo://app?vid=1a4d2a60-30e0-4af9-9485-3f64a4a6f698"},"vehicle_type_id":"4","last_reported":1691388538,"current_range_meters":28400,"station_id":"ce4bgup2rcd13ifvqcn0","pricing_plan_id":"free"},{"bike_id":"69e29224-566e-450b-9ba3-621f744d5890","system_id":"levelo_inurba_marseille","lat":43.304606,"lon":5.379026,"is_reserved":false,"is_disabled":false,"rental_uris":{"android":"levelo://app?vid=69e29224-566e-450b-9ba3-621f744d5890","ios":"levelo://app?vid=69e29224-566e-450b-9ba3-621f744d5890"},"vehicle_type_id":"4","last_reported":1691388538,"current_range_meters":14800,"station_id":"ce4bgup2rcd13ifvqcn0","pricing_plan_id":"free"},{"bike_id":"e8f29cdb-45fd-4ee9-b138-b2610ab2f37d","system_id":"levelo_inurba_marseille","lat":43.304606,"lon":5.379026,"is_reserved":false,"is_disabled":false,"rental_uris":{"android":"levelo://app?vid=e8f29cdb-45fd-4ee9-b138-b2610ab2f37d","ios":"levelo://app?vid=e8f29cdb-45fd-4ee9-b138-b2610ab2f37d"},"vehicle_type_id":"4","last_reported":1691388538,"current_range_meters":26800,"station_id":"ce4bgup2rcd13ifvqcn0","pricing_plan_id":"free"},{"bike_id":"477ad7ef-2d15-45d7-b26e-42ea0efabe3d","system_id":"levelo_inurba_marseille","lat":43.304606,"lon":5.379026,"is_reserved":false,"is_disabled":false,"rental_uris":{"android":"levelo://app?vid=477ad7ef-2d15-45d7-b26e-42ea0efabe3d","ios":"levelo://app?vid=477ad7ef-2d15-45d7-b26e-42ea0efabe3d"},"vehicle_type_id":"4","last_reported":1691388538,"current_range_meters":7600,"station_id":"ce4bgup2rcd13ifvqcn0","pricing_plan_id":"free"},{"bike_id":"b8d3ff74-c053-4228-a599-fc76ea721356","system_id":"levelo_inurba_marseille","lat":43.302784,"lon":5.377158,"is_reserved":false,"is_disabled":false,"rental_uris":{"android":"levelo://app?vid=b8d3ff74-c053-4228-a599-fc76ea721356","ios":"levelo://app?vid=b8d3ff74-c053-4228-a599-fc76ea721356"},"vehicle_type_id":"4","last_reported":1691388538,"current_range_meters":4800,"station_id":"ce4bguh2rcd13ifvqcj0","pricing_plan_id":"free"},{"bike_id":"4e76b986-3416-40a1-b0e6-e5c89b1b66f4","system_id":"levelo_inurba_marseille","lat":43.30139,"lon":5.37419,"is_reserved":false,"is_disabled":false,"rental_uris":{"android":"levelo://app?vid=4e76b986-3416-40a1-b0e6-e5c89b1b66f4","ios":"levelo://app?vid=4e76b986-3416-40a1-b0e6-e5c89b1b66f4"},"vehicle_type_id":"4","last_reported":1691388538,"current_range_meters":24800,"station_id":"ce4bgs92rcd13ifvqcc0","pricing_plan_id":"free"},{"bike_id":"9ecb141c-5760-4127-9a9a-2b711e9278d7","system_id":"levelo_inurba_marseille","lat":43.30137,"lon":5.37416,"is_reserved":false,"is_disabled":false,"rental_uris":{"android":"levelo://app?vid=9ecb141c-5760-4127-9a9a-2b711e9278d7","ios":"levelo://app?vid=9ecb141c-5760-4127-9a9a-2b711e9278d7"},"vehicle_type_id":"4","last_reported":1691388538,"current_range_meters":27600,"station_id":"ce4bgs92rcd13ifvqcc0","pricing_plan_id":"free"},{"bike_id":"227e98e4-ed1b-421a-9468-296e3c6fe663","system_id":"levelo_inurba_marseille","lat":43.302784,"lon":5.377158,"is_reserved":false,"is_disabled":false,"rental_uris":{"android":"levelo://app?vid=227e98e4-ed1b-421a-9468-296e3c6fe663","ios":"levelo://app?vid=227e98e4-ed1b-421a-9468-296e3c6fe663"},"vehicle_type_id":"4","last_reported":1691388538,"current_range_meters":30000,"station_id":"ce4bguh2rcd13ifvqcj0","pricing_plan_id":"free"},{"bike_id":"450dcdac-5235-41b1-ba5c-4b53b9620b35","system_id":"levelo_inurba_marseille","lat":43.31988,"lon":5.38148,"is_reserved":false,"is_disabled":false,"rental_uris":{"android":"levelo://app?vid=450dcdac-5235-41b1-ba5c-4b53b9620b35","ios":"levelo://app?vid=450dcdac-5235-41b1-ba5c-4b53b9620b35"},"vehicle_type_id":"4","last_reported":1691388538,"current_range_meters":0,"station_id":"ce4bhr12rcd13ifvqhpg","pricing_plan_id":"free"},{"bike_id":"f1d54d2a-d1d7-40c4-9446-93e6905afa66","system_id":"levelo_inurba_marseille","lat":43.31986,"lon":5.38151,"is_reserved":false,"is_disabled":false,"rental_uris":{"android":"levelo://app?vid=f1d54d2a-d1d7-40c4-9446-93e6905afa66","ios":"levelo://app?vid=f1d54d2a-d1d7-40c4-9446-93e6905afa66"},"vehicle_type_id":"4","last_reported":1691388538,"current_range_meters":28400,"station_id":"ce4bhr12rcd13ifvqhpg","pricing_plan_id":"free"},{"bike_id":"6cd8239f-e390-4e3d-80c8-9e6728a1155e","system_id":"levelo_inurba_marseille","lat":43.31993,"lon":5.38145,"is_reserved":false,"is_disabled":false,"rental_uris":{"android":"levelo://app?vid=6cd8239f-e390-4e3d-80c8-9e6728a1155e","ios":"levelo://app?vid=6cd8239f-e390-4e3d-80c8-9e6728a1155e"},"vehicle_type_id":"4","last_reported":1691388538,"current_range_meters":28800,"station_id":"ce4bhr12rcd13ifvqhpg","pricing_plan_id":"free"},{"bike_id":"91c1e68c-072c-41ed-ab7d-e40ec14976ba","system_id":"levelo_inurba_marseille","lat":43.31994,"lon":5.38153,"is_reserved":false,"is_disabled":false,"rental_uris":{"android":"levelo://app?vid=91c1e68c-072c-41ed-ab7d-e40ec14976ba","ios":"levelo://app?vid=91c1e68c-072c-41ed-ab7d-e40ec14976ba"},"vehicle_type_id":"4","last_reported":1691388538,"current_range_meters":30000,"station_id":"ce4bhr12rcd13ifvqhpg","pricing_plan_id":"free"},{"bike_id":"6099e017-02a5-43a9-b4e0-3688526986e2","system_id":"levelo_inurba_marseille","lat":43.31995,"lon":5.38153,"is_reserved":false,"is_disabled":false,"rental_uris":{"android":"levelo://app?vid=6099e017-02a5-43a9-b4e0-3688526986e2","ios":"levelo://app?vid=6099e017-02a5-43a9-b4e0-3688526986e2"},"vehicle_type_id":"4","last_reported":1691388538,"current_range_meters":7200,"station_id":"ce4bhr12rcd13ifvqhpg","pricing_plan_id":"free"},{"bike_id":"04fdd430-749a-4bb6-bb72-f108fb3d8da7","system_id":"levelo_inurba_marseille","lat":43.31988,"lon":5.38161,"is_reserved":false,"is_disabled":false,"rental_uris":{"android":"levelo://app?vid=04fdd430-749a-4bb6-bb72-f108fb3d8da7","ios":"levelo://app?vid=04fdd430-749a-4bb6-bb72-f108fb3d8da7"},"vehicle_type_id":"4","last_reported":1691388538,"current_range_meters":21200,"station_id":"ce4bhr12rcd13ifvqhpg","pricing_plan_id":"free"},{"bike_id":"4d7d4c19-8461-4a8e-a573-d5b2ac05aff3","system_id":"levelo_inurba_marseille","lat":43.31998,"lon":5.38153,"is_reserved":false,"is_disabled":false,"rental_uris":{"android":"levelo://app?vid=4d7d4c19-8461-4a8e-a573-d5b2ac05aff3","ios":"levelo://app?vid=4d7d4c19-8461-4a8e-a573-d5b2ac05aff3"},"vehicle_type_id":"4","last_reported":1691388538,"current_range_meters":23600,"station_id":"ce4bhr12rcd13ifvqhpg","pricing_plan_id":"free"},{"bike_id":"1c6335af-7680-4568-b42f-a96647a6c0e9","system_id":"levelo_inurba_marseille","lat":43.31997,"lon":5.38168,"is_reserved":false,"is_disabled":false,"rental_uris":{"android":"levelo://app?vid=1c6335af-7680-4568-b42f-a96647a6c0e9","ios":"levelo://app?vid=1c6335af-7680-4568-b42f-a96647a6c0e9"},"vehicle_type_id":"4","last_reported":1691388538,"current_range_meters":30000,"station_id":"ce4bhr12rcd13ifvqhpg","pricing_plan_id":"free"},{"bike_id":"8baa2092-0b7d-41f8-a6d5-b74dc73e6833","system_id":"levelo_inurba_marseille","lat":43.313571,"lon":5.384829,"is_reserved":false,"is_disabled":false,"rental_uris":{"android":"levelo://app?vid=8baa2092-0b7d-41f8-a6d5-b74dc73e6833","ios":"levelo://app?vid=8baa2092-0b7d-41f8-a6d5-b74dc73e6833"},"vehicle_type_id":"4","last_reported":1691388538,"current_range_meters":24400,"station_id":"ce4bgt92rcd13ifvqcf0","pricing_plan_id":"free"},{"bike_id":"f7b187c1-96ca-4e77-9bdb-430d5ffe07ae","system_id":"levelo_inurba_marseille","lat":43.31371,"lon":5.38497,"is_reserved":false,"is_disabled":false,"rental_uris":{"android":"levelo://app?vid=f7b187c1-96ca-4e77-9bdb-430d5ffe07ae","ios":"levelo://app?vid=f7b187c1-96ca-4e77-9bdb-430d5ffe07ae"},"vehicle_type_id":"4","last_reported":1691388538,"current_range_meters":29600,"station_id":"ce4bgt92rcd13ifvqcf0","pricing_plan_id":"free"},{"bike_id":"4133e1cc-c926-4c97-8d72-83cff45e2d30","system_id":"levelo_inurba_marseille","lat":43.313571,"lon":5.384829,"is_reserved":false,"is_disabled":false,"rental_uris":{"android":"levelo://app?vid=4133e1cc-c926-4c97-8d72-83cff45e2d30","ios":"levelo://app?vid=4133e1cc-c926-4c97-8d72-83cff45e2d30"},"vehicle_type_id":"4","last_reported":1691388538,"current_range_meters":31200,"station_id":"ce4bgt92rcd13ifvqcf0","pricing_plan_id":"free"},{"bike_id":"a2650c5e-3c7f-4110-80d6-1b38a9528693","system_id":"levelo_inurba_marseille","lat":43.299724,"lon":5.371829,"is_reserved":false,"is_disabled":false,"rental_uris":{"android":"levelo://app?vid=a2650c5e-3c7f-4110-80d6-1b38a9528693","ios":"levelo://app?vid=a2650c5e-3c7f-4110-80d6-1b38a9528693"},"vehicle_type_id":"4","last_reported":1691388538,"current_range_meters":30800,"station_id":"ce4bgr92rcd13ifvqc7g","pricing_plan_id":"free"},{"bike_id":"c3dba9dc-5c4b-4d48-8292-91c39e412c59","system_id":"levelo_inurba_marseille","lat":43.29849,"lon":5.36286,"is_reserved":false,"is_disabled":false,"rental_uris":{"android":"levelo://app?vid=c3dba9dc-5c4b-4d48-8292-91c39e412c59","ios":"levelo://app?vid=c3dba9dc-5c4b-4d48-8292-91c39e412c59"},"vehicle_type_id":"4","last_reported":1691388538,"current_range_meters":25200,"station_id":"ce4bgpp2rcd13ifvqc3g","pricing_plan_id":"free"},{"bike_id":"30537d43-af02-4a10-b928-7b9b8cf633d2","system_id":"levelo_inurba_marseille","lat":43.305349,"lon":5.384196,"is_reserved":false,"is_disabled":false,"rental_uris":{"android":"levelo://app?vid=30537d43-af02-4a10-b928-7b9b8cf633d2","ios":"levelo://app?vid=30537d43-af02-4a10-b928-7b9b8cf633d2"},"vehicle_type_id":"4","last_reported":1691388538,"current_range_meters":28800,"station_id":"ce4bgg92rcd13ifvqb30","pricing_plan_id":"free"},{"bike_id":"573d7b9a-0672-400b-bd39-92eef911d8f9","system_id":"levelo_inurba_marseille","lat":43.298433,"lon":5.362774,"is_reserved":false,"is_disabled":false,"rental_uris":{"android":"levelo://app?vid=573d7b9a-0672-400b-bd39-92eef911d8f9","ios":"levelo://app?vid=573d7b9a-0672-400b-bd39-92eef911d8f9"},"vehicle_type_id":"4","last_reported":1691388538,"current_range_meters":26000,"station_id":"ce4bgpp2rcd13ifvqc3g","pricing_plan_id":"free"},{"bike_id":"0363dd39-78fe-4ce6-813f-d8548a1b151f","system_id":"levelo_inurba_marseille","lat":43.311722,"lon":5.387247,"is_reserved":false,"is_disabled":false,"rental_uris":{"android":"levelo://app?vid=0363dd39-78fe-4ce6-813f-d8548a1b151f","ios":"levelo://app?vid=0363dd39-78fe-4ce6-813f-d8548a1b151f"},"vehicle_type_id":"4","last_reported":1691388538,"current_range_meters":17600,"station_id":"ce4bgv12rcd13ifvqcp0","pricing_plan_id":"free"},{"bike_id":"7ed92950-7c89-4f47-bcd6-609b71044233","system_id":"levelo_inurba_marseille","lat":43.311722,"lon":5.387247,"is_reserved":false,"is_disabled":false,"rental_uris":{"android":"levelo://app?vid=7ed92950-7c89-4f47-bcd6-609b71044233","ios":"levelo://app?vid=7ed92950-7c89-4f47-bcd6-609b71044233"},"vehicle_type_id":"4","last_reported":1691388538,"current_range_meters":30000,"station_id":"ce4bgv12rcd13ifvqcp0","pricing_plan_id":"free"},{"bike_id":"0dfe96a1-249c-49dc-addc-538dc6fef251","system_id":"levelo_inurba_marseille","lat":43.311722,"lon":5.387247,"is_reserved":false,"is_disabled":false,"rental_uris":{"android":"levelo://app?vid=0dfe96a1-249c-49dc-addc-538dc6fef251","ios":"levelo://app?vid=0dfe96a1-249c-49dc-addc-538dc6fef251"},"vehicle_type_id":"4","last_reported":1691388538,"current_range_meters":29600,"station_id":"ce4bgv12rcd13ifvqcp0","pricing_plan_id":"free"},{"bike_id":"15b2f289-e8da-4c30-a721-2cf15799ace1","system_id":"levelo_inurba_marseille","lat":43.322872,"lon":5.382756,"is_reserved":false,"is_disabled":false,"rental_uris":{"android":"levelo://app?vid=15b2f289-e8da-4c30-a721-2cf15799ace1","ios":"levelo://app?vid=15b2f289-e8da-4c30-a721-2cf15799ace1"},"vehicle_type_id":"4","last_reported":1691388538,"current_range_meters":17200,"station_id":"ce4bhr12rcd13ifvqhqg","pricing_plan_id":"free"},{"bike_id":"a0485310-fa78-4415-bbc8-4ad1fa2de866","system_id":"levelo_inurba_marseille","lat":43.322872,"lon":5.382756,"is_reserved":false,"is_disabled":false,"rental_uris":{"android":"levelo://app?vid=a0485310-fa78-4415-bbc8-4ad1fa2de866","ios":"levelo://app?vid=a0485310-fa78-4415-bbc8-4ad1fa2de866"},"vehicle_type_id":"4","last_reported":1691388538,"current_range_meters":8000,"station_id":"ce4bhr12rcd13ifvqhqg","pricing_plan_id":"free"},{"bike_id":"72e55087-1743-4791-9a47-9d21b4b7d554","system_id":"levelo_inurba_marseille","lat":43.32289,"lon":5.38281,"is_reserved":false,"is_disabled":false,"rental_uris":{"android":"levelo://app?vid=72e55087-1743-4791-9a47-9d21b4b7d554","ios":"levelo://app?vid=72e55087-1743-4791-9a47-9d21b4b7d554"},"vehicle_type_id":"4","last_reported":1691388538,"current_range_meters":30400,"station_id":"ce4bhr12rcd13ifvqhqg","pricing_plan_id":"free"},{"bike_id":"f562e7f4-c8e9-4e03-8306-6a3dc24dbf74","system_id":"levelo_inurba_marseille","lat":43.3229,"lon":5.38282,"is_reserved":false,"is_disabled":false,"rental_uris":{"android":"levelo://app?vid=f562e7f4-c8e9-4e03-8306-6a3dc24dbf74","ios":"levelo://app?vid=f562e7f4-c8e9-4e03-8306-6a3dc24dbf74"},"vehicle_type_id":"4","last_reported":1691388538,"current_range_meters":20400,"station_id":"ce4bhr12rcd13ifvqhqg","pricing_plan_id":"free"},{"bike_id":"ec6265cf-d081-408f-9294-49db3d021314","system_id":"levelo_inurba_marseille","lat":43.322872,"lon":5.382756,"is_reserved":false,"is_disabled":false,"rental_uris":{"android":"levelo://app?vid=ec6265cf-d081-408f-9294-49db3d021314","ios":"levelo://app?vid=ec6265cf-d081-408f-9294-49db3d021314"},"vehicle_type_id":"4","last_reported":1691388538,"current_range_meters":14000,"station_id":"ce4bhr12rcd13ifvqhqg","pricing_plan_id":"free"},{"bike_id":"b441a352-ea26-492c-9fcb-9e0505e7eaae","system_id":"levelo_inurba_marseille","lat":43.322872,"lon":5.382756,"is_reserved":false,"is_disabled":false,"rental_uris":{"android":"levelo://app?vid=b441a352-ea26-492c-9fcb-9e0505e7eaae","ios":"levelo://app?vid=b441a352-ea26-492c-9fcb-9e0505e7eaae"},"vehicle_type_id":"4","last_reported":1691388538,"current_range_meters":24800,"station_id":"ce4bhr12rcd13ifvqhqg","pricing_plan_id":"free"},{"bike_id":"1bde9b36-d98e-4187-ba99-bffb46e74f58","system_id":"levelo_inurba_marseille","lat":43.328371,"lon":5.366909,"is_reserved":false,"is_disabled":false,"rental_uris":{"android":"levelo://app?vid=1bde9b36-d98e-4187-ba99-bffb46e74f58","ios":"levelo://app?vid=1bde9b36-d98e-4187-ba99-bffb46e74f58"},"vehicle_type_id":"4","last_reported":1691388538,"current_range_meters":31200,"station_id":"ce4bhs92rcd13ifvqi0g","pricing_plan_id":"free"},{"bike_id":"6a5c9287-6ab2-48fd-9cf1-66f1b3d9c1bf","system_id":"levelo_inurba_marseille","lat":43.32821,"lon":5.36682,"is_reserved":false,"is_disabled":false,"rental_uris":{"android":"levelo://app?vid=6a5c9287-6ab2-48fd-9cf1-66f1b3d9c1bf","ios":"levelo://app?vid=6a5c9287-6ab2-48fd-9cf1-66f1b3d9c1bf"},"vehicle_type_id":"4","last_reported":1691388538,"current_range_meters":30400,"station_id":"ce4bhs92rcd13ifvqi0g","pricing_plan_id":"free"},{"bike_id":"bf4a0016-24b8-4a88-b88f-1624c511c71a","system_id":"levelo_inurba_marseille","lat":43.32823,"lon":5.36679,"is_reserved":false,"is_disabled":false,"rental_uris":{"android":"levelo://app?vid=bf4a0016-24b8-4a88-b88f-1624c511c71a","ios":"levelo://app?vid=bf4a0016-24b8-4a88-b88f-1624c511c71a"},"vehicle_type_id":"4","last_reported":1691388538,"current_range_meters":31200,"station_id":"ce4bhs92rcd13ifvqi0g","pricing_plan_id":"free"},{"bike_id":"5836a1e4-4588-49af-9855-adde616cd7f7","system_id":"levelo_inurba_marseille","lat":43.328371,"lon":5.366909,"is_reserved":false,"is_disabled":false,"rental_uris":{"android":"levelo://app?vid=5836a1e4-4588-49af-9855-adde616cd7f7","ios":"levelo://app?vid=5836a1e4-4588-49af-9855-adde616cd7f7"},"vehicle_type_id":"4","last_reported":1691388538,"current_range_meters":16000,"station_id":"ce4bhs92rcd13ifvqi0g","pricing_plan_id":"free"},{"bike_id":"9263aba1-2fd2-4494-8a37-d5d0a062433a","system_id":"levelo_inurba_marseille","lat":43.32825,"lon":5.36689,"is_reserved":false,"is_disabled":false,"rental_uris":{"android":"levelo://app?vid=9263aba1-2fd2-4494-8a37-d5d0a062433a","ios":"levelo://app?vid=9263aba1-2fd2-4494-8a37-d5d0a062433a"},"vehicle_type_id":"4","last_reported":1691388538,"current_range_meters":30800,"station_id":"ce4bhs92rcd13ifvqi0g","pricing_plan_id":"free"},{"bike_id":"5598ba69-7d08-42d1-9376-d503db4ba6c0","system_id":"levelo_inurba_marseille","lat":43.32825,"lon":5.36675,"is_reserved":false,"is_disabled":false,"rental_uris":{"android":"levelo://app?vid=5598ba69-7d08-42d1-9376-d503db4ba6c0","ios":"levelo://app?vid=5598ba69-7d08-42d1-9376-d503db4ba6c0"},"vehicle_type_id":"4","last_reported":1691388538,"current_range_meters":31200,"station_id":"ce4bhs92rcd13ifvqi0g","pricing_plan_id":"free"},{"bike_id":"c3ed3fb3-8b24-487c-a370-6bed2eb9ba48","system_id":"levelo_inurba_marseille","lat":43.328371,"lon":5.366909,"is_reserved":false,"is_disabled":false,"rental_uris":{"android":"levelo://app?vid=c3ed3fb3-8b24-487c-a370-6bed2eb9ba48","ios":"levelo://app?vid=c3ed3fb3-8b24-487c-a370-6bed2eb9ba48"},"vehicle_type_id":"4","last_reported":1691388538,"current_range_meters":18800,"station_id":"ce4bhs92rcd13ifvqi0g","pricing_plan_id":"free"},{"bike_id":"662f058c-a03f-4220-9182-f974f75d5bf8","system_id":"levelo_inurba_marseille","lat":43.32827,"lon":5.36683,"is_reserved":false,"is_disabled":false,"rental_uris":{"android":"levelo://app?vid=662f058c-a03f-4220-9182-f974f75d5bf8","ios":"levelo://app?vid=662f058c-a03f-4220-9182-f974f75d5bf8"},"vehicle_type_id":"4","last_reported":1691388538,"current_range_meters":27200,"station_id":"ce4bhs92rcd13ifvqi0g","pricing_plan_id":"free"},{"bike_id":"c17a40b5-082b-47ab-af23-2ddbccb368d3","system_id":"levelo_inurba_marseille","lat":43.32828,"lon":5.3669,"is_reserved":false,"is_disabled":false,"rental_uris":{"android":"levelo://app?vid=c17a40b5-082b-47ab-af23-2ddbccb368d3","ios":"levelo://app?vid=c17a40b5-082b-47ab-af23-2ddbccb368d3"},"vehicle_type_id":"4","last_reported":1691388538,"current_range_meters":30000,"station_id":"ce4bhs92rcd13ifvqi0g","pricing_plan_id":"free"},{"bike_id":"a87afb56-1815-4c8a-b2a9-994cf8900bcc","system_id":"levelo_inurba_marseille","lat":43.328371,"lon":5.366909,"is_reserved":false,"is_disabled":false,"rental_uris":{"android":"levelo://app?vid=a87afb56-1815-4c8a-b2a9-994cf8900bcc","ios":"levelo://app?vid=a87afb56-1815-4c8a-b2a9-994cf8900bcc"},"vehicle_type_id":"4","last_reported":1691388538,"current_range_meters":31200,"station_id":"ce4bhs92rcd13ifvqi0g","pricing_plan_id":"free"},{"bike_id":"dd789220-e7b5-42c1-b9dc-dc4243148021","system_id":"levelo_inurba_marseille","lat":43.297163,"lon":5.365866,"is_reserved":false,"is_disabled":false,"rental_uris":{"android":"levelo://app?vid=dd789220-e7b5-42c1-b9dc-dc4243148021","ios":"levelo://app?vid=dd789220-e7b5-42c1-b9dc-dc4243148021"},"vehicle_type_id":"4","last_reported":1691388538,"current_range_meters":31200,"station_id":"ce4bgn12rcd13ifvqbt0","pricing_plan_id":"free"},{"bike_id":"15b3b91e-c1fa-4c92-8abb-dfa7de694581","system_id":"levelo_inurba_marseille","lat":43.32859,"lon":5.36639,"is_reserved":false,"is_disabled":false,"rental_uris":{"android":"levelo://app?vid=15b3b91e-c1fa-4c92-8abb-dfa7de694581","ios":"levelo://app?vid=15b3b91e-c1fa-4c92-8abb-dfa7de694581"},"vehicle_type_id":"4","last_reported":1691388538,"current_range_meters":31200,"station_id":"ce4bhs92rcd13ifvqi0g","pricing_plan_id":"free"},{"bike_id":"36f46664-3d43-4395-8564-ff6769064b32","system_id":"levelo_inurba_marseille","lat":43.299028,"lon":5.381509,"is_reserved":false,"is_disabled":false,"rental_uris":{"android":"levelo://app?vid=36f46664-3d43-4395-8564-ff6769064b32","ios":"levelo://app?vid=36f46664-3d43-4395-8564-ff6769064b32"},"vehicle_type_id":"4","last_reported":1691388538,"current_range_meters":5600,"station_id":"ce4bgj12rcd13ifvqbc0","pricing_plan_id":"free"},{"bike_id":"e92bfea7-a9eb-4570-9392-cd4b1c9d3d0b","system_id":"levelo_inurba_marseille","lat":43.299028,"lon":5.381509,"is_reserved":false,"is_disabled":false,"rental_uris":{"android":"levelo://app?vid=e92bfea7-a9eb-4570-9392-cd4b1c9d3d0b","ios":"levelo://app?vid=e92bfea7-a9eb-4570-9392-cd4b1c9d3d0b"},"vehicle_type_id":"4","last_reported":1691388538,"current_range_meters":30400,"station_id":"ce4bgj12rcd13ifvqbc0","pricing_plan_id":"free"},{"bike_id":"f2fe2ee1-4797-4dbe-96d1-877e09f96d67","system_id":"levelo_inurba_marseille","lat":43.309589,"lon":5.390258,"is_reserved":false,"is_disabled":false,"rental_uris":{"android":"levelo://app?vid=f2fe2ee1-4797-4dbe-96d1-877e09f96d67","ios":"levelo://app?vid=f2fe2ee1-4797-4dbe-96d1-877e09f96d67"},"vehicle_type_id":"4","last_reported":1691388538,"current_range_meters":10000,"station_id":"ce4bgup2rcd13ifvqco0","pricing_plan_id":"free"},{"bike_id":"53cabfe2-b097-46fb-b331-e78c021727d9","system_id":"levelo_inurba_marseille","lat":43.298037,"lon":5.381066,"is_reserved":false,"is_disabled":false,"rental_uris":{"android":"levelo://app?vid=53cabfe2-b097-46fb-b331-e78c021727d9","ios":"levelo://app?vid=53cabfe2-b097-46fb-b331-e78c021727d9"},"vehicle_type_id":"4","last_reported":1691388538,"current_range_meters":13600,"station_id":"ce4bgip2rcd13ifvqbb0","pricing_plan_id":"free"},{"bike_id":"6b6dd00c-1ee4-475b-8f85-97563ea11815","system_id":"levelo_inurba_marseille","lat":43.295748,"lon":5.37522,"is_reserved":false,"is_disabled":false,"rental_uris":{"android":"levelo://app?vid=6b6dd00c-1ee4-475b-8f85-97563ea11815","ios":"levelo://app?vid=6b6dd00c-1ee4-475b-8f85-97563ea11815"},"vehicle_type_id":"4","last_reported":1691388538,"current_range_meters":18800,"station_id":"ce4bgh92rcd13ifvqb50","pricing_plan_id":"free"},{"bike_id":"32eb4763-395b-4ac3-8f9d-7d0c5c08cad8","system_id":"levelo_inurba_marseille","lat":43.295748,"lon":5.37522,"is_reserved":false,"is_disabled":false,"rental_uris":{"android":"levelo://app?vid=32eb4763-395b-4ac3-8f9d-7d0c5c08cad8","ios":"levelo://app?vid=32eb4763-395b-4ac3-8f9d-7d0c5c08cad8"},"vehicle_type_id":"4","last_reported":1691388538,"current_range_meters":18400,"station_id":"ce4bgh92rcd13ifvqb50","pricing_plan_id":"free"},{"bike_id":"e494be2b-7e1a-4047-9457-f07636f3c7db","system_id":"levelo_inurba_marseille","lat":43.295748,"lon":5.37522,"is_reserved":false,"is_disabled":false,"rental_uris":{"android":"levelo://app?vid=e494be2b-7e1a-4047-9457-f07636f3c7db","ios":"levelo://app?vid=e494be2b-7e1a-4047-9457-f07636f3c7db"},"vehicle_type_id":"4","last_reported":1691388538,"current_range_meters":14000,"station_id":"ce4bgh92rcd13ifvqb50","pricing_plan_id":"free"},{"bike_id":"a4df99ce-0488-49dd-a888-94686f562e88","system_id":"levelo_inurba_marseille","lat":43.295748,"lon":5.37522,"is_reserved":false,"is_disabled":false,"rental_uris":{"android":"levelo://app?vid=a4df99ce-0488-49dd-a888-94686f562e88","ios":"levelo://app?vid=a4df99ce-0488-49dd-a888-94686f562e88"},"vehicle_type_id":"4","last_reported":1691388538,"current_range_meters":31200,"station_id":"ce4bgh92rcd13ifvqb50","pricing_plan_id":"free"},{"bike_id":"ba92f3a0-2eb5-4904-968c-7a9700820e29","system_id":"levelo_inurba_marseille","lat":43.295748,"lon":5.37522,"is_reserved":false,"is_disabled":false,"rental_uris":{"android":"levelo://app?vid=ba92f3a0-2eb5-4904-968c-7a9700820e29","ios":"levelo://app?vid=ba92f3a0-2eb5-4904-968c-7a9700820e29"},"vehicle_type_id":"4","last_reported":1691388538,"current_range_meters":31200,"station_id":"ce4bgh92rcd13ifvqb50","pricing_plan_id":"free"},{"bike_id":"98bccfb9-0032-49c4-8dbe-526b9518abac","system_id":"levelo_inurba_marseille","lat":43.295748,"lon":5.37522,"is_reserved":false,"is_disabled":false,"rental_uris":{"android":"levelo://app?vid=98bccfb9-0032-49c4-8dbe-526b9518abac","ios":"levelo://app?vid=98bccfb9-0032-49c4-8dbe-526b9518abac"},"vehicle_type_id":"4","last_reported":1691388538,"current_range_meters":30000,"station_id":"ce4bgh92rcd13ifvqb50","pricing_plan_id":"free"},{"bike_id":"31e09307-a902-4491-8a56-40dcf8548ac9","system_id":"levelo_inurba_marseille","lat":43.298037,"lon":5.381066,"is_reserved":false,"is_disabled":false,"rental_uris":{"android":"levelo://app?vid=31e09307-a902-4491-8a56-40dcf8548ac9","ios":"levelo://app?vid=31e09307-a902-4491-8a56-40dcf8548ac9"},"vehicle_type_id":"4","last_reported":1691388538,"current_range_meters":30000,"station_id":"ce4bgip2rcd13ifvqbb0","pricing_plan_id":"free"},{"bike_id":"eac0d5ab-76e3-4f69-9d02-3c6d8f5ce76a","system_id":"levelo_inurba_marseille","lat":43.295748,"lon":5.37522,"is_reserved":false,"is_disabled":false,"rental_uris":{"android":"levelo://app?vid=eac0d5ab-76e3-4f69-9d02-3c6d8f5ce76a","ios":"levelo://app?vid=eac0d5ab-76e3-4f69-9d02-3c6d8f5ce76a"},"vehicle_type_id":"4","last_reported":1691388538,"current_range_meters":26800,"station_id":"ce4bgh92rcd13ifvqb50","pricing_plan_id":"free"},{"bike_id":"93f09f63-c613-427d-9cd1-a2db1f8af46f","system_id":"levelo_inurba_marseille","lat":43.296277,"lon":5.377108,"is_reserved":false,"is_disabled":false,"rental_uris":{"android":"levelo://app?vid=93f09f63-c613-427d-9cd1-a2db1f8af46f","ios":"levelo://app?vid=93f09f63-c613-427d-9cd1-a2db1f8af46f"},"vehicle_type_id":"4","last_reported":1691388538,"current_range_meters":9200,"station_id":"ce4bgi92rcd13ifvqb90","pricing_plan_id":"free"},{"bike_id":"ba0bdc22-8bbb-4771-a9c9-549c1ae5bc4c","system_id":"levelo_inurba_marseille","lat":43.295748,"lon":5.37522,"is_reserved":false,"is_disabled":false,"rental_uris":{"android":"levelo://app?vid=ba0bdc22-8bbb-4771-a9c9-549c1ae5bc4c","ios":"levelo://app?vid=ba0bdc22-8bbb-4771-a9c9-549c1ae5bc4c"},"vehicle_type_id":"4","last_reported":1691388538,"current_range_meters":28400,"station_id":"ce4bgh92rcd13ifvqb50","pricing_plan_id":"free"},{"bike_id":"c697f1e5-5d97-4a0a-a42c-2438350dae9a","system_id":"levelo_inurba_marseille","lat":43.295748,"lon":5.37522,"is_reserved":false,"is_disabled":false,"rental_uris":{"android":"levelo://app?vid=c697f1e5-5d97-4a0a-a42c-2438350dae9a","ios":"levelo://app?vid=c697f1e5-5d97-4a0a-a42c-2438350dae9a"},"vehicle_type_id":"4","last_reported":1691388538,"current_range_meters":30000,"station_id":"ce4bgh92rcd13ifvqb50","pricing_plan_id":"free"},{"bike_id":"ac488aa8-102b-4370-81f6-b3e138597ca4","system_id":"levelo_inurba_marseille","lat":43.296263,"lon":5.377094,"is_reserved":false,"is_disabled":false,"rental_uris":{"android":"levelo://app?vid=ac488aa8-102b-4370-81f6-b3e138597ca4","ios":"levelo://app?vid=ac488aa8-102b-4370-81f6-b3e138597ca4"},"vehicle_type_id":"4","last_reported":1691388538,"current_range_meters":27600,"station_id":"ce4bgi92rcd13ifvqb90","pricing_plan_id":"free"},{"bike_id":"f5e0f12e-1613-4db5-8aa4-f6af75101f53","system_id":"levelo_inurba_marseille","lat":43.29593,"lon":5.37705,"is_reserved":false,"is_disabled":false,"rental_uris":{"android":"levelo://app?vid=f5e0f12e-1613-4db5-8aa4-f6af75101f53","ios":"levelo://app?vid=f5e0f12e-1613-4db5-8aa4-f6af75101f53"},"vehicle_type_id":"4","last_reported":1691388538,"current_range_meters":26800,"station_id":"ce4bgi92rcd13ifvqb90","pricing_plan_id":"free"},{"bike_id":"f0382423-111c-45eb-afd3-7fcbdccf785f","system_id":"levelo_inurba_marseille","lat":43.29528,"lon":5.37499,"is_reserved":false,"is_disabled":false,"rental_uris":{"android":"levelo://app?vid=f0382423-111c-45eb-afd3-7fcbdccf785f","ios":"levelo://app?vid=f0382423-111c-45eb-afd3-7fcbdccf785f"},"vehicle_type_id":"4","last_reported":1691388538,"current_range_meters":30000,"station_id":"ce4bgkp2rcd13ifvqbmg","pricing_plan_id":"free"},{"bike_id":"e34957c4-c8e2-432e-8235-d14f4b027443","system_id":"levelo_inurba_marseille","lat":43.32367,"lon":5.388836,"is_reserved":false,"is_disabled":false,"rental_uris":{"android":"levelo://app?vid=e34957c4-c8e2-432e-8235-d14f4b027443","ios":"levelo://app?vid=e34957c4-c8e2-432e-8235-d14f4b027443"},"vehicle_type_id":"4","last_reported":1691388538,"current_range_meters":31200,"station_id":"ce4bhqp2rcd13ifvqhog","pricing_plan_id":"free"},{"bike_id":"31c4ebe8-2a4f-41b7-966a-7ad502ff3d8a","system_id":"levelo_inurba_marseille","lat":43.32367,"lon":5.388836,"is_reserved":false,"is_disabled":false,"rental_uris":{"android":"levelo://app?vid=31c4ebe8-2a4f-41b7-966a-7ad502ff3d8a","ios":"levelo://app?vid=31c4ebe8-2a4f-41b7-966a-7ad502ff3d8a"},"vehicle_type_id":"4","last_reported":1691388538,"current_range_meters":11600,"station_id":"ce4bhqp2rcd13ifvqhog","pricing_plan_id":"free"},{"bike_id":"61d0c994-8239-4700-ad07-a29b0aeee26a","system_id":"levelo_inurba_marseille","lat":43.32367,"lon":5.38885,"is_reserved":false,"is_disabled":false,"rental_uris":{"android":"levelo://app?vid=61d0c994-8239-4700-ad07-a29b0aeee26a","ios":"levelo://app?vid=61d0c994-8239-4700-ad07-a29b0aeee26a"},"vehicle_type_id":"4","last_reported":1691388538,"current_range_meters":7600,"station_id":"ce4bhqp2rcd13ifvqhog","pricing_plan_id":"free"},{"bike_id":"6be534a9-96c6-4989-b3bb-e9dea76376c4","system_id":"levelo_inurba_marseille","lat":43.32368,"lon":5.38885,"is_reserved":false,"is_disabled":false,"rental_uris":{"android":"levelo://app?vid=6be534a9-96c6-4989-b3bb-e9dea76376c4","ios":"levelo://app?vid=6be534a9-96c6-4989-b3bb-e9dea76376c4"},"vehicle_type_id":"4","last_reported":1691388538,"current_range_meters":24000,"station_id":"ce4bhqp2rcd13ifvqhog","pricing_plan_id":"free"},{"bike_id":"e5409f2e-ea42-4d5c-acbd-5b6e7f6721bb","system_id":"levelo_inurba_marseille","lat":43.299707,"lon":5.384859,"is_reserved":false,"is_disabled":false,"rental_uris":{"android":"levelo://app?vid=e5409f2e-ea42-4d5c-acbd-5b6e7f6721bb","ios":"levelo://app?vid=e5409f2e-ea42-4d5c-acbd-5b6e7f6721bb"},"vehicle_type_id":"4","last_reported":1691388538,"current_range_meters":22000,"station_id":"ce4bgj92rcd13ifvqbd0","pricing_plan_id":"free"},{"bike_id":"2d5eb850-0eb4-4e25-a186-12a0d0928b66","system_id":"levelo_inurba_marseille","lat":43.292749,"lon":5.368402,"is_reserved":false,"is_disabled":false,"rental_uris":{"android":"levelo://app?vid=2d5eb850-0eb4-4e25-a186-12a0d0928b66","ios":"levelo://app?vid=2d5eb850-0eb4-4e25-a186-12a0d0928b66"},"vehicle_type_id":"4","last_reported":1691388538,"current_range_meters":29600,"station_id":"ce4bhbp2rcd13ifvqesg","pricing_plan_id":"free"},{"bike_id":"4aea1c24-45b0-4406-b570-a6f58e908f09","system_id":"levelo_inurba_marseille","lat":43.29312,"lon":5.37189,"is_reserved":false,"is_disabled":false,"rental_uris":{"android":"levelo://app?vid=4aea1c24-45b0-4406-b570-a6f58e908f09","ios":"levelo://app?vid=4aea1c24-45b0-4406-b570-a6f58e908f09"},"vehicle_type_id":"4","last_reported":1691388538,"current_range_meters":29600,"station_id":"ce4bgh92rcd13ifvqb40","pricing_plan_id":"free"},{"bike_id":"4f592a78-66a0-4644-bdc6-da0b4c6667d7","system_id":"levelo_inurba_marseille","lat":43.29307,"lon":5.37172,"is_reserved":false,"is_disabled":false,"rental_uris":{"android":"levelo://app?vid=4f592a78-66a0-4644-bdc6-da0b4c6667d7","ios":"levelo://app?vid=4f592a78-66a0-4644-bdc6-da0b4c6667d7"},"vehicle_type_id":"4","last_reported":1691388538,"current_range_meters":31200,"station_id":"ce4bgh92rcd13ifvqb40","pricing_plan_id":"free"},{"bike_id":"d33ba127-97fb-461e-af61-3178862be8e5","system_id":"levelo_inurba_marseille","lat":43.29308,"lon":5.3718,"is_reserved":false,"is_disabled":false,"rental_uris":{"android":"levelo://app?vid=d33ba127-97fb-461e-af61-3178862be8e5","ios":"levelo://app?vid=d33ba127-97fb-461e-af61-3178862be8e5"},"vehicle_type_id":"4","last_reported":1691388538,"current_range_meters":31200,"station_id":"ce4bgh92rcd13ifvqb40","pricing_plan_id":"free"},{"bike_id":"2fcab971-fec2-427b-81d7-9d686e244ce4","system_id":"levelo_inurba_marseille","lat":43.29306,"lon":5.37181,"is_reserved":false,"is_disabled":false,"rental_uris":{"android":"levelo://app?vid=2fcab971-fec2-427b-81d7-9d686e244ce4","ios":"levelo://app?vid=2fcab971-fec2-427b-81d7-9d686e244ce4"},"vehicle_type_id":"4","last_reported":1691388538,"current_range_meters":27600,"station_id":"ce4bgh92rcd13ifvqb40","pricing_plan_id":"free"},{"bike_id":"df44648e-7ccb-4490-b819-7442e1774370","system_id":"levelo_inurba_marseille","lat":43.292749,"lon":5.368398,"is_reserved":false,"is_disabled":false,"rental_uris":{"android":"levelo://app?vid=df44648e-7ccb-4490-b819-7442e1774370","ios":"levelo://app?vid=df44648e-7ccb-4490-b819-7442e1774370"},"vehicle_type_id":"4","last_reported":1691388538,"current_range_meters":29600,"station_id":"ce4bhbp2rcd13ifvqesg","pricing_plan_id":"free"},{"bike_id":"77410617-b89a-4d6b-8736-4a66c766f938","system_id":"levelo_inurba_marseille","lat":43.292749,"lon":5.368402,"is_reserved":false,"is_disabled":false,"rental_uris":{"android":"levelo://app?vid=77410617-b89a-4d6b-8736-4a66c766f938","ios":"levelo://app?vid=77410617-b89a-4d6b-8736-4a66c766f938"},"vehicle_type_id":"4","last_reported":1691388538,"current_range_meters":31600,"station_id":"ce4bhbp2rcd13ifvqesg","pricing_plan_id":"free"},{"bike_id":"c5f4e543-7c51-429d-9bf4-567aa9627539","system_id":"levelo_inurba_marseille","lat":43.292749,"lon":5.368398,"is_reserved":false,"is_disabled":false,"rental_uris":{"android":"levelo://app?vid=c5f4e543-7c51-429d-9bf4-567aa9627539","ios":"levelo://app?vid=c5f4e543-7c51-429d-9bf4-567aa9627539"},"vehicle_type_id":"4","last_reported":1691388538,"current_range_meters":23600,"station_id":"ce4bhbp2rcd13ifvqesg","pricing_plan_id":"free"},{"bike_id":"dbe406a0-e31d-4174-932b-0d8d584d17c2","system_id":"levelo_inurba_marseille","lat":43.292749,"lon":5.368398,"is_reserved":false,"is_disabled":false,"rental_uris":{"android":"levelo://app?vid=dbe406a0-e31d-4174-932b-0d8d584d17c2","ios":"levelo://app?vid=dbe406a0-e31d-4174-932b-0d8d584d17c2"},"vehicle_type_id":"4","last_reported":1691388538,"current_range_meters":31200,"station_id":"ce4bhbp2rcd13ifvqesg","pricing_plan_id":"free"},{"bike_id":"09d5190e-0d3e-4e04-8856-6a516a79fc2b","system_id":"levelo_inurba_marseille","lat":43.292749,"lon":5.368398,"is_reserved":false,"is_disabled":false,"rental_uris":{"android":"levelo://app?vid=09d5190e-0d3e-4e04-8856-6a516a79fc2b","ios":"levelo://app?vid=09d5190e-0d3e-4e04-8856-6a516a79fc2b"},"vehicle_type_id":"4","last_reported":1691388538,"current_range_meters":30800,"station_id":"ce4bhbp2rcd13ifvqesg","pricing_plan_id":"free"},{"bike_id":"dd8d1bae-8028-4512-8cd8-081d7402a872","system_id":"levelo_inurba_marseille","lat":43.292749,"lon":5.368402,"is_reserved":false,"is_disabled":false,"rental_uris":{"android":"levelo://app?vid=dd8d1bae-8028-4512-8cd8-081d7402a872","ios":"levelo://app?vid=dd8d1bae-8028-4512-8cd8-081d7402a872"},"vehicle_type_id":"4","last_reported":1691388538,"current_range_meters":12000,"station_id":"ce4bhbp2rcd13ifvqesg","pricing_plan_id":"free"},{"bike_id":"8ce52f7e-4761-4687-b000-fbe341d7f080","system_id":"levelo_inurba_marseille","lat":43.2936,"lon":5.37835,"is_reserved":false,"is_disabled":false,"rental_uris":{"android":"levelo://app?vid=8ce52f7e-4761-4687-b000-fbe341d7f080","ios":"levelo://app?vid=8ce52f7e-4761-4687-b000-fbe341d7f080"},"vehicle_type_id":"4","last_reported":1691388538,"current_range_meters":6400,"station_id":"ce4bgjh2rcd13ifvqbf0","pricing_plan_id":"free"},{"bike_id":"50722dac-86d1-441c-9523-50fce84551fd","system_id":"levelo_inurba_marseille","lat":43.2936,"lon":5.37835,"is_reserved":false,"is_disabled":false,"rental_uris":{"android":"levelo://app?vid=50722dac-86d1-441c-9523-50fce84551fd","ios":"levelo://app?vid=50722dac-86d1-441c-9523-50fce84551fd"},"vehicle_type_id":"4","last_reported":1691388538,"current_range_meters":20800,"station_id":"ce4bgjh2rcd13ifvqbf0","pricing_plan_id":"free"},{"bike_id":"d6700069-f9a0-43a1-a9c1-e37713c7dd04","system_id":"levelo_inurba_marseille","lat":43.2936,"lon":5.37835,"is_reserved":false,"is_disabled":false,"rental_uris":{"android":"levelo://app?vid=d6700069-f9a0-43a1-a9c1-e37713c7dd04","ios":"levelo://app?vid=d6700069-f9a0-43a1-a9c1-e37713c7dd04"},"vehicle_type_id":"4","last_reported":1691388538,"current_range_meters":30000,"station_id":"ce4bgjh2rcd13ifvqbf0","pricing_plan_id":"free"},{"bike_id":"c809a88b-51d8-4fdd-8806-e8f2561a99d5","system_id":"levelo_inurba_marseille","lat":43.292311,"lon":5.360731,"is_reserved":false,"is_disabled":false,"rental_uris":{"android":"levelo://app?vid=c809a88b-51d8-4fdd-8806-e8f2561a99d5","ios":"levelo://app?vid=c809a88b-51d8-4fdd-8806-e8f2561a99d5"},"vehicle_type_id":"4","last_reported":1691388538,"current_range_meters":4800,"station_id":"ce4bhbh2rcd13ifvqeqg","pricing_plan_id":"free"},{"bike_id":"d5f2b726-d506-4934-ade1-19536cb9bf5b","system_id":"levelo_inurba_marseille","lat":43.292311,"lon":5.360731,"is_reserved":false,"is_disabled":false,"rental_uris":{"android":"levelo://app?vid=d5f2b726-d506-4934-ade1-19536cb9bf5b","ios":"levelo://app?vid=d5f2b726-d506-4934-ade1-19536cb9bf5b"},"vehicle_type_id":"4","last_reported":1691388538,"current_range_meters":23200,"station_id":"ce4bhbh2rcd13ifvqeqg","pricing_plan_id":"free"},{"bike_id":"0f4826ae-3330-43c4-81d1-b2a98a0a52fb","system_id":"levelo_inurba_marseille","lat":43.31328,"lon":5.39688,"is_reserved":false,"is_disabled":false,"rental_uris":{"android":"levelo://app?vid=0f4826ae-3330-43c4-81d1-b2a98a0a52fb","ios":"levelo://app?vid=0f4826ae-3330-43c4-81d1-b2a98a0a52fb"},"vehicle_type_id":"4","last_reported":1691388538,"current_range_meters":19200,"station_id":"ce4bgvp2rcd13ifvqcu0","pricing_plan_id":"free"},{"bike_id":"5c9ccd8e-885d-49b2-ad49-9ed39422d47f","system_id":"levelo_inurba_marseille","lat":43.31327,"lon":5.39692,"is_reserved":false,"is_disabled":false,"rental_uris":{"android":"levelo://app?vid=5c9ccd8e-885d-49b2-ad49-9ed39422d47f","ios":"levelo://app?vid=5c9ccd8e-885d-49b2-ad49-9ed39422d47f"},"vehicle_type_id":"4","last_reported":1691388538,"current_range_meters":14800,"station_id":"ce4bgvp2rcd13ifvqcu0","pricing_plan_id":"free"},{"bike_id":"a7f9017e-1767-41a3-a21d-929bf5c5d6e7","system_id":"levelo_inurba_marseille","lat":43.3133,"lon":5.39694,"is_reserved":false,"is_disabled":false,"rental_uris":{"android":"levelo://app?vid=a7f9017e-1767-41a3-a21d-929bf5c5d6e7","ios":"levelo://app?vid=a7f9017e-1767-41a3-a21d-929bf5c5d6e7"},"vehicle_type_id":"4","last_reported":1691388538,"current_range_meters":19600,"station_id":"ce4bgvp2rcd13ifvqcu0","pricing_plan_id":"free"},{"bike_id":"ec3428fd-4482-4af9-90b3-c217f25fb36b","system_id":"levelo_inurba_marseille","lat":43.313291,"lon":5.396838,"is_reserved":false,"is_disabled":false,"rental_uris":{"android":"levelo://app?vid=ec3428fd-4482-4af9-90b3-c217f25fb36b","ios":"levelo://app?vid=ec3428fd-4482-4af9-90b3-c217f25fb36b"},"vehicle_type_id":"4","last_reported":1691388538,"current_range_meters":30400,"station_id":"ce4bgvp2rcd13ifvqcu0","pricing_plan_id":"free"},{"bike_id":"0da880af-0ecf-4351-aaef-58f60430fe9d","system_id":"levelo_inurba_marseille","lat":43.30884,"lon":5.39649,"is_reserved":false,"is_disabled":false,"rental_uris":{"android":"levelo://app?vid=0da880af-0ecf-4351-aaef-58f60430fe9d","ios":"levelo://app?vid=0da880af-0ecf-4351-aaef-58f60430fe9d"},"vehicle_type_id":"4","last_reported":1691388538,"current_range_meters":20800,"station_id":"ce4bh012rcd13ifvqcv0","pricing_plan_id":"free"},{"bike_id":"edc2be0e-77e2-463f-9e70-9770027019b3","system_id":"levelo_inurba_marseille","lat":43.29187,"lon":5.35797,"is_reserved":false,"is_disabled":false,"rental_uris":{"android":"levelo://app?vid=edc2be0e-77e2-463f-9e70-9770027019b3","ios":"levelo://app?vid=edc2be0e-77e2-463f-9e70-9770027019b3"},"vehicle_type_id":"4","last_reported":1691388538,"current_range_meters":30400,"station_id":"ce4bhb12rcd13ifvqel0","pricing_plan_id":"free"},{"bike_id":"79f25374-68c5-42b1-a0a6-4ed297564b7a","system_id":"levelo_inurba_marseille","lat":43.31329,"lon":5.39697,"is_reserved":false,"is_disabled":false,"rental_uris":{"android":"levelo://app?vid=79f25374-68c5-42b1-a0a6-4ed297564b7a","ios":"levelo://app?vid=79f25374-68c5-42b1-a0a6-4ed297564b7a"},"vehicle_type_id":"4","last_reported":1691388538,"current_range_meters":14000,"station_id":"ce4bgvp2rcd13ifvqcu0","pricing_plan_id":"free"},{"bike_id":"1611c22f-7b36-448a-ac92-eaa996914c5e","system_id":"levelo_inurba_marseille","lat":43.313291,"lon":5.396838,"is_reserved":false,"is_disabled":false,"rental_uris":{"android":"levelo://app?vid=1611c22f-7b36-448a-ac92-eaa996914c5e","ios":"levelo://app?vid=1611c22f-7b36-448a-ac92-eaa996914c5e"},"vehicle_type_id":"4","last_reported":1691388538,"current_range_meters":30800,"station_id":"ce4bgvp2rcd13ifvqcu0","pricing_plan_id":"free"},{"bike_id":"81ed1b28-b223-4356-950f-cde84d91fa2f","system_id":"levelo_inurba_marseille","lat":43.31321,"lon":5.39699,"is_reserved":false,"is_disabled":false,"rental_uris":{"android":"levelo://app?vid=81ed1b28-b223-4356-950f-cde84d91fa2f","ios":"levelo://app?vid=81ed1b28-b223-4356-950f-cde84d91fa2f"},"vehicle_type_id":"4","last_reported":1691388538,"current_range_meters":25200,"station_id":"ce4bgvp2rcd13ifvqcu0","pricing_plan_id":"free"},{"bike_id":"17389b61-0164-412d-9070-2987a960cbb9","system_id":"levelo_inurba_marseille","lat":43.31324,"lon":5.39699,"is_reserved":false,"is_disabled":false,"rental_uris":{"android":"levelo://app?vid=17389b61-0164-412d-9070-2987a960cbb9","ios":"levelo://app?vid=17389b61-0164-412d-9070-2987a960cbb9"},"vehicle_type_id":"4","last_reported":1691388538,"current_range_meters":30000,"station_id":"ce4bgvp2rcd13ifvqcu0","pricing_plan_id":"free"},{"bike_id":"d920e8ee-8666-4464-8fcf-c765f438cc9a","system_id":"levelo_inurba_marseille","lat":43.290779,"lon":5.371482,"is_reserved":false,"is_disabled":false,"rental_uris":{"android":"levelo://app?vid=d920e8ee-8666-4464-8fcf-c765f438cc9a","ios":"levelo://app?vid=d920e8ee-8666-4464-8fcf-c765f438cc9a"},"vehicle_type_id":"4","last_reported":1691388538,"current_range_meters":24400,"station_id":"ce4bh5p2rcd13ifvqe4g","pricing_plan_id":"free"},{"bike_id":"6786fcf1-2d6b-4673-be63-4f84e5bbd60b","system_id":"levelo_inurba_marseille","lat":43.290779,"lon":5.371482,"is_reserved":false,"is_disabled":false,"rental_uris":{"android":"levelo://app?vid=6786fcf1-2d6b-4673-be63-4f84e5bbd60b","ios":"levelo://app?vid=6786fcf1-2d6b-4673-be63-4f84e5bbd60b"},"vehicle_type_id":"4","last_reported":1691388538,"current_range_meters":12000,"station_id":"ce4bh5p2rcd13ifvqe4g","pricing_plan_id":"free"},{"bike_id":"57ff3957-7d41-4e54-8ce0-26fdc4900ce4","system_id":"levelo_inurba_marseille","lat":43.29063,"lon":5.37159,"is_reserved":false,"is_disabled":false,"rental_uris":{"android":"levelo://app?vid=57ff3957-7d41-4e54-8ce0-26fdc4900ce4","ios":"levelo://app?vid=57ff3957-7d41-4e54-8ce0-26fdc4900ce4"},"vehicle_type_id":"4","last_reported":1691388538,"current_range_meters":0,"station_id":"ce4bh5p2rcd13ifvqe4g","pricing_plan_id":"free"},{"bike_id":"31a12950-ccc2-481e-b2d0-f64f06abd0df","system_id":"levelo_inurba_marseille","lat":43.302008,"lon":5.394694,"is_reserved":false,"is_disabled":false,"rental_uris":{"android":"levelo://app?vid=31a12950-ccc2-481e-b2d0-f64f06abd0df","ios":"levelo://app?vid=31a12950-ccc2-481e-b2d0-f64f06abd0df"},"vehicle_type_id":"4","last_reported":1691388538,"current_range_meters":30400,"station_id":"ce4bh0p2rcd13ifvqd70","pricing_plan_id":"free"},{"bike_id":"b6fa5b37-43bf-4709-8577-e109d3869e66","system_id":"levelo_inurba_marseille","lat":43.302008,"lon":5.394694,"is_reserved":false,"is_disabled":false,"rental_uris":{"android":"levelo://app?vid=b6fa5b37-43bf-4709-8577-e109d3869e66","ios":"levelo://app?vid=b6fa5b37-43bf-4709-8577-e109d3869e66"},"vehicle_type_id":"4","last_reported":1691388538,"current_range_meters":30000,"station_id":"ce4bh0p2rcd13ifvqd70","pricing_plan_id":"free"},{"bike_id":"b026b16a-9694-4bbf-b76d-470d88884205","system_id":"levelo_inurba_marseille","lat":43.30206,"lon":5.39466,"is_reserved":false,"is_disabled":false,"rental_uris":{"android":"levelo://app?vid=b026b16a-9694-4bbf-b76d-470d88884205","ios":"levelo://app?vid=b026b16a-9694-4bbf-b76d-470d88884205"},"vehicle_type_id":"4","last_reported":1691388538,"current_range_meters":31200,"station_id":"ce4bh0p2rcd13ifvqd70","pricing_plan_id":"free"},{"bike_id":"2d88969e-615a-4fff-b2c1-c4a6a67fbacc","system_id":"levelo_inurba_marseille","lat":43.3021,"lon":5.39469,"is_reserved":false,"is_disabled":false,"rental_uris":{"android":"levelo://app?vid=2d88969e-615a-4fff-b2c1-c4a6a67fbacc","ios":"levelo://app?vid=2d88969e-615a-4fff-b2c1-c4a6a67fbacc"},"vehicle_type_id":"4","last_reported":1691388538,"current_range_meters":27600,"station_id":"ce4bh0p2rcd13ifvqd70","pricing_plan_id":"free"},{"bike_id":"206e4ddd-5b49-4f01-bcc5-372e590a5491","system_id":"levelo_inurba_marseille","lat":43.302008,"lon":5.394694,"is_reserved":false,"is_disabled":false,"rental_uris":{"android":"levelo://app?vid=206e4ddd-5b49-4f01-bcc5-372e590a5491","ios":"levelo://app?vid=206e4ddd-5b49-4f01-bcc5-372e590a5491"},"vehicle_type_id":"4","last_reported":1691388538,"current_range_meters":27600,"station_id":"ce4bh0p2rcd13ifvqd70","pricing_plan_id":"free"},{"bike_id":"4d1026b8-c542-48b5-85e2-ddd342883047","system_id":"levelo_inurba_marseille","lat":43.29045,"lon":5.35926,"is_reserved":false,"is_disabled":false,"rental_uris":{"android":"levelo://app?vid=4d1026b8-c542-48b5-85e2-ddd342883047","ios":"levelo://app?vid=4d1026b8-c542-48b5-85e2-ddd342883047"},"vehicle_type_id":"4","last_reported":1691388538,"current_range_meters":31200,"station_id":"","pricing_plan_id":"free"},{"bike_id":"d7ddb167-7ede-497b-9b95-bc8e0395e2b5","system_id":"levelo_inurba_marseille","lat":43.290624,"lon":5.359245,"is_reserved":false,"is_disabled":false,"rental_uris":{"android":"levelo://app?vid=d7ddb167-7ede-497b-9b95-bc8e0395e2b5","ios":"levelo://app?vid=d7ddb167-7ede-497b-9b95-bc8e0395e2b5"},"vehicle_type_id":"4","last_reported":1691388538,"current_range_meters":30800,"station_id":"ce4bha92rcd13ifvqeg0","pricing_plan_id":"free"},{"bike_id":"44ea4fbf-69e5-4e86-b05c-ff36d3deb3d4","system_id":"levelo_inurba_marseille","lat":43.289468,"lon":5.363719,"is_reserved":false,"is_disabled":false,"rental_uris":{"android":"levelo://app?vid=44ea4fbf-69e5-4e86-b05c-ff36d3deb3d4","ios":"levelo://app?vid=44ea4fbf-69e5-4e86-b05c-ff36d3deb3d4"},"vehicle_type_id":"4","last_reported":1691388538,"current_range_meters":27200,"station_id":"ce4bhc92rcd13ifvqetg","pricing_plan_id":"free"},{"bike_id":"21a200dc-c66a-4ba3-b779-03ae7fac76e2","system_id":"levelo_inurba_marseille","lat":43.292644,"lon":5.384257,"is_reserved":false,"is_disabled":false,"rental_uris":{"android":"levelo://app?vid=21a200dc-c66a-4ba3-b779-03ae7fac76e2","ios":"levelo://app?vid=21a200dc-c66a-4ba3-b779-03ae7fac76e2"},"vehicle_type_id":"4","last_reported":1691388538,"current_range_meters":11600,"station_id":"ce4bh692rcd13ifvqea0","pricing_plan_id":"free"},{"bike_id":"30f6372b-3db6-4e71-81f4-e8b0f1aa3aba","system_id":"levelo_inurba_marseille","lat":43.304296,"lon":5.397513,"is_reserved":false,"is_disabled":false,"rental_uris":{"android":"levelo://app?vid=30f6372b-3db6-4e71-81f4-e8b0f1aa3aba","ios":"levelo://app?vid=30f6372b-3db6-4e71-81f4-e8b0f1aa3aba"},"vehicle_type_id":"4","last_reported":1691388538,"current_range_meters":28800,"station_id":"ce4bh092rcd13ifvqd20","pricing_plan_id":"free"},{"bike_id":"3b36af8e-9f22-4312-ab6f-0ed47e475a9e","system_id":"levelo_inurba_marseille","lat":43.33035,"lon":5.38921,"is_reserved":false,"is_disabled":false,"rental_uris":{"android":"levelo://app?vid=3b36af8e-9f22-4312-ab6f-0ed47e475a9e","ios":"levelo://app?vid=3b36af8e-9f22-4312-ab6f-0ed47e475a9e"},"vehicle_type_id":"4","last_reported":1691388538,"current_range_meters":30800,"station_id":"ce4bhr92rcd13ifvqhrg","pricing_plan_id":"free"},{"bike_id":"f67edc25-bcc7-41fb-8431-1add679b0933","system_id":"levelo_inurba_marseille","lat":43.3304,"lon":5.38917,"is_reserved":false,"is_disabled":false,"rental_uris":{"android":"levelo://app?vid=f67edc25-bcc7-41fb-8431-1add679b0933","ios":"levelo://app?vid=f67edc25-bcc7-41fb-8431-1add679b0933"},"vehicle_type_id":"4","last_reported":1691388538,"current_range_meters":31200,"station_id":"ce4bhr92rcd13ifvqhrg","pricing_plan_id":"free"},{"bike_id":"ff1a5478-a8e0-4402-ab2b-3b18468a8756","system_id":"levelo_inurba_marseille","lat":43.33042,"lon":5.38917,"is_reserved":false,"is_disabled":false,"rental_uris":{"android":"levelo://app?vid=ff1a5478-a8e0-4402-ab2b-3b18468a8756","ios":"levelo://app?vid=ff1a5478-a8e0-4402-ab2b-3b18468a8756"},"vehicle_type_id":"4","last_reported":1691388538,"current_range_meters":13600,"station_id":"ce4bhr92rcd13ifvqhrg","pricing_plan_id":"free"},{"bike_id":"36870afb-d466-4315-ae9f-a64604779a1e","system_id":"levelo_inurba_marseille","lat":43.290104,"lon":5.356111,"is_reserved":false,"is_disabled":false,"rental_uris":{"android":"levelo://app?vid=36870afb-d466-4315-ae9f-a64604779a1e","ios":"levelo://app?vid=36870afb-d466-4315-ae9f-a64604779a1e"},"vehicle_type_id":"4","last_reported":1691388538,"current_range_meters":7200,"station_id":"ce4bhb92rcd13ifvqen0","pricing_plan_id":"free"},{"bike_id":"1296634f-bb46-4f53-a099-730c8258dc22","system_id":"levelo_inurba_marseille","lat":43.33046,"lon":5.38917,"is_reserved":false,"is_disabled":false,"rental_uris":{"android":"levelo://app?vid=1296634f-bb46-4f53-a099-730c8258dc22","ios":"levelo://app?vid=1296634f-bb46-4f53-a099-730c8258dc22"},"vehicle_type_id":"4","last_reported":1691388538,"current_range_meters":18400,"station_id":"ce4bhr92rcd13ifvqhrg","pricing_plan_id":"free"},{"bike_id":"0ad39b2d-5ea7-4993-88d6-88a772550ebb","system_id":"levelo_inurba_marseille","lat":43.33039,"lon":5.3893,"is_reserved":false,"is_disabled":false,"rental_uris":{"android":"levelo://app?vid=0ad39b2d-5ea7-4993-88d6-88a772550ebb","ios":"levelo://app?vid=0ad39b2d-5ea7-4993-88d6-88a772550ebb"},"vehicle_type_id":"4","last_reported":1691388538,"current_range_meters":31200,"station_id":"ce4bhr92rcd13ifvqhrg","pricing_plan_id":"free"},{"bike_id":"ca214e62-6cf6-4ecb-b735-23ffb6412bbd","system_id":"levelo_inurba_marseille","lat":43.290104,"lon":5.356111,"is_reserved":false,"is_disabled":false,"rental_uris":{"android":"levelo://app?vid=ca214e62-6cf6-4ecb-b735-23ffb6412bbd","ios":"levelo://app?vid=ca214e62-6cf6-4ecb-b735-23ffb6412bbd"},"vehicle_type_id":"4","last_reported":1691388538,"current_range_meters":29600,"station_id":"ce4bhb92rcd13ifvqen0","pricing_plan_id":"free"},{"bike_id":"05bf2cc0-c80b-4d3b-9303-5cea93148e89","system_id":"levelo_inurba_marseille","lat":43.29095,"lon":5.38147,"is_reserved":false,"is_disabled":false,"rental_uris":{"android":"levelo://app?vid=05bf2cc0-c80b-4d3b-9303-5cea93148e89","ios":"levelo://app?vid=05bf2cc0-c80b-4d3b-9303-5cea93148e89"},"vehicle_type_id":"4","last_reported":1691388538,"current_range_meters":30000,"station_id":"ce4bh512rcd13ifvqe2g","pricing_plan_id":"free"},{"bike_id":"875182ef-6341-4353-a995-b39cfc84698c","system_id":"levelo_inurba_marseille","lat":43.29093,"lon":5.38157,"is_reserved":false,"is_disabled":false,"rental_uris":{"android":"levelo://app?vid=875182ef-6341-4353-a995-b39cfc84698c","ios":"levelo://app?vid=875182ef-6341-4353-a995-b39cfc84698c"},"vehicle_type_id":"4","last_reported":1691388538,"current_range_meters":30400,"station_id":"ce4bh512rcd13ifvqe2g","pricing_plan_id":"free"},{"bike_id":"adc30e41-4b6c-47b6-81ff-7cfca1d3de4e","system_id":"levelo_inurba_marseille","lat":43.290185,"lon":5.381234,"is_reserved":false,"is_disabled":false,"rental_uris":{"android":"levelo://app?vid=adc30e41-4b6c-47b6-81ff-7cfca1d3de4e","ios":"levelo://app?vid=adc30e41-4b6c-47b6-81ff-7cfca1d3de4e"},"vehicle_type_id":"4","last_reported":1691388538,"current_range_meters":26800,"station_id":"ce4bh4p2rcd13ifvqe1g","pricing_plan_id":"free"},{"bike_id":"a0adc469-4a61-4843-851c-91ff64cac90c","system_id":"levelo_inurba_marseille","lat":43.28853,"lon":5.35858,"is_reserved":false,"is_disabled":false,"rental_uris":{"android":"levelo://app?vid=a0adc469-4a61-4843-851c-91ff64cac90c","ios":"levelo://app?vid=a0adc469-4a61-4843-851c-91ff64cac90c"},"vehicle_type_id":"4","last_reported":1691388538,"current_range_meters":5200,"station_id":"ce4bhb12rcd13ifvqem0","pricing_plan_id":"free"},{"bike_id":"45336f2b-e61f-4966-9578-9d87d16d831c","system_id":"levelo_inurba_marseille","lat":43.28856,"lon":5.358371,"is_reserved":false,"is_disabled":false,"rental_uris":{"android":"levelo://app?vid=45336f2b-e61f-4966-9578-9d87d16d831c","ios":"levelo://app?vid=45336f2b-e61f-4966-9578-9d87d16d831c"},"vehicle_type_id":"4","last_reported":1691388538,"current_range_meters":28000,"station_id":"ce4bhb12rcd13ifvqem0","pricing_plan_id":"free"},{"bike_id":"1c6e428c-7277-4625-8b1b-a6b8d74bc12a","system_id":"levelo_inurba_marseille","lat":43.31277,"lon":5.40169,"is_reserved":false,"is_disabled":false,"rental_uris":{"android":"levelo://app?vid=1c6e428c-7277-4625-8b1b-a6b8d74bc12a","ios":"levelo://app?vid=1c6e428c-7277-4625-8b1b-a6b8d74bc12a"},"vehicle_type_id":"4","last_reported":1691388538,"current_range_meters":26400,"station_id":"ce4bh092rcd13ifvqd30","pricing_plan_id":"free"},{"bike_id":"0036c4e8-85b8-4fdb-b702-26735c77245e","system_id":"levelo_inurba_marseille","lat":43.309371,"lon":5.401449,"is_reserved":false,"is_disabled":false,"rental_uris":{"android":"levelo://app?vid=0036c4e8-85b8-4fdb-b702-26735c77245e","ios":"levelo://app?vid=0036c4e8-85b8-4fdb-b702-26735c77245e"},"vehicle_type_id":"4","last_reported":1691388538,"current_range_meters":11600,"station_id":"ce4bgvp2rcd13ifvqct0","pricing_plan_id":"free"},{"bike_id":"bb8e6ee6-21fd-4770-b873-7ae458f7152a","system_id":"levelo_inurba_marseille","lat":43.3127,"lon":5.40172,"is_reserved":false,"is_disabled":false,"rental_uris":{"android":"levelo://app?vid=bb8e6ee6-21fd-4770-b873-7ae458f7152a","ios":"levelo://app?vid=bb8e6ee6-21fd-4770-b873-7ae458f7152a"},"vehicle_type_id":"4","last_reported":1691388538,"current_range_meters":30400,"station_id":"ce4bh092rcd13ifvqd30","pricing_plan_id":"free"},{"bike_id":"c64607fd-2033-42a9-84d6-9081310db889","system_id":"levelo_inurba_marseille","lat":43.30929,"lon":5.4014,"is_reserved":false,"is_disabled":false,"rental_uris":{"android":"levelo://app?vid=c64607fd-2033-42a9-84d6-9081310db889","ios":"levelo://app?vid=c64607fd-2033-42a9-84d6-9081310db889"},"vehicle_type_id":"4","last_reported":1691388538,"current_range_meters":26000,"station_id":"ce4bgvp2rcd13ifvqct0","pricing_plan_id":"free"},{"bike_id":"9e592f6e-9eaf-4f60-8aa0-857b12f37408","system_id":"levelo_inurba_marseille","lat":43.309371,"lon":5.401449,"is_reserved":false,"is_disabled":false,"rental_uris":{"android":"levelo://app?vid=9e592f6e-9eaf-4f60-8aa0-857b12f37408","ios":"levelo://app?vid=9e592f6e-9eaf-4f60-8aa0-857b12f37408"},"vehicle_type_id":"4","last_reported":1691388538,"current_range_meters":30800,"station_id":"ce4bgvp2rcd13ifvqct0","pricing_plan_id":"free"},{"bike_id":"7723787e-e74a-4f4d-bb27-6535653a4c97","system_id":"levelo_inurba_marseille","lat":43.30927,"lon":5.40142,"is_reserved":false,"is_disabled":false,"rental_uris":{"android":"levelo://app?vid=7723787e-e74a-4f4d-bb27-6535653a4c97","ios":"levelo://app?vid=7723787e-e74a-4f4d-bb27-6535653a4c97"},"vehicle_type_id":"4","last_reported":1691388538,"current_range_meters":8000,"station_id":"ce4bgvp2rcd13ifvqct0","pricing_plan_id":"free"},{"bike_id":"1a066735-e91f-4e00-b84e-60eed4a3d40a","system_id":"levelo_inurba_marseille","lat":43.306412,"lon":5.401035,"is_reserved":false,"is_disabled":false,"rental_uris":{"android":"levelo://app?vid=1a066735-e91f-4e00-b84e-60eed4a3d40a","ios":"levelo://app?vid=1a066735-e91f-4e00-b84e-60eed4a3d40a"},"vehicle_type_id":"4","last_reported":1691388538,"current_range_meters":22400,"station_id":"ce4bh112rcd13ifvqda0","pricing_plan_id":"free"},{"bike_id":"b030bf33-d41f-4c90-a37f-fdd31ff04369","system_id":"levelo_inurba_marseille","lat":43.309371,"lon":5.401449,"is_reserved":false,"is_disabled":false,"rental_uris":{"android":"levelo://app?vid=b030bf33-d41f-4c90-a37f-fdd31ff04369","ios":"levelo://app?vid=b030bf33-d41f-4c90-a37f-fdd31ff04369"},"vehicle_type_id":"4","last_reported":1691388538,"current_range_meters":20000,"station_id":"ce4bgvp2rcd13ifvqct0","pricing_plan_id":"free"},{"bike_id":"058a343a-e421-48a4-8468-d850ac51f5c4","system_id":"levelo_inurba_marseille","lat":43.31278,"lon":5.40184,"is_reserved":false,"is_disabled":false,"rental_uris":{"android":"levelo://app?vid=058a343a-e421-48a4-8468-d850ac51f5c4","ios":"levelo://app?vid=058a343a-e421-48a4-8468-d850ac51f5c4"},"vehicle_type_id":"4","last_reported":1691388538,"current_range_meters":30400,"station_id":"ce4bh092rcd13ifvqd30","pricing_plan_id":"free"},{"bike_id":"38a2974b-2a4b-4b6b-ba49-7ccf88d4eb7e","system_id":"levelo_inurba_marseille","lat":43.30641,"lon":5.40076,"is_reserved":false,"is_disabled":false,"rental_uris":{"android":"levelo://app?vid=38a2974b-2a4b-4b6b-ba49-7ccf88d4eb7e","ios":"levelo://app?vid=38a2974b-2a4b-4b6b-ba49-7ccf88d4eb7e"},"vehicle_type_id":"4","last_reported":1691388538,"current_range_meters":31200,"station_id":"ce4bh112rcd13ifvqda0","pricing_plan_id":"free"},{"bike_id":"11a042ce-b839-46b1-a9fb-a8b0b52778b5","system_id":"levelo_inurba_marseille","lat":43.30642,"lon":5.401031,"is_reserved":false,"is_disabled":false,"rental_uris":{"android":"levelo://app?vid=11a042ce-b839-46b1-a9fb-a8b0b52778b5","ios":"levelo://app?vid=11a042ce-b839-46b1-a9fb-a8b0b52778b5"},"vehicle_type_id":"4","last_reported":1691388538,"current_range_meters":14800,"station_id":"ce4bh112rcd13ifvqda0","pricing_plan_id":"free"},{"bike_id":"715e7b61-87a6-4056-8d2b-2721d301eae7","system_id":"levelo_inurba_marseille","lat":43.30637,"lon":5.40076,"is_reserved":false,"is_disabled":false,"rental_uris":{"android":"levelo://app?vid=715e7b61-87a6-4056-8d2b-2721d301eae7","ios":"levelo://app?vid=715e7b61-87a6-4056-8d2b-2721d301eae7"},"vehicle_type_id":"4","last_reported":1691388538,"current_range_meters":20000,"station_id":"ce4bh112rcd13ifvqda0","pricing_plan_id":"free"},{"bike_id":"07d367d7-2cc6-493f-b087-fa31dc3c7ac6","system_id":"levelo_inurba_marseille","lat":43.30637,"lon":5.40078,"is_reserved":false,"is_disabled":false,"rental_uris":{"android":"levelo://app?vid=07d367d7-2cc6-493f-b087-fa31dc3c7ac6","ios":"levelo://app?vid=07d367d7-2cc6-493f-b087-fa31dc3c7ac6"},"vehicle_type_id":"4","last_reported":1691388538,"current_range_meters":30800,"station_id":"ce4bh112rcd13ifvqda0","pricing_plan_id":"free"},{"bike_id":"61dc2a69-657e-402e-bf8f-563e9a4dab03","system_id":"levelo_inurba_marseille","lat":43.30642,"lon":5.401031,"is_reserved":false,"is_disabled":false,"rental_uris":{"android":"levelo://app?vid=61dc2a69-657e-402e-bf8f-563e9a4dab03","ios":"levelo://app?vid=61dc2a69-657e-402e-bf8f-563e9a4dab03"},"vehicle_type_id":"4","last_reported":1691388538,"current_range_meters":6400,"station_id":"ce4bh112rcd13ifvqda0","pricing_plan_id":"free"},{"bike_id":"842c27d7-3475-4c62-979e-e8c00fce117e","system_id":"levelo_inurba_marseille","lat":43.30642,"lon":5.401031,"is_reserved":false,"is_disabled":false,"rental_uris":{"android":"levelo://app?vid=842c27d7-3475-4c62-979e-e8c00fce117e","ios":"levelo://app?vid=842c27d7-3475-4c62-979e-e8c00fce117e"},"vehicle_type_id":"4","last_reported":1691388538,"current_range_meters":14000,"station_id":"ce4bh112rcd13ifvqda0","pricing_plan_id":"free"},{"bike_id":"0b56d10b-d446-4161-a9b0-32713d45f541","system_id":"levelo_inurba_marseille","lat":43.33769,"lon":5.37441,"is_reserved":false,"is_disabled":false,"rental_uris":{"android":"levelo://app?vid=0b56d10b-d446-4161-a9b0-32713d45f541","ios":"levelo://app?vid=0b56d10b-d446-4161-a9b0-32713d45f541"},"vehicle_type_id":"4","last_reported":1691388538,"current_range_meters":22800,"station_id":"","pricing_plan_id":"free"},{"bike_id":"80bed581-1089-4454-8eee-fcff8a3db227","system_id":"levelo_inurba_marseille","lat":43.33783,"lon":5.37408,"is_reserved":false,"is_disabled":false,"rental_uris":{"android":"levelo://app?vid=80bed581-1089-4454-8eee-fcff8a3db227","ios":"levelo://app?vid=80bed581-1089-4454-8eee-fcff8a3db227"},"vehicle_type_id":"4","last_reported":1691388538,"current_range_meters":31200,"station_id":"","pricing_plan_id":"free"},{"bike_id":"d9f63167-63bc-4fc8-afa0-8ed6ad4e70e4","system_id":"levelo_inurba_marseille","lat":43.33783,"lon":5.37437,"is_reserved":false,"is_disabled":false,"rental_uris":{"android":"levelo://app?vid=d9f63167-63bc-4fc8-afa0-8ed6ad4e70e4","ios":"levelo://app?vid=d9f63167-63bc-4fc8-afa0-8ed6ad4e70e4"},"vehicle_type_id":"4","last_reported":1691388538,"current_range_meters":28400,"station_id":"","pricing_plan_id":"free"},{"bike_id":"9e306305-cf88-4bf2-9dbc-391e74dbae13","system_id":"levelo_inurba_marseille","lat":43.301117,"lon":5.398795,"is_reserved":false,"is_disabled":false,"rental_uris":{"android":"levelo://app?vid=9e306305-cf88-4bf2-9dbc-391e74dbae13","ios":"levelo://app?vid=9e306305-cf88-4bf2-9dbc-391e74dbae13"},"vehicle_type_id":"4","last_reported":1691388538,"current_range_meters":29600,"station_id":"ce4bh0h2rcd13ifvqd40","pricing_plan_id":"free"},{"bike_id":"8638c2b7-06e6-4abb-8218-4de95b0c5de0","system_id":"levelo_inurba_marseille","lat":43.301117,"lon":5.398795,"is_reserved":false,"is_disabled":false,"rental_uris":{"android":"levelo://app?vid=8638c2b7-06e6-4abb-8218-4de95b0c5de0","ios":"levelo://app?vid=8638c2b7-06e6-4abb-8218-4de95b0c5de0"},"vehicle_type_id":"4","last_reported":1691388538,"current_range_meters":22400,"station_id":"ce4bh0h2rcd13ifvqd40","pricing_plan_id":"free"},{"bike_id":"ca0e6a09-02c6-4ef8-8284-35374636648e","system_id":"levelo_inurba_marseille","lat":43.28669,"lon":5.36351,"is_reserved":false,"is_disabled":false,"rental_uris":{"android":"levelo://app?vid=ca0e6a09-02c6-4ef8-8284-35374636648e","ios":"levelo://app?vid=ca0e6a09-02c6-4ef8-8284-35374636648e"},"vehicle_type_id":"4","last_reported":1691388538,"current_range_meters":25200,"station_id":"ce4bhah2rcd13ifvqej0","pricing_plan_id":"free"},{"bike_id":"86b89f6b-7c93-4256-8f36-2411c04fde52","system_id":"levelo_inurba_marseille","lat":43.286593,"lon":5.363346,"is_reserved":false,"is_disabled":false,"rental_uris":{"android":"levelo://app?vid=86b89f6b-7c93-4256-8f36-2411c04fde52","ios":"levelo://app?vid=86b89f6b-7c93-4256-8f36-2411c04fde52"},"vehicle_type_id":"4","last_reported":1691388538,"current_range_meters":24400,"station_id":"ce4bhah2rcd13ifvqej0","pricing_plan_id":"free"},{"bike_id":"75199276-b705-4ad7-b6a9-49aeaa84628a","system_id":"levelo_inurba_marseille","lat":43.286591,"lon":5.363346,"is_reserved":false,"is_disabled":false,"rental_uris":{"android":"levelo://app?vid=75199276-b705-4ad7-b6a9-49aeaa84628a","ios":"levelo://app?vid=75199276-b705-4ad7-b6a9-49aeaa84628a"},"vehicle_type_id":"4","last_reported":1691388538,"current_range_meters":31200,"station_id":"ce4bhah2rcd13ifvqej0","pricing_plan_id":"free"},{"bike_id":"7b9e2d57-7c2f-4652-8ec0-ee4d147afe24","system_id":"levelo_inurba_marseille","lat":43.302548,"lon":5.400568,"is_reserved":false,"is_disabled":false,"rental_uris":{"android":"levelo://app?vid=7b9e2d57-7c2f-4652-8ec0-ee4d147afe24","ios":"levelo://app?vid=7b9e2d57-7c2f-4652-8ec0-ee4d147afe24"},"vehicle_type_id":"4","last_reported":1691388538,"current_range_meters":4400,"station_id":"","pricing_plan_id":"free"},{"bike_id":"64b1a499-e0c5-49a0-adf5-9430f4a4fedb","system_id":"levelo_inurba_marseille","lat":43.290336,"lon":5.386425,"is_reserved":false,"is_disabled":false,"rental_uris":{"android":"levelo://app?vid=64b1a499-e0c5-49a0-adf5-9430f4a4fedb","ios":"levelo://app?vid=64b1a499-e0c5-49a0-adf5-9430f4a4fedb"},"vehicle_type_id":"4","last_reported":1691388538,"current_range_meters":30800,"station_id":"ce4bh4p2rcd13ifvqe0g","pricing_plan_id":"free"},{"bike_id":"1f7ad203-3c84-4ddf-b2b1-5c110354413e","system_id":"levelo_inurba_marseille","lat":43.287185,"lon":5.379373,"is_reserved":false,"is_disabled":false,"rental_uris":{"android":"levelo://app?vid=1f7ad203-3c84-4ddf-b2b1-5c110354413e","ios":"levelo://app?vid=1f7ad203-3c84-4ddf-b2b1-5c110354413e"},"vehicle_type_id":"4","last_reported":1691388538,"current_range_meters":31200,"station_id":"ce4bh9p2rcd13ifvqec0","pricing_plan_id":"free"},{"bike_id":"2215d72d-b17a-4a66-8f10-6e09a521210d","system_id":"levelo_inurba_marseille","lat":43.287185,"lon":5.379373,"is_reserved":false,"is_disabled":false,"rental_uris":{"android":"levelo://app?vid=2215d72d-b17a-4a66-8f10-6e09a521210d","ios":"levelo://app?vid=2215d72d-b17a-4a66-8f10-6e09a521210d"},"vehicle_type_id":"4","last_reported":1691388538,"current_range_meters":30800,"station_id":"ce4bh9p2rcd13ifvqec0","pricing_plan_id":"free"},{"bike_id":"85954b97-fc0b-431d-a182-ec00003169d7","system_id":"levelo_inurba_marseille","lat":43.287184,"lon":5.37937,"is_reserved":false,"is_disabled":false,"rental_uris":{"android":"levelo://app?vid=85954b97-fc0b-431d-a182-ec00003169d7","ios":"levelo://app?vid=85954b97-fc0b-431d-a182-ec00003169d7"},"vehicle_type_id":"4","last_reported":1691388538,"current_range_meters":31200,"station_id":"ce4bh9p2rcd13ifvqec0","pricing_plan_id":"free"},{"bike_id":"72bc110c-8361-4b99-a979-7f89cd9caff1","system_id":"levelo_inurba_marseille","lat":43.31642,"lon":5.40432,"is_reserved":false,"is_disabled":false,"rental_uris":{"android":"levelo://app?vid=72bc110c-8361-4b99-a979-7f89cd9caff1","ios":"levelo://app?vid=72bc110c-8361-4b99-a979-7f89cd9caff1"},"vehicle_type_id":"4","last_reported":1691388538,"current_range_meters":7600,"station_id":"ce4bh012rcd13ifvqd00","pricing_plan_id":"free"},{"bike_id":"7a7ba99b-d5fc-4a6d-959e-cc8213d3a60c","system_id":"levelo_inurba_marseille","lat":43.31648,"lon":5.40431,"is_reserved":false,"is_disabled":false,"rental_uris":{"android":"levelo://app?vid=7a7ba99b-d5fc-4a6d-959e-cc8213d3a60c","ios":"levelo://app?vid=7a7ba99b-d5fc-4a6d-959e-cc8213d3a60c"},"vehicle_type_id":"4","last_reported":1691388538,"current_range_meters":16400,"station_id":"ce4bh012rcd13ifvqd00","pricing_plan_id":"free"},{"bike_id":"3e4031f3-f1f6-4dbd-8b47-4c1a8ea567f3","system_id":"levelo_inurba_marseille","lat":43.31644,"lon":5.40441,"is_reserved":false,"is_disabled":false,"rental_uris":{"android":"levelo://app?vid=3e4031f3-f1f6-4dbd-8b47-4c1a8ea567f3","ios":"levelo://app?vid=3e4031f3-f1f6-4dbd-8b47-4c1a8ea567f3"},"vehicle_type_id":"4","last_reported":1691388538,"current_range_meters":24400,"station_id":"ce4bh012rcd13ifvqd00","pricing_plan_id":"free"},{"bike_id":"6fd6bfe1-a2a5-40a1-91d3-3a9ffcba42a1","system_id":"levelo_inurba_marseille","lat":43.31647,"lon":5.40441,"is_reserved":false,"is_disabled":false,"rental_uris":{"android":"levelo://app?vid=6fd6bfe1-a2a5-40a1-91d3-3a9ffcba42a1","ios":"levelo://app?vid=6fd6bfe1-a2a5-40a1-91d3-3a9ffcba42a1"},"vehicle_type_id":"4","last_reported":1691388538,"current_range_meters":30000,"station_id":"ce4bh012rcd13ifvqd00","pricing_plan_id":"free"},{"bike_id":"df93c081-4012-4b16-ae4d-1e00afab3862","system_id":"levelo_inurba_marseille","lat":43.31646,"lon":5.40444,"is_reserved":false,"is_disabled":false,"rental_uris":{"android":"levelo://app?vid=df93c081-4012-4b16-ae4d-1e00afab3862","ios":"levelo://app?vid=df93c081-4012-4b16-ae4d-1e00afab3862"},"vehicle_type_id":"4","last_reported":1691388538,"current_range_meters":0,"station_id":"ce4bh012rcd13ifvqd00","pricing_plan_id":"free"},{"bike_id":"7b78d55e-e99c-4fa7-968a-c672d6912f00","system_id":"levelo_inurba_marseille","lat":43.284534,"lon":5.358662,"is_reserved":false,"is_disabled":false,"rental_uris":{"android":"levelo://app?vid=7b78d55e-e99c-4fa7-968a-c672d6912f00","ios":"levelo://app?vid=7b78d55e-e99c-4fa7-968a-c672d6912f00"},"vehicle_type_id":"4","last_reported":1691388538,"current_range_meters":31200,"station_id":"ce4bhah2rcd13ifvqei0","pricing_plan_id":"free"},{"bike_id":"698461b7-7fd2-4772-bc7e-7313d04c4033","system_id":"levelo_inurba_marseille","lat":43.285848,"lon":5.350787,"is_reserved":false,"is_disabled":false,"rental_uris":{"android":"levelo://app?vid=698461b7-7fd2-4772-bc7e-7313d04c4033","ios":"levelo://app?vid=698461b7-7fd2-4772-bc7e-7313d04c4033"},"vehicle_type_id":"4","last_reported":1691388538,"current_range_meters":20000,"station_id":"ce4bhch2rcd13ifvqeug","pricing_plan_id":"free"},{"bike_id":"52556930-2738-4f6f-ada5-d08f0390ecfa","system_id":"levelo_inurba_marseille","lat":43.285848,"lon":5.350787,"is_reserved":false,"is_disabled":false,"rental_uris":{"android":"levelo://app?vid=52556930-2738-4f6f-ada5-d08f0390ecfa","ios":"levelo://app?vid=52556930-2738-4f6f-ada5-d08f0390ecfa"},"vehicle_type_id":"4","last_reported":1691388538,"current_range_meters":20400,"station_id":"ce4bhch2rcd13ifvqeug","pricing_plan_id":"free"},{"bike_id":"98a0c241-69cf-4385-b8f6-90a1632ea150","system_id":"levelo_inurba_marseille","lat":43.28621,"lon":5.35102,"is_reserved":false,"is_disabled":false,"rental_uris":{"android":"levelo://app?vid=98a0c241-69cf-4385-b8f6-90a1632ea150","ios":"levelo://app?vid=98a0c241-69cf-4385-b8f6-90a1632ea150"},"vehicle_type_id":"4","last_reported":1691388538,"current_range_meters":6400,"station_id":"ce4bhch2rcd13ifvqeug","pricing_plan_id":"free"},{"bike_id":"8a0a1bba-76a9-473f-bae8-e6a0bba3a17c","system_id":"levelo_inurba_marseille","lat":43.285848,"lon":5.350787,"is_reserved":false,"is_disabled":false,"rental_uris":{"android":"levelo://app?vid=8a0a1bba-76a9-473f-bae8-e6a0bba3a17c","ios":"levelo://app?vid=8a0a1bba-76a9-473f-bae8-e6a0bba3a17c"},"vehicle_type_id":"4","last_reported":1691388538,"current_range_meters":15600,"station_id":"ce4bhch2rcd13ifvqeug","pricing_plan_id":"free"},{"bike_id":"afbd420d-e868-49b4-8ef1-38ed0fd855de","system_id":"levelo_inurba_marseille","lat":43.28619,"lon":5.35102,"is_reserved":false,"is_disabled":false,"rental_uris":{"android":"levelo://app?vid=afbd420d-e868-49b4-8ef1-38ed0fd855de","ios":"levelo://app?vid=afbd420d-e868-49b4-8ef1-38ed0fd855de"},"vehicle_type_id":"4","last_reported":1691388538,"current_range_meters":26800,"station_id":"ce4bhch2rcd13ifvqeug","pricing_plan_id":"free"},{"bike_id":"7fed3c80-61ef-49c5-b649-af73ab64429c","system_id":"levelo_inurba_marseille","lat":43.28617,"lon":5.35101,"is_reserved":false,"is_disabled":false,"rental_uris":{"android":"levelo://app?vid=7fed3c80-61ef-49c5-b649-af73ab64429c","ios":"levelo://app?vid=7fed3c80-61ef-49c5-b649-af73ab64429c"},"vehicle_type_id":"4","last_reported":1691388538,"current_range_meters":9200,"station_id":"ce4bhch2rcd13ifvqeug","pricing_plan_id":"free"},{"bike_id":"011a4278-c180-40d6-b5b2-651f9a9e4fe5","system_id":"levelo_inurba_marseille","lat":43.285848,"lon":5.350787,"is_reserved":false,"is_disabled":false,"rental_uris":{"android":"levelo://app?vid=011a4278-c180-40d6-b5b2-651f9a9e4fe5","ios":"levelo://app?vid=011a4278-c180-40d6-b5b2-651f9a9e4fe5"},"vehicle_type_id":"4","last_reported":1691388538,"current_range_meters":26800,"station_id":"ce4bhch2rcd13ifvqeug","pricing_plan_id":"free"},{"bike_id":"0895dcf3-77b7-48ed-8729-271d921e1de6","system_id":"levelo_inurba_marseille","lat":43.295713,"lon":5.399639,"is_reserved":false,"is_disabled":false,"rental_uris":{"android":"levelo://app?vid=0895dcf3-77b7-48ed-8729-271d921e1de6","ios":"levelo://app?vid=0895dcf3-77b7-48ed-8729-271d921e1de6"},"vehicle_type_id":"4","last_reported":1691388538,"current_range_meters":12000,"station_id":"ce4bh312rcd13ifvqdj0","pricing_plan_id":"free"},{"bike_id":"f2585bdb-4d11-490d-9950-1b27bbca4b7a","system_id":"levelo_inurba_marseille","lat":43.28672,"lon":5.38671,"is_reserved":false,"is_disabled":false,"rental_uris":{"android":"levelo://app?vid=f2585bdb-4d11-490d-9950-1b27bbca4b7a","ios":"levelo://app?vid=f2585bdb-4d11-490d-9950-1b27bbca4b7a"},"vehicle_type_id":"4","last_reported":1691388538,"current_range_meters":28800,"station_id":"ce4bh492rcd13ifvqdug","pricing_plan_id":"free"},{"bike_id":"25b4caf6-6179-46d8-97a3-cdd8f5c3ba19","system_id":"levelo_inurba_marseille","lat":43.31887,"lon":5.40723,"is_reserved":false,"is_disabled":false,"rental_uris":{"android":"levelo://app?vid=25b4caf6-6179-46d8-97a3-cdd8f5c3ba19","ios":"levelo://app?vid=25b4caf6-6179-46d8-97a3-cdd8f5c3ba19"},"vehicle_type_id":"4","last_reported":1691388538,"current_range_meters":28800,"station_id":"ce4bhq12rcd13ifvqhig","pricing_plan_id":"free"},{"bike_id":"1a20c750-aa18-4b5f-869a-acfc7d8b1e55","system_id":"levelo_inurba_marseille","lat":43.3189,"lon":5.40723,"is_reserved":false,"is_disabled":false,"rental_uris":{"android":"levelo://app?vid=1a20c750-aa18-4b5f-869a-acfc7d8b1e55","ios":"levelo://app?vid=1a20c750-aa18-4b5f-869a-acfc7d8b1e55"},"vehicle_type_id":"4","last_reported":1691388538,"current_range_meters":28800,"station_id":"","pricing_plan_id":"free"},{"bike_id":"bc424dff-7841-4278-a14f-27c50981428f","system_id":"levelo_inurba_marseille","lat":43.31884,"lon":5.40727,"is_reserved":false,"is_disabled":false,"rental_uris":{"android":"levelo://app?vid=bc424dff-7841-4278-a14f-27c50981428f","ios":"levelo://app?vid=bc424dff-7841-4278-a14f-27c50981428f"},"vehicle_type_id":"4","last_reported":1691388538,"current_range_meters":30000,"station_id":"ce4bhq12rcd13ifvqhig","pricing_plan_id":"free"},{"bike_id":"7f070500-2937-40f9-a480-923ff5ff3e33","system_id":"levelo_inurba_marseille","lat":43.31884,"lon":5.40728,"is_reserved":false,"is_disabled":false,"rental_uris":{"android":"levelo://app?vid=7f070500-2937-40f9-a480-923ff5ff3e33","ios":"levelo://app?vid=7f070500-2937-40f9-a480-923ff5ff3e33"},"vehicle_type_id":"4","last_reported":1691388538,"current_range_meters":18000,"station_id":"","pricing_plan_id":"free"},{"bike_id":"b46dc136-645c-4a58-b8a0-9c58006cc4ce","system_id":"levelo_inurba_marseille","lat":43.319179,"lon":5.407725,"is_reserved":false,"is_disabled":false,"rental_uris":{"android":"levelo://app?vid=b46dc136-645c-4a58-b8a0-9c58006cc4ce","ios":"levelo://app?vid=b46dc136-645c-4a58-b8a0-9c58006cc4ce"},"vehicle_type_id":"4","last_reported":1691388538,"current_range_meters":29600,"station_id":"ce4bhq12rcd13ifvqhig","pricing_plan_id":"free"},{"bike_id":"e2537173-8689-4353-9958-def642ce37de","system_id":"levelo_inurba_marseille","lat":43.33722,"lon":5.39184,"is_reserved":false,"is_disabled":false,"rental_uris":{"android":"levelo://app?vid=e2537173-8689-4353-9958-def642ce37de","ios":"levelo://app?vid=e2537173-8689-4353-9958-def642ce37de"},"vehicle_type_id":"4","last_reported":1691388538,"current_range_meters":0,"station_id":"ce4bhr92rcd13ifvqhsg","pricing_plan_id":"free"},{"bike_id":"65e7209e-43de-4472-85bf-edccad84c81f","system_id":"levelo_inurba_marseille","lat":43.33725,"lon":5.3918,"is_reserved":false,"is_disabled":false,"rental_uris":{"android":"levelo://app?vid=65e7209e-43de-4472-85bf-edccad84c81f","ios":"levelo://app?vid=65e7209e-43de-4472-85bf-edccad84c81f"},"vehicle_type_id":"4","last_reported":1691388538,"current_range_meters":13600,"station_id":"ce4bhr92rcd13ifvqhsg","pricing_plan_id":"free"},{"bike_id":"9d8dc018-8295-487e-aae9-79ce0f469cdf","system_id":"levelo_inurba_marseille","lat":43.33725,"lon":5.39183,"is_reserved":false,"is_disabled":false,"rental_uris":{"android":"levelo://app?vid=9d8dc018-8295-487e-aae9-79ce0f469cdf","ios":"levelo://app?vid=9d8dc018-8295-487e-aae9-79ce0f469cdf"},"vehicle_type_id":"4","last_reported":1691388538,"current_range_meters":12000,"station_id":"ce4bhr92rcd13ifvqhsg","pricing_plan_id":"free"},{"bike_id":"7fd3409e-5873-42cd-8b11-17453309f453","system_id":"levelo_inurba_marseille","lat":43.323464,"lon":5.406297,"is_reserved":false,"is_disabled":false,"rental_uris":{"android":"levelo://app?vid=7fd3409e-5873-42cd-8b11-17453309f453","ios":"levelo://app?vid=7fd3409e-5873-42cd-8b11-17453309f453"},"vehicle_type_id":"4","last_reported":1691388538,"current_range_meters":30000,"station_id":"ce4bhq92rcd13ifvqhjg","pricing_plan_id":"free"},{"bike_id":"0a505d63-a6b1-4f5c-8751-2c8caf361cff","system_id":"levelo_inurba_marseille","lat":43.33724,"lon":5.39189,"is_reserved":false,"is_disabled":false,"rental_uris":{"android":"levelo://app?vid=0a505d63-a6b1-4f5c-8751-2c8caf361cff","ios":"levelo://app?vid=0a505d63-a6b1-4f5c-8751-2c8caf361cff"},"vehicle_type_id":"4","last_reported":1691388538,"current_range_meters":29200,"station_id":"ce4bhr92rcd13ifvqhsg","pricing_plan_id":"free"},