{"last_updated":1768918860,"ttl":60,"version":"2.2","data":{"bikes":[{"bike_id":"72531f71-d042-483c-a024-3dc9ad4c3b33","system_id":"levelo_inurba_marseille","lat":43.279955,"lon":5.400028,"is_reserved":false,"is_disabled":false,"rental_uris":{"android":"levelo://app?vid=72531f71-d042-483c-a024-3dc9ad4c3b33","ios":"levelo://app?vid=72531f71-d042-483c-a024-3dc9ad4c3b33"},"vehicle_type_id":"4","last_reported":1768918861,"current_range_meters":2800,"station_id":"ce4bho92rcd13ifvqh4g","pricing_plan_id":"cebpf4jnsgd1na2vs0mg"},{"bike_id":"b8fcd8cb-0594-4218-bff2-939b2eaa3365","system_id":"levelo_inurba_marseille","lat":43.27954,"lon":5.41006,"is_reserved":false,"is_disabled":false,"rental_uris":{"android":"levelo://app?vid=b8fcd8cb-0594-4218-bff2-939b2eaa3365","ios":"levelo://app?vid=b8fcd8cb-0594-4218-bff2-939b2eaa3365"},"vehicle_type_id":"4","last_reported":1768918861,"current_range_meters":2800,"station_id":"ce4bhnp2rcd13ifvqh0g","pricing_plan_id":"cebpf4jnsgd1na2vs0mg"},{"bike_id":"4b5aa404-a223-4202-a9b4-4364010f0fb4","system_id":"levelo_inurba_marseille","lat":43.33758,"lon":5.37493,"is_reserved":false,"is_disabled":false,"rental_uris":{"android":"levelo://app?vid=4b5aa404-a223-4202-a9b4-4364010f0fb4","ios":"levelo://app?vid=4b5aa404-a223-4202-a9b4-4364010f0fb4"},"vehicle_type_id":"4","last_reported":1768918861,"current_range_meters":2800,"station_id":"","pricing_plan_id":"cebpf4jnsgd1na2vs0mg"},{"bike_id":"55a93059-46da-4326-b3f6-eca54949cf8d","system_id":"levelo_inurba_marseille","lat":43.278308,"lon":5.40728,"is_reserved":false,"is_disabled":false,"rental_uris":{"android":"levelo://app?vid=55a93059-46da-4326-b3f6-eca54949cf8d","ios":"levelo://app?vid=55a93059-46da-4326-b3f6-eca54949cf8d"},"vehicle_type_id":"4","last_reported":1768918861,"current_range_meters":2800,"station_id":"ce4bhnh2rcd13ifvqgtg","pricing_plan_id":"cebpf4jnsgd1na2vs0mg"},{"bike_id":"6a21472e-241a-4a4d-86a2-4d4cd5dc1765","system_id":"levelo_inurba_marseille","lat":43.28029,"lon":5.36935,"is_reserved":false,"is_disabled":false,"rental_uris":{"android":"levelo://app?vid=6a21472e-241a-4a4d-86a2-4d4cd5dc1765","ios":"levelo://app?vid=6a21472e-241a-4a4d-86a2-4d4cd5dc1765"},"vehicle_type_id":"4","last_reported":1768918861,"current_range_meters":2800,"station_id":"ce4bha12rcd13ifvqef0","pricing_plan_id":"cebpf4jnsgd1na2vs0mg"},{"bike_id":"0352f83e-42c9-4b95-aab1-5eb895fe3a3d","system_id":"levelo_inurba_marseille","lat":43.22558,"lon":5.41621,"is_reserved":false,"is_disabled":false,"rental_uris":{"android":"levelo://app?vid=0352f83e-42c9-4b95-aab1-5eb895fe3a3d","ios":"levelo://app?vid=0352f83e-42c9-4b95-aab1-5eb895fe3a3d"},"vehicle_type_id":"4","last_reported":1768918861,"current_range_meters":2800,"station_id":"st_d2o4gvlbi1j2169b742g","pricing_plan_id":"cebpf4jnsgd1na2vs0mg"},{"bike_id":"db01f7c9-779b-4391-89f2-6bb69c5cd871","system_id":"levelo_inurba_marseille","lat":43.29024,"lon":5.38133,"is_reserved":false,"is_disabled":false,"rental_uris":{"android":"levelo://app?vid=db01f7c9-779b-4391-89f2-6bb69c5cd871","ios":"levelo://app?vid=db01f7c9-779b-4391-89f2-6bb69c5cd871"},"vehicle_type_id":"4","last_reported":1768918861,"current_range_meters":2800,"station_id":"ce4bh4p2rcd13ifvqe1g","pricing_plan_id":"cebpf4jnsgd1na2vs0mg"},{"bike_id":"24c89c87-4e34-4758-98ab-4279f78b4108","system_id":"levelo_inurba_marseille","lat":43.25837,"lon":5.39408,"is_reserved":false,"is_disabled":false,"rental_uris":{"android":"levelo://app?vid=24c89c87-4e34-4758-98ab-4279f78b4108","ios":"levelo://app?vid=24c89c87-4e34-4758-98ab-4279f78b4108"},"vehicle_type_id":"4","last_reported":1768918861,"current_range_meters":2800,"station_id":"ce4bhip2rcd13ifvqft0","pricing_plan_id":"cebpf4jnsgd1na2vs0mg"},{"bike_id":"9b01501b-9cc6-4dd1-884f-ffc6903f0049","system_id":"levelo_inurba_marseille","lat":43.27206,"lon":5.39175,"is_reserved":false,"is_disabled":false,"rental_uris":{"android":"levelo://app?vid=9b01501b-9cc6-4dd1-884f-ffc6903f0049","ios":"levelo://app?vid=9b01501b-9cc6-4dd1-884f-ffc6903f0049"},"vehicle_type_id":"4","last_reported":1768918861,"current_range_meters":2800,"station_id":"ce4bhhp2rcd13ifvqfm0","pricing_plan_id":"cebpf4jnsgd1na2vs0mg"},{"bike_id":"d94b0719-67c8-4a98-823a-17ee81ceae99","system_id":"levelo_inurba_marseille","lat":43.27986,"lon":5.39987,"is_reserved":false,"is_disabled":false,"rental_uris":{"android":"levelo://app?vid=d94b0719-67c8-4a98-823a-17ee81ceae99","ios":"levelo://app?vid=d94b0719-67c8-4a98-823a-17ee81ceae99"},"vehicle_type_id":"4","last_reported":1768918861,"current_range_meters":2800,"station_id":"ce4bho92rcd13ifvqh4g","pricing_plan_id":"cebpf4jnsgd1na2vs0mg"},{"bike_id":"677a7507-9fa8-4b3b-bc9d-d833305c9270","system_id":"levelo_inurba_marseille","lat":43.30155,"lon":5.38087,"is_reserved":false,"is_disabled":false,"rental_uris":{"android":"levelo://app?vid=677a7507-9fa8-4b3b-bc9d-d833305c9270","ios":"levelo://app?vid=677a7507-9fa8-4b3b-bc9d-d833305c9270"},"vehicle_type_id":"4","last_reported":1768918861,"current_range_meters":2800,"station_id":"ce4bgjp2rcd13ifvqbh0","pricing_plan_id":"cebpf4jnsgd1na2vs0mg"},{"bike_id":"425ae759-4c6d-4238-8b22-bd8b4c917247","system_id":"levelo_inurba_marseille","lat":43.31203,"lon":5.36874,"is_reserved":false,"is_disabled":false,"rental_uris":{"android":"levelo://app?vid=425ae759-4c6d-4238-8b22-bd8b4c917247","ios":"levelo://app?vid=425ae759-4c6d-4238-8b22-bd8b4c917247"},"vehicle_type_id":"4","last_reported":1768918861,"current_range_meters":3200,"station_id":"ce4bgl92rcd13ifvqbq0","pricing_plan_id":"cebpf4jnsgd1na2vs0mg"},{"bike_id":"f4704682-aa96-4a0b-a789-56d1976bc4dd","system_id":"levelo_inurba_marseille","lat":43.24398,"lon":5.37048,"is_reserved":false,"is_disabled":false,"rental_uris":{"android":"levelo://app?vid=f4704682-aa96-4a0b-a789-56d1976bc4dd","ios":"levelo://app?vid=f4704682-aa96-4a0b-a789-56d1976bc4dd"},"vehicle_type_id":"4","last_reported":1768918861,"current_range_meters":3200,"station_id":"ce4bhhh2rcd13ifvqfk0","pricing_plan_id":"cebpf4jnsgd1na2vs0mg"},{"bike_id":"f30acacb-ebc4-4a73-99fc-63475fe7e592","system_id":"levelo_inurba_marseille","lat":43.29622,"lon":5.37704,"is_reserved":false,"is_disabled":false,"rental_uris":{"android":"levelo://app?vid=f30acacb-ebc4-4a73-99fc-63475fe7e592","ios":"levelo://app?vid=f30acacb-ebc4-4a73-99fc-63475fe7e592"},"vehicle_type_id":"4","last_reported":1768918861,"current_range_meters":3200,"station_id":"ce4bgi92rcd13ifvqb90","pricing_plan_id":"cebpf4jnsgd1na2vs0mg"},{"bike_id":"83a27adc-f08b-4f3c-9386-51ca11678b54","system_id":"levelo_inurba_marseille","lat":43.33621,"lon":5.41022,"is_reserved":false,"is_disabled":true,"rental_uris":{"android":"levelo://app?vid=83a27adc-f08b-4f3c-9386-51ca11678b54","ios":"levelo://app?vid=83a27adc-f08b-4f3c-9386-51ca11678b54"},"vehicle_type_id":"4","last_reported":1768918861,"current_range_meters":3200,"station_id":"ce4bhqh2rcd13ifvqhmg","pricing_plan_id":"cebpf4jnsgd1na2vs0mg"},{"bike_id":"e5afdae1-8536-48ae-affe-93a7f04d1b80","system_id":"levelo_inurba_marseille","lat":43.28355,"lon":5.39418,"is_reserved":false,"is_disabled":false,"rental_uris":{"android":"levelo://app?vid=e5afdae1-8536-48ae-affe-93a7f04d1b80","ios":"levelo://app?vid=e5afdae1-8536-48ae-affe-93a7f04d1b80"},"vehicle_type_id":"4","last_reported":1768918861,"current_range_meters":3200,"station_id":"","pricing_plan_id":"cebpf4jnsgd1na2vs0mg"},{"bike_id":"6ff95acc-2984-4def-8ef1-d69f5109eab1","system_id":"levelo_inurba_marseille","lat":43.24466,"lon":5.42551,"is_reserved":false,"is_disabled":false,"rental_uris":{"android":"levelo://app?vid=6ff95acc-2984-4def-8ef1-d69f5109eab1","ios":"levelo://app?vid=6ff95acc-2984-4def-8ef1-d69f5109eab1"},"vehicle_type_id":"4","last_reported":1768918861,"current_range_meters":3200,"station_id":"st_d4a3vfp97mjs738cd8kg","pricing_plan_id":"cebpf4jnsgd1na2vs0mg"},{"bike_id":"580c4651-9d29-4ac4-86f4-acd3d76df0f2","system_id":"levelo_inurba_marseille","lat":43.30486,"lon":5.37903,"is_reserved":false,"is_disabled":false,"rental_uris":{"android":"levelo://app?vid=580c4651-9d29-4ac4-86f4-acd3d76df0f2","ios":"levelo://app?vid=580c4651-9d29-4ac4-86f4-acd3d76df0f2"},"vehicle_type_id":"4","last_reported":1768918861,"current_range_meters":3200,"station_id":"ce4bgup2rcd13ifvqcn0","pricing_plan_id":"cebpf4jnsgd1na2vs0mg"},{"bike_id":"4e482957-f0dc-4002-9b34-5f058909a1a1","system_id":"levelo_inurba_marseille","lat":43.26944,"lon":5.3865,"is_reserved":false,"is_disabled":false,"rental_uris":{"android":"levelo://app?vid=4e482957-f0dc-4002-9b34-5f058909a1a1","ios":"levelo://app?vid=4e482957-f0dc-4002-9b34-5f058909a1a1"},"vehicle_type_id":"4","last_reported":1768918861,"current_range_meters":3200,"station_id":"ce4bhh92rcd13ifvqfh0","pricing_plan_id":"cebpf4jnsgd1na2vs0mg"},{"bike_id":"65fa859c-fd52-4fc1-bf24-0348f651f61b","system_id":"levelo_inurba_marseille","lat":43.279894,"lon":5.400162,"is_reserved":false,"is_disabled":false,"rental_uris":{"android":"levelo://app?vid=65fa859c-fd52-4fc1-bf24-0348f651f61b","ios":"levelo://app?vid=65fa859c-fd52-4fc1-bf24-0348f651f61b"},"vehicle_type_id":"4","last_reported":1768918861,"current_range_meters":3600,"station_id":"ce4bho92rcd13ifvqh4g","pricing_plan_id":"cebpf4jnsgd1na2vs0mg"},{"bike_id":"7d57c2b3-697c-4b7f-83f1-caedf104c832","system_id":"levelo_inurba_marseille","lat":43.28468,"lon":5.38439,"is_reserved":false,"is_disabled":false,"rental_uris":{"android":"levelo://app?vid=7d57c2b3-697c-4b7f-83f1-caedf104c832","ios":"levelo://app?vid=7d57c2b3-697c-4b7f-83f1-caedf104c832"},"vehicle_type_id":"4","last_reported":1768918861,"current_range_meters":3600,"station_id":"ce4bh512rcd13ifvqe3g","pricing_plan_id":"cebpf4jnsgd1na2vs0mg"},{"bike_id":"4f2dd164-7013-43b2-a24e-bc13e5296f6a","system_id":"levelo_inurba_marseille","lat":43.241732,"lon":5.397258,"is_reserved":false,"is_disabled":false,"rental_uris":{"android":"levelo://app?vid=4f2dd164-7013-43b2-a24e-bc13e5296f6a","ios":"levelo://app?vid=4f2dd164-7013-43b2-a24e-bc13e5296f6a"},"vehicle_type_id":"4","last_reported":1768918861,"current_range_meters":3600,"station_id":"ce4bhn12rcd13ifvqgpg","pricing_plan_id":"cebpf4jnsgd1na2vs0mg"},{"bike_id":"d0794797-231c-4ea9-b043-e71d24b787c2","system_id":"levelo_inurba_marseille","lat":43.29254,"lon":5.40902,"is_reserved":false,"is_disabled":false,"rental_uris":{"android":"levelo://app?vid=d0794797-231c-4ea9-b043-e71d24b787c2","ios":"levelo://app?vid=d0794797-231c-4ea9-b043-e71d24b787c2"},"vehicle_type_id":"4","last_reported":1768918861,"current_range_meters":3600,"station_id":"ce4bh192rcd13ifvqdc0","pricing_plan_id":"cebpf4jnsgd1na2vs0mg"},{"bike_id":"4a44edbd-38a3-4b47-8006-b37848186620","system_id":"levelo_inurba_marseille","lat":43.26683,"lon":5.38268,"is_reserved":false,"is_disabled":false,"rental_uris":{"android":"levelo://app?vid=4a44edbd-38a3-4b47-8006-b37848186620","ios":"levelo://app?vid=4a44edbd-38a3-4b47-8006-b37848186620"},"vehicle_type_id":"4","last_reported":1768918861,"current_range_meters":3600,"station_id":"ce4bhg92rcd13ifvqf90","pricing_plan_id":"cebpf4jnsgd1na2vs0mg"},{"bike_id":"01a9dfdc-fec3-4957-aa4e-69893e0976c5","system_id":"levelo_inurba_marseille","lat":43.30571,"lon":5.36719,"is_reserved":false,"is_disabled":false,"rental_uris":{"android":"levelo://app?vid=01a9dfdc-fec3-4957-aa4e-69893e0976c5","ios":"levelo://app?vid=01a9dfdc-fec3-4957-aa4e-69893e0976c5"},"vehicle_type_id":"4","last_reported":1768918861,"current_range_meters":3600,"station_id":"ce4bgrp2rcd13ifvqc9g","pricing_plan_id":"cebpf4jnsgd1na2vs0mg"},{"bike_id":"6f7f755c-c203-431d-bef1-e0582d5f140d","system_id":"levelo_inurba_marseille","lat":43.24632,"lon":5.43147,"is_reserved":false,"is_disabled":false,"rental_uris":{"android":"levelo://app?vid=6f7f755c-c203-431d-bef1-e0582d5f140d","ios":"levelo://app?vid=6f7f755c-c203-431d-bef1-e0582d5f140d"},"vehicle_type_id":"4","last_reported":1768918861,"current_range_meters":3600,"station_id":"st_d2m6c4gdas8pm72e190g","pricing_plan_id":"cebpf4jnsgd1na2vs0mg"},{"bike_id":"a88fcd62-ae19-405b-85db-c6d7846c8099","system_id":"levelo_inurba_marseille","lat":43.31131,"lon":5.36799,"is_reserved":false,"is_disabled":false,"rental_uris":{"android":"levelo://app?vid=a88fcd62-ae19-405b-85db-c6d7846c8099","ios":"levelo://app?vid=a88fcd62-ae19-405b-85db-c6d7846c8099"},"vehicle_type_id":"4","last_reported":1768918861,"current_range_meters":3600,"station_id":"ce4bgl92rcd13ifvqbq0","pricing_plan_id":"cebpf4jnsgd1na2vs0mg"},{"bike_id":"e06565ab-e9a6-4dd0-8b84-1fcb423d61af","system_id":"levelo_inurba_marseille","lat":43.26063,"lon":5.39388,"is_reserved":false,"is_disabled":false,"rental_uris":{"android":"levelo://app?vid=e06565ab-e9a6-4dd0-8b84-1fcb423d61af","ios":"levelo://app?vid=e06565ab-e9a6-4dd0-8b84-1fcb423d61af"},"vehicle_type_id":"4","last_reported":1768918861,"current_range_meters":3600,"station_id":"ce4bhh92rcd13ifvqfj0","pricing_plan_id":"cebpf4jnsgd1na2vs0mg"},{"bike_id":"526b8503-7faf-448a-b0f6-00cc94ab5971","system_id":"levelo_inurba_marseille","lat":43.24463,"lon":5.42563,"is_reserved":false,"is_disabled":false,"rental_uris":{"android":"levelo://app?vid=526b8503-7faf-448a-b0f6-00cc94ab5971","ios":"levelo://app?vid=526b8503-7faf-448a-b0f6-00cc94ab5971"},"vehicle_type_id":"4","last_reported":1768918861,"current_range_meters":4000,"station_id":"st_d4a3vfp97mjs738cd8kg","pricing_plan_id":"cebpf4jnsgd1na2vs0mg"},{"bike_id":"e30883dd-96d3-4b00-8b5d-c5c36c37f796","system_id":"levelo_inurba_marseille","lat":43.25574,"lon":5.38211,"is_reserved":false,"is_disabled":false,"rental_uris":{"android":"levelo://app?vid=e30883dd-96d3-4b00-8b5d-c5c36c37f796","ios":"levelo://app?vid=e30883dd-96d3-4b00-8b5d-c5c36c37f796"},"vehicle_type_id":"4","last_reported":1768918861,"current_range_meters":4000,"station_id":"ce4bhih2rcd13ifvqfs0","pricing_plan_id":"cebpf4jnsgd1na2vs0mg"},{"bike_id":"3299dc67-7236-4443-ae9d-83bdb1d9d6d3","system_id":"levelo_inurba_marseille","lat":43.26496,"lon":5.39543,"is_reserved":false,"is_disabled":false,"rental_uris":{"android":"levelo://app?vid=3299dc67-7236-4443-ae9d-83bdb1d9d6d3","ios":"levelo://app?vid=3299dc67-7236-4443-ae9d-83bdb1d9d6d3"},"vehicle_type_id":"4","last_reported":1768918861,"current_range_meters":4000,"station_id":"ce4bhi12rcd13ifvqfq0","pricing_plan_id":"cebpf4jnsgd1na2vs0mg"},{"bike_id":"f949b1a8-0099-4897-af1c-b4c1c497f28f","system_id":"levelo_inurba_marseille","lat":43.25816,"lon":5.3942,"is_reserved":false,"is_disabled":false,"rental_uris":{"android":"levelo://app?vid=f949b1a8-0099-4897-af1c-b4c1c497f28f","ios":"levelo://app?vid=f949b1a8-0099-4897-af1c-b4c1c497f28f"},"vehicle_type_id":"4","last_reported":1768918861,"current_range_meters":4000,"station_id":"ce4bhip2rcd13ifvqft0","pricing_plan_id":"cebpf4jnsgd1na2vs0mg"},{"bike_id":"9747b3f1-793e-473a-8d9d-5f84d9d7d2a8","system_id":"levelo_inurba_marseille","lat":43.24675,"lon":5.38158,"is_reserved":false,"is_disabled":false,"rental_uris":{"android":"levelo://app?vid=9747b3f1-793e-473a-8d9d-5f84d9d7d2a8","ios":"levelo://app?vid=9747b3f1-793e-473a-8d9d-5f84d9d7d2a8"},"vehicle_type_id":"4","last_reported":1768918861,"current_range_meters":4000,"station_id":"ce4bhih2rcd13ifvqfr0","pricing_plan_id":"cebpf4jnsgd1na2vs0mg"},{"bike_id":"3a53e1c6-5c5b-4e8e-9b99-8d056c960bd7","system_id":"levelo_inurba_marseille","lat":43.28437,"lon":5.39187,"is_reserved":false,"is_disabled":false,"rental_uris":{"android":"levelo://app?vid=3a53e1c6-5c5b-4e8e-9b99-8d056c960bd7","ios":"levelo://app?vid=3a53e1c6-5c5b-4e8e-9b99-8d056c960bd7"},"vehicle_type_id":"4","last_reported":1768918861,"current_range_meters":4000,"station_id":"ce4bhoh2rcd13ifvqh5g","pricing_plan_id":"cebpf4jnsgd1na2vs0mg"},{"bike_id":"161c8da3-cb62-480a-a5fc-84ea40d8bdf2","system_id":"levelo_inurba_marseille","lat":43.2917,"lon":5.37175,"is_reserved":false,"is_disabled":false,"rental_uris":{"android":"levelo://app?vid=161c8da3-cb62-480a-a5fc-84ea40d8bdf2","ios":"levelo://app?vid=161c8da3-cb62-480a-a5fc-84ea40d8bdf2"},"vehicle_type_id":"4","last_reported":1768918861,"current_range_meters":4000,"station_id":"ce4bha92rcd13ifvqeh0","pricing_plan_id":"cebpf4jnsgd1na2vs0mg"},{"bike_id":"b129582d-2c63-48d7-8138-529469f94ac5","system_id":"levelo_inurba_marseille","lat":43.26143,"lon":5.40349,"is_reserved":false,"is_disabled":false,"rental_uris":{"android":"levelo://app?vid=b129582d-2c63-48d7-8138-529469f94ac5","ios":"levelo://app?vid=b129582d-2c63-48d7-8138-529469f94ac5"},"vehicle_type_id":"4","last_reported":1768918861,"current_range_meters":4000,"station_id":"","pricing_plan_id":"cebpf4jnsgd1na2vs0mg"},{"bike_id":"fbbedfeb-5767-4a40-9eeb-fb558ba05242","system_id":"levelo_inurba_marseille","lat":43.25013,"lon":5.38943,"is_reserved":false,"is_disabled":false,"rental_uris":{"android":"levelo://app?vid=fbbedfeb-5767-4a40-9eeb-fb558ba05242","ios":"levelo://app?vid=fbbedfeb-5767-4a40-9eeb-fb558ba05242"},"vehicle_type_id":"4","last_reported":1768918861,"current_range_meters":4000,"station_id":"ce4bhgp2rcd13ifvqfd0","pricing_plan_id":"cebpf4jnsgd1na2vs0mg"},{"bike_id":"90e30c61-c606-4ba6-adb5-183cc649b959","system_id":"levelo_inurba_marseille","lat":43.27944,"lon":5.41049,"is_reserved":false,"is_disabled":false,"rental_uris":{"android":"levelo://app?vid=90e30c61-c606-4ba6-adb5-183cc649b959","ios":"levelo://app?vid=90e30c61-c606-4ba6-adb5-183cc649b959"},"vehicle_type_id":"4","last_reported":1768918861,"current_range_meters":4000,"station_id":"ce4bhnp2rcd13ifvqh0g","pricing_plan_id":"cebpf4jnsgd1na2vs0mg"},{"bike_id":"9cde565e-751f-4d1c-94ae-7977c2021c32","system_id":"levelo_inurba_marseille","lat":43.32466,"lon":5.36588,"is_reserved":false,"is_disabled":false,"rental_uris":{"android":"levelo://app?vid=9cde565e-751f-4d1c-94ae-7977c2021c32","ios":"levelo://app?vid=9cde565e-751f-4d1c-94ae-7977c2021c32"},"vehicle_type_id":"4","last_reported":1768918861,"current_range_meters":4000,"station_id":"ce4bhs12rcd13ifvqhvg","pricing_plan_id":"cebpf4jnsgd1na2vs0mg"},{"bike_id":"ae8bf250-6ed5-431f-b1af-178c3f2df1ef","system_id":"levelo_inurba_marseille","lat":43.26688,"lon":5.3827,"is_reserved":false,"is_disabled":false,"rental_uris":{"android":"levelo://app?vid=ae8bf250-6ed5-431f-b1af-178c3f2df1ef","ios":"levelo://app?vid=ae8bf250-6ed5-431f-b1af-178c3f2df1ef"},"vehicle_type_id":"4","last_reported":1768918861,"current_range_meters":4400,"station_id":"ce4bhg92rcd13ifvqf90","pricing_plan_id":"cebpf4jnsgd1na2vs0mg"},{"bike_id":"2a7e72c7-7fdf-46b5-8e98-fbe8666dc7c0","system_id":"levelo_inurba_marseille","lat":43.248153,"lon":5.374553,"is_reserved":false,"is_disabled":false,"rental_uris":{"android":"levelo://app?vid=2a7e72c7-7fdf-46b5-8e98-fbe8666dc7c0","ios":"levelo://app?vid=2a7e72c7-7fdf-46b5-8e98-fbe8666dc7c0"},"vehicle_type_id":"4","last_reported":1768918861,"current_range_meters":4400,"station_id":"ce4bhgh2rcd13ifvqfb0","pricing_plan_id":"cebpf4jnsgd1na2vs0mg"},{"bike_id":"06bc447b-16e0-4732-afcc-36d4f751f25b","system_id":"levelo_inurba_marseille","lat":43.231603,"lon":5.437064,"is_reserved":false,"is_disabled":false,"rental_uris":{"android":"levelo://app?vid=06bc447b-16e0-4732-afcc-36d4f751f25b","ios":"levelo://app?vid=06bc447b-16e0-4732-afcc-36d4f751f25b"},"vehicle_type_id":"4","last_reported":1768918861,"current_range_meters":4400,"station_id":"ce4bhmp2rcd13ifvqgog","pricing_plan_id":"cebpf4jnsgd1na2vs0mg"},{"bike_id":"dc8c1109-459c-4368-859d-186168c2462d","system_id":"levelo_inurba_marseille","lat":43.24182,"lon":5.36411,"is_reserved":false,"is_disabled":false,"rental_uris":{"android":"levelo://app?vid=dc8c1109-459c-4368-859d-186168c2462d","ios":"levelo://app?vid=dc8c1109-459c-4368-859d-186168c2462d"},"vehicle_type_id":"4","last_reported":1768918861,"current_range_meters":4400,"station_id":"cpo36qri1sfpv3e86is0","pricing_plan_id":"cebpf4jnsgd1na2vs0mg"},{"bike_id":"09c36073-6105-4a13-904a-f40f84b12613","system_id":"levelo_inurba_marseille","lat":43.3048,"lon":5.37903,"is_reserved":false,"is_disabled":false,"rental_uris":{"android":"levelo://app?vid=09c36073-6105-4a13-904a-f40f84b12613","ios":"levelo://app?vid=09c36073-6105-4a13-904a-f40f84b12613"},"vehicle_type_id":"4","last_reported":1768918861,"current_range_meters":4400,"station_id":"ce4bgup2rcd13ifvqcn0","pricing_plan_id":"cebpf4jnsgd1na2vs0mg"},{"bike_id":"26fa87a8-64e8-4574-88ad-3ef617745c36","system_id":"levelo_inurba_marseille","lat":43.27836,"lon":5.40664,"is_reserved":false,"is_disabled":false,"rental_uris":{"android":"levelo://app?vid=26fa87a8-64e8-4574-88ad-3ef617745c36","ios":"levelo://app?vid=26fa87a8-64e8-4574-88ad-3ef617745c36"},"vehicle_type_id":"4","last_reported":1768918861,"current_range_meters":4400,"station_id":"","pricing_plan_id":"cebpf4jnsgd1na2vs0mg"},{"bike_id":"d0a70439-b068-41ba-bc8d-4fbe10ec4141","system_id":"levelo_inurba_marseille","lat":43.28149,"lon":5.42635,"is_reserved":false,"is_disabled":false,"rental_uris":{"android":"levelo://app?vid=d0a70439-b068-41ba-bc8d-4fbe10ec4141","ios":"levelo://app?vid=d0a70439-b068-41ba-bc8d-4fbe10ec4141"},"vehicle_type_id":"4","last_reported":1768918861,"current_range_meters":4400,"station_id":"ce4bhnh2rcd13ifvqgug","pricing_plan_id":"cebpf4jnsgd1na2vs0mg"},{"bike_id":"71f428f0-7078-4b8c-ac98-cf141cac017d","system_id":"levelo_inurba_marseille","lat":43.24998,"lon":5.38944,"is_reserved":false,"is_disabled":false,"rental_uris":{"android":"levelo://app?vid=71f428f0-7078-4b8c-ac98-cf141cac017d","ios":"levelo://app?vid=71f428f0-7078-4b8c-ac98-cf141cac017d"},"vehicle_type_id":"4","last_reported":1768918861,"current_range_meters":4400,"station_id":"ce4bhgp2rcd13ifvqfd0","pricing_plan_id":"cebpf4jnsgd1na2vs0mg"},{"bike_id":"317dea54-40fb-4f2d-aa87-3d2f63dbed1d","system_id":"levelo_inurba_marseille","lat":43.29049,"lon":5.39948,"is_reserved":false,"is_disabled":false,"rental_uris":{"android":"levelo://app?vid=317dea54-40fb-4f2d-aa87-3d2f63dbed1d","ios":"levelo://app?vid=317dea54-40fb-4f2d-aa87-3d2f63dbed1d"},"vehicle_type_id":"4","last_reported":1768918861,"current_range_meters":4400,"station_id":"ce4bh392rcd13ifvqdm0","pricing_plan_id":"cebpf4jnsgd1na2vs0mg"},{"bike_id":"e737e520-8b61-49a4-ad92-4f73dd1c010e","system_id":"levelo_inurba_marseille","lat":43.2986,"lon":5.383572,"is_reserved":false,"is_disabled":false,"rental_uris":{"android":"levelo://app?vid=e737e520-8b61-49a4-ad92-4f73dd1c010e","ios":"levelo://app?vid=e737e520-8b61-49a4-ad92-4f73dd1c010e"},"vehicle_type_id":"4","last_reported":1768918861,"current_range_meters":4400,"station_id":"ce4bgip2rcd13ifvqbb0","pricing_plan_id":"cebpf4jnsgd1na2vs0mg"},{"bike_id":"78ed2b5e-6e07-4f08-8148-0320f194c7f5","system_id":"levelo_inurba_marseille","lat":43.27208,"lon":5.39186,"is_reserved":false,"is_disabled":false,"rental_uris":{"android":"levelo://app?vid=78ed2b5e-6e07-4f08-8148-0320f194c7f5","ios":"levelo://app?vid=78ed2b5e-6e07-4f08-8148-0320f194c7f5"},"vehicle_type_id":"4","last_reported":1768918861,"current_range_meters":4400,"station_id":"ce4bhhp2rcd13ifvqfm0","pricing_plan_id":"cebpf4jnsgd1na2vs0mg"},{"bike_id":"d98680e2-8519-4eb7-88a9-6aba4c293400","system_id":"levelo_inurba_marseille","lat":43.27992,"lon":5.40007,"is_reserved":false,"is_disabled":false,"rental_uris":{"android":"levelo://app?vid=d98680e2-8519-4eb7-88a9-6aba4c293400","ios":"levelo://app?vid=d98680e2-8519-4eb7-88a9-6aba4c293400"},"vehicle_type_id":"4","last_reported":1768918861,"current_range_meters":4800,"station_id":"ce4bho92rcd13ifvqh4g","pricing_plan_id":"cebpf4jnsgd1na2vs0mg"},{"bike_id":"46205775-a613-4ed5-afe6-bdae2b101019","system_id":"levelo_inurba_marseille","lat":43.26688,"lon":5.38261,"is_reserved":false,"is_disabled":false,"rental_uris":{"android":"levelo://app?vid=46205775-a613-4ed5-afe6-bdae2b101019","ios":"levelo://app?vid=46205775-a613-4ed5-afe6-bdae2b101019"},"vehicle_type_id":"4","last_reported":1768918861,"current_range_meters":4800,"station_id":"ce4bhg92rcd13ifvqf90","pricing_plan_id":"cebpf4jnsgd1na2vs0mg"},{"bike_id":"38879988-6a74-41ea-a3d4-fbfb5d9494ed","system_id":"levelo_inurba_marseille","lat":43.30148,"lon":5.38081,"is_reserved":false,"is_disabled":false,"rental_uris":{"android":"levelo://app?vid=38879988-6a74-41ea-a3d4-fbfb5d9494ed","ios":"levelo://app?vid=38879988-6a74-41ea-a3d4-fbfb5d9494ed"},"vehicle_type_id":"4","last_reported":1768918861,"current_range_meters":4800,"station_id":"ce4bgjp2rcd13ifvqbh0","pricing_plan_id":"cebpf4jnsgd1na2vs0mg"},{"bike_id":"39e1a98c-182d-480f-9973-4b94fce255a2","system_id":"levelo_inurba_marseille","lat":43.30927,"lon":5.40138,"is_reserved":false,"is_disabled":false,"rental_uris":{"android":"levelo://app?vid=39e1a98c-182d-480f-9973-4b94fce255a2","ios":"levelo://app?vid=39e1a98c-182d-480f-9973-4b94fce255a2"},"vehicle_type_id":"4","last_reported":1768918861,"current_range_meters":4800,"station_id":"ce4bgvp2rcd13ifvqct0","pricing_plan_id":"cebpf4jnsgd1na2vs0mg"},{"bike_id":"be62e594-ab11-4940-821f-47ec2a30c34b","system_id":"levelo_inurba_marseille","lat":43.324881,"lon":5.365561,"is_reserved":false,"is_disabled":false,"rental_uris":{"android":"levelo://app?vid=be62e594-ab11-4940-821f-47ec2a30c34b","ios":"levelo://app?vid=be62e594-ab11-4940-821f-47ec2a30c34b"},"vehicle_type_id":"4","last_reported":1768918861,"current_range_meters":4800,"station_id":"ce4bhs12rcd13ifvqhvg","pricing_plan_id":"cebpf4jnsgd1na2vs0mg"},{"bike_id":"1d96bc89-a55a-4036-8519-21c71a49b3da","system_id":"levelo_inurba_marseille","lat":43.31143,"lon":5.37993,"is_reserved":false,"is_disabled":false,"rental_uris":{"android":"levelo://app?vid=1d96bc89-a55a-4036-8519-21c71a49b3da","ios":"levelo://app?vid=1d96bc89-a55a-4036-8519-21c71a49b3da"},"vehicle_type_id":"4","last_reported":1768918861,"current_range_meters":4800,"station_id":"","pricing_plan_id":"cebpf4jnsgd1na2vs0mg"},{"bike_id":"6e7007a4-50a4-410a-b7bd-d0ebb7830797","system_id":"levelo_inurba_marseille","lat":43.24177,"lon":5.39727,"is_reserved":false,"is_disabled":false,"rental_uris":{"android":"levelo://app?vid=6e7007a4-50a4-410a-b7bd-d0ebb7830797","ios":"levelo://app?vid=6e7007a4-50a4-410a-b7bd-d0ebb7830797"},"vehicle_type_id":"4","last_reported":1768918861,"current_range_meters":5600,"station_id":"ce4bhn12rcd13ifvqgpg","pricing_plan_id":"cebpf4jnsgd1na2vs0mg"},{"bike_id":"0016371c-6134-4f2e-97df-ae4296176ed4","system_id":"levelo_inurba_marseille","lat":43.24389,"lon":5.37075,"is_reserved":false,"is_disabled":false,"rental_uris":{"android":"levelo://app?vid=0016371c-6134-4f2e-97df-ae4296176ed4","ios":"levelo://app?vid=0016371c-6134-4f2e-97df-ae4296176ed4"},"vehicle_type_id":"4","last_reported":1768918861,"current_range_meters":5600,"station_id":"ce4bhhh2rcd13ifvqfk0","pricing_plan_id":"cebpf4jnsgd1na2vs0mg"},{"bike_id":"fc17e8b9-2adb-4e96-bbab-76941e2577c9","system_id":"levelo_inurba_marseille","lat":43.25733,"lon":5.38985,"is_reserved":false,"is_disabled":false,"rental_uris":{"android":"levelo://app?vid=fc17e8b9-2adb-4e96-bbab-76941e2577c9","ios":"levelo://app?vid=fc17e8b9-2adb-4e96-bbab-76941e2577c9"},"vehicle_type_id":"4","last_reported":1768918861,"current_range_meters":5600,"station_id":"","pricing_plan_id":"cebpf4jnsgd1na2vs0mg"},{"bike_id":"2834ae37-2f8c-4ed3-8d0f-6552d2fe647b","system_id":"levelo_inurba_marseille","lat":43.2904,"lon":5.39983,"is_reserved":false,"is_disabled":false,"rental_uris":{"android":"levelo://app?vid=2834ae37-2f8c-4ed3-8d0f-6552d2fe647b","ios":"levelo://app?vid=2834ae37-2f8c-4ed3-8d0f-6552d2fe647b"},"vehicle_type_id":"4","last_reported":1768918861,"current_range_meters":5600,"station_id":"ce4bh392rcd13ifvqdm0","pricing_plan_id":"cebpf4jnsgd1na2vs0mg"},{"bike_id":"42b5ad2d-acd8-454f-95e3-acdb00543462","system_id":"levelo_inurba_marseille","lat":43.2606,"lon":5.39385,"is_reserved":false,"is_disabled":false,"rental_uris":{"android":"levelo://app?vid=42b5ad2d-acd8-454f-95e3-acdb00543462","ios":"levelo://app?vid=42b5ad2d-acd8-454f-95e3-acdb00543462"},"vehicle_type_id":"4","last_reported":1768918861,"current_range_meters":5600,"station_id":"ce4bhh92rcd13ifvqfj0","pricing_plan_id":"cebpf4jnsgd1na2vs0mg"},{"bike_id":"97096676-429c-4f07-9652-1523f48f5442","system_id":"levelo_inurba_marseille","lat":43.30266,"lon":5.43429,"is_reserved":false,"is_disabled":false,"rental_uris":{"android":"levelo://app?vid=97096676-429c-4f07-9652-1523f48f5442","ios":"levelo://app?vid=97096676-429c-4f07-9652-1523f48f5442"},"vehicle_type_id":"4","last_reported":1768918861,"current_range_meters":5600,"station_id":"","pricing_plan_id":"cebpf4jnsgd1na2vs0mg"},{"bike_id":"6dd047f2-a91a-4e21-aaba-02725dff3f64","system_id":"levelo_inurba_marseille","lat":43.2256,"lon":5.41617,"is_reserved":false,"is_disabled":false,"rental_uris":{"android":"levelo://app?vid=6dd047f2-a91a-4e21-aaba-02725dff3f64","ios":"levelo://app?vid=6dd047f2-a91a-4e21-aaba-02725dff3f64"},"vehicle_type_id":"4","last_reported":1768918861,"current_range_meters":5600,"station_id":"st_d2o4gvlbi1j2169b742g","pricing_plan_id":"cebpf4jnsgd1na2vs0mg"},{"bike_id":"37bdb184-236c-422b-a01e-e1e9fb01ddf0","system_id":"levelo_inurba_marseille","lat":43.30554,"lon":5.36693,"is_reserved":false,"is_disabled":false,"rental_uris":{"android":"levelo://app?vid=37bdb184-236c-422b-a01e-e1e9fb01ddf0","ios":"levelo://app?vid=37bdb184-236c-422b-a01e-e1e9fb01ddf0"},"vehicle_type_id":"4","last_reported":1768918861,"current_range_meters":5600,"station_id":"ce4bgrp2rcd13ifvqc9g","pricing_plan_id":"cebpf4jnsgd1na2vs0mg"},{"bike_id":"d1656b93-1b71-4e85-bf98-22a1e92bb468","system_id":"levelo_inurba_marseille","lat":43.28875,"lon":5.42499,"is_reserved":false,"is_disabled":false,"rental_uris":{"android":"levelo://app?vid=d1656b93-1b71-4e85-bf98-22a1e92bb468","ios":"levelo://app?vid=d1656b93-1b71-4e85-bf98-22a1e92bb468"},"vehicle_type_id":"4","last_reported":1768918861,"current_range_meters":5600,"station_id":"st_d3b462108ojc7389ooeg","pricing_plan_id":"cebpf4jnsgd1na2vs0mg"},{"bike_id":"26da2b65-8c57-48c9-a3b4-590864e233cb","system_id":"levelo_inurba_marseille","lat":43.28713,"lon":5.37934,"is_reserved":false,"is_disabled":false,"rental_uris":{"android":"levelo://app?vid=26da2b65-8c57-48c9-a3b4-590864e233cb","ios":"levelo://app?vid=26da2b65-8c57-48c9-a3b4-590864e233cb"},"vehicle_type_id":"4","last_reported":1768918861,"current_range_meters":5600,"station_id":"ce4bh9p2rcd13ifvqec0","pricing_plan_id":"cebpf4jnsgd1na2vs0mg"},{"bike_id":"f3529466-4326-4ebe-800e-084adacbe3c6","system_id":"levelo_inurba_marseille","lat":43.30862,"lon":5.39661,"is_reserved":false,"is_disabled":false,"rental_uris":{"android":"levelo://app?vid=f3529466-4326-4ebe-800e-084adacbe3c6","ios":"levelo://app?vid=f3529466-4326-4ebe-800e-084adacbe3c6"},"vehicle_type_id":"4","last_reported":1768918861,"current_range_meters":5600,"station_id":"ce4bh012rcd13ifvqcv0","pricing_plan_id":"cebpf4jnsgd1na2vs0mg"},{"bike_id":"a8d2063b-b136-4ccb-ad44-f4ea411c2cb1","system_id":"levelo_inurba_marseille","lat":43.24642,"lon":5.4315,"is_reserved":false,"is_disabled":false,"rental_uris":{"android":"levelo://app?vid=a8d2063b-b136-4ccb-ad44-f4ea411c2cb1","ios":"levelo://app?vid=a8d2063b-b136-4ccb-ad44-f4ea411c2cb1"},"vehicle_type_id":"4","last_reported":1768918861,"current_range_meters":6000,"station_id":"st_d2m6c4gdas8pm72e190g","pricing_plan_id":"cebpf4jnsgd1na2vs0mg"},{"bike_id":"9a6fa9d6-bd85-41a0-a1be-8f3bc0337c0a","system_id":"levelo_inurba_marseille","lat":43.24472,"lon":5.42541,"is_reserved":false,"is_disabled":false,"rental_uris":{"android":"levelo://app?vid=9a6fa9d6-bd85-41a0-a1be-8f3bc0337c0a","ios":"levelo://app?vid=9a6fa9d6-bd85-41a0-a1be-8f3bc0337c0a"},"vehicle_type_id":"4","last_reported":1768918861,"current_range_meters":6000,"station_id":"st_d4a3vfp97mjs738cd8kg","pricing_plan_id":"cebpf4jnsgd1na2vs0mg"},{"bike_id":"b4d4d78b-c7ae-46d1-84aa-0c58c638c8ea","system_id":"levelo_inurba_marseille","lat":43.27999,"lon":5.41647,"is_reserved":false,"is_disabled":false,"rental_uris":{"android":"levelo://app?vid=b4d4d78b-c7ae-46d1-84aa-0c58c638c8ea","ios":"levelo://app?vid=b4d4d78b-c7ae-46d1-84aa-0c58c638c8ea"},"vehicle_type_id":"4","last_reported":1768918861,"current_range_meters":6000,"station_id":"ce4bho12rcd13ifvqh1g","pricing_plan_id":"cebpf4jnsgd1na2vs0mg"},{"bike_id":"68dc1a44-5d03-4c5d-84d5-a79d8c7751d1","system_id":"levelo_inurba_marseille","lat":43.29613,"lon":5.37725,"is_reserved":false,"is_disabled":false,"rental_uris":{"android":"levelo://app?vid=68dc1a44-5d03-4c5d-84d5-a79d8c7751d1","ios":"levelo://app?vid=68dc1a44-5d03-4c5d-84d5-a79d8c7751d1"},"vehicle_type_id":"4","last_reported":1768918861,"current_range_meters":6000,"station_id":"ce4bgi92rcd13ifvqb90","pricing_plan_id":"cebpf4jnsgd1na2vs0mg"},{"bike_id":"380b6bd2-0978-4f9d-b266-b06f4ed13d6c","system_id":"levelo_inurba_marseille","lat":43.29527,"lon":5.38543,"is_reserved":false,"is_disabled":false,"rental_uris":{"android":"levelo://app?vid=380b6bd2-0978-4f9d-b266-b06f4ed13d6c","ios":"levelo://app?vid=380b6bd2-0978-4f9d-b266-b06f4ed13d6c"},"vehicle_type_id":"4","last_reported":1768918861,"current_range_meters":6000,"station_id":"ce4bgih2rcd13ifvqba0","pricing_plan_id":"cebpf4jnsgd1na2vs0mg"},{"bike_id":"2966ce43-b4e0-468d-90b7-bfebc38d523e","system_id":"levelo_inurba_marseille","lat":43.30147,"lon":5.37392,"is_reserved":false,"is_disabled":false,"rental_uris":{"android":"levelo://app?vid=2966ce43-b4e0-468d-90b7-bfebc38d523e","ios":"levelo://app?vid=2966ce43-b4e0-468d-90b7-bfebc38d523e"},"vehicle_type_id":"4","last_reported":1768918861,"current_range_meters":6000,"station_id":"ce4bgs92rcd13ifvqcc0","pricing_plan_id":"cebpf4jnsgd1na2vs0mg"},{"bike_id":"904d8f98-ad5c-45d0-b76b-38f569b867cf","system_id":"levelo_inurba_marseille","lat":43.295311,"lon":5.374984,"is_reserved":false,"is_disabled":false,"rental_uris":{"android":"levelo://app?vid=904d8f98-ad5c-45d0-b76b-38f569b867cf","ios":"levelo://app?vid=904d8f98-ad5c-45d0-b76b-38f569b867cf"},"vehicle_type_id":"4","last_reported":1768918861,"current_range_meters":6000,"station_id":"ce4bgkp2rcd13ifvqbmg","pricing_plan_id":"cebpf4jnsgd1na2vs0mg"},{"bike_id":"f650aff8-e742-48ca-8e77-f4fd3b3eebb9","system_id":"levelo_inurba_marseille","lat":43.26849,"lon":5.39538,"is_reserved":false,"is_disabled":false,"rental_uris":{"android":"levelo://app?vid=f650aff8-e742-48ca-8e77-f4fd3b3eebb9","ios":"levelo://app?vid=f650aff8-e742-48ca-8e77-f4fd3b3eebb9"},"vehicle_type_id":"4","last_reported":1768918861,"current_range_meters":6000,"station_id":"","pricing_plan_id":"cebpf4jnsgd1na2vs0mg"},{"bike_id":"32b9055d-85b8-4b54-b386-56f3f6117604","system_id":"levelo_inurba_marseille","lat":43.30775,"lon":5.37655,"is_reserved":false,"is_disabled":false,"rental_uris":{"android":"levelo://app?vid=32b9055d-85b8-4b54-b386-56f3f6117604","ios":"levelo://app?vid=32b9055d-85b8-4b54-b386-56f3f6117604"},"vehicle_type_id":"4","last_reported":1768918861,"current_range_meters":6000,"station_id":"ce4bgv92rcd13ifvqcq0","pricing_plan_id":"cebpf4jnsgd1na2vs0mg"},{"bike_id":"aaff8d94-1fa8-4cba-bdbc-2775e2b840f4","system_id":"levelo_inurba_marseille","lat":43.30928,"lon":5.38043,"is_reserved":false,"is_disabled":false,"rental_uris":{"android":"levelo://app?vid=aaff8d94-1fa8-4cba-bdbc-2775e2b840f4","ios":"levelo://app?vid=aaff8d94-1fa8-4cba-bdbc-2775e2b840f4"},"vehicle_type_id":"4","last_reported":1768918861,"current_range_meters":6000,"station_id":"","pricing_plan_id":"cebpf4jnsgd1na2vs0mg"},{"bike_id":"efa38cb7-a84d-49d1-a1ea-367fe8bf17b7","system_id":"levelo_inurba_marseille","lat":43.30306,"lon":5.3692,"is_reserved":false,"is_disabled":false,"rental_uris":{"android":"levelo://app?vid=efa38cb7-a84d-49d1-a1ea-367fe8bf17b7","ios":"levelo://app?vid=efa38cb7-a84d-49d1-a1ea-367fe8bf17b7"},"vehicle_type_id":"4","last_reported":1768918861,"current_range_meters":6000,"station_id":"ce4bgqh2rcd13ifvqc5g","pricing_plan_id":"cebpf4jnsgd1na2vs0mg"},{"bike_id":"00e77eed-7e57-4db7-8e83-bed0a9e1a854","system_id":"levelo_inurba_marseille","lat":43.291626,"lon":5.37153,"is_reserved":false,"is_disabled":false,"rental_uris":{"android":"levelo://app?vid=00e77eed-7e57-4db7-8e83-bed0a9e1a854","ios":"levelo://app?vid=00e77eed-7e57-4db7-8e83-bed0a9e1a854"},"vehicle_type_id":"4","last_reported":1768918861,"current_range_meters":6000,"station_id":"ce4bha92rcd13ifvqeh0","pricing_plan_id":"cebpf4jnsgd1na2vs0mg"},{"bike_id":"4e7c7395-41c9-42b5-8d81-3d857f383731","system_id":"levelo_inurba_marseille","lat":43.25575,"lon":5.38226,"is_reserved":false,"is_disabled":false,"rental_uris":{"android":"levelo://app?vid=4e7c7395-41c9-42b5-8d81-3d857f383731","ios":"levelo://app?vid=4e7c7395-41c9-42b5-8d81-3d857f383731"},"vehicle_type_id":"4","last_reported":1768918861,"current_range_meters":6000,"station_id":"ce4bhih2rcd13ifvqfs0","pricing_plan_id":"cebpf4jnsgd1na2vs0mg"},{"bike_id":"dc7f2cde-f394-4ae1-b0e4-a51d66aa1255","system_id":"levelo_inurba_marseille","lat":43.28144,"lon":5.43146,"is_reserved":false,"is_disabled":false,"rental_uris":{"android":"levelo://app?vid=dc7f2cde-f394-4ae1-b0e4-a51d66aa1255","ios":"levelo://app?vid=dc7f2cde-f394-4ae1-b0e4-a51d66aa1255"},"vehicle_type_id":"4","last_reported":1768918861,"current_range_meters":6000,"station_id":"","pricing_plan_id":"cebpf4jnsgd1na2vs0mg"},{"bike_id":"ba3b0131-26f7-4740-a4d7-9ecd6b8a6953","system_id":"levelo_inurba_marseille","lat":43.29173,"lon":5.37143,"is_reserved":false,"is_disabled":false,"rental_uris":{"android":"levelo://app?vid=ba3b0131-26f7-4740-a4d7-9ecd6b8a6953","ios":"levelo://app?vid=ba3b0131-26f7-4740-a4d7-9ecd6b8a6953"},"vehicle_type_id":"4","last_reported":1768918861,"current_range_meters":6000,"station_id":"ce4bha92rcd13ifvqeh0","pricing_plan_id":"cebpf4jnsgd1na2vs0mg"},{"bike_id":"cc08d2b6-69fb-4c32-9f0f-91f88c556b74","system_id":"levelo_inurba_marseille","lat":43.22931,"lon":5.35391,"is_reserved":false,"is_disabled":false,"rental_uris":{"android":"levelo://app?vid=cc08d2b6-69fb-4c32-9f0f-91f88c556b74","ios":"levelo://app?vid=cc08d2b6-69fb-4c32-9f0f-91f88c556b74"},"vehicle_type_id":"4","last_reported":1768918861,"current_range_meters":6000,"station_id":"cpo3532slgdg3j2ikp40","pricing_plan_id":"cebpf4jnsgd1na2vs0mg"},{"bike_id":"ab4a1c40-bde0-44c2-86f5-2da65e7d8702","system_id":"levelo_inurba_marseille","lat":43.28448,"lon":5.39203,"is_reserved":false,"is_disabled":false,"rental_uris":{"android":"levelo://app?vid=ab4a1c40-bde0-44c2-86f5-2da65e7d8702","ios":"levelo://app?vid=ab4a1c40-bde0-44c2-86f5-2da65e7d8702"},"vehicle_type_id":"4","last_reported":1768918861,"current_range_meters":6400,"station_id":"ce4bhoh2rcd13ifvqh5g","pricing_plan_id":"cebpf4jnsgd1na2vs0mg"},{"bike_id":"5c0b6085-ef5d-4ca2-80ac-5c60db0558a8","system_id":"levelo_inurba_marseille","lat":43.31246,"lon":5.36868,"is_reserved":false,"is_disabled":false,"rental_uris":{"android":"levelo://app?vid=5c0b6085-ef5d-4ca2-80ac-5c60db0558a8","ios":"levelo://app?vid=5c0b6085-ef5d-4ca2-80ac-5c60db0558a8"},"vehicle_type_id":"4","last_reported":1768918861,"current_range_meters":6400,"station_id":"ce4bgl92rcd13ifvqbq0","pricing_plan_id":"cebpf4jnsgd1na2vs0mg"},{"bike_id":"c9fc643e-c809-4366-80b3-8aff0898d318","system_id":"levelo_inurba_marseille","lat":43.25938,"lon":5.40914,"is_reserved":false,"is_disabled":false,"rental_uris":{"android":"levelo://app?vid=c9fc643e-c809-4366-80b3-8aff0898d318","ios":"levelo://app?vid=c9fc643e-c809-4366-80b3-8aff0898d318"},"vehicle_type_id":"4","last_reported":1768918861,"current_range_meters":6400,"station_id":"ce4bhm92rcd13ifvqglg","pricing_plan_id":"cebpf4jnsgd1na2vs0mg"},{"bike_id":"2351e1c9-97c0-42ed-8ba7-93d168c64106","system_id":"levelo_inurba_marseille","lat":43.29757,"lon":5.42783,"is_reserved":false,"is_disabled":false,"rental_uris":{"android":"levelo://app?vid=2351e1c9-97c0-42ed-8ba7-93d168c64106","ios":"levelo://app?vid=2351e1c9-97c0-42ed-8ba7-93d168c64106"},"vehicle_type_id":"4","last_reported":1768918861,"current_range_meters":6400,"station_id":"st_d3md5207bmas73dh9klg","pricing_plan_id":"cebpf4jnsgd1na2vs0mg"},{"bike_id":"826aeb2d-9384-4062-9da4-ff770f5b59dd","system_id":"levelo_inurba_marseille","lat":43.26064,"lon":5.39391,"is_reserved":false,"is_disabled":false,"rental_uris":{"android":"levelo://app?vid=826aeb2d-9384-4062-9da4-ff770f5b59dd","ios":"levelo://app?vid=826aeb2d-9384-4062-9da4-ff770f5b59dd"},"vehicle_type_id":"4","last_reported":1768918861,"current_range_meters":6400,"station_id":"ce4bhh92rcd13ifvqfj0","pricing_plan_id":"cebpf4jnsgd1na2vs0mg"},{"bike_id":"9cff5037-b95f-4160-aed4-0c6a74c5919b","system_id":"levelo_inurba_marseille","lat":43.28484,"lon":5.48397,"is_reserved":false,"is_disabled":false,"rental_uris":{"android":"levelo://app?vid=9cff5037-b95f-4160-aed4-0c6a74c5919b","ios":"levelo://app?vid=9cff5037-b95f-4160-aed4-0c6a74c5919b"},"vehicle_type_id":"4","last_reported":1768918861,"current_range_meters":6400,"station_id":"","pricing_plan_id":"cebpf4jnsgd1na2vs0mg"},{"bike_id":"ecf9cbb8-bc97-4496-8b60-95467111c186","system_id":"levelo_inurba_marseille","lat":43.3095,"lon":5.39032,"is_reserved":false,"is_disabled":false,"rental_uris":{"android":"levelo://app?vid=ecf9cbb8-bc97-4496-8b60-95467111c186","ios":"levelo://app?vid=ecf9cbb8-bc97-4496-8b60-95467111c186"},"vehicle_type_id":"4","last_reported":1768918861,"current_range_meters":6400,"station_id":"ce4bgup2rcd13ifvqco0","pricing_plan_id":"cebpf4jnsgd1na2vs0mg"},{"bike_id":"ee4afba0-9c9e-447e-8821-0702e59e661a","system_id":"levelo_inurba_marseille","lat":43.29792,"lon":5.39332,"is_reserved":false,"is_disabled":false,"rental_uris":{"android":"levelo://app?vid=ee4afba0-9c9e-447e-8821-0702e59e661a","ios":"levelo://app?vid=ee4afba0-9c9e-447e-8821-0702e59e661a"},"vehicle_type_id":"4","last_reported":1768918861,"current_range_meters":6400,"station_id":"chh1huq6cuj3fo74tm60","pricing_plan_id":"cebpf4jnsgd1na2vs0mg"},{"bike_id":"de0f4678-7dd3-4b16-840c-20ba2737ca6a","system_id":"levelo_inurba_marseille","lat":43.24068,"lon":5.37757,"is_reserved":false,"is_disabled":false,"rental_uris":{"android":"levelo://app?vid=de0f4678-7dd3-4b16-840c-20ba2737ca6a","ios":"levelo://app?vid=de0f4678-7dd3-4b16-840c-20ba2737ca6a"},"vehicle_type_id":"4","last_reported":1768918861,"current_range_meters":6400,"station_id":"ce4bhnp2rcd13ifvqgvg","pricing_plan_id":"cebpf4jnsgd1na2vs0mg"},{"bike_id":"9005e431-9c14-4005-af0f-9a7de320525f","system_id":"levelo_inurba_marseille","lat":43.24076,"lon":5.37754,"is_reserved":false,"is_disabled":false,"rental_uris":{"android":"levelo://app?vid=9005e431-9c14-4005-af0f-9a7de320525f","ios":"levelo://app?vid=9005e431-9c14-4005-af0f-9a7de320525f"},"vehicle_type_id":"4","last_reported":1768918861,"current_range_meters":6400,"station_id":"ce4bhnp2rcd13ifvqgvg","pricing_plan_id":"cebpf4jnsgd1na2vs0mg"},{"bike_id":"f1d4233d-2911-4edf-a268-ad1589486129","system_id":"levelo_inurba_marseille","lat":43.24182,"lon":5.39736,"is_reserved":false,"is_disabled":false,"rental_uris":{"android":"levelo://app?vid=f1d4233d-2911-4edf-a268-ad1589486129","ios":"levelo://app?vid=f1d4233d-2911-4edf-a268-ad1589486129"},"vehicle_type_id":"4","last_reported":1768918861,"current_range_meters":6400,"station_id":"ce4bhn12rcd13ifvqgpg","pricing_plan_id":"cebpf4jnsgd1na2vs0mg"},{"bike_id":"e77b5e8b-3b70-4f01-96b2-0f0eadd97009","system_id":"levelo_inurba_marseille","lat":43.29784,"lon":5.37107,"is_reserved":false,"is_disabled":false,"rental_uris":{"android":"levelo://app?vid=e77b5e8b-3b70-4f01-96b2-0f0eadd97009","ios":"levelo://app?vid=e77b5e8b-3b70-4f01-96b2-0f0eadd97009"},"vehicle_type_id":"4","last_reported":1768918861,"current_range_meters":6400,"station_id":"ce4bgop2rcd13ifvqc1g","pricing_plan_id":"cebpf4jnsgd1na2vs0mg"},{"bike_id":"e3caaaee-f8d9-44b6-b3d8-e04b5e8c88ba","system_id":"levelo_inurba_marseille","lat":43.27833,"lon":5.40697,"is_reserved":false,"is_disabled":false,"rental_uris":{"android":"levelo://app?vid=e3caaaee-f8d9-44b6-b3d8-e04b5e8c88ba","ios":"levelo://app?vid=e3caaaee-f8d9-44b6-b3d8-e04b5e8c88ba"},"vehicle_type_id":"4","last_reported":1768918861,"current_range_meters":6400,"station_id":"ce4bhnh2rcd13ifvqgtg","pricing_plan_id":"cebpf4jnsgd1na2vs0mg"},{"bike_id":"b005335c-6b18-438b-8b3c-63321309c058","system_id":"levelo_inurba_marseille","lat":43.31351,"lon":5.36712,"is_reserved":false,"is_disabled":false,"rental_uris":{"android":"levelo://app?vid=b005335c-6b18-438b-8b3c-63321309c058","ios":"levelo://app?vid=b005335c-6b18-438b-8b3c-63321309c058"},"vehicle_type_id":"4","last_reported":1768918861,"current_range_meters":6400,"station_id":"ce4bgr92rcd13ifvqc6g","pricing_plan_id":"cebpf4jnsgd1na2vs0mg"},{"bike_id":"ea1b6251-046e-45fa-99ed-c6d51993189a","system_id":"levelo_inurba_marseille","lat":43.23962,"lon":5.36648,"is_reserved":false,"is_disabled":false,"rental_uris":{"android":"levelo://app?vid=ea1b6251-046e-45fa-99ed-c6d51993189a","ios":"levelo://app?vid=ea1b6251-046e-45fa-99ed-c6d51993189a"},"vehicle_type_id":"4","last_reported":1768918861,"current_range_meters":6400,"station_id":"ce4bhi12rcd13ifvqfp0","pricing_plan_id":"cebpf4jnsgd1na2vs0mg"},{"bike_id":"d238f16e-4062-499e-8108-95d77e85591f","system_id":"levelo_inurba_marseille","lat":43.29794,"lon":5.40417,"is_reserved":false,"is_disabled":false,"rental_uris":{"android":"levelo://app?vid=d238f16e-4062-499e-8108-95d77e85591f","ios":"levelo://app?vid=d238f16e-4062-499e-8108-95d77e85591f"},"vehicle_type_id":"4","last_reported":1768918861,"current_range_meters":6800,"station_id":"ce4bh112rcd13ifvqd90","pricing_plan_id":"cebpf4jnsgd1na2vs0mg"},{"bike_id":"ee88d5c5-7bf3-4e5b-8b24-823611a7357c","system_id":"levelo_inurba_marseille","lat":43.28843,"lon":5.35876,"is_reserved":false,"is_disabled":false,"rental_uris":{"android":"levelo://app?vid=ee88d5c5-7bf3-4e5b-8b24-823611a7357c","ios":"levelo://app?vid=ee88d5c5-7bf3-4e5b-8b24-823611a7357c"},"vehicle_type_id":"4","last_reported":1768918861,"current_range_meters":6800,"station_id":"ce4bhb12rcd13ifvqem0","pricing_plan_id":"cebpf4jnsgd1na2vs0mg"},{"bike_id":"855173a0-3379-49a2-8d48-56dd2230240e","system_id":"levelo_inurba_marseille","lat":43.274913,"lon":5.424532,"is_reserved":false,"is_disabled":false,"rental_uris":{"android":"levelo://app?vid=855173a0-3379-49a2-8d48-56dd2230240e","ios":"levelo://app?vid=855173a0-3379-49a2-8d48-56dd2230240e"},"vehicle_type_id":"4","last_reported":1768918861,"current_range_meters":6800,"station_id":"ce4bhn92rcd13ifvqgrg","pricing_plan_id":"cebpf4jnsgd1na2vs0mg"},{"bike_id":"1cd68235-0dd0-4a18-b47e-f8a039dc8288","system_id":"levelo_inurba_marseille","lat":43.26351,"lon":5.41056,"is_reserved":false,"is_disabled":false,"rental_uris":{"android":"levelo://app?vid=1cd68235-0dd0-4a18-b47e-f8a039dc8288","ios":"levelo://app?vid=1cd68235-0dd0-4a18-b47e-f8a039dc8288"},"vehicle_type_id":"4","last_reported":1768918861,"current_range_meters":6800,"station_id":"st_d4e5ca6na9uc73bfl5fg","pricing_plan_id":"cebpf4jnsgd1na2vs0mg"},{"bike_id":"6c3a5c15-7423-4a25-87ba-05f3c8d2d87e","system_id":"levelo_inurba_marseille","lat":43.32417,"lon":5.36814,"is_reserved":false,"is_disabled":false,"rental_uris":{"android":"levelo://app?vid=6c3a5c15-7423-4a25-87ba-05f3c8d2d87e","ios":"levelo://app?vid=6c3a5c15-7423-4a25-87ba-05f3c8d2d87e"},"vehicle_type_id":"4","last_reported":1768918861,"current_range_meters":6800,"station_id":"ce4bhsh2rcd13ifvqi2g","pricing_plan_id":"cebpf4jnsgd1na2vs0mg"},{"bike_id":"c848ef88-9bba-440c-bccf-3dad8e3c10e5","system_id":"levelo_inurba_marseille","lat":43.30556,"lon":5.3651,"is_reserved":false,"is_disabled":false,"rental_uris":{"android":"levelo://app?vid=c848ef88-9bba-440c-bccf-3dad8e3c10e5","ios":"levelo://app?vid=c848ef88-9bba-440c-bccf-3dad8e3c10e5"},"vehicle_type_id":"4","last_reported":1768918861,"current_range_meters":6800,"station_id":"ce4bgs12rcd13ifvqcag","pricing_plan_id":"cebpf4jnsgd1na2vs0mg"},{"bike_id":"9b5d99fe-9a65-44a3-8698-24d55553572d","system_id":"levelo_inurba_marseille","lat":43.301,"lon":5.36454,"is_reserved":false,"is_disabled":false,"rental_uris":{"android":"levelo://app?vid=9b5d99fe-9a65-44a3-8698-24d55553572d","ios":"levelo://app?vid=9b5d99fe-9a65-44a3-8698-24d55553572d"},"vehicle_type_id":"4","last_reported":1768918861,"current_range_meters":6800,"station_id":"","pricing_plan_id":"cebpf4jnsgd1na2vs0mg"},{"bike_id":"705085e2-9b40-490f-8b97-ff135b7389a2","system_id":"levelo_inurba_marseille","lat":43.27494,"lon":5.42458,"is_reserved":false,"is_disabled":false,"rental_uris":{"android":"levelo://app?vid=705085e2-9b40-490f-8b97-ff135b7389a2","ios":"levelo://app?vid=705085e2-9b40-490f-8b97-ff135b7389a2"},"vehicle_type_id":"4","last_reported":1768918861,"current_range_meters":6800,"station_id":"ce4bhn92rcd13ifvqgrg","pricing_plan_id":"cebpf4jnsgd1na2vs0mg"},{"bike_id":"d9ad46c6-6b19-44db-a706-718aea22bb17","system_id":"levelo_inurba_marseille","lat":43.29183,"lon":5.37148,"is_reserved":false,"is_disabled":false,"rental_uris":{"android":"levelo://app?vid=d9ad46c6-6b19-44db-a706-718aea22bb17","ios":"levelo://app?vid=d9ad46c6-6b19-44db-a706-718aea22bb17"},"vehicle_type_id":"4","last_reported":1768918861,"current_range_meters":6800,"station_id":"ce4bha92rcd13ifvqeh0","pricing_plan_id":"cebpf4jnsgd1na2vs0mg"},{"bike_id":"85c08aa5-29a6-4378-a34a-4b44d3f93913","system_id":"levelo_inurba_marseille","lat":43.3133,"lon":5.36752,"is_reserved":false,"is_disabled":false,"rental_uris":{"android":"levelo://app?vid=85c08aa5-29a6-4378-a34a-4b44d3f93913","ios":"levelo://app?vid=85c08aa5-29a6-4378-a34a-4b44d3f93913"},"vehicle_type_id":"4","last_reported":1768918861,"current_range_meters":7200,"station_id":"ce4bgr92rcd13ifvqc6g","pricing_plan_id":"cebpf4jnsgd1na2vs0mg"},{"bike_id":"10d553e6-fa8d-4475-96fa-a44809547580","system_id":"levelo_inurba_marseille","lat":43.28413,"lon":5.34972,"is_reserved":false,"is_disabled":false,"rental_uris":{"android":"levelo://app?vid=10d553e6-fa8d-4475-96fa-a44809547580","ios":"levelo://app?vid=10d553e6-fa8d-4475-96fa-a44809547580"},"vehicle_type_id":"4","last_reported":1768918861,"current_range_meters":7200,"station_id":"ce4bhbh2rcd13ifvqepg","pricing_plan_id":"cebpf4jnsgd1na2vs0mg"},{"bike_id":"526d26c0-396b-4353-b988-5a07ce2663a2","system_id":"levelo_inurba_marseille","lat":43.309447,"lon":5.390379,"is_reserved":false,"is_disabled":false,"rental_uris":{"android":"levelo://app?vid=526d26c0-396b-4353-b988-5a07ce2663a2","ios":"levelo://app?vid=526d26c0-396b-4353-b988-5a07ce2663a2"},"vehicle_type_id":"4","last_reported":1768918861,"current_range_meters":7200,"station_id":"ce4bgup2rcd13ifvqco0","pricing_plan_id":"cebpf4jnsgd1na2vs0mg"},{"bike_id":"c90f8d49-c464-4abb-b50f-a6f2833250ba","system_id":"levelo_inurba_marseille","lat":43.26062,"lon":5.39376,"is_reserved":false,"is_disabled":false,"rental_uris":{"android":"levelo://app?vid=c90f8d49-c464-4abb-b50f-a6f2833250ba","ios":"levelo://app?vid=c90f8d49-c464-4abb-b50f-a6f2833250ba"},"vehicle_type_id":"4","last_reported":1768918861,"current_range_meters":7200,"station_id":"ce4bhh92rcd13ifvqfj0","pricing_plan_id":"cebpf4jnsgd1na2vs0mg"},{"bike_id":"4ca32394-f8f1-4623-8df9-31249aca63fc","system_id":"levelo_inurba_marseille","lat":43.23185,"lon":5.39977,"is_reserved":false,"is_disabled":false,"rental_uris":{"android":"levelo://app?vid=4ca32394-f8f1-4623-8df9-31249aca63fc","ios":"levelo://app?vid=4ca32394-f8f1-4623-8df9-31249aca63fc"},"vehicle_type_id":"4","last_reported":1768918861,"current_range_meters":7200,"station_id":"ce4bhn12rcd13ifvqgqg","pricing_plan_id":"cebpf4jnsgd1na2vs0mg"},{"bike_id":"ab62c2c7-778e-423c-8864-1a3f3a3a4fe7","system_id":"levelo_inurba_marseille","lat":43.27703,"lon":5.40797,"is_reserved":false,"is_disabled":false,"rental_uris":{"android":"levelo://app?vid=ab62c2c7-778e-423c-8864-1a3f3a3a4fe7","ios":"levelo://app?vid=ab62c2c7-778e-423c-8864-1a3f3a3a4fe7"},"vehicle_type_id":"4","last_reported":1768918861,"current_range_meters":7200,"station_id":"","pricing_plan_id":"cebpf4jnsgd1na2vs0mg"},{"bike_id":"d1b1cf6a-870f-4034-b895-5100ce4a3332","system_id":"levelo_inurba_marseille","lat":43.29546,"lon":5.42266,"is_reserved":false,"is_disabled":false,"rental_uris":{"android":"levelo://app?vid=d1b1cf6a-870f-4034-b895-5100ce4a3332","ios":"levelo://app?vid=d1b1cf6a-870f-4034-b895-5100ce4a3332"},"vehicle_type_id":"4","last_reported":1768918861,"current_range_meters":7200,"station_id":"ce4bhph2rcd13ifvqhdg","pricing_plan_id":"cebpf4jnsgd1na2vs0mg"},{"bike_id":"fb399f5a-106d-4e4e-b0b6-eb700dad2449","system_id":"levelo_inurba_marseille","lat":43.28613,"lon":5.39872,"is_reserved":false,"is_disabled":true,"rental_uris":{"android":"levelo://app?vid=fb399f5a-106d-4e4e-b0b6-eb700dad2449","ios":"levelo://app?vid=fb399f5a-106d-4e4e-b0b6-eb700dad2449"},"vehicle_type_id":"4","last_reported":1768918861,"current_range_meters":7200,"station_id":"ce4bho92rcd13ifvqh3g","pricing_plan_id":"cebpf4jnsgd1na2vs0mg"},{"bike_id":"40e2667e-f23a-4ded-8ddb-fef4d5eb0dfe","system_id":"levelo_inurba_marseille","lat":43.255327,"lon":5.376633,"is_reserved":false,"is_disabled":false,"rental_uris":{"android":"levelo://app?vid=40e2667e-f23a-4ded-8ddb-fef4d5eb0dfe","ios":"levelo://app?vid=40e2667e-f23a-4ded-8ddb-fef4d5eb0dfe"},"vehicle_type_id":"4","last_reported":1768918861,"current_range_meters":7200,"station_id":"ce4bhh12rcd13ifvqff0","pricing_plan_id":"cebpf4jnsgd1na2vs0mg"},{"bike_id":"4d9fb050-4361-4bab-ba3c-960b4264587c","system_id":"levelo_inurba_marseille","lat":43.3306,"lon":5.39079,"is_reserved":false,"is_disabled":false,"rental_uris":{"android":"levelo://app?vid=4d9fb050-4361-4bab-ba3c-960b4264587c","ios":"levelo://app?vid=4d9fb050-4361-4bab-ba3c-960b4264587c"},"vehicle_type_id":"4","last_reported":1768918861,"current_range_meters":7200,"station_id":"","pricing_plan_id":"cebpf4jnsgd1na2vs0mg"},{"bike_id":"fe9d92c6-6bf2-42de-b9d6-1a1baad0a909","system_id":"levelo_inurba_marseille","lat":43.27978,"lon":5.387,"is_reserved":false,"is_disabled":false,"rental_uris":{"android":"levelo://app?vid=fe9d92c6-6bf2-42de-b9d6-1a1baad0a909","ios":"levelo://app?vid=fe9d92c6-6bf2-42de-b9d6-1a1baad0a909"},"vehicle_type_id":"4","last_reported":1768918861,"current_range_meters":7200,"station_id":"ce4bhg12rcd13ifvqf80","pricing_plan_id":"cebpf4jnsgd1na2vs0mg"},{"bike_id":"c9a68050-4d25-4194-aa7f-1f790691da34","system_id":"levelo_inurba_marseille","lat":43.2438,"lon":5.37054,"is_reserved":false,"is_disabled":false,"rental_uris":{"android":"levelo://app?vid=c9a68050-4d25-4194-aa7f-1f790691da34","ios":"levelo://app?vid=c9a68050-4d25-4194-aa7f-1f790691da34"},"vehicle_type_id":"4","last_reported":1768918861,"current_range_meters":7200,"station_id":"ce4bhhh2rcd13ifvqfk0","pricing_plan_id":"cebpf4jnsgd1na2vs0mg"},{"bike_id":"54f08a3f-d426-4df5-a7b9-7a5fa449f152","system_id":"levelo_inurba_marseille","lat":43.29252,"lon":5.40917,"is_reserved":false,"is_disabled":false,"rental_uris":{"android":"levelo://app?vid=54f08a3f-d426-4df5-a7b9-7a5fa449f152","ios":"levelo://app?vid=54f08a3f-d426-4df5-a7b9-7a5fa449f152"},"vehicle_type_id":"4","last_reported":1768918861,"current_range_meters":7200,"station_id":"ce4bh192rcd13ifvqdc0","pricing_plan_id":"cebpf4jnsgd1na2vs0mg"},{"bike_id":"d3465023-47a0-4a04-9c4b-30d7ebfc56cc","system_id":"levelo_inurba_marseille","lat":43.28156,"lon":5.42646,"is_reserved":false,"is_disabled":false,"rental_uris":{"android":"levelo://app?vid=d3465023-47a0-4a04-9c4b-30d7ebfc56cc","ios":"levelo://app?vid=d3465023-47a0-4a04-9c4b-30d7ebfc56cc"},"vehicle_type_id":"4","last_reported":1768918861,"current_range_meters":7200,"station_id":"ce4bhnh2rcd13ifvqgug","pricing_plan_id":"cebpf4jnsgd1na2vs0mg"},{"bike_id":"ce65da15-5103-4c08-86e5-b4783ea2b238","system_id":"levelo_inurba_marseille","lat":43.29313,"lon":5.37181,"is_reserved":false,"is_disabled":false,"rental_uris":{"android":"levelo://app?vid=ce65da15-5103-4c08-86e5-b4783ea2b238","ios":"levelo://app?vid=ce65da15-5103-4c08-86e5-b4783ea2b238"},"vehicle_type_id":"4","last_reported":1768918861,"current_range_meters":7200,"station_id":"ce4bgh92rcd13ifvqb40","pricing_plan_id":"cebpf4jnsgd1na2vs0mg"},{"bike_id":"c7030079-d609-4e03-a600-e9f0eb6e96cd","system_id":"levelo_inurba_marseille","lat":43.29879,"lon":5.39742,"is_reserved":false,"is_disabled":false,"rental_uris":{"android":"levelo://app?vid=c7030079-d609-4e03-a600-e9f0eb6e96cd","ios":"levelo://app?vid=c7030079-d609-4e03-a600-e9f0eb6e96cd"},"vehicle_type_id":"4","last_reported":1768918861,"current_range_meters":7200,"station_id":"ce4bh0h2rcd13ifvqd50","pricing_plan_id":"cebpf4jnsgd1na2vs0mg"},{"bike_id":"3f155f0c-a1bd-400f-8289-4fd480af1e73","system_id":"levelo_inurba_marseille","lat":43.29136,"lon":5.38237,"is_reserved":false,"is_disabled":false,"rental_uris":{"android":"levelo://app?vid=3f155f0c-a1bd-400f-8289-4fd480af1e73","ios":"levelo://app?vid=3f155f0c-a1bd-400f-8289-4fd480af1e73"},"vehicle_type_id":"4","last_reported":1768918861,"current_range_meters":7200,"station_id":"","pricing_plan_id":"cebpf4jnsgd1na2vs0mg"},{"bike_id":"544ad0c6-321a-4014-a5c3-ffb32ae71cca","system_id":"levelo_inurba_marseille","lat":43.28477,"lon":5.48408,"is_reserved":false,"is_disabled":false,"rental_uris":{"android":"levelo://app?vid=544ad0c6-321a-4014-a5c3-ffb32ae71cca","ios":"levelo://app?vid=544ad0c6-321a-4014-a5c3-ffb32ae71cca"},"vehicle_type_id":"4","last_reported":1768918861,"current_range_meters":7200,"station_id":"","pricing_plan_id":"cebpf4jnsgd1na2vs0mg"},{"bike_id":"c7247dff-9886-444a-baaf-7060e5f94f01","system_id":"levelo_inurba_marseille","lat":43.26546,"lon":5.37286,"is_reserved":false,"is_disabled":false,"rental_uris":{"android":"levelo://app?vid=c7247dff-9886-444a-baaf-7060e5f94f01","ios":"levelo://app?vid=c7247dff-9886-444a-baaf-7060e5f94f01"},"vehicle_type_id":"4","last_reported":1768918861,"current_range_meters":7200,"station_id":"ce4bhg12rcd13ifvqf70","pricing_plan_id":"cebpf4jnsgd1na2vs0mg"},{"bike_id":"5d6ec190-4e3f-4728-8145-239caf53150f","system_id":"levelo_inurba_marseille","lat":43.30681,"lon":5.40288,"is_reserved":false,"is_disabled":false,"rental_uris":{"android":"levelo://app?vid=5d6ec190-4e3f-4728-8145-239caf53150f","ios":"levelo://app?vid=5d6ec190-4e3f-4728-8145-239caf53150f"},"vehicle_type_id":"4","last_reported":1768918861,"current_range_meters":7200,"station_id":"","pricing_plan_id":"cebpf4jnsgd1na2vs0mg"},{"bike_id":"fdc6c686-a63e-42ac-8637-afd5d70ee598","system_id":"levelo_inurba_marseille","lat":43.29259,"lon":5.40113,"is_reserved":false,"is_disabled":false,"rental_uris":{"android":"levelo://app?vid=fdc6c686-a63e-42ac-8637-afd5d70ee598","ios":"levelo://app?vid=fdc6c686-a63e-42ac-8637-afd5d70ee598"},"vehicle_type_id":"4","last_reported":1768918861,"current_range_meters":7200,"station_id":"ce4bh312rcd13ifvqdk0","pricing_plan_id":"cebpf4jnsgd1na2vs0mg"},{"bike_id":"00926366-40d2-4692-a7fe-1fb3b69e53b6","system_id":"levelo_inurba_marseille","lat":43.32479,"lon":5.3657,"is_reserved":false,"is_disabled":false,"rental_uris":{"android":"levelo://app?vid=00926366-40d2-4692-a7fe-1fb3b69e53b6","ios":"levelo://app?vid=00926366-40d2-4692-a7fe-1fb3b69e53b6"},"vehicle_type_id":"4","last_reported":1768918861,"current_range_meters":8000,"station_id":"ce4bhs12rcd13ifvqhvg","pricing_plan_id":"cebpf4jnsgd1na2vs0mg"},{"bike_id":"7d9933dd-33a6-40d9-bc54-603c819a560c","system_id":"levelo_inurba_marseille","lat":43.29007,"lon":5.35611,"is_reserved":false,"is_disabled":false,"rental_uris":{"android":"levelo://app?vid=7d9933dd-33a6-40d9-bc54-603c819a560c","ios":"levelo://app?vid=7d9933dd-33a6-40d9-bc54-603c819a560c"},"vehicle_type_id":"4","last_reported":1768918861,"current_range_meters":8000,"station_id":"ce4bhb92rcd13ifvqen0","pricing_plan_id":"cebpf4jnsgd1na2vs0mg"},{"bike_id":"590ae3a8-a253-4c96-9544-79024fe7362e","system_id":"levelo_inurba_marseille","lat":43.29031,"lon":5.38637,"is_reserved":false,"is_disabled":false,"rental_uris":{"android":"levelo://app?vid=590ae3a8-a253-4c96-9544-79024fe7362e","ios":"levelo://app?vid=590ae3a8-a253-4c96-9544-79024fe7362e"},"vehicle_type_id":"4","last_reported":1768918861,"current_range_meters":8000,"station_id":"ce4bh4p2rcd13ifvqe0g","pricing_plan_id":"cebpf4jnsgd1na2vs0mg"},{"bike_id":"65f2e28d-b6c3-4183-a528-4abf22dd5335","system_id":"levelo_inurba_marseille","lat":43.23958,"lon":5.36635,"is_reserved":false,"is_disabled":false,"rental_uris":{"android":"levelo://app?vid=65f2e28d-b6c3-4183-a528-4abf22dd5335","ios":"levelo://app?vid=65f2e28d-b6c3-4183-a528-4abf22dd5335"},"vehicle_type_id":"4","last_reported":1768918861,"current_range_meters":8000,"station_id":"ce4bhi12rcd13ifvqfp0","pricing_plan_id":"cebpf4jnsgd1na2vs0mg"},{"bike_id":"de773d31-c0ae-4fe9-90d5-b0353b585a1e","system_id":"levelo_inurba_marseille","lat":43.26498,"lon":5.39555,"is_reserved":false,"is_disabled":false,"rental_uris":{"android":"levelo://app?vid=de773d31-c0ae-4fe9-90d5-b0353b585a1e","ios":"levelo://app?vid=de773d31-c0ae-4fe9-90d5-b0353b585a1e"},"vehicle_type_id":"4","last_reported":1768918861,"current_range_meters":8000,"station_id":"ce4bhi12rcd13ifvqfq0","pricing_plan_id":"cebpf4jnsgd1na2vs0mg"},{"bike_id":"19da54de-4602-49e5-a196-11068ea61238","system_id":"levelo_inurba_marseille","lat":43.30658,"lon":5.3655,"is_reserved":false,"is_disabled":false,"rental_uris":{"android":"levelo://app?vid=19da54de-4602-49e5-a196-11068ea61238","ios":"levelo://app?vid=19da54de-4602-49e5-a196-11068ea61238"},"vehicle_type_id":"4","last_reported":1768918861,"current_range_meters":8000,"station_id":"","pricing_plan_id":"cebpf4jnsgd1na2vs0mg"},{"bike_id":"350a79a1-2120-443a-849c-814a0e198d1b","system_id":"levelo_inurba_marseille","lat":43.25509,"lon":5.37648,"is_reserved":false,"is_disabled":false,"rental_uris":{"android":"levelo://app?vid=350a79a1-2120-443a-849c-814a0e198d1b","ios":"levelo://app?vid=350a79a1-2120-443a-849c-814a0e198d1b"},"vehicle_type_id":"4","last_reported":1768918861,"current_range_meters":8000,"station_id":"ce4bhh12rcd13ifvqff0","pricing_plan_id":"cebpf4jnsgd1na2vs0mg"},{"bike_id":"c766203c-fe51-459b-bf74-dd6b3df74629","system_id":"levelo_inurba_marseille","lat":43.23191,"lon":5.39986,"is_reserved":false,"is_disabled":false,"rental_uris":{"android":"levelo://app?vid=c766203c-fe51-459b-bf74-dd6b3df74629","ios":"levelo://app?vid=c766203c-fe51-459b-bf74-dd6b3df74629"},"vehicle_type_id":"4","last_reported":1768918861,"current_range_meters":8000,"station_id":"ce4bhn12rcd13ifvqgqg","pricing_plan_id":"cebpf4jnsgd1na2vs0mg"},{"bike_id":"f58dc067-4dd9-4635-8ae5-365aced9c977","system_id":"levelo_inurba_marseille","lat":43.26193,"lon":5.40428,"is_reserved":false,"is_disabled":false,"rental_uris":{"android":"levelo://app?vid=f58dc067-4dd9-4635-8ae5-365aced9c977","ios":"levelo://app?vid=f58dc067-4dd9-4635-8ae5-365aced9c977"},"vehicle_type_id":"4","last_reported":1768918861,"current_range_meters":8000,"station_id":"ce4bhmh2rcd13ifvqgmg","pricing_plan_id":"cebpf4jnsgd1na2vs0mg"},{"bike_id":"b5768c15-43fb-4649-859f-0a9fb3cb4e9e","system_id":"levelo_inurba_marseille","lat":43.307412,"lon":5.382226,"is_reserved":false,"is_disabled":false,"rental_uris":{"android":"levelo://app?vid=b5768c15-43fb-4649-859f-0a9fb3cb4e9e","ios":"levelo://app?vid=b5768c15-43fb-4649-859f-0a9fb3cb4e9e"},"vehicle_type_id":"4","last_reported":1768918861,"current_range_meters":8000,"station_id":"ce4bgt12rcd13ifvqce0","pricing_plan_id":"cebpf4jnsgd1na2vs0mg"},{"bike_id":"10483c0a-1726-407f-8492-2530493c0d67","system_id":"levelo_inurba_marseille","lat":43.24994,"lon":5.38902,"is_reserved":false,"is_disabled":false,"rental_uris":{"android":"levelo://app?vid=10483c0a-1726-407f-8492-2530493c0d67","ios":"levelo://app?vid=10483c0a-1726-407f-8492-2530493c0d67"},"vehicle_type_id":"4","last_reported":1768918861,"current_range_meters":8000,"station_id":"ce4bhgp2rcd13ifvqfd0","pricing_plan_id":"cebpf4jnsgd1na2vs0mg"},{"bike_id":"64564d81-7fa9-470c-84f7-e881a2d2d1a5","system_id":"levelo_inurba_marseille","lat":43.24461,"lon":5.42542,"is_reserved":false,"is_disabled":false,"rental_uris":{"android":"levelo://app?vid=64564d81-7fa9-470c-84f7-e881a2d2d1a5","ios":"levelo://app?vid=64564d81-7fa9-470c-84f7-e881a2d2d1a5"},"vehicle_type_id":"4","last_reported":1768918861,"current_range_meters":8000,"station_id":"st_d4a3vfp97mjs738cd8kg","pricing_plan_id":"cebpf4jnsgd1na2vs0mg"},{"bike_id":"35eb0f0f-42a8-4fd5-956e-bec6aa3f7ee3","system_id":"levelo_inurba_marseille","lat":43.23197,"lon":5.40002,"is_reserved":false,"is_disabled":false,"rental_uris":{"android":"levelo://app?vid=35eb0f0f-42a8-4fd5-956e-bec6aa3f7ee3","ios":"levelo://app?vid=35eb0f0f-42a8-4fd5-956e-bec6aa3f7ee3"},"vehicle_type_id":"4","last_reported":1768918861,"current_range_meters":8000,"station_id":"ce4bhn12rcd13ifvqgqg","pricing_plan_id":"cebpf4jnsgd1na2vs0mg"},{"bike_id":"e775e37a-88b9-408c-8364-888bc63e91d3","system_id":"levelo_inurba_marseille","lat":43.24388,"lon":5.37083,"is_reserved":false,"is_disabled":false,"rental_uris":{"android":"levelo://app?vid=e775e37a-88b9-408c-8364-888bc63e91d3","ios":"levelo://app?vid=e775e37a-88b9-408c-8364-888bc63e91d3"},"vehicle_type_id":"4","last_reported":1768918861,"current_range_meters":8000,"station_id":"ce4bhhh2rcd13ifvqfk0","pricing_plan_id":"cebpf4jnsgd1na2vs0mg"},{"bike_id":"7cf18d94-e1a1-4160-915c-04b24e4ca41c","system_id":"levelo_inurba_marseille","lat":43.29589,"lon":5.38102,"is_reserved":false,"is_disabled":false,"rental_uris":{"android":"levelo://app?vid=7cf18d94-e1a1-4160-915c-04b24e4ca41c","ios":"levelo://app?vid=7cf18d94-e1a1-4160-915c-04b24e4ca41c"},"vehicle_type_id":"4","last_reported":1768918861,"current_range_meters":8000,"station_id":"ce4bgl12rcd13ifvqbo0","pricing_plan_id":"cebpf4jnsgd1na2vs0mg"},{"bike_id":"5a1b9ee3-cb56-4a37-8a8b-338b06a79879","system_id":"levelo_inurba_marseille","lat":43.314871,"lon":5.373093,"is_reserved":false,"is_disabled":false,"rental_uris":{"android":"levelo://app?vid=5a1b9ee3-cb56-4a37-8a8b-338b06a79879","ios":"levelo://app?vid=5a1b9ee3-cb56-4a37-8a8b-338b06a79879"},"vehicle_type_id":"4","last_reported":1768918861,"current_range_meters":8400,"station_id":"ce4bgt12rcd13ifvqcd0","pricing_plan_id":"cebpf4jnsgd1na2vs0mg"},{"bike_id":"dcc6a235-8f61-4a3a-9f0a-2e585a917704","system_id":"levelo_inurba_marseille","lat":43.30118,"lon":5.39847,"is_reserved":false,"is_disabled":false,"rental_uris":{"android":"levelo://app?vid=dcc6a235-8f61-4a3a-9f0a-2e585a917704","ios":"levelo://app?vid=dcc6a235-8f61-4a3a-9f0a-2e585a917704"},"vehicle_type_id":"4","last_reported":1768918861,"current_range_meters":8400,"station_id":"ce4bh0h2rcd13ifvqd40","pricing_plan_id":"cebpf4jnsgd1na2vs0mg"},{"bike_id":"04d1fa74-7078-4e54-86c0-c9d3f7b08c45","system_id":"levelo_inurba_marseille","lat":43.25575,"lon":5.3823,"is_reserved":false,"is_disabled":false,"rental_uris":{"android":"levelo://app?vid=04d1fa74-7078-4e54-86c0-c9d3f7b08c45","ios":"levelo://app?vid=04d1fa74-7078-4e54-86c0-c9d3f7b08c45"},"vehicle_type_id":"4","last_reported":1768918861,"current_range_meters":8400,"station_id":"ce4bhih2rcd13ifvqfs0","pricing_plan_id":"cebpf4jnsgd1na2vs0mg"},{"bike_id":"d466e173-51b3-4260-bdba-320b58be2104","system_id":"levelo_inurba_marseille","lat":43.26563,"lon":5.37283,"is_reserved":false,"is_disabled":false,"rental_uris":{"android":"levelo://app?vid=d466e173-51b3-4260-bdba-320b58be2104","ios":"levelo://app?vid=d466e173-51b3-4260-bdba-320b58be2104"},"vehicle_type_id":"4","last_reported":1768918861,"current_range_meters":8400,"station_id":"ce4bhg12rcd13ifvqf70","pricing_plan_id":"cebpf4jnsgd1na2vs0mg"},{"bike_id":"0c80884c-9c03-40f4-a5db-26696ff4abea","system_id":"levelo_inurba_marseille","lat":43.30547,"lon":5.36534,"is_reserved":false,"is_disabled":false,"rental_uris":{"android":"levelo://app?vid=0c80884c-9c03-40f4-a5db-26696ff4abea","ios":"levelo://app?vid=0c80884c-9c03-40f4-a5db-26696ff4abea"},"vehicle_type_id":"4","last_reported":1768918861,"current_range_meters":8400,"station_id":"ce4bgs12rcd13ifvqcag","pricing_plan_id":"cebpf4jnsgd1na2vs0mg"},{"bike_id":"7d2f250a-191b-441d-876b-7325dd6245a6","system_id":"levelo_inurba_marseille","lat":43.25008,"lon":5.38931,"is_reserved":false,"is_disabled":false,"rental_uris":{"android":"levelo://app?vid=7d2f250a-191b-441d-876b-7325dd6245a6","ios":"levelo://app?vid=7d2f250a-191b-441d-876b-7325dd6245a6"},"vehicle_type_id":"4","last_reported":1768918861,"current_range_meters":8400,"station_id":"ce4bhgp2rcd13ifvqfd0","pricing_plan_id":"cebpf4jnsgd1na2vs0mg"},{"bike_id":"df1b9a7e-c928-473d-adba-e2b75f20c556","system_id":"levelo_inurba_marseille","lat":43.25487,"lon":5.37655,"is_reserved":false,"is_disabled":false,"rental_uris":{"android":"levelo://app?vid=df1b9a7e-c928-473d-adba-e2b75f20c556","ios":"levelo://app?vid=df1b9a7e-c928-473d-adba-e2b75f20c556"},"vehicle_type_id":"4","last_reported":1768918861,"current_range_meters":8400,"station_id":"ce4bhh12rcd13ifvqff0","pricing_plan_id":"cebpf4jnsgd1na2vs0mg"},{"bike_id":"dc3dd8f7-8d9b-4069-a5af-a11f6d510ffb","system_id":"levelo_inurba_marseille","lat":43.29254,"lon":5.38439,"is_reserved":false,"is_disabled":false,"rental_uris":{"android":"levelo://app?vid=dc3dd8f7-8d9b-4069-a5af-a11f6d510ffb","ios":"levelo://app?vid=dc3dd8f7-8d9b-4069-a5af-a11f6d510ffb"},"vehicle_type_id":"4","last_reported":1768918861,"current_range_meters":8400,"station_id":"ce4bh692rcd13ifvqea0","pricing_plan_id":"cebpf4jnsgd1na2vs0mg"},{"bike_id":"0ca44d88-081b-4cd2-8cbc-a7bfdf442710","system_id":"levelo_inurba_marseille","lat":43.3043,"lon":5.38878,"is_reserved":false,"is_disabled":false,"rental_uris":{"android":"levelo://app?vid=0ca44d88-081b-4cd2-8cbc-a7bfdf442710","ios":"levelo://app?vid=0ca44d88-081b-4cd2-8cbc-a7bfdf442710"},"vehicle_type_id":"4","last_reported":1768918861,"current_range_meters":8400,"station_id":"ce4bgk12rcd13ifvqbi0","pricing_plan_id":"cebpf4jnsgd1na2vs0mg"},{"bike_id":"bd47c088-7a9b-44ec-a68f-65b726393761","system_id":"levelo_inurba_marseille","lat":43.279663,"lon":5.406095,"is_reserved":false,"is_disabled":false,"rental_uris":{"android":"levelo://app?vid=bd47c088-7a9b-44ec-a68f-65b726393761","ios":"levelo://app?vid=bd47c088-7a9b-44ec-a68f-65b726393761"},"vehicle_type_id":"4","last_reported":1768918861,"current_range_meters":8400,"station_id":"","pricing_plan_id":"cebpf4jnsgd1na2vs0mg"},{"bike_id":"a09b45c2-bbbd-463d-bdee-f3e7566248b4","system_id":"levelo_inurba_marseille","lat":43.306635,"lon":5.400783,"is_reserved":false,"is_disabled":false,"rental_uris":{"android":"levelo://app?vid=a09b45c2-bbbd-463d-bdee-f3e7566248b4","ios":"levelo://app?vid=a09b45c2-bbbd-463d-bdee-f3e7566248b4"},"vehicle_type_id":"4","last_reported":1768918861,"current_range_meters":8400,"station_id":"ce4bh112rcd13ifvqda0","pricing_plan_id":"cebpf4jnsgd1na2vs0mg"},{"bike_id":"a5e5c619-8bc5-4328-9a09-ce54be33b975","system_id":"levelo_inurba_marseille","lat":43.24392,"lon":5.37053,"is_reserved":false,"is_disabled":false,"rental_uris":{"android":"levelo://app?vid=a5e5c619-8bc5-4328-9a09-ce54be33b975","ios":"levelo://app?vid=a5e5c619-8bc5-4328-9a09-ce54be33b975"},"vehicle_type_id":"4","last_reported":1768918861,"current_range_meters":8400,"station_id":"ce4bhhh2rcd13ifvqfk0","pricing_plan_id":"cebpf4jnsgd1na2vs0mg"},{"bike_id":"470d11ff-6533-496b-9b42-604d9a3c30ea","system_id":"levelo_inurba_marseille","lat":43.31597,"lon":5.36868,"is_reserved":false,"is_disabled":false,"rental_uris":{"android":"levelo://app?vid=470d11ff-6533-496b-9b42-604d9a3c30ea","ios":"levelo://app?vid=470d11ff-6533-496b-9b42-604d9a3c30ea"},"vehicle_type_id":"4","last_reported":1768918861,"current_range_meters":8400,"station_id":"","pricing_plan_id":"cebpf4jnsgd1na2vs0mg"},{"bike_id":"82083f02-67d3-46a9-beaf-bc86cb863617","system_id":"levelo_inurba_marseille","lat":43.30546,"lon":5.36535,"is_reserved":false,"is_disabled":false,"rental_uris":{"android":"levelo://app?vid=82083f02-67d3-46a9-beaf-bc86cb863617","ios":"levelo://app?vid=82083f02-67d3-46a9-beaf-bc86cb863617"},"vehicle_type_id":"4","last_reported":1768918861,"current_range_meters":8400,"station_id":"ce4bgs12rcd13ifvqcag","pricing_plan_id":"cebpf4jnsgd1na2vs0mg"},{"bike_id":"da1775b4-f964-4c31-a42d-2a7370b74fae","system_id":"levelo_inurba_marseille","lat":43.28171,"lon":5.42655,"is_reserved":false,"is_disabled":false,"rental_uris":{"android":"levelo://app?vid=da1775b4-f964-4c31-a42d-2a7370b74fae","ios":"levelo://app?vid=da1775b4-f964-4c31-a42d-2a7370b74fae"},"vehicle_type_id":"4","last_reported":1768918861,"current_range_meters":8400,"station_id":"ce4bhnh2rcd13ifvqgug","pricing_plan_id":"cebpf4jnsgd1na2vs0mg"},{"bike_id":"52c85b02-607c-4226-bd7b-fd246dd2dae8","system_id":"levelo_inurba_marseille","lat":43.22555,"lon":5.41613,"is_reserved":false,"is_disabled":false,"rental_uris":{"android":"levelo://app?vid=52c85b02-607c-4226-bd7b-fd246dd2dae8","ios":"levelo://app?vid=52c85b02-607c-4226-bd7b-fd246dd2dae8"},"vehicle_type_id":"4","last_reported":1768918861,"current_range_meters":8400,"station_id":"st_d2o4gvlbi1j2169b742g","pricing_plan_id":"cebpf4jnsgd1na2vs0mg"},{"bike_id":"0e84440f-1425-4251-a28c-38177f781258","system_id":"levelo_inurba_marseille","lat":43.28482,"lon":5.48398,"is_reserved":false,"is_disabled":false,"rental_uris":{"android":"levelo://app?vid=0e84440f-1425-4251-a28c-38177f781258","ios":"levelo://app?vid=0e84440f-1425-4251-a28c-38177f781258"},"vehicle_type_id":"4","last_reported":1768918861,"current_range_meters":8400,"station_id":"","pricing_plan_id":"cebpf4jnsgd1na2vs0mg"},{"bike_id":"3e57c784-076f-487c-b622-a075cc851190","system_id":"levelo_inurba_marseille","lat":43.26352,"lon":5.37805,"is_reserved":false,"is_disabled":false,"rental_uris":{"android":"levelo://app?vid=3e57c784-076f-487c-b622-a075cc851190","ios":"levelo://app?vid=3e57c784-076f-487c-b622-a075cc851190"},"vehicle_type_id":"4","last_reported":1768918861,"current_range_meters":8400,"station_id":"ce4bhjp2rcd13ifvqg90","pricing_plan_id":"cebpf4jnsgd1na2vs0mg"},{"bike_id":"14859c22-e2bc-44c2-bae0-abb3fe2577c2","system_id":"levelo_inurba_marseille","lat":43.24809,"lon":5.37455,"is_reserved":false,"is_disabled":false,"rental_uris":{"android":"levelo://app?vid=14859c22-e2bc-44c2-bae0-abb3fe2577c2","ios":"levelo://app?vid=14859c22-e2bc-44c2-bae0-abb3fe2577c2"},"vehicle_type_id":"4","last_reported":1768918861,"current_range_meters":8400,"station_id":"ce4bhgh2rcd13ifvqfb0","pricing_plan_id":"cebpf4jnsgd1na2vs0mg"},{"bike_id":"35d45a1c-9155-4ed5-a9d1-84956682819b","system_id":"levelo_inurba_marseille","lat":43.31343,"lon":5.36693,"is_reserved":false,"is_disabled":false,"rental_uris":{"android":"levelo://app?vid=35d45a1c-9155-4ed5-a9d1-84956682819b","ios":"levelo://app?vid=35d45a1c-9155-4ed5-a9d1-84956682819b"},"vehicle_type_id":"4","last_reported":1768918861,"current_range_meters":8400,"station_id":"ce4bgr92rcd13ifvqc6g","pricing_plan_id":"cebpf4jnsgd1na2vs0mg"},{"bike_id":"290c050b-3b33-4486-adf0-4f5aca9312b6","system_id":"levelo_inurba_marseille","lat":43.26549,"lon":5.37298,"is_reserved":false,"is_disabled":false,"rental_uris":{"android":"levelo://app?vid=290c050b-3b33-4486-adf0-4f5aca9312b6","ios":"levelo://app?vid=290c050b-3b33-4486-adf0-4f5aca9312b6"},"vehicle_type_id":"4","last_reported":1768918861,"current_range_meters":8400,"station_id":"ce4bhg12rcd13ifvqf70","pricing_plan_id":"cebpf4jnsgd1na2vs0mg"},{"bike_id":"9dff9bae-d519-49ab-850f-a6b93762d1fc","system_id":"levelo_inurba_marseille","lat":43.253404,"lon":5.421722,"is_reserved":false,"is_disabled":false,"rental_uris":{"android":"levelo://app?vid=9dff9bae-d519-49ab-850f-a6b93762d1fc","ios":"levelo://app?vid=9dff9bae-d519-49ab-850f-a6b93762d1fc"},"vehicle_type_id":"4","last_reported":1768918861,"current_range_meters":8400,"station_id":"st_d2m65c5bi1j21697t3ng","pricing_plan_id":"cebpf4jnsgd1na2vs0mg"},{"bike_id":"624e69c3-6b31-4186-969f-7f4473ab49c7","system_id":"levelo_inurba_marseille","lat":43.25914,"lon":5.38726,"is_reserved":false,"is_disabled":true,"rental_uris":{"android":"levelo://app?vid=624e69c3-6b31-4186-969f-7f4473ab49c7","ios":"levelo://app?vid=624e69c3-6b31-4186-969f-7f4473ab49c7"},"vehicle_type_id":"4","last_reported":1768918861,"current_range_meters":8800,"station_id":"","pricing_plan_id":"cebpf4jnsgd1na2vs0mg"},{"bike_id":"c9632c24-d4ba-453f-a643-952c5a012a8a","system_id":"levelo_inurba_marseille","lat":43.22563,"lon":5.41633,"is_reserved":false,"is_disabled":false,"rental_uris":{"android":"levelo://app?vid=c9632c24-d4ba-453f-a643-952c5a012a8a","ios":"levelo://app?vid=c9632c24-d4ba-453f-a643-952c5a012a8a"},"vehicle_type_id":"4","last_reported":1768918861,"current_range_meters":8800,"station_id":"st_d2o4gvlbi1j2169b742g","pricing_plan_id":"cebpf4jnsgd1na2vs0mg"},{"bike_id":"80f2d7a9-ea8b-4f2f-8a0e-cbf1a38f2ddf","system_id":"levelo_inurba_marseille","lat":43.25572,"lon":5.38235,"is_reserved":false,"is_disabled":false,"rental_uris":{"android":"levelo://app?vid=80f2d7a9-ea8b-4f2f-8a0e-cbf1a38f2ddf","ios":"levelo://app?vid=80f2d7a9-ea8b-4f2f-8a0e-cbf1a38f2ddf"},"vehicle_type_id":"4","last_reported":1768918861,"current_range_meters":8800,"station_id":"ce4bhih2rcd13ifvqfs0","pricing_plan_id":"cebpf4jnsgd1na2vs0mg"},{"bike_id":"b7d7c2db-c2fc-4cd2-9978-528223c5de8e","system_id":"levelo_inurba_marseille","lat":43.27204,"lon":5.39194,"is_reserved":false,"is_disabled":false,"rental_uris":{"android":"levelo://app?vid=b7d7c2db-c2fc-4cd2-9978-528223c5de8e","ios":"levelo://app?vid=b7d7c2db-c2fc-4cd2-9978-528223c5de8e"},"vehicle_type_id":"4","last_reported":1768918861,"current_range_meters":8800,"station_id":"ce4bhhp2rcd13ifvqfm0","pricing_plan_id":"cebpf4jnsgd1na2vs0mg"},{"bike_id":"f2bccffe-a4f0-4793-bfaa-8fbb6939cb95","system_id":"levelo_inurba_marseille","lat":43.24655,"lon":5.39061,"is_reserved":false,"is_disabled":false,"rental_uris":{"android":"levelo://app?vid=f2bccffe-a4f0-4793-bfaa-8fbb6939cb95","ios":"levelo://app?vid=f2bccffe-a4f0-4793-bfaa-8fbb6939cb95"},"vehicle_type_id":"4","last_reported":1768918861,"current_range_meters":8800,"station_id":"","pricing_plan_id":"cebpf4jnsgd1na2vs0mg"},{"bike_id":"e61eee42-526f-4246-9a26-e3f35a65752e","system_id":"levelo_inurba_marseille","lat":43.29812,"lon":5.38083,"is_reserved":false,"is_disabled":false,"rental_uris":{"android":"levelo://app?vid=e61eee42-526f-4246-9a26-e3f35a65752e","ios":"levelo://app?vid=e61eee42-526f-4246-9a26-e3f35a65752e"},"vehicle_type_id":"4","last_reported":1768918861,"current_range_meters":8800,"station_id":"ce4bgip2rcd13ifvqbb0","pricing_plan_id":"cebpf4jnsgd1na2vs0mg"},{"bike_id":"8be23c8f-0ff3-47cf-81b2-0793bab5bb1f","system_id":"levelo_inurba_marseille","lat":43.24159,"lon":5.39693,"is_reserved":false,"is_disabled":false,"rental_uris":{"android":"levelo://app?vid=8be23c8f-0ff3-47cf-81b2-0793bab5bb1f","ios":"levelo://app?vid=8be23c8f-0ff3-47cf-81b2-0793bab5bb1f"},"vehicle_type_id":"4","last_reported":1768918861,"current_range_meters":8800,"station_id":"ce4bhn12rcd13ifvqgpg","pricing_plan_id":"cebpf4jnsgd1na2vs0mg"},{"bike_id":"02bea08d-8e30-4545-8265-cc64d4e0a7f2","system_id":"levelo_inurba_marseille","lat":43.26955,"lon":5.38629,"is_reserved":false,"is_disabled":false,"rental_uris":{"android":"levelo://app?vid=02bea08d-8e30-4545-8265-cc64d4e0a7f2","ios":"levelo://app?vid=02bea08d-8e30-4545-8265-cc64d4e0a7f2"},"vehicle_type_id":"4","last_reported":1768918861,"current_range_meters":8800,"station_id":"ce4bhh92rcd13ifvqfh0","pricing_plan_id":"cebpf4jnsgd1na2vs0mg"},{"bike_id":"f85858b4-cfd7-41bf-9fca-073aa435703b","system_id":"levelo_inurba_marseille","lat":43.30794,"lon":5.38144,"is_reserved":false,"is_disabled":false,"rental_uris":{"android":"levelo://app?vid=f85858b4-cfd7-41bf-9fca-073aa435703b","ios":"levelo://app?vid=f85858b4-cfd7-41bf-9fca-073aa435703b"},"vehicle_type_id":"4","last_reported":1768918861,"current_range_meters":8800,"station_id":"ce4bgt12rcd13ifvqce0","pricing_plan_id":"cebpf4jnsgd1na2vs0mg"},{"bike_id":"d65ecb9a-6bda-4676-a531-deb2c8e6f520","system_id":"levelo_inurba_marseille","lat":43.30903,"lon":5.3685,"is_reserved":false,"is_disabled":false,"rental_uris":{"android":"levelo://app?vid=d65ecb9a-6bda-4676-a531-deb2c8e6f520","ios":"levelo://app?vid=d65ecb9a-6bda-4676-a531-deb2c8e6f520"},"vehicle_type_id":"4","last_reported":1768918861,"current_range_meters":8800,"station_id":"ce4bgn92rcd13ifvqbvg","pricing_plan_id":"cebpf4jnsgd1na2vs0mg"},{"bike_id":"9a2ad800-0a03-43fa-8c40-1fdb282b6422","system_id":"levelo_inurba_marseille","lat":43.32476,"lon":5.36553,"is_reserved":false,"is_disabled":false,"rental_uris":{"android":"levelo://app?vid=9a2ad800-0a03-43fa-8c40-1fdb282b6422","ios":"levelo://app?vid=9a2ad800-0a03-43fa-8c40-1fdb282b6422"},"vehicle_type_id":"4","last_reported":1768918861,"current_range_meters":8800,"station_id":"ce4bhs12rcd13ifvqhvg","pricing_plan_id":"cebpf4jnsgd1na2vs0mg"},{"bike_id":"f47a1b6d-b131-4665-bbf4-a03c420f278d","system_id":"levelo_inurba_marseille","lat":43.30122,"lon":5.37406,"is_reserved":false,"is_disabled":false,"rental_uris":{"android":"levelo://app?vid=f47a1b6d-b131-4665-bbf4-a03c420f278d","ios":"levelo://app?vid=f47a1b6d-b131-4665-bbf4-a03c420f278d"},"vehicle_type_id":"4","last_reported":1768918861,"current_range_meters":8800,"station_id":"ce4bgs92rcd13ifvqcc0","pricing_plan_id":"cebpf4jnsgd1na2vs0mg"},{"bike_id":"c648ce05-faa1-4b25-b283-bb371b3c83ac","system_id":"levelo_inurba_marseille","lat":43.28888,"lon":5.38188,"is_reserved":false,"is_disabled":false,"rental_uris":{"android":"levelo://app?vid=c648ce05-faa1-4b25-b283-bb371b3c83ac","ios":"levelo://app?vid=c648ce05-faa1-4b25-b283-bb371b3c83ac"},"vehicle_type_id":"4","last_reported":1768918861,"current_range_meters":8800,"station_id":"","pricing_plan_id":"cebpf4jnsgd1na2vs0mg"},{"bike_id":"03c8b8f6-26d6-43f0-b06e-1c354011d6d4","system_id":"levelo_inurba_marseille","lat":43.30538,"lon":5.36545,"is_reserved":false,"is_disabled":false,"rental_uris":{"android":"levelo://app?vid=03c8b8f6-26d6-43f0-b06e-1c354011d6d4","ios":"levelo://app?vid=03c8b8f6-26d6-43f0-b06e-1c354011d6d4"},"vehicle_type_id":"4","last_reported":1768918861,"current_range_meters":8800,"station_id":"ce4bgs12rcd13ifvqcag","pricing_plan_id":"cebpf4jnsgd1na2vs0mg"},{"bike_id":"5f65347f-3f32-4020-a719-79b95209ec08","system_id":"levelo_inurba_marseille","lat":43.283319,"lon":5.381091,"is_reserved":false,"is_disabled":false,"rental_uris":{"android":"levelo://app?vid=5f65347f-3f32-4020-a719-79b95209ec08","ios":"levelo://app?vid=5f65347f-3f32-4020-a719-79b95209ec08"},"vehicle_type_id":"4","last_reported":1768918861,"current_range_meters":8800,"station_id":"ce4bh412rcd13ifvqdr0","pricing_plan_id":"cebpf4jnsgd1na2vs0mg"},{"bike_id":"d6cd796c-ce30-4e18-a8ac-0259e62aaa47","system_id":"levelo_inurba_marseille","lat":43.25937,"lon":5.40901,"is_reserved":false,"is_disabled":false,"rental_uris":{"android":"levelo://app?vid=d6cd796c-ce30-4e18-a8ac-0259e62aaa47","ios":"levelo://app?vid=d6cd796c-ce30-4e18-a8ac-0259e62aaa47"},"vehicle_type_id":"4","last_reported":1768918861,"current_range_meters":8800,"station_id":"ce4bhm92rcd13ifvqglg","pricing_plan_id":"cebpf4jnsgd1na2vs0mg"},{"bike_id":"29b3fe27-3155-4bb1-9d12-be92f522d733","system_id":"levelo_inurba_marseille","lat":43.29763,"lon":5.42768,"is_reserved":false,"is_disabled":false,"rental_uris":{"android":"levelo://app?vid=29b3fe27-3155-4bb1-9d12-be92f522d733","ios":"levelo://app?vid=29b3fe27-3155-4bb1-9d12-be92f522d733"},"vehicle_type_id":"4","last_reported":1768918861,"current_range_meters":8800,"station_id":"st_d3md5207bmas73dh9klg","pricing_plan_id":"cebpf4jnsgd1na2vs0mg"},{"bike_id":"ba1a4609-795c-4220-8926-bfdd65f5d3a2","system_id":"levelo_inurba_marseille","lat":43.26541,"lon":5.37282,"is_reserved":false,"is_disabled":false,"rental_uris":{"android":"levelo://app?vid=ba1a4609-795c-4220-8926-bfdd65f5d3a2","ios":"levelo://app?vid=ba1a4609-795c-4220-8926-bfdd65f5d3a2"},"vehicle_type_id":"4","last_reported":1768918861,"current_range_meters":8800,"station_id":"ce4bhg12rcd13ifvqf70","pricing_plan_id":"cebpf4jnsgd1na2vs0mg"},{"bike_id":"2cf1ea64-26bb-4964-939a-03465aee6659","system_id":"levelo_inurba_marseille","lat":43.22557,"lon":5.41623,"is_reserved":false,"is_disabled":false,"rental_uris":{"android":"levelo://app?vid=2cf1ea64-26bb-4964-939a-03465aee6659","ios":"levelo://app?vid=2cf1ea64-26bb-4964-939a-03465aee6659"},"vehicle_type_id":"4","last_reported":1768918861,"current_range_meters":8800,"station_id":"st_d2o4gvlbi1j2169b742g","pricing_plan_id":"cebpf4jnsgd1na2vs0mg"},{"bike_id":"10b148f1-27bd-4564-b6f7-6395ff2fe050","system_id":"levelo_inurba_marseille","lat":43.26951,"lon":5.38638,"is_reserved":false,"is_disabled":false,"rental_uris":{"android":"levelo://app?vid=10b148f1-27bd-4564-b6f7-6395ff2fe050","ios":"levelo://app?vid=10b148f1-27bd-4564-b6f7-6395ff2fe050"},"vehicle_type_id":"4","last_reported":1768918861,"current_range_meters":8800,"station_id":"ce4bhh92rcd13ifvqfh0","pricing_plan_id":"cebpf4jnsgd1na2vs0mg"},{"bike_id":"7f57e4b7-adcc-40f6-a2f9-1294ef7abba0","system_id":"levelo_inurba_marseille","lat":43.30904,"lon":5.36866,"is_reserved":false,"is_disabled":false,"rental_uris":{"android":"levelo://app?vid=7f57e4b7-adcc-40f6-a2f9-1294ef7abba0","ios":"levelo://app?vid=7f57e4b7-adcc-40f6-a2f9-1294ef7abba0"},"vehicle_type_id":"4","last_reported":1768918861,"current_range_meters":9200,"station_id":"ce4bgn92rcd13ifvqbvg","pricing_plan_id":"cebpf4jnsgd1na2vs0mg"},{"bike_id":"fe4b8d92-6b74-4f7f-be90-48717fca1ec3","system_id":"levelo_inurba_marseille","lat":43.337444,"lon":5.374475,"is_reserved":false,"is_disabled":false,"rental_uris":{"android":"levelo://app?vid=fe4b8d92-6b74-4f7f-be90-48717fca1ec3","ios":"levelo://app?vid=fe4b8d92-6b74-4f7f-be90-48717fca1ec3"},"vehicle_type_id":"4","last_reported":1768918861,"current_range_meters":9200,"station_id":"","pricing_plan_id":"cebpf4jnsgd1na2vs0mg"},{"bike_id":"82be7d97-718d-4ca3-a208-795195883a7c","system_id":"levelo_inurba_marseille","lat":43.25823,"lon":5.39442,"is_reserved":false,"is_disabled":false,"rental_uris":{"android":"levelo://app?vid=82be7d97-718d-4ca3-a208-795195883a7c","ios":"levelo://app?vid=82be7d97-718d-4ca3-a208-795195883a7c"},"vehicle_type_id":"4","last_reported":1768918861,"current_range_meters":9200,"station_id":"ce4bhip2rcd13ifvqft0","pricing_plan_id":"cebpf4jnsgd1na2vs0mg"},{"bike_id":"07ee7076-3f7a-4b70-b37b-88daaf08e34b","system_id":"levelo_inurba_marseille","lat":43.308,"lon":5.38159,"is_reserved":false,"is_disabled":false,"rental_uris":{"android":"levelo://app?vid=07ee7076-3f7a-4b70-b37b-88daaf08e34b","ios":"levelo://app?vid=07ee7076-3f7a-4b70-b37b-88daaf08e34b"},"vehicle_type_id":"4","last_reported":1768918861,"current_range_meters":9200,"station_id":"ce4bgt12rcd13ifvqce0","pricing_plan_id":"cebpf4jnsgd1na2vs0mg"},{"bike_id":"b3b51a6b-2421-4b77-9215-4368c6501a43","system_id":"levelo_inurba_marseille","lat":43.29898,"lon":5.36423,"is_reserved":false,"is_disabled":false,"rental_uris":{"android":"levelo://app?vid=b3b51a6b-2421-4b77-9215-4368c6501a43","ios":"levelo://app?vid=b3b51a6b-2421-4b77-9215-4368c6501a43"},"vehicle_type_id":"4","last_reported":1768918861,"current_range_meters":9200,"station_id":"ce4bgm92rcd13ifvqbr0","pricing_plan_id":"cebpf4jnsgd1na2vs0mg"},{"bike_id":"dc99e887-99d3-438b-b7ee-d27d4781096e","system_id":"levelo_inurba_marseille","lat":43.30119,"lon":5.43122,"is_reserved":false,"is_disabled":false,"rental_uris":{"android":"levelo://app?vid=dc99e887-99d3-438b-b7ee-d27d4781096e","ios":"levelo://app?vid=dc99e887-99d3-438b-b7ee-d27d4781096e"},"vehicle_type_id":"4","last_reported":1768918861,"current_range_meters":9200,"station_id":"st_d3js3co5814s73ftftug","pricing_plan_id":"cebpf4jnsgd1na2vs0mg"},{"bike_id":"33fa26f0-0d41-40f0-937f-42edd0fc6d0d","system_id":"levelo_inurba_marseille","lat":43.25581,"lon":5.38243,"is_reserved":false,"is_disabled":false,"rental_uris":{"android":"levelo://app?vid=33fa26f0-0d41-40f0-937f-42edd0fc6d0d","ios":"levelo://app?vid=33fa26f0-0d41-40f0-937f-42edd0fc6d0d"},"vehicle_type_id":"4","last_reported":1768918861,"current_range_meters":9200,"station_id":"ce4bhih2rcd13ifvqfs0","pricing_plan_id":"cebpf4jnsgd1na2vs0mg"},{"bike_id":"ab30be93-f3bc-4651-99c2-0b47a22aed38","system_id":"levelo_inurba_marseille","lat":43.312168,"lon":5.368362,"is_reserved":false,"is_disabled":false,"rental_uris":{"android":"levelo://app?vid=ab30be93-f3bc-4651-99c2-0b47a22aed38","ios":"levelo://app?vid=ab30be93-f3bc-4651-99c2-0b47a22aed38"},"vehicle_type_id":"4","last_reported":1768918861,"current_range_meters":9200,"station_id":"ce4bgl92rcd13ifvqbq0","pricing_plan_id":"cebpf4jnsgd1na2vs0mg"},{"bike_id":"5dbfcf3f-7cec-4c29-8168-14f9c37f7762","system_id":"levelo_inurba_marseille","lat":43.2256,"lon":5.41637,"is_reserved":false,"is_disabled":false,"rental_uris":{"android":"levelo://app?vid=5dbfcf3f-7cec-4c29-8168-14f9c37f7762","ios":"levelo://app?vid=5dbfcf3f-7cec-4c29-8168-14f9c37f7762"},"vehicle_type_id":"4","last_reported":1768918861,"current_range_meters":9200,"station_id":"st_d2o4gvlbi1j2169b742g","pricing_plan_id":"cebpf4jnsgd1na2vs0mg"},{"bike_id":"f6588e0a-1212-4ee4-af80-9b48ab226ff3","system_id":"levelo_inurba_marseille","lat":43.29985,"lon":5.37162,"is_reserved":false,"is_disabled":false,"rental_uris":{"android":"levelo://app?vid=f6588e0a-1212-4ee4-af80-9b48ab226ff3","ios":"levelo://app?vid=f6588e0a-1212-4ee4-af80-9b48ab226ff3"},"vehicle_type_id":"4","last_reported":1768918861,"current_range_meters":9200,"station_id":"ce4bgr92rcd13ifvqc7g","pricing_plan_id":"cebpf4jnsgd1na2vs0mg"},{"bike_id":"3b354a2e-ec16-4128-9f6e-f06cb1073091","system_id":"levelo_inurba_marseille","lat":43.24468,"lon":5.42558,"is_reserved":false,"is_disabled":false,"rental_uris":{"android":"levelo://app?vid=3b354a2e-ec16-4128-9f6e-f06cb1073091","ios":"levelo://app?vid=3b354a2e-ec16-4128-9f6e-f06cb1073091"},"vehicle_type_id":"4","last_reported":1768918861,"current_range_meters":9200,"station_id":"st_d4a3vfp97mjs738cd8kg","pricing_plan_id":"cebpf4jnsgd1na2vs0mg"},{"bike_id":"8155f86b-6d64-4287-9ed7-7fbe9d103dde","system_id":"levelo_inurba_marseille","lat":43.2257,"lon":5.41634,"is_reserved":false,"is_disabled":false,"rental_uris":{"android":"levelo://app?vid=8155f86b-6d64-4287-9ed7-7fbe9d103dde","ios":"levelo://app?vid=8155f86b-6d64-4287-9ed7-7fbe9d103dde"},"vehicle_type_id":"4","last_reported":1768918861,"current_range_meters":9200,"station_id":"st_d2o4gvlbi1j2169b742g","pricing_plan_id":"cebpf4jnsgd1na2vs0mg"},{"bike_id":"d26e6b95-e3c6-4a51-ad6e-476f361ae8e8","system_id":"levelo_inurba_marseille","lat":43.31767,"lon":5.3898,"is_reserved":false,"is_disabled":false,"rental_uris":{"android":"levelo://app?vid=d26e6b95-e3c6-4a51-ad6e-476f361ae8e8","ios":"levelo://app?vid=d26e6b95-e3c6-4a51-ad6e-476f361ae8e8"},"vehicle_type_id":"4","last_reported":1768918861,"current_range_meters":9200,"station_id":"ce4bhqp2rcd13ifvqhng","pricing_plan_id":"cebpf4jnsgd1na2vs0mg"},{"bike_id":"416786c9-5441-4ae2-97be-8dd18ff4a833","system_id":"levelo_inurba_marseille","lat":43.26557,"lon":5.40318,"is_reserved":false,"is_disabled":false,"rental_uris":{"android":"levelo://app?vid=416786c9-5441-4ae2-97be-8dd18ff4a833","ios":"levelo://app?vid=416786c9-5441-4ae2-97be-8dd18ff4a833"},"vehicle_type_id":"4","last_reported":1768918861,"current_range_meters":9200,"station_id":"ce4bhmp2rcd13ifvqgng","pricing_plan_id":"cebpf4jnsgd1na2vs0mg"},{"bike_id":"c4859733-7859-4eb1-ab94-2d7176bdff36","system_id":"levelo_inurba_marseille","lat":43.28698,"lon":5.39996,"is_reserved":false,"is_disabled":false,"rental_uris":{"android":"levelo://app?vid=c4859733-7859-4eb1-ab94-2d7176bdff36","ios":"levelo://app?vid=c4859733-7859-4eb1-ab94-2d7176bdff36"},"vehicle_type_id":"4","last_reported":1768918861,"current_range_meters":9200,"station_id":"ce4bho92rcd13ifvqh3g","pricing_plan_id":"cebpf4jnsgd1na2vs0mg"},{"bike_id":"99d65f09-c0e6-4f0f-b72f-6e110c0f1bd4","system_id":"levelo_inurba_marseille","lat":43.28996,"lon":5.37632,"is_reserved":false,"is_disabled":false,"rental_uris":{"android":"levelo://app?vid=99d65f09-c0e6-4f0f-b72f-6e110c0f1bd4","ios":"levelo://app?vid=99d65f09-c0e6-4f0f-b72f-6e110c0f1bd4"},"vehicle_type_id":"4","last_reported":1768918861,"current_range_meters":9600,"station_id":"","pricing_plan_id":"cebpf4jnsgd1na2vs0mg"},{"bike_id":"9fe9b7fa-bf5e-456b-b148-d56a572e2392","system_id":"levelo_inurba_marseille","lat":43.2256,"lon":5.41622,"is_reserved":false,"is_disabled":false,"rental_uris":{"android":"levelo://app?vid=9fe9b7fa-bf5e-456b-b148-d56a572e2392","ios":"levelo://app?vid=9fe9b7fa-bf5e-456b-b148-d56a572e2392"},"vehicle_type_id":"4","last_reported":1768918861,"current_range_meters":9600,"station_id":"st_d2o4gvlbi1j2169b742g","pricing_plan_id":"cebpf4jnsgd1na2vs0mg"},{"bike_id":"f6c21c56-f326-4185-9ff4-2e991fd6aae5","system_id":"levelo_inurba_marseille","lat":43.310553,"lon":5.371699,"is_reserved":false,"is_disabled":false,"rental_uris":{"android":"levelo://app?vid=f6c21c56-f326-4185-9ff4-2e991fd6aae5","ios":"levelo://app?vid=f6c21c56-f326-4185-9ff4-2e991fd6aae5"},"vehicle_type_id":"4","last_reported":1768918861,"current_range_meters":9600,"station_id":"st_d4kl2rp97mjs73e7tdfg","pricing_plan_id":"cebpf4jnsgd1na2vs0mg"},{"bike_id":"56496f15-285b-4dff-92b3-54ffdff3e399","system_id":"levelo_inurba_marseille","lat":43.26837,"lon":5.39577,"is_reserved":false,"is_disabled":false,"rental_uris":{"android":"levelo://app?vid=56496f15-285b-4dff-92b3-54ffdff3e399","ios":"levelo://app?vid=56496f15-285b-4dff-92b3-54ffdff3e399"},"vehicle_type_id":"4","last_reported":1768918861,"current_range_meters":9600,"station_id":"","pricing_plan_id":"cebpf4jnsgd1na2vs0mg"},{"bike_id":"4eba8ab0-a760-4c8f-be2e-adcd88a4d0b1","system_id":"levelo_inurba_marseille","lat":43.26489,"lon":5.39559,"is_reserved":false,"is_disabled":false,"rental_uris":{"android":"levelo://app?vid=4eba8ab0-a760-4c8f-be2e-adcd88a4d0b1","ios":"levelo://app?vid=4eba8ab0-a760-4c8f-be2e-adcd88a4d0b1"},"vehicle_type_id":"4","last_reported":1768918861,"current_range_meters":9600,"station_id":"ce4bhi12rcd13ifvqfq0","pricing_plan_id":"cebpf4jnsgd1na2vs0mg"},{"bike_id":"3add45f3-adea-4d6b-962f-31a9074e8e8f","system_id":"levelo_inurba_marseille","lat":43.24169,"lon":5.39707,"is_reserved":false,"is_disabled":false,"rental_uris":{"android":"levelo://app?vid=3add45f3-adea-4d6b-962f-31a9074e8e8f","ios":"levelo://app?vid=3add45f3-adea-4d6b-962f-31a9074e8e8f"},"vehicle_type_id":"4","last_reported":1768918861,"current_range_meters":9600,"station_id":"ce4bhn12rcd13ifvqgpg","pricing_plan_id":"cebpf4jnsgd1na2vs0mg"},{"bike_id":"6e8f368a-f345-4786-9785-635049e0080c","system_id":"levelo_inurba_marseille","lat":43.292788,"lon":5.40117,"is_reserved":false,"is_disabled":false,"rental_uris":{"android":"levelo://app?vid=6e8f368a-f345-4786-9785-635049e0080c","ios":"levelo://app?vid=6e8f368a-f345-4786-9785-635049e0080c"},"vehicle_type_id":"4","last_reported":1768918861,"current_range_meters":9600,"station_id":"ce4bh312rcd13ifvqdk0","pricing_plan_id":"cebpf4jnsgd1na2vs0mg"},{"bike_id":"31c21be6-18ca-494d-8d01-2f205767068d","system_id":"levelo_inurba_marseille","lat":43.31851,"lon":5.37453,"is_reserved":false,"is_disabled":false,"rental_uris":{"android":"levelo://app?vid=31c21be6-18ca-494d-8d01-2f205767068d","ios":"levelo://app?vid=31c21be6-18ca-494d-8d01-2f205767068d"},"vehicle_type_id":"4","last_reported":1768918861,"current_range_meters":9600,"station_id":"","pricing_plan_id":"cebpf4jnsgd1na2vs0mg"},{"bike_id":"87651664-a394-44b3-a88d-1c7bf46288bb","system_id":"levelo_inurba_marseille","lat":43.32546,"lon":5.41439,"is_reserved":false,"is_disabled":false,"rental_uris":{"android":"levelo://app?vid=87651664-a394-44b3-a88d-1c7bf46288bb","ios":"levelo://app?vid=87651664-a394-44b3-a88d-1c7bf46288bb"},"vehicle_type_id":"4","last_reported":1768918861,"current_range_meters":9600,"station_id":"ce4bhq12rcd13ifvqhhg","pricing_plan_id":"cebpf4jnsgd1na2vs0mg"},{"bike_id":"2c0995a4-2dde-4941-9bf7-449a4c636ac0","system_id":"levelo_inurba_marseille","lat":43.24398,"lon":5.37062,"is_reserved":false,"is_disabled":false,"rental_uris":{"android":"levelo://app?vid=2c0995a4-2dde-4941-9bf7-449a4c636ac0","ios":"levelo://app?vid=2c0995a4-2dde-4941-9bf7-449a4c636ac0"},"vehicle_type_id":"4","last_reported":1768918861,"current_range_meters":9600,"station_id":"ce4bhhh2rcd13ifvqfk0","pricing_plan_id":"cebpf4jnsgd1na2vs0mg"},{"bike_id":"f4cd706d-c97e-4a23-ac33-3002259f9304","system_id":"levelo_inurba_marseille","lat":43.30472,"lon":5.37904,"is_reserved":false,"is_disabled":false,"rental_uris":{"android":"levelo://app?vid=f4cd706d-c97e-4a23-ac33-3002259f9304","ios":"levelo://app?vid=f4cd706d-c97e-4a23-ac33-3002259f9304"},"vehicle_type_id":"4","last_reported":1768918861,"current_range_meters":9600,"station_id":"ce4bgup2rcd13ifvqcn0","pricing_plan_id":"cebpf4jnsgd1na2vs0mg"},{"bike_id":"e47dfb0a-fd42-4915-8bd4-c942b77cb4c9","system_id":"levelo_inurba_marseille","lat":43.25559,"lon":5.38223,"is_reserved":false,"is_disabled":false,"rental_uris":{"android":"levelo://app?vid=e47dfb0a-fd42-4915-8bd4-c942b77cb4c9","ios":"levelo://app?vid=e47dfb0a-fd42-4915-8bd4-c942b77cb4c9"},"vehicle_type_id":"4","last_reported":1768918861,"current_range_meters":9600,"station_id":"ce4bhih2rcd13ifvqfs0","pricing_plan_id":"cebpf4jnsgd1na2vs0mg"},{"bike_id":"29bfec45-ad76-429c-882a-34b6f5ca4191","system_id":"levelo_inurba_marseille","lat":43.32103,"lon":5.36772,"is_reserved":false,"is_disabled":false,"rental_uris":{"android":"levelo://app?vid=29bfec45-ad76-429c-882a-34b6f5ca4191","ios":"levelo://app?vid=29bfec45-ad76-429c-882a-34b6f5ca4191"},"vehicle_type_id":"4","last_reported":1768918861,"current_range_meters":9600,"station_id":"ce4bhrh2rcd13ifvqhug","pricing_plan_id":"cebpf4jnsgd1na2vs0mg"},{"bike_id":"83098069-1cb7-423e-af0c-9e55721265a8","system_id":"levelo_inurba_marseille","lat":43.31455,"lon":5.4542,"is_reserved":false,"is_disabled":false,"rental_uris":{"android":"levelo://app?vid=83098069-1cb7-423e-af0c-9e55721265a8","ios":"levelo://app?vid=83098069-1cb7-423e-af0c-9e55721265a8"},"vehicle_type_id":"4","last_reported":1768918861,"current_range_meters":9600,"station_id":"","pricing_plan_id":"cebpf4jnsgd1na2vs0mg"},{"bike_id":"3ce5fa2e-c28c-488d-ae3c-3bf16a92a7cc","system_id":"levelo_inurba_marseille","lat":43.24626,"lon":5.43152,"is_reserved":false,"is_disabled":false,"rental_uris":{"android":"levelo://app?vid=3ce5fa2e-c28c-488d-ae3c-3bf16a92a7cc","ios":"levelo://app?vid=3ce5fa2e-c28c-488d-ae3c-3bf16a92a7cc"},"vehicle_type_id":"4","last_reported":1768918861,"current_range_meters":10000,"station_id":"st_d2m6c4gdas8pm72e190g","pricing_plan_id":"cebpf4jnsgd1na2vs0mg"},{"bike_id":"7768982c-0506-4865-b7b5-c20f00821e85","system_id":"levelo_inurba_marseille","lat":43.265579,"lon":5.403412,"is_reserved":false,"is_disabled":false,"rental_uris":{"android":"levelo://app?vid=7768982c-0506-4865-b7b5-c20f00821e85","ios":"levelo://app?vid=7768982c-0506-4865-b7b5-c20f00821e85"},"vehicle_type_id":"4","last_reported":1768918861,"current_range_meters":10000,"station_id":"ce4bhmp2rcd13ifvqgng","pricing_plan_id":"cebpf4jnsgd1na2vs0mg"},{"bike_id":"eb748bdc-5486-4ca8-a3bc-66d4be6a9a4a","system_id":"levelo_inurba_marseille","lat":43.29609,"lon":5.36035,"is_reserved":false,"is_disabled":false,"rental_uris":{"android":"levelo://app?vid=eb748bdc-5486-4ca8-a3bc-66d4be6a9a4a","ios":"levelo://app?vid=eb748bdc-5486-4ca8-a3bc-66d4be6a9a4a"},"vehicle_type_id":"4","last_reported":1768918861,"current_range_meters":10000,"station_id":"","pricing_plan_id":"cebpf4jnsgd1na2vs0mg"},{"bike_id":"f73788f7-dec5-4308-a431-6e346b811946","system_id":"levelo_inurba_marseille","lat":43.30063,"lon":5.38132,"is_reserved":false,"is_disabled":false,"rental_uris":{"android":"levelo://app?vid=f73788f7-dec5-4308-a431-6e346b811946","ios":"levelo://app?vid=f73788f7-dec5-4308-a431-6e346b811946"},"vehicle_type_id":"4","last_reported":1768918861,"current_range_meters":10000,"station_id":"","pricing_plan_id":"cebpf4jnsgd1na2vs0mg"},{"bike_id":"67ff9a75-4fe8-45e7-914d-fc416a457597","system_id":"levelo_inurba_marseille","lat":43.32094,"lon":5.36772,"is_reserved":false,"is_disabled":false,"rental_uris":{"android":"levelo://app?vid=67ff9a75-4fe8-45e7-914d-fc416a457597","ios":"levelo://app?vid=67ff9a75-4fe8-45e7-914d-fc416a457597"},"vehicle_type_id":"4","last_reported":1768918861,"current_range_meters":10000,"station_id":"ce4bhrh2rcd13ifvqhug","pricing_plan_id":"cebpf4jnsgd1na2vs0mg"},{"bike_id":"5f477738-733e-4c98-961a-33429c5938fd","system_id":"levelo_inurba_marseille","lat":43.260586,"lon":5.393984,"is_reserved":false,"is_disabled":false,"rental_uris":{"android":"levelo://app?vid=5f477738-733e-4c98-961a-33429c5938fd","ios":"levelo://app?vid=5f477738-733e-4c98-961a-33429c5938fd"},"vehicle_type_id":"4","last_reported":1768918861,"current_range_meters":10000,"station_id":"ce4bhh92rcd13ifvqfj0","pricing_plan_id":"cebpf4jnsgd1na2vs0mg"},