{"last_updated":1729613478,"ttl":60,"version":"2.2","data":{"bikes":[{"bike_id":"35f0496d-66ba-44ec-92fc-602d1c325eea","system_id":"levelo_inurba_marseille","lat":43.243902,"lon":5.370643,"is_reserved":false,"is_disabled":false,"rental_uris":{"android":"levelo://app?vid=35f0496d-66ba-44ec-92fc-602d1c325eea","ios":"levelo://app?vid=35f0496d-66ba-44ec-92fc-602d1c325eea"},"vehicle_type_id":"4","last_reported":1729613478,"current_range_meters":19200,"station_id":"ce4bhhh2rcd13ifvqfk0","pricing_plan_id":"cebpf4jnsgd1na2vs0mg"},{"bike_id":"8e47eb08-1811-4aa9-916a-a443db29eac0","system_id":"levelo_inurba_marseille","lat":43.2903,"lon":5.38656,"is_reserved":false,"is_disabled":false,"rental_uris":{"android":"levelo://app?vid=8e47eb08-1811-4aa9-916a-a443db29eac0","ios":"levelo://app?vid=8e47eb08-1811-4aa9-916a-a443db29eac0"},"vehicle_type_id":"4","last_reported":1729613478,"current_range_meters":29600,"station_id":"ce4bh4p2rcd13ifvqe0g","pricing_plan_id":"cebpf4jnsgd1na2vs0mg"},{"bike_id":"a1734ac5-bdd5-4f8f-af9b-24c96f810d8e","system_id":"levelo_inurba_marseille","lat":43.298963,"lon":5.436528,"is_reserved":false,"is_disabled":false,"rental_uris":{"android":"levelo://app?vid=a1734ac5-bdd5-4f8f-af9b-24c96f810d8e","ios":"levelo://app?vid=a1734ac5-bdd5-4f8f-af9b-24c96f810d8e"},"vehicle_type_id":"4","last_reported":1729613478,"current_range_meters":24400,"station_id":"ce4bhpp2rcd13ifvqhfg","pricing_plan_id":"cebpf4jnsgd1na2vs0mg"},{"bike_id":"f6beec09-0638-4fc1-a07b-ba89c69a4067","system_id":"levelo_inurba_marseille","lat":43.24665,"lon":5.38163,"is_reserved":false,"is_disabled":false,"rental_uris":{"android":"levelo://app?vid=f6beec09-0638-4fc1-a07b-ba89c69a4067","ios":"levelo://app?vid=f6beec09-0638-4fc1-a07b-ba89c69a4067"},"vehicle_type_id":"4","last_reported":1729613478,"current_range_meters":3200,"station_id":"ce4bhih2rcd13ifvqfr0","pricing_plan_id":"cebpf4jnsgd1na2vs0mg"},{"bike_id":"1dba4ec7-5685-4d41-9a57-81f367864c9d","system_id":"levelo_inurba_marseille","lat":43.24573,"lon":5.37445,"is_reserved":false,"is_disabled":false,"rental_uris":{"android":"levelo://app?vid=1dba4ec7-5685-4d41-9a57-81f367864c9d","ios":"levelo://app?vid=1dba4ec7-5685-4d41-9a57-81f367864c9d"},"vehicle_type_id":"4","last_reported":1729613478,"current_range_meters":32400,"station_id":"","pricing_plan_id":"cebpf4jnsgd1na2vs0mg"},{"bike_id":"712ee261-79b8-4066-86e0-c079aadecc30","system_id":"levelo_inurba_marseille","lat":43.28698,"lon":5.39983,"is_reserved":false,"is_disabled":false,"rental_uris":{"android":"levelo://app?vid=712ee261-79b8-4066-86e0-c079aadecc30","ios":"levelo://app?vid=712ee261-79b8-4066-86e0-c079aadecc30"},"vehicle_type_id":"4","last_reported":1729613478,"current_range_meters":27200,"station_id":"ce4bho92rcd13ifvqh3g","pricing_plan_id":"cebpf4jnsgd1na2vs0mg"},{"bike_id":"074046c9-ddc9-4f56-845c-192c0d13ff50","system_id":"levelo_inurba_marseille","lat":43.2958,"lon":5.36739,"is_reserved":false,"is_disabled":false,"rental_uris":{"android":"levelo://app?vid=074046c9-ddc9-4f56-845c-192c0d13ff50","ios":"levelo://app?vid=074046c9-ddc9-4f56-845c-192c0d13ff50"},"vehicle_type_id":"4","last_reported":1729613478,"current_range_meters":39200,"station_id":"ce4bgph2rcd13ifvqc2g","pricing_plan_id":"cebpf4jnsgd1na2vs0mg"},{"bike_id":"d150a7ca-2826-47db-a5c4-fa5cfa323393","system_id":"levelo_inurba_marseille","lat":43.27378,"lon":5.36268,"is_reserved":false,"is_disabled":false,"rental_uris":{"android":"levelo://app?vid=d150a7ca-2826-47db-a5c4-fa5cfa323393","ios":"levelo://app?vid=d150a7ca-2826-47db-a5c4-fa5cfa323393"},"vehicle_type_id":"4","last_reported":1729613478,"current_range_meters":24000,"station_id":"ce4bhbh2rcd13ifvqeo0","pricing_plan_id":"cebpf4jnsgd1na2vs0mg"},{"bike_id":"d26720d8-0182-4601-851b-347232e3b2b6","system_id":"levelo_inurba_marseille","lat":43.27374,"lon":5.36269,"is_reserved":false,"is_disabled":false,"rental_uris":{"android":"levelo://app?vid=d26720d8-0182-4601-851b-347232e3b2b6","ios":"levelo://app?vid=d26720d8-0182-4601-851b-347232e3b2b6"},"vehicle_type_id":"4","last_reported":1729613478,"current_range_meters":39200,"station_id":"ce4bhbh2rcd13ifvqeo0","pricing_plan_id":"cebpf4jnsgd1na2vs0mg"},{"bike_id":"20caa1b7-8d48-41cc-a059-4132dcef7c76","system_id":"levelo_inurba_marseille","lat":43.29573,"lon":5.37522,"is_reserved":false,"is_disabled":false,"rental_uris":{"android":"levelo://app?vid=20caa1b7-8d48-41cc-a059-4132dcef7c76","ios":"levelo://app?vid=20caa1b7-8d48-41cc-a059-4132dcef7c76"},"vehicle_type_id":"4","last_reported":1729613478,"current_range_meters":31200,"station_id":"ce4bgh92rcd13ifvqb50","pricing_plan_id":"cebpf4jnsgd1na2vs0mg"},{"bike_id":"5c449356-4ac4-4d08-a405-c433fbe21a80","system_id":"levelo_inurba_marseille","lat":43.33737,"lon":5.37458,"is_reserved":false,"is_disabled":false,"rental_uris":{"android":"levelo://app?vid=5c449356-4ac4-4d08-a405-c433fbe21a80","ios":"levelo://app?vid=5c449356-4ac4-4d08-a405-c433fbe21a80"},"vehicle_type_id":"4","last_reported":1729613478,"current_range_meters":33200,"station_id":"","pricing_plan_id":"cebpf4jnsgd1na2vs0mg"},{"bike_id":"4b0a930b-8f93-4ac5-9ebd-fd1c3db335c1","system_id":"levelo_inurba_marseille","lat":43.27373,"lon":5.36254,"is_reserved":false,"is_disabled":false,"rental_uris":{"android":"levelo://app?vid=4b0a930b-8f93-4ac5-9ebd-fd1c3db335c1","ios":"levelo://app?vid=4b0a930b-8f93-4ac5-9ebd-fd1c3db335c1"},"vehicle_type_id":"4","last_reported":1729613478,"current_range_meters":25200,"station_id":"ce4bhbh2rcd13ifvqeo0","pricing_plan_id":"cebpf4jnsgd1na2vs0mg"},{"bike_id":"38df09e6-0ab2-49ba-8cc2-51f0e3ac586d","system_id":"levelo_inurba_marseille","lat":43.29536,"lon":5.38549,"is_reserved":false,"is_disabled":false,"rental_uris":{"android":"levelo://app?vid=38df09e6-0ab2-49ba-8cc2-51f0e3ac586d","ios":"levelo://app?vid=38df09e6-0ab2-49ba-8cc2-51f0e3ac586d"},"vehicle_type_id":"4","last_reported":1729613478,"current_range_meters":30400,"station_id":"ce4bgih2rcd13ifvqba0","pricing_plan_id":"cebpf4jnsgd1na2vs0mg"},{"bike_id":"d7cd666a-06b2-4b57-9238-ce7d82658f1a","system_id":"levelo_inurba_marseille","lat":43.23963,"lon":5.36646,"is_reserved":false,"is_disabled":false,"rental_uris":{"android":"levelo://app?vid=d7cd666a-06b2-4b57-9238-ce7d82658f1a","ios":"levelo://app?vid=d7cd666a-06b2-4b57-9238-ce7d82658f1a"},"vehicle_type_id":"4","last_reported":1729613478,"current_range_meters":32400,"station_id":"ce4bhi12rcd13ifvqfp0","pricing_plan_id":"cebpf4jnsgd1na2vs0mg"},{"bike_id":"a8d4bd00-2c2a-4801-ad7c-351b8d46a25d","system_id":"levelo_inurba_marseille","lat":43.27969,"lon":5.387153,"is_reserved":false,"is_disabled":false,"rental_uris":{"android":"levelo://app?vid=a8d4bd00-2c2a-4801-ad7c-351b8d46a25d","ios":"levelo://app?vid=a8d4bd00-2c2a-4801-ad7c-351b8d46a25d"},"vehicle_type_id":"4","last_reported":1729613478,"current_range_meters":13600,"station_id":"ce4bhg12rcd13ifvqf80","pricing_plan_id":"cebpf4jnsgd1na2vs0mg"},{"bike_id":"47ed7c91-ec05-4e4f-bdc7-4f48a4cf47e2","system_id":"levelo_inurba_marseille","lat":43.3059,"lon":5.37239,"is_reserved":false,"is_disabled":false,"rental_uris":{"android":"levelo://app?vid=47ed7c91-ec05-4e4f-bdc7-4f48a4cf47e2","ios":"levelo://app?vid=47ed7c91-ec05-4e4f-bdc7-4f48a4cf47e2"},"vehicle_type_id":"4","last_reported":1729613478,"current_range_meters":34800,"station_id":"ce4bgqh2rcd13ifvqc4g","pricing_plan_id":"cebpf4jnsgd1na2vs0mg"},{"bike_id":"bab453ca-f0ac-4bfb-be58-4a1da4558312","system_id":"levelo_inurba_marseille","lat":43.28348,"lon":5.38106,"is_reserved":false,"is_disabled":false,"rental_uris":{"android":"levelo://app?vid=bab453ca-f0ac-4bfb-be58-4a1da4558312","ios":"levelo://app?vid=bab453ca-f0ac-4bfb-be58-4a1da4558312"},"vehicle_type_id":"4","last_reported":1729613478,"current_range_meters":20000,"station_id":"ce4bh412rcd13ifvqdr0","pricing_plan_id":"cebpf4jnsgd1na2vs0mg"},{"bike_id":"bab02b70-a870-4768-ba24-b0a62356cf83","system_id":"levelo_inurba_marseille","lat":43.28153,"lon":5.42646,"is_reserved":false,"is_disabled":false,"rental_uris":{"android":"levelo://app?vid=bab02b70-a870-4768-ba24-b0a62356cf83","ios":"levelo://app?vid=bab02b70-a870-4768-ba24-b0a62356cf83"},"vehicle_type_id":"4","last_reported":1729613478,"current_range_meters":24400,"station_id":"ce4bhnh2rcd13ifvqgug","pricing_plan_id":"cebpf4jnsgd1na2vs0mg"},{"bike_id":"57c42143-c30c-4c50-b404-b15d91a818b7","system_id":"levelo_inurba_marseille","lat":43.28418,"lon":5.34987,"is_reserved":false,"is_disabled":false,"rental_uris":{"android":"levelo://app?vid=57c42143-c30c-4c50-b404-b15d91a818b7","ios":"levelo://app?vid=57c42143-c30c-4c50-b404-b15d91a818b7"},"vehicle_type_id":"4","last_reported":1729613478,"current_range_meters":32800,"station_id":"ce4bhbh2rcd13ifvqepg","pricing_plan_id":"cebpf4jnsgd1na2vs0mg"},{"bike_id":"49a272d4-bf96-4473-b3f5-35c4956da975","system_id":"levelo_inurba_marseille","lat":43.292302,"lon":5.36053,"is_reserved":false,"is_disabled":false,"rental_uris":{"android":"levelo://app?vid=49a272d4-bf96-4473-b3f5-35c4956da975","ios":"levelo://app?vid=49a272d4-bf96-4473-b3f5-35c4956da975"},"vehicle_type_id":"4","last_reported":1729613478,"current_range_meters":8000,"station_id":"ce4bhbh2rcd13ifvqeqg","pricing_plan_id":"cebpf4jnsgd1na2vs0mg"},{"bike_id":"d5ee9a0b-99b6-4d8b-98ba-73215d2c997d","system_id":"levelo_inurba_marseille","lat":43.29796,"lon":5.40393,"is_reserved":false,"is_disabled":false,"rental_uris":{"android":"levelo://app?vid=d5ee9a0b-99b6-4d8b-98ba-73215d2c997d","ios":"levelo://app?vid=d5ee9a0b-99b6-4d8b-98ba-73215d2c997d"},"vehicle_type_id":"4","last_reported":1729613478,"current_range_meters":3600,"station_id":"ce4bh112rcd13ifvqd90","pricing_plan_id":"cebpf4jnsgd1na2vs0mg"},{"bike_id":"abe658d4-12a8-41db-b6b3-738fdbd608a2","system_id":"levelo_inurba_marseille","lat":43.231911,"lon":5.355576,"is_reserved":false,"is_disabled":false,"rental_uris":{"android":"levelo://app?vid=abe658d4-12a8-41db-b6b3-738fdbd608a2","ios":"levelo://app?vid=abe658d4-12a8-41db-b6b3-738fdbd608a2"},"vehicle_type_id":"4","last_reported":1729613478,"current_range_meters":35200,"station_id":"ce4bhu92rcd13ifvqi70","pricing_plan_id":"cebpf4jnsgd1na2vs0mg"},{"bike_id":"2a29be60-6d18-4019-aa66-440ce9a77456","system_id":"levelo_inurba_marseille","lat":43.2827,"lon":5.35064,"is_reserved":false,"is_disabled":false,"rental_uris":{"android":"levelo://app?vid=2a29be60-6d18-4019-aa66-440ce9a77456","ios":"levelo://app?vid=2a29be60-6d18-4019-aa66-440ce9a77456"},"vehicle_type_id":"4","last_reported":1729613478,"current_range_meters":29600,"station_id":"ce4bhbp2rcd13ifvqerg","pricing_plan_id":"cebpf4jnsgd1na2vs0mg"},{"bike_id":"2f289178-02c8-4b95-88f7-47734efb00dc","system_id":"levelo_inurba_marseille","lat":43.24079,"lon":5.37756,"is_reserved":false,"is_disabled":false,"rental_uris":{"android":"levelo://app?vid=2f289178-02c8-4b95-88f7-47734efb00dc","ios":"levelo://app?vid=2f289178-02c8-4b95-88f7-47734efb00dc"},"vehicle_type_id":"4","last_reported":1729613478,"current_range_meters":4800,"station_id":"ce4bhnp2rcd13ifvqgvg","pricing_plan_id":"cebpf4jnsgd1na2vs0mg"},{"bike_id":"86cac07a-d23d-4252-948d-700b28d68785","system_id":"levelo_inurba_marseille","lat":43.27376,"lon":5.3626,"is_reserved":false,"is_disabled":false,"rental_uris":{"android":"levelo://app?vid=86cac07a-d23d-4252-948d-700b28d68785","ios":"levelo://app?vid=86cac07a-d23d-4252-948d-700b28d68785"},"vehicle_type_id":"4","last_reported":1729613478,"current_range_meters":25600,"station_id":"ce4bhbh2rcd13ifvqeo0","pricing_plan_id":"cebpf4jnsgd1na2vs0mg"},{"bike_id":"83862eb7-5689-4c08-8586-50edb74b5287","system_id":"levelo_inurba_marseille","lat":43.3095,"lon":5.39027,"is_reserved":false,"is_disabled":false,"rental_uris":{"android":"levelo://app?vid=83862eb7-5689-4c08-8586-50edb74b5287","ios":"levelo://app?vid=83862eb7-5689-4c08-8586-50edb74b5287"},"vehicle_type_id":"4","last_reported":1729613478,"current_range_meters":6400,"station_id":"ce4bgup2rcd13ifvqco0","pricing_plan_id":"cebpf4jnsgd1na2vs0mg"},{"bike_id":"b2e1c869-a3ab-499c-b5c6-de9c9df8d37c","system_id":"levelo_inurba_marseille","lat":43.33755,"lon":5.37491,"is_reserved":false,"is_disabled":false,"rental_uris":{"android":"levelo://app?vid=b2e1c869-a3ab-499c-b5c6-de9c9df8d37c","ios":"levelo://app?vid=b2e1c869-a3ab-499c-b5c6-de9c9df8d37c"},"vehicle_type_id":"4","last_reported":1729613478,"current_range_meters":38800,"station_id":"","pricing_plan_id":"cebpf4jnsgd1na2vs0mg"},{"bike_id":"54dea222-658a-4f98-bc89-8d6e588bc34d","system_id":"levelo_inurba_marseille","lat":43.31329,"lon":5.39693,"is_reserved":false,"is_disabled":false,"rental_uris":{"android":"levelo://app?vid=54dea222-658a-4f98-bc89-8d6e588bc34d","ios":"levelo://app?vid=54dea222-658a-4f98-bc89-8d6e588bc34d"},"vehicle_type_id":"4","last_reported":1729613478,"current_range_meters":28000,"station_id":"ce4bh012rcd13ifvqcv0","pricing_plan_id":"cebpf4jnsgd1na2vs0mg"},{"bike_id":"77a49812-9825-491b-a56a-c035f8c1dedd","system_id":"levelo_inurba_marseille","lat":43.24648,"lon":5.38885,"is_reserved":false,"is_disabled":false,"rental_uris":{"android":"levelo://app?vid=77a49812-9825-491b-a56a-c035f8c1dedd","ios":"levelo://app?vid=77a49812-9825-491b-a56a-c035f8c1dedd"},"vehicle_type_id":"4","last_reported":1729613478,"current_range_meters":14800,"station_id":"ce4bh512rcd13ifvqe2g","pricing_plan_id":"cebpf4jnsgd1na2vs0mg"},{"bike_id":"3c2e9290-6792-4e2d-b00d-712b965be0bd","system_id":"levelo_inurba_marseille","lat":43.2558,"lon":5.38238,"is_reserved":false,"is_disabled":false,"rental_uris":{"android":"levelo://app?vid=3c2e9290-6792-4e2d-b00d-712b965be0bd","ios":"levelo://app?vid=3c2e9290-6792-4e2d-b00d-712b965be0bd"},"vehicle_type_id":"4","last_reported":1729613478,"current_range_meters":22800,"station_id":"ce4bhih2rcd13ifvqfs0","pricing_plan_id":"cebpf4jnsgd1na2vs0mg"},{"bike_id":"e2bc9546-5869-416a-8529-ea2b42e2fc5a","system_id":"levelo_inurba_marseille","lat":43.29958,"lon":5.41321,"is_reserved":false,"is_disabled":false,"rental_uris":{"android":"levelo://app?vid=e2bc9546-5869-416a-8529-ea2b42e2fc5a","ios":"levelo://app?vid=e2bc9546-5869-416a-8529-ea2b42e2fc5a"},"vehicle_type_id":"4","last_reported":1729613478,"current_range_meters":32800,"station_id":"ce4bhp12rcd13ifvqh9g","pricing_plan_id":"cebpf4jnsgd1na2vs0mg"},{"bike_id":"02594453-fddb-4059-bfeb-d744dd63f81b","system_id":"levelo_inurba_marseille","lat":43.27992,"lon":5.41669,"is_reserved":false,"is_disabled":false,"rental_uris":{"android":"levelo://app?vid=02594453-fddb-4059-bfeb-d744dd63f81b","ios":"levelo://app?vid=02594453-fddb-4059-bfeb-d744dd63f81b"},"vehicle_type_id":"4","last_reported":1729613478,"current_range_meters":36800,"station_id":"ce4bho12rcd13ifvqh1g","pricing_plan_id":"cebpf4jnsgd1na2vs0mg"},{"bike_id":"566ef3cd-3e87-4087-a6aa-32a145c590e2","system_id":"levelo_inurba_marseille","lat":43.25579,"lon":5.38234,"is_reserved":false,"is_disabled":false,"rental_uris":{"android":"levelo://app?vid=566ef3cd-3e87-4087-a6aa-32a145c590e2","ios":"levelo://app?vid=566ef3cd-3e87-4087-a6aa-32a145c590e2"},"vehicle_type_id":"4","last_reported":1729613478,"current_range_meters":10800,"station_id":"ce4bhih2rcd13ifvqfs0","pricing_plan_id":"cebpf4jnsgd1na2vs0mg"},{"bike_id":"e73397ec-41ef-401f-966f-7b0b12ace5aa","system_id":"levelo_inurba_marseille","lat":43.23195,"lon":5.35555,"is_reserved":false,"is_disabled":false,"rental_uris":{"android":"levelo://app?vid=e73397ec-41ef-401f-966f-7b0b12ace5aa","ios":"levelo://app?vid=e73397ec-41ef-401f-966f-7b0b12ace5aa"},"vehicle_type_id":"4","last_reported":1729613478,"current_range_meters":38800,"station_id":"ce4bhu92rcd13ifvqi70","pricing_plan_id":"cebpf4jnsgd1na2vs0mg"},{"bike_id":"762e85ee-3095-4eda-b4ac-8768e889989c","system_id":"levelo_inurba_marseille","lat":43.261749,"lon":5.374604,"is_reserved":false,"is_disabled":false,"rental_uris":{"android":"levelo://app?vid=762e85ee-3095-4eda-b4ac-8768e889989c","ios":"levelo://app?vid=762e85ee-3095-4eda-b4ac-8768e889989c"},"vehicle_type_id":"4","last_reported":1729613478,"current_range_meters":4800,"station_id":"ce4bhg12rcd13ifvqf60","pricing_plan_id":"cebpf4jnsgd1na2vs0mg"},{"bike_id":"5f58b7ef-86d3-459b-bbb7-07f685a824bb","system_id":"levelo_inurba_marseille","lat":43.27941,"lon":5.41046,"is_reserved":false,"is_disabled":false,"rental_uris":{"android":"levelo://app?vid=5f58b7ef-86d3-459b-bbb7-07f685a824bb","ios":"levelo://app?vid=5f58b7ef-86d3-459b-bbb7-07f685a824bb"},"vehicle_type_id":"4","last_reported":1729613478,"current_range_meters":14800,"station_id":"ce4bhnp2rcd13ifvqh0g","pricing_plan_id":"cebpf4jnsgd1na2vs0mg"},{"bike_id":"2d3bac3c-b30e-4ae9-b289-4dad5943c3bc","system_id":"levelo_inurba_marseille","lat":43.2319,"lon":5.3999,"is_reserved":false,"is_disabled":false,"rental_uris":{"android":"levelo://app?vid=2d3bac3c-b30e-4ae9-b289-4dad5943c3bc","ios":"levelo://app?vid=2d3bac3c-b30e-4ae9-b289-4dad5943c3bc"},"vehicle_type_id":"4","last_reported":1729613478,"current_range_meters":39200,"station_id":"ce4bhn12rcd13ifvqgqg","pricing_plan_id":"cebpf4jnsgd1na2vs0mg"},{"bike_id":"4f3ddb70-2e3a-45fc-9f3d-12fe30cc2c89","system_id":"levelo_inurba_marseille","lat":43.24659,"lon":5.38169,"is_reserved":false,"is_disabled":false,"rental_uris":{"android":"levelo://app?vid=4f3ddb70-2e3a-45fc-9f3d-12fe30cc2c89","ios":"levelo://app?vid=4f3ddb70-2e3a-45fc-9f3d-12fe30cc2c89"},"vehicle_type_id":"4","last_reported":1729613478,"current_range_meters":22800,"station_id":"ce4bhih2rcd13ifvqfr0","pricing_plan_id":"cebpf4jnsgd1na2vs0mg"},{"bike_id":"a748ea2d-26c2-4720-94ef-5a0206b95f5d","system_id":"levelo_inurba_marseille","lat":43.294861,"lon":5.409314,"is_reserved":false,"is_disabled":false,"rental_uris":{"android":"levelo://app?vid=a748ea2d-26c2-4720-94ef-5a0206b95f5d","ios":"levelo://app?vid=a748ea2d-26c2-4720-94ef-5a0206b95f5d"},"vehicle_type_id":"4","last_reported":1729613478,"current_range_meters":35600,"station_id":"ce4bh192rcd13ifvqdc0","pricing_plan_id":"cebpf4jnsgd1na2vs0mg"},{"bike_id":"ca8d01b2-060f-4505-9ac8-6a4f0bd15049","system_id":"levelo_inurba_marseille","lat":43.28923,"lon":5.3839,"is_reserved":false,"is_disabled":false,"rental_uris":{"android":"levelo://app?vid=ca8d01b2-060f-4505-9ac8-6a4f0bd15049","ios":"levelo://app?vid=ca8d01b2-060f-4505-9ac8-6a4f0bd15049"},"vehicle_type_id":"4","last_reported":1729613478,"current_range_meters":37600,"station_id":"ce4bh612rcd13ifvqe6g","pricing_plan_id":"cebpf4jnsgd1na2vs0mg"},{"bike_id":"8869b98d-8a35-4fb4-b3a7-c5993458c5c2","system_id":"levelo_inurba_marseille","lat":43.29422,"lon":5.38621,"is_reserved":false,"is_disabled":false,"rental_uris":{"android":"levelo://app?vid=8869b98d-8a35-4fb4-b3a7-c5993458c5c2","ios":"levelo://app?vid=8869b98d-8a35-4fb4-b3a7-c5993458c5c2"},"vehicle_type_id":"4","last_reported":1729613478,"current_range_meters":36400,"station_id":"ce4bh2h2rcd13ifvqdh0","pricing_plan_id":"cebpf4jnsgd1na2vs0mg"},{"bike_id":"675eed90-f3ee-44bc-a1e0-521dbf123a0a","system_id":"levelo_inurba_marseille","lat":43.23963,"lon":5.36634,"is_reserved":false,"is_disabled":false,"rental_uris":{"android":"levelo://app?vid=675eed90-f3ee-44bc-a1e0-521dbf123a0a","ios":"levelo://app?vid=675eed90-f3ee-44bc-a1e0-521dbf123a0a"},"vehicle_type_id":"4","last_reported":1729613478,"current_range_meters":19600,"station_id":"ce4bhi12rcd13ifvqfp0","pricing_plan_id":"cebpf4jnsgd1na2vs0mg"},{"bike_id":"87902630-494f-4ed7-a1e4-44994c16fa59","system_id":"levelo_inurba_marseille","lat":43.27073,"lon":5.4228,"is_reserved":false,"is_disabled":false,"rental_uris":{"android":"levelo://app?vid=87902630-494f-4ed7-a1e4-44994c16fa59","ios":"levelo://app?vid=87902630-494f-4ed7-a1e4-44994c16fa59"},"vehicle_type_id":"4","last_reported":1729613478,"current_range_meters":36400,"station_id":"ce4bhk92rcd13ifvqgb0","pricing_plan_id":"cebpf4jnsgd1na2vs0mg"},{"bike_id":"23067f25-e24c-4a89-bd6b-fdc0b68e88da","system_id":"levelo_inurba_marseille","lat":43.31705,"lon":5.37761,"is_reserved":false,"is_disabled":false,"rental_uris":{"android":"levelo://app?vid=23067f25-e24c-4a89-bd6b-fdc0b68e88da","ios":"levelo://app?vid=23067f25-e24c-4a89-bd6b-fdc0b68e88da"},"vehicle_type_id":"4","last_reported":1729613478,"current_range_meters":34000,"station_id":"ce4bgth2rcd13ifvqch0","pricing_plan_id":"cebpf4jnsgd1na2vs0mg"},{"bike_id":"b238512f-77c9-48a6-8004-c21c3845019c","system_id":"levelo_inurba_marseille","lat":43.29869,"lon":5.39729,"is_reserved":false,"is_disabled":false,"rental_uris":{"android":"levelo://app?vid=b238512f-77c9-48a6-8004-c21c3845019c","ios":"levelo://app?vid=b238512f-77c9-48a6-8004-c21c3845019c"},"vehicle_type_id":"4","last_reported":1729613478,"current_range_meters":34000,"station_id":"ce4bh0h2rcd13ifvqd50","pricing_plan_id":"cebpf4jnsgd1na2vs0mg"},{"bike_id":"5f991889-32e2-454d-aa3f-e326295896f4","system_id":"levelo_inurba_marseille","lat":43.28154,"lon":5.42644,"is_reserved":false,"is_disabled":false,"rental_uris":{"android":"levelo://app?vid=5f991889-32e2-454d-aa3f-e326295896f4","ios":"levelo://app?vid=5f991889-32e2-454d-aa3f-e326295896f4"},"vehicle_type_id":"4","last_reported":1729613478,"current_range_meters":10000,"station_id":"ce4bhnh2rcd13ifvqgug","pricing_plan_id":"cebpf4jnsgd1na2vs0mg"},{"bike_id":"49cddc2b-d925-495c-80be-9b315d07b295","system_id":"levelo_inurba_marseille","lat":43.27367,"lon":5.36259,"is_reserved":false,"is_disabled":false,"rental_uris":{"android":"levelo://app?vid=49cddc2b-d925-495c-80be-9b315d07b295","ios":"levelo://app?vid=49cddc2b-d925-495c-80be-9b315d07b295"},"vehicle_type_id":"4","last_reported":1729613478,"current_range_meters":10000,"station_id":"ce4bhbh2rcd13ifvqeo0","pricing_plan_id":"cebpf4jnsgd1na2vs0mg"},{"bike_id":"11256fd2-b537-43fb-8f2f-2312433c9979","system_id":"levelo_inurba_marseille","lat":43.28104,"lon":5.37839,"is_reserved":false,"is_disabled":false,"rental_uris":{"android":"levelo://app?vid=11256fd2-b537-43fb-8f2f-2312433c9979","ios":"levelo://app?vid=11256fd2-b537-43fb-8f2f-2312433c9979"},"vehicle_type_id":"4","last_reported":1729613478,"current_range_meters":11200,"station_id":"ce4bha12rcd13ifvqee0","pricing_plan_id":"cebpf4jnsgd1na2vs0mg"},{"bike_id":"1060af92-170b-4517-8d55-17d9bc9f28bf","system_id":"levelo_inurba_marseille","lat":43.33768,"lon":5.37442,"is_reserved":false,"is_disabled":false,"rental_uris":{"android":"levelo://app?vid=1060af92-170b-4517-8d55-17d9bc9f28bf","ios":"levelo://app?vid=1060af92-170b-4517-8d55-17d9bc9f28bf"},"vehicle_type_id":"4","last_reported":1729613478,"current_range_meters":35600,"station_id":"","pricing_plan_id":"cebpf4jnsgd1na2vs0mg"},{"bike_id":"3b7f4069-e974-47e0-b704-9a4103e5c408","system_id":"levelo_inurba_marseille","lat":43.25822,"lon":5.39442,"is_reserved":false,"is_disabled":false,"rental_uris":{"android":"levelo://app?vid=3b7f4069-e974-47e0-b704-9a4103e5c408","ios":"levelo://app?vid=3b7f4069-e974-47e0-b704-9a4103e5c408"},"vehicle_type_id":"4","last_reported":1729613478,"current_range_meters":8400,"station_id":"ce4bhip2rcd13ifvqft0","pricing_plan_id":"cebpf4jnsgd1na2vs0mg"},{"bike_id":"2716df3a-87b8-4ac7-be13-29f6fabe3c04","system_id":"levelo_inurba_marseille","lat":43.29588,"lon":5.36741,"is_reserved":false,"is_disabled":false,"rental_uris":{"android":"levelo://app?vid=2716df3a-87b8-4ac7-be13-29f6fabe3c04","ios":"levelo://app?vid=2716df3a-87b8-4ac7-be13-29f6fabe3c04"},"vehicle_type_id":"4","last_reported":1729613478,"current_range_meters":39200,"station_id":"ce4bgph2rcd13ifvqc2g","pricing_plan_id":"cebpf4jnsgd1na2vs0mg"},{"bike_id":"b1f5100f-0a13-4bd4-bb77-30615e234509","system_id":"levelo_inurba_marseille","lat":43.27936,"lon":5.37953,"is_reserved":false,"is_disabled":false,"rental_uris":{"android":"levelo://app?vid=b1f5100f-0a13-4bd4-bb77-30615e234509","ios":"levelo://app?vid=b1f5100f-0a13-4bd4-bb77-30615e234509"},"vehicle_type_id":"4","last_reported":1729613478,"current_range_meters":6000,"station_id":"ce4bhf92rcd13ifvqf50","pricing_plan_id":"cebpf4jnsgd1na2vs0mg"},{"bike_id":"1e6e2dfc-250e-40ea-a0bd-c9162affe66d","system_id":"levelo_inurba_marseille","lat":43.25494,"lon":5.37653,"is_reserved":false,"is_disabled":false,"rental_uris":{"android":"levelo://app?vid=1e6e2dfc-250e-40ea-a0bd-c9162affe66d","ios":"levelo://app?vid=1e6e2dfc-250e-40ea-a0bd-c9162affe66d"},"vehicle_type_id":"4","last_reported":1729613478,"current_range_meters":12400,"station_id":"ce4bhh12rcd13ifvqff0","pricing_plan_id":"cebpf4jnsgd1na2vs0mg"},{"bike_id":"864575c1-85b8-4008-92ba-391073d4ed51","system_id":"levelo_inurba_marseille","lat":43.23191,"lon":5.35559,"is_reserved":false,"is_disabled":false,"rental_uris":{"android":"levelo://app?vid=864575c1-85b8-4008-92ba-391073d4ed51","ios":"levelo://app?vid=864575c1-85b8-4008-92ba-391073d4ed51"},"vehicle_type_id":"4","last_reported":1729613478,"current_range_meters":24400,"station_id":"ce4bhu92rcd13ifvqi70","pricing_plan_id":"cebpf4jnsgd1na2vs0mg"},{"bike_id":"067126d7-e852-4b63-a3aa-0156256d6cb1","system_id":"levelo_inurba_marseille","lat":43.28462,"lon":5.35889,"is_reserved":false,"is_disabled":false,"rental_uris":{"android":"levelo://app?vid=067126d7-e852-4b63-a3aa-0156256d6cb1","ios":"levelo://app?vid=067126d7-e852-4b63-a3aa-0156256d6cb1"},"vehicle_type_id":"4","last_reported":1729613478,"current_range_meters":16000,"station_id":"ce4bhah2rcd13ifvqei0","pricing_plan_id":"cebpf4jnsgd1na2vs0mg"},{"bike_id":"dd01c12d-7a1c-49d6-8595-16ee5a95404f","system_id":"levelo_inurba_marseille","lat":43.29439,"lon":5.39746,"is_reserved":false,"is_disabled":false,"rental_uris":{"android":"levelo://app?vid=dd01c12d-7a1c-49d6-8595-16ee5a95404f","ios":"levelo://app?vid=dd01c12d-7a1c-49d6-8595-16ee5a95404f"},"vehicle_type_id":"4","last_reported":1729613478,"current_range_meters":19600,"station_id":"ce4bh3h2rcd13ifvqdo0","pricing_plan_id":"cebpf4jnsgd1na2vs0mg"},{"bike_id":"0688fcff-c1b0-42f4-a482-b4232f7e1485","system_id":"levelo_inurba_marseille","lat":43.29897,"lon":5.43665,"is_reserved":false,"is_disabled":false,"rental_uris":{"android":"levelo://app?vid=0688fcff-c1b0-42f4-a482-b4232f7e1485","ios":"levelo://app?vid=0688fcff-c1b0-42f4-a482-b4232f7e1485"},"vehicle_type_id":"4","last_reported":1729613478,"current_range_meters":16000,"station_id":"ce4bhpp2rcd13ifvqhfg","pricing_plan_id":"cebpf4jnsgd1na2vs0mg"},{"bike_id":"0728974d-1ad5-4181-91f2-6035aab7157d","system_id":"levelo_inurba_marseille","lat":43.23191,"lon":5.35557,"is_reserved":false,"is_disabled":false,"rental_uris":{"android":"levelo://app?vid=0728974d-1ad5-4181-91f2-6035aab7157d","ios":"levelo://app?vid=0728974d-1ad5-4181-91f2-6035aab7157d"},"vehicle_type_id":"4","last_reported":1729613478,"current_range_meters":40000,"station_id":"ce4bhu92rcd13ifvqi70","pricing_plan_id":"cebpf4jnsgd1na2vs0mg"},{"bike_id":"bf3c3a62-c5dc-4b0a-b04a-23ff5ca45185","system_id":"levelo_inurba_marseille","lat":43.29411,"lon":5.38634,"is_reserved":false,"is_disabled":false,"rental_uris":{"android":"levelo://app?vid=bf3c3a62-c5dc-4b0a-b04a-23ff5ca45185","ios":"levelo://app?vid=bf3c3a62-c5dc-4b0a-b04a-23ff5ca45185"},"vehicle_type_id":"4","last_reported":1729613478,"current_range_meters":26800,"station_id":"ce4bh2h2rcd13ifvqdh0","pricing_plan_id":"cebpf4jnsgd1na2vs0mg"},{"bike_id":"79a1e020-318b-42a1-a8c0-a424b1daf69e","system_id":"levelo_inurba_marseille","lat":43.296,"lon":5.36142,"is_reserved":false,"is_disabled":false,"rental_uris":{"android":"levelo://app?vid=79a1e020-318b-42a1-a8c0-a424b1daf69e","ios":"levelo://app?vid=79a1e020-318b-42a1-a8c0-a424b1daf69e"},"vehicle_type_id":"4","last_reported":1729613478,"current_range_meters":5600,"station_id":"","pricing_plan_id":"cebpf4jnsgd1na2vs0mg"},{"bike_id":"26527dc1-d413-4b4f-9df6-7e4c6643c3ae","system_id":"levelo_inurba_marseille","lat":43.258673,"lon":5.399226,"is_reserved":false,"is_disabled":false,"rental_uris":{"android":"levelo://app?vid=26527dc1-d413-4b4f-9df6-7e4c6643c3ae","ios":"levelo://app?vid=26527dc1-d413-4b4f-9df6-7e4c6643c3ae"},"vehicle_type_id":"4","last_reported":1729613478,"current_range_meters":3600,"station_id":"ce4bhl92rcd13ifvqghg","pricing_plan_id":"cebpf4jnsgd1na2vs0mg"},{"bike_id":"e701dca3-3c6f-47c6-aeb5-94be95705bbc","system_id":"levelo_inurba_marseille","lat":43.27994,"lon":5.41655,"is_reserved":false,"is_disabled":false,"rental_uris":{"android":"levelo://app?vid=e701dca3-3c6f-47c6-aeb5-94be95705bbc","ios":"levelo://app?vid=e701dca3-3c6f-47c6-aeb5-94be95705bbc"},"vehicle_type_id":"4","last_reported":1729613478,"current_range_meters":25600,"station_id":"ce4bho12rcd13ifvqh1g","pricing_plan_id":"cebpf4jnsgd1na2vs0mg"},{"bike_id":"d29353d5-3f3c-460c-b64f-82bf48d089cc","system_id":"levelo_inurba_marseille","lat":43.305328,"lon":5.416782,"is_reserved":false,"is_disabled":false,"rental_uris":{"android":"levelo://app?vid=d29353d5-3f3c-460c-b64f-82bf48d089cc","ios":"levelo://app?vid=d29353d5-3f3c-460c-b64f-82bf48d089cc"},"vehicle_type_id":"4","last_reported":1729613478,"current_range_meters":28800,"station_id":"ce4bhph2rcd13ifvqheg","pricing_plan_id":"cebpf4jnsgd1na2vs0mg"},{"bike_id":"7adf842b-4b8c-4356-a23f-1be0cbaf4d21","system_id":"levelo_inurba_marseille","lat":43.23191,"lon":5.35556,"is_reserved":false,"is_disabled":false,"rental_uris":{"android":"levelo://app?vid=7adf842b-4b8c-4356-a23f-1be0cbaf4d21","ios":"levelo://app?vid=7adf842b-4b8c-4356-a23f-1be0cbaf4d21"},"vehicle_type_id":"4","last_reported":1729613478,"current_range_meters":8800,"station_id":"ce4bhu92rcd13ifvqi70","pricing_plan_id":"cebpf4jnsgd1na2vs0mg"},{"bike_id":"a5bf1e71-265c-4740-b91d-c201d0024bd0","system_id":"levelo_inurba_marseille","lat":43.309265,"lon":5.401429,"is_reserved":false,"is_disabled":false,"rental_uris":{"android":"levelo://app?vid=a5bf1e71-265c-4740-b91d-c201d0024bd0","ios":"levelo://app?vid=a5bf1e71-265c-4740-b91d-c201d0024bd0"},"vehicle_type_id":"4","last_reported":1729613478,"current_range_meters":22800,"station_id":"ce4bgvp2rcd13ifvqct0","pricing_plan_id":"cebpf4jnsgd1na2vs0mg"},{"bike_id":"67ec642f-c7d8-4e4d-83ca-4f7bea1500ff","system_id":"levelo_inurba_marseille","lat":43.25862,"lon":5.39903,"is_reserved":false,"is_disabled":false,"rental_uris":{"android":"levelo://app?vid=67ec642f-c7d8-4e4d-83ca-4f7bea1500ff","ios":"levelo://app?vid=67ec642f-c7d8-4e4d-83ca-4f7bea1500ff"},"vehicle_type_id":"4","last_reported":1729613478,"current_range_meters":24800,"station_id":"ce4bhl92rcd13ifvqghg","pricing_plan_id":"cebpf4jnsgd1na2vs0mg"},{"bike_id":"8d66234d-ed10-4a56-b9bf-7024ed1a6c9c","system_id":"levelo_inurba_marseille","lat":43.32642,"lon":5.37876,"is_reserved":false,"is_disabled":false,"rental_uris":{"android":"levelo://app?vid=8d66234d-ed10-4a56-b9bf-7024ed1a6c9c","ios":"levelo://app?vid=8d66234d-ed10-4a56-b9bf-7024ed1a6c9c"},"vehicle_type_id":"4","last_reported":1729613478,"current_range_meters":6000,"station_id":"","pricing_plan_id":"cebpf4jnsgd1na2vs0mg"},{"bike_id":"d164d210-655c-4077-b6d2-9c0ebf280f35","system_id":"levelo_inurba_marseille","lat":43.28266,"lon":5.35072,"is_reserved":false,"is_disabled":false,"rental_uris":{"android":"levelo://app?vid=d164d210-655c-4077-b6d2-9c0ebf280f35","ios":"levelo://app?vid=d164d210-655c-4077-b6d2-9c0ebf280f35"},"vehicle_type_id":"4","last_reported":1729613478,"current_range_meters":20800,"station_id":"ce4bhbp2rcd13ifvqerg","pricing_plan_id":"cebpf4jnsgd1na2vs0mg"},{"bike_id":"93bb9e99-931f-489e-9c11-6a59ab72106e","system_id":"levelo_inurba_marseille","lat":43.29257,"lon":5.40899,"is_reserved":false,"is_disabled":false,"rental_uris":{"android":"levelo://app?vid=93bb9e99-931f-489e-9c11-6a59ab72106e","ios":"levelo://app?vid=93bb9e99-931f-489e-9c11-6a59ab72106e"},"vehicle_type_id":"4","last_reported":1729613478,"current_range_meters":22400,"station_id":"ce4bh192rcd13ifvqdc0","pricing_plan_id":"cebpf4jnsgd1na2vs0mg"},{"bike_id":"0bc73c7f-b34c-44e9-8534-a388d3a0e470","system_id":"levelo_inurba_marseille","lat":43.29244,"lon":5.40909,"is_reserved":false,"is_disabled":false,"rental_uris":{"android":"levelo://app?vid=0bc73c7f-b34c-44e9-8534-a388d3a0e470","ios":"levelo://app?vid=0bc73c7f-b34c-44e9-8534-a388d3a0e470"},"vehicle_type_id":"4","last_reported":1729613478,"current_range_meters":17200,"station_id":"ce4bh192rcd13ifvqdc0","pricing_plan_id":"cebpf4jnsgd1na2vs0mg"},{"bike_id":"ab3e9a64-13ba-440f-9dca-af1bd4504592","system_id":"levelo_inurba_marseille","lat":43.24661,"lon":5.38169,"is_reserved":false,"is_disabled":false,"rental_uris":{"android":"levelo://app?vid=ab3e9a64-13ba-440f-9dca-af1bd4504592","ios":"levelo://app?vid=ab3e9a64-13ba-440f-9dca-af1bd4504592"},"vehicle_type_id":"4","last_reported":1729613478,"current_range_meters":8000,"station_id":"ce4bhih2rcd13ifvqfr0","pricing_plan_id":"cebpf4jnsgd1na2vs0mg"},{"bike_id":"9ab77b34-2631-40f5-9981-0ceedae41ba1","system_id":"levelo_inurba_marseille","lat":43.29526,"lon":5.39045,"is_reserved":false,"is_disabled":false,"rental_uris":{"android":"levelo://app?vid=9ab77b34-2631-40f5-9981-0ceedae41ba1","ios":"levelo://app?vid=9ab77b34-2631-40f5-9981-0ceedae41ba1"},"vehicle_type_id":"4","last_reported":1729613478,"current_range_meters":36400,"station_id":"ce4bh3p2rcd13ifvqdp0","pricing_plan_id":"cebpf4jnsgd1na2vs0mg"},{"bike_id":"f48b9292-5b23-4c1d-b443-99520d182fe9","system_id":"levelo_inurba_marseille","lat":43.31705,"lon":5.37768,"is_reserved":false,"is_disabled":false,"rental_uris":{"android":"levelo://app?vid=f48b9292-5b23-4c1d-b443-99520d182fe9","ios":"levelo://app?vid=f48b9292-5b23-4c1d-b443-99520d182fe9"},"vehicle_type_id":"4","last_reported":1729613478,"current_range_meters":35200,"station_id":"ce4bgth2rcd13ifvqch0","pricing_plan_id":"cebpf4jnsgd1na2vs0mg"},{"bike_id":"155517ef-0a83-4c87-b2da-fb3d8d259bc7","system_id":"levelo_inurba_marseille","lat":43.25573,"lon":5.3824,"is_reserved":false,"is_disabled":false,"rental_uris":{"android":"levelo://app?vid=155517ef-0a83-4c87-b2da-fb3d8d259bc7","ios":"levelo://app?vid=155517ef-0a83-4c87-b2da-fb3d8d259bc7"},"vehicle_type_id":"4","last_reported":1729613478,"current_range_meters":36400,"station_id":"ce4bhih2rcd13ifvqfs0","pricing_plan_id":"cebpf4jnsgd1na2vs0mg"},{"bike_id":"a8fd90e1-0f06-42a3-906b-c91cb727d214","system_id":"levelo_inurba_marseille","lat":43.268304,"lon":5.410984,"is_reserved":false,"is_disabled":false,"rental_uris":{"android":"levelo://app?vid=a8fd90e1-0f06-42a3-906b-c91cb727d214","ios":"levelo://app?vid=a8fd90e1-0f06-42a3-906b-c91cb727d214"},"vehicle_type_id":"4","last_reported":1729613478,"current_range_meters":12800,"station_id":"","pricing_plan_id":"cebpf4jnsgd1na2vs0mg"},{"bike_id":"efc1c891-0ab7-4001-bd71-73d4d8839bd1","system_id":"levelo_inurba_marseille","lat":43.28617,"lon":5.35109,"is_reserved":false,"is_disabled":false,"rental_uris":{"android":"levelo://app?vid=efc1c891-0ab7-4001-bd71-73d4d8839bd1","ios":"levelo://app?vid=efc1c891-0ab7-4001-bd71-73d4d8839bd1"},"vehicle_type_id":"4","last_reported":1729613478,"current_range_meters":35200,"station_id":"ce4bhch2rcd13ifvqeug","pricing_plan_id":"cebpf4jnsgd1na2vs0mg"},{"bike_id":"24ed5163-9d3e-4eea-8324-a3ac5ab936d3","system_id":"levelo_inurba_marseille","lat":43.23194,"lon":5.35554,"is_reserved":false,"is_disabled":false,"rental_uris":{"android":"levelo://app?vid=24ed5163-9d3e-4eea-8324-a3ac5ab936d3","ios":"levelo://app?vid=24ed5163-9d3e-4eea-8324-a3ac5ab936d3"},"vehicle_type_id":"4","last_reported":1729613478,"current_range_meters":28400,"station_id":"ce4bhu92rcd13ifvqi70","pricing_plan_id":"cebpf4jnsgd1na2vs0mg"},{"bike_id":"17972fe8-fd24-4ff3-bd0c-91dd3a640af2","system_id":"levelo_inurba_marseille","lat":43.23189,"lon":5.39975,"is_reserved":false,"is_disabled":false,"rental_uris":{"android":"levelo://app?vid=17972fe8-fd24-4ff3-bd0c-91dd3a640af2","ios":"levelo://app?vid=17972fe8-fd24-4ff3-bd0c-91dd3a640af2"},"vehicle_type_id":"4","last_reported":1729613478,"current_range_meters":8800,"station_id":"ce4bhn12rcd13ifvqgqg","pricing_plan_id":"cebpf4jnsgd1na2vs0mg"},{"bike_id":"c555b3bd-981d-40bb-97d7-aecec1e45be7","system_id":"levelo_inurba_marseille","lat":43.28996,"lon":5.38187,"is_reserved":false,"is_disabled":false,"rental_uris":{"android":"levelo://app?vid=c555b3bd-981d-40bb-97d7-aecec1e45be7","ios":"levelo://app?vid=c555b3bd-981d-40bb-97d7-aecec1e45be7"},"vehicle_type_id":"4","last_reported":1729613478,"current_range_meters":25200,"station_id":"ce4bgkh2rcd13ifvqbl0","pricing_plan_id":"cebpf4jnsgd1na2vs0mg"},{"bike_id":"20fad69f-38fd-4e28-beb7-f48d2a4f921a","system_id":"levelo_inurba_marseille","lat":43.30138,"lon":5.39867,"is_reserved":false,"is_disabled":false,"rental_uris":{"android":"levelo://app?vid=20fad69f-38fd-4e28-beb7-f48d2a4f921a","ios":"levelo://app?vid=20fad69f-38fd-4e28-beb7-f48d2a4f921a"},"vehicle_type_id":"4","last_reported":1729613478,"current_range_meters":19600,"station_id":"ce4bh0h2rcd13ifvqd40","pricing_plan_id":"cebpf4jnsgd1na2vs0mg"},{"bike_id":"8bfaef78-eeff-4224-9470-e96da0fb4bc5","system_id":"levelo_inurba_marseille","lat":43.2987,"lon":5.39735,"is_reserved":false,"is_disabled":false,"rental_uris":{"android":"levelo://app?vid=8bfaef78-eeff-4224-9470-e96da0fb4bc5","ios":"levelo://app?vid=8bfaef78-eeff-4224-9470-e96da0fb4bc5"},"vehicle_type_id":"4","last_reported":1729613478,"current_range_meters":13600,"station_id":"ce4bh0h2rcd13ifvqd50","pricing_plan_id":"cebpf4jnsgd1na2vs0mg"},{"bike_id":"c3945b60-e38d-4106-8f18-92c7f436cc4f","system_id":"levelo_inurba_marseille","lat":43.33757,"lon":5.37448,"is_reserved":false,"is_disabled":false,"rental_uris":{"android":"levelo://app?vid=c3945b60-e38d-4106-8f18-92c7f436cc4f","ios":"levelo://app?vid=c3945b60-e38d-4106-8f18-92c7f436cc4f"},"vehicle_type_id":"4","last_reported":1729613478,"current_range_meters":31200,"station_id":"","pricing_plan_id":"cebpf4jnsgd1na2vs0mg"},{"bike_id":"523253d3-784e-46d6-a1be-b8118f069c0e","system_id":"levelo_inurba_marseille","lat":43.28269,"lon":5.35082,"is_reserved":false,"is_disabled":false,"rental_uris":{"android":"levelo://app?vid=523253d3-784e-46d6-a1be-b8118f069c0e","ios":"levelo://app?vid=523253d3-784e-46d6-a1be-b8118f069c0e"},"vehicle_type_id":"4","last_reported":1729613478,"current_range_meters":28400,"station_id":"ce4bhbp2rcd13ifvqerg","pricing_plan_id":"cebpf4jnsgd1na2vs0mg"},{"bike_id":"a3b8aec2-9409-4677-b5e7-b20dcb598df2","system_id":"levelo_inurba_marseille","lat":43.29433,"lon":5.39761,"is_reserved":false,"is_disabled":false,"rental_uris":{"android":"levelo://app?vid=a3b8aec2-9409-4677-b5e7-b20dcb598df2","ios":"levelo://app?vid=a3b8aec2-9409-4677-b5e7-b20dcb598df2"},"vehicle_type_id":"4","last_reported":1729613478,"current_range_meters":24400,"station_id":"ce4bh3h2rcd13ifvqdo0","pricing_plan_id":"cebpf4jnsgd1na2vs0mg"},{"bike_id":"d63f4383-2c6e-45d6-8f7e-9bb07e2785be","system_id":"levelo_inurba_marseille","lat":43.297302,"lon":5.377142,"is_reserved":false,"is_disabled":false,"rental_uris":{"android":"levelo://app?vid=d63f4383-2c6e-45d6-8f7e-9bb07e2785be","ios":"levelo://app?vid=d63f4383-2c6e-45d6-8f7e-9bb07e2785be"},"vehicle_type_id":"4","last_reported":1729613478,"current_range_meters":7200,"station_id":"ce4bgkh2rcd13ifvqbl0","pricing_plan_id":"cebpf4jnsgd1na2vs0mg"},{"bike_id":"0a053dc7-d94d-4a8c-abc3-326209b41cbc","system_id":"levelo_inurba_marseille","lat":43.26577,"lon":5.39036,"is_reserved":false,"is_disabled":false,"rental_uris":{"android":"levelo://app?vid=0a053dc7-d94d-4a8c-abc3-326209b41cbc","ios":"levelo://app?vid=0a053dc7-d94d-4a8c-abc3-326209b41cbc"},"vehicle_type_id":"4","last_reported":1729613478,"current_range_meters":28800,"station_id":"ce4bhe12rcd13ifvqf30","pricing_plan_id":"cebpf4jnsgd1na2vs0mg"},{"bike_id":"3fdf3af0-cfd5-4a8c-90e1-8adf0e0edbdf","system_id":"levelo_inurba_marseille","lat":43.27372,"lon":5.36262,"is_reserved":false,"is_disabled":false,"rental_uris":{"android":"levelo://app?vid=3fdf3af0-cfd5-4a8c-90e1-8adf0e0edbdf","ios":"levelo://app?vid=3fdf3af0-cfd5-4a8c-90e1-8adf0e0edbdf"},"vehicle_type_id":"4","last_reported":1729613478,"current_range_meters":26000,"station_id":"ce4bhbh2rcd13ifvqeo0","pricing_plan_id":"cebpf4jnsgd1na2vs0mg"},{"bike_id":"f9148d93-71b3-41e7-8558-fe794d64d518","system_id":"levelo_inurba_marseille","lat":43.3063,"lon":5.40084,"is_reserved":false,"is_disabled":false,"rental_uris":{"android":"levelo://app?vid=f9148d93-71b3-41e7-8558-fe794d64d518","ios":"levelo://app?vid=f9148d93-71b3-41e7-8558-fe794d64d518"},"vehicle_type_id":"4","last_reported":1729613478,"current_range_meters":17600,"station_id":"ce4bh112rcd13ifvqda0","pricing_plan_id":"cebpf4jnsgd1na2vs0mg"},{"bike_id":"034b8a6b-c191-40d2-b0a5-e6d3efcfe313","system_id":"levelo_inurba_marseille","lat":43.24662,"lon":5.38171,"is_reserved":false,"is_disabled":false,"rental_uris":{"android":"levelo://app?vid=034b8a6b-c191-40d2-b0a5-e6d3efcfe313","ios":"levelo://app?vid=034b8a6b-c191-40d2-b0a5-e6d3efcfe313"},"vehicle_type_id":"4","last_reported":1729613478,"current_range_meters":19600,"station_id":"ce4bhih2rcd13ifvqfr0","pricing_plan_id":"cebpf4jnsgd1na2vs0mg"},{"bike_id":"d8d30b00-c51f-42c1-a4bc-5be916aaba37","system_id":"levelo_inurba_marseille","lat":43.2959,"lon":5.37369,"is_reserved":false,"is_disabled":false,"rental_uris":{"android":"levelo://app?vid=d8d30b00-c51f-42c1-a4bc-5be916aaba37","ios":"levelo://app?vid=d8d30b00-c51f-42c1-a4bc-5be916aaba37"},"vehicle_type_id":"4","last_reported":1729613478,"current_range_meters":28800,"station_id":"","pricing_plan_id":"cebpf4jnsgd1na2vs0mg"},{"bike_id":"82ee010f-458c-43ba-ba00-6acdecfdf16a","system_id":"levelo_inurba_marseille","lat":43.27371,"lon":5.36259,"is_reserved":false,"is_disabled":false,"rental_uris":{"android":"levelo://app?vid=82ee010f-458c-43ba-ba00-6acdecfdf16a","ios":"levelo://app?vid=82ee010f-458c-43ba-ba00-6acdecfdf16a"},"vehicle_type_id":"4","last_reported":1729613478,"current_range_meters":30800,"station_id":"ce4bhbh2rcd13ifvqeo0","pricing_plan_id":"cebpf4jnsgd1na2vs0mg"},{"bike_id":"a7c2d750-e40d-441e-88ba-fc572d6f812a","system_id":"levelo_inurba_marseille","lat":43.29788,"lon":5.38116,"is_reserved":false,"is_disabled":false,"rental_uris":{"android":"levelo://app?vid=a7c2d750-e40d-441e-88ba-fc572d6f812a","ios":"levelo://app?vid=a7c2d750-e40d-441e-88ba-fc572d6f812a"},"vehicle_type_id":"4","last_reported":1729613478,"current_range_meters":6800,"station_id":"ce4bgip2rcd13ifvqbb0","pricing_plan_id":"cebpf4jnsgd1na2vs0mg"},{"bike_id":"fcfcf892-9ff6-4b72-abd2-89b2423b703d","system_id":"levelo_inurba_marseille","lat":43.231964,"lon":5.355527,"is_reserved":false,"is_disabled":false,"rental_uris":{"android":"levelo://app?vid=fcfcf892-9ff6-4b72-abd2-89b2423b703d","ios":"levelo://app?vid=fcfcf892-9ff6-4b72-abd2-89b2423b703d"},"vehicle_type_id":"4","last_reported":1729613478,"current_range_meters":8800,"station_id":"ce4bhu92rcd13ifvqi70","pricing_plan_id":"cebpf4jnsgd1na2vs0mg"},{"bike_id":"40f2b844-ce71-4a00-8687-c446219f67e3","system_id":"levelo_inurba_marseille","lat":43.27072,"lon":5.42284,"is_reserved":false,"is_disabled":false,"rental_uris":{"android":"levelo://app?vid=40f2b844-ce71-4a00-8687-c446219f67e3","ios":"levelo://app?vid=40f2b844-ce71-4a00-8687-c446219f67e3"},"vehicle_type_id":"4","last_reported":1729613478,"current_range_meters":30400,"station_id":"ce4bhk92rcd13ifvqgb0","pricing_plan_id":"cebpf4jnsgd1na2vs0mg"},{"bike_id":"9085aab9-2a08-4593-beb3-0ab184e98ca6","system_id":"levelo_inurba_marseille","lat":43.29605,"lon":5.38113,"is_reserved":false,"is_disabled":false,"rental_uris":{"android":"levelo://app?vid=9085aab9-2a08-4593-beb3-0ab184e98ca6","ios":"levelo://app?vid=9085aab9-2a08-4593-beb3-0ab184e98ca6"},"vehicle_type_id":"4","last_reported":1729613478,"current_range_meters":14800,"station_id":"ce4bgl12rcd13ifvqbo0","pricing_plan_id":"cebpf4jnsgd1na2vs0mg"},{"bike_id":"4f7ce492-e791-451e-b776-1db0bffc1f79","system_id":"levelo_inurba_marseille","lat":43.287016,"lon":5.379407,"is_reserved":false,"is_disabled":false,"rental_uris":{"android":"levelo://app?vid=4f7ce492-e791-451e-b776-1db0bffc1f79","ios":"levelo://app?vid=4f7ce492-e791-451e-b776-1db0bffc1f79"},"vehicle_type_id":"4","last_reported":1729613478,"current_range_meters":12400,"station_id":"ce4bh9p2rcd13ifvqec0","pricing_plan_id":"cebpf4jnsgd1na2vs0mg"},{"bike_id":"e68074ff-f5e2-424b-ac9b-aa2b95174368","system_id":"levelo_inurba_marseille","lat":43.28154,"lon":5.42652,"is_reserved":false,"is_disabled":false,"rental_uris":{"android":"levelo://app?vid=e68074ff-f5e2-424b-ac9b-aa2b95174368","ios":"levelo://app?vid=e68074ff-f5e2-424b-ac9b-aa2b95174368"},"vehicle_type_id":"4","last_reported":1729613478,"current_range_meters":30000,"station_id":"ce4bhnh2rcd13ifvqgug","pricing_plan_id":"cebpf4jnsgd1na2vs0mg"},{"bike_id":"815dd284-1bd2-4bb9-992a-b2116e2485bc","system_id":"levelo_inurba_marseille","lat":43.32815,"lon":5.36383,"is_reserved":false,"is_disabled":false,"rental_uris":{"android":"levelo://app?vid=815dd284-1bd2-4bb9-992a-b2116e2485bc","ios":"levelo://app?vid=815dd284-1bd2-4bb9-992a-b2116e2485bc"},"vehicle_type_id":"4","last_reported":1729613478,"current_range_meters":32800,"station_id":"","pricing_plan_id":"cebpf4jnsgd1na2vs0mg"},{"bike_id":"f4b4b39f-d4ef-4f00-ab75-8d2ce5524735","system_id":"levelo_inurba_marseille","lat":43.2958,"lon":5.36738,"is_reserved":false,"is_disabled":false,"rental_uris":{"android":"levelo://app?vid=f4b4b39f-d4ef-4f00-ab75-8d2ce5524735","ios":"levelo://app?vid=f4b4b39f-d4ef-4f00-ab75-8d2ce5524735"},"vehicle_type_id":"4","last_reported":1729613478,"current_range_meters":39200,"station_id":"ce4bgph2rcd13ifvqc2g","pricing_plan_id":"cebpf4jnsgd1na2vs0mg"},{"bike_id":"a6becff1-00d3-47fa-8898-3ba6d7221fbe","system_id":"levelo_inurba_marseille","lat":43.2319,"lon":5.35554,"is_reserved":false,"is_disabled":false,"rental_uris":{"android":"levelo://app?vid=a6becff1-00d3-47fa-8898-3ba6d7221fbe","ios":"levelo://app?vid=a6becff1-00d3-47fa-8898-3ba6d7221fbe"},"vehicle_type_id":"4","last_reported":1729613478,"current_range_meters":36000,"station_id":"ce4bhu92rcd13ifvqi70","pricing_plan_id":"cebpf4jnsgd1na2vs0mg"},{"bike_id":"be5d828b-df90-4ad2-b59d-ba3093879b03","system_id":"levelo_inurba_marseille","lat":43.27366,"lon":5.36256,"is_reserved":false,"is_disabled":false,"rental_uris":{"android":"levelo://app?vid=be5d828b-df90-4ad2-b59d-ba3093879b03","ios":"levelo://app?vid=be5d828b-df90-4ad2-b59d-ba3093879b03"},"vehicle_type_id":"4","last_reported":1729613478,"current_range_meters":36800,"station_id":"ce4bhbh2rcd13ifvqeo0","pricing_plan_id":"cebpf4jnsgd1na2vs0mg"},{"bike_id":"c98f899d-60bd-4371-89f8-ef37bb4ed5b2","system_id":"levelo_inurba_marseille","lat":43.293985,"lon":5.386307,"is_reserved":false,"is_disabled":false,"rental_uris":{"android":"levelo://app?vid=c98f899d-60bd-4371-89f8-ef37bb4ed5b2","ios":"levelo://app?vid=c98f899d-60bd-4371-89f8-ef37bb4ed5b2"},"vehicle_type_id":"4","last_reported":1729613478,"current_range_meters":6000,"station_id":"ce4bh2h2rcd13ifvqdh0","pricing_plan_id":"cebpf4jnsgd1na2vs0mg"},{"bike_id":"6f397a2c-c9b2-43c1-8b6c-85fd3b763542","system_id":"levelo_inurba_marseille","lat":43.30135,"lon":5.39859,"is_reserved":false,"is_disabled":false,"rental_uris":{"android":"levelo://app?vid=6f397a2c-c9b2-43c1-8b6c-85fd3b763542","ios":"levelo://app?vid=6f397a2c-c9b2-43c1-8b6c-85fd3b763542"},"vehicle_type_id":"4","last_reported":1729613478,"current_range_meters":24400,"station_id":"ce4bh0h2rcd13ifvqd40","pricing_plan_id":"cebpf4jnsgd1na2vs0mg"},{"bike_id":"b977e8b8-4586-4847-9198-0f9e2f19bc1c","system_id":"levelo_inurba_marseille","lat":43.290224,"lon":5.386451,"is_reserved":false,"is_disabled":false,"rental_uris":{"android":"levelo://app?vid=b977e8b8-4586-4847-9198-0f9e2f19bc1c","ios":"levelo://app?vid=b977e8b8-4586-4847-9198-0f9e2f19bc1c"},"vehicle_type_id":"4","last_reported":1729613478,"current_range_meters":12000,"station_id":"ce4bh4p2rcd13ifvqe0g","pricing_plan_id":"cebpf4jnsgd1na2vs0mg"},{"bike_id":"be215221-395a-4d0c-b3e2-8369c51a5b57","system_id":"levelo_inurba_marseille","lat":43.27371,"lon":5.36246,"is_reserved":false,"is_disabled":false,"rental_uris":{"android":"levelo://app?vid=be215221-395a-4d0c-b3e2-8369c51a5b57","ios":"levelo://app?vid=be215221-395a-4d0c-b3e2-8369c51a5b57"},"vehicle_type_id":"4","last_reported":1729613478,"current_range_meters":9600,"station_id":"ce4bhbh2rcd13ifvqeo0","pricing_plan_id":"cebpf4jnsgd1na2vs0mg"},{"bike_id":"6296a49f-25c0-4c52-8d0b-867de8b4c963","system_id":"levelo_inurba_marseille","lat":43.290502,"lon":5.375643,"is_reserved":false,"is_disabled":false,"rental_uris":{"android":"levelo://app?vid=6296a49f-25c0-4c52-8d0b-867de8b4c963","ios":"levelo://app?vid=6296a49f-25c0-4c52-8d0b-867de8b4c963"},"vehicle_type_id":"4","last_reported":1729613478,"current_range_meters":22000,"station_id":"ce4bh692rcd13ifvqe90","pricing_plan_id":"cebpf4jnsgd1na2vs0mg"},{"bike_id":"70f5c988-d736-45a0-9b49-4ca642435bb6","system_id":"levelo_inurba_marseille","lat":43.24165,"lon":5.36397,"is_reserved":false,"is_disabled":false,"rental_uris":{"android":"levelo://app?vid=70f5c988-d736-45a0-9b49-4ca642435bb6","ios":"levelo://app?vid=70f5c988-d736-45a0-9b49-4ca642435bb6"},"vehicle_type_id":"4","last_reported":1729613478,"current_range_meters":17600,"station_id":"cpo36qri1sfpv3e86is0","pricing_plan_id":"cebpf4jnsgd1na2vs0mg"},{"bike_id":"c11e11a1-5166-4de9-8910-68654e7e574a","system_id":"levelo_inurba_marseille","lat":43.29771,"lon":5.37111,"is_reserved":false,"is_disabled":false,"rental_uris":{"android":"levelo://app?vid=c11e11a1-5166-4de9-8910-68654e7e574a","ios":"levelo://app?vid=c11e11a1-5166-4de9-8910-68654e7e574a"},"vehicle_type_id":"4","last_reported":1729613478,"current_range_meters":10000,"station_id":"ce4bgop2rcd13ifvqc1g","pricing_plan_id":"cebpf4jnsgd1na2vs0mg"},{"bike_id":"a96ff7cd-ac97-4727-ac25-3bbd94944ae5","system_id":"levelo_inurba_marseille","lat":43.29421,"lon":5.38618,"is_reserved":false,"is_disabled":false,"rental_uris":{"android":"levelo://app?vid=a96ff7cd-ac97-4727-ac25-3bbd94944ae5","ios":"levelo://app?vid=a96ff7cd-ac97-4727-ac25-3bbd94944ae5"},"vehicle_type_id":"4","last_reported":1729613478,"current_range_meters":10000,"station_id":"ce4bh2h2rcd13ifvqdh0","pricing_plan_id":"cebpf4jnsgd1na2vs0mg"},{"bike_id":"e2a91c29-6c61-4ed7-9441-bda5078df3f8","system_id":"levelo_inurba_marseille","lat":43.27373,"lon":5.3626,"is_reserved":false,"is_disabled":false,"rental_uris":{"android":"levelo://app?vid=e2a91c29-6c61-4ed7-9441-bda5078df3f8","ios":"levelo://app?vid=e2a91c29-6c61-4ed7-9441-bda5078df3f8"},"vehicle_type_id":"4","last_reported":1729613478,"current_range_meters":38000,"station_id":"ce4bhbh2rcd13ifvqeo0","pricing_plan_id":"cebpf4jnsgd1na2vs0mg"},{"bike_id":"3310d0a0-e676-453c-8215-001913900817","system_id":"levelo_inurba_marseille","lat":43.29695,"lon":5.35976,"is_reserved":false,"is_disabled":false,"rental_uris":{"android":"levelo://app?vid=3310d0a0-e676-453c-8215-001913900817","ios":"levelo://app?vid=3310d0a0-e676-453c-8215-001913900817"},"vehicle_type_id":"4","last_reported":1729613478,"current_range_meters":34800,"station_id":"ce4bguh2rcd13ifvqckg","pricing_plan_id":"cebpf4jnsgd1na2vs0mg"},{"bike_id":"701ed8cf-0960-4bc1-8096-4022b8add36f","system_id":"levelo_inurba_marseille","lat":43.29869,"lon":5.39732,"is_reserved":false,"is_disabled":false,"rental_uris":{"android":"levelo://app?vid=701ed8cf-0960-4bc1-8096-4022b8add36f","ios":"levelo://app?vid=701ed8cf-0960-4bc1-8096-4022b8add36f"},"vehicle_type_id":"4","last_reported":1729613478,"current_range_meters":38000,"station_id":"ce4bh0h2rcd13ifvqd50","pricing_plan_id":"cebpf4jnsgd1na2vs0mg"},{"bike_id":"3b9a95f6-df3f-4e88-b584-027f69103542","system_id":"levelo_inurba_marseille","lat":43.2846,"lon":5.35894,"is_reserved":false,"is_disabled":false,"rental_uris":{"android":"levelo://app?vid=3b9a95f6-df3f-4e88-b584-027f69103542","ios":"levelo://app?vid=3b9a95f6-df3f-4e88-b584-027f69103542"},"vehicle_type_id":"4","last_reported":1729613478,"current_range_meters":28800,"station_id":"ce4bhah2rcd13ifvqei0","pricing_plan_id":"cebpf4jnsgd1na2vs0mg"},{"bike_id":"b194a025-c111-4cbd-8919-60473f0f4eba","system_id":"levelo_inurba_marseille","lat":43.27986,"lon":5.41655,"is_reserved":false,"is_disabled":false,"rental_uris":{"android":"levelo://app?vid=b194a025-c111-4cbd-8919-60473f0f4eba","ios":"levelo://app?vid=b194a025-c111-4cbd-8919-60473f0f4eba"},"vehicle_type_id":"4","last_reported":1729613478,"current_range_meters":3200,"station_id":"ce4bho12rcd13ifvqh1g","pricing_plan_id":"cebpf4jnsgd1na2vs0mg"},{"bike_id":"171a28e1-bfbd-4aac-8c2d-1b54f2b9cee9","system_id":"levelo_inurba_marseille","lat":43.23966,"lon":5.36645,"is_reserved":false,"is_disabled":false,"rental_uris":{"android":"levelo://app?vid=171a28e1-bfbd-4aac-8c2d-1b54f2b9cee9","ios":"levelo://app?vid=171a28e1-bfbd-4aac-8c2d-1b54f2b9cee9"},"vehicle_type_id":"4","last_reported":1729613478,"current_range_meters":2000,"station_id":"ce4bhi12rcd13ifvqfp0","pricing_plan_id":"cebpf4jnsgd1na2vs0mg"},{"bike_id":"15c98290-35f6-4ccf-964f-133ac144fa6a","system_id":"levelo_inurba_marseille","lat":43.290009,"lon":5.356204,"is_reserved":false,"is_disabled":false,"rental_uris":{"android":"levelo://app?vid=15c98290-35f6-4ccf-964f-133ac144fa6a","ios":"levelo://app?vid=15c98290-35f6-4ccf-964f-133ac144fa6a"},"vehicle_type_id":"4","last_reported":1729613478,"current_range_meters":17200,"station_id":"ce4bhb92rcd13ifvqen0","pricing_plan_id":"cebpf4jnsgd1na2vs0mg"},{"bike_id":"11fd30a6-e955-4e9e-8d55-dbb16dd6ffb9","system_id":"levelo_inurba_marseille","lat":43.28102,"lon":5.37845,"is_reserved":false,"is_disabled":false,"rental_uris":{"android":"levelo://app?vid=11fd30a6-e955-4e9e-8d55-dbb16dd6ffb9","ios":"levelo://app?vid=11fd30a6-e955-4e9e-8d55-dbb16dd6ffb9"},"vehicle_type_id":"4","last_reported":1729613478,"current_range_meters":24400,"station_id":"ce4bha12rcd13ifvqee0","pricing_plan_id":"cebpf4jnsgd1na2vs0mg"},{"bike_id":"a517765c-877e-44f8-a7be-e68fea171791","system_id":"levelo_inurba_marseille","lat":43.24394,"lon":5.37068,"is_reserved":false,"is_disabled":false,"rental_uris":{"android":"levelo://app?vid=a517765c-877e-44f8-a7be-e68fea171791","ios":"levelo://app?vid=a517765c-877e-44f8-a7be-e68fea171791"},"vehicle_type_id":"4","last_reported":1729613478,"current_range_meters":21600,"station_id":"ce4bhhh2rcd13ifvqfk0","pricing_plan_id":"cebpf4jnsgd1na2vs0mg"},{"bike_id":"0290ab5a-42d3-4476-9fc4-3caaf6899b72","system_id":"levelo_inurba_marseille","lat":43.29877,"lon":5.39738,"is_reserved":false,"is_disabled":false,"rental_uris":{"android":"levelo://app?vid=0290ab5a-42d3-4476-9fc4-3caaf6899b72","ios":"levelo://app?vid=0290ab5a-42d3-4476-9fc4-3caaf6899b72"},"vehicle_type_id":"4","last_reported":1729613478,"current_range_meters":30800,"station_id":"ce4bh0h2rcd13ifvqd50","pricing_plan_id":"cebpf4jnsgd1na2vs0mg"},{"bike_id":"f801a972-c648-424a-a7e1-9d8a4bf001b1","system_id":"levelo_inurba_marseille","lat":43.28042,"lon":5.3695,"is_reserved":false,"is_disabled":false,"rental_uris":{"android":"levelo://app?vid=f801a972-c648-424a-a7e1-9d8a4bf001b1","ios":"levelo://app?vid=f801a972-c648-424a-a7e1-9d8a4bf001b1"},"vehicle_type_id":"4","last_reported":1729613478,"current_range_meters":38400,"station_id":"ce4bha12rcd13ifvqef0","pricing_plan_id":"cebpf4jnsgd1na2vs0mg"},{"bike_id":"a309d894-a639-4796-8388-914d4bc5634f","system_id":"levelo_inurba_marseille","lat":43.27973,"lon":5.38725,"is_reserved":false,"is_disabled":false,"rental_uris":{"android":"levelo://app?vid=a309d894-a639-4796-8388-914d4bc5634f","ios":"levelo://app?vid=a309d894-a639-4796-8388-914d4bc5634f"},"vehicle_type_id":"4","last_reported":1729613478,"current_range_meters":34000,"station_id":"ce4bhg12rcd13ifvqf80","pricing_plan_id":"cebpf4jnsgd1na2vs0mg"},{"bike_id":"ae51ebe9-0706-4fe6-aa54-c166ab3659c0","system_id":"levelo_inurba_marseille","lat":43.24806,"lon":5.37458,"is_reserved":false,"is_disabled":false,"rental_uris":{"android":"levelo://app?vid=ae51ebe9-0706-4fe6-aa54-c166ab3659c0","ios":"levelo://app?vid=ae51ebe9-0706-4fe6-aa54-c166ab3659c0"},"vehicle_type_id":"4","last_reported":1729613478,"current_range_meters":5600,"station_id":"ce4bhgh2rcd13ifvqfb0","pricing_plan_id":"cebpf4jnsgd1na2vs0mg"},{"bike_id":"1b951543-316a-428a-96b7-1d058196e472","system_id":"levelo_inurba_marseille","lat":43.29584,"lon":5.36747,"is_reserved":false,"is_disabled":false,"rental_uris":{"android":"levelo://app?vid=1b951543-316a-428a-96b7-1d058196e472","ios":"levelo://app?vid=1b951543-316a-428a-96b7-1d058196e472"},"vehicle_type_id":"4","last_reported":1729613478,"current_range_meters":9200,"station_id":"ce4bgph2rcd13ifvqc2g","pricing_plan_id":"cebpf4jnsgd1na2vs0mg"},{"bike_id":"9bd47a4b-35f1-49f1-b190-3780c1bfcd54","system_id":"levelo_inurba_marseille","lat":43.22931,"lon":5.35383,"is_reserved":false,"is_disabled":false,"rental_uris":{"android":"levelo://app?vid=9bd47a4b-35f1-49f1-b190-3780c1bfcd54","ios":"levelo://app?vid=9bd47a4b-35f1-49f1-b190-3780c1bfcd54"},"vehicle_type_id":"4","last_reported":1729613478,"current_range_meters":8000,"station_id":"cpo3532slgdg3j2ikp40","pricing_plan_id":"cebpf4jnsgd1na2vs0mg"},{"bike_id":"da55979d-6147-4ab7-bafe-ad5aec6d1709","system_id":"levelo_inurba_marseille","lat":43.24804,"lon":5.3746,"is_reserved":false,"is_disabled":false,"rental_uris":{"android":"levelo://app?vid=da55979d-6147-4ab7-bafe-ad5aec6d1709","ios":"levelo://app?vid=da55979d-6147-4ab7-bafe-ad5aec6d1709"},"vehicle_type_id":"4","last_reported":1729613478,"current_range_meters":2000,"station_id":"ce4bhgh2rcd13ifvqfb0","pricing_plan_id":"cebpf4jnsgd1na2vs0mg"},{"bike_id":"88b70044-730e-4cb9-b220-6d2a3eb8471b","system_id":"levelo_inurba_marseille","lat":43.31753,"lon":5.39013,"is_reserved":false,"is_disabled":false,"rental_uris":{"android":"levelo://app?vid=88b70044-730e-4cb9-b220-6d2a3eb8471b","ios":"levelo://app?vid=88b70044-730e-4cb9-b220-6d2a3eb8471b"},"vehicle_type_id":"4","last_reported":1729613478,"current_range_meters":35200,"station_id":"ce4bhqp2rcd13ifvqhng","pricing_plan_id":"cebpf4jnsgd1na2vs0mg"},{"bike_id":"2b80f943-bf35-49c7-9584-ea1845fd1d05","system_id":"levelo_inurba_marseille","lat":43.23191,"lon":5.35548,"is_reserved":false,"is_disabled":false,"rental_uris":{"android":"levelo://app?vid=2b80f943-bf35-49c7-9584-ea1845fd1d05","ios":"levelo://app?vid=2b80f943-bf35-49c7-9584-ea1845fd1d05"},"vehicle_type_id":"4","last_reported":1729613478,"current_range_meters":9200,"station_id":"ce4bhu92rcd13ifvqi70","pricing_plan_id":"cebpf4jnsgd1na2vs0mg"},{"bike_id":"81e4488d-b9df-4764-b508-9fca2a6674ff","system_id":"levelo_inurba_marseille","lat":43.23196,"lon":5.35558,"is_reserved":false,"is_disabled":false,"rental_uris":{"android":"levelo://app?vid=81e4488d-b9df-4764-b508-9fca2a6674ff","ios":"levelo://app?vid=81e4488d-b9df-4764-b508-9fca2a6674ff"},"vehicle_type_id":"4","last_reported":1729613478,"current_range_meters":36800,"station_id":"ce4bhu92rcd13ifvqi70","pricing_plan_id":"cebpf4jnsgd1na2vs0mg"},{"bike_id":"2e1c3e16-5472-4a7e-9a0e-f4cff1c1ce32","system_id":"levelo_inurba_marseille","lat":43.295585,"lon":5.375175,"is_reserved":false,"is_disabled":false,"rental_uris":{"android":"levelo://app?vid=2e1c3e16-5472-4a7e-9a0e-f4cff1c1ce32","ios":"levelo://app?vid=2e1c3e16-5472-4a7e-9a0e-f4cff1c1ce32"},"vehicle_type_id":"4","last_reported":1729613478,"current_range_meters":6000,"station_id":"ce4bgh92rcd13ifvqb50","pricing_plan_id":"cebpf4jnsgd1na2vs0mg"},{"bike_id":"6ac3dc91-8f1d-4dfc-9705-0f05eed92b94","system_id":"levelo_inurba_marseille","lat":43.27974,"lon":5.3873,"is_reserved":false,"is_disabled":false,"rental_uris":{"android":"levelo://app?vid=6ac3dc91-8f1d-4dfc-9705-0f05eed92b94","ios":"levelo://app?vid=6ac3dc91-8f1d-4dfc-9705-0f05eed92b94"},"vehicle_type_id":"4","last_reported":1729613478,"current_range_meters":2800,"station_id":"ce4bhhh2rcd13ifvqfk0","pricing_plan_id":"cebpf4jnsgd1na2vs0mg"},{"bike_id":"f7d97066-12d9-40d3-9b46-b7448b6b6a88","system_id":"levelo_inurba_marseille","lat":43.30951,"lon":5.39026,"is_reserved":false,"is_disabled":false,"rental_uris":{"android":"levelo://app?vid=f7d97066-12d9-40d3-9b46-b7448b6b6a88","ios":"levelo://app?vid=f7d97066-12d9-40d3-9b46-b7448b6b6a88"},"vehicle_type_id":"4","last_reported":1729613478,"current_range_meters":20000,"station_id":"ce4bgup2rcd13ifvqco0","pricing_plan_id":"cebpf4jnsgd1na2vs0mg"},{"bike_id":"c4dbae3f-809d-4e0b-a6aa-c493e70a5578","system_id":"levelo_inurba_marseille","lat":43.32367,"lon":5.38887,"is_reserved":false,"is_disabled":false,"rental_uris":{"android":"levelo://app?vid=c4dbae3f-809d-4e0b-a6aa-c493e70a5578","ios":"levelo://app?vid=c4dbae3f-809d-4e0b-a6aa-c493e70a5578"},"vehicle_type_id":"4","last_reported":1729613478,"current_range_meters":38800,"station_id":"ce4bhqp2rcd13ifvqhog","pricing_plan_id":"cebpf4jnsgd1na2vs0mg"},{"bike_id":"0aef732b-02cf-413e-b3a3-98ac12512be4","system_id":"levelo_inurba_marseille","lat":43.29525,"lon":5.39045,"is_reserved":false,"is_disabled":false,"rental_uris":{"android":"levelo://app?vid=0aef732b-02cf-413e-b3a3-98ac12512be4","ios":"levelo://app?vid=0aef732b-02cf-413e-b3a3-98ac12512be4"},"vehicle_type_id":"4","last_reported":1729613478,"current_range_meters":40000,"station_id":"ce4bh3p2rcd13ifvqdp0","pricing_plan_id":"cebpf4jnsgd1na2vs0mg"},{"bike_id":"3f1541cf-a771-466b-9b2e-ed6c283223aa","system_id":"levelo_inurba_marseille","lat":43.27373,"lon":5.36257,"is_reserved":false,"is_disabled":false,"rental_uris":{"android":"levelo://app?vid=3f1541cf-a771-466b-9b2e-ed6c283223aa","ios":"levelo://app?vid=3f1541cf-a771-466b-9b2e-ed6c283223aa"},"vehicle_type_id":"4","last_reported":1729613478,"current_range_meters":10800,"station_id":"ce4bhbh2rcd13ifvqeo0","pricing_plan_id":"cebpf4jnsgd1na2vs0mg"},{"bike_id":"2868b15b-002a-4e85-bd8b-c4cb3b00ea2a","system_id":"levelo_inurba_marseille","lat":43.32109,"lon":5.36783,"is_reserved":false,"is_disabled":false,"rental_uris":{"android":"levelo://app?vid=2868b15b-002a-4e85-bd8b-c4cb3b00ea2a","ios":"levelo://app?vid=2868b15b-002a-4e85-bd8b-c4cb3b00ea2a"},"vehicle_type_id":"4","last_reported":1729613478,"current_range_meters":38000,"station_id":"ce4bhrh2rcd13ifvqhug","pricing_plan_id":"cebpf4jnsgd1na2vs0mg"},{"bike_id":"9471800f-296d-46c9-8a9c-b3158229af2b","system_id":"levelo_inurba_marseille","lat":43.275909,"lon":5.39673,"is_reserved":false,"is_disabled":false,"rental_uris":{"android":"levelo://app?vid=9471800f-296d-46c9-8a9c-b3158229af2b","ios":"levelo://app?vid=9471800f-296d-46c9-8a9c-b3158229af2b"},"vehicle_type_id":"4","last_reported":1729613478,"current_range_meters":9200,"station_id":"ce4bh112rcd13ifvqda0","pricing_plan_id":"cebpf4jnsgd1na2vs0mg"},{"bike_id":"29e438a7-a8b0-4729-bfde-61e57b80d3a6","system_id":"levelo_inurba_marseille","lat":43.27376,"lon":5.36261,"is_reserved":false,"is_disabled":false,"rental_uris":{"android":"levelo://app?vid=29e438a7-a8b0-4729-bfde-61e57b80d3a6","ios":"levelo://app?vid=29e438a7-a8b0-4729-bfde-61e57b80d3a6"},"vehicle_type_id":"4","last_reported":1729613478,"current_range_meters":10000,"station_id":"ce4bhbh2rcd13ifvqeo0","pricing_plan_id":"cebpf4jnsgd1na2vs0mg"},{"bike_id":"0d61744a-38c1-419e-bc10-b1f938cf738b","system_id":"levelo_inurba_marseille","lat":43.28102,"lon":5.37843,"is_reserved":false,"is_disabled":false,"rental_uris":{"android":"levelo://app?vid=0d61744a-38c1-419e-bc10-b1f938cf738b","ios":"levelo://app?vid=0d61744a-38c1-419e-bc10-b1f938cf738b"},"vehicle_type_id":"4","last_reported":1729613478,"current_range_meters":34000,"station_id":"ce4bha12rcd13ifvqee0","pricing_plan_id":"cebpf4jnsgd1na2vs0mg"},{"bike_id":"f6447165-756e-4e6c-9a5a-001ef4a87d04","system_id":"levelo_inurba_marseille","lat":43.27996,"lon":5.40018,"is_reserved":false,"is_disabled":false,"rental_uris":{"android":"levelo://app?vid=f6447165-756e-4e6c-9a5a-001ef4a87d04","ios":"levelo://app?vid=f6447165-756e-4e6c-9a5a-001ef4a87d04"},"vehicle_type_id":"4","last_reported":1729613478,"current_range_meters":12400,"station_id":"ce4bho92rcd13ifvqh4g","pricing_plan_id":"cebpf4jnsgd1na2vs0mg"},{"bike_id":"c464c0f3-16d6-4c03-93fb-e6a3adde4fee","system_id":"levelo_inurba_marseille","lat":43.314697,"lon":5.379509,"is_reserved":false,"is_disabled":false,"rental_uris":{"android":"levelo://app?vid=c464c0f3-16d6-4c03-93fb-e6a3adde4fee","ios":"levelo://app?vid=c464c0f3-16d6-4c03-93fb-e6a3adde4fee"},"vehicle_type_id":"4","last_reported":1729613478,"current_range_meters":27600,"station_id":"","pricing_plan_id":"cebpf4jnsgd1na2vs0mg"},{"bike_id":"e7ef9541-8438-4482-bdd7-08ca79afd7a9","system_id":"levelo_inurba_marseille","lat":43.2707,"lon":5.42281,"is_reserved":false,"is_disabled":false,"rental_uris":{"android":"levelo://app?vid=e7ef9541-8438-4482-bdd7-08ca79afd7a9","ios":"levelo://app?vid=e7ef9541-8438-4482-bdd7-08ca79afd7a9"},"vehicle_type_id":"4","last_reported":1729613478,"current_range_meters":6400,"station_id":"ce4bhk92rcd13ifvqgb0","pricing_plan_id":"cebpf4jnsgd1na2vs0mg"},{"bike_id":"4eeab727-4e8e-48ac-b801-3ac1a13d7ae4","system_id":"levelo_inurba_marseille","lat":43.29627,"lon":5.37725,"is_reserved":false,"is_disabled":false,"rental_uris":{"android":"levelo://app?vid=4eeab727-4e8e-48ac-b801-3ac1a13d7ae4","ios":"levelo://app?vid=4eeab727-4e8e-48ac-b801-3ac1a13d7ae4"},"vehicle_type_id":"4","last_reported":1729613478,"current_range_meters":24400,"station_id":"ce4bgi92rcd13ifvqb90","pricing_plan_id":"cebpf4jnsgd1na2vs0mg"},{"bike_id":"2fb2ba70-4833-4b79-895a-4ece57c0286a","system_id":"levelo_inurba_marseille","lat":43.33764,"lon":5.37447,"is_reserved":false,"is_disabled":false,"rental_uris":{"android":"levelo://app?vid=2fb2ba70-4833-4b79-895a-4ece57c0286a","ios":"levelo://app?vid=2fb2ba70-4833-4b79-895a-4ece57c0286a"},"vehicle_type_id":"4","last_reported":1729613478,"current_range_meters":38400,"station_id":"","pricing_plan_id":"cebpf4jnsgd1na2vs0mg"},{"bike_id":"0ef965fa-c838-419e-8da6-77538a1152ba","system_id":"levelo_inurba_marseille","lat":43.29521,"lon":5.39048,"is_reserved":false,"is_disabled":false,"rental_uris":{"android":"levelo://app?vid=0ef965fa-c838-419e-8da6-77538a1152ba","ios":"levelo://app?vid=0ef965fa-c838-419e-8da6-77538a1152ba"},"vehicle_type_id":"4","last_reported":1729613478,"current_range_meters":23200,"station_id":"ce4bh3p2rcd13ifvqdp0","pricing_plan_id":"cebpf4jnsgd1na2vs0mg"},{"bike_id":"af9eb92e-9f34-4c24-b43c-b61371be3c94","system_id":"levelo_inurba_marseille","lat":43.29257,"lon":5.4089,"is_reserved":false,"is_disabled":false,"rental_uris":{"android":"levelo://app?vid=af9eb92e-9f34-4c24-b43c-b61371be3c94","ios":"levelo://app?vid=af9eb92e-9f34-4c24-b43c-b61371be3c94"},"vehicle_type_id":"4","last_reported":1729613478,"current_range_meters":34800,"station_id":"ce4bh192rcd13ifvqdc0","pricing_plan_id":"cebpf4jnsgd1na2vs0mg"},{"bike_id":"04fb1540-10a6-427c-8d92-125f97236f5f","system_id":"levelo_inurba_marseille","lat":43.29711,"lon":5.3661,"is_reserved":false,"is_disabled":false,"rental_uris":{"android":"levelo://app?vid=04fb1540-10a6-427c-8d92-125f97236f5f","ios":"levelo://app?vid=04fb1540-10a6-427c-8d92-125f97236f5f"},"vehicle_type_id":"4","last_reported":1729613478,"current_range_meters":6000,"station_id":"ce4bgn12rcd13ifvqbt0","pricing_plan_id":"cebpf4jnsgd1na2vs0mg"},{"bike_id":"9594af62-a7fa-4cbd-b2bd-6c14ce75ee26","system_id":"levelo_inurba_marseille","lat":43.27371,"lon":5.3626,"is_reserved":false,"is_disabled":false,"rental_uris":{"android":"levelo://app?vid=9594af62-a7fa-4cbd-b2bd-6c14ce75ee26","ios":"levelo://app?vid=9594af62-a7fa-4cbd-b2bd-6c14ce75ee26"},"vehicle_type_id":"4","last_reported":1729613478,"current_range_meters":17200,"station_id":"ce4bhbh2rcd13ifvqeo0","pricing_plan_id":"cebpf4jnsgd1na2vs0mg"},{"bike_id":"21620cd3-c175-4ee8-b2ee-0bd784ad5846","system_id":"levelo_inurba_marseille","lat":43.27371,"lon":5.3626,"is_reserved":false,"is_disabled":false,"rental_uris":{"android":"levelo://app?vid=21620cd3-c175-4ee8-b2ee-0bd784ad5846","ios":"levelo://app?vid=21620cd3-c175-4ee8-b2ee-0bd784ad5846"},"vehicle_type_id":"4","last_reported":1729613478,"current_range_meters":39200,"station_id":"ce4bhbh2rcd13ifvqeo0","pricing_plan_id":"cebpf4jnsgd1na2vs0mg"},{"bike_id":"00644700-2712-4594-a21e-7803464d6107","system_id":"levelo_inurba_marseille","lat":43.28271,"lon":5.35066,"is_reserved":false,"is_disabled":false,"rental_uris":{"android":"levelo://app?vid=00644700-2712-4594-a21e-7803464d6107","ios":"levelo://app?vid=00644700-2712-4594-a21e-7803464d6107"},"vehicle_type_id":"4","last_reported":1729613478,"current_range_meters":7200,"station_id":"ce4bhbp2rcd13ifvqerg","pricing_plan_id":"cebpf4jnsgd1na2vs0mg"},{"bike_id":"8d848578-e28c-4214-a428-53bc08a435f8","system_id":"levelo_inurba_marseille","lat":43.27376,"lon":5.36257,"is_reserved":false,"is_disabled":false,"rental_uris":{"android":"levelo://app?vid=8d848578-e28c-4214-a428-53bc08a435f8","ios":"levelo://app?vid=8d848578-e28c-4214-a428-53bc08a435f8"},"vehicle_type_id":"4","last_reported":1729613478,"current_range_meters":30800,"station_id":"ce4bhbh2rcd13ifvqeo0","pricing_plan_id":"cebpf4jnsgd1na2vs0mg"},{"bike_id":"afec352a-98c5-44a2-b0da-15d6c78a893b","system_id":"levelo_inurba_marseille","lat":43.27941,"lon":5.41056,"is_reserved":false,"is_disabled":false,"rental_uris":{"android":"levelo://app?vid=afec352a-98c5-44a2-b0da-15d6c78a893b","ios":"levelo://app?vid=afec352a-98c5-44a2-b0da-15d6c78a893b"},"vehicle_type_id":"4","last_reported":1729613478,"current_range_meters":3200,"station_id":"ce4bhnp2rcd13ifvqh0g","pricing_plan_id":"cebpf4jnsgd1na2vs0mg"},{"bike_id":"f25fafb0-c7ea-40d3-a4b5-9e8615400e5e","system_id":"levelo_inurba_marseille","lat":43.28934,"lon":5.38406,"is_reserved":false,"is_disabled":false,"rental_uris":{"android":"levelo://app?vid=f25fafb0-c7ea-40d3-a4b5-9e8615400e5e","ios":"levelo://app?vid=f25fafb0-c7ea-40d3-a4b5-9e8615400e5e"},"vehicle_type_id":"4","last_reported":1729613478,"current_range_meters":20800,"station_id":"ce4bh612rcd13ifvqe6g","pricing_plan_id":"cebpf4jnsgd1na2vs0mg"},{"bike_id":"f39c4dc7-d5da-4137-9cc3-4fbc1014953f","system_id":"levelo_inurba_marseille","lat":43.33767,"lon":5.37472,"is_reserved":false,"is_disabled":false,"rental_uris":{"android":"levelo://app?vid=f39c4dc7-d5da-4137-9cc3-4fbc1014953f","ios":"levelo://app?vid=f39c4dc7-d5da-4137-9cc3-4fbc1014953f"},"vehicle_type_id":"4","last_reported":1729613478,"current_range_meters":32000,"station_id":"","pricing_plan_id":"cebpf4jnsgd1na2vs0mg"},{"bike_id":"932f5b97-668b-485c-a012-16c96c5a429b","system_id":"levelo_inurba_marseille","lat":43.24077,"lon":5.37765,"is_reserved":false,"is_disabled":false,"rental_uris":{"android":"levelo://app?vid=932f5b97-668b-485c-a012-16c96c5a429b","ios":"levelo://app?vid=932f5b97-668b-485c-a012-16c96c5a429b"},"vehicle_type_id":"4","last_reported":1729613478,"current_range_meters":8000,"station_id":"ce4bhnp2rcd13ifvqgvg","pricing_plan_id":"cebpf4jnsgd1na2vs0mg"},{"bike_id":"b1154c3e-2f10-4748-a3c7-6b1a30ca1a28","system_id":"levelo_inurba_marseille","lat":43.24389,"lon":5.37067,"is_reserved":false,"is_disabled":false,"rental_uris":{"android":"levelo://app?vid=b1154c3e-2f10-4748-a3c7-6b1a30ca1a28","ios":"levelo://app?vid=b1154c3e-2f10-4748-a3c7-6b1a30ca1a28"},"vehicle_type_id":"4","last_reported":1729613478,"current_range_meters":12800,"station_id":"ce4bhhh2rcd13ifvqfk0","pricing_plan_id":"cebpf4jnsgd1na2vs0mg"},{"bike_id":"175cd287-f166-4416-a201-9eead2fc53fd","system_id":"levelo_inurba_marseille","lat":43.28151,"lon":5.42642,"is_reserved":false,"is_disabled":false,"rental_uris":{"android":"levelo://app?vid=175cd287-f166-4416-a201-9eead2fc53fd","ios":"levelo://app?vid=175cd287-f166-4416-a201-9eead2fc53fd"},"vehicle_type_id":"4","last_reported":1729613478,"current_range_meters":20000,"station_id":"ce4bhnh2rcd13ifvqgug","pricing_plan_id":"cebpf4jnsgd1na2vs0mg"},{"bike_id":"a0f92651-18d5-49a6-8183-38409f243f4e","system_id":"levelo_inurba_marseille","lat":43.3172,"lon":5.42396,"is_reserved":false,"is_disabled":false,"rental_uris":{"android":"levelo://app?vid=a0f92651-18d5-49a6-8183-38409f243f4e","ios":"levelo://app?vid=a0f92651-18d5-49a6-8183-38409f243f4e"},"vehicle_type_id":"4","last_reported":1729613478,"current_range_meters":20800,"station_id":"ce4bhp92rcd13ifvqhbg","pricing_plan_id":"cebpf4jnsgd1na2vs0mg"},{"bike_id":"06f292aa-33d4-46e0-84ca-e3f54749130b","system_id":"levelo_inurba_marseille","lat":43.29868,"lon":5.39738,"is_reserved":false,"is_disabled":false,"rental_uris":{"android":"levelo://app?vid=06f292aa-33d4-46e0-84ca-e3f54749130b","ios":"levelo://app?vid=06f292aa-33d4-46e0-84ca-e3f54749130b"},"vehicle_type_id":"4","last_reported":1729613478,"current_range_meters":4000,"station_id":"ce4bh0h2rcd13ifvqd50","pricing_plan_id":"cebpf4jnsgd1na2vs0mg"},{"bike_id":"fac98b8b-b63c-4b15-bea9-db18aede442e","system_id":"levelo_inurba_marseille","lat":43.28455,"lon":5.35903,"is_reserved":false,"is_disabled":false,"rental_uris":{"android":"levelo://app?vid=fac98b8b-b63c-4b15-bea9-db18aede442e","ios":"levelo://app?vid=fac98b8b-b63c-4b15-bea9-db18aede442e"},"vehicle_type_id":"4","last_reported":1729613478,"current_range_meters":6800,"station_id":"ce4bhah2rcd13ifvqei0","pricing_plan_id":"cebpf4jnsgd1na2vs0mg"},{"bike_id":"95a7753d-5a71-44e7-abbb-6bc6510be0f9","system_id":"levelo_inurba_marseille","lat":43.32291,"lon":5.38273,"is_reserved":false,"is_disabled":false,"rental_uris":{"android":"levelo://app?vid=95a7753d-5a71-44e7-abbb-6bc6510be0f9","ios":"levelo://app?vid=95a7753d-5a71-44e7-abbb-6bc6510be0f9"},"vehicle_type_id":"4","last_reported":1729613478,"current_range_meters":23200,"station_id":"ce4bhr12rcd13ifvqhqg","pricing_plan_id":"cebpf4jnsgd1na2vs0mg"},{"bike_id":"bac65099-8637-49e7-8e71-5eb86b794b01","system_id":"levelo_inurba_marseille","lat":43.3378,"lon":5.37426,"is_reserved":false,"is_disabled":false,"rental_uris":{"android":"levelo://app?vid=bac65099-8637-49e7-8e71-5eb86b794b01","ios":"levelo://app?vid=bac65099-8637-49e7-8e71-5eb86b794b01"},"vehicle_type_id":"4","last_reported":1729613478,"current_range_meters":31200,"station_id":"","pricing_plan_id":"cebpf4jnsgd1na2vs0mg"},{"bike_id":"9cfd1c00-f5c9-493c-afe2-a92a1e24cd5c","system_id":"levelo_inurba_marseille","lat":43.28345,"lon":5.38102,"is_reserved":false,"is_disabled":false,"rental_uris":{"android":"levelo://app?vid=9cfd1c00-f5c9-493c-afe2-a92a1e24cd5c","ios":"levelo://app?vid=9cfd1c00-f5c9-493c-afe2-a92a1e24cd5c"},"vehicle_type_id":"4","last_reported":1729613478,"current_range_meters":4800,"station_id":"ce4bh412rcd13ifvqdr0","pricing_plan_id":"cebpf4jnsgd1na2vs0mg"},{"bike_id":"b26f39a5-a2fe-48e4-9d3f-9ef529c50c3b","system_id":"levelo_inurba_marseille","lat":43.284902,"lon":5.383851,"is_reserved":false,"is_disabled":false,"rental_uris":{"android":"levelo://app?vid=b26f39a5-a2fe-48e4-9d3f-9ef529c50c3b","ios":"levelo://app?vid=b26f39a5-a2fe-48e4-9d3f-9ef529c50c3b"},"vehicle_type_id":"4","last_reported":1729613478,"current_range_meters":2800,"station_id":"ce4bh512rcd13ifvqe3g","pricing_plan_id":"cebpf4jnsgd1na2vs0mg"},{"bike_id":"e4265445-3028-4b6a-a7ea-b212c9b11f24","system_id":"levelo_inurba_marseille","lat":43.29028,"lon":5.38653,"is_reserved":false,"is_disabled":false,"rental_uris":{"android":"levelo://app?vid=e4265445-3028-4b6a-a7ea-b212c9b11f24","ios":"levelo://app?vid=e4265445-3028-4b6a-a7ea-b212c9b11f24"},"vehicle_type_id":"4","last_reported":1729613478,"current_range_meters":20400,"station_id":"ce4bh4p2rcd13ifvqe0g","pricing_plan_id":"cebpf4jnsgd1na2vs0mg"},{"bike_id":"ec7a81d0-8caa-4163-95a0-bd3782e1dc94","system_id":"levelo_inurba_marseille","lat":43.27619,"lon":5.36114,"is_reserved":false,"is_disabled":false,"rental_uris":{"android":"levelo://app?vid=ec7a81d0-8caa-4163-95a0-bd3782e1dc94","ios":"levelo://app?vid=ec7a81d0-8caa-4163-95a0-bd3782e1dc94"},"vehicle_type_id":"4","last_reported":1729613478,"current_range_meters":28000,"station_id":"ce4bgj92rcd13ifvqbe0","pricing_plan_id":"cebpf4jnsgd1na2vs0mg"},{"bike_id":"0d9ef5a3-2381-4d60-bff4-852d2062eb52","system_id":"levelo_inurba_marseille","lat":43.28418,"lon":5.34979,"is_reserved":false,"is_disabled":false,"rental_uris":{"android":"levelo://app?vid=0d9ef5a3-2381-4d60-bff4-852d2062eb52","ios":"levelo://app?vid=0d9ef5a3-2381-4d60-bff4-852d2062eb52"},"vehicle_type_id":"4","last_reported":1729613478,"current_range_meters":4800,"station_id":"ce4bhbh2rcd13ifvqepg","pricing_plan_id":"cebpf4jnsgd1na2vs0mg"},{"bike_id":"c76af8c3-f685-4d18-b51d-576f84ea933d","system_id":"levelo_inurba_marseille","lat":43.23961,"lon":5.36636,"is_reserved":false,"is_disabled":false,"rental_uris":{"android":"levelo://app?vid=c76af8c3-f685-4d18-b51d-576f84ea933d","ios":"levelo://app?vid=c76af8c3-f685-4d18-b51d-576f84ea933d"},"vehicle_type_id":"4","last_reported":1729613478,"current_range_meters":8800,"station_id":"ce4bhi12rcd13ifvqfp0","pricing_plan_id":"cebpf4jnsgd1na2vs0mg"},{"bike_id":"5ae959c6-9d7a-4198-8ff2-96063d51292e","system_id":"levelo_inurba_marseille","lat":43.28478,"lon":5.38423,"is_reserved":false,"is_disabled":false,"rental_uris":{"android":"levelo://app?vid=5ae959c6-9d7a-4198-8ff2-96063d51292e","ios":"levelo://app?vid=5ae959c6-9d7a-4198-8ff2-96063d51292e"},"vehicle_type_id":"4","last_reported":1729613478,"current_range_meters":30400,"station_id":"ce4bh512rcd13ifvqe3g","pricing_plan_id":"cebpf4jnsgd1na2vs0mg"},{"bike_id":"ec60e3e4-7997-4982-b048-d6fd43d6a4d6","system_id":"levelo_inurba_marseille","lat":43.27072,"lon":5.42282,"is_reserved":false,"is_disabled":false,"rental_uris":{"android":"levelo://app?vid=ec60e3e4-7997-4982-b048-d6fd43d6a4d6","ios":"levelo://app?vid=ec60e3e4-7997-4982-b048-d6fd43d6a4d6"},"vehicle_type_id":"4","last_reported":1729613478,"current_range_meters":27600,"station_id":"ce4bhk92rcd13ifvqgb0","pricing_plan_id":"cebpf4jnsgd1na2vs0mg"},{"bike_id":"3eef49dc-741a-4db1-84b8-d78e1c3977fe","system_id":"levelo_inurba_marseille","lat":43.28697,"lon":5.37381,"is_reserved":false,"is_disabled":false,"rental_uris":{"android":"levelo://app?vid=3eef49dc-741a-4db1-84b8-d78e1c3977fe","ios":"levelo://app?vid=3eef49dc-741a-4db1-84b8-d78e1c3977fe"},"vehicle_type_id":"4","last_reported":1729613478,"current_range_meters":4400,"station_id":"ce4bh3p2rcd13ifvqdq0","pricing_plan_id":"cebpf4jnsgd1na2vs0mg"},{"bike_id":"28e87b06-a428-459f-9f0f-c42947e68dda","system_id":"levelo_inurba_marseille","lat":43.29256,"lon":5.40915,"is_reserved":false,"is_disabled":false,"rental_uris":{"android":"levelo://app?vid=28e87b06-a428-459f-9f0f-c42947e68dda","ios":"levelo://app?vid=28e87b06-a428-459f-9f0f-c42947e68dda"},"vehicle_type_id":"4","last_reported":1729613478,"current_range_meters":19200,"station_id":"ce4bh192rcd13ifvqdc0","pricing_plan_id":"cebpf4jnsgd1na2vs0mg"},{"bike_id":"27e68609-abb6-4364-94c1-4883b853c927","system_id":"levelo_inurba_marseille","lat":43.28421,"lon":5.37505,"is_reserved":false,"is_disabled":false,"rental_uris":{"android":"levelo://app?vid=27e68609-abb6-4364-94c1-4883b853c927","ios":"levelo://app?vid=27e68609-abb6-4364-94c1-4883b853c927"},"vehicle_type_id":"4","last_reported":1729613478,"current_range_meters":20800,"station_id":"ce4bh412rcd13ifvqds0","pricing_plan_id":"cebpf4jnsgd1na2vs0mg"},{"bike_id":"220a0ba7-997c-41a9-a7dd-65c7a439f595","system_id":"levelo_inurba_marseille","lat":43.26553,"lon":5.37291,"is_reserved":false,"is_disabled":false,"rental_uris":{"android":"levelo://app?vid=220a0ba7-997c-41a9-a7dd-65c7a439f595","ios":"levelo://app?vid=220a0ba7-997c-41a9-a7dd-65c7a439f595"},"vehicle_type_id":"4","last_reported":1729613478,"current_range_meters":33600,"station_id":"ce4bhg12rcd13ifvqf70","pricing_plan_id":"cebpf4jnsgd1na2vs0mg"},{"bike_id":"cb575942-399b-4529-a0fe-b1c9a850d37f","system_id":"levelo_inurba_marseille","lat":43.27376,"lon":5.36265,"is_reserved":false,"is_disabled":false,"rental_uris":{"android":"levelo://app?vid=cb575942-399b-4529-a0fe-b1c9a850d37f","ios":"levelo://app?vid=cb575942-399b-4529-a0fe-b1c9a850d37f"},"vehicle_type_id":"4","last_reported":1729613478,"current_range_meters":19600,"station_id":"ce4bhbh2rcd13ifvqeo0","pricing_plan_id":"cebpf4jnsgd1na2vs0mg"},{"bike_id":"e0d17978-cbf8-4099-bb3d-77e45333bb5e","system_id":"levelo_inurba_marseille","lat":43.28724,"lon":5.36113,"is_reserved":false,"is_disabled":false,"rental_uris":{"android":"levelo://app?vid=e0d17978-cbf8-4099-bb3d-77e45333bb5e","ios":"levelo://app?vid=e0d17978-cbf8-4099-bb3d-77e45333bb5e"},"vehicle_type_id":"4","last_reported":1729613478,"current_range_meters":15200,"station_id":"cki0cbj6b192h4jlfktg","pricing_plan_id":"cebpf4jnsgd1na2vs0mg"},{"bike_id":"7ac1a788-3dd8-4ec5-978a-5de36181bffe","system_id":"levelo_inurba_marseille","lat":43.2781,"lon":5.40714,"is_reserved":false,"is_disabled":false,"rental_uris":{"android":"levelo://app?vid=7ac1a788-3dd8-4ec5-978a-5de36181bffe","ios":"levelo://app?vid=7ac1a788-3dd8-4ec5-978a-5de36181bffe"},"vehicle_type_id":"4","last_reported":1729613478,"current_range_meters":3600,"station_id":"ce4bhnh2rcd13ifvqgtg","pricing_plan_id":"cebpf4jnsgd1na2vs0mg"},{"bike_id":"f78be541-ab8c-46c2-9781-e1e7fb635bc0","system_id":"levelo_inurba_marseille","lat":43.30882,"lon":5.39659,"is_reserved":false,"is_disabled":false,"rental_uris":{"android":"levelo://app?vid=f78be541-ab8c-46c2-9781-e1e7fb635bc0","ios":"levelo://app?vid=f78be541-ab8c-46c2-9781-e1e7fb635bc0"},"vehicle_type_id":"4","last_reported":1729613478,"current_range_meters":13600,"station_id":"ce4bh012rcd13ifvqcv0","pricing_plan_id":"cebpf4jnsgd1na2vs0mg"},{"bike_id":"255fe183-3326-4318-954f-8399580bab7b","system_id":"levelo_inurba_marseille","lat":43.3079,"lon":5.38152,"is_reserved":false,"is_disabled":false,"rental_uris":{"android":"levelo://app?vid=255fe183-3326-4318-954f-8399580bab7b","ios":"levelo://app?vid=255fe183-3326-4318-954f-8399580bab7b"},"vehicle_type_id":"4","last_reported":1729613478,"current_range_meters":9600,"station_id":"ce4bgt12rcd13ifvqce0","pricing_plan_id":"cebpf4jnsgd1na2vs0mg"},{"bike_id":"c07bf4dc-64d2-44b1-b122-2112efdeb90f","system_id":"levelo_inurba_marseille","lat":43.28412,"lon":5.35,"is_reserved":false,"is_disabled":false,"rental_uris":{"android":"levelo://app?vid=c07bf4dc-64d2-44b1-b122-2112efdeb90f","ios":"levelo://app?vid=c07bf4dc-64d2-44b1-b122-2112efdeb90f"},"vehicle_type_id":"4","last_reported":1729613478,"current_range_meters":9200,"station_id":"ce4bhbh2rcd13ifvqepg","pricing_plan_id":"cebpf4jnsgd1na2vs0mg"},{"bike_id":"8dad45a1-478f-4506-8d39-cc744be4aa04","system_id":"levelo_inurba_marseille","lat":43.2956,"lon":5.39977,"is_reserved":false,"is_disabled":false,"rental_uris":{"android":"levelo://app?vid=8dad45a1-478f-4506-8d39-cc744be4aa04","ios":"levelo://app?vid=8dad45a1-478f-4506-8d39-cc744be4aa04"},"vehicle_type_id":"4","last_reported":1729613478,"current_range_meters":22400,"station_id":"ce4bh312rcd13ifvqdj0","pricing_plan_id":"cebpf4jnsgd1na2vs0mg"},{"bike_id":"f664508d-c703-410b-8571-546ad2f855e9","system_id":"levelo_inurba_marseille","lat":43.22932,"lon":5.35376,"is_reserved":false,"is_disabled":false,"rental_uris":{"android":"levelo://app?vid=f664508d-c703-410b-8571-546ad2f855e9","ios":"levelo://app?vid=f664508d-c703-410b-8571-546ad2f855e9"},"vehicle_type_id":"4","last_reported":1729613478,"current_range_meters":34000,"station_id":"cpo3532slgdg3j2ikp40","pricing_plan_id":"cebpf4jnsgd1na2vs0mg"},{"bike_id":"88dda541-3e10-4516-ad30-dd57775ce25c","system_id":"levelo_inurba_marseille","lat":43.286164,"lon":5.351059,"is_reserved":false,"is_disabled":false,"rental_uris":{"android":"levelo://app?vid=88dda541-3e10-4516-ad30-dd57775ce25c","ios":"levelo://app?vid=88dda541-3e10-4516-ad30-dd57775ce25c"},"vehicle_type_id":"4","last_reported":1729613478,"current_range_meters":4400,"station_id":"ce4bhap2rcd13ifvqek0","pricing_plan_id":"cebpf4jnsgd1na2vs0mg"},{"bike_id":"6f80be26-c997-4d51-8e5a-a92ecabc4b0b","system_id":"levelo_inurba_marseille","lat":43.29571,"lon":5.39983,"is_reserved":false,"is_disabled":false,"rental_uris":{"android":"levelo://app?vid=6f80be26-c997-4d51-8e5a-a92ecabc4b0b","ios":"levelo://app?vid=6f80be26-c997-4d51-8e5a-a92ecabc4b0b"},"vehicle_type_id":"4","last_reported":1729613478,"current_range_meters":9600,"station_id":"ce4bh312rcd13ifvqdj0","pricing_plan_id":"cebpf4jnsgd1na2vs0mg"},{"bike_id":"00f70f12-4549-4478-8fe4-7e7bb59178ef","system_id":"levelo_inurba_marseille","lat":43.26029,"lon":5.37553,"is_reserved":false,"is_disabled":false,"rental_uris":{"android":"levelo://app?vid=00f70f12-4549-4478-8fe4-7e7bb59178ef","ios":"levelo://app?vid=00f70f12-4549-4478-8fe4-7e7bb59178ef"},"vehicle_type_id":"4","last_reported":1729613478,"current_range_meters":12800,"station_id":"ce4bhgh2rcd13ifvqfa0","pricing_plan_id":"cebpf4jnsgd1na2vs0mg"},{"bike_id":"af606696-d82f-4c41-a138-0adcb7b86a54","system_id":"levelo_inurba_marseille","lat":43.298693,"lon":5.38096,"is_reserved":false,"is_disabled":false,"rental_uris":{"android":"levelo://app?vid=af606696-d82f-4c41-a138-0adcb7b86a54","ios":"levelo://app?vid=af606696-d82f-4c41-a138-0adcb7b86a54"},"vehicle_type_id":"4","last_reported":1729613478,"current_range_meters":28400,"station_id":"ce4bgip2rcd13ifvqbb0","pricing_plan_id":"cebpf4jnsgd1na2vs0mg"},{"bike_id":"ea03fa26-316e-4a33-ad45-2b3eab580c79","system_id":"levelo_inurba_marseille","lat":43.2957,"lon":5.39984,"is_reserved":false,"is_disabled":false,"rental_uris":{"android":"levelo://app?vid=ea03fa26-316e-4a33-ad45-2b3eab580c79","ios":"levelo://app?vid=ea03fa26-316e-4a33-ad45-2b3eab580c79"},"vehicle_type_id":"4","last_reported":1729613478,"current_range_meters":5600,"station_id":"ce4bh312rcd13ifvqdj0","pricing_plan_id":"cebpf4jnsgd1na2vs0mg"},{"bike_id":"69107799-fc7c-40b5-bc2f-81cb169431dc","system_id":"levelo_inurba_marseille","lat":43.29706,"lon":5.36603,"is_reserved":false,"is_disabled":false,"rental_uris":{"android":"levelo://app?vid=69107799-fc7c-40b5-bc2f-81cb169431dc","ios":"levelo://app?vid=69107799-fc7c-40b5-bc2f-81cb169431dc"},"vehicle_type_id":"4","last_reported":1729613478,"current_range_meters":22800,"station_id":"ce4bgn12rcd13ifvqbt0","pricing_plan_id":"cebpf4jnsgd1na2vs0mg"},{"bike_id":"57b9f3cd-1e5c-4fc5-8bc0-3fe139a7ee63","system_id":"levelo_inurba_marseille","lat":43.29439,"lon":5.39756,"is_reserved":false,"is_disabled":false,"rental_uris":{"android":"levelo://app?vid=57b9f3cd-1e5c-4fc5-8bc0-3fe139a7ee63","ios":"levelo://app?vid=57b9f3cd-1e5c-4fc5-8bc0-3fe139a7ee63"},"vehicle_type_id":"4","last_reported":1729613478,"current_range_meters":3600,"station_id":"ce4bh3h2rcd13ifvqdo0","pricing_plan_id":"cebpf4jnsgd1na2vs0mg"},{"bike_id":"ba74c612-86cf-4740-8ef2-3b8774039e8b","system_id":"levelo_inurba_marseille","lat":43.22932,"lon":5.35381,"is_reserved":false,"is_disabled":false,"rental_uris":{"android":"levelo://app?vid=ba74c612-86cf-4740-8ef2-3b8774039e8b","ios":"levelo://app?vid=ba74c612-86cf-4740-8ef2-3b8774039e8b"},"vehicle_type_id":"4","last_reported":1729613478,"current_range_meters":20000,"station_id":"cpo3532slgdg3j2ikp40","pricing_plan_id":"cebpf4jnsgd1na2vs0mg"},{"bike_id":"dd482170-0c9e-4baa-84d3-9402d2c1ed70","system_id":"levelo_inurba_marseille","lat":43.32113,"lon":5.36776,"is_reserved":false,"is_disabled":false,"rental_uris":{"android":"levelo://app?vid=dd482170-0c9e-4baa-84d3-9402d2c1ed70","ios":"levelo://app?vid=dd482170-0c9e-4baa-84d3-9402d2c1ed70"},"vehicle_type_id":"4","last_reported":1729613478,"current_range_meters":38800,"station_id":"ce4bhrh2rcd13ifvqhug","pricing_plan_id":"cebpf4jnsgd1na2vs0mg"},{"bike_id":"3a375aae-c112-485f-95b1-2d8afc2bd3bb","system_id":"levelo_inurba_marseille","lat":43.28156,"lon":5.42644,"is_reserved":false,"is_disabled":false,"rental_uris":{"android":"levelo://app?vid=3a375aae-c112-485f-95b1-2d8afc2bd3bb","ios":"levelo://app?vid=3a375aae-c112-485f-95b1-2d8afc2bd3bb"},"vehicle_type_id":"4","last_reported":1729613478,"current_range_meters":24000,"station_id":"ce4bhnh2rcd13ifvqgug","pricing_plan_id":"cebpf4jnsgd1na2vs0mg"},{"bike_id":"07789225-8b1d-46fb-b546-a59e196fd0b3","system_id":"levelo_inurba_marseille","lat":43.29416,"lon":5.38632,"is_reserved":false,"is_disabled":false,"rental_uris":{"android":"levelo://app?vid=07789225-8b1d-46fb-b546-a59e196fd0b3","ios":"levelo://app?vid=07789225-8b1d-46fb-b546-a59e196fd0b3"},"vehicle_type_id":"4","last_reported":1729613478,"current_range_meters":22800,"station_id":"ce4bh2h2rcd13ifvqdh0","pricing_plan_id":"cebpf4jnsgd1na2vs0mg"},{"bike_id":"27aabeac-b9fd-4f64-abfd-c4c0a08a217e","system_id":"levelo_inurba_marseille","lat":43.2942,"lon":5.38633,"is_reserved":false,"is_disabled":false,"rental_uris":{"android":"levelo://app?vid=27aabeac-b9fd-4f64-abfd-c4c0a08a217e","ios":"levelo://app?vid=27aabeac-b9fd-4f64-abfd-c4c0a08a217e"},"vehicle_type_id":"4","last_reported":1729613478,"current_range_meters":12000,"station_id":"ce4bh2h2rcd13ifvqdh0","pricing_plan_id":"cebpf4jnsgd1na2vs0mg"},{"bike_id":"b5bb4d9c-2234-45e1-b0e1-a7c6fb90fc0a","system_id":"levelo_inurba_marseille","lat":43.22931,"lon":5.35373,"is_reserved":false,"is_disabled":false,"rental_uris":{"android":"levelo://app?vid=b5bb4d9c-2234-45e1-b0e1-a7c6fb90fc0a","ios":"levelo://app?vid=b5bb4d9c-2234-45e1-b0e1-a7c6fb90fc0a"},"vehicle_type_id":"4","last_reported":1729613478,"current_range_meters":30800,"station_id":"cpo3532slgdg3j2ikp40","pricing_plan_id":"cebpf4jnsgd1na2vs0mg"},{"bike_id":"ecf3068d-82f8-4c8f-927d-7cee7d5631af","system_id":"levelo_inurba_marseille","lat":43.29579,"lon":5.36753,"is_reserved":false,"is_disabled":false,"rental_uris":{"android":"levelo://app?vid=ecf3068d-82f8-4c8f-927d-7cee7d5631af","ios":"levelo://app?vid=ecf3068d-82f8-4c8f-927d-7cee7d5631af"},"vehicle_type_id":"4","last_reported":1729613478,"current_range_meters":37600,"station_id":"ce4bgph2rcd13ifvqc2g","pricing_plan_id":"cebpf4jnsgd1na2vs0mg"},{"bike_id":"5f26f990-5b2a-4a89-8d3d-49b3f32566fd","system_id":"levelo_inurba_marseille","lat":43.27381,"lon":5.36275,"is_reserved":false,"is_disabled":false,"rental_uris":{"android":"levelo://app?vid=5f26f990-5b2a-4a89-8d3d-49b3f32566fd","ios":"levelo://app?vid=5f26f990-5b2a-4a89-8d3d-49b3f32566fd"},"vehicle_type_id":"4","last_reported":1729613478,"current_range_meters":6800,"station_id":"ce4bhbh2rcd13ifvqeo0","pricing_plan_id":"cebpf4jnsgd1na2vs0mg"},{"bike_id":"7fe0d90e-c8ea-42a4-ab52-fb3a5556ffa5","system_id":"levelo_inurba_marseille","lat":43.28419,"lon":5.34984,"is_reserved":false,"is_disabled":false,"rental_uris":{"android":"levelo://app?vid=7fe0d90e-c8ea-42a4-ab52-fb3a5556ffa5","ios":"levelo://app?vid=7fe0d90e-c8ea-42a4-ab52-fb3a5556ffa5"},"vehicle_type_id":"4","last_reported":1729613478,"current_range_meters":8000,"station_id":"ce4bhbh2rcd13ifvqepg","pricing_plan_id":"cebpf4jnsgd1na2vs0mg"},{"bike_id":"97e75128-7db1-4034-a5c5-c1d111fc921e","system_id":"levelo_inurba_marseille","lat":43.27902,"lon":5.38012,"is_reserved":false,"is_disabled":false,"rental_uris":{"android":"levelo://app?vid=97e75128-7db1-4034-a5c5-c1d111fc921e","ios":"levelo://app?vid=97e75128-7db1-4034-a5c5-c1d111fc921e"},"vehicle_type_id":"4","last_reported":1729613478,"current_range_meters":18000,"station_id":"ce4bhf92rcd13ifvqf50","pricing_plan_id":"cebpf4jnsgd1na2vs0mg"},{"bike_id":"ff935539-6b7f-4917-ab5e-f18369d4b7d5","system_id":"levelo_inurba_marseille","lat":43.27808,"lon":5.40713,"is_reserved":false,"is_disabled":false,"rental_uris":{"android":"levelo://app?vid=ff935539-6b7f-4917-ab5e-f18369d4b7d5","ios":"levelo://app?vid=ff935539-6b7f-4917-ab5e-f18369d4b7d5"},"vehicle_type_id":"4","last_reported":1729613478,"current_range_meters":4000,"station_id":"ce4bhnh2rcd13ifvqgtg","pricing_plan_id":"cebpf4jnsgd1na2vs0mg"},{"bike_id":"d94a86ee-46a7-41b8-88cd-2a6dd4e577b7","system_id":"levelo_inurba_marseille","lat":43.29415,"lon":5.38626,"is_reserved":false,"is_disabled":false,"rental_uris":{"android":"levelo://app?vid=d94a86ee-46a7-41b8-88cd-2a6dd4e577b7","ios":"levelo://app?vid=d94a86ee-46a7-41b8-88cd-2a6dd4e577b7"},"vehicle_type_id":"4","last_reported":1729613478,"current_range_meters":3200,"station_id":"ce4bh2h2rcd13ifvqdh0","pricing_plan_id":"cebpf4jnsgd1na2vs0mg"},{"bike_id":"5b12a7a5-18a0-48ba-9aff-54691a4cbfe4","system_id":"levelo_inurba_marseille","lat":43.29367,"lon":5.37863,"is_reserved":false,"is_disabled":false,"rental_uris":{"android":"levelo://app?vid=5b12a7a5-18a0-48ba-9aff-54691a4cbfe4","ios":"levelo://app?vid=5b12a7a5-18a0-48ba-9aff-54691a4cbfe4"},"vehicle_type_id":"4","last_reported":1729613478,"current_range_meters":9200,"station_id":"ce4bgjh2rcd13ifvqbf0","pricing_plan_id":"cebpf4jnsgd1na2vs0mg"},{"bike_id":"95a94ba6-1002-456a-8723-dad35ff7ff7f","system_id":"levelo_inurba_marseille","lat":43.279749,"lon":5.387485,"is_reserved":false,"is_disabled":false,"rental_uris":{"android":"levelo://app?vid=95a94ba6-1002-456a-8723-dad35ff7ff7f","ios":"levelo://app?vid=95a94ba6-1002-456a-8723-dad35ff7ff7f"},"vehicle_type_id":"4","last_reported":1729613478,"current_range_meters":2800,"station_id":"ce4bhg12rcd13ifvqf80","pricing_plan_id":"cebpf4jnsgd1na2vs0mg"},{"bike_id":"6149b457-e49e-42d3-a552-4ca7d4c3c170","system_id":"levelo_inurba_marseille","lat":43.27997,"lon":5.40013,"is_reserved":false,"is_disabled":false,"rental_uris":{"android":"levelo://app?vid=6149b457-e49e-42d3-a552-4ca7d4c3c170","ios":"levelo://app?vid=6149b457-e49e-42d3-a552-4ca7d4c3c170"},"vehicle_type_id":"4","last_reported":1729613478,"current_range_meters":17600,"station_id":"ce4bho92rcd13ifvqh4g","pricing_plan_id":"cebpf4jnsgd1na2vs0mg"},{"bike_id":"8f921518-8f48-41d4-ba09-ed1df2d94c72","system_id":"levelo_inurba_marseille","lat":43.31797,"lon":5.37822,"is_reserved":false,"is_disabled":false,"rental_uris":{"android":"levelo://app?vid=8f921518-8f48-41d4-ba09-ed1df2d94c72","ios":"levelo://app?vid=8f921518-8f48-41d4-ba09-ed1df2d94c72"},"vehicle_type_id":"4","last_reported":1729613478,"current_range_meters":12400,"station_id":"","pricing_plan_id":"cebpf4jnsgd1na2vs0mg"},{"bike_id":"90d60598-adff-442f-8abc-cc5cc0ef6bda","system_id":"levelo_inurba_marseille","lat":43.2979,"lon":5.39344,"is_reserved":false,"is_disabled":false,"rental_uris":{"android":"levelo://app?vid=90d60598-adff-442f-8abc-cc5cc0ef6bda","ios":"levelo://app?vid=90d60598-adff-442f-8abc-cc5cc0ef6bda"},"vehicle_type_id":"4","last_reported":1729613478,"current_range_meters":33200,"station_id":"chh1huq6cuj3fo74tm60","pricing_plan_id":"cebpf4jnsgd1na2vs0mg"},{"bike_id":"0290e71e-6b1e-4655-9276-6d47b2f39717","system_id":"levelo_inurba_marseille","lat":43.29106,"lon":5.41756,"is_reserved":false,"is_disabled":false,"rental_uris":{"android":"levelo://app?vid=0290e71e-6b1e-4655-9276-6d47b2f39717","ios":"levelo://app?vid=0290e71e-6b1e-4655-9276-6d47b2f39717"},"vehicle_type_id":"4","last_reported":1729613478,"current_range_meters":22800,"station_id":"ce4bh192rcd13ifvqdc0","pricing_plan_id":"cebpf4jnsgd1na2vs0mg"},{"bike_id":"9085e27a-e184-4ad5-aead-d2386daeb8b4","system_id":"levelo_inurba_marseille","lat":43.27615,"lon":5.36119,"is_reserved":false,"is_disabled":false,"rental_uris":{"android":"levelo://app?vid=9085e27a-e184-4ad5-aead-d2386daeb8b4","ios":"levelo://app?vid=9085e27a-e184-4ad5-aead-d2386daeb8b4"},"vehicle_type_id":"4","last_reported":1729613478,"current_range_meters":36800,"station_id":"ce4bgj92rcd13ifvqbe0","pricing_plan_id":"cebpf4jnsgd1na2vs0mg"},{"bike_id":"63579b14-4c46-4fe5-83ba-5858b8114264","system_id":"levelo_inurba_marseille","lat":43.29598,"lon":5.38099,"is_reserved":false,"is_disabled":false,"rental_uris":{"android":"levelo://app?vid=63579b14-4c46-4fe5-83ba-5858b8114264","ios":"levelo://app?vid=63579b14-4c46-4fe5-83ba-5858b8114264"},"vehicle_type_id":"4","last_reported":1729613478,"current_range_meters":7200,"station_id":"ce4bgl12rcd13ifvqbo0","pricing_plan_id":"cebpf4jnsgd1na2vs0mg"},{"bike_id":"a6dfd4e0-c9fb-4613-9a94-0f41599b3be7","system_id":"levelo_inurba_marseille","lat":43.30311,"lon":5.39199,"is_reserved":false,"is_disabled":false,"rental_uris":{"android":"levelo://app?vid=a6dfd4e0-c9fb-4613-9a94-0f41599b3be7","ios":"levelo://app?vid=a6dfd4e0-c9fb-4613-9a94-0f41599b3be7"},"vehicle_type_id":"4","last_reported":1729613478,"current_range_meters":4800,"station_id":"ce4bgkh2rcd13ifvqbk0","pricing_plan_id":"cebpf4jnsgd1na2vs0mg"},{"bike_id":"f6464c1a-edb6-49eb-90de-889ef65e6f1e","system_id":"levelo_inurba_marseille","lat":43.31682,"lon":5.40475,"is_reserved":false,"is_disabled":false,"rental_uris":{"android":"levelo://app?vid=f6464c1a-edb6-49eb-90de-889ef65e6f1e","ios":"levelo://app?vid=f6464c1a-edb6-49eb-90de-889ef65e6f1e"},"vehicle_type_id":"4","last_reported":1729613478,"current_range_meters":37600,"station_id":"ce4bh012rcd13ifvqd00","pricing_plan_id":"cebpf4jnsgd1na2vs0mg"},{"bike_id":"0f35634c-9584-44ca-a09b-9573ba3dc7e4","system_id":"levelo_inurba_marseille","lat":43.23179,"lon":5.39994,"is_reserved":false,"is_disabled":false,"rental_uris":{"android":"levelo://app?vid=0f35634c-9584-44ca-a09b-9573ba3dc7e4","ios":"levelo://app?vid=0f35634c-9584-44ca-a09b-9573ba3dc7e4"},"vehicle_type_id":"4","last_reported":1729613478,"current_range_meters":14800,"station_id":"ce4bhn12rcd13ifvqgqg","pricing_plan_id":"cebpf4jnsgd1na2vs0mg"},{"bike_id":"57a4d301-e11d-4c1f-9186-2f44dbef1a7c","system_id":"levelo_inurba_marseille","lat":43.33756,"lon":5.37432,"is_reserved":false,"is_disabled":false,"rental_uris":{"android":"levelo://app?vid=57a4d301-e11d-4c1f-9186-2f44dbef1a7c","ios":"levelo://app?vid=57a4d301-e11d-4c1f-9186-2f44dbef1a7c"},"vehicle_type_id":"4","last_reported":1729613478,"current_range_meters":34800,"station_id":"","pricing_plan_id":"cebpf4jnsgd1na2vs0mg"},{"bike_id":"ebae352d-3ead-43b6-99b5-f36a98ab2d03","system_id":"levelo_inurba_marseille","lat":43.296234,"lon":5.377025,"is_reserved":false,"is_disabled":false,"rental_uris":{"android":"levelo://app?vid=ebae352d-3ead-43b6-99b5-f36a98ab2d03","ios":"levelo://app?vid=ebae352d-3ead-43b6-99b5-f36a98ab2d03"},"vehicle_type_id":"4","last_reported":1729613478,"current_range_meters":38800,"station_id":"ce4bhb92rcd13ifvqen0","pricing_plan_id":"cebpf4jnsgd1na2vs0mg"},{"bike_id":"bdd8b9ea-0753-4f0d-beb0-f8c6438da0b6","system_id":"levelo_inurba_marseille","lat":43.27375,"lon":5.36261,"is_reserved":false,"is_disabled":false,"rental_uris":{"android":"levelo://app?vid=bdd8b9ea-0753-4f0d-beb0-f8c6438da0b6","ios":"levelo://app?vid=bdd8b9ea-0753-4f0d-beb0-f8c6438da0b6"},"vehicle_type_id":"4","last_reported":1729613478,"current_range_meters":4800,"station_id":"ce4bhbh2rcd13ifvqeo0","pricing_plan_id":"cebpf4jnsgd1na2vs0mg"},{"bike_id":"7cb6dc2c-edda-4755-beaf-bd24e05830e7","system_id":"levelo_inurba_marseille","lat":43.31891,"lon":5.40753,"is_reserved":false,"is_disabled":false,"rental_uris":{"android":"levelo://app?vid=7cb6dc2c-edda-4755-beaf-bd24e05830e7","ios":"levelo://app?vid=7cb6dc2c-edda-4755-beaf-bd24e05830e7"},"vehicle_type_id":"4","last_reported":1729613478,"current_range_meters":28400,"station_id":"ce4bhq12rcd13ifvqhig","pricing_plan_id":"cebpf4jnsgd1na2vs0mg"},{"bike_id":"10cd57c3-ecea-429a-b35f-f2741ee210fd","system_id":"levelo_inurba_marseille","lat":43.29581,"lon":5.36743,"is_reserved":false,"is_disabled":false,"rental_uris":{"android":"levelo://app?vid=10cd57c3-ecea-429a-b35f-f2741ee210fd","ios":"levelo://app?vid=10cd57c3-ecea-429a-b35f-f2741ee210fd"},"vehicle_type_id":"4","last_reported":1729613478,"current_range_meters":4800,"station_id":"ce4bgph2rcd13ifvqc2g","pricing_plan_id":"cebpf4jnsgd1na2vs0mg"},{"bike_id":"af99991d-c358-4642-b510-90f84661774d","system_id":"levelo_inurba_marseille","lat":43.30085,"lon":5.39079,"is_reserved":false,"is_disabled":false,"rental_uris":{"android":"levelo://app?vid=af99991d-c358-4642-b510-90f84661774d","ios":"levelo://app?vid=af99991d-c358-4642-b510-90f84661774d"},"vehicle_type_id":"4","last_reported":1729613478,"current_range_meters":2800,"station_id":"ce4bh192rcd13ifvqdb0","pricing_plan_id":"cebpf4jnsgd1na2vs0mg"},{"bike_id":"24c8fe93-74dd-416f-b2d8-280f15992039","system_id":"levelo_inurba_marseille","lat":43.27375,"lon":5.36267,"is_reserved":false,"is_disabled":false,"rental_uris":{"android":"levelo://app?vid=24c8fe93-74dd-416f-b2d8-280f15992039","ios":"levelo://app?vid=24c8fe93-74dd-416f-b2d8-280f15992039"},"vehicle_type_id":"4","last_reported":1729613478,"current_range_meters":9200,"station_id":"ce4bhbh2rcd13ifvqeo0","pricing_plan_id":"cebpf4jnsgd1na2vs0mg"},{"bike_id":"1806fef0-5f68-416e-a479-2b002796d9af","system_id":"levelo_inurba_marseille","lat":43.29411,"lon":5.38629,"is_reserved":false,"is_disabled":false,"rental_uris":{"android":"levelo://app?vid=1806fef0-5f68-416e-a479-2b002796d9af","ios":"levelo://app?vid=1806fef0-5f68-416e-a479-2b002796d9af"},"vehicle_type_id":"4","last_reported":1729613478,"current_range_meters":3200,"station_id":"ce4bh2h2rcd13ifvqdh0","pricing_plan_id":"cebpf4jnsgd1na2vs0mg"},