{"last_updated":1761340160,"ttl":60,"version":"2.2","data":{"bikes":[{"bike_id":"37d01fc8-4b4d-4652-a489-1254eb9d4c80","system_id":"levelo_inurba_marseille","lat":43.34076,"lon":5.40411,"is_reserved":false,"is_disabled":false,"rental_uris":{"android":"levelo://app?vid=37d01fc8-4b4d-4652-a489-1254eb9d4c80","ios":"levelo://app?vid=37d01fc8-4b4d-4652-a489-1254eb9d4c80"},"vehicle_type_id":"4","last_reported":1761340160,"current_range_meters":2800,"station_id":"","pricing_plan_id":"cebpf4jnsgd1na2vs0mg"},{"bike_id":"1985daff-98e8-4fcb-8986-921879442da3","system_id":"levelo_inurba_marseille","lat":43.25586,"lon":5.38223,"is_reserved":false,"is_disabled":false,"rental_uris":{"android":"levelo://app?vid=1985daff-98e8-4fcb-8986-921879442da3","ios":"levelo://app?vid=1985daff-98e8-4fcb-8986-921879442da3"},"vehicle_type_id":"4","last_reported":1761340160,"current_range_meters":2800,"station_id":"ce4bhih2rcd13ifvqfs0","pricing_plan_id":"cebpf4jnsgd1na2vs0mg"},{"bike_id":"ab451abc-88c7-4576-a77c-6789969e9dae","system_id":"levelo_inurba_marseille","lat":43.22926,"lon":5.35374,"is_reserved":false,"is_disabled":false,"rental_uris":{"android":"levelo://app?vid=ab451abc-88c7-4576-a77c-6789969e9dae","ios":"levelo://app?vid=ab451abc-88c7-4576-a77c-6789969e9dae"},"vehicle_type_id":"4","last_reported":1761340160,"current_range_meters":3200,"station_id":"","pricing_plan_id":"cebpf4jnsgd1na2vs0mg"},{"bike_id":"805fb7d4-3044-4cc1-8044-698885e9ec3b","system_id":"levelo_inurba_marseille","lat":43.29281,"lon":5.37454,"is_reserved":false,"is_disabled":false,"rental_uris":{"android":"levelo://app?vid=805fb7d4-3044-4cc1-8044-698885e9ec3b","ios":"levelo://app?vid=805fb7d4-3044-4cc1-8044-698885e9ec3b"},"vehicle_type_id":"4","last_reported":1761340160,"current_range_meters":3200,"station_id":"ce4bgi12rcd13ifvqb70","pricing_plan_id":"cebpf4jnsgd1na2vs0mg"},{"bike_id":"accabf7f-2a60-43f7-86a0-e6f3fd2b82e2","system_id":"levelo_inurba_marseille","lat":43.29711,"lon":5.403914,"is_reserved":false,"is_disabled":false,"rental_uris":{"android":"levelo://app?vid=accabf7f-2a60-43f7-86a0-e6f3fd2b82e2","ios":"levelo://app?vid=accabf7f-2a60-43f7-86a0-e6f3fd2b82e2"},"vehicle_type_id":"4","last_reported":1761340160,"current_range_meters":3600,"station_id":"ce4bh112rcd13ifvqd90","pricing_plan_id":"cebpf4jnsgd1na2vs0mg"},{"bike_id":"c2f6d99c-6741-4f97-adbe-292efb7eff82","system_id":"levelo_inurba_marseille","lat":43.21183,"lon":5.35074,"is_reserved":false,"is_disabled":false,"rental_uris":{"android":"levelo://app?vid=c2f6d99c-6741-4f97-adbe-292efb7eff82","ios":"levelo://app?vid=c2f6d99c-6741-4f97-adbe-292efb7eff82"},"vehicle_type_id":"4","last_reported":1761340160,"current_range_meters":3600,"station_id":"st_cvj6sg6p6f1abm77japg","pricing_plan_id":"cebpf4jnsgd1na2vs0mg"},{"bike_id":"51ea134d-df94-4f50-84a6-099716824d0c","system_id":"levelo_inurba_marseille","lat":43.33716,"lon":5.36282,"is_reserved":false,"is_disabled":false,"rental_uris":{"android":"levelo://app?vid=51ea134d-df94-4f50-84a6-099716824d0c","ios":"levelo://app?vid=51ea134d-df94-4f50-84a6-099716824d0c"},"vehicle_type_id":"4","last_reported":1761340160,"current_range_meters":3600,"station_id":"","pricing_plan_id":"cebpf4jnsgd1na2vs0mg"},{"bike_id":"e2623e17-125f-43cc-9519-c1104c86f132","system_id":"levelo_inurba_marseille","lat":43.31266,"lon":5.40159,"is_reserved":false,"is_disabled":false,"rental_uris":{"android":"levelo://app?vid=e2623e17-125f-43cc-9519-c1104c86f132","ios":"levelo://app?vid=e2623e17-125f-43cc-9519-c1104c86f132"},"vehicle_type_id":"4","last_reported":1761340160,"current_range_meters":4000,"station_id":"ce4bh092rcd13ifvqd30","pricing_plan_id":"cebpf4jnsgd1na2vs0mg"},{"bike_id":"01ad70f5-3c2b-4cd8-98e7-c53608d34bf4","system_id":"levelo_inurba_marseille","lat":43.28848,"lon":5.393,"is_reserved":false,"is_disabled":false,"rental_uris":{"android":"levelo://app?vid=01ad70f5-3c2b-4cd8-98e7-c53608d34bf4","ios":"levelo://app?vid=01ad70f5-3c2b-4cd8-98e7-c53608d34bf4"},"vehicle_type_id":"4","last_reported":1761340160,"current_range_meters":4400,"station_id":"ce4bh2p2rcd13ifvqdi0","pricing_plan_id":"cebpf4jnsgd1na2vs0mg"},{"bike_id":"885100c3-3a9f-4877-b3ed-397ef145258d","system_id":"levelo_inurba_marseille","lat":43.27942,"lon":5.41049,"is_reserved":false,"is_disabled":false,"rental_uris":{"android":"levelo://app?vid=885100c3-3a9f-4877-b3ed-397ef145258d","ios":"levelo://app?vid=885100c3-3a9f-4877-b3ed-397ef145258d"},"vehicle_type_id":"4","last_reported":1761340160,"current_range_meters":4400,"station_id":"ce4bhnp2rcd13ifvqh0g","pricing_plan_id":"cebpf4jnsgd1na2vs0mg"},{"bike_id":"7546f470-e2c9-46ad-b638-733b3092a9dc","system_id":"levelo_inurba_marseille","lat":43.22549,"lon":5.34816,"is_reserved":false,"is_disabled":false,"rental_uris":{"android":"levelo://app?vid=7546f470-e2c9-46ad-b638-733b3092a9dc","ios":"levelo://app?vid=7546f470-e2c9-46ad-b638-733b3092a9dc"},"vehicle_type_id":"4","last_reported":1761340160,"current_range_meters":4400,"station_id":"","pricing_plan_id":"cebpf4jnsgd1na2vs0mg"},{"bike_id":"c21b3611-9c87-4ee4-82e8-ce01f8e21e69","system_id":"levelo_inurba_marseille","lat":43.30187,"lon":5.40161,"is_reserved":false,"is_disabled":false,"rental_uris":{"android":"levelo://app?vid=c21b3611-9c87-4ee4-82e8-ce01f8e21e69","ios":"levelo://app?vid=c21b3611-9c87-4ee4-82e8-ce01f8e21e69"},"vehicle_type_id":"4","last_reported":1761340160,"current_range_meters":4800,"station_id":"","pricing_plan_id":"cebpf4jnsgd1na2vs0mg"},{"bike_id":"765adebf-7752-4542-8280-0e0811c5eae9","system_id":"levelo_inurba_marseille","lat":43.292572,"lon":5.384422,"is_reserved":false,"is_disabled":false,"rental_uris":{"android":"levelo://app?vid=765adebf-7752-4542-8280-0e0811c5eae9","ios":"levelo://app?vid=765adebf-7752-4542-8280-0e0811c5eae9"},"vehicle_type_id":"4","last_reported":1761340160,"current_range_meters":5600,"station_id":"ce4bhmh2rcd13ifvqgmg","pricing_plan_id":"cebpf4jnsgd1na2vs0mg"},{"bike_id":"1cf570c7-1724-4b95-9963-1b39dfb32ee3","system_id":"levelo_inurba_marseille","lat":43.26377,"lon":5.38746,"is_reserved":false,"is_disabled":false,"rental_uris":{"android":"levelo://app?vid=1cf570c7-1724-4b95-9963-1b39dfb32ee3","ios":"levelo://app?vid=1cf570c7-1724-4b95-9963-1b39dfb32ee3"},"vehicle_type_id":"4","last_reported":1761340160,"current_range_meters":6000,"station_id":"","pricing_plan_id":"cebpf4jnsgd1na2vs0mg"},{"bike_id":"da10b2c5-1c86-490a-8867-94007735fac8","system_id":"levelo_inurba_marseille","lat":43.292808,"lon":5.401121,"is_reserved":false,"is_disabled":false,"rental_uris":{"android":"levelo://app?vid=da10b2c5-1c86-490a-8867-94007735fac8","ios":"levelo://app?vid=da10b2c5-1c86-490a-8867-94007735fac8"},"vehicle_type_id":"4","last_reported":1761340160,"current_range_meters":6000,"station_id":"ce4bh312rcd13ifvqdk0","pricing_plan_id":"cebpf4jnsgd1na2vs0mg"},{"bike_id":"f62ce626-2795-4fe5-83c0-f10c95ef18c0","system_id":"levelo_inurba_marseille","lat":43.303224,"lon":5.404416,"is_reserved":false,"is_disabled":false,"rental_uris":{"android":"levelo://app?vid=f62ce626-2795-4fe5-83c0-f10c95ef18c0","ios":"levelo://app?vid=f62ce626-2795-4fe5-83c0-f10c95ef18c0"},"vehicle_type_id":"4","last_reported":1761340160,"current_range_meters":6400,"station_id":"ce4bh012rcd13ifvqd10","pricing_plan_id":"cebpf4jnsgd1na2vs0mg"},{"bike_id":"32e7919e-26d8-4f7d-b229-086147816fa4","system_id":"levelo_inurba_marseille","lat":43.301286,"lon":5.38775,"is_reserved":false,"is_disabled":false,"rental_uris":{"android":"levelo://app?vid=32e7919e-26d8-4f7d-b229-086147816fa4","ios":"levelo://app?vid=32e7919e-26d8-4f7d-b229-086147816fa4"},"vehicle_type_id":"4","last_reported":1761340160,"current_range_meters":6400,"station_id":"","pricing_plan_id":"cebpf4jnsgd1na2vs0mg"},{"bike_id":"ed5592f6-738f-424e-b1c7-4090ab91b445","system_id":"levelo_inurba_marseille","lat":43.21192,"lon":5.35073,"is_reserved":false,"is_disabled":false,"rental_uris":{"android":"levelo://app?vid=ed5592f6-738f-424e-b1c7-4090ab91b445","ios":"levelo://app?vid=ed5592f6-738f-424e-b1c7-4090ab91b445"},"vehicle_type_id":"4","last_reported":1761340160,"current_range_meters":6800,"station_id":"st_cvj6sg6p6f1abm77japg","pricing_plan_id":"cebpf4jnsgd1na2vs0mg"},{"bike_id":"00fd3c6a-780c-49dc-9993-d4de69c9b57a","system_id":"levelo_inurba_marseille","lat":43.31053,"lon":5.37437,"is_reserved":false,"is_disabled":false,"rental_uris":{"android":"levelo://app?vid=00fd3c6a-780c-49dc-9993-d4de69c9b57a","ios":"levelo://app?vid=00fd3c6a-780c-49dc-9993-d4de69c9b57a"},"vehicle_type_id":"4","last_reported":1761340160,"current_range_meters":6800,"station_id":"","pricing_plan_id":"cebpf4jnsgd1na2vs0mg"},{"bike_id":"8452dc76-2f29-4751-bb04-c5f791709b19","system_id":"levelo_inurba_marseille","lat":43.295319,"lon":5.385756,"is_reserved":false,"is_disabled":false,"rental_uris":{"android":"levelo://app?vid=8452dc76-2f29-4751-bb04-c5f791709b19","ios":"levelo://app?vid=8452dc76-2f29-4751-bb04-c5f791709b19"},"vehicle_type_id":"4","last_reported":1761340160,"current_range_meters":6800,"station_id":"","pricing_plan_id":"cebpf4jnsgd1na2vs0mg"},{"bike_id":"9f8df884-ad6c-4334-a724-13d18b42a6d9","system_id":"levelo_inurba_marseille","lat":43.28457,"lon":5.35881,"is_reserved":false,"is_disabled":false,"rental_uris":{"android":"levelo://app?vid=9f8df884-ad6c-4334-a724-13d18b42a6d9","ios":"levelo://app?vid=9f8df884-ad6c-4334-a724-13d18b42a6d9"},"vehicle_type_id":"4","last_reported":1761340160,"current_range_meters":7200,"station_id":"ce4bhah2rcd13ifvqei0","pricing_plan_id":"cebpf4jnsgd1na2vs0mg"},{"bike_id":"ec9665a2-32ab-42b2-9bdf-cf94d158a9c2","system_id":"levelo_inurba_marseille","lat":43.30123,"lon":5.37088,"is_reserved":false,"is_disabled":false,"rental_uris":{"android":"levelo://app?vid=ec9665a2-32ab-42b2-9bdf-cf94d158a9c2","ios":"levelo://app?vid=ec9665a2-32ab-42b2-9bdf-cf94d158a9c2"},"vehicle_type_id":"4","last_reported":1761340160,"current_range_meters":7200,"station_id":"","pricing_plan_id":"cebpf4jnsgd1na2vs0mg"},{"bike_id":"60ee768e-a80f-4185-bb91-1d0a89831466","system_id":"levelo_inurba_marseille","lat":43.27059,"lon":5.383,"is_reserved":false,"is_disabled":false,"rental_uris":{"android":"levelo://app?vid=60ee768e-a80f-4185-bb91-1d0a89831466","ios":"levelo://app?vid=60ee768e-a80f-4185-bb91-1d0a89831466"},"vehicle_type_id":"4","last_reported":1761340160,"current_range_meters":7200,"station_id":"st_d3n2fo6cfp8s73cte1j0","pricing_plan_id":"cebpf4jnsgd1na2vs0mg"},{"bike_id":"e21c044a-5c0e-4701-8e66-118f724420bf","system_id":"levelo_inurba_marseille","lat":43.29967,"lon":5.38494,"is_reserved":false,"is_disabled":false,"rental_uris":{"android":"levelo://app?vid=e21c044a-5c0e-4701-8e66-118f724420bf","ios":"levelo://app?vid=e21c044a-5c0e-4701-8e66-118f724420bf"},"vehicle_type_id":"4","last_reported":1761340160,"current_range_meters":7200,"station_id":"ce4bgj92rcd13ifvqbd0","pricing_plan_id":"cebpf4jnsgd1na2vs0mg"},{"bike_id":"7b45a5d4-9259-4585-85f3-2668539f57dc","system_id":"levelo_inurba_marseille","lat":43.28722,"lon":5.36085,"is_reserved":false,"is_disabled":false,"rental_uris":{"android":"levelo://app?vid=7b45a5d4-9259-4585-85f3-2668539f57dc","ios":"levelo://app?vid=7b45a5d4-9259-4585-85f3-2668539f57dc"},"vehicle_type_id":"4","last_reported":1761340160,"current_range_meters":8000,"station_id":"cki0cbj6b192h4jlfktg","pricing_plan_id":"cebpf4jnsgd1na2vs0mg"},{"bike_id":"3e4783b6-28d8-4737-a4ef-6a1b0da02476","system_id":"levelo_inurba_marseille","lat":43.294501,"lon":5.407223,"is_reserved":false,"is_disabled":false,"rental_uris":{"android":"levelo://app?vid=3e4783b6-28d8-4737-a4ef-6a1b0da02476","ios":"levelo://app?vid=3e4783b6-28d8-4737-a4ef-6a1b0da02476"},"vehicle_type_id":"4","last_reported":1761340160,"current_range_meters":8000,"station_id":"","pricing_plan_id":"cebpf4jnsgd1na2vs0mg"},{"bike_id":"17bd9fff-f8a7-45af-8120-cab272292f42","system_id":"levelo_inurba_marseille","lat":43.28488,"lon":5.4838,"is_reserved":false,"is_disabled":false,"rental_uris":{"android":"levelo://app?vid=17bd9fff-f8a7-45af-8120-cab272292f42","ios":"levelo://app?vid=17bd9fff-f8a7-45af-8120-cab272292f42"},"vehicle_type_id":"4","last_reported":1761340160,"current_range_meters":8000,"station_id":"st_d3svhcjqgbts73a3dn0g","pricing_plan_id":"cebpf4jnsgd1na2vs0mg"},{"bike_id":"4b39174c-5820-4cb8-8ed4-e74eb97f33a6","system_id":"levelo_inurba_marseille","lat":43.217464,"lon":5.346031,"is_reserved":false,"is_disabled":false,"rental_uris":{"android":"levelo://app?vid=4b39174c-5820-4cb8-8ed4-e74eb97f33a6","ios":"levelo://app?vid=4b39174c-5820-4cb8-8ed4-e74eb97f33a6"},"vehicle_type_id":"4","last_reported":1761340160,"current_range_meters":8400,"station_id":"","pricing_plan_id":"cebpf4jnsgd1na2vs0mg"},{"bike_id":"637f6b79-7671-4fc4-9126-dce7ed1f3cac","system_id":"levelo_inurba_marseille","lat":43.2928,"lon":5.38413,"is_reserved":false,"is_disabled":false,"rental_uris":{"android":"levelo://app?vid=637f6b79-7671-4fc4-9126-dce7ed1f3cac","ios":"levelo://app?vid=637f6b79-7671-4fc4-9126-dce7ed1f3cac"},"vehicle_type_id":"4","last_reported":1761340160,"current_range_meters":8400,"station_id":"ce4bh692rcd13ifvqea0","pricing_plan_id":"cebpf4jnsgd1na2vs0mg"},{"bike_id":"323bf2de-3bb4-4b4c-b330-b19ea807dbf5","system_id":"levelo_inurba_marseille","lat":43.33,"lon":5.42946,"is_reserved":false,"is_disabled":false,"rental_uris":{"android":"levelo://app?vid=323bf2de-3bb4-4b4c-b330-b19ea807dbf5","ios":"levelo://app?vid=323bf2de-3bb4-4b4c-b330-b19ea807dbf5"},"vehicle_type_id":"4","last_reported":1761340160,"current_range_meters":8400,"station_id":"","pricing_plan_id":"cebpf4jnsgd1na2vs0mg"},{"bike_id":"bf52d227-e2e6-4e46-bfde-44cbb96d7d45","system_id":"levelo_inurba_marseille","lat":43.21192,"lon":5.35074,"is_reserved":false,"is_disabled":false,"rental_uris":{"android":"levelo://app?vid=bf52d227-e2e6-4e46-bfde-44cbb96d7d45","ios":"levelo://app?vid=bf52d227-e2e6-4e46-bfde-44cbb96d7d45"},"vehicle_type_id":"4","last_reported":1761340160,"current_range_meters":8800,"station_id":"st_cvj6sg6p6f1abm77japg","pricing_plan_id":"cebpf4jnsgd1na2vs0mg"},{"bike_id":"9bfed83c-4a67-448a-b6b2-0cdeb6d04c62","system_id":"levelo_inurba_marseille","lat":43.211941,"lon":5.350709,"is_reserved":false,"is_disabled":false,"rental_uris":{"android":"levelo://app?vid=9bfed83c-4a67-448a-b6b2-0cdeb6d04c62","ios":"levelo://app?vid=9bfed83c-4a67-448a-b6b2-0cdeb6d04c62"},"vehicle_type_id":"4","last_reported":1761340160,"current_range_meters":8800,"station_id":"","pricing_plan_id":"cebpf4jnsgd1na2vs0mg"},{"bike_id":"877dea4f-23d0-4a0a-82a6-ce884edd952c","system_id":"levelo_inurba_marseille","lat":43.30797,"lon":5.38161,"is_reserved":false,"is_disabled":false,"rental_uris":{"android":"levelo://app?vid=877dea4f-23d0-4a0a-82a6-ce884edd952c","ios":"levelo://app?vid=877dea4f-23d0-4a0a-82a6-ce884edd952c"},"vehicle_type_id":"4","last_reported":1761340160,"current_range_meters":8800,"station_id":"ce4bgt12rcd13ifvqce0","pricing_plan_id":"cebpf4jnsgd1na2vs0mg"},{"bike_id":"18df7d7e-5c22-4e8f-8de7-2f9e21f3521d","system_id":"levelo_inurba_marseille","lat":43.29586,"lon":5.39598,"is_reserved":false,"is_disabled":false,"rental_uris":{"android":"levelo://app?vid=18df7d7e-5c22-4e8f-8de7-2f9e21f3521d","ios":"levelo://app?vid=18df7d7e-5c22-4e8f-8de7-2f9e21f3521d"},"vehicle_type_id":"4","last_reported":1761340160,"current_range_meters":8800,"station_id":"","pricing_plan_id":"cebpf4jnsgd1na2vs0mg"},{"bike_id":"32a9b627-ca4f-424f-860a-ecef71f8e4cd","system_id":"levelo_inurba_marseille","lat":43.28616,"lon":5.35104,"is_reserved":false,"is_disabled":false,"rental_uris":{"android":"levelo://app?vid=32a9b627-ca4f-424f-860a-ecef71f8e4cd","ios":"levelo://app?vid=32a9b627-ca4f-424f-860a-ecef71f8e4cd"},"vehicle_type_id":"4","last_reported":1761340160,"current_range_meters":8800,"station_id":"ce4bhch2rcd13ifvqeug","pricing_plan_id":"cebpf4jnsgd1na2vs0mg"},{"bike_id":"37b5a415-50bb-4ba6-9326-87a325359629","system_id":"levelo_inurba_marseille","lat":43.292639,"lon":5.384437,"is_reserved":false,"is_disabled":false,"rental_uris":{"android":"levelo://app?vid=37b5a415-50bb-4ba6-9326-87a325359629","ios":"levelo://app?vid=37b5a415-50bb-4ba6-9326-87a325359629"},"vehicle_type_id":"4","last_reported":1761340160,"current_range_meters":9200,"station_id":"ce4bh692rcd13ifvqea0","pricing_plan_id":"cebpf4jnsgd1na2vs0mg"},{"bike_id":"52d49fac-bed4-495f-aeb7-3716ed0f4e91","system_id":"levelo_inurba_marseille","lat":43.30946,"lon":5.39036,"is_reserved":false,"is_disabled":false,"rental_uris":{"android":"levelo://app?vid=52d49fac-bed4-495f-aeb7-3716ed0f4e91","ios":"levelo://app?vid=52d49fac-bed4-495f-aeb7-3716ed0f4e91"},"vehicle_type_id":"4","last_reported":1761340160,"current_range_meters":9600,"station_id":"ce4bgup2rcd13ifvqco0","pricing_plan_id":"cebpf4jnsgd1na2vs0mg"},{"bike_id":"b9764ed2-f91a-421e-b54e-d7527bd8af22","system_id":"levelo_inurba_marseille","lat":43.29811,"lon":5.36588,"is_reserved":false,"is_disabled":false,"rental_uris":{"android":"levelo://app?vid=b9764ed2-f91a-421e-b54e-d7527bd8af22","ios":"levelo://app?vid=b9764ed2-f91a-421e-b54e-d7527bd8af22"},"vehicle_type_id":"4","last_reported":1761340160,"current_range_meters":9600,"station_id":"","pricing_plan_id":"cebpf4jnsgd1na2vs0mg"},{"bike_id":"8bcacd78-80de-4026-af75-b37ebe3030fe","system_id":"levelo_inurba_marseille","lat":43.334756,"lon":5.404255,"is_reserved":false,"is_disabled":false,"rental_uris":{"android":"levelo://app?vid=8bcacd78-80de-4026-af75-b37ebe3030fe","ios":"levelo://app?vid=8bcacd78-80de-4026-af75-b37ebe3030fe"},"vehicle_type_id":"4","last_reported":1761340160,"current_range_meters":9600,"station_id":"","pricing_plan_id":"cebpf4jnsgd1na2vs0mg"},{"bike_id":"2842f5fd-7b05-4b47-909c-5ee54d7d3bc5","system_id":"levelo_inurba_marseille","lat":43.3244,"lon":5.42819,"is_reserved":false,"is_disabled":false,"rental_uris":{"android":"levelo://app?vid=2842f5fd-7b05-4b47-909c-5ee54d7d3bc5","ios":"levelo://app?vid=2842f5fd-7b05-4b47-909c-5ee54d7d3bc5"},"vehicle_type_id":"4","last_reported":1761340160,"current_range_meters":9600,"station_id":"","pricing_plan_id":"cebpf4jnsgd1na2vs0mg"},{"bike_id":"73833d8b-706a-47e2-b605-b10c574229d7","system_id":"levelo_inurba_marseille","lat":43.27812,"lon":5.40714,"is_reserved":false,"is_disabled":false,"rental_uris":{"android":"levelo://app?vid=73833d8b-706a-47e2-b605-b10c574229d7","ios":"levelo://app?vid=73833d8b-706a-47e2-b605-b10c574229d7"},"vehicle_type_id":"4","last_reported":1761340160,"current_range_meters":9600,"station_id":"ce4bhnh2rcd13ifvqgtg","pricing_plan_id":"cebpf4jnsgd1na2vs0mg"},{"bike_id":"9881c788-42a8-46f5-8ccc-580a73583155","system_id":"levelo_inurba_marseille","lat":43.32089,"lon":5.40929,"is_reserved":false,"is_disabled":true,"rental_uris":{"android":"levelo://app?vid=9881c788-42a8-46f5-8ccc-580a73583155","ios":"levelo://app?vid=9881c788-42a8-46f5-8ccc-580a73583155"},"vehicle_type_id":"4","last_reported":1761340160,"current_range_meters":9600,"station_id":"","pricing_plan_id":"cebpf4jnsgd1na2vs0mg"},{"bike_id":"8a5621c4-fbf0-4491-b89e-2fb47c80440d","system_id":"levelo_inurba_marseille","lat":43.26557,"lon":5.37281,"is_reserved":false,"is_disabled":false,"rental_uris":{"android":"levelo://app?vid=8a5621c4-fbf0-4491-b89e-2fb47c80440d","ios":"levelo://app?vid=8a5621c4-fbf0-4491-b89e-2fb47c80440d"},"vehicle_type_id":"4","last_reported":1761340160,"current_range_meters":10000,"station_id":"ce4bhg12rcd13ifvqf70","pricing_plan_id":"cebpf4jnsgd1na2vs0mg"},{"bike_id":"64bbc288-46b6-4a63-a6b4-4146f1e2b52a","system_id":"levelo_inurba_marseille","lat":43.31324,"lon":5.39696,"is_reserved":false,"is_disabled":false,"rental_uris":{"android":"levelo://app?vid=64bbc288-46b6-4a63-a6b4-4146f1e2b52a","ios":"levelo://app?vid=64bbc288-46b6-4a63-a6b4-4146f1e2b52a"},"vehicle_type_id":"4","last_reported":1761340160,"current_range_meters":10000,"station_id":"ce4bgvp2rcd13ifvqcu0","pricing_plan_id":"cebpf4jnsgd1na2vs0mg"},{"bike_id":"7e66172e-8226-45c3-8361-f59715d7820c","system_id":"levelo_inurba_marseille","lat":43.306,"lon":5.37221,"is_reserved":false,"is_disabled":false,"rental_uris":{"android":"levelo://app?vid=7e66172e-8226-45c3-8361-f59715d7820c","ios":"levelo://app?vid=7e66172e-8226-45c3-8361-f59715d7820c"},"vehicle_type_id":"4","last_reported":1761340160,"current_range_meters":10000,"station_id":"ce4bgqh2rcd13ifvqc4g","pricing_plan_id":"cebpf4jnsgd1na2vs0mg"},{"bike_id":"c2fca5ac-534c-4f9d-91b0-53ab57ebe492","system_id":"levelo_inurba_marseille","lat":43.292661,"lon":5.384452,"is_reserved":false,"is_disabled":false,"rental_uris":{"android":"levelo://app?vid=c2fca5ac-534c-4f9d-91b0-53ab57ebe492","ios":"levelo://app?vid=c2fca5ac-534c-4f9d-91b0-53ab57ebe492"},"vehicle_type_id":"4","last_reported":1761340160,"current_range_meters":10000,"station_id":"ce4bh692rcd13ifvqea0","pricing_plan_id":"cebpf4jnsgd1na2vs0mg"},{"bike_id":"6b2eca7d-8d33-4236-b0be-3f41af17feb2","system_id":"levelo_inurba_marseille","lat":43.27563,"lon":5.38424,"is_reserved":false,"is_disabled":false,"rental_uris":{"android":"levelo://app?vid=6b2eca7d-8d33-4236-b0be-3f41af17feb2","ios":"levelo://app?vid=6b2eca7d-8d33-4236-b0be-3f41af17feb2"},"vehicle_type_id":"4","last_reported":1761340160,"current_range_meters":10800,"station_id":"ce4bhh92rcd13ifvqfi0","pricing_plan_id":"cebpf4jnsgd1na2vs0mg"},{"bike_id":"3ea860b0-bcc7-4174-8003-dcebcf1c1d38","system_id":"levelo_inurba_marseille","lat":43.28109,"lon":5.43229,"is_reserved":false,"is_disabled":false,"rental_uris":{"android":"levelo://app?vid=3ea860b0-bcc7-4174-8003-dcebcf1c1d38","ios":"levelo://app?vid=3ea860b0-bcc7-4174-8003-dcebcf1c1d38"},"vehicle_type_id":"4","last_reported":1761340160,"current_range_meters":10800,"station_id":"","pricing_plan_id":"cebpf4jnsgd1na2vs0mg"},{"bike_id":"ca1f638f-31ee-4988-b094-5e7802fc2669","system_id":"levelo_inurba_marseille","lat":43.26202,"lon":5.37924,"is_reserved":false,"is_disabled":false,"rental_uris":{"android":"levelo://app?vid=ca1f638f-31ee-4988-b094-5e7802fc2669","ios":"levelo://app?vid=ca1f638f-31ee-4988-b094-5e7802fc2669"},"vehicle_type_id":"4","last_reported":1761340160,"current_range_meters":10800,"station_id":"ce4bhjp2rcd13ifvqg90","pricing_plan_id":"cebpf4jnsgd1na2vs0mg"},{"bike_id":"849a7e71-a3d6-4239-bd2d-2d855b1c1b4d","system_id":"levelo_inurba_marseille","lat":43.28354,"lon":5.38096,"is_reserved":false,"is_disabled":false,"rental_uris":{"android":"levelo://app?vid=849a7e71-a3d6-4239-bd2d-2d855b1c1b4d","ios":"levelo://app?vid=849a7e71-a3d6-4239-bd2d-2d855b1c1b4d"},"vehicle_type_id":"4","last_reported":1761340160,"current_range_meters":10800,"station_id":"ce4bh412rcd13ifvqdr0","pricing_plan_id":"cebpf4jnsgd1na2vs0mg"},{"bike_id":"db94d1e3-d6ad-4bc0-b456-0d49f128a641","system_id":"levelo_inurba_marseille","lat":43.30209,"lon":5.37108,"is_reserved":false,"is_disabled":false,"rental_uris":{"android":"levelo://app?vid=db94d1e3-d6ad-4bc0-b456-0d49f128a641","ios":"levelo://app?vid=db94d1e3-d6ad-4bc0-b456-0d49f128a641"},"vehicle_type_id":"4","last_reported":1761340160,"current_range_meters":10800,"station_id":"","pricing_plan_id":"cebpf4jnsgd1na2vs0mg"},{"bike_id":"a2666ccb-a48d-4bb6-9479-2612685cac3b","system_id":"levelo_inurba_marseille","lat":43.243898,"lon":5.370655,"is_reserved":false,"is_disabled":false,"rental_uris":{"android":"levelo://app?vid=a2666ccb-a48d-4bb6-9479-2612685cac3b","ios":"levelo://app?vid=a2666ccb-a48d-4bb6-9479-2612685cac3b"},"vehicle_type_id":"4","last_reported":1761340160,"current_range_meters":11200,"station_id":"ce4bhhh2rcd13ifvqfk0","pricing_plan_id":"cebpf4jnsgd1na2vs0mg"},{"bike_id":"f2ab01da-7947-498b-ac8b-e966b8116c3e","system_id":"levelo_inurba_marseille","lat":43.295266,"lon":5.390021,"is_reserved":false,"is_disabled":false,"rental_uris":{"android":"levelo://app?vid=f2ab01da-7947-498b-ac8b-e966b8116c3e","ios":"levelo://app?vid=f2ab01da-7947-498b-ac8b-e966b8116c3e"},"vehicle_type_id":"4","last_reported":1761340160,"current_range_meters":11200,"station_id":"ce4bh3p2rcd13ifvqdp0","pricing_plan_id":"cebpf4jnsgd1na2vs0mg"},{"bike_id":"0e9f5962-02c7-4f98-9226-48a9874138c8","system_id":"levelo_inurba_marseille","lat":43.29521,"lon":5.39018,"is_reserved":false,"is_disabled":false,"rental_uris":{"android":"levelo://app?vid=0e9f5962-02c7-4f98-9226-48a9874138c8","ios":"levelo://app?vid=0e9f5962-02c7-4f98-9226-48a9874138c8"},"vehicle_type_id":"4","last_reported":1761340160,"current_range_meters":11200,"station_id":"ce4bh3p2rcd13ifvqdp0","pricing_plan_id":"cebpf4jnsgd1na2vs0mg"},{"bike_id":"e35e1247-2ec0-4206-a360-6aaa534a130f","system_id":"levelo_inurba_marseille","lat":43.28506,"lon":5.48394,"is_reserved":false,"is_disabled":false,"rental_uris":{"android":"levelo://app?vid=e35e1247-2ec0-4206-a360-6aaa534a130f","ios":"levelo://app?vid=e35e1247-2ec0-4206-a360-6aaa534a130f"},"vehicle_type_id":"4","last_reported":1761340160,"current_range_meters":11200,"station_id":"st_d3svhcjqgbts73a3dn0g","pricing_plan_id":"cebpf4jnsgd1na2vs0mg"},{"bike_id":"fd056f45-cb13-4448-88a4-8b75b326a45e","system_id":"levelo_inurba_marseille","lat":43.28696,"lon":5.37392,"is_reserved":false,"is_disabled":false,"rental_uris":{"android":"levelo://app?vid=fd056f45-cb13-4448-88a4-8b75b326a45e","ios":"levelo://app?vid=fd056f45-cb13-4448-88a4-8b75b326a45e"},"vehicle_type_id":"4","last_reported":1761340160,"current_range_meters":11200,"station_id":"ce4bh3p2rcd13ifvqdq0","pricing_plan_id":"cebpf4jnsgd1na2vs0mg"},{"bike_id":"ccb140cc-61af-460c-9c74-9b118e13b00f","system_id":"levelo_inurba_marseille","lat":43.25335,"lon":5.42158,"is_reserved":false,"is_disabled":false,"rental_uris":{"android":"levelo://app?vid=ccb140cc-61af-460c-9c74-9b118e13b00f","ios":"levelo://app?vid=ccb140cc-61af-460c-9c74-9b118e13b00f"},"vehicle_type_id":"4","last_reported":1761340160,"current_range_meters":11600,"station_id":"st_d2m65c5bi1j21697t3ng","pricing_plan_id":"cebpf4jnsgd1na2vs0mg"},{"bike_id":"cb0d1ca2-50fa-4e0c-8a36-443c5a3930bb","system_id":"levelo_inurba_marseille","lat":43.287185,"lon":5.379273,"is_reserved":false,"is_disabled":true,"rental_uris":{"android":"levelo://app?vid=cb0d1ca2-50fa-4e0c-8a36-443c5a3930bb","ios":"levelo://app?vid=cb0d1ca2-50fa-4e0c-8a36-443c5a3930bb"},"vehicle_type_id":"4","last_reported":1761340160,"current_range_meters":11600,"station_id":"ce4bh9p2rcd13ifvqec0","pricing_plan_id":"cebpf4jnsgd1na2vs0mg"},{"bike_id":"dc32c902-0e78-43e9-86e5-99ce7ac82a0d","system_id":"levelo_inurba_marseille","lat":43.27905,"lon":5.39588,"is_reserved":false,"is_disabled":false,"rental_uris":{"android":"levelo://app?vid=dc32c902-0e78-43e9-86e5-99ce7ac82a0d","ios":"levelo://app?vid=dc32c902-0e78-43e9-86e5-99ce7ac82a0d"},"vehicle_type_id":"4","last_reported":1761340160,"current_range_meters":11600,"station_id":"ce4bhf92rcd13ifvqf40","pricing_plan_id":"cebpf4jnsgd1na2vs0mg"},{"bike_id":"1453e6fa-2958-4932-9619-2011176098ed","system_id":"levelo_inurba_marseille","lat":43.26192,"lon":5.37463,"is_reserved":false,"is_disabled":false,"rental_uris":{"android":"levelo://app?vid=1453e6fa-2958-4932-9619-2011176098ed","ios":"levelo://app?vid=1453e6fa-2958-4932-9619-2011176098ed"},"vehicle_type_id":"4","last_reported":1761340160,"current_range_meters":11600,"station_id":"ce4bhgp2rcd13ifvqfc0","pricing_plan_id":"cebpf4jnsgd1na2vs0mg"},{"bike_id":"5a753e64-b9ab-4258-baac-3e5dbb098814","system_id":"levelo_inurba_marseille","lat":43.26966,"lon":5.38619,"is_reserved":false,"is_disabled":false,"rental_uris":{"android":"levelo://app?vid=5a753e64-b9ab-4258-baac-3e5dbb098814","ios":"levelo://app?vid=5a753e64-b9ab-4258-baac-3e5dbb098814"},"vehicle_type_id":"4","last_reported":1761340160,"current_range_meters":11600,"station_id":"ce4bhh92rcd13ifvqfh0","pricing_plan_id":"cebpf4jnsgd1na2vs0mg"},{"bike_id":"91c1828f-dc96-4f0f-9b7b-6895a76a7f40","system_id":"levelo_inurba_marseille","lat":43.29713,"lon":5.37703,"is_reserved":false,"is_disabled":false,"rental_uris":{"android":"levelo://app?vid=91c1828f-dc96-4f0f-9b7b-6895a76a7f40","ios":"levelo://app?vid=91c1828f-dc96-4f0f-9b7b-6895a76a7f40"},"vehicle_type_id":"4","last_reported":1761340160,"current_range_meters":11600,"station_id":"ce4bgkh2rcd13ifvqbl0","pricing_plan_id":"cebpf4jnsgd1na2vs0mg"},{"bike_id":"3ce143eb-b285-40ae-a41f-1a7d6206d959","system_id":"levelo_inurba_marseille","lat":43.29534,"lon":5.38538,"is_reserved":false,"is_disabled":false,"rental_uris":{"android":"levelo://app?vid=3ce143eb-b285-40ae-a41f-1a7d6206d959","ios":"levelo://app?vid=3ce143eb-b285-40ae-a41f-1a7d6206d959"},"vehicle_type_id":"4","last_reported":1761340160,"current_range_meters":12400,"station_id":"ce4bgih2rcd13ifvqba0","pricing_plan_id":"cebpf4jnsgd1na2vs0mg"},{"bike_id":"de4b8ab5-285e-474a-b521-72ccb626a9fe","system_id":"levelo_inurba_marseille","lat":43.32246,"lon":5.38357,"is_reserved":false,"is_disabled":false,"rental_uris":{"android":"levelo://app?vid=de4b8ab5-285e-474a-b521-72ccb626a9fe","ios":"levelo://app?vid=de4b8ab5-285e-474a-b521-72ccb626a9fe"},"vehicle_type_id":"4","last_reported":1761340160,"current_range_meters":12000,"station_id":"ce4bhr12rcd13ifvqhqg","pricing_plan_id":"cebpf4jnsgd1na2vs0mg"},{"bike_id":"6cacfba5-13d6-4d01-8be6-5ce420a08490","system_id":"levelo_inurba_marseille","lat":43.27188,"lon":5.4099,"is_reserved":false,"is_disabled":false,"rental_uris":{"android":"levelo://app?vid=6cacfba5-13d6-4d01-8be6-5ce420a08490","ios":"levelo://app?vid=6cacfba5-13d6-4d01-8be6-5ce420a08490"},"vehicle_type_id":"4","last_reported":1761340160,"current_range_meters":12000,"station_id":"ce4bhl12rcd13ifvqgf0","pricing_plan_id":"cebpf4jnsgd1na2vs0mg"},{"bike_id":"20ed8898-129d-47a9-8640-6e442dec20cd","system_id":"levelo_inurba_marseille","lat":43.284064,"lon":5.375002,"is_reserved":false,"is_disabled":false,"rental_uris":{"android":"levelo://app?vid=20ed8898-129d-47a9-8640-6e442dec20cd","ios":"levelo://app?vid=20ed8898-129d-47a9-8640-6e442dec20cd"},"vehicle_type_id":"4","last_reported":1761340160,"current_range_meters":12000,"station_id":"ce4bh412rcd13ifvqds0","pricing_plan_id":"cebpf4jnsgd1na2vs0mg"},{"bike_id":"11388db0-3d87-4748-bfc6-88e375613262","system_id":"levelo_inurba_marseille","lat":43.25113,"lon":5.40321,"is_reserved":false,"is_disabled":false,"rental_uris":{"android":"levelo://app?vid=11388db0-3d87-4748-bfc6-88e375613262","ios":"levelo://app?vid=11388db0-3d87-4748-bfc6-88e375613262"},"vehicle_type_id":"4","last_reported":1761340160,"current_range_meters":12000,"station_id":"ce4bhlh2rcd13ifvqgig","pricing_plan_id":"cebpf4jnsgd1na2vs0mg"},{"bike_id":"6b307c52-f33b-4885-85a6-9bac6592bb3d","system_id":"levelo_inurba_marseille","lat":43.212,"lon":5.35071,"is_reserved":false,"is_disabled":false,"rental_uris":{"android":"levelo://app?vid=6b307c52-f33b-4885-85a6-9bac6592bb3d","ios":"levelo://app?vid=6b307c52-f33b-4885-85a6-9bac6592bb3d"},"vehicle_type_id":"4","last_reported":1761340160,"current_range_meters":12000,"station_id":"st_cvj6sg6p6f1abm77japg","pricing_plan_id":"cebpf4jnsgd1na2vs0mg"},{"bike_id":"a19b1228-a2d7-4e9f-8baf-9fca032c6250","system_id":"levelo_inurba_marseille","lat":43.29967,"lon":5.37174,"is_reserved":false,"is_disabled":false,"rental_uris":{"android":"levelo://app?vid=a19b1228-a2d7-4e9f-8baf-9fca032c6250","ios":"levelo://app?vid=a19b1228-a2d7-4e9f-8baf-9fca032c6250"},"vehicle_type_id":"4","last_reported":1761340160,"current_range_meters":12000,"station_id":"ce4bgr92rcd13ifvqc7g","pricing_plan_id":"cebpf4jnsgd1na2vs0mg"},{"bike_id":"e195e307-3b79-4f3f-a51b-3d578db59808","system_id":"levelo_inurba_marseille","lat":43.30247,"lon":5.40097,"is_reserved":false,"is_disabled":false,"rental_uris":{"android":"levelo://app?vid=e195e307-3b79-4f3f-a51b-3d578db59808","ios":"levelo://app?vid=e195e307-3b79-4f3f-a51b-3d578db59808"},"vehicle_type_id":"4","last_reported":1761340160,"current_range_meters":12000,"station_id":"ce4bgvh2rcd13ifvqcs0","pricing_plan_id":"cebpf4jnsgd1na2vs0mg"},{"bike_id":"45cf7000-f8d7-4cef-a789-47fdd7bb07f2","system_id":"levelo_inurba_marseille","lat":43.330177,"lon":5.390308,"is_reserved":false,"is_disabled":false,"rental_uris":{"android":"levelo://app?vid=45cf7000-f8d7-4cef-a789-47fdd7bb07f2","ios":"levelo://app?vid=45cf7000-f8d7-4cef-a789-47fdd7bb07f2"},"vehicle_type_id":"4","last_reported":1761340160,"current_range_meters":12000,"station_id":"ce4bhr92rcd13ifvqhrg","pricing_plan_id":"cebpf4jnsgd1na2vs0mg"},{"bike_id":"a28b6a76-dcce-4c6b-b202-44f168b38072","system_id":"levelo_inurba_marseille","lat":43.29647,"lon":5.38629,"is_reserved":false,"is_disabled":false,"rental_uris":{"android":"levelo://app?vid=a28b6a76-dcce-4c6b-b202-44f168b38072","ios":"levelo://app?vid=a28b6a76-dcce-4c6b-b202-44f168b38072"},"vehicle_type_id":"4","last_reported":1761340160,"current_range_meters":12400,"station_id":"","pricing_plan_id":"cebpf4jnsgd1na2vs0mg"},{"bike_id":"5ed040cd-a83b-4624-aa09-8c66d4769469","system_id":"levelo_inurba_marseille","lat":43.237839,"lon":5.366356,"is_reserved":false,"is_disabled":false,"rental_uris":{"android":"levelo://app?vid=5ed040cd-a83b-4624-aa09-8c66d4769469","ios":"levelo://app?vid=5ed040cd-a83b-4624-aa09-8c66d4769469"},"vehicle_type_id":"4","last_reported":1761340160,"current_range_meters":12400,"station_id":"st_d3nk18o9ro0c73en2l3g","pricing_plan_id":"cebpf4jnsgd1na2vs0mg"},{"bike_id":"e1f0a671-9be4-4e0b-a3c5-31f7920bac07","system_id":"levelo_inurba_marseille","lat":43.295359,"lon":5.391348,"is_reserved":false,"is_disabled":false,"rental_uris":{"android":"levelo://app?vid=e1f0a671-9be4-4e0b-a3c5-31f7920bac07","ios":"levelo://app?vid=e1f0a671-9be4-4e0b-a3c5-31f7920bac07"},"vehicle_type_id":"4","last_reported":1761340160,"current_range_meters":12400,"station_id":"ce4bh3p2rcd13ifvqdp0","pricing_plan_id":"cebpf4jnsgd1na2vs0mg"},{"bike_id":"73019415-679c-46df-bd2d-1b42534d9724","system_id":"levelo_inurba_marseille","lat":43.26437,"lon":5.37365,"is_reserved":false,"is_disabled":false,"rental_uris":{"android":"levelo://app?vid=73019415-679c-46df-bd2d-1b42534d9724","ios":"levelo://app?vid=73019415-679c-46df-bd2d-1b42534d9724"},"vehicle_type_id":"4","last_reported":1761340160,"current_range_meters":12400,"station_id":"","pricing_plan_id":"cebpf4jnsgd1na2vs0mg"},{"bike_id":"55e2ef02-344e-48b6-8e3a-b74ca1a37aea","system_id":"levelo_inurba_marseille","lat":43.289409,"lon":5.396219,"is_reserved":false,"is_disabled":false,"rental_uris":{"android":"levelo://app?vid=55e2ef02-344e-48b6-8e3a-b74ca1a37aea","ios":"levelo://app?vid=55e2ef02-344e-48b6-8e3a-b74ca1a37aea"},"vehicle_type_id":"4","last_reported":1761340160,"current_range_meters":12400,"station_id":"ce4bh3h2rcd13ifvqdn0","pricing_plan_id":"cebpf4jnsgd1na2vs0mg"},{"bike_id":"269dcee7-95e4-4d31-881e-189f50575dad","system_id":"levelo_inurba_marseille","lat":43.28472,"lon":5.38408,"is_reserved":false,"is_disabled":false,"rental_uris":{"android":"levelo://app?vid=269dcee7-95e4-4d31-881e-189f50575dad","ios":"levelo://app?vid=269dcee7-95e4-4d31-881e-189f50575dad"},"vehicle_type_id":"4","last_reported":1761340160,"current_range_meters":12800,"station_id":"ce4bh512rcd13ifvqe3g","pricing_plan_id":"cebpf4jnsgd1na2vs0mg"},{"bike_id":"32ce9492-4637-4d6e-a292-cd351db28377","system_id":"levelo_inurba_marseille","lat":43.31119,"lon":5.37022,"is_reserved":false,"is_disabled":false,"rental_uris":{"android":"levelo://app?vid=32ce9492-4637-4d6e-a292-cd351db28377","ios":"levelo://app?vid=32ce9492-4637-4d6e-a292-cd351db28377"},"vehicle_type_id":"4","last_reported":1761340160,"current_range_meters":12800,"station_id":"","pricing_plan_id":"cebpf4jnsgd1na2vs0mg"},{"bike_id":"6398fd05-47e5-41f8-95bf-116d17d1d757","system_id":"levelo_inurba_marseille","lat":43.292603,"lon":5.384447,"is_reserved":false,"is_disabled":false,"rental_uris":{"android":"levelo://app?vid=6398fd05-47e5-41f8-95bf-116d17d1d757","ios":"levelo://app?vid=6398fd05-47e5-41f8-95bf-116d17d1d757"},"vehicle_type_id":"4","last_reported":1761340160,"current_range_meters":12800,"station_id":"","pricing_plan_id":"cebpf4jnsgd1na2vs0mg"},{"bike_id":"3f3fd51b-d48b-40b7-84e0-9e17543e1b84","system_id":"levelo_inurba_marseille","lat":43.30949,"lon":5.39029,"is_reserved":false,"is_disabled":false,"rental_uris":{"android":"levelo://app?vid=3f3fd51b-d48b-40b7-84e0-9e17543e1b84","ios":"levelo://app?vid=3f3fd51b-d48b-40b7-84e0-9e17543e1b84"},"vehicle_type_id":"4","last_reported":1761340160,"current_range_meters":12800,"station_id":"ce4bgup2rcd13ifvqco0","pricing_plan_id":"cebpf4jnsgd1na2vs0mg"},{"bike_id":"05d5a1e1-643b-4c28-b320-38e9d16d3095","system_id":"levelo_inurba_marseille","lat":43.27944,"lon":5.41029,"is_reserved":false,"is_disabled":false,"rental_uris":{"android":"levelo://app?vid=05d5a1e1-643b-4c28-b320-38e9d16d3095","ios":"levelo://app?vid=05d5a1e1-643b-4c28-b320-38e9d16d3095"},"vehicle_type_id":"4","last_reported":1761340160,"current_range_meters":13600,"station_id":"ce4bhnp2rcd13ifvqh0g","pricing_plan_id":"cebpf4jnsgd1na2vs0mg"},{"bike_id":"4362eff2-d099-4efd-8ba2-9ea2abd70a75","system_id":"levelo_inurba_marseille","lat":43.29528,"lon":5.38537,"is_reserved":false,"is_disabled":false,"rental_uris":{"android":"levelo://app?vid=4362eff2-d099-4efd-8ba2-9ea2abd70a75","ios":"levelo://app?vid=4362eff2-d099-4efd-8ba2-9ea2abd70a75"},"vehicle_type_id":"4","last_reported":1761340160,"current_range_meters":13600,"station_id":"ce4bgih2rcd13ifvqba0","pricing_plan_id":"cebpf4jnsgd1na2vs0mg"},{"bike_id":"876b651e-21ea-47aa-ba57-24257d5dd349","system_id":"levelo_inurba_marseille","lat":43.24647,"lon":5.3889,"is_reserved":false,"is_disabled":false,"rental_uris":{"android":"levelo://app?vid=876b651e-21ea-47aa-ba57-24257d5dd349","ios":"levelo://app?vid=876b651e-21ea-47aa-ba57-24257d5dd349"},"vehicle_type_id":"4","last_reported":1761340160,"current_range_meters":13600,"station_id":"ce4bhg12rcd13ifvqf60","pricing_plan_id":"cebpf4jnsgd1na2vs0mg"},{"bike_id":"249615da-bae2-4bb3-9506-b338b9fb85b7","system_id":"levelo_inurba_marseille","lat":43.29702,"lon":5.37683,"is_reserved":false,"is_disabled":true,"rental_uris":{"android":"levelo://app?vid=249615da-bae2-4bb3-9506-b338b9fb85b7","ios":"levelo://app?vid=249615da-bae2-4bb3-9506-b338b9fb85b7"},"vehicle_type_id":"4","last_reported":1761340160,"current_range_meters":13600,"station_id":"ce4bgkh2rcd13ifvqbl0","pricing_plan_id":"cebpf4jnsgd1na2vs0mg"},{"bike_id":"faa9e64a-426c-4d0c-8cdb-396ea27458d0","system_id":"levelo_inurba_marseille","lat":43.28077,"lon":5.39638,"is_reserved":false,"is_disabled":false,"rental_uris":{"android":"levelo://app?vid=faa9e64a-426c-4d0c-8cdb-396ea27458d0","ios":"levelo://app?vid=faa9e64a-426c-4d0c-8cdb-396ea27458d0"},"vehicle_type_id":"4","last_reported":1761340160,"current_range_meters":13600,"station_id":"ce4bho12rcd13ifvqh2g","pricing_plan_id":"cebpf4jnsgd1na2vs0mg"},{"bike_id":"76876e20-93e4-4cbc-be16-cc560ce15fdb","system_id":"levelo_inurba_marseille","lat":43.29272,"lon":5.38441,"is_reserved":false,"is_disabled":false,"rental_uris":{"android":"levelo://app?vid=76876e20-93e4-4cbc-be16-cc560ce15fdb","ios":"levelo://app?vid=76876e20-93e4-4cbc-be16-cc560ce15fdb"},"vehicle_type_id":"4","last_reported":1761340160,"current_range_meters":13600,"station_id":"ce4bh692rcd13ifvqea0","pricing_plan_id":"cebpf4jnsgd1na2vs0mg"},{"bike_id":"add05dd7-ed04-429d-8939-b22edbf56d72","system_id":"levelo_inurba_marseille","lat":43.29528,"lon":5.38544,"is_reserved":false,"is_disabled":false,"rental_uris":{"android":"levelo://app?vid=add05dd7-ed04-429d-8939-b22edbf56d72","ios":"levelo://app?vid=add05dd7-ed04-429d-8939-b22edbf56d72"},"vehicle_type_id":"4","last_reported":1761340160,"current_range_meters":13600,"station_id":"ce4bgih2rcd13ifvqba0","pricing_plan_id":"cebpf4jnsgd1na2vs0mg"},{"bike_id":"9e856cdd-8612-46ff-8f1c-6dfb624f8dc8","system_id":"levelo_inurba_marseille","lat":43.2794,"lon":5.41036,"is_reserved":false,"is_disabled":false,"rental_uris":{"android":"levelo://app?vid=9e856cdd-8612-46ff-8f1c-6dfb624f8dc8","ios":"levelo://app?vid=9e856cdd-8612-46ff-8f1c-6dfb624f8dc8"},"vehicle_type_id":"4","last_reported":1761340160,"current_range_meters":13600,"station_id":"ce4bhnp2rcd13ifvqh0g","pricing_plan_id":"cebpf4jnsgd1na2vs0mg"},{"bike_id":"ad50cdc6-14ac-4ee0-8fca-5cde66c278a9","system_id":"levelo_inurba_marseille","lat":43.24065,"lon":5.37748,"is_reserved":false,"is_disabled":false,"rental_uris":{"android":"levelo://app?vid=ad50cdc6-14ac-4ee0-8fca-5cde66c278a9","ios":"levelo://app?vid=ad50cdc6-14ac-4ee0-8fca-5cde66c278a9"},"vehicle_type_id":"4","last_reported":1761340160,"current_range_meters":13600,"station_id":"ce4bhnp2rcd13ifvqgvg","pricing_plan_id":"cebpf4jnsgd1na2vs0mg"},{"bike_id":"b09a654e-635d-41e8-9877-7b59fb9d8326","system_id":"levelo_inurba_marseille","lat":43.30946,"lon":5.39034,"is_reserved":false,"is_disabled":false,"rental_uris":{"android":"levelo://app?vid=b09a654e-635d-41e8-9877-7b59fb9d8326","ios":"levelo://app?vid=b09a654e-635d-41e8-9877-7b59fb9d8326"},"vehicle_type_id":"4","last_reported":1761340160,"current_range_meters":14000,"station_id":"ce4bgup2rcd13ifvqco0","pricing_plan_id":"cebpf4jnsgd1na2vs0mg"},{"bike_id":"b27d77c7-cb64-4204-9ade-986c14c57cb9","system_id":"levelo_inurba_marseille","lat":43.28605,"lon":5.35106,"is_reserved":false,"is_disabled":false,"rental_uris":{"android":"levelo://app?vid=b27d77c7-cb64-4204-9ade-986c14c57cb9","ios":"levelo://app?vid=b27d77c7-cb64-4204-9ade-986c14c57cb9"},"vehicle_type_id":"4","last_reported":1761340160,"current_range_meters":14000,"station_id":"ce4bhch2rcd13ifvqeug","pricing_plan_id":"cebpf4jnsgd1na2vs0mg"},{"bike_id":"73edc1b3-46fe-45a3-a6d9-70825c49e591","system_id":"levelo_inurba_marseille","lat":43.2951,"lon":5.37827,"is_reserved":false,"is_disabled":false,"rental_uris":{"android":"levelo://app?vid=73edc1b3-46fe-45a3-a6d9-70825c49e591","ios":"levelo://app?vid=73edc1b3-46fe-45a3-a6d9-70825c49e591"},"vehicle_type_id":"4","last_reported":1761340160,"current_range_meters":14000,"station_id":"","pricing_plan_id":"cebpf4jnsgd1na2vs0mg"},{"bike_id":"6327b9e4-b2d2-4a13-89be-11ffd776b74c","system_id":"levelo_inurba_marseille","lat":43.279177,"lon":5.395742,"is_reserved":false,"is_disabled":false,"rental_uris":{"android":"levelo://app?vid=6327b9e4-b2d2-4a13-89be-11ffd776b74c","ios":"levelo://app?vid=6327b9e4-b2d2-4a13-89be-11ffd776b74c"},"vehicle_type_id":"4","last_reported":1761340160,"current_range_meters":14000,"station_id":"ce4bh412rcd13ifvqds0","pricing_plan_id":"cebpf4jnsgd1na2vs0mg"},{"bike_id":"ebc921f4-239b-4911-b486-99beb17742c9","system_id":"levelo_inurba_marseille","lat":43.28457,"lon":5.35897,"is_reserved":false,"is_disabled":false,"rental_uris":{"android":"levelo://app?vid=ebc921f4-239b-4911-b486-99beb17742c9","ios":"levelo://app?vid=ebc921f4-239b-4911-b486-99beb17742c9"},"vehicle_type_id":"4","last_reported":1761340160,"current_range_meters":14000,"station_id":"ce4bhah2rcd13ifvqei0","pricing_plan_id":"cebpf4jnsgd1na2vs0mg"},{"bike_id":"4f5c5045-2f2c-4ab7-ad8b-eeba1d52fe66","system_id":"levelo_inurba_marseille","lat":43.31077,"lon":5.37456,"is_reserved":false,"is_disabled":false,"rental_uris":{"android":"levelo://app?vid=4f5c5045-2f2c-4ab7-ad8b-eeba1d52fe66","ios":"levelo://app?vid=4f5c5045-2f2c-4ab7-ad8b-eeba1d52fe66"},"vehicle_type_id":"4","last_reported":1761340160,"current_range_meters":14000,"station_id":"","pricing_plan_id":"cebpf4jnsgd1na2vs0mg"},{"bike_id":"99d8ad13-b3e2-486c-a4da-6416dad63dfd","system_id":"levelo_inurba_marseille","lat":43.30601,"lon":5.39359,"is_reserved":false,"is_disabled":false,"rental_uris":{"android":"levelo://app?vid=99d8ad13-b3e2-486c-a4da-6416dad63dfd","ios":"levelo://app?vid=99d8ad13-b3e2-486c-a4da-6416dad63dfd"},"vehicle_type_id":"4","last_reported":1761340160,"current_range_meters":14000,"station_id":"ce4bh0p2rcd13ifvqd80","pricing_plan_id":"cebpf4jnsgd1na2vs0mg"},{"bike_id":"e94f57f2-601c-4cad-a187-6e953770aa25","system_id":"levelo_inurba_marseille","lat":43.312346,"lon":5.3788,"is_reserved":false,"is_disabled":false,"rental_uris":{"android":"levelo://app?vid=e94f57f2-601c-4cad-a187-6e953770aa25","ios":"levelo://app?vid=e94f57f2-601c-4cad-a187-6e953770aa25"},"vehicle_type_id":"4","last_reported":1761340160,"current_range_meters":14000,"station_id":"","pricing_plan_id":"cebpf4jnsgd1na2vs0mg"},{"bike_id":"fb7b5adf-91f4-4a05-ace2-e594ea9c65a7","system_id":"levelo_inurba_marseille","lat":43.28711,"lon":5.37398,"is_reserved":false,"is_disabled":false,"rental_uris":{"android":"levelo://app?vid=fb7b5adf-91f4-4a05-ace2-e594ea9c65a7","ios":"levelo://app?vid=fb7b5adf-91f4-4a05-ace2-e594ea9c65a7"},"vehicle_type_id":"4","last_reported":1761340160,"current_range_meters":14000,"station_id":"ce4bh3p2rcd13ifvqdq0","pricing_plan_id":"cebpf4jnsgd1na2vs0mg"},{"bike_id":"05f559a3-5da7-4e74-8bce-f659c1346206","system_id":"levelo_inurba_marseille","lat":43.29895,"lon":5.38272,"is_reserved":false,"is_disabled":false,"rental_uris":{"android":"levelo://app?vid=05f559a3-5da7-4e74-8bce-f659c1346206","ios":"levelo://app?vid=05f559a3-5da7-4e74-8bce-f659c1346206"},"vehicle_type_id":"4","last_reported":1761340160,"current_range_meters":14000,"station_id":"","pricing_plan_id":"cebpf4jnsgd1na2vs0mg"},{"bike_id":"f408db4f-6b3a-41bc-9c04-ab7161617b90","system_id":"levelo_inurba_marseille","lat":43.30247,"lon":5.40046,"is_reserved":false,"is_disabled":false,"rental_uris":{"android":"levelo://app?vid=f408db4f-6b3a-41bc-9c04-ab7161617b90","ios":"levelo://app?vid=f408db4f-6b3a-41bc-9c04-ab7161617b90"},"vehicle_type_id":"4","last_reported":1761340160,"current_range_meters":14000,"station_id":"ce4bgvh2rcd13ifvqcs0","pricing_plan_id":"cebpf4jnsgd1na2vs0mg"},{"bike_id":"8b8d65ea-fb87-4839-8561-8cfd0b31a059","system_id":"levelo_inurba_marseille","lat":43.2846,"lon":5.384,"is_reserved":false,"is_disabled":false,"rental_uris":{"android":"levelo://app?vid=8b8d65ea-fb87-4839-8561-8cfd0b31a059","ios":"levelo://app?vid=8b8d65ea-fb87-4839-8561-8cfd0b31a059"},"vehicle_type_id":"4","last_reported":1761340160,"current_range_meters":14400,"station_id":"ce4bh512rcd13ifvqe3g","pricing_plan_id":"cebpf4jnsgd1na2vs0mg"},{"bike_id":"4ae5346f-e85d-4e10-8e9b-ba6d1ad3423f","system_id":"levelo_inurba_marseille","lat":43.31269,"lon":5.40175,"is_reserved":false,"is_disabled":false,"rental_uris":{"android":"levelo://app?vid=4ae5346f-e85d-4e10-8e9b-ba6d1ad3423f","ios":"levelo://app?vid=4ae5346f-e85d-4e10-8e9b-ba6d1ad3423f"},"vehicle_type_id":"4","last_reported":1761340160,"current_range_meters":14400,"station_id":"ce4bh092rcd13ifvqd30","pricing_plan_id":"cebpf4jnsgd1na2vs0mg"},{"bike_id":"20280dd5-845b-4043-9b48-028211795bac","system_id":"levelo_inurba_marseille","lat":43.29256,"lon":5.3843,"is_reserved":false,"is_disabled":false,"rental_uris":{"android":"levelo://app?vid=20280dd5-845b-4043-9b48-028211795bac","ios":"levelo://app?vid=20280dd5-845b-4043-9b48-028211795bac"},"vehicle_type_id":"4","last_reported":1761340160,"current_range_meters":14400,"station_id":"ce4bh692rcd13ifvqea0","pricing_plan_id":"cebpf4jnsgd1na2vs0mg"},{"bike_id":"b9d9859a-08d8-4883-9698-e5965c5b2806","system_id":"levelo_inurba_marseille","lat":43.256742,"lon":5.409788,"is_reserved":false,"is_disabled":false,"rental_uris":{"android":"levelo://app?vid=b9d9859a-08d8-4883-9698-e5965c5b2806","ios":"levelo://app?vid=b9d9859a-08d8-4883-9698-e5965c5b2806"},"vehicle_type_id":"4","last_reported":1761340160,"current_range_meters":14400,"station_id":"ce4bhkp2rcd13ifvqgd0","pricing_plan_id":"cebpf4jnsgd1na2vs0mg"},{"bike_id":"b3a2666e-fc1c-40b5-b985-91453d146c86","system_id":"levelo_inurba_marseille","lat":43.24621,"lon":5.43151,"is_reserved":false,"is_disabled":false,"rental_uris":{"android":"levelo://app?vid=b3a2666e-fc1c-40b5-b985-91453d146c86","ios":"levelo://app?vid=b3a2666e-fc1c-40b5-b985-91453d146c86"},"vehicle_type_id":"4","last_reported":1761340160,"current_range_meters":14400,"station_id":"st_d2m6c4gdas8pm72e190g","pricing_plan_id":"cebpf4jnsgd1na2vs0mg"},{"bike_id":"301d2b25-cc39-40bd-8ab2-f142afcdba70","system_id":"levelo_inurba_marseille","lat":43.284101,"lon":5.37494,"is_reserved":false,"is_disabled":false,"rental_uris":{"android":"levelo://app?vid=301d2b25-cc39-40bd-8ab2-f142afcdba70","ios":"levelo://app?vid=301d2b25-cc39-40bd-8ab2-f142afcdba70"},"vehicle_type_id":"4","last_reported":1761340160,"current_range_meters":14800,"station_id":"ce4bh412rcd13ifvqds0","pricing_plan_id":"cebpf4jnsgd1na2vs0mg"},{"bike_id":"69599b97-b573-4868-ae16-9bda40c9248f","system_id":"levelo_inurba_marseille","lat":43.21194,"lon":5.3506,"is_reserved":false,"is_disabled":false,"rental_uris":{"android":"levelo://app?vid=69599b97-b573-4868-ae16-9bda40c9248f","ios":"levelo://app?vid=69599b97-b573-4868-ae16-9bda40c9248f"},"vehicle_type_id":"4","last_reported":1761340160,"current_range_meters":14800,"station_id":"st_cvj6sg6p6f1abm77japg","pricing_plan_id":"cebpf4jnsgd1na2vs0mg"},{"bike_id":"353c32f0-715d-400e-9949-bcac114e53d9","system_id":"levelo_inurba_marseille","lat":43.23199,"lon":5.35552,"is_reserved":false,"is_disabled":false,"rental_uris":{"android":"levelo://app?vid=353c32f0-715d-400e-9949-bcac114e53d9","ios":"levelo://app?vid=353c32f0-715d-400e-9949-bcac114e53d9"},"vehicle_type_id":"4","last_reported":1761340160,"current_range_meters":14800,"station_id":"ce4bhu92rcd13ifvqi70","pricing_plan_id":"cebpf4jnsgd1na2vs0mg"},{"bike_id":"b9c8ced1-4ad2-4529-8b78-c6503294316b","system_id":"levelo_inurba_marseille","lat":43.302179,"lon":5.394717,"is_reserved":false,"is_disabled":false,"rental_uris":{"android":"levelo://app?vid=b9c8ced1-4ad2-4529-8b78-c6503294316b","ios":"levelo://app?vid=b9c8ced1-4ad2-4529-8b78-c6503294316b"},"vehicle_type_id":"4","last_reported":1761340160,"current_range_meters":14800,"station_id":"","pricing_plan_id":"cebpf4jnsgd1na2vs0mg"},{"bike_id":"db538fcf-3842-41b6-a98e-d8b4a6da20a0","system_id":"levelo_inurba_marseille","lat":43.28029,"lon":5.36941,"is_reserved":false,"is_disabled":false,"rental_uris":{"android":"levelo://app?vid=db538fcf-3842-41b6-a98e-d8b4a6da20a0","ios":"levelo://app?vid=db538fcf-3842-41b6-a98e-d8b4a6da20a0"},"vehicle_type_id":"4","last_reported":1761340160,"current_range_meters":14800,"station_id":"ce4bha12rcd13ifvqef0","pricing_plan_id":"cebpf4jnsgd1na2vs0mg"},{"bike_id":"6c53345d-26f0-467f-bdf3-2b922c99cbb7","system_id":"levelo_inurba_marseille","lat":43.29552,"lon":5.38566,"is_reserved":false,"is_disabled":false,"rental_uris":{"android":"levelo://app?vid=6c53345d-26f0-467f-bdf3-2b922c99cbb7","ios":"levelo://app?vid=6c53345d-26f0-467f-bdf3-2b922c99cbb7"},"vehicle_type_id":"4","last_reported":1761340160,"current_range_meters":14800,"station_id":"ce4bgih2rcd13ifvqba0","pricing_plan_id":"cebpf4jnsgd1na2vs0mg"},{"bike_id":"aadbd845-2a71-4eef-8f22-930b38cc907c","system_id":"levelo_inurba_marseille","lat":43.29241,"lon":5.38449,"is_reserved":false,"is_disabled":false,"rental_uris":{"android":"levelo://app?vid=aadbd845-2a71-4eef-8f22-930b38cc907c","ios":"levelo://app?vid=aadbd845-2a71-4eef-8f22-930b38cc907c"},"vehicle_type_id":"4","last_reported":1761340160,"current_range_meters":14800,"station_id":"ce4bh692rcd13ifvqea0","pricing_plan_id":"cebpf4jnsgd1na2vs0mg"},{"bike_id":"ce3f5657-4611-43f1-9f1f-839a5631b971","system_id":"levelo_inurba_marseille","lat":43.29541,"lon":5.38548,"is_reserved":false,"is_disabled":false,"rental_uris":{"android":"levelo://app?vid=ce3f5657-4611-43f1-9f1f-839a5631b971","ios":"levelo://app?vid=ce3f5657-4611-43f1-9f1f-839a5631b971"},"vehicle_type_id":"4","last_reported":1761340160,"current_range_meters":14800,"station_id":"ce4bgih2rcd13ifvqba0","pricing_plan_id":"cebpf4jnsgd1na2vs0mg"},{"bike_id":"1f80a556-1605-48e2-ab7b-62e4ef545bfb","system_id":"levelo_inurba_marseille","lat":43.29543,"lon":5.38546,"is_reserved":false,"is_disabled":false,"rental_uris":{"android":"levelo://app?vid=1f80a556-1605-48e2-ab7b-62e4ef545bfb","ios":"levelo://app?vid=1f80a556-1605-48e2-ab7b-62e4ef545bfb"},"vehicle_type_id":"4","last_reported":1761340160,"current_range_meters":14800,"station_id":"ce4bgih2rcd13ifvqba0","pricing_plan_id":"cebpf4jnsgd1na2vs0mg"},{"bike_id":"a7f11d08-358d-4175-ae4c-11718eec7509","system_id":"levelo_inurba_marseille","lat":43.24409,"lon":5.37053,"is_reserved":false,"is_disabled":false,"rental_uris":{"android":"levelo://app?vid=a7f11d08-358d-4175-ae4c-11718eec7509","ios":"levelo://app?vid=a7f11d08-358d-4175-ae4c-11718eec7509"},"vehicle_type_id":"4","last_reported":1761340160,"current_range_meters":15200,"station_id":"ce4bhhh2rcd13ifvqfk0","pricing_plan_id":"cebpf4jnsgd1na2vs0mg"},{"bike_id":"5c0e1fad-1092-45f4-930f-73335d46d836","system_id":"levelo_inurba_marseille","lat":43.29797,"lon":5.381039,"is_reserved":false,"is_disabled":true,"rental_uris":{"android":"levelo://app?vid=5c0e1fad-1092-45f4-930f-73335d46d836","ios":"levelo://app?vid=5c0e1fad-1092-45f4-930f-73335d46d836"},"vehicle_type_id":"4","last_reported":1761340160,"current_range_meters":15200,"station_id":"ce4bgip2rcd13ifvqbb0","pricing_plan_id":"cebpf4jnsgd1na2vs0mg"},{"bike_id":"4b85c1e4-dca2-4165-bced-2e12570a4888","system_id":"levelo_inurba_marseille","lat":43.28703,"lon":5.37381,"is_reserved":false,"is_disabled":false,"rental_uris":{"android":"levelo://app?vid=4b85c1e4-dca2-4165-bced-2e12570a4888","ios":"levelo://app?vid=4b85c1e4-dca2-4165-bced-2e12570a4888"},"vehicle_type_id":"4","last_reported":1761340160,"current_range_meters":15200,"station_id":"ce4bh3p2rcd13ifvqdq0","pricing_plan_id":"cebpf4jnsgd1na2vs0mg"},{"bike_id":"8be6a47c-9542-4fed-8109-f6d91a0f2b3f","system_id":"levelo_inurba_marseille","lat":43.29174,"lon":5.37161,"is_reserved":false,"is_disabled":false,"rental_uris":{"android":"levelo://app?vid=8be6a47c-9542-4fed-8109-f6d91a0f2b3f","ios":"levelo://app?vid=8be6a47c-9542-4fed-8109-f6d91a0f2b3f"},"vehicle_type_id":"4","last_reported":1761340160,"current_range_meters":15200,"station_id":"ce4bha92rcd13ifvqeh0","pricing_plan_id":"cebpf4jnsgd1na2vs0mg"},{"bike_id":"4a2047d2-d10b-4687-aeb9-416f71689c62","system_id":"levelo_inurba_marseille","lat":43.29523,"lon":5.38535,"is_reserved":false,"is_disabled":false,"rental_uris":{"android":"levelo://app?vid=4a2047d2-d10b-4687-aeb9-416f71689c62","ios":"levelo://app?vid=4a2047d2-d10b-4687-aeb9-416f71689c62"},"vehicle_type_id":"4","last_reported":1761340160,"current_range_meters":15200,"station_id":"ce4bgih2rcd13ifvqba0","pricing_plan_id":"cebpf4jnsgd1na2vs0mg"},{"bike_id":"75eebb0f-2447-4bf8-b846-45b5b359059b","system_id":"levelo_inurba_marseille","lat":43.33769,"lon":5.37496,"is_reserved":false,"is_disabled":false,"rental_uris":{"android":"levelo://app?vid=75eebb0f-2447-4bf8-b846-45b5b359059b","ios":"levelo://app?vid=75eebb0f-2447-4bf8-b846-45b5b359059b"},"vehicle_type_id":"4","last_reported":1761340160,"current_range_meters":15200,"station_id":"","pricing_plan_id":"cebpf4jnsgd1na2vs0mg"},{"bike_id":"fe42101e-c115-41a3-a6a7-5a069fb0c597","system_id":"levelo_inurba_marseille","lat":43.2587,"lon":5.39906,"is_reserved":false,"is_disabled":false,"rental_uris":{"android":"levelo://app?vid=fe42101e-c115-41a3-a6a7-5a069fb0c597","ios":"levelo://app?vid=fe42101e-c115-41a3-a6a7-5a069fb0c597"},"vehicle_type_id":"4","last_reported":1761340160,"current_range_meters":16000,"station_id":"ce4bhl92rcd13ifvqghg","pricing_plan_id":"cebpf4jnsgd1na2vs0mg"},{"bike_id":"50efd437-bab1-4b68-a6a9-8b871fbca9d7","system_id":"levelo_inurba_marseille","lat":43.26226,"lon":5.40452,"is_reserved":false,"is_disabled":false,"rental_uris":{"android":"levelo://app?vid=50efd437-bab1-4b68-a6a9-8b871fbca9d7","ios":"levelo://app?vid=50efd437-bab1-4b68-a6a9-8b871fbca9d7"},"vehicle_type_id":"4","last_reported":1761340160,"current_range_meters":16000,"station_id":"ce4bhmh2rcd13ifvqgmg","pricing_plan_id":"cebpf4jnsgd1na2vs0mg"},{"bike_id":"9d964ec4-c537-4f1d-b21c-451d3f46b1bf","system_id":"levelo_inurba_marseille","lat":43.299132,"lon":5.378386,"is_reserved":false,"is_disabled":false,"rental_uris":{"android":"levelo://app?vid=9d964ec4-c537-4f1d-b21c-451d3f46b1bf","ios":"levelo://app?vid=9d964ec4-c537-4f1d-b21c-451d3f46b1bf"},"vehicle_type_id":"4","last_reported":1761340160,"current_range_meters":16000,"station_id":"","pricing_plan_id":"cebpf4jnsgd1na2vs0mg"},{"bike_id":"a2b7b42c-99ef-4248-b343-c83b4ee2ce18","system_id":"levelo_inurba_marseille","lat":43.32475,"lon":5.36569,"is_reserved":false,"is_disabled":false,"rental_uris":{"android":"levelo://app?vid=a2b7b42c-99ef-4248-b343-c83b4ee2ce18","ios":"levelo://app?vid=a2b7b42c-99ef-4248-b343-c83b4ee2ce18"},"vehicle_type_id":"4","last_reported":1761340160,"current_range_meters":16000,"station_id":"ce4bhs12rcd13ifvqhvg","pricing_plan_id":"cebpf4jnsgd1na2vs0mg"},{"bike_id":"632793aa-6415-470e-89c1-bab3c7949ed8","system_id":"levelo_inurba_marseille","lat":43.267952,"lon":5.394055,"is_reserved":false,"is_disabled":false,"rental_uris":{"android":"levelo://app?vid=632793aa-6415-470e-89c1-bab3c7949ed8","ios":"levelo://app?vid=632793aa-6415-470e-89c1-bab3c7949ed8"},"vehicle_type_id":"4","last_reported":1761340160,"current_range_meters":16400,"station_id":"ce4bhh12rcd13ifvqfg0","pricing_plan_id":"cebpf4jnsgd1na2vs0mg"},{"bike_id":"6861ce85-77a9-4d2e-a905-a525940c7a22","system_id":"levelo_inurba_marseille","lat":43.24668,"lon":5.38165,"is_reserved":false,"is_disabled":false,"rental_uris":{"android":"levelo://app?vid=6861ce85-77a9-4d2e-a905-a525940c7a22","ios":"levelo://app?vid=6861ce85-77a9-4d2e-a905-a525940c7a22"},"vehicle_type_id":"4","last_reported":1761340160,"current_range_meters":16400,"station_id":"ce4bhih2rcd13ifvqfr0","pricing_plan_id":"cebpf4jnsgd1na2vs0mg"},{"bike_id":"72595d14-8f84-4de5-a9ab-f8151c131960","system_id":"levelo_inurba_marseille","lat":43.2295,"lon":5.35369,"is_reserved":false,"is_disabled":false,"rental_uris":{"android":"levelo://app?vid=72595d14-8f84-4de5-a9ab-f8151c131960","ios":"levelo://app?vid=72595d14-8f84-4de5-a9ab-f8151c131960"},"vehicle_type_id":"4","last_reported":1761340160,"current_range_meters":16400,"station_id":"cpo3532slgdg3j2ikp40","pricing_plan_id":"cebpf4jnsgd1na2vs0mg"},{"bike_id":"85831b0c-ac03-4a31-ad4b-6acd383c62ca","system_id":"levelo_inurba_marseille","lat":43.27714,"lon":5.38892,"is_reserved":false,"is_disabled":false,"rental_uris":{"android":"levelo://app?vid=85831b0c-ac03-4a31-ad4b-6acd383c62ca","ios":"levelo://app?vid=85831b0c-ac03-4a31-ad4b-6acd383c62ca"},"vehicle_type_id":"4","last_reported":1761340160,"current_range_meters":16400,"station_id":"ce4bhi12rcd13ifvqfo0","pricing_plan_id":"cebpf4jnsgd1na2vs0mg"},{"bike_id":"a5a42001-a999-4c53-87da-871c1215e1b6","system_id":"levelo_inurba_marseille","lat":43.309583,"lon":5.390315,"is_reserved":false,"is_disabled":false,"rental_uris":{"android":"levelo://app?vid=a5a42001-a999-4c53-87da-871c1215e1b6","ios":"levelo://app?vid=a5a42001-a999-4c53-87da-871c1215e1b6"},"vehicle_type_id":"4","last_reported":1761340160,"current_range_meters":16400,"station_id":"ce4bgup2rcd13ifvqco0","pricing_plan_id":"cebpf4jnsgd1na2vs0mg"},{"bike_id":"fef40594-8de0-44aa-a3c1-2116955da244","system_id":"levelo_inurba_marseille","lat":43.26179,"lon":5.41703,"is_reserved":false,"is_disabled":false,"rental_uris":{"android":"levelo://app?vid=fef40594-8de0-44aa-a3c1-2116955da244","ios":"levelo://app?vid=fef40594-8de0-44aa-a3c1-2116955da244"},"vehicle_type_id":"4","last_reported":1761340160,"current_range_meters":16400,"station_id":"","pricing_plan_id":"cebpf4jnsgd1na2vs0mg"},{"bike_id":"bc01ea42-6ef5-4cf9-a9cb-2f364133a2a9","system_id":"levelo_inurba_marseille","lat":43.29593,"lon":5.38091,"is_reserved":false,"is_disabled":false,"rental_uris":{"android":"levelo://app?vid=bc01ea42-6ef5-4cf9-a9cb-2f364133a2a9","ios":"levelo://app?vid=bc01ea42-6ef5-4cf9-a9cb-2f364133a2a9"},"vehicle_type_id":"4","last_reported":1761340160,"current_range_meters":16400,"station_id":"ce4bgl12rcd13ifvqbo0","pricing_plan_id":"cebpf4jnsgd1na2vs0mg"},{"bike_id":"3b8de712-674e-460d-ab5a-d5ef3049f003","system_id":"levelo_inurba_marseille","lat":43.25815,"lon":5.39423,"is_reserved":false,"is_disabled":false,"rental_uris":{"android":"levelo://app?vid=3b8de712-674e-460d-ab5a-d5ef3049f003","ios":"levelo://app?vid=3b8de712-674e-460d-ab5a-d5ef3049f003"},"vehicle_type_id":"4","last_reported":1761340160,"current_range_meters":16400,"station_id":"ce4bhip2rcd13ifvqft0","pricing_plan_id":"cebpf4jnsgd1na2vs0mg"},{"bike_id":"8bb9b9b2-ef61-4380-9454-94dba01fa5e4","system_id":"levelo_inurba_marseille","lat":43.30125,"lon":5.38785,"is_reserved":false,"is_disabled":true,"rental_uris":{"android":"levelo://app?vid=8bb9b9b2-ef61-4380-9454-94dba01fa5e4","ios":"levelo://app?vid=8bb9b9b2-ef61-4380-9454-94dba01fa5e4"},"vehicle_type_id":"4","last_reported":1761340160,"current_range_meters":16800,"station_id":"ce4bghh2rcd13ifvqb60","pricing_plan_id":"cebpf4jnsgd1na2vs0mg"},{"bike_id":"9a8863dc-9661-4b1b-a54c-df3ea878c924","system_id":"levelo_inurba_marseille","lat":43.2979,"lon":5.37901,"is_reserved":false,"is_disabled":false,"rental_uris":{"android":"levelo://app?vid=9a8863dc-9661-4b1b-a54c-df3ea878c924","ios":"levelo://app?vid=9a8863dc-9661-4b1b-a54c-df3ea878c924"},"vehicle_type_id":"4","last_reported":1761340160,"current_range_meters":16800,"station_id":"","pricing_plan_id":"cebpf4jnsgd1na2vs0mg"},{"bike_id":"cbb53ea8-ecc6-4601-9225-bfb82ba8b303","system_id":"levelo_inurba_marseille","lat":43.295573,"lon":5.385437,"is_reserved":false,"is_disabled":false,"rental_uris":{"android":"levelo://app?vid=cbb53ea8-ecc6-4601-9225-bfb82ba8b303","ios":"levelo://app?vid=cbb53ea8-ecc6-4601-9225-bfb82ba8b303"},"vehicle_type_id":"4","last_reported":1761340160,"current_range_meters":16800,"station_id":"ce4bgih2rcd13ifvqba0","pricing_plan_id":"cebpf4jnsgd1na2vs0mg"},{"bike_id":"b6559af0-e31e-415b-92a3-0988f7fc43ef","system_id":"levelo_inurba_marseille","lat":43.284141,"lon":5.375172,"is_reserved":false,"is_disabled":true,"rental_uris":{"android":"levelo://app?vid=b6559af0-e31e-415b-92a3-0988f7fc43ef","ios":"levelo://app?vid=b6559af0-e31e-415b-92a3-0988f7fc43ef"},"vehicle_type_id":"4","last_reported":1761340160,"current_range_meters":16800,"station_id":"","pricing_plan_id":"cebpf4jnsgd1na2vs0mg"},{"bike_id":"cd510e37-9078-40a8-91e5-9a2c8d62ac8a","system_id":"levelo_inurba_marseille","lat":43.2902,"lon":5.3864,"is_reserved":false,"is_disabled":true,"rental_uris":{"android":"levelo://app?vid=cd510e37-9078-40a8-91e5-9a2c8d62ac8a","ios":"levelo://app?vid=cd510e37-9078-40a8-91e5-9a2c8d62ac8a"},"vehicle_type_id":"4","last_reported":1761340160,"current_range_meters":16800,"station_id":"ce4bh4p2rcd13ifvqe0g","pricing_plan_id":"cebpf4jnsgd1na2vs0mg"},{"bike_id":"baa7c676-2968-42b3-9fe2-0fd98d8fdef8","system_id":"levelo_inurba_marseille","lat":43.29295,"lon":5.37165,"is_reserved":false,"is_disabled":false,"rental_uris":{"android":"levelo://app?vid=baa7c676-2968-42b3-9fe2-0fd98d8fdef8","ios":"levelo://app?vid=baa7c676-2968-42b3-9fe2-0fd98d8fdef8"},"vehicle_type_id":"4","last_reported":1761340160,"current_range_meters":16800,"station_id":"ce4bgh92rcd13ifvqb40","pricing_plan_id":"cebpf4jnsgd1na2vs0mg"},{"bike_id":"51d9e225-6bf4-4cb5-9328-b8a3b72bdac2","system_id":"levelo_inurba_marseille","lat":43.33046,"lon":5.39002,"is_reserved":false,"is_disabled":false,"rental_uris":{"android":"levelo://app?vid=51d9e225-6bf4-4cb5-9328-b8a3b72bdac2","ios":"levelo://app?vid=51d9e225-6bf4-4cb5-9328-b8a3b72bdac2"},"vehicle_type_id":"4","last_reported":1761340160,"current_range_meters":16800,"station_id":"ce4bhr92rcd13ifvqhrg","pricing_plan_id":"cebpf4jnsgd1na2vs0mg"},{"bike_id":"fc89f734-81cc-4172-87b4-aeeb6b9ffa3a","system_id":"levelo_inurba_marseille","lat":43.29603,"lon":5.38091,"is_reserved":false,"is_disabled":false,"rental_uris":{"android":"levelo://app?vid=fc89f734-81cc-4172-87b4-aeeb6b9ffa3a","ios":"levelo://app?vid=fc89f734-81cc-4172-87b4-aeeb6b9ffa3a"},"vehicle_type_id":"4","last_reported":1761340160,"current_range_meters":16800,"station_id":"ce4bgl12rcd13ifvqbo0","pricing_plan_id":"cebpf4jnsgd1na2vs0mg"},{"bike_id":"386a9c87-6707-4c56-9410-3952ef242f20","system_id":"levelo_inurba_marseille","lat":43.24089,"lon":5.3774,"is_reserved":false,"is_disabled":false,"rental_uris":{"android":"levelo://app?vid=386a9c87-6707-4c56-9410-3952ef242f20","ios":"levelo://app?vid=386a9c87-6707-4c56-9410-3952ef242f20"},"vehicle_type_id":"4","last_reported":1761340160,"current_range_meters":17200,"station_id":"ce4bhnp2rcd13ifvqgvg","pricing_plan_id":"cebpf4jnsgd1na2vs0mg"},{"bike_id":"4b9ea996-45d6-4c99-b9ff-af19c6118599","system_id":"levelo_inurba_marseille","lat":43.30543,"lon":5.36515,"is_reserved":false,"is_disabled":true,"rental_uris":{"android":"levelo://app?vid=4b9ea996-45d6-4c99-b9ff-af19c6118599","ios":"levelo://app?vid=4b9ea996-45d6-4c99-b9ff-af19c6118599"},"vehicle_type_id":"4","last_reported":1761340160,"current_range_meters":17200,"station_id":"ce4bgs12rcd13ifvqcag","pricing_plan_id":"cebpf4jnsgd1na2vs0mg"},{"bike_id":"24cfc436-45dc-46a2-985d-807a2fe4f4af","system_id":"levelo_inurba_marseille","lat":43.29602,"lon":5.38101,"is_reserved":false,"is_disabled":false,"rental_uris":{"android":"levelo://app?vid=24cfc436-45dc-46a2-985d-807a2fe4f4af","ios":"levelo://app?vid=24cfc436-45dc-46a2-985d-807a2fe4f4af"},"vehicle_type_id":"4","last_reported":1761340160,"current_range_meters":17200,"station_id":"ce4bgl12rcd13ifvqbo0","pricing_plan_id":"cebpf4jnsgd1na2vs0mg"},{"bike_id":"d4f34596-cd96-4004-af96-068144e0795b","system_id":"levelo_inurba_marseille","lat":43.30685,"lon":5.42239,"is_reserved":false,"is_disabled":false,"rental_uris":{"android":"levelo://app?vid=d4f34596-cd96-4004-af96-068144e0795b","ios":"levelo://app?vid=d4f34596-cd96-4004-af96-068144e0795b"},"vehicle_type_id":"4","last_reported":1761340160,"current_range_meters":17200,"station_id":"","pricing_plan_id":"cebpf4jnsgd1na2vs0mg"},{"bike_id":"8e92164c-deff-4fbd-9f4e-43ff81933572","system_id":"levelo_inurba_marseille","lat":43.29851,"lon":5.42008,"is_reserved":false,"is_disabled":false,"rental_uris":{"android":"levelo://app?vid=8e92164c-deff-4fbd-9f4e-43ff81933572","ios":"levelo://app?vid=8e92164c-deff-4fbd-9f4e-43ff81933572"},"vehicle_type_id":"4","last_reported":1761340160,"current_range_meters":17200,"station_id":"","pricing_plan_id":"cebpf4jnsgd1na2vs0mg"},{"bike_id":"86ccf30d-b0d9-4b12-9a3f-af50a6dfc731","system_id":"levelo_inurba_marseille","lat":43.31545,"lon":5.38789,"is_reserved":false,"is_disabled":false,"rental_uris":{"android":"levelo://app?vid=86ccf30d-b0d9-4b12-9a3f-af50a6dfc731","ios":"levelo://app?vid=86ccf30d-b0d9-4b12-9a3f-af50a6dfc731"},"vehicle_type_id":"4","last_reported":1761340160,"current_range_meters":17200,"station_id":"","pricing_plan_id":"cebpf4jnsgd1na2vs0mg"},{"bike_id":"939d2a7d-787e-4d9f-9435-6c2fa9dc0c8e","system_id":"levelo_inurba_marseille","lat":43.2952,"lon":5.39041,"is_reserved":false,"is_disabled":true,"rental_uris":{"android":"levelo://app?vid=939d2a7d-787e-4d9f-9435-6c2fa9dc0c8e","ios":"levelo://app?vid=939d2a7d-787e-4d9f-9435-6c2fa9dc0c8e"},"vehicle_type_id":"4","last_reported":1761340160,"current_range_meters":17600,"station_id":"ce4bh3p2rcd13ifvqdp0","pricing_plan_id":"cebpf4jnsgd1na2vs0mg"},{"bike_id":"43117888-69d1-4bc6-a73a-697554e4a08e","system_id":"levelo_inurba_marseille","lat":43.2525,"lon":5.378,"is_reserved":false,"is_disabled":false,"rental_uris":{"android":"levelo://app?vid=43117888-69d1-4bc6-a73a-697554e4a08e","ios":"levelo://app?vid=43117888-69d1-4bc6-a73a-697554e4a08e"},"vehicle_type_id":"4","last_reported":1761340160,"current_range_meters":17600,"station_id":"","pricing_plan_id":"cebpf4jnsgd1na2vs0mg"},{"bike_id":"bfaea6f8-ccc6-44a7-83a6-9d7d9a7e60cc","system_id":"levelo_inurba_marseille","lat":43.26377,"lon":5.39766,"is_reserved":false,"is_disabled":false,"rental_uris":{"android":"levelo://app?vid=bfaea6f8-ccc6-44a7-83a6-9d7d9a7e60cc","ios":"levelo://app?vid=bfaea6f8-ccc6-44a7-83a6-9d7d9a7e60cc"},"vehicle_type_id":"4","last_reported":1761340160,"current_range_meters":17600,"station_id":"","pricing_plan_id":"cebpf4jnsgd1na2vs0mg"},{"bike_id":"c6bf17a2-1cba-4131-b0bf-7246c45f1814","system_id":"levelo_inurba_marseille","lat":43.29528,"lon":5.38543,"is_reserved":false,"is_disabled":false,"rental_uris":{"android":"levelo://app?vid=c6bf17a2-1cba-4131-b0bf-7246c45f1814","ios":"levelo://app?vid=c6bf17a2-1cba-4131-b0bf-7246c45f1814"},"vehicle_type_id":"4","last_reported":1761340160,"current_range_meters":17600,"station_id":"ce4bgih2rcd13ifvqba0","pricing_plan_id":"cebpf4jnsgd1na2vs0mg"},{"bike_id":"5e51b837-4cd9-49b3-b363-642e818f61a9","system_id":"levelo_inurba_marseille","lat":43.29958,"lon":5.38508,"is_reserved":false,"is_disabled":true,"rental_uris":{"android":"levelo://app?vid=5e51b837-4cd9-49b3-b363-642e818f61a9","ios":"levelo://app?vid=5e51b837-4cd9-49b3-b363-642e818f61a9"},"vehicle_type_id":"4","last_reported":1761340160,"current_range_meters":17600,"station_id":"ce4bgj92rcd13ifvqbd0","pricing_plan_id":"cebpf4jnsgd1na2vs0mg"},{"bike_id":"c91491a6-50b3-4a5f-8e6b-63afb7874f1f","system_id":"levelo_inurba_marseille","lat":43.28034,"lon":5.36933,"is_reserved":false,"is_disabled":false,"rental_uris":{"android":"levelo://app?vid=c91491a6-50b3-4a5f-8e6b-63afb7874f1f","ios":"levelo://app?vid=c91491a6-50b3-4a5f-8e6b-63afb7874f1f"},"vehicle_type_id":"4","last_reported":1761340160,"current_range_meters":17600,"station_id":"ce4bha12rcd13ifvqef0","pricing_plan_id":"cebpf4jnsgd1na2vs0mg"},{"bike_id":"ceb1a735-22e4-4031-8766-0e51478ab402","system_id":"levelo_inurba_marseille","lat":43.295369,"lon":5.385573,"is_reserved":false,"is_disabled":false,"rental_uris":{"android":"levelo://app?vid=ceb1a735-22e4-4031-8766-0e51478ab402","ios":"levelo://app?vid=ceb1a735-22e4-4031-8766-0e51478ab402"},"vehicle_type_id":"4","last_reported":1761340160,"current_range_meters":17600,"station_id":"","pricing_plan_id":"cebpf4jnsgd1na2vs0mg"},{"bike_id":"657454be-e67b-48c7-a17b-78c06eb8fc40","system_id":"levelo_inurba_marseille","lat":43.29248,"lon":5.3844,"is_reserved":false,"is_disabled":false,"rental_uris":{"android":"levelo://app?vid=657454be-e67b-48c7-a17b-78c06eb8fc40","ios":"levelo://app?vid=657454be-e67b-48c7-a17b-78c06eb8fc40"},"vehicle_type_id":"4","last_reported":1761340160,"current_range_meters":17600,"station_id":"ce4bh692rcd13ifvqea0","pricing_plan_id":"cebpf4jnsgd1na2vs0mg"},{"bike_id":"fd4f1d03-2045-4a0e-b6f1-69b47ef382ad","system_id":"levelo_inurba_marseille","lat":43.29803,"lon":5.40404,"is_reserved":false,"is_disabled":false,"rental_uris":{"android":"levelo://app?vid=fd4f1d03-2045-4a0e-b6f1-69b47ef382ad","ios":"levelo://app?vid=fd4f1d03-2045-4a0e-b6f1-69b47ef382ad"},"vehicle_type_id":"4","last_reported":1761340160,"current_range_meters":17600,"station_id":"ce4bh112rcd13ifvqd90","pricing_plan_id":"cebpf4jnsgd1na2vs0mg"},{"bike_id":"effc4a6a-9a91-4958-ad6b-7be55c02b098","system_id":"levelo_inurba_marseille","lat":43.278,"lon":5.37655,"is_reserved":false,"is_disabled":false,"rental_uris":{"android":"levelo://app?vid=effc4a6a-9a91-4958-ad6b-7be55c02b098","ios":"levelo://app?vid=effc4a6a-9a91-4958-ad6b-7be55c02b098"},"vehicle_type_id":"4","last_reported":1761340160,"current_range_meters":17600,"station_id":"","pricing_plan_id":"cebpf4jnsgd1na2vs0mg"},{"bike_id":"3919c403-ee31-4ef1-8703-3f1b723b3cc3","system_id":"levelo_inurba_marseille","lat":43.29034,"lon":5.3866,"is_reserved":false,"is_disabled":false,"rental_uris":{"android":"levelo://app?vid=3919c403-ee31-4ef1-8703-3f1b723b3cc3","ios":"levelo://app?vid=3919c403-ee31-4ef1-8703-3f1b723b3cc3"},"vehicle_type_id":"4","last_reported":1761340160,"current_range_meters":17600,"station_id":"ce4bh4p2rcd13ifvqe0g","pricing_plan_id":"cebpf4jnsgd1na2vs0mg"},{"bike_id":"27eb85a3-43a1-4018-8f2e-26f3576f8576","system_id":"levelo_inurba_marseille","lat":43.29536,"lon":5.38549,"is_reserved":false,"is_disabled":false,"rental_uris":{"android":"levelo://app?vid=27eb85a3-43a1-4018-8f2e-26f3576f8576","ios":"levelo://app?vid=27eb85a3-43a1-4018-8f2e-26f3576f8576"},"vehicle_type_id":"4","last_reported":1761340160,"current_range_meters":18000,"station_id":"ce4bgih2rcd13ifvqba0","pricing_plan_id":"cebpf4jnsgd1na2vs0mg"},{"bike_id":"41de598a-a632-4a33-b80a-169f4bafe9b8","system_id":"levelo_inurba_marseille","lat":43.3015,"lon":5.38095,"is_reserved":false,"is_disabled":false,"rental_uris":{"android":"levelo://app?vid=41de598a-a632-4a33-b80a-169f4bafe9b8","ios":"levelo://app?vid=41de598a-a632-4a33-b80a-169f4bafe9b8"},"vehicle_type_id":"4","last_reported":1761340160,"current_range_meters":18000,"station_id":"ce4bgjp2rcd13ifvqbh0","pricing_plan_id":"cebpf4jnsgd1na2vs0mg"},{"bike_id":"3cfa595b-cff3-48e4-9ef0-78ef1b9568f9","system_id":"levelo_inurba_marseille","lat":43.29021,"lon":5.38118,"is_reserved":false,"is_disabled":true,"rental_uris":{"android":"levelo://app?vid=3cfa595b-cff3-48e4-9ef0-78ef1b9568f9","ios":"levelo://app?vid=3cfa595b-cff3-48e4-9ef0-78ef1b9568f9"},"vehicle_type_id":"4","last_reported":1761340160,"current_range_meters":18000,"station_id":"ce4bh4p2rcd13ifvqe1g","pricing_plan_id":"cebpf4jnsgd1na2vs0mg"},{"bike_id":"d03f3636-16e3-4275-8b6e-75e5a75cfef1","system_id":"levelo_inurba_marseille","lat":43.2655,"lon":5.37314,"is_reserved":false,"is_disabled":false,"rental_uris":{"android":"levelo://app?vid=d03f3636-16e3-4275-8b6e-75e5a75cfef1","ios":"levelo://app?vid=d03f3636-16e3-4275-8b6e-75e5a75cfef1"},"vehicle_type_id":"4","last_reported":1761340160,"current_range_meters":18000,"station_id":"ce4bhg12rcd13ifvqf70","pricing_plan_id":"cebpf4jnsgd1na2vs0mg"},{"bike_id":"f7e25065-4300-41a6-b960-635ff11b554d","system_id":"levelo_inurba_marseille","lat":43.287,"lon":5.39984,"is_reserved":false,"is_disabled":false,"rental_uris":{"android":"levelo://app?vid=f7e25065-4300-41a6-b960-635ff11b554d","ios":"levelo://app?vid=f7e25065-4300-41a6-b960-635ff11b554d"},"vehicle_type_id":"4","last_reported":1761340160,"current_range_meters":18000,"station_id":"ce4bho92rcd13ifvqh3g","pricing_plan_id":"cebpf4jnsgd1na2vs0mg"},{"bike_id":"fbc51a66-9f5b-4793-bf47-376ff7c8c289","system_id":"levelo_inurba_marseille","lat":43.21207,"lon":5.35074,"is_reserved":false,"is_disabled":false,"rental_uris":{"android":"levelo://app?vid=fbc51a66-9f5b-4793-bf47-376ff7c8c289","ios":"levelo://app?vid=fbc51a66-9f5b-4793-bf47-376ff7c8c289"},"vehicle_type_id":"4","last_reported":1761340160,"current_range_meters":18000,"station_id":"st_cvj6sg6p6f1abm77japg","pricing_plan_id":"cebpf4jnsgd1na2vs0mg"},{"bike_id":"8c35a7e4-8378-4fdf-b42f-02e88b6199ca","system_id":"levelo_inurba_marseille","lat":43.321064,"lon":5.367704,"is_reserved":false,"is_disabled":false,"rental_uris":{"android":"levelo://app?vid=8c35a7e4-8378-4fdf-b42f-02e88b6199ca","ios":"levelo://app?vid=8c35a7e4-8378-4fdf-b42f-02e88b6199ca"},"vehicle_type_id":"4","last_reported":1761340160,"current_range_meters":18000,"station_id":"ce4bhrh2rcd13ifvqhug","pricing_plan_id":"cebpf4jnsgd1na2vs0mg"},{"bike_id":"6c88c31c-32e8-4d98-9be2-8fdc000ea9ed","system_id":"levelo_inurba_marseille","lat":43.29257,"lon":5.40902,"is_reserved":false,"is_disabled":false,"rental_uris":{"android":"levelo://app?vid=6c88c31c-32e8-4d98-9be2-8fdc000ea9ed","ios":"levelo://app?vid=6c88c31c-32e8-4d98-9be2-8fdc000ea9ed"},"vehicle_type_id":"4","last_reported":1761340160,"current_range_meters":18000,"station_id":"ce4bh192rcd13ifvqdc0","pricing_plan_id":"cebpf4jnsgd1na2vs0mg"},{"bike_id":"458107a7-53d2-4726-8b93-21f76aa76884","system_id":"levelo_inurba_marseille","lat":43.27807,"lon":5.39574,"is_reserved":false,"is_disabled":false,"rental_uris":{"android":"levelo://app?vid=458107a7-53d2-4726-8b93-21f76aa76884","ios":"levelo://app?vid=458107a7-53d2-4726-8b93-21f76aa76884"},"vehicle_type_id":"4","last_reported":1761340160,"current_range_meters":18000,"station_id":"","pricing_plan_id":"cebpf4jnsgd1na2vs0mg"},{"bike_id":"b2fb0310-f65c-4e1a-b8ea-d396fbff6536","system_id":"levelo_inurba_marseille","lat":43.28943,"lon":5.36386,"is_reserved":false,"is_disabled":false,"rental_uris":{"android":"levelo://app?vid=b2fb0310-f65c-4e1a-b8ea-d396fbff6536","ios":"levelo://app?vid=b2fb0310-f65c-4e1a-b8ea-d396fbff6536"},"vehicle_type_id":"4","last_reported":1761340160,"current_range_meters":18000,"station_id":"ce4bhc92rcd13ifvqetg","pricing_plan_id":"cebpf4jnsgd1na2vs0mg"},{"bike_id":"dab36927-4328-48fa-bffb-145a737de07e","system_id":"levelo_inurba_marseille","lat":43.307906,"lon":5.43514,"is_reserved":false,"is_disabled":true,"rental_uris":{"android":"levelo://app?vid=dab36927-4328-48fa-bffb-145a737de07e","ios":"levelo://app?vid=dab36927-4328-48fa-bffb-145a737de07e"},"vehicle_type_id":"4","last_reported":1761340160,"current_range_meters":18800,"station_id":"ce4bhph2rcd13ifvqheg","pricing_plan_id":"cebpf4jnsgd1na2vs0mg"},{"bike_id":"36ef565d-595c-4fe5-832e-9069968fcd08","system_id":"levelo_inurba_marseille","lat":43.32521,"lon":5.41396,"is_reserved":false,"is_disabled":true,"rental_uris":{"android":"levelo://app?vid=36ef565d-595c-4fe5-832e-9069968fcd08","ios":"levelo://app?vid=36ef565d-595c-4fe5-832e-9069968fcd08"},"vehicle_type_id":"4","last_reported":1761340160,"current_range_meters":18800,"station_id":"ce4bhq12rcd13ifvqhhg","pricing_plan_id":"cebpf4jnsgd1na2vs0mg"},{"bike_id":"68baa3d6-ffba-469a-881f-91767715a2a8","system_id":"levelo_inurba_marseille","lat":43.29237,"lon":5.38452,"is_reserved":false,"is_disabled":false,"rental_uris":{"android":"levelo://app?vid=68baa3d6-ffba-469a-881f-91767715a2a8","ios":"levelo://app?vid=68baa3d6-ffba-469a-881f-91767715a2a8"},"vehicle_type_id":"4","last_reported":1761340160,"current_range_meters":18800,"station_id":"ce4bh692rcd13ifvqea0","pricing_plan_id":"cebpf4jnsgd1na2vs0mg"},{"bike_id":"fbe50a91-8778-42f9-a045-27c2c88ac2e7","system_id":"levelo_inurba_marseille","lat":43.29761,"lon":5.42774,"is_reserved":false,"is_disabled":false,"rental_uris":{"android":"levelo://app?vid=fbe50a91-8778-42f9-a045-27c2c88ac2e7","ios":"levelo://app?vid=fbe50a91-8778-42f9-a045-27c2c88ac2e7"},"vehicle_type_id":"4","last_reported":1761340160,"current_range_meters":18800,"station_id":"st_d3md5207bmas73dh9klg","pricing_plan_id":"cebpf4jnsgd1na2vs0mg"},{"bike_id":"71787e4e-d3cf-499c-936d-7a403f4f2fac","system_id":"levelo_inurba_marseille","lat":43.28423,"lon":5.37504,"is_reserved":false,"is_disabled":false,"rental_uris":{"android":"levelo://app?vid=71787e4e-d3cf-499c-936d-7a403f4f2fac","ios":"levelo://app?vid=71787e4e-d3cf-499c-936d-7a403f4f2fac"},"vehicle_type_id":"4","last_reported":1761340160,"current_range_meters":18800,"station_id":"ce4bh412rcd13ifvqds0","pricing_plan_id":"cebpf4jnsgd1na2vs0mg"},{"bike_id":"2d5419ca-8955-4cc2-bf16-13223323293b","system_id":"levelo_inurba_marseille","lat":43.26209,"lon":5.37426,"is_reserved":false,"is_disabled":true,"rental_uris":{"android":"levelo://app?vid=2d5419ca-8955-4cc2-bf16-13223323293b","ios":"levelo://app?vid=2d5419ca-8955-4cc2-bf16-13223323293b"},"vehicle_type_id":"4","last_reported":1761340160,"current_range_meters":18800,"station_id":"ce4bhgp2rcd13ifvqfc0","pricing_plan_id":"cebpf4jnsgd1na2vs0mg"},{"bike_id":"770b9891-d91e-466d-96d6-8ee93310baa6","system_id":"levelo_inurba_marseille","lat":43.28724,"lon":5.36086,"is_reserved":false,"is_disabled":false,"rental_uris":{"android":"levelo://app?vid=770b9891-d91e-466d-96d6-8ee93310baa6","ios":"levelo://app?vid=770b9891-d91e-466d-96d6-8ee93310baa6"},"vehicle_type_id":"4","last_reported":1761340160,"current_range_meters":18800,"station_id":"cki0cbj6b192h4jlfktg","pricing_plan_id":"cebpf4jnsgd1na2vs0mg"},{"bike_id":"bc805b80-3097-410f-b503-9e60f016e0de","system_id":"levelo_inurba_marseille","lat":43.272083,"lon":5.391916,"is_reserved":false,"is_disabled":true,"rental_uris":{"android":"levelo://app?vid=bc805b80-3097-410f-b503-9e60f016e0de","ios":"levelo://app?vid=bc805b80-3097-410f-b503-9e60f016e0de"},"vehicle_type_id":"4","last_reported":1761340160,"current_range_meters":18800,"station_id":"ce4bhhp2rcd13ifvqfm0","pricing_plan_id":"cebpf4jnsgd1na2vs0mg"},{"bike_id":"17aaae71-2293-4638-bf4b-4847e1bbd10a","system_id":"levelo_inurba_marseille","lat":43.29568,"lon":5.38514,"is_reserved":false,"is_disabled":false,"rental_uris":{"android":"levelo://app?vid=17aaae71-2293-4638-bf4b-4847e1bbd10a","ios":"levelo://app?vid=17aaae71-2293-4638-bf4b-4847e1bbd10a"},"vehicle_type_id":"4","last_reported":1761340160,"current_range_meters":18800,"station_id":"ce4bgih2rcd13ifvqba0","pricing_plan_id":"cebpf4jnsgd1na2vs0mg"},{"bike_id":"f37cdf44-8c92-4de6-b1c5-47c1c1719b37","system_id":"levelo_inurba_marseille","lat":43.29265,"lon":5.3844,"is_reserved":false,"is_disabled":false,"rental_uris":{"android":"levelo://app?vid=f37cdf44-8c92-4de6-b1c5-47c1c1719b37","ios":"levelo://app?vid=f37cdf44-8c92-4de6-b1c5-47c1c1719b37"},"vehicle_type_id":"4","last_reported":1761340160,"current_range_meters":18800,"station_id":"ce4bh692rcd13ifvqea0","pricing_plan_id":"cebpf4jnsgd1na2vs0mg"},{"bike_id":"0e1bcce9-3ff7-438e-8e0b-1883408e00bc","system_id":"levelo_inurba_marseille","lat":43.31162,"lon":5.3872,"is_reserved":false,"is_disabled":false,"rental_uris":{"android":"levelo://app?vid=0e1bcce9-3ff7-438e-8e0b-1883408e00bc","ios":"levelo://app?vid=0e1bcce9-3ff7-438e-8e0b-1883408e00bc"},"vehicle_type_id":"4","last_reported":1761340160,"current_range_meters":18800,"station_id":"ce4bgv12rcd13ifvqcp0","pricing_plan_id":"cebpf4jnsgd1na2vs0mg"},{"bike_id":"edd2c541-eaf2-4a50-a0de-142f364b01dc","system_id":"levelo_inurba_marseille","lat":43.31265,"lon":5.37749,"is_reserved":false,"is_disabled":false,"rental_uris":{"android":"levelo://app?vid=edd2c541-eaf2-4a50-a0de-142f364b01dc","ios":"levelo://app?vid=edd2c541-eaf2-4a50-a0de-142f364b01dc"},"vehicle_type_id":"4","last_reported":1761340160,"current_range_meters":19200,"station_id":"","pricing_plan_id":"cebpf4jnsgd1na2vs0mg"},{"bike_id":"eea83aba-5f2f-40d4-9307-fa632a8482f7","system_id":"levelo_inurba_marseille","lat":43.275,"lon":5.42442,"is_reserved":false,"is_disabled":false,"rental_uris":{"android":"levelo://app?vid=eea83aba-5f2f-40d4-9307-fa632a8482f7","ios":"levelo://app?vid=eea83aba-5f2f-40d4-9307-fa632a8482f7"},"vehicle_type_id":"4","last_reported":1761340160,"current_range_meters":19200,"station_id":"ce4bhn92rcd13ifvqgrg","pricing_plan_id":"cebpf4jnsgd1na2vs0mg"},{"bike_id":"8c4ade53-28b6-421a-8b0a-4b851571fed4","system_id":"levelo_inurba_marseille","lat":43.25346,"lon":5.42176,"is_reserved":false,"is_disabled":false,"rental_uris":{"android":"levelo://app?vid=8c4ade53-28b6-421a-8b0a-4b851571fed4","ios":"levelo://app?vid=8c4ade53-28b6-421a-8b0a-4b851571fed4"},"vehicle_type_id":"4","last_reported":1761340160,"current_range_meters":19200,"station_id":"st_d2m65c5bi1j21697t3ng","pricing_plan_id":"cebpf4jnsgd1na2vs0mg"},{"bike_id":"34331bef-530b-4764-b035-e9b7e1ab5752","system_id":"levelo_inurba_marseille","lat":43.29537,"lon":5.38546,"is_reserved":false,"is_disabled":false,"rental_uris":{"android":"levelo://app?vid=34331bef-530b-4764-b035-e9b7e1ab5752","ios":"levelo://app?vid=34331bef-530b-4764-b035-e9b7e1ab5752"},"vehicle_type_id":"4","last_reported":1761340160,"current_range_meters":19200,"station_id":"ce4bgih2rcd13ifvqba0","pricing_plan_id":"cebpf4jnsgd1na2vs0mg"},{"bike_id":"62f0a2f8-d352-4580-a096-e8ce56ffccdb","system_id":"levelo_inurba_marseille","lat":43.32111,"lon":5.36746,"is_reserved":false,"is_disabled":false,"rental_uris":{"android":"levelo://app?vid=62f0a2f8-d352-4580-a096-e8ce56ffccdb","ios":"levelo://app?vid=62f0a2f8-d352-4580-a096-e8ce56ffccdb"},"vehicle_type_id":"4","last_reported":1761340160,"current_range_meters":19600,"station_id":"ce4bhrh2rcd13ifvqhug","pricing_plan_id":"cebpf4jnsgd1na2vs0mg"},{"bike_id":"51f6b392-8d0d-41b5-9bf6-76a949608beb","system_id":"levelo_inurba_marseille","lat":43.25321,"lon":5.42169,"is_reserved":false,"is_disabled":false,"rental_uris":{"android":"levelo://app?vid=51f6b392-8d0d-41b5-9bf6-76a949608beb","ios":"levelo://app?vid=51f6b392-8d0d-41b5-9bf6-76a949608beb"},"vehicle_type_id":"4","last_reported":1761340160,"current_range_meters":19600,"station_id":"st_d2m65c5bi1j21697t3ng","pricing_plan_id":"cebpf4jnsgd1na2vs0mg"},{"bike_id":"28c4eb04-fc28-4832-9a81-ee9478cd4764","system_id":"levelo_inurba_marseille","lat":43.29795,"lon":5.37094,"is_reserved":false,"is_disabled":false,"rental_uris":{"android":"levelo://app?vid=28c4eb04-fc28-4832-9a81-ee9478cd4764","ios":"levelo://app?vid=28c4eb04-fc28-4832-9a81-ee9478cd4764"},"vehicle_type_id":"4","last_reported":1761340160,"current_range_meters":19600,"station_id":"ce4bgop2rcd13ifvqc1g","pricing_plan_id":"cebpf4jnsgd1na2vs0mg"},{"bike_id":"1c67937c-475a-4e4e-a691-b63d91404557","system_id":"levelo_inurba_marseille","lat":43.2871,"lon":5.40008,"is_reserved":false,"is_disabled":false,"rental_uris":{"android":"levelo://app?vid=1c67937c-475a-4e4e-a691-b63d91404557","ios":"levelo://app?vid=1c67937c-475a-4e4e-a691-b63d91404557"},"vehicle_type_id":"4","last_reported":1761340160,"current_range_meters":19600,"station_id":"ce4bho92rcd13ifvqh3g","pricing_plan_id":"cebpf4jnsgd1na2vs0mg"},{"bike_id":"de4c9d67-aa03-439a-a821-c7b9a613d790","system_id":"levelo_inurba_marseille","lat":43.21206,"lon":5.35056,"is_reserved":false,"is_disabled":false,"rental_uris":{"android":"levelo://app?vid=de4c9d67-aa03-439a-a821-c7b9a613d790","ios":"levelo://app?vid=de4c9d67-aa03-439a-a821-c7b9a613d790"},"vehicle_type_id":"4","last_reported":1761340160,"current_range_meters":19600,"station_id":"st_cvj6sg6p6f1abm77japg","pricing_plan_id":"cebpf4jnsgd1na2vs0mg"},{"bike_id":"6cf2b315-d1ee-4e24-a665-250fae4ab05f","system_id":"levelo_inurba_marseille","lat":43.313305,"lon":5.375469,"is_reserved":false,"is_disabled":true,"rental_uris":{"android":"levelo://app?vid=6cf2b315-d1ee-4e24-a665-250fae4ab05f","ios":"levelo://app?vid=6cf2b315-d1ee-4e24-a665-250fae4ab05f"},"vehicle_type_id":"4","last_reported":1761340160,"current_range_meters":19600,"station_id":"","pricing_plan_id":"cebpf4jnsgd1na2vs0mg"},{"bike_id":"648e2608-af0b-45a7-a32b-d5288ef3c907","system_id":"levelo_inurba_marseille","lat":43.295379,"lon":5.385466,"is_reserved":false,"is_disabled":false,"rental_uris":{"android":"levelo://app?vid=648e2608-af0b-45a7-a32b-d5288ef3c907","ios":"levelo://app?vid=648e2608-af0b-45a7-a32b-d5288ef3c907"},"vehicle_type_id":"4","last_reported":1761340160,"current_range_meters":19600,"station_id":"ce4bgih2rcd13ifvqba0","pricing_plan_id":"cebpf4jnsgd1na2vs0mg"},{"bike_id":"efdc8836-0308-4f7c-b5fb-4054e2ee3bdc","system_id":"levelo_inurba_marseille","lat":43.28075,"lon":5.39652,"is_reserved":false,"is_disabled":false,"rental_uris":{"android":"levelo://app?vid=efdc8836-0308-4f7c-b5fb-4054e2ee3bdc","ios":"levelo://app?vid=efdc8836-0308-4f7c-b5fb-4054e2ee3bdc"},"vehicle_type_id":"4","last_reported":1761340160,"current_range_meters":20000,"station_id":"ce4bho12rcd13ifvqh2g","pricing_plan_id":"cebpf4jnsgd1na2vs0mg"},{"bike_id":"7d338237-38f1-4e08-b314-ed5b9664f816","system_id":"levelo_inurba_marseille","lat":43.29839,"lon":5.36247,"is_reserved":false,"is_disabled":false,"rental_uris":{"android":"levelo://app?vid=7d338237-38f1-4e08-b314-ed5b9664f816","ios":"levelo://app?vid=7d338237-38f1-4e08-b314-ed5b9664f816"},"vehicle_type_id":"4","last_reported":1761340160,"current_range_meters":20000,"station_id":"ce4bgpp2rcd13ifvqc3g","pricing_plan_id":"cebpf4jnsgd1na2vs0mg"},{"bike_id":"f93c77c5-dfca-45e6-bfe1-dd9056d0e034","system_id":"levelo_inurba_marseille","lat":43.29268,"lon":5.38427,"is_reserved":false,"is_disabled":false,"rental_uris":{"android":"levelo://app?vid=f93c77c5-dfca-45e6-bfe1-dd9056d0e034","ios":"levelo://app?vid=f93c77c5-dfca-45e6-bfe1-dd9056d0e034"},"vehicle_type_id":"4","last_reported":1761340160,"current_range_meters":20000,"station_id":"ce4bh692rcd13ifvqea0","pricing_plan_id":"cebpf4jnsgd1na2vs0mg"},{"bike_id":"a6dabd4b-6834-4ca3-b911-b3df5b1bfdd7","system_id":"levelo_inurba_marseille","lat":43.2794,"lon":5.41045,"is_reserved":false,"is_disabled":false,"rental_uris":{"android":"levelo://app?vid=a6dabd4b-6834-4ca3-b911-b3df5b1bfdd7","ios":"levelo://app?vid=a6dabd4b-6834-4ca3-b911-b3df5b1bfdd7"},"vehicle_type_id":"4","last_reported":1761340160,"current_range_meters":20000,"station_id":"ce4bhnp2rcd13ifvqh0g","pricing_plan_id":"cebpf4jnsgd1na2vs0mg"},{"bike_id":"0144bdf2-84a6-45ad-976a-ea6fd3101d41","system_id":"levelo_inurba_marseille","lat":43.32116,"lon":5.3676,"is_reserved":false,"is_disabled":false,"rental_uris":{"android":"levelo://app?vid=0144bdf2-84a6-45ad-976a-ea6fd3101d41","ios":"levelo://app?vid=0144bdf2-84a6-45ad-976a-ea6fd3101d41"},"vehicle_type_id":"4","last_reported":1761340160,"current_range_meters":20000,"station_id":"ce4bhrh2rcd13ifvqhug","pricing_plan_id":"cebpf4jnsgd1na2vs0mg"},{"bike_id":"39945455-7607-42f3-a1e5-fb85cd37c391","system_id":"levelo_inurba_marseille","lat":43.28668,"lon":5.38662,"is_reserved":false,"is_disabled":false,"rental_uris":{"android":"levelo://app?vid=39945455-7607-42f3-a1e5-fb85cd37c391","ios":"levelo://app?vid=39945455-7607-42f3-a1e5-fb85cd37c391"},"vehicle_type_id":"4","last_reported":1761340160,"current_range_meters":20000,"station_id":"ce4bh492rcd13ifvqdug","pricing_plan_id":"cebpf4jnsgd1na2vs0mg"},{"bike_id":"74c97e63-80b0-43f4-b1c5-86ce4b2b3dd9","system_id":"levelo_inurba_marseille","lat":43.30596,"lon":5.37221,"is_reserved":false,"is_disabled":false,"rental_uris":{"android":"levelo://app?vid=74c97e63-80b0-43f4-b1c5-86ce4b2b3dd9","ios":"levelo://app?vid=74c97e63-80b0-43f4-b1c5-86ce4b2b3dd9"},"vehicle_type_id":"4","last_reported":1761340160,"current_range_meters":20000,"station_id":"ce4bgqh2rcd13ifvqc4g","pricing_plan_id":"cebpf4jnsgd1na2vs0mg"},{"bike_id":"5f847d5b-cbee-4443-b582-2b3b0af77e5a","system_id":"levelo_inurba_marseille","lat":43.295322,"lon":5.385411,"is_reserved":false,"is_disabled":false,"rental_uris":{"android":"levelo://app?vid=5f847d5b-cbee-4443-b582-2b3b0af77e5a","ios":"levelo://app?vid=5f847d5b-cbee-4443-b582-2b3b0af77e5a"},"vehicle_type_id":"4","last_reported":1761340160,"current_range_meters":20000,"station_id":"ce4bgih2rcd13ifvqba0","pricing_plan_id":"cebpf4jnsgd1na2vs0mg"},{"bike_id":"294a3f34-361b-4c46-9333-ce2708bba8b2","system_id":"levelo_inurba_marseille","lat":43.317025,"lon":5.36949,"is_reserved":false,"is_disabled":false,"rental_uris":{"android":"levelo://app?vid=294a3f34-361b-4c46-9333-ce2708bba8b2","ios":"levelo://app?vid=294a3f34-361b-4c46-9333-ce2708bba8b2"},"vehicle_type_id":"4","last_reported":1761340160,"current_range_meters":20000,"station_id":"","pricing_plan_id":"cebpf4jnsgd1na2vs0mg"},{"bike_id":"dd386c81-7b45-4065-aee2-5c28c86d05ee","system_id":"levelo_inurba_marseille","lat":43.28174,"lon":5.40418,"is_reserved":false,"is_disabled":false,"rental_uris":{"android":"levelo://app?vid=dd386c81-7b45-4065-aee2-5c28c86d05ee","ios":"levelo://app?vid=dd386c81-7b45-4065-aee2-5c28c86d05ee"},"vehicle_type_id":"4","last_reported":1761340160,"current_range_meters":20000,"station_id":"","pricing_plan_id":"cebpf4jnsgd1na2vs0mg"},{"bike_id":"151681fe-d6da-478a-be81-1ca5e6442b9c","system_id":"levelo_inurba_marseille","lat":43.27066,"lon":5.40242,"is_reserved":false,"is_disabled":true,"rental_uris":{"android":"levelo://app?vid=151681fe-d6da-478a-be81-1ca5e6442b9c","ios":"levelo://app?vid=151681fe-d6da-478a-be81-1ca5e6442b9c"},"vehicle_type_id":"4","last_reported":1761340160,"current_range_meters":20000,"station_id":"ce4bhk92rcd13ifvqgc0","pricing_plan_id":"cebpf4jnsgd1na2vs0mg"},{"bike_id":"1eed06ed-d862-424b-b8ca-0bd49091cb0f","system_id":"levelo_inurba_marseille","lat":43.29534,"lon":5.38545,"is_reserved":false,"is_disabled":false,"rental_uris":{"android":"levelo://app?vid=1eed06ed-d862-424b-b8ca-0bd49091cb0f","ios":"levelo://app?vid=1eed06ed-d862-424b-b8ca-0bd49091cb0f"},"vehicle_type_id":"4","last_reported":1761340160,"current_range_meters":20000,"station_id":"ce4bgih2rcd13ifvqba0","pricing_plan_id":"cebpf4jnsgd1na2vs0mg"},{"bike_id":"c39bd341-0af9-4be8-9bc6-ac9a57f7566f","system_id":"levelo_inurba_marseille","lat":43.29822,"lon":5.3789,"is_reserved":false,"is_disabled":false,"rental_uris":{"android":"levelo://app?vid=c39bd341-0af9-4be8-9bc6-ac9a57f7566f","ios":"levelo://app?vid=c39bd341-0af9-4be8-9bc6-ac9a57f7566f"},"vehicle_type_id":"4","last_reported":1761340160,"current_range_meters":20000,"station_id":"","pricing_plan_id":"cebpf4jnsgd1na2vs0mg"},{"bike_id":"29b38a45-3e07-40c1-b8b1-5f85b487711f","system_id":"levelo_inurba_marseille","lat":43.31238,"lon":5.40389,"is_reserved":false,"is_disabled":false,"rental_uris":{"android":"levelo://app?vid=29b38a45-3e07-40c1-b8b1-5f85b487711f","ios":"levelo://app?vid=29b38a45-3e07-40c1-b8b1-5f85b487711f"},"vehicle_type_id":"4","last_reported":1761340160,"current_range_meters":20400,"station_id":"","pricing_plan_id":"cebpf4jnsgd1na2vs0mg"},{"bike_id":"95cb3f13-7546-47b8-9957-d50e63d51130","system_id":"levelo_inurba_marseille","lat":43.231931,"lon":5.355457,"is_reserved":false,"is_disabled":false,"rental_uris":{"android":"levelo://app?vid=95cb3f13-7546-47b8-9957-d50e63d51130","ios":"levelo://app?vid=95cb3f13-7546-47b8-9957-d50e63d51130"},"vehicle_type_id":"4","last_reported":1761340160,"current_range_meters":20400,"station_id":"ce4bhu92rcd13ifvqi70","pricing_plan_id":"cebpf4jnsgd1na2vs0mg"},{"bike_id":"ed4ba838-cde1-4942-88b8-455470fe528f","system_id":"levelo_inurba_marseille","lat":43.23963,"lon":5.36643,"is_reserved":false,"is_disabled":false,"rental_uris":{"android":"levelo://app?vid=ed4ba838-cde1-4942-88b8-455470fe528f","ios":"levelo://app?vid=ed4ba838-cde1-4942-88b8-455470fe528f"},"vehicle_type_id":"4","last_reported":1761340160,"current_range_meters":20400,"station_id":"ce4bhi12rcd13ifvqfp0","pricing_plan_id":"cebpf4jnsgd1na2vs0mg"},{"bike_id":"96355da0-b94f-4c40-9a2a-71fb60bf76b8","system_id":"levelo_inurba_marseille","lat":43.29509,"lon":5.39387,"is_reserved":false,"is_disabled":true,"rental_uris":{"android":"levelo://app?vid=96355da0-b94f-4c40-9a2a-71fb60bf76b8","ios":"levelo://app?vid=96355da0-b94f-4c40-9a2a-71fb60bf76b8"},"vehicle_type_id":"4","last_reported":1761340160,"current_range_meters":20400,"station_id":"ce4bh292rcd13ifvqdf0","pricing_plan_id":"cebpf4jnsgd1na2vs0mg"},{"bike_id":"7fe5de09-6a96-4af6-8112-cf1983152121","system_id":"levelo_inurba_marseille","lat":43.30148,"lon":5.38071,"is_reserved":false,"is_disabled":false,"rental_uris":{"android":"levelo://app?vid=7fe5de09-6a96-4af6-8112-cf1983152121","ios":"levelo://app?vid=7fe5de09-6a96-4af6-8112-cf1983152121"},"vehicle_type_id":"4","last_reported":1761340160,"current_range_meters":20400,"station_id":"ce4bgjp2rcd13ifvqbh0","pricing_plan_id":"cebpf4jnsgd1na2vs0mg"},{"bike_id":"3c9e39d4-7831-4dff-bd48-a14a6de4afd8","system_id":"levelo_inurba_marseille","lat":43.30323,"lon":5.40434,"is_reserved":false,"is_disabled":false,"rental_uris":{"android":"levelo://app?vid=3c9e39d4-7831-4dff-bd48-a14a6de4afd8","ios":"levelo://app?vid=3c9e39d4-7831-4dff-bd48-a14a6de4afd8"},"vehicle_type_id":"4","last_reported":1761340160,"current_range_meters":20400,"station_id":"ce4bh012rcd13ifvqd10","pricing_plan_id":"cebpf4jnsgd1na2vs0mg"},{"bike_id":"6142f83e-9c36-422b-8d59-c930d794b018","system_id":"levelo_inurba_marseille","lat":43.29262,"lon":5.38428,"is_reserved":false,"is_disabled":false,"rental_uris":{"android":"levelo://app?vid=6142f83e-9c36-422b-8d59-c930d794b018","ios":"levelo://app?vid=6142f83e-9c36-422b-8d59-c930d794b018"},"vehicle_type_id":"4","last_reported":1761340160,"current_range_meters":20400,"station_id":"ce4bh692rcd13ifvqea0","pricing_plan_id":"cebpf4jnsgd1na2vs0mg"},{"bike_id":"b6aeffb6-7d1d-44dc-9a9f-ff98f3a2e6b6","system_id":"levelo_inurba_marseille","lat":43.29247,"lon":5.38437,"is_reserved":false,"is_disabled":false,"rental_uris":{"android":"levelo://app?vid=b6aeffb6-7d1d-44dc-9a9f-ff98f3a2e6b6","ios":"levelo://app?vid=b6aeffb6-7d1d-44dc-9a9f-ff98f3a2e6b6"},"vehicle_type_id":"4","last_reported":1761340160,"current_range_meters":20400,"station_id":"ce4bh692rcd13ifvqea0","pricing_plan_id":"cebpf4jnsgd1na2vs0mg"},{"bike_id":"427e6641-1f4b-4d8e-8f87-cec4028a6261","system_id":"levelo_inurba_marseille","lat":43.30558,"lon":5.36514,"is_reserved":false,"is_disabled":false,"rental_uris":{"android":"levelo://app?vid=427e6641-1f4b-4d8e-8f87-cec4028a6261","ios":"levelo://app?vid=427e6641-1f4b-4d8e-8f87-cec4028a6261"},"vehicle_type_id":"4","last_reported":1761340160,"current_range_meters":20400,"station_id":"ce4bgs12rcd13ifvqcag","pricing_plan_id":"cebpf4jnsgd1na2vs0mg"},{"bike_id":"3bb193f6-1cc0-4d09-a3cf-71a5062a4571","system_id":"levelo_inurba_marseille","lat":43.33763,"lon":5.37456,"is_reserved":false,"is_disabled":false,"rental_uris":{"android":"levelo://app?vid=3bb193f6-1cc0-4d09-a3cf-71a5062a4571","ios":"levelo://app?vid=3bb193f6-1cc0-4d09-a3cf-71a5062a4571"},"vehicle_type_id":"4","last_reported":1761340160,"current_range_meters":20400,"station_id":"","pricing_plan_id":"cebpf4jnsgd1na2vs0mg"},{"bike_id":"896f2a82-1098-47c0-affd-3d2fa4d77465","system_id":"levelo_inurba_marseille","lat":43.26226,"lon":5.4046,"is_reserved":false,"is_disabled":false,"rental_uris":{"android":"levelo://app?vid=896f2a82-1098-47c0-affd-3d2fa4d77465","ios":"levelo://app?vid=896f2a82-1098-47c0-affd-3d2fa4d77465"},"vehicle_type_id":"4","last_reported":1761340160,"current_range_meters":20400,"station_id":"ce4bhmh2rcd13ifvqgmg","pricing_plan_id":"cebpf4jnsgd1na2vs0mg"},{"bike_id":"c0b81f28-bbba-4247-a74b-c55a34b31846","system_id":"levelo_inurba_marseille","lat":43.33258,"lon":5.41086,"is_reserved":false,"is_disabled":false,"rental_uris":{"android":"levelo://app?vid=c0b81f28-bbba-4247-a74b-c55a34b31846","ios":"levelo://app?vid=c0b81f28-bbba-4247-a74b-c55a34b31846"},"vehicle_type_id":"4","last_reported":1761340160,"current_range_meters":20800,"station_id":"","pricing_plan_id":"cebpf4jnsgd1na2vs0mg"},{"bike_id":"1a1f55de-f536-43d2-a5ec-8faa427890f0","system_id":"levelo_inurba_marseille","lat":43.24069,"lon":5.37758,"is_reserved":false,"is_disabled":false,"rental_uris":{"android":"levelo://app?vid=1a1f55de-f536-43d2-a5ec-8faa427890f0","ios":"levelo://app?vid=1a1f55de-f536-43d2-a5ec-8faa427890f0"},"vehicle_type_id":"4","last_reported":1761340160,"current_range_meters":20800,"station_id":"ce4bhnp2rcd13ifvqgvg","pricing_plan_id":"cebpf4jnsgd1na2vs0mg"},{"bike_id":"55c9663e-4e1e-46f2-9483-90cad71761ad","system_id":"levelo_inurba_marseille","lat":43.29999,"lon":5.37171,"is_reserved":false,"is_disabled":true,"rental_uris":{"android":"levelo://app?vid=55c9663e-4e1e-46f2-9483-90cad71761ad","ios":"levelo://app?vid=55c9663e-4e1e-46f2-9483-90cad71761ad"},"vehicle_type_id":"4","last_reported":1761340160,"current_range_meters":20800,"station_id":"ce4bgr92rcd13ifvqc7g","pricing_plan_id":"cebpf4jnsgd1na2vs0mg"},{"bike_id":"973f27ce-536e-4ddc-9909-bbcb7e039d0e","system_id":"levelo_inurba_marseille","lat":43.298279,"lon":5.365997,"is_reserved":false,"is_disabled":false,"rental_uris":{"android":"levelo://app?vid=973f27ce-536e-4ddc-9909-bbcb7e039d0e","ios":"levelo://app?vid=973f27ce-536e-4ddc-9909-bbcb7e039d0e"},"vehicle_type_id":"4","last_reported":1761340160,"current_range_meters":20800,"station_id":"ce4bgn12rcd13ifvqbt0","pricing_plan_id":"cebpf4jnsgd1na2vs0mg"},{"bike_id":"a420fe42-d929-4f02-8db6-f1518becc2c4","system_id":"levelo_inurba_marseille","lat":43.23205,"lon":5.35539,"is_reserved":false,"is_disabled":false,"rental_uris":{"android":"levelo://app?vid=a420fe42-d929-4f02-8db6-f1518becc2c4","ios":"levelo://app?vid=a420fe42-d929-4f02-8db6-f1518becc2c4"},"vehicle_type_id":"4","last_reported":1761340160,"current_range_meters":20800,"station_id":"ce4bhu92rcd13ifvqi70","pricing_plan_id":"cebpf4jnsgd1na2vs0mg"},{"bike_id":"34c09053-239e-45e9-8969-80bd8d1f1c29","system_id":"levelo_inurba_marseille","lat":43.29892,"lon":5.38892,"is_reserved":false,"is_disabled":false,"rental_uris":{"android":"levelo://app?vid=34c09053-239e-45e9-8969-80bd8d1f1c29","ios":"levelo://app?vid=34c09053-239e-45e9-8969-80bd8d1f1c29"},"vehicle_type_id":"4","last_reported":1761340160,"current_range_meters":20800,"station_id":"ce4bh392rcd13ifvqdl0","pricing_plan_id":"cebpf4jnsgd1na2vs0mg"},{"bike_id":"2e9e6af8-fc58-4300-bf0a-4bfe1206db5f","system_id":"levelo_inurba_marseille","lat":43.282303,"lon":5.390811,"is_reserved":false,"is_disabled":false,"rental_uris":{"android":"levelo://app?vid=2e9e6af8-fc58-4300-bf0a-4bfe1206db5f","ios":"levelo://app?vid=2e9e6af8-fc58-4300-bf0a-4bfe1206db5f"},"vehicle_type_id":"4","last_reported":1761340160,"current_range_meters":20800,"station_id":"","pricing_plan_id":"cebpf4jnsgd1na2vs0mg"},{"bike_id":"74546168-aafc-4fc6-824e-fd7787db6ac1","system_id":"levelo_inurba_marseille","lat":43.229274,"lon":5.353774,"is_reserved":false,"is_disabled":false,"rental_uris":{"android":"levelo://app?vid=74546168-aafc-4fc6-824e-fd7787db6ac1","ios":"levelo://app?vid=74546168-aafc-4fc6-824e-fd7787db6ac1"},