{"last_updated":1724616569,"ttl":30,"version":"2.2","data":{"bikes":[{"bike_id":"1ca86635-cff0-45d9-a9e6-4535ffaa1356","system_id":"levelo_inurba_marseille","lat":43.31341,"lon":5.367098,"is_reserved":false,"is_disabled":false,"rental_uris":{"android":"levelo://app?vid=1ca86635-cff0-45d9-a9e6-4535ffaa1356","ios":"levelo://app?vid=1ca86635-cff0-45d9-a9e6-4535ffaa1356"},"vehicle_type_id":"4","last_reported":1724616569,"current_range_meters":7600,"station_id":"ce4bgr92rcd13ifvqc6g","pricing_plan_id":"cebpf4jnsgd1na2vs0mg"},{"bike_id":"2a163a8d-cf4f-48a8-883d-cff6de126544","system_id":"levelo_inurba_marseille","lat":43.31341,"lon":5.367098,"is_reserved":false,"is_disabled":false,"rental_uris":{"android":"levelo://app?vid=2a163a8d-cf4f-48a8-883d-cff6de126544","ios":"levelo://app?vid=2a163a8d-cf4f-48a8-883d-cff6de126544"},"vehicle_type_id":"4","last_reported":1724616569,"current_range_meters":6400,"station_id":"ce4bgr92rcd13ifvqc6g","pricing_plan_id":"cebpf4jnsgd1na2vs0mg"},{"bike_id":"ae7f4e78-8f9f-4d3b-b14d-87fcd508b6c9","system_id":"levelo_inurba_marseille","lat":43.312239,"lon":5.368562,"is_reserved":false,"is_disabled":false,"rental_uris":{"android":"levelo://app?vid=ae7f4e78-8f9f-4d3b-b14d-87fcd508b6c9","ios":"levelo://app?vid=ae7f4e78-8f9f-4d3b-b14d-87fcd508b6c9"},"vehicle_type_id":"4","last_reported":1724616569,"current_range_meters":29200,"station_id":"ce4bgl92rcd13ifvqbq0","pricing_plan_id":"cebpf4jnsgd1na2vs0mg"},{"bike_id":"aded6461-ae16-49b3-b178-11c7c95d75af","system_id":"levelo_inurba_marseille","lat":43.312239,"lon":5.368562,"is_reserved":false,"is_disabled":false,"rental_uris":{"android":"levelo://app?vid=aded6461-ae16-49b3-b178-11c7c95d75af","ios":"levelo://app?vid=aded6461-ae16-49b3-b178-11c7c95d75af"},"vehicle_type_id":"4","last_reported":1724616569,"current_range_meters":6000,"station_id":"ce4bgl92rcd13ifvqbq0","pricing_plan_id":"cebpf4jnsgd1na2vs0mg"},{"bike_id":"e796332b-03b8-4f99-b5b6-c0469227aba4","system_id":"levelo_inurba_marseille","lat":43.30903,"lon":5.3685,"is_reserved":false,"is_disabled":false,"rental_uris":{"android":"levelo://app?vid=e796332b-03b8-4f99-b5b6-c0469227aba4","ios":"levelo://app?vid=e796332b-03b8-4f99-b5b6-c0469227aba4"},"vehicle_type_id":"4","last_reported":1724616569,"current_range_meters":20800,"station_id":"ce4bgn92rcd13ifvqbvg","pricing_plan_id":"cebpf4jnsgd1na2vs0mg"},{"bike_id":"545b1965-3aa5-4ee3-957a-b2cfa375fdac","system_id":"levelo_inurba_marseille","lat":43.314811,"lon":5.373103,"is_reserved":false,"is_disabled":false,"rental_uris":{"android":"levelo://app?vid=545b1965-3aa5-4ee3-957a-b2cfa375fdac","ios":"levelo://app?vid=545b1965-3aa5-4ee3-957a-b2cfa375fdac"},"vehicle_type_id":"4","last_reported":1724616569,"current_range_meters":30400,"station_id":"ce4bgt12rcd13ifvqcd0","pricing_plan_id":"cebpf4jnsgd1na2vs0mg"},{"bike_id":"d857104b-f35e-4109-93cc-52dbfa80d05f","system_id":"levelo_inurba_marseille","lat":43.314811,"lon":5.373103,"is_reserved":false,"is_disabled":false,"rental_uris":{"android":"levelo://app?vid=d857104b-f35e-4109-93cc-52dbfa80d05f","ios":"levelo://app?vid=d857104b-f35e-4109-93cc-52dbfa80d05f"},"vehicle_type_id":"4","last_reported":1724616569,"current_range_meters":400,"station_id":"ce4bgt12rcd13ifvqcd0","pricing_plan_id":"cebpf4jnsgd1na2vs0mg"},{"bike_id":"b01f4b6c-29fd-464d-81bc-c274fe06fd92","system_id":"levelo_inurba_marseille","lat":43.314811,"lon":5.373103,"is_reserved":false,"is_disabled":false,"rental_uris":{"android":"levelo://app?vid=b01f4b6c-29fd-464d-81bc-c274fe06fd92","ios":"levelo://app?vid=b01f4b6c-29fd-464d-81bc-c274fe06fd92"},"vehicle_type_id":"4","last_reported":1724616569,"current_range_meters":31200,"station_id":"ce4bgt12rcd13ifvqcd0","pricing_plan_id":"cebpf4jnsgd1na2vs0mg"},{"bike_id":"cc621f22-0226-40b4-8a8d-0506d06749e3","system_id":"levelo_inurba_marseille","lat":43.30143,"lon":5.37413,"is_reserved":false,"is_disabled":false,"rental_uris":{"android":"levelo://app?vid=cc621f22-0226-40b4-8a8d-0506d06749e3","ios":"levelo://app?vid=cc621f22-0226-40b4-8a8d-0506d06749e3"},"vehicle_type_id":"4","last_reported":1724616569,"current_range_meters":29600,"station_id":"ce4bgs92rcd13ifvqcc0","pricing_plan_id":"cebpf4jnsgd1na2vs0mg"},{"bike_id":"281feec5-da7c-4991-94df-3ef6b71d0de0","system_id":"levelo_inurba_marseille","lat":43.30537,"lon":5.367345,"is_reserved":false,"is_disabled":false,"rental_uris":{"android":"levelo://app?vid=281feec5-da7c-4991-94df-3ef6b71d0de0","ios":"levelo://app?vid=281feec5-da7c-4991-94df-3ef6b71d0de0"},"vehicle_type_id":"4","last_reported":1724616569,"current_range_meters":30800,"station_id":"ce4bgrp2rcd13ifvqc9g","pricing_plan_id":"cebpf4jnsgd1na2vs0mg"},{"bike_id":"b022a158-086f-4943-ba9f-15b8a133ee0b","system_id":"levelo_inurba_marseille","lat":43.30537,"lon":5.367345,"is_reserved":false,"is_disabled":false,"rental_uris":{"android":"levelo://app?vid=b022a158-086f-4943-ba9f-15b8a133ee0b","ios":"levelo://app?vid=b022a158-086f-4943-ba9f-15b8a133ee0b"},"vehicle_type_id":"4","last_reported":1724616569,"current_range_meters":30400,"station_id":"ce4bgrp2rcd13ifvqc9g","pricing_plan_id":"cebpf4jnsgd1na2vs0mg"},{"bike_id":"f644de36-dba0-4282-a098-311b9917d85a","system_id":"levelo_inurba_marseille","lat":43.305887,"lon":5.372427,"is_reserved":false,"is_disabled":false,"rental_uris":{"android":"levelo://app?vid=f644de36-dba0-4282-a098-311b9917d85a","ios":"levelo://app?vid=f644de36-dba0-4282-a098-311b9917d85a"},"vehicle_type_id":"4","last_reported":1724616569,"current_range_meters":31200,"station_id":"ce4bgqh2rcd13ifvqc4g","pricing_plan_id":"cebpf4jnsgd1na2vs0mg"},{"bike_id":"609a47a3-1bd1-4371-b14e-109091e03ee6","system_id":"levelo_inurba_marseille","lat":43.311131,"lon":5.377651,"is_reserved":false,"is_disabled":false,"rental_uris":{"android":"levelo://app?vid=609a47a3-1bd1-4371-b14e-109091e03ee6","ios":"levelo://app?vid=609a47a3-1bd1-4371-b14e-109091e03ee6"},"vehicle_type_id":"4","last_reported":1724616569,"current_range_meters":31200,"station_id":"ce4bgt92rcd13ifvqcg0","pricing_plan_id":"cebpf4jnsgd1na2vs0mg"},{"bike_id":"2f50fb1b-6b69-4edb-b543-9277e07dcc7b","system_id":"levelo_inurba_marseille","lat":43.30473,"lon":5.367663,"is_reserved":false,"is_disabled":false,"rental_uris":{"android":"levelo://app?vid=2f50fb1b-6b69-4edb-b543-9277e07dcc7b","ios":"levelo://app?vid=2f50fb1b-6b69-4edb-b543-9277e07dcc7b"},"vehicle_type_id":"4","last_reported":1724616569,"current_range_meters":0,"station_id":"","pricing_plan_id":"cebpf4jnsgd1na2vs0mg"},{"bike_id":"22b16a7b-d2d8-4d19-b3d1-ca0edac749f9","system_id":"levelo_inurba_marseille","lat":43.307945,"lon":5.376487,"is_reserved":false,"is_disabled":false,"rental_uris":{"android":"levelo://app?vid=22b16a7b-d2d8-4d19-b3d1-ca0edac749f9","ios":"levelo://app?vid=22b16a7b-d2d8-4d19-b3d1-ca0edac749f9"},"vehicle_type_id":"4","last_reported":1724616569,"current_range_meters":1600,"station_id":"ce4bgv92rcd13ifvqcq0","pricing_plan_id":"cebpf4jnsgd1na2vs0mg"},{"bike_id":"91d07249-88fa-4b34-a5ca-9f8e210fb1c3","system_id":"levelo_inurba_marseille","lat":43.317075,"lon":5.377367,"is_reserved":false,"is_disabled":false,"rental_uris":{"android":"levelo://app?vid=91d07249-88fa-4b34-a5ca-9f8e210fb1c3","ios":"levelo://app?vid=91d07249-88fa-4b34-a5ca-9f8e210fb1c3"},"vehicle_type_id":"4","last_reported":1724616569,"current_range_meters":6000,"station_id":"ce4bgth2rcd13ifvqch0","pricing_plan_id":"cebpf4jnsgd1na2vs0mg"},{"bike_id":"f8866dbd-8e34-4b7a-9157-45f59ffcda26","system_id":"levelo_inurba_marseille","lat":43.279742,"lon":5.38744,"is_reserved":false,"is_disabled":false,"rental_uris":{"android":"levelo://app?vid=f8866dbd-8e34-4b7a-9157-45f59ffcda26","ios":"levelo://app?vid=f8866dbd-8e34-4b7a-9157-45f59ffcda26"},"vehicle_type_id":"4","last_reported":1724616569,"current_range_meters":22400,"station_id":"ce4bhg12rcd13ifvqf80","pricing_plan_id":"cebpf4jnsgd1na2vs0mg"},{"bike_id":"d22fde8f-61a8-4ba7-aabf-c5840fc7206c","system_id":"levelo_inurba_marseille","lat":43.315262,"lon":5.380294,"is_reserved":false,"is_disabled":false,"rental_uris":{"android":"levelo://app?vid=d22fde8f-61a8-4ba7-aabf-c5840fc7206c","ios":"levelo://app?vid=d22fde8f-61a8-4ba7-aabf-c5840fc7206c"},"vehicle_type_id":"4","last_reported":1724616569,"current_range_meters":0,"station_id":"ce4bhsp2rcd13ifvqi50","pricing_plan_id":"cebpf4jnsgd1na2vs0mg"},{"bike_id":"175273e2-4678-482a-b07f-dee8be107a5b","system_id":"levelo_inurba_marseille","lat":43.308012,"lon":5.381511,"is_reserved":false,"is_disabled":false,"rental_uris":{"android":"levelo://app?vid=175273e2-4678-482a-b07f-dee8be107a5b","ios":"levelo://app?vid=175273e2-4678-482a-b07f-dee8be107a5b"},"vehicle_type_id":"4","last_reported":1724616569,"current_range_meters":10800,"station_id":"ce4bgt12rcd13ifvqce0","pricing_plan_id":"cebpf4jnsgd1na2vs0mg"},{"bike_id":"c81231e2-c024-483b-b7d9-f7c2d6098026","system_id":"levelo_inurba_marseille","lat":43.30796,"lon":5.381647,"is_reserved":false,"is_disabled":false,"rental_uris":{"android":"levelo://app?vid=c81231e2-c024-483b-b7d9-f7c2d6098026","ios":"levelo://app?vid=c81231e2-c024-483b-b7d9-f7c2d6098026"},"vehicle_type_id":"4","last_reported":1724616569,"current_range_meters":0,"station_id":"ce4bgt12rcd13ifvqce0","pricing_plan_id":"cebpf4jnsgd1na2vs0mg"},{"bike_id":"3d3da76e-7840-4043-8618-736903a52807","system_id":"levelo_inurba_marseille","lat":43.308012,"lon":5.381511,"is_reserved":false,"is_disabled":false,"rental_uris":{"android":"levelo://app?vid=3d3da76e-7840-4043-8618-736903a52807","ios":"levelo://app?vid=3d3da76e-7840-4043-8618-736903a52807"},"vehicle_type_id":"4","last_reported":1724616569,"current_range_meters":28400,"station_id":"ce4bgt12rcd13ifvqce0","pricing_plan_id":"cebpf4jnsgd1na2vs0mg"},{"bike_id":"d5af199f-0ac3-4f8a-89cb-9bf0b5e01c6c","system_id":"levelo_inurba_marseille","lat":43.308012,"lon":5.381511,"is_reserved":false,"is_disabled":false,"rental_uris":{"android":"levelo://app?vid=d5af199f-0ac3-4f8a-89cb-9bf0b5e01c6c","ios":"levelo://app?vid=d5af199f-0ac3-4f8a-89cb-9bf0b5e01c6c"},"vehicle_type_id":"4","last_reported":1724616569,"current_range_meters":9600,"station_id":"ce4bgt12rcd13ifvqce0","pricing_plan_id":"cebpf4jnsgd1na2vs0mg"},{"bike_id":"2c4b9d54-d19b-465f-aa21-0838af456a20","system_id":"levelo_inurba_marseille","lat":43.308012,"lon":5.381511,"is_reserved":false,"is_disabled":false,"rental_uris":{"android":"levelo://app?vid=2c4b9d54-d19b-465f-aa21-0838af456a20","ios":"levelo://app?vid=2c4b9d54-d19b-465f-aa21-0838af456a20"},"vehicle_type_id":"4","last_reported":1724616569,"current_range_meters":29200,"station_id":"ce4bgt12rcd13ifvqce0","pricing_plan_id":"cebpf4jnsgd1na2vs0mg"},{"bike_id":"971c6e7e-e5a4-448f-8ae5-baf76426d7c4","system_id":"levelo_inurba_marseille","lat":43.304606,"lon":5.379026,"is_reserved":false,"is_disabled":false,"rental_uris":{"android":"levelo://app?vid=971c6e7e-e5a4-448f-8ae5-baf76426d7c4","ios":"levelo://app?vid=971c6e7e-e5a4-448f-8ae5-baf76426d7c4"},"vehicle_type_id":"4","last_reported":1724616569,"current_range_meters":10400,"station_id":"ce4bgup2rcd13ifvqcn0","pricing_plan_id":"cebpf4jnsgd1na2vs0mg"},{"bike_id":"37158c76-c69d-4ad5-8f77-e80204586cdd","system_id":"levelo_inurba_marseille","lat":43.324771,"lon":5.36557,"is_reserved":false,"is_disabled":false,"rental_uris":{"android":"levelo://app?vid=37158c76-c69d-4ad5-8f77-e80204586cdd","ios":"levelo://app?vid=37158c76-c69d-4ad5-8f77-e80204586cdd"},"vehicle_type_id":"4","last_reported":1724616569,"current_range_meters":28800,"station_id":"ce4bhs12rcd13ifvqhvg","pricing_plan_id":"cebpf4jnsgd1na2vs0mg"},{"bike_id":"c30c57e5-e6a4-4301-8c1f-bb1d7a5e5a91","system_id":"levelo_inurba_marseille","lat":43.32483,"lon":5.365783,"is_reserved":false,"is_disabled":false,"rental_uris":{"android":"levelo://app?vid=c30c57e5-e6a4-4301-8c1f-bb1d7a5e5a91","ios":"levelo://app?vid=c30c57e5-e6a4-4301-8c1f-bb1d7a5e5a91"},"vehicle_type_id":"4","last_reported":1724616569,"current_range_meters":20800,"station_id":"ce4bhs12rcd13ifvqhvg","pricing_plan_id":"cebpf4jnsgd1na2vs0mg"},{"bike_id":"f74c7ab2-b71e-4c31-8284-4841f6584271","system_id":"levelo_inurba_marseille","lat":43.324831,"lon":5.365647,"is_reserved":false,"is_disabled":false,"rental_uris":{"android":"levelo://app?vid=f74c7ab2-b71e-4c31-8284-4841f6584271","ios":"levelo://app?vid=f74c7ab2-b71e-4c31-8284-4841f6584271"},"vehicle_type_id":"4","last_reported":1724616569,"current_range_meters":15600,"station_id":"ce4bhs12rcd13ifvqhvg","pricing_plan_id":"cebpf4jnsgd1na2vs0mg"},{"bike_id":"83d7180c-2f2f-4526-afd8-bf89c1839d1d","system_id":"levelo_inurba_marseille","lat":43.32486,"lon":5.36578,"is_reserved":false,"is_disabled":false,"rental_uris":{"android":"levelo://app?vid=83d7180c-2f2f-4526-afd8-bf89c1839d1d","ios":"levelo://app?vid=83d7180c-2f2f-4526-afd8-bf89c1839d1d"},"vehicle_type_id":"4","last_reported":1724616569,"current_range_meters":8000,"station_id":"ce4bhs12rcd13ifvqhvg","pricing_plan_id":"cebpf4jnsgd1na2vs0mg"},{"bike_id":"0695ccd6-dee0-41e3-9ee2-02e9af3e26f6","system_id":"levelo_inurba_marseille","lat":43.32488,"lon":5.365663,"is_reserved":false,"is_disabled":false,"rental_uris":{"android":"levelo://app?vid=0695ccd6-dee0-41e3-9ee2-02e9af3e26f6","ios":"levelo://app?vid=0695ccd6-dee0-41e3-9ee2-02e9af3e26f6"},"vehicle_type_id":"4","last_reported":1724616569,"current_range_meters":2800,"station_id":"ce4bhs12rcd13ifvqhvg","pricing_plan_id":"cebpf4jnsgd1na2vs0mg"},{"bike_id":"4b068ad2-1221-4476-9487-2b7eb5619d8a","system_id":"levelo_inurba_marseille","lat":43.31366,"lon":5.38364,"is_reserved":false,"is_disabled":false,"rental_uris":{"android":"levelo://app?vid=4b068ad2-1221-4476-9487-2b7eb5619d8a","ios":"levelo://app?vid=4b068ad2-1221-4476-9487-2b7eb5619d8a"},"vehicle_type_id":"4","last_reported":1724616569,"current_range_meters":0,"station_id":"","pricing_plan_id":"cebpf4jnsgd1na2vs0mg"},{"bike_id":"59f90d60-6bf2-490f-bfed-12d242347acb","system_id":"levelo_inurba_marseille","lat":43.310804,"lon":5.38359,"is_reserved":false,"is_disabled":false,"rental_uris":{"android":"levelo://app?vid=59f90d60-6bf2-490f-bfed-12d242347acb","ios":"levelo://app?vid=59f90d60-6bf2-490f-bfed-12d242347acb"},"vehicle_type_id":"4","last_reported":1724616569,"current_range_meters":1200,"station_id":"ce4bgv92rcd13ifvqcr0","pricing_plan_id":"cebpf4jnsgd1na2vs0mg"},{"bike_id":"d7353e87-f889-4234-b1a2-19fd00cbd95d","system_id":"levelo_inurba_marseille","lat":43.310804,"lon":5.38359,"is_reserved":false,"is_disabled":false,"rental_uris":{"android":"levelo://app?vid=d7353e87-f889-4234-b1a2-19fd00cbd95d","ios":"levelo://app?vid=d7353e87-f889-4234-b1a2-19fd00cbd95d"},"vehicle_type_id":"4","last_reported":1724616569,"current_range_meters":26400,"station_id":"ce4bgv92rcd13ifvqcr0","pricing_plan_id":"cebpf4jnsgd1na2vs0mg"},{"bike_id":"f8a9ffc5-0d4c-4354-9cdd-df76e882db83","system_id":"levelo_inurba_marseille","lat":43.310804,"lon":5.38359,"is_reserved":false,"is_disabled":false,"rental_uris":{"android":"levelo://app?vid=f8a9ffc5-0d4c-4354-9cdd-df76e882db83","ios":"levelo://app?vid=f8a9ffc5-0d4c-4354-9cdd-df76e882db83"},"vehicle_type_id":"4","last_reported":1724616569,"current_range_meters":17200,"station_id":"ce4bgv92rcd13ifvqcr0","pricing_plan_id":"cebpf4jnsgd1na2vs0mg"},{"bike_id":"dbb96350-e5e8-4765-90c5-8f9f7ac28069","system_id":"levelo_inurba_marseille","lat":43.310804,"lon":5.38359,"is_reserved":false,"is_disabled":false,"rental_uris":{"android":"levelo://app?vid=dbb96350-e5e8-4765-90c5-8f9f7ac28069","ios":"levelo://app?vid=dbb96350-e5e8-4765-90c5-8f9f7ac28069"},"vehicle_type_id":"4","last_reported":1724616569,"current_range_meters":6000,"station_id":"ce4bgv92rcd13ifvqcr0","pricing_plan_id":"cebpf4jnsgd1na2vs0mg"},{"bike_id":"fe12211d-1992-479c-aa30-c9ef6a76e30c","system_id":"levelo_inurba_marseille","lat":43.310804,"lon":5.38359,"is_reserved":false,"is_disabled":false,"rental_uris":{"android":"levelo://app?vid=fe12211d-1992-479c-aa30-c9ef6a76e30c","ios":"levelo://app?vid=fe12211d-1992-479c-aa30-c9ef6a76e30c"},"vehicle_type_id":"4","last_reported":1724616569,"current_range_meters":20400,"station_id":"ce4bgv92rcd13ifvqcr0","pricing_plan_id":"cebpf4jnsgd1na2vs0mg"},{"bike_id":"8dd6f5ea-dc61-483f-9f75-ff130db43f26","system_id":"levelo_inurba_marseille","lat":43.310804,"lon":5.38359,"is_reserved":false,"is_disabled":false,"rental_uris":{"android":"levelo://app?vid=8dd6f5ea-dc61-483f-9f75-ff130db43f26","ios":"levelo://app?vid=8dd6f5ea-dc61-483f-9f75-ff130db43f26"},"vehicle_type_id":"4","last_reported":1724616569,"current_range_meters":31200,"station_id":"ce4bgv92rcd13ifvqcr0","pricing_plan_id":"cebpf4jnsgd1na2vs0mg"},{"bike_id":"4e9b5acf-8af4-4e31-bc2f-e2569324b7ad","system_id":"levelo_inurba_marseille","lat":43.301429,"lon":5.37413,"is_reserved":false,"is_disabled":false,"rental_uris":{"android":"levelo://app?vid=4e9b5acf-8af4-4e31-bc2f-e2569324b7ad","ios":"levelo://app?vid=4e9b5acf-8af4-4e31-bc2f-e2569324b7ad"},"vehicle_type_id":"4","last_reported":1724616569,"current_range_meters":22400,"station_id":"ce4bgs92rcd13ifvqcc0","pricing_plan_id":"cebpf4jnsgd1na2vs0mg"},{"bike_id":"de8a8f0d-4b63-4fc3-bae4-4fd2df04f260","system_id":"levelo_inurba_marseille","lat":43.301429,"lon":5.37413,"is_reserved":false,"is_disabled":false,"rental_uris":{"android":"levelo://app?vid=de8a8f0d-4b63-4fc3-bae4-4fd2df04f260","ios":"levelo://app?vid=de8a8f0d-4b63-4fc3-bae4-4fd2df04f260"},"vehicle_type_id":"4","last_reported":1724616569,"current_range_meters":26000,"station_id":"ce4bgs92rcd13ifvqcc0","pricing_plan_id":"cebpf4jnsgd1na2vs0mg"},{"bike_id":"0509c888-846b-4ef0-bea6-9b36817e7760","system_id":"levelo_inurba_marseille","lat":43.31965,"lon":5.3815,"is_reserved":false,"is_disabled":false,"rental_uris":{"android":"levelo://app?vid=0509c888-846b-4ef0-bea6-9b36817e7760","ios":"levelo://app?vid=0509c888-846b-4ef0-bea6-9b36817e7760"},"vehicle_type_id":"4","last_reported":1724616569,"current_range_meters":6400,"station_id":"ce4bhr12rcd13ifvqhpg","pricing_plan_id":"cebpf4jnsgd1na2vs0mg"},{"bike_id":"5736ed4e-9dc7-4fa5-90a1-403587840cbd","system_id":"levelo_inurba_marseille","lat":43.319935,"lon":5.381699,"is_reserved":false,"is_disabled":false,"rental_uris":{"android":"levelo://app?vid=5736ed4e-9dc7-4fa5-90a1-403587840cbd","ios":"levelo://app?vid=5736ed4e-9dc7-4fa5-90a1-403587840cbd"},"vehicle_type_id":"4","last_reported":1724616569,"current_range_meters":25200,"station_id":"ce4bhr12rcd13ifvqhpg","pricing_plan_id":"cebpf4jnsgd1na2vs0mg"},{"bike_id":"585da6d7-cf3a-4419-85d1-36ed88740a5f","system_id":"levelo_inurba_marseille","lat":43.319935,"lon":5.381699,"is_reserved":false,"is_disabled":false,"rental_uris":{"android":"levelo://app?vid=585da6d7-cf3a-4419-85d1-36ed88740a5f","ios":"levelo://app?vid=585da6d7-cf3a-4419-85d1-36ed88740a5f"},"vehicle_type_id":"4","last_reported":1724616569,"current_range_meters":23200,"station_id":"ce4bhr12rcd13ifvqhpg","pricing_plan_id":"cebpf4jnsgd1na2vs0mg"},{"bike_id":"1f04bba8-328e-4639-b46e-6ed338c232dc","system_id":"levelo_inurba_marseille","lat":43.319935,"lon":5.381699,"is_reserved":false,"is_disabled":false,"rental_uris":{"android":"levelo://app?vid=1f04bba8-328e-4639-b46e-6ed338c232dc","ios":"levelo://app?vid=1f04bba8-328e-4639-b46e-6ed338c232dc"},"vehicle_type_id":"4","last_reported":1724616569,"current_range_meters":21200,"station_id":"ce4bhr12rcd13ifvqhpg","pricing_plan_id":"cebpf4jnsgd1na2vs0mg"},{"bike_id":"062289a5-ae57-4c62-befe-6f1a402f7d92","system_id":"levelo_inurba_marseille","lat":43.319935,"lon":5.381699,"is_reserved":false,"is_disabled":false,"rental_uris":{"android":"levelo://app?vid=062289a5-ae57-4c62-befe-6f1a402f7d92","ios":"levelo://app?vid=062289a5-ae57-4c62-befe-6f1a402f7d92"},"vehicle_type_id":"4","last_reported":1724616569,"current_range_meters":12400,"station_id":"ce4bhr12rcd13ifvqhpg","pricing_plan_id":"cebpf4jnsgd1na2vs0mg"},{"bike_id":"820defe7-e862-46e2-acaa-f5030965a1fa","system_id":"levelo_inurba_marseille","lat":43.313571,"lon":5.384829,"is_reserved":false,"is_disabled":false,"rental_uris":{"android":"levelo://app?vid=820defe7-e862-46e2-acaa-f5030965a1fa","ios":"levelo://app?vid=820defe7-e862-46e2-acaa-f5030965a1fa"},"vehicle_type_id":"4","last_reported":1724616569,"current_range_meters":27200,"station_id":"ce4bgt92rcd13ifvqcf0","pricing_plan_id":"cebpf4jnsgd1na2vs0mg"},{"bike_id":"fbece59e-045d-44be-bd5f-edb9093ed44c","system_id":"levelo_inurba_marseille","lat":43.313571,"lon":5.384829,"is_reserved":false,"is_disabled":false,"rental_uris":{"android":"levelo://app?vid=fbece59e-045d-44be-bd5f-edb9093ed44c","ios":"levelo://app?vid=fbece59e-045d-44be-bd5f-edb9093ed44c"},"vehicle_type_id":"4","last_reported":1724616569,"current_range_meters":5200,"station_id":"ce4bgt92rcd13ifvqcf0","pricing_plan_id":"cebpf4jnsgd1na2vs0mg"},{"bike_id":"bd18d0d7-7737-4c4a-af1c-fe77350f5637","system_id":"levelo_inurba_marseille","lat":43.299724,"lon":5.371829,"is_reserved":false,"is_disabled":false,"rental_uris":{"android":"levelo://app?vid=bd18d0d7-7737-4c4a-af1c-fe77350f5637","ios":"levelo://app?vid=bd18d0d7-7737-4c4a-af1c-fe77350f5637"},"vehicle_type_id":"4","last_reported":1724616569,"current_range_meters":6400,"station_id":"ce4bgr92rcd13ifvqc7g","pricing_plan_id":"cebpf4jnsgd1na2vs0mg"},{"bike_id":"04441d17-0c9a-4d88-a7b6-f42288f71db5","system_id":"levelo_inurba_marseille","lat":43.299724,"lon":5.371829,"is_reserved":false,"is_disabled":false,"rental_uris":{"android":"levelo://app?vid=04441d17-0c9a-4d88-a7b6-f42288f71db5","ios":"levelo://app?vid=04441d17-0c9a-4d88-a7b6-f42288f71db5"},"vehicle_type_id":"4","last_reported":1724616569,"current_range_meters":1600,"station_id":"ce4bgr92rcd13ifvqc7g","pricing_plan_id":"cebpf4jnsgd1na2vs0mg"},{"bike_id":"7b916033-4f68-4495-9480-3b7b4b8727c0","system_id":"levelo_inurba_marseille","lat":43.305364,"lon":5.384119,"is_reserved":false,"is_disabled":false,"rental_uris":{"android":"levelo://app?vid=7b916033-4f68-4495-9480-3b7b4b8727c0","ios":"levelo://app?vid=7b916033-4f68-4495-9480-3b7b4b8727c0"},"vehicle_type_id":"4","last_reported":1724616569,"current_range_meters":16800,"station_id":"ce4bgg92rcd13ifvqb30","pricing_plan_id":"cebpf4jnsgd1na2vs0mg"},{"bike_id":"36367c0e-7d3e-42fb-ae40-6775e11676a1","system_id":"levelo_inurba_marseille","lat":43.298433,"lon":5.362774,"is_reserved":false,"is_disabled":false,"rental_uris":{"android":"levelo://app?vid=36367c0e-7d3e-42fb-ae40-6775e11676a1","ios":"levelo://app?vid=36367c0e-7d3e-42fb-ae40-6775e11676a1"},"vehicle_type_id":"4","last_reported":1724616569,"current_range_meters":22000,"station_id":"ce4bgpp2rcd13ifvqc3g","pricing_plan_id":"cebpf4jnsgd1na2vs0mg"},{"bike_id":"95e7d460-1422-412f-9478-51aa35c6cc8f","system_id":"levelo_inurba_marseille","lat":43.299243,"lon":5.374807,"is_reserved":false,"is_disabled":false,"rental_uris":{"android":"levelo://app?vid=95e7d460-1422-412f-9478-51aa35c6cc8f","ios":"levelo://app?vid=95e7d460-1422-412f-9478-51aa35c6cc8f"},"vehicle_type_id":"4","last_reported":1724616569,"current_range_meters":31200,"station_id":"ce4bgjh2rcd13ifvqbg0","pricing_plan_id":"cebpf4jnsgd1na2vs0mg"},{"bike_id":"0626c0d4-924f-440f-b429-ab81018c1157","system_id":"levelo_inurba_marseille","lat":43.31169,"lon":5.387135,"is_reserved":false,"is_disabled":false,"rental_uris":{"android":"levelo://app?vid=0626c0d4-924f-440f-b429-ab81018c1157","ios":"levelo://app?vid=0626c0d4-924f-440f-b429-ab81018c1157"},"vehicle_type_id":"4","last_reported":1724616569,"current_range_meters":31200,"station_id":"ce4bgv12rcd13ifvqcp0","pricing_plan_id":"cebpf4jnsgd1na2vs0mg"},{"bike_id":"2697a8e0-7735-4b85-9b41-987519b7b085","system_id":"levelo_inurba_marseille","lat":43.299243,"lon":5.374807,"is_reserved":false,"is_disabled":false,"rental_uris":{"android":"levelo://app?vid=2697a8e0-7735-4b85-9b41-987519b7b085","ios":"levelo://app?vid=2697a8e0-7735-4b85-9b41-987519b7b085"},"vehicle_type_id":"4","last_reported":1724616569,"current_range_meters":17200,"station_id":"ce4bgjh2rcd13ifvqbg0","pricing_plan_id":"cebpf4jnsgd1na2vs0mg"},{"bike_id":"d8325c65-0691-495e-aae3-54646d546655","system_id":"levelo_inurba_marseille","lat":43.311722,"lon":5.387247,"is_reserved":false,"is_disabled":false,"rental_uris":{"android":"levelo://app?vid=d8325c65-0691-495e-aae3-54646d546655","ios":"levelo://app?vid=d8325c65-0691-495e-aae3-54646d546655"},"vehicle_type_id":"4","last_reported":1724616569,"current_range_meters":6000,"station_id":"ce4bgv12rcd13ifvqcp0","pricing_plan_id":"cebpf4jnsgd1na2vs0mg"},{"bike_id":"38b7b8cd-e7f7-4c89-9352-d25fdbcf8ca9","system_id":"levelo_inurba_marseille","lat":43.311722,"lon":5.387247,"is_reserved":false,"is_disabled":false,"rental_uris":{"android":"levelo://app?vid=38b7b8cd-e7f7-4c89-9352-d25fdbcf8ca9","ios":"levelo://app?vid=38b7b8cd-e7f7-4c89-9352-d25fdbcf8ca9"},"vehicle_type_id":"4","last_reported":1724616569,"current_range_meters":14800,"station_id":"ce4bgv12rcd13ifvqcp0","pricing_plan_id":"cebpf4jnsgd1na2vs0mg"},{"bike_id":"39c1291c-353c-4233-9020-fcf7540df864","system_id":"levelo_inurba_marseille","lat":43.311722,"lon":5.387247,"is_reserved":false,"is_disabled":false,"rental_uris":{"android":"levelo://app?vid=39c1291c-353c-4233-9020-fcf7540df864","ios":"levelo://app?vid=39c1291c-353c-4233-9020-fcf7540df864"},"vehicle_type_id":"4","last_reported":1724616569,"current_range_meters":4400,"station_id":"ce4bgv12rcd13ifvqcp0","pricing_plan_id":"cebpf4jnsgd1na2vs0mg"},{"bike_id":"547ba79b-9eb6-4fbd-9549-ce8cc83bc450","system_id":"levelo_inurba_marseille","lat":43.311722,"lon":5.387247,"is_reserved":false,"is_disabled":false,"rental_uris":{"android":"levelo://app?vid=547ba79b-9eb6-4fbd-9549-ce8cc83bc450","ios":"levelo://app?vid=547ba79b-9eb6-4fbd-9549-ce8cc83bc450"},"vehicle_type_id":"4","last_reported":1724616569,"current_range_meters":14000,"station_id":"ce4bgv12rcd13ifvqcp0","pricing_plan_id":"cebpf4jnsgd1na2vs0mg"},{"bike_id":"6e1558d7-a836-49a9-8387-478368b3d16d","system_id":"levelo_inurba_marseille","lat":43.301417,"lon":5.3809,"is_reserved":false,"is_disabled":false,"rental_uris":{"android":"levelo://app?vid=6e1558d7-a836-49a9-8387-478368b3d16d","ios":"levelo://app?vid=6e1558d7-a836-49a9-8387-478368b3d16d"},"vehicle_type_id":"4","last_reported":1724616569,"current_range_meters":26400,"station_id":"ce4bgjp2rcd13ifvqbh0","pricing_plan_id":"cebpf4jnsgd1na2vs0mg"},{"bike_id":"1600b445-4c74-401c-8ded-fbe3246e677e","system_id":"levelo_inurba_marseille","lat":43.322912,"lon":5.38258,"is_reserved":false,"is_disabled":false,"rental_uris":{"android":"levelo://app?vid=1600b445-4c74-401c-8ded-fbe3246e677e","ios":"levelo://app?vid=1600b445-4c74-401c-8ded-fbe3246e677e"},"vehicle_type_id":"4","last_reported":1724616569,"current_range_meters":24000,"station_id":"ce4bhr12rcd13ifvqhqg","pricing_plan_id":"cebpf4jnsgd1na2vs0mg"},{"bike_id":"43637faa-bc57-4af9-9031-ccf7137dafc6","system_id":"levelo_inurba_marseille","lat":43.322958,"lon":5.382622,"is_reserved":false,"is_disabled":false,"rental_uris":{"android":"levelo://app?vid=43637faa-bc57-4af9-9031-ccf7137dafc6","ios":"levelo://app?vid=43637faa-bc57-4af9-9031-ccf7137dafc6"},"vehicle_type_id":"4","last_reported":1724616569,"current_range_meters":17600,"station_id":"ce4bhr12rcd13ifvqhqg","pricing_plan_id":"cebpf4jnsgd1na2vs0mg"},{"bike_id":"562cf404-c2e2-4eec-84ba-16992be67cca","system_id":"levelo_inurba_marseille","lat":43.322872,"lon":5.382756,"is_reserved":false,"is_disabled":false,"rental_uris":{"android":"levelo://app?vid=562cf404-c2e2-4eec-84ba-16992be67cca","ios":"levelo://app?vid=562cf404-c2e2-4eec-84ba-16992be67cca"},"vehicle_type_id":"4","last_reported":1724616569,"current_range_meters":20400,"station_id":"ce4bhr12rcd13ifvqhqg","pricing_plan_id":"cebpf4jnsgd1na2vs0mg"},{"bike_id":"9d463c10-4f62-4795-a9e4-99e0d13224f9","system_id":"levelo_inurba_marseille","lat":43.322872,"lon":5.382756,"is_reserved":false,"is_disabled":false,"rental_uris":{"android":"levelo://app?vid=9d463c10-4f62-4795-a9e4-99e0d13224f9","ios":"levelo://app?vid=9d463c10-4f62-4795-a9e4-99e0d13224f9"},"vehicle_type_id":"4","last_reported":1724616569,"current_range_meters":25600,"station_id":"ce4bhr12rcd13ifvqhqg","pricing_plan_id":"cebpf4jnsgd1na2vs0mg"},{"bike_id":"8f5cf47f-a4b4-4766-afa5-715d740b61c9","system_id":"levelo_inurba_marseille","lat":43.322872,"lon":5.382756,"is_reserved":false,"is_disabled":false,"rental_uris":{"android":"levelo://app?vid=8f5cf47f-a4b4-4766-afa5-715d740b61c9","ios":"levelo://app?vid=8f5cf47f-a4b4-4766-afa5-715d740b61c9"},"vehicle_type_id":"4","last_reported":1724616569,"current_range_meters":19600,"station_id":"ce4bhr12rcd13ifvqhqg","pricing_plan_id":"cebpf4jnsgd1na2vs0mg"},{"bike_id":"5a25dd36-05fa-4d72-9438-3cf4234ef78d","system_id":"levelo_inurba_marseille","lat":43.326,"lon":5.3788,"is_reserved":false,"is_disabled":false,"rental_uris":{"android":"levelo://app?vid=5a25dd36-05fa-4d72-9438-3cf4234ef78d","ios":"levelo://app?vid=5a25dd36-05fa-4d72-9438-3cf4234ef78d"},"vehicle_type_id":"4","last_reported":1724616569,"current_range_meters":9200,"station_id":"","pricing_plan_id":"cebpf4jnsgd1na2vs0mg"},{"bike_id":"bdaae987-82e0-4cd3-84ee-3da50d7b9557","system_id":"levelo_inurba_marseille","lat":43.2968,"lon":5.37291,"is_reserved":false,"is_disabled":false,"rental_uris":{"android":"levelo://app?vid=bdaae987-82e0-4cd3-84ee-3da50d7b9557","ios":"levelo://app?vid=bdaae987-82e0-4cd3-84ee-3da50d7b9557"},"vehicle_type_id":"4","last_reported":1724616569,"current_range_meters":28000,"station_id":"ce4bgk12rcd13ifvqbj0","pricing_plan_id":"cebpf4jnsgd1na2vs0mg"},{"bike_id":"e59ed6b1-7c23-492b-844b-f2b76d98482e","system_id":"levelo_inurba_marseille","lat":43.311722,"lon":5.387247,"is_reserved":false,"is_disabled":false,"rental_uris":{"android":"levelo://app?vid=e59ed6b1-7c23-492b-844b-f2b76d98482e","ios":"levelo://app?vid=e59ed6b1-7c23-492b-844b-f2b76d98482e"},"vehicle_type_id":"4","last_reported":1724616569,"current_range_meters":9200,"station_id":"ce4bgv12rcd13ifvqcp0","pricing_plan_id":"cebpf4jnsgd1na2vs0mg"},{"bike_id":"26e4dcfd-62a0-4086-a21c-e24094596ced","system_id":"levelo_inurba_marseille","lat":43.29682,"lon":5.37367,"is_reserved":false,"is_disabled":false,"rental_uris":{"android":"levelo://app?vid=26e4dcfd-62a0-4086-a21c-e24094596ced","ios":"levelo://app?vid=26e4dcfd-62a0-4086-a21c-e24094596ced"},"vehicle_type_id":"4","last_reported":1724616569,"current_range_meters":12800,"station_id":"","pricing_plan_id":"cebpf4jnsgd1na2vs0mg"},{"bike_id":"9b27aca0-2bbf-4afc-92f3-6c845669063d","system_id":"levelo_inurba_marseille","lat":43.326949,"lon":5.378997,"is_reserved":false,"is_disabled":false,"rental_uris":{"android":"levelo://app?vid=9b27aca0-2bbf-4afc-92f3-6c845669063d","ios":"levelo://app?vid=9b27aca0-2bbf-4afc-92f3-6c845669063d"},"vehicle_type_id":"4","last_reported":1724616569,"current_range_meters":10800,"station_id":"","pricing_plan_id":"cebpf4jnsgd1na2vs0mg"},{"bike_id":"601ac4d7-a0ee-423d-84f8-1142ee53153b","system_id":"levelo_inurba_marseille","lat":43.296131,"lon":5.370791,"is_reserved":false,"is_disabled":false,"rental_uris":{"android":"levelo://app?vid=601ac4d7-a0ee-423d-84f8-1142ee53153b","ios":"levelo://app?vid=601ac4d7-a0ee-423d-84f8-1142ee53153b"},"vehicle_type_id":"4","last_reported":1724616569,"current_range_meters":13200,"station_id":"ce4bgnh2rcd13ifvqc0g","pricing_plan_id":"cebpf4jnsgd1na2vs0mg"},{"bike_id":"0f80e4a7-dd24-4bcb-898e-d82ea20cfec9","system_id":"levelo_inurba_marseille","lat":43.2963,"lon":5.36031,"is_reserved":false,"is_disabled":false,"rental_uris":{"android":"levelo://app?vid=0f80e4a7-dd24-4bcb-898e-d82ea20cfec9","ios":"levelo://app?vid=0f80e4a7-dd24-4bcb-898e-d82ea20cfec9"},"vehicle_type_id":"4","last_reported":1724616569,"current_range_meters":0,"station_id":"","pricing_plan_id":"cebpf4jnsgd1na2vs0mg"},{"bike_id":"59eca141-72ac-4091-9b22-24cdf5e04ba5","system_id":"levelo_inurba_marseille","lat":43.296935,"lon":5.376544,"is_reserved":false,"is_disabled":false,"rental_uris":{"android":"levelo://app?vid=59eca141-72ac-4091-9b22-24cdf5e04ba5","ios":"levelo://app?vid=59eca141-72ac-4091-9b22-24cdf5e04ba5"},"vehicle_type_id":"4","last_reported":1724616569,"current_range_meters":22800,"station_id":"ce4bgkh2rcd13ifvqbl0","pricing_plan_id":"cebpf4jnsgd1na2vs0mg"},{"bike_id":"e561322b-7875-4f50-9a17-d36a00843671","system_id":"levelo_inurba_marseille","lat":43.309589,"lon":5.390258,"is_reserved":false,"is_disabled":false,"rental_uris":{"android":"levelo://app?vid=e561322b-7875-4f50-9a17-d36a00843671","ios":"levelo://app?vid=e561322b-7875-4f50-9a17-d36a00843671"},"vehicle_type_id":"4","last_reported":1724616569,"current_range_meters":15200,"station_id":"ce4bgup2rcd13ifvqco0","pricing_plan_id":"cebpf4jnsgd1na2vs0mg"},{"bike_id":"ba250f4b-7d6d-4e90-b415-7855f00af9f1","system_id":"levelo_inurba_marseille","lat":43.299028,"lon":5.381509,"is_reserved":false,"is_disabled":false,"rental_uris":{"android":"levelo://app?vid=ba250f4b-7d6d-4e90-b415-7855f00af9f1","ios":"levelo://app?vid=ba250f4b-7d6d-4e90-b415-7855f00af9f1"},"vehicle_type_id":"4","last_reported":1724616569,"current_range_meters":20400,"station_id":"ce4bgj12rcd13ifvqbc0","pricing_plan_id":"cebpf4jnsgd1na2vs0mg"},{"bike_id":"e23b5135-05cf-48d2-905d-a30772322ea3","system_id":"levelo_inurba_marseille","lat":43.30958,"lon":5.39032,"is_reserved":false,"is_disabled":false,"rental_uris":{"android":"levelo://app?vid=e23b5135-05cf-48d2-905d-a30772322ea3","ios":"levelo://app?vid=e23b5135-05cf-48d2-905d-a30772322ea3"},"vehicle_type_id":"4","last_reported":1724616569,"current_range_meters":0,"station_id":"ce4bgup2rcd13ifvqco0","pricing_plan_id":"cebpf4jnsgd1na2vs0mg"},{"bike_id":"767d420d-936d-425d-867f-27ebd4985ee2","system_id":"levelo_inurba_marseille","lat":43.309589,"lon":5.390258,"is_reserved":false,"is_disabled":false,"rental_uris":{"android":"levelo://app?vid=767d420d-936d-425d-867f-27ebd4985ee2","ios":"levelo://app?vid=767d420d-936d-425d-867f-27ebd4985ee2"},"vehicle_type_id":"4","last_reported":1724616569,"current_range_meters":18000,"station_id":"ce4bgup2rcd13ifvqco0","pricing_plan_id":"cebpf4jnsgd1na2vs0mg"},{"bike_id":"7528c415-7a2e-40d1-b4a9-dd588ae2b81b","system_id":"levelo_inurba_marseille","lat":43.309589,"lon":5.390258,"is_reserved":false,"is_disabled":false,"rental_uris":{"android":"levelo://app?vid=7528c415-7a2e-40d1-b4a9-dd588ae2b81b","ios":"levelo://app?vid=7528c415-7a2e-40d1-b4a9-dd588ae2b81b"},"vehicle_type_id":"4","last_reported":1724616569,"current_range_meters":1200,"station_id":"ce4bgup2rcd13ifvqco0","pricing_plan_id":"cebpf4jnsgd1na2vs0mg"},{"bike_id":"a20c3d66-798b-4952-aea6-26639280002e","system_id":"levelo_inurba_marseille","lat":43.299028,"lon":5.381509,"is_reserved":false,"is_disabled":false,"rental_uris":{"android":"levelo://app?vid=a20c3d66-798b-4952-aea6-26639280002e","ios":"levelo://app?vid=a20c3d66-798b-4952-aea6-26639280002e"},"vehicle_type_id":"4","last_reported":1724616569,"current_range_meters":28000,"station_id":"ce4bgj12rcd13ifvqbc0","pricing_plan_id":"cebpf4jnsgd1na2vs0mg"},{"bike_id":"92aa8a0a-2a1b-420f-848c-0a8863b8d047","system_id":"levelo_inurba_marseille","lat":43.30952,"lon":5.39034,"is_reserved":false,"is_disabled":false,"rental_uris":{"android":"levelo://app?vid=92aa8a0a-2a1b-420f-848c-0a8863b8d047","ios":"levelo://app?vid=92aa8a0a-2a1b-420f-848c-0a8863b8d047"},"vehicle_type_id":"4","last_reported":1724616569,"current_range_meters":31200,"station_id":"ce4bgup2rcd13ifvqco0","pricing_plan_id":"cebpf4jnsgd1na2vs0mg"},{"bike_id":"29e50de1-edfb-4b7f-bdf6-f2df6ada0510","system_id":"levelo_inurba_marseille","lat":43.309458,"lon":5.39041,"is_reserved":false,"is_disabled":false,"rental_uris":{"android":"levelo://app?vid=29e50de1-edfb-4b7f-bdf6-f2df6ada0510","ios":"levelo://app?vid=29e50de1-edfb-4b7f-bdf6-f2df6ada0510"},"vehicle_type_id":"4","last_reported":1724616569,"current_range_meters":31200,"station_id":"ce4bgup2rcd13ifvqco0","pricing_plan_id":"cebpf4jnsgd1na2vs0mg"},{"bike_id":"047eff78-1882-4999-b192-8225710cf58e","system_id":"levelo_inurba_marseille","lat":43.29581,"lon":5.36117,"is_reserved":false,"is_disabled":false,"rental_uris":{"android":"levelo://app?vid=047eff78-1882-4999-b192-8225710cf58e","ios":"levelo://app?vid=047eff78-1882-4999-b192-8225710cf58e"},"vehicle_type_id":"4","last_reported":1724616569,"current_range_meters":17200,"station_id":"","pricing_plan_id":"cebpf4jnsgd1na2vs0mg"},{"bike_id":"e6fd205d-6a33-4337-837d-c3b0ba2eac92","system_id":"levelo_inurba_marseille","lat":43.317557,"lon":5.390173,"is_reserved":false,"is_disabled":false,"rental_uris":{"android":"levelo://app?vid=e6fd205d-6a33-4337-837d-c3b0ba2eac92","ios":"levelo://app?vid=e6fd205d-6a33-4337-837d-c3b0ba2eac92"},"vehicle_type_id":"4","last_reported":1724616569,"current_range_meters":18000,"station_id":"ce4bhqp2rcd13ifvqhng","pricing_plan_id":"cebpf4jnsgd1na2vs0mg"},{"bike_id":"226b65c0-ca0a-4f97-bf1e-25075e0211af","system_id":"levelo_inurba_marseille","lat":43.317557,"lon":5.390173,"is_reserved":false,"is_disabled":false,"rental_uris":{"android":"levelo://app?vid=226b65c0-ca0a-4f97-bf1e-25075e0211af","ios":"levelo://app?vid=226b65c0-ca0a-4f97-bf1e-25075e0211af"},"vehicle_type_id":"4","last_reported":1724616569,"current_range_meters":7600,"station_id":"ce4bhqp2rcd13ifvqhng","pricing_plan_id":"cebpf4jnsgd1na2vs0mg"},{"bike_id":"cd0508c0-8fc9-425d-bd77-81c1a226ae1f","system_id":"levelo_inurba_marseille","lat":43.317557,"lon":5.390173,"is_reserved":false,"is_disabled":false,"rental_uris":{"android":"levelo://app?vid=cd0508c0-8fc9-425d-bd77-81c1a226ae1f","ios":"levelo://app?vid=cd0508c0-8fc9-425d-bd77-81c1a226ae1f"},"vehicle_type_id":"4","last_reported":1724616569,"current_range_meters":4000,"station_id":"ce4bhqp2rcd13ifvqhng","pricing_plan_id":"cebpf4jnsgd1na2vs0mg"},{"bike_id":"f3a30803-e6e6-44e8-b48a-491c239989cf","system_id":"levelo_inurba_marseille","lat":43.317557,"lon":5.390173,"is_reserved":false,"is_disabled":false,"rental_uris":{"android":"levelo://app?vid=f3a30803-e6e6-44e8-b48a-491c239989cf","ios":"levelo://app?vid=f3a30803-e6e6-44e8-b48a-491c239989cf"},"vehicle_type_id":"4","last_reported":1724616569,"current_range_meters":6000,"station_id":"ce4bhqp2rcd13ifvqhng","pricing_plan_id":"cebpf4jnsgd1na2vs0mg"},{"bike_id":"83ed9b6a-deea-4f8d-a9f4-3f45357a6f08","system_id":"levelo_inurba_marseille","lat":43.29753,"lon":5.37957,"is_reserved":false,"is_disabled":false,"rental_uris":{"android":"levelo://app?vid=83ed9b6a-deea-4f8d-a9f4-3f45357a6f08","ios":"levelo://app?vid=83ed9b6a-deea-4f8d-a9f4-3f45357a6f08"},"vehicle_type_id":"4","last_reported":1724616569,"current_range_meters":17600,"station_id":"","pricing_plan_id":"cebpf4jnsgd1na2vs0mg"},{"bike_id":"18cded25-4e23-49d1-82c2-835407dc0026","system_id":"levelo_inurba_marseille","lat":43.298037,"lon":5.381066,"is_reserved":false,"is_disabled":false,"rental_uris":{"android":"levelo://app?vid=18cded25-4e23-49d1-82c2-835407dc0026","ios":"levelo://app?vid=18cded25-4e23-49d1-82c2-835407dc0026"},"vehicle_type_id":"4","last_reported":1724616569,"current_range_meters":29200,"station_id":"ce4bgip2rcd13ifvqbb0","pricing_plan_id":"cebpf4jnsgd1na2vs0mg"},{"bike_id":"178afe1d-fa9b-44c9-a1da-f0d6e694e2eb","system_id":"levelo_inurba_marseille","lat":43.298976,"lon":5.382919,"is_reserved":false,"is_disabled":false,"rental_uris":{"android":"levelo://app?vid=178afe1d-fa9b-44c9-a1da-f0d6e694e2eb","ios":"levelo://app?vid=178afe1d-fa9b-44c9-a1da-f0d6e694e2eb"},"vehicle_type_id":"4","last_reported":1724616569,"current_range_meters":800,"station_id":"","pricing_plan_id":"cebpf4jnsgd1na2vs0mg"},{"bike_id":"4b4b767f-fa3d-4815-9b66-837ff1bbd4e8","system_id":"levelo_inurba_marseille","lat":43.29527,"lon":5.37504,"is_reserved":false,"is_disabled":false,"rental_uris":{"android":"levelo://app?vid=4b4b767f-fa3d-4815-9b66-837ff1bbd4e8","ios":"levelo://app?vid=4b4b767f-fa3d-4815-9b66-837ff1bbd4e8"},"vehicle_type_id":"4","last_reported":1724616569,"current_range_meters":29200,"station_id":"","pricing_plan_id":"cebpf4jnsgd1na2vs0mg"},{"bike_id":"de16bb65-f5c4-499d-8e2c-79889accf61a","system_id":"levelo_inurba_marseille","lat":43.299717,"lon":5.384845,"is_reserved":false,"is_disabled":false,"rental_uris":{"android":"levelo://app?vid=de16bb65-f5c4-499d-8e2c-79889accf61a","ios":"levelo://app?vid=de16bb65-f5c4-499d-8e2c-79889accf61a"},"vehicle_type_id":"4","last_reported":1724616569,"current_range_meters":1200,"station_id":"ce4bgj92rcd13ifvqbd0","pricing_plan_id":"cebpf4jnsgd1na2vs0mg"},{"bike_id":"770e42d1-fc9a-4ecb-9931-8ee7524c5217","system_id":"levelo_inurba_marseille","lat":43.299028,"lon":5.381509,"is_reserved":false,"is_disabled":false,"rental_uris":{"android":"levelo://app?vid=770e42d1-fc9a-4ecb-9931-8ee7524c5217","ios":"levelo://app?vid=770e42d1-fc9a-4ecb-9931-8ee7524c5217"},"vehicle_type_id":"4","last_reported":1724616569,"current_range_meters":16000,"station_id":"ce4bgj12rcd13ifvqbc0","pricing_plan_id":"cebpf4jnsgd1na2vs0mg"},{"bike_id":"04264232-95d0-451a-ae5d-cfa1d25b51bd","system_id":"levelo_inurba_marseille","lat":43.299717,"lon":5.384845,"is_reserved":false,"is_disabled":false,"rental_uris":{"android":"levelo://app?vid=04264232-95d0-451a-ae5d-cfa1d25b51bd","ios":"levelo://app?vid=04264232-95d0-451a-ae5d-cfa1d25b51bd"},"vehicle_type_id":"4","last_reported":1724616569,"current_range_meters":3600,"station_id":"ce4bgj92rcd13ifvqbd0","pricing_plan_id":"cebpf4jnsgd1na2vs0mg"},{"bike_id":"a00a62fa-c810-4147-8cf3-a4c4c6323d60","system_id":"levelo_inurba_marseille","lat":43.2936,"lon":5.37835,"is_reserved":false,"is_disabled":false,"rental_uris":{"android":"levelo://app?vid=a00a62fa-c810-4147-8cf3-a4c4c6323d60","ios":"levelo://app?vid=a00a62fa-c810-4147-8cf3-a4c4c6323d60"},"vehicle_type_id":"4","last_reported":1724616569,"current_range_meters":15600,"station_id":"ce4bgjh2rcd13ifvqbf0","pricing_plan_id":"cebpf4jnsgd1na2vs0mg"},{"bike_id":"93196cbe-223b-49a3-a83a-847eb2c57653","system_id":"levelo_inurba_marseille","lat":43.32367,"lon":5.388836,"is_reserved":false,"is_disabled":false,"rental_uris":{"android":"levelo://app?vid=93196cbe-223b-49a3-a83a-847eb2c57653","ios":"levelo://app?vid=93196cbe-223b-49a3-a83a-847eb2c57653"},"vehicle_type_id":"4","last_reported":1724616569,"current_range_meters":400,"station_id":"ce4bhqp2rcd13ifvqhog","pricing_plan_id":"cebpf4jnsgd1na2vs0mg"},{"bike_id":"e9f43118-4f53-4435-8e12-a9693a896f53","system_id":"levelo_inurba_marseille","lat":43.32367,"lon":5.388836,"is_reserved":false,"is_disabled":false,"rental_uris":{"android":"levelo://app?vid=e9f43118-4f53-4435-8e12-a9693a896f53","ios":"levelo://app?vid=e9f43118-4f53-4435-8e12-a9693a896f53"},"vehicle_type_id":"4","last_reported":1724616569,"current_range_meters":0,"station_id":"ce4bhqp2rcd13ifvqhog","pricing_plan_id":"cebpf4jnsgd1na2vs0mg"},{"bike_id":"a1ee482f-2a7a-407c-90ad-26034a19fdf3","system_id":"levelo_inurba_marseille","lat":43.32367,"lon":5.388836,"is_reserved":false,"is_disabled":false,"rental_uris":{"android":"levelo://app?vid=a1ee482f-2a7a-407c-90ad-26034a19fdf3","ios":"levelo://app?vid=a1ee482f-2a7a-407c-90ad-26034a19fdf3"},"vehicle_type_id":"4","last_reported":1724616569,"current_range_meters":10000,"station_id":"ce4bhqp2rcd13ifvqhog","pricing_plan_id":"cebpf4jnsgd1na2vs0mg"},{"bike_id":"b7f46197-e973-44c9-991c-767f7a984c59","system_id":"levelo_inurba_marseille","lat":43.299844,"lon":5.387623,"is_reserved":false,"is_disabled":false,"rental_uris":{"android":"levelo://app?vid=b7f46197-e973-44c9-991c-767f7a984c59","ios":"levelo://app?vid=b7f46197-e973-44c9-991c-767f7a984c59"},"vehicle_type_id":"4","last_reported":1724616569,"current_range_meters":0,"station_id":"","pricing_plan_id":"cebpf4jnsgd1na2vs0mg"},{"bike_id":"f45ac058-b2f3-4705-8e8e-d962d20d4611","system_id":"levelo_inurba_marseille","lat":43.31147,"lon":5.39418,"is_reserved":false,"is_disabled":false,"rental_uris":{"android":"levelo://app?vid=f45ac058-b2f3-4705-8e8e-d962d20d4611","ios":"levelo://app?vid=f45ac058-b2f3-4705-8e8e-d962d20d4611"},"vehicle_type_id":"4","last_reported":1724616569,"current_range_meters":15600,"station_id":"","pricing_plan_id":"cebpf4jnsgd1na2vs0mg"},{"bike_id":"755b3b9b-4f73-4651-8c27-0763b613289c","system_id":"levelo_inurba_marseille","lat":43.293026,"lon":5.371763,"is_reserved":false,"is_disabled":false,"rental_uris":{"android":"levelo://app?vid=755b3b9b-4f73-4651-8c27-0763b613289c","ios":"levelo://app?vid=755b3b9b-4f73-4651-8c27-0763b613289c"},"vehicle_type_id":"4","last_reported":1724616569,"current_range_meters":16400,"station_id":"ce4bgh92rcd13ifvqb40","pricing_plan_id":"cebpf4jnsgd1na2vs0mg"},{"bike_id":"2861ae1f-22c4-4b47-92a4-2ebe280de7fb","system_id":"levelo_inurba_marseille","lat":43.29273,"lon":5.36843,"is_reserved":false,"is_disabled":false,"rental_uris":{"android":"levelo://app?vid=2861ae1f-22c4-4b47-92a4-2ebe280de7fb","ios":"levelo://app?vid=2861ae1f-22c4-4b47-92a4-2ebe280de7fb"},"vehicle_type_id":"4","last_reported":1724616569,"current_range_meters":0,"station_id":"ce4bhbp2rcd13ifvqesg","pricing_plan_id":"cebpf4jnsgd1na2vs0mg"},{"bike_id":"c69b0fe4-5806-43d0-a672-f78be23437e7","system_id":"levelo_inurba_marseille","lat":43.29294,"lon":5.37175,"is_reserved":false,"is_disabled":false,"rental_uris":{"android":"levelo://app?vid=c69b0fe4-5806-43d0-a672-f78be23437e7","ios":"levelo://app?vid=c69b0fe4-5806-43d0-a672-f78be23437e7"},"vehicle_type_id":"4","last_reported":1724616569,"current_range_meters":14000,"station_id":"ce4bgh92rcd13ifvqb40","pricing_plan_id":"cebpf4jnsgd1na2vs0mg"},{"bike_id":"4d01eb7e-4ec0-45bb-aca1-2f227ee2094a","system_id":"levelo_inurba_marseille","lat":43.292749,"lon":5.368402,"is_reserved":false,"is_disabled":false,"rental_uris":{"android":"levelo://app?vid=4d01eb7e-4ec0-45bb-aca1-2f227ee2094a","ios":"levelo://app?vid=4d01eb7e-4ec0-45bb-aca1-2f227ee2094a"},"vehicle_type_id":"4","last_reported":1724616569,"current_range_meters":0,"station_id":"ce4bhbp2rcd13ifvqesg","pricing_plan_id":"cebpf4jnsgd1na2vs0mg"},{"bike_id":"7165bfca-c536-413a-9797-b16907b7d9b3","system_id":"levelo_inurba_marseille","lat":43.30591,"lon":5.3936,"is_reserved":false,"is_disabled":false,"rental_uris":{"android":"levelo://app?vid=7165bfca-c536-413a-9797-b16907b7d9b3","ios":"levelo://app?vid=7165bfca-c536-413a-9797-b16907b7d9b3"},"vehicle_type_id":"4","last_reported":1724616569,"current_range_meters":24400,"station_id":"ce4bh0p2rcd13ifvqd80","pricing_plan_id":"cebpf4jnsgd1na2vs0mg"},{"bike_id":"173ec62e-9ca4-45a3-8586-0969c8c5136b","system_id":"levelo_inurba_marseille","lat":43.2936,"lon":5.37835,"is_reserved":false,"is_disabled":false,"rental_uris":{"android":"levelo://app?vid=173ec62e-9ca4-45a3-8586-0969c8c5136b","ios":"levelo://app?vid=173ec62e-9ca4-45a3-8586-0969c8c5136b"},"vehicle_type_id":"4","last_reported":1724616569,"current_range_meters":11600,"station_id":"ce4bgjh2rcd13ifvqbf0","pricing_plan_id":"cebpf4jnsgd1na2vs0mg"},{"bike_id":"bddb1b67-83f0-4ca7-bf15-a3b0ff317ec0","system_id":"levelo_inurba_marseille","lat":43.292311,"lon":5.360731,"is_reserved":false,"is_disabled":false,"rental_uris":{"android":"levelo://app?vid=bddb1b67-83f0-4ca7-bf15-a3b0ff317ec0","ios":"levelo://app?vid=bddb1b67-83f0-4ca7-bf15-a3b0ff317ec0"},"vehicle_type_id":"4","last_reported":1724616569,"current_range_meters":31200,"station_id":"ce4bhbh2rcd13ifvqeqg","pricing_plan_id":"cebpf4jnsgd1na2vs0mg"},{"bike_id":"5b142d30-48d4-4289-a341-fce40f79128d","system_id":"levelo_inurba_marseille","lat":43.298764,"lon":5.388973,"is_reserved":false,"is_disabled":false,"rental_uris":{"android":"levelo://app?vid=5b142d30-48d4-4289-a341-fce40f79128d","ios":"levelo://app?vid=5b142d30-48d4-4289-a341-fce40f79128d"},"vehicle_type_id":"4","last_reported":1724616569,"current_range_meters":29200,"station_id":"ce4bh392rcd13ifvqdl0","pricing_plan_id":"cebpf4jnsgd1na2vs0mg"},{"bike_id":"9bdd91e1-ebe3-48e1-8ad4-cb4e0d75619e","system_id":"levelo_inurba_marseille","lat":43.298764,"lon":5.388973,"is_reserved":false,"is_disabled":false,"rental_uris":{"android":"levelo://app?vid=9bdd91e1-ebe3-48e1-8ad4-cb4e0d75619e","ios":"levelo://app?vid=9bdd91e1-ebe3-48e1-8ad4-cb4e0d75619e"},"vehicle_type_id":"4","last_reported":1724616569,"current_range_meters":17200,"station_id":"ce4bh392rcd13ifvqdl0","pricing_plan_id":"cebpf4jnsgd1na2vs0mg"},{"bike_id":"71415070-b213-4f96-ad94-478c08f25a84","system_id":"levelo_inurba_marseille","lat":43.298764,"lon":5.388973,"is_reserved":false,"is_disabled":false,"rental_uris":{"android":"levelo://app?vid=71415070-b213-4f96-ad94-478c08f25a84","ios":"levelo://app?vid=71415070-b213-4f96-ad94-478c08f25a84"},"vehicle_type_id":"4","last_reported":1724616569,"current_range_meters":19200,"station_id":"ce4bh392rcd13ifvqdl0","pricing_plan_id":"cebpf4jnsgd1na2vs0mg"},{"bike_id":"bc004aee-b2f8-45f2-b46c-66487b7fd7c5","system_id":"levelo_inurba_marseille","lat":43.291671,"lon":5.371575,"is_reserved":false,"is_disabled":false,"rental_uris":{"android":"levelo://app?vid=bc004aee-b2f8-45f2-b46c-66487b7fd7c5","ios":"levelo://app?vid=bc004aee-b2f8-45f2-b46c-66487b7fd7c5"},"vehicle_type_id":"4","last_reported":1724616569,"current_range_meters":4800,"station_id":"ce4bha92rcd13ifvqeh0","pricing_plan_id":"cebpf4jnsgd1na2vs0mg"},{"bike_id":"88d19492-030c-42c9-8e92-3f50eb73d1fe","system_id":"levelo_inurba_marseille","lat":43.298764,"lon":5.388973,"is_reserved":false,"is_disabled":false,"rental_uris":{"android":"levelo://app?vid=88d19492-030c-42c9-8e92-3f50eb73d1fe","ios":"levelo://app?vid=88d19492-030c-42c9-8e92-3f50eb73d1fe"},"vehicle_type_id":"4","last_reported":1724616569,"current_range_meters":30400,"station_id":"ce4bh392rcd13ifvqdl0","pricing_plan_id":"cebpf4jnsgd1na2vs0mg"},{"bike_id":"f5ad40f5-9991-4a4a-b2df-1cae1d40ccad","system_id":"levelo_inurba_marseille","lat":43.291584,"lon":5.371708,"is_reserved":false,"is_disabled":false,"rental_uris":{"android":"levelo://app?vid=f5ad40f5-9991-4a4a-b2df-1cae1d40ccad","ios":"levelo://app?vid=f5ad40f5-9991-4a4a-b2df-1cae1d40ccad"},"vehicle_type_id":"4","last_reported":1724616569,"current_range_meters":0,"station_id":"ce4bha92rcd13ifvqeh0","pricing_plan_id":"cebpf4jnsgd1na2vs0mg"},{"bike_id":"84a53325-f4f6-4413-9cb4-7474a4cc396c","system_id":"levelo_inurba_marseille","lat":43.292005,"lon":5.357875,"is_reserved":false,"is_disabled":false,"rental_uris":{"android":"levelo://app?vid=84a53325-f4f6-4413-9cb4-7474a4cc396c","ios":"levelo://app?vid=84a53325-f4f6-4413-9cb4-7474a4cc396c"},"vehicle_type_id":"4","last_reported":1724616569,"current_range_meters":31200,"station_id":"ce4bhb12rcd13ifvqel0","pricing_plan_id":"cebpf4jnsgd1na2vs0mg"},{"bike_id":"f2a40bc6-d958-460c-b491-32a69ed320fd","system_id":"levelo_inurba_marseille","lat":43.292005,"lon":5.357875,"is_reserved":false,"is_disabled":false,"rental_uris":{"android":"levelo://app?vid=f2a40bc6-d958-460c-b491-32a69ed320fd","ios":"levelo://app?vid=f2a40bc6-d958-460c-b491-32a69ed320fd"},"vehicle_type_id":"4","last_reported":1724616569,"current_range_meters":31200,"station_id":"ce4bhb12rcd13ifvqel0","pricing_plan_id":"cebpf4jnsgd1na2vs0mg"},{"bike_id":"a5408af1-de75-4247-8ffa-aa732e120886","system_id":"levelo_inurba_marseille","lat":43.313291,"lon":5.396838,"is_reserved":false,"is_disabled":false,"rental_uris":{"android":"levelo://app?vid=a5408af1-de75-4247-8ffa-aa732e120886","ios":"levelo://app?vid=a5408af1-de75-4247-8ffa-aa732e120886"},"vehicle_type_id":"4","last_reported":1724616569,"current_range_meters":14400,"station_id":"ce4bgvp2rcd13ifvqcu0","pricing_plan_id":"cebpf4jnsgd1na2vs0mg"},{"bike_id":"47cc336f-b081-4b0e-8784-62524dd2482f","system_id":"levelo_inurba_marseille","lat":43.29192,"lon":5.35796,"is_reserved":false,"is_disabled":false,"rental_uris":{"android":"levelo://app?vid=47cc336f-b081-4b0e-8784-62524dd2482f","ios":"levelo://app?vid=47cc336f-b081-4b0e-8784-62524dd2482f"},"vehicle_type_id":"4","last_reported":1724616569,"current_range_meters":0,"station_id":"ce4bhb12rcd13ifvqel0","pricing_plan_id":"cebpf4jnsgd1na2vs0mg"},{"bike_id":"8c28f288-8cf0-44d8-bc5f-5078de93c3c8","system_id":"levelo_inurba_marseille","lat":43.313291,"lon":5.396838,"is_reserved":false,"is_disabled":false,"rental_uris":{"android":"levelo://app?vid=8c28f288-8cf0-44d8-bc5f-5078de93c3c8","ios":"levelo://app?vid=8c28f288-8cf0-44d8-bc5f-5078de93c3c8"},"vehicle_type_id":"4","last_reported":1724616569,"current_range_meters":10400,"station_id":"ce4bgvp2rcd13ifvqcu0","pricing_plan_id":"cebpf4jnsgd1na2vs0mg"},{"bike_id":"c1e872f2-4ab6-4687-85b5-0c27fc33ec8f","system_id":"levelo_inurba_marseille","lat":43.313291,"lon":5.396838,"is_reserved":false,"is_disabled":false,"rental_uris":{"android":"levelo://app?vid=c1e872f2-4ab6-4687-85b5-0c27fc33ec8f","ios":"levelo://app?vid=c1e872f2-4ab6-4687-85b5-0c27fc33ec8f"},"vehicle_type_id":"4","last_reported":1724616569,"current_range_meters":18400,"station_id":"ce4bgvp2rcd13ifvqcu0","pricing_plan_id":"cebpf4jnsgd1na2vs0mg"},{"bike_id":"609ea411-92f9-46ca-a133-d7b70a157b96","system_id":"levelo_inurba_marseille","lat":43.313291,"lon":5.396838,"is_reserved":false,"is_disabled":false,"rental_uris":{"android":"levelo://app?vid=609ea411-92f9-46ca-a133-d7b70a157b96","ios":"levelo://app?vid=609ea411-92f9-46ca-a133-d7b70a157b96"},"vehicle_type_id":"4","last_reported":1724616569,"current_range_meters":15200,"station_id":"ce4bgvp2rcd13ifvqcu0","pricing_plan_id":"cebpf4jnsgd1na2vs0mg"},{"bike_id":"87913a57-8662-47c3-a2ba-b9be49727475","system_id":"levelo_inurba_marseille","lat":43.309038,"lon":5.396546,"is_reserved":false,"is_disabled":false,"rental_uris":{"android":"levelo://app?vid=87913a57-8662-47c3-a2ba-b9be49727475","ios":"levelo://app?vid=87913a57-8662-47c3-a2ba-b9be49727475"},"vehicle_type_id":"4","last_reported":1724616569,"current_range_meters":16800,"station_id":"ce4bh012rcd13ifvqcv0","pricing_plan_id":"cebpf4jnsgd1na2vs0mg"},{"bike_id":"d8c245f8-a9f0-4b33-9660-d10633b9a6fb","system_id":"levelo_inurba_marseille","lat":43.313291,"lon":5.396838,"is_reserved":false,"is_disabled":false,"rental_uris":{"android":"levelo://app?vid=d8c245f8-a9f0-4b33-9660-d10633b9a6fb","ios":"levelo://app?vid=d8c245f8-a9f0-4b33-9660-d10633b9a6fb"},"vehicle_type_id":"4","last_reported":1724616569,"current_range_meters":20400,"station_id":"ce4bgvp2rcd13ifvqcu0","pricing_plan_id":"cebpf4jnsgd1na2vs0mg"},{"bike_id":"64ef862e-5010-411c-a28f-7ed3b90d62f9","system_id":"levelo_inurba_marseille","lat":43.309038,"lon":5.396546,"is_reserved":false,"is_disabled":false,"rental_uris":{"android":"levelo://app?vid=64ef862e-5010-411c-a28f-7ed3b90d62f9","ios":"levelo://app?vid=64ef862e-5010-411c-a28f-7ed3b90d62f9"},"vehicle_type_id":"4","last_reported":1724616569,"current_range_meters":10400,"station_id":"ce4bh012rcd13ifvqcv0","pricing_plan_id":"cebpf4jnsgd1na2vs0mg"},{"bike_id":"06a8019c-48bf-442f-9b6e-2aa458d0e6af","system_id":"levelo_inurba_marseille","lat":43.309038,"lon":5.396546,"is_reserved":false,"is_disabled":false,"rental_uris":{"android":"levelo://app?vid=06a8019c-48bf-442f-9b6e-2aa458d0e6af","ios":"levelo://app?vid=06a8019c-48bf-442f-9b6e-2aa458d0e6af"},"vehicle_type_id":"4","last_reported":1724616569,"current_range_meters":26000,"station_id":"ce4bh012rcd13ifvqcv0","pricing_plan_id":"cebpf4jnsgd1na2vs0mg"},{"bike_id":"67d7baea-3a76-4f43-8d97-c8909ec1de43","system_id":"levelo_inurba_marseille","lat":43.313291,"lon":5.396838,"is_reserved":false,"is_disabled":false,"rental_uris":{"android":"levelo://app?vid=67d7baea-3a76-4f43-8d97-c8909ec1de43","ios":"levelo://app?vid=67d7baea-3a76-4f43-8d97-c8909ec1de43"},"vehicle_type_id":"4","last_reported":1724616569,"current_range_meters":4400,"station_id":"ce4bgvp2rcd13ifvqcu0","pricing_plan_id":"cebpf4jnsgd1na2vs0mg"},{"bike_id":"b2b337d3-3395-449e-bf4d-b73b5516697d","system_id":"levelo_inurba_marseille","lat":43.309047,"lon":5.396551,"is_reserved":false,"is_disabled":false,"rental_uris":{"android":"levelo://app?vid=b2b337d3-3395-449e-bf4d-b73b5516697d","ios":"levelo://app?vid=b2b337d3-3395-449e-bf4d-b73b5516697d"},"vehicle_type_id":"4","last_reported":1724616569,"current_range_meters":28000,"station_id":"ce4bh012rcd13ifvqcv0","pricing_plan_id":"cebpf4jnsgd1na2vs0mg"},{"bike_id":"b6bbccc9-ff72-413a-9163-fd059fe2f7f9","system_id":"levelo_inurba_marseille","lat":43.309047,"lon":5.396551,"is_reserved":false,"is_disabled":false,"rental_uris":{"android":"levelo://app?vid=b6bbccc9-ff72-413a-9163-fd059fe2f7f9","ios":"levelo://app?vid=b6bbccc9-ff72-413a-9163-fd059fe2f7f9"},"vehicle_type_id":"4","last_reported":1724616569,"current_range_meters":10400,"station_id":"ce4bh012rcd13ifvqcv0","pricing_plan_id":"cebpf4jnsgd1na2vs0mg"},{"bike_id":"2dd99d32-fd2d-4ff2-a3ea-7c819078c010","system_id":"levelo_inurba_marseille","lat":43.309038,"lon":5.396546,"is_reserved":false,"is_disabled":false,"rental_uris":{"android":"levelo://app?vid=2dd99d32-fd2d-4ff2-a3ea-7c819078c010","ios":"levelo://app?vid=2dd99d32-fd2d-4ff2-a3ea-7c819078c010"},"vehicle_type_id":"4","last_reported":1724616569,"current_range_meters":0,"station_id":"ce4bh012rcd13ifvqcv0","pricing_plan_id":"cebpf4jnsgd1na2vs0mg"},{"bike_id":"8375b614-c6c8-4236-9d4b-fe38b2e794b6","system_id":"levelo_inurba_marseille","lat":43.309038,"lon":5.396546,"is_reserved":false,"is_disabled":false,"rental_uris":{"android":"levelo://app?vid=8375b614-c6c8-4236-9d4b-fe38b2e794b6","ios":"levelo://app?vid=8375b614-c6c8-4236-9d4b-fe38b2e794b6"},"vehicle_type_id":"4","last_reported":1724616569,"current_range_meters":9200,"station_id":"ce4bh012rcd13ifvqcv0","pricing_plan_id":"cebpf4jnsgd1na2vs0mg"},{"bike_id":"78023808-393a-44f4-8f98-44b5331727ff","system_id":"levelo_inurba_marseille","lat":43.309047,"lon":5.396551,"is_reserved":false,"is_disabled":false,"rental_uris":{"android":"levelo://app?vid=78023808-393a-44f4-8f98-44b5331727ff","ios":"levelo://app?vid=78023808-393a-44f4-8f98-44b5331727ff"},"vehicle_type_id":"4","last_reported":1724616569,"current_range_meters":27600,"station_id":"ce4bh012rcd13ifvqcv0","pricing_plan_id":"cebpf4jnsgd1na2vs0mg"},{"bike_id":"c0d082bb-83b6-47d9-811a-b087c3717c6a","system_id":"levelo_inurba_marseille","lat":43.29529,"lon":5.385581,"is_reserved":false,"is_disabled":false,"rental_uris":{"android":"levelo://app?vid=c0d082bb-83b6-47d9-811a-b087c3717c6a","ios":"levelo://app?vid=c0d082bb-83b6-47d9-811a-b087c3717c6a"},"vehicle_type_id":"4","last_reported":1724616569,"current_range_meters":14000,"station_id":"ce4bgih2rcd13ifvqba0","pricing_plan_id":"cebpf4jnsgd1na2vs0mg"},{"bike_id":"af2b0476-eda6-4e38-80b6-d42a7ae05421","system_id":"levelo_inurba_marseille","lat":43.29529,"lon":5.385581,"is_reserved":false,"is_disabled":false,"rental_uris":{"android":"levelo://app?vid=af2b0476-eda6-4e38-80b6-d42a7ae05421","ios":"levelo://app?vid=af2b0476-eda6-4e38-80b6-d42a7ae05421"},"vehicle_type_id":"4","last_reported":1724616569,"current_range_meters":26400,"station_id":"ce4bgih2rcd13ifvqba0","pricing_plan_id":"cebpf4jnsgd1na2vs0mg"},{"bike_id":"a0774a3f-5bd6-4186-970c-aff2e4d48d00","system_id":"levelo_inurba_marseille","lat":43.29529,"lon":5.385581,"is_reserved":false,"is_disabled":false,"rental_uris":{"android":"levelo://app?vid=a0774a3f-5bd6-4186-970c-aff2e4d48d00","ios":"levelo://app?vid=a0774a3f-5bd6-4186-970c-aff2e4d48d00"},"vehicle_type_id":"4","last_reported":1724616569,"current_range_meters":800,"station_id":"ce4bgih2rcd13ifvqba0","pricing_plan_id":"cebpf4jnsgd1na2vs0mg"},{"bike_id":"c49516ad-cd0e-4f50-968d-8c6f07422860","system_id":"levelo_inurba_marseille","lat":43.29529,"lon":5.385581,"is_reserved":false,"is_disabled":false,"rental_uris":{"android":"levelo://app?vid=c49516ad-cd0e-4f50-968d-8c6f07422860","ios":"levelo://app?vid=c49516ad-cd0e-4f50-968d-8c6f07422860"},"vehicle_type_id":"4","last_reported":1724616569,"current_range_meters":22800,"station_id":"ce4bgih2rcd13ifvqba0","pricing_plan_id":"cebpf4jnsgd1na2vs0mg"},{"bike_id":"745cd823-a666-407b-b3c9-c3f48f82133e","system_id":"levelo_inurba_marseille","lat":43.29529,"lon":5.385581,"is_reserved":false,"is_disabled":false,"rental_uris":{"android":"levelo://app?vid=745cd823-a666-407b-b3c9-c3f48f82133e","ios":"levelo://app?vid=745cd823-a666-407b-b3c9-c3f48f82133e"},"vehicle_type_id":"4","last_reported":1724616569,"current_range_meters":13600,"station_id":"ce4bgih2rcd13ifvqba0","pricing_plan_id":"cebpf4jnsgd1na2vs0mg"},{"bike_id":"00b39f94-9fb5-4dbd-8021-b1b1fb540913","system_id":"levelo_inurba_marseille","lat":43.29529,"lon":5.385581,"is_reserved":false,"is_disabled":false,"rental_uris":{"android":"levelo://app?vid=00b39f94-9fb5-4dbd-8021-b1b1fb540913","ios":"levelo://app?vid=00b39f94-9fb5-4dbd-8021-b1b1fb540913"},"vehicle_type_id":"4","last_reported":1724616569,"current_range_meters":31600,"station_id":"ce4bgih2rcd13ifvqba0","pricing_plan_id":"cebpf4jnsgd1na2vs0mg"},{"bike_id":"b37570b7-8a2d-4b6a-b241-780c37d8835d","system_id":"levelo_inurba_marseille","lat":43.29529,"lon":5.385581,"is_reserved":false,"is_disabled":false,"rental_uris":{"android":"levelo://app?vid=b37570b7-8a2d-4b6a-b241-780c37d8835d","ios":"levelo://app?vid=b37570b7-8a2d-4b6a-b241-780c37d8835d"},"vehicle_type_id":"4","last_reported":1724616569,"current_range_meters":22000,"station_id":"ce4bgih2rcd13ifvqba0","pricing_plan_id":"cebpf4jnsgd1na2vs0mg"},{"bike_id":"2d9e50d5-d203-42d0-a781-b73b38b50391","system_id":"levelo_inurba_marseille","lat":43.29529,"lon":5.385581,"is_reserved":false,"is_disabled":false,"rental_uris":{"android":"levelo://app?vid=2d9e50d5-d203-42d0-a781-b73b38b50391","ios":"levelo://app?vid=2d9e50d5-d203-42d0-a781-b73b38b50391"},"vehicle_type_id":"4","last_reported":1724616569,"current_range_meters":7600,"station_id":"ce4bgih2rcd13ifvqba0","pricing_plan_id":"cebpf4jnsgd1na2vs0mg"},{"bike_id":"2f095667-5113-4792-93cb-57be7193d71c","system_id":"levelo_inurba_marseille","lat":43.291653,"lon":5.358043,"is_reserved":false,"is_disabled":false,"rental_uris":{"android":"levelo://app?vid=2f095667-5113-4792-93cb-57be7193d71c","ios":"levelo://app?vid=2f095667-5113-4792-93cb-57be7193d71c"},"vehicle_type_id":"4","last_reported":1724616569,"current_range_meters":29200,"station_id":"ce4bhb12rcd13ifvqel0","pricing_plan_id":"cebpf4jnsgd1na2vs0mg"},{"bike_id":"2f47c894-f86f-41aa-b96c-a765d0b66510","system_id":"levelo_inurba_marseille","lat":43.29529,"lon":5.385581,"is_reserved":false,"is_disabled":false,"rental_uris":{"android":"levelo://app?vid=2f47c894-f86f-41aa-b96c-a765d0b66510","ios":"levelo://app?vid=2f47c894-f86f-41aa-b96c-a765d0b66510"},"vehicle_type_id":"4","last_reported":1724616569,"current_range_meters":11200,"station_id":"ce4bgih2rcd13ifvqba0","pricing_plan_id":"cebpf4jnsgd1na2vs0mg"},{"bike_id":"ee4924c1-97a1-4cee-abe0-c8214b305d92","system_id":"levelo_inurba_marseille","lat":43.29529,"lon":5.385581,"is_reserved":false,"is_disabled":false,"rental_uris":{"android":"levelo://app?vid=ee4924c1-97a1-4cee-abe0-c8214b305d92","ios":"levelo://app?vid=ee4924c1-97a1-4cee-abe0-c8214b305d92"},"vehicle_type_id":"4","last_reported":1724616569,"current_range_meters":5600,"station_id":"ce4bgih2rcd13ifvqba0","pricing_plan_id":"cebpf4jnsgd1na2vs0mg"},{"bike_id":"50b42ece-16d5-4092-b064-9516a33278ac","system_id":"levelo_inurba_marseille","lat":43.29529,"lon":5.385581,"is_reserved":false,"is_disabled":false,"rental_uris":{"android":"levelo://app?vid=50b42ece-16d5-4092-b064-9516a33278ac","ios":"levelo://app?vid=50b42ece-16d5-4092-b064-9516a33278ac"},"vehicle_type_id":"4","last_reported":1724616569,"current_range_meters":11200,"station_id":"ce4bgih2rcd13ifvqba0","pricing_plan_id":"cebpf4jnsgd1na2vs0mg"},{"bike_id":"34a7bcdf-3d3a-4014-82b6-e19128a29c3a","system_id":"levelo_inurba_marseille","lat":43.29529,"lon":5.385581,"is_reserved":false,"is_disabled":false,"rental_uris":{"android":"levelo://app?vid=34a7bcdf-3d3a-4014-82b6-e19128a29c3a","ios":"levelo://app?vid=34a7bcdf-3d3a-4014-82b6-e19128a29c3a"},"vehicle_type_id":"4","last_reported":1724616569,"current_range_meters":20000,"station_id":"ce4bgih2rcd13ifvqba0","pricing_plan_id":"cebpf4jnsgd1na2vs0mg"},{"bike_id":"39bd0ea6-4265-4270-bcfa-1323bfe1e4a1","system_id":"levelo_inurba_marseille","lat":43.29529,"lon":5.385581,"is_reserved":false,"is_disabled":false,"rental_uris":{"android":"levelo://app?vid=39bd0ea6-4265-4270-bcfa-1323bfe1e4a1","ios":"levelo://app?vid=39bd0ea6-4265-4270-bcfa-1323bfe1e4a1"},"vehicle_type_id":"4","last_reported":1724616569,"current_range_meters":28400,"station_id":"ce4bgih2rcd13ifvqba0","pricing_plan_id":"cebpf4jnsgd1na2vs0mg"},{"bike_id":"f374b7ef-e2bd-46ac-8680-2ef713604057","system_id":"levelo_inurba_marseille","lat":43.29529,"lon":5.385581,"is_reserved":false,"is_disabled":false,"rental_uris":{"android":"levelo://app?vid=f374b7ef-e2bd-46ac-8680-2ef713604057","ios":"levelo://app?vid=f374b7ef-e2bd-46ac-8680-2ef713604057"},"vehicle_type_id":"4","last_reported":1724616569,"current_range_meters":8400,"station_id":"ce4bgih2rcd13ifvqba0","pricing_plan_id":"cebpf4jnsgd1na2vs0mg"},{"bike_id":"32f21bc9-15fc-4115-a6b2-ba33f5c4446f","system_id":"levelo_inurba_marseille","lat":43.29529,"lon":5.385581,"is_reserved":false,"is_disabled":false,"rental_uris":{"android":"levelo://app?vid=32f21bc9-15fc-4115-a6b2-ba33f5c4446f","ios":"levelo://app?vid=32f21bc9-15fc-4115-a6b2-ba33f5c4446f"},"vehicle_type_id":"4","last_reported":1724616569,"current_range_meters":23600,"station_id":"ce4bgih2rcd13ifvqba0","pricing_plan_id":"cebpf4jnsgd1na2vs0mg"},{"bike_id":"9de109c2-dea9-4217-81b2-3eb085caf99a","system_id":"levelo_inurba_marseille","lat":43.33472,"lon":5.36124,"is_reserved":false,"is_disabled":false,"rental_uris":{"android":"levelo://app?vid=9de109c2-dea9-4217-81b2-3eb085caf99a","ios":"levelo://app?vid=9de109c2-dea9-4217-81b2-3eb085caf99a"},"vehicle_type_id":"4","last_reported":1724616569,"current_range_meters":14400,"station_id":"","pricing_plan_id":"cebpf4jnsgd1na2vs0mg"},{"bike_id":"7f5eea91-8c84-401c-96b2-008838e00518","system_id":"levelo_inurba_marseille","lat":43.312609,"lon":5.401662,"is_reserved":false,"is_disabled":false,"rental_uris":{"android":"levelo://app?vid=7f5eea91-8c84-401c-96b2-008838e00518","ios":"levelo://app?vid=7f5eea91-8c84-401c-96b2-008838e00518"},"vehicle_type_id":"4","last_reported":1724616569,"current_range_meters":22800,"station_id":"ce4bh092rcd13ifvqd30","pricing_plan_id":"cebpf4jnsgd1na2vs0mg"},{"bike_id":"8afbddf0-5e94-4b2d-b46a-5b3491a55ec4","system_id":"levelo_inurba_marseille","lat":43.294162,"lon":5.386292,"is_reserved":false,"is_disabled":false,"rental_uris":{"android":"levelo://app?vid=8afbddf0-5e94-4b2d-b46a-5b3491a55ec4","ios":"levelo://app?vid=8afbddf0-5e94-4b2d-b46a-5b3491a55ec4"},"vehicle_type_id":"4","last_reported":1724616569,"current_range_meters":0,"station_id":"ce4bh2h2rcd13ifvqdh0","pricing_plan_id":"cebpf4jnsgd1na2vs0mg"},{"bike_id":"0b99142c-dfbc-4a9c-a553-e7455f89ef1a","system_id":"levelo_inurba_marseille","lat":43.29035,"lon":5.37552,"is_reserved":false,"is_disabled":false,"rental_uris":{"android":"levelo://app?vid=0b99142c-dfbc-4a9c-a553-e7455f89ef1a","ios":"levelo://app?vid=0b99142c-dfbc-4a9c-a553-e7455f89ef1a"},"vehicle_type_id":"4","last_reported":1724616569,"current_range_meters":10000,"station_id":"ce4bh692rcd13ifvqe90","pricing_plan_id":"cebpf4jnsgd1na2vs0mg"},{"bike_id":"3faa78d2-b6f5-4fda-b388-9941be458708","system_id":"levelo_inurba_marseille","lat":43.294153,"lon":5.386305,"is_reserved":false,"is_disabled":false,"rental_uris":{"android":"levelo://app?vid=3faa78d2-b6f5-4fda-b388-9941be458708","ios":"levelo://app?vid=3faa78d2-b6f5-4fda-b388-9941be458708"},"vehicle_type_id":"4","last_reported":1724616569,"current_range_meters":1200,"station_id":"ce4bh2h2rcd13ifvqdh0","pricing_plan_id":"cebpf4jnsgd1na2vs0mg"},{"bike_id":"61957d83-17c3-4449-8acf-21da37cbf736","system_id":"levelo_inurba_marseille","lat":43.2942,"lon":5.38622,"is_reserved":false,"is_disabled":false,"rental_uris":{"android":"levelo://app?vid=61957d83-17c3-4449-8acf-21da37cbf736","ios":"levelo://app?vid=61957d83-17c3-4449-8acf-21da37cbf736"},"vehicle_type_id":"4","last_reported":1724616569,"current_range_meters":31200,"station_id":"ce4bh2h2rcd13ifvqdh0","pricing_plan_id":"cebpf4jnsgd1na2vs0mg"},{"bike_id":"19b6ebf2-0fcf-4349-a09d-d88053ba0082","system_id":"levelo_inurba_marseille","lat":43.2942,"lon":5.38622,"is_reserved":false,"is_disabled":false,"rental_uris":{"android":"levelo://app?vid=19b6ebf2-0fcf-4349-a09d-d88053ba0082","ios":"levelo://app?vid=19b6ebf2-0fcf-4349-a09d-d88053ba0082"},"vehicle_type_id":"4","last_reported":1724616569,"current_range_meters":14000,"station_id":"ce4bh2h2rcd13ifvqdh0","pricing_plan_id":"cebpf4jnsgd1na2vs0mg"},{"bike_id":"83cbcf4f-f22e-43db-b144-5a09efe2eccb","system_id":"levelo_inurba_marseille","lat":43.29414,"lon":5.38613,"is_reserved":false,"is_disabled":false,"rental_uris":{"android":"levelo://app?vid=83cbcf4f-f22e-43db-b144-5a09efe2eccb","ios":"levelo://app?vid=83cbcf4f-f22e-43db-b144-5a09efe2eccb"},"vehicle_type_id":"4","last_reported":1724616569,"current_range_meters":2800,"station_id":"ce4bh2h2rcd13ifvqdh0","pricing_plan_id":"cebpf4jnsgd1na2vs0mg"},{"bike_id":"86f58378-e617-4ec0-b2ce-d6cdc4fb1806","system_id":"levelo_inurba_marseille","lat":43.29036,"lon":5.37568,"is_reserved":false,"is_disabled":false,"rental_uris":{"android":"levelo://app?vid=86f58378-e617-4ec0-b2ce-d6cdc4fb1806","ios":"levelo://app?vid=86f58378-e617-4ec0-b2ce-d6cdc4fb1806"},"vehicle_type_id":"4","last_reported":1724616569,"current_range_meters":30800,"station_id":"ce4bh692rcd13ifvqe90","pricing_plan_id":"cebpf4jnsgd1na2vs0mg"},{"bike_id":"627a78bb-3383-4829-a202-d7d77dfa3c63","system_id":"levelo_inurba_marseille","lat":43.29418,"lon":5.38622,"is_reserved":false,"is_disabled":false,"rental_uris":{"android":"levelo://app?vid=627a78bb-3383-4829-a202-d7d77dfa3c63","ios":"levelo://app?vid=627a78bb-3383-4829-a202-d7d77dfa3c63"},"vehicle_type_id":"4","last_reported":1724616569,"current_range_meters":6000,"station_id":"ce4bh2h2rcd13ifvqdh0","pricing_plan_id":"cebpf4jnsgd1na2vs0mg"},{"bike_id":"43a375f3-0606-470b-8686-81cf0358d41d","system_id":"levelo_inurba_marseille","lat":43.290327,"lon":5.375711,"is_reserved":false,"is_disabled":false,"rental_uris":{"android":"levelo://app?vid=43a375f3-0606-470b-8686-81cf0358d41d","ios":"levelo://app?vid=43a375f3-0606-470b-8686-81cf0358d41d"},"vehicle_type_id":"4","last_reported":1724616569,"current_range_meters":9600,"station_id":"ce4bh692rcd13ifvqe90","pricing_plan_id":"cebpf4jnsgd1na2vs0mg"},{"bike_id":"bee1f583-b1a6-46a4-8835-2926a9118865","system_id":"levelo_inurba_marseille","lat":43.29416,"lon":5.3862,"is_reserved":false,"is_disabled":false,"rental_uris":{"android":"levelo://app?vid=bee1f583-b1a6-46a4-8835-2926a9118865","ios":"levelo://app?vid=bee1f583-b1a6-46a4-8835-2926a9118865"},"vehicle_type_id":"4","last_reported":1724616569,"current_range_meters":18000,"station_id":"ce4bh2h2rcd13ifvqdh0","pricing_plan_id":"cebpf4jnsgd1na2vs0mg"},{"bike_id":"6c863a7a-0dc5-4b75-be67-70f10b2d999f","system_id":"levelo_inurba_marseille","lat":43.2942,"lon":5.38629,"is_reserved":false,"is_disabled":false,"rental_uris":{"android":"levelo://app?vid=6c863a7a-0dc5-4b75-be67-70f10b2d999f","ios":"levelo://app?vid=6c863a7a-0dc5-4b75-be67-70f10b2d999f"},"vehicle_type_id":"4","last_reported":1724616569,"current_range_meters":31200,"station_id":"ce4bh2h2rcd13ifvqdh0","pricing_plan_id":"cebpf4jnsgd1na2vs0mg"},{"bike_id":"f43df9aa-3871-4d99-ac6e-40a82d1a48f4","system_id":"levelo_inurba_marseille","lat":43.29035,"lon":5.37573,"is_reserved":false,"is_disabled":false,"rental_uris":{"android":"levelo://app?vid=f43df9aa-3871-4d99-ac6e-40a82d1a48f4","ios":"levelo://app?vid=f43df9aa-3871-4d99-ac6e-40a82d1a48f4"},"vehicle_type_id":"4","last_reported":1724616569,"current_range_meters":19200,"station_id":"ce4bh692rcd13ifvqe90","pricing_plan_id":"cebpf4jnsgd1na2vs0mg"},{"bike_id":"366a4b60-be08-43e4-aafc-256d695d5857","system_id":"levelo_inurba_marseille","lat":43.29418,"lon":5.38626,"is_reserved":false,"is_disabled":false,"rental_uris":{"android":"levelo://app?vid=366a4b60-be08-43e4-aafc-256d695d5857","ios":"levelo://app?vid=366a4b60-be08-43e4-aafc-256d695d5857"},"vehicle_type_id":"4","last_reported":1724616569,"current_range_meters":30800,"station_id":"ce4bh2h2rcd13ifvqdh0","pricing_plan_id":"cebpf4jnsgd1na2vs0mg"},{"bike_id":"f6c7604d-b0c3-45f5-8082-c955195dcf00","system_id":"levelo_inurba_marseille","lat":43.294153,"lon":5.386305,"is_reserved":false,"is_disabled":false,"rental_uris":{"android":"levelo://app?vid=f6c7604d-b0c3-45f5-8082-c955195dcf00","ios":"levelo://app?vid=f6c7604d-b0c3-45f5-8082-c955195dcf00"},"vehicle_type_id":"4","last_reported":1724616569,"current_range_meters":26400,"station_id":"ce4bh2h2rcd13ifvqdh0","pricing_plan_id":"cebpf4jnsgd1na2vs0mg"},{"bike_id":"7bc4970b-b154-4f95-a8ef-61922f0ec4e4","system_id":"levelo_inurba_marseille","lat":43.294181,"lon":5.386267,"is_reserved":false,"is_disabled":false,"rental_uris":{"android":"levelo://app?vid=7bc4970b-b154-4f95-a8ef-61922f0ec4e4","ios":"levelo://app?vid=7bc4970b-b154-4f95-a8ef-61922f0ec4e4"},"vehicle_type_id":"4","last_reported":1724616569,"current_range_meters":3600,"station_id":"ce4bh2h2rcd13ifvqdh0","pricing_plan_id":"cebpf4jnsgd1na2vs0mg"},{"bike_id":"854feb12-ce7a-418b-b245-1eb4274ffba9","system_id":"levelo_inurba_marseille","lat":43.294162,"lon":5.386292,"is_reserved":false,"is_disabled":false,"rental_uris":{"android":"levelo://app?vid=854feb12-ce7a-418b-b245-1eb4274ffba9","ios":"levelo://app?vid=854feb12-ce7a-418b-b245-1eb4274ffba9"},"vehicle_type_id":"4","last_reported":1724616569,"current_range_meters":16800,"station_id":"ce4bh2h2rcd13ifvqdh0","pricing_plan_id":"cebpf4jnsgd1na2vs0mg"},{"bike_id":"83f1337e-c0f5-4726-854d-5610ba923f75","system_id":"levelo_inurba_marseille","lat":43.2942,"lon":5.38631,"is_reserved":false,"is_disabled":false,"rental_uris":{"android":"levelo://app?vid=83f1337e-c0f5-4726-854d-5610ba923f75","ios":"levelo://app?vid=83f1337e-c0f5-4726-854d-5610ba923f75"},"vehicle_type_id":"4","last_reported":1724616569,"current_range_meters":26800,"station_id":"ce4bh2h2rcd13ifvqdh0","pricing_plan_id":"cebpf4jnsgd1na2vs0mg"},{"bike_id":"d386c4dd-3280-4956-9913-70f6a5ac8ca3","system_id":"levelo_inurba_marseille","lat":43.2942,"lon":5.38631,"is_reserved":false,"is_disabled":false,"rental_uris":{"android":"levelo://app?vid=d386c4dd-3280-4956-9913-70f6a5ac8ca3","ios":"levelo://app?vid=d386c4dd-3280-4956-9913-70f6a5ac8ca3"},"vehicle_type_id":"4","last_reported":1724616569,"current_range_meters":31200,"station_id":"ce4bh2h2rcd13ifvqdh0","pricing_plan_id":"cebpf4jnsgd1na2vs0mg"},{"bike_id":"4d918262-e61f-424e-a1a3-f6aa1e8ff914","system_id":"levelo_inurba_marseille","lat":43.29416,"lon":5.38624,"is_reserved":false,"is_disabled":false,"rental_uris":{"android":"levelo://app?vid=4d918262-e61f-424e-a1a3-f6aa1e8ff914","ios":"levelo://app?vid=4d918262-e61f-424e-a1a3-f6aa1e8ff914"},"vehicle_type_id":"4","last_reported":1724616569,"current_range_meters":1600,"station_id":"ce4bh2h2rcd13ifvqdh0","pricing_plan_id":"cebpf4jnsgd1na2vs0mg"},{"bike_id":"bb234798-d28d-47c3-8ef2-1f7272169628","system_id":"levelo_inurba_marseille","lat":43.29416,"lon":5.38625,"is_reserved":false,"is_disabled":false,"rental_uris":{"android":"levelo://app?vid=bb234798-d28d-47c3-8ef2-1f7272169628","ios":"levelo://app?vid=bb234798-d28d-47c3-8ef2-1f7272169628"},"vehicle_type_id":"4","last_reported":1724616569,"current_range_meters":24800,"station_id":"ce4bh2h2rcd13ifvqdh0","pricing_plan_id":"cebpf4jnsgd1na2vs0mg"},{"bike_id":"d55e92a6-ecf8-4278-9684-323c27f2fbbc","system_id":"levelo_inurba_marseille","lat":43.29416,"lon":5.38625,"is_reserved":false,"is_disabled":false,"rental_uris":{"android":"levelo://app?vid=d55e92a6-ecf8-4278-9684-323c27f2fbbc","ios":"levelo://app?vid=d55e92a6-ecf8-4278-9684-323c27f2fbbc"},"vehicle_type_id":"4","last_reported":1724616569,"current_range_meters":6400,"station_id":"ce4bh2h2rcd13ifvqdh0","pricing_plan_id":"cebpf4jnsgd1na2vs0mg"},{"bike_id":"f298f786-8ace-48c2-9492-4d176987aca7","system_id":"levelo_inurba_marseille","lat":43.29418,"lon":5.38629,"is_reserved":false,"is_disabled":false,"rental_uris":{"android":"levelo://app?vid=f298f786-8ace-48c2-9492-4d176987aca7","ios":"levelo://app?vid=f298f786-8ace-48c2-9492-4d176987aca7"},"vehicle_type_id":"4","last_reported":1724616569,"current_range_meters":26400,"station_id":"ce4bh2h2rcd13ifvqdh0","pricing_plan_id":"cebpf4jnsgd1na2vs0mg"},{"bike_id":"3a2e845e-fa45-4754-a79f-c7d162abd6be","system_id":"levelo_inurba_marseille","lat":43.290327,"lon":5.375711,"is_reserved":false,"is_disabled":false,"rental_uris":{"android":"levelo://app?vid=3a2e845e-fa45-4754-a79f-c7d162abd6be","ios":"levelo://app?vid=3a2e845e-fa45-4754-a79f-c7d162abd6be"},"vehicle_type_id":"4","last_reported":1724616569,"current_range_meters":0,"station_id":"ce4bh692rcd13ifvqe90","pricing_plan_id":"cebpf4jnsgd1na2vs0mg"},{"bike_id":"ea39c2ef-c7de-4b71-997a-33ccc9331c0e","system_id":"levelo_inurba_marseille","lat":43.29416,"lon":5.38629,"is_reserved":false,"is_disabled":false,"rental_uris":{"android":"levelo://app?vid=ea39c2ef-c7de-4b71-997a-33ccc9331c0e","ios":"levelo://app?vid=ea39c2ef-c7de-4b71-997a-33ccc9331c0e"},"vehicle_type_id":"4","last_reported":1724616569,"current_range_meters":22400,"station_id":"ce4bh2h2rcd13ifvqdh0","pricing_plan_id":"cebpf4jnsgd1na2vs0mg"},{"bike_id":"8e9ab7e5-8fff-4c5b-b860-20a5943d597a","system_id":"levelo_inurba_marseille","lat":43.29415,"lon":5.38629,"is_reserved":false,"is_disabled":false,"rental_uris":{"android":"levelo://app?vid=8e9ab7e5-8fff-4c5b-b860-20a5943d597a","ios":"levelo://app?vid=8e9ab7e5-8fff-4c5b-b860-20a5943d597a"},"vehicle_type_id":"4","last_reported":1724616569,"current_range_meters":18000,"station_id":"ce4bh2h2rcd13ifvqdh0","pricing_plan_id":"cebpf4jnsgd1na2vs0mg"},{"bike_id":"45417b9d-b5c9-48a8-a9e4-60c39ebf4de7","system_id":"levelo_inurba_marseille","lat":43.29416,"lon":5.38631,"is_reserved":false,"is_disabled":false,"rental_uris":{"android":"levelo://app?vid=45417b9d-b5c9-48a8-a9e4-60c39ebf4de7","ios":"levelo://app?vid=45417b9d-b5c9-48a8-a9e4-60c39ebf4de7"},"vehicle_type_id":"4","last_reported":1724616569,"current_range_meters":0,"station_id":"ce4bh2h2rcd13ifvqdh0","pricing_plan_id":"cebpf4jnsgd1na2vs0mg"},{"bike_id":"0c5fe476-7d82-44bc-af23-cd6d257d1466","system_id":"levelo_inurba_marseille","lat":43.29415,"lon":5.38637,"is_reserved":false,"is_disabled":false,"rental_uris":{"android":"levelo://app?vid=0c5fe476-7d82-44bc-af23-cd6d257d1466","ios":"levelo://app?vid=0c5fe476-7d82-44bc-af23-cd6d257d1466"},"vehicle_type_id":"4","last_reported":1724616569,"current_range_meters":0,"station_id":"ce4bh2h2rcd13ifvqdh0","pricing_plan_id":"cebpf4jnsgd1na2vs0mg"},{"bike_id":"97ea6ae1-f718-432b-8d48-4b759169ecda","system_id":"levelo_inurba_marseille","lat":43.29412,"lon":5.38633,"is_reserved":false,"is_disabled":false,"rental_uris":{"android":"levelo://app?vid=97ea6ae1-f718-432b-8d48-4b759169ecda","ios":"levelo://app?vid=97ea6ae1-f718-432b-8d48-4b759169ecda"},"vehicle_type_id":"4","last_reported":1724616569,"current_range_meters":13200,"station_id":"ce4bh2h2rcd13ifvqdh0","pricing_plan_id":"cebpf4jnsgd1na2vs0mg"},{"bike_id":"f99e5ed5-9df6-4572-96e8-0cd32e76b712","system_id":"levelo_inurba_marseille","lat":43.29529,"lon":5.385581,"is_reserved":false,"is_disabled":false,"rental_uris":{"android":"levelo://app?vid=f99e5ed5-9df6-4572-96e8-0cd32e76b712","ios":"levelo://app?vid=f99e5ed5-9df6-4572-96e8-0cd32e76b712"},"vehicle_type_id":"4","last_reported":1724616569,"current_range_meters":24000,"station_id":"ce4bgih2rcd13ifvqba0","pricing_plan_id":"cebpf4jnsgd1na2vs0mg"},{"bike_id":"b6e86e18-9cc6-454a-959f-c564f329a003","system_id":"levelo_inurba_marseille","lat":43.294166,"lon":5.386518,"is_reserved":false,"is_disabled":false,"rental_uris":{"android":"levelo://app?vid=b6e86e18-9cc6-454a-959f-c564f329a003","ios":"levelo://app?vid=b6e86e18-9cc6-454a-959f-c564f329a003"},"vehicle_type_id":"4","last_reported":1724616569,"current_range_meters":22400,"station_id":"ce4bh2h2rcd13ifvqdh0","pricing_plan_id":"cebpf4jnsgd1na2vs0mg"},{"bike_id":"710b50a3-91ae-4cf9-8e8d-53c8c0be3972","system_id":"levelo_inurba_marseille","lat":43.292644,"lon":5.384257,"is_reserved":false,"is_disabled":false,"rental_uris":{"android":"levelo://app?vid=710b50a3-91ae-4cf9-8e8d-53c8c0be3972","ios":"levelo://app?vid=710b50a3-91ae-4cf9-8e8d-53c8c0be3972"},"vehicle_type_id":"4","last_reported":1724616569,"current_range_meters":2000,"station_id":"ce4bh692rcd13ifvqea0","pricing_plan_id":"cebpf4jnsgd1na2vs0mg"},{"bike_id":"e400aa65-fa40-4733-9ad0-5df37cdbc1b8","system_id":"levelo_inurba_marseille","lat":43.292784,"lon":5.384462,"is_reserved":false,"is_disabled":false,"rental_uris":{"android":"levelo://app?vid=e400aa65-fa40-4733-9ad0-5df37cdbc1b8","ios":"levelo://app?vid=e400aa65-fa40-4733-9ad0-5df37cdbc1b8"},"vehicle_type_id":"4","last_reported":1724616569,"current_range_meters":0,"station_id":"ce4bh692rcd13ifvqea0","pricing_plan_id":"cebpf4jnsgd1na2vs0mg"},{"bike_id":"5f634fe9-4d65-4bce-b363-211789c6a27c","system_id":"levelo_inurba_marseille","lat":43.292642,"lon":5.384254,"is_reserved":false,"is_disabled":false,"rental_uris":{"android":"levelo://app?vid=5f634fe9-4d65-4bce-b363-211789c6a27c","ios":"levelo://app?vid=5f634fe9-4d65-4bce-b363-211789c6a27c"},"vehicle_type_id":"4","last_reported":1724616569,"current_range_meters":13600,"station_id":"ce4bh692rcd13ifvqea0","pricing_plan_id":"cebpf4jnsgd1na2vs0mg"},{"bike_id":"a8fdfd45-1854-4c37-b980-90a01ef41503","system_id":"levelo_inurba_marseille","lat":43.292644,"lon":5.384257,"is_reserved":false,"is_disabled":false,"rental_uris":{"android":"levelo://app?vid=a8fdfd45-1854-4c37-b980-90a01ef41503","ios":"levelo://app?vid=a8fdfd45-1854-4c37-b980-90a01ef41503"},"vehicle_type_id":"4","last_reported":1724616569,"current_range_meters":30000,"station_id":"ce4bh692rcd13ifvqea0","pricing_plan_id":"cebpf4jnsgd1na2vs0mg"},{"bike_id":"f9bcadcb-39e6-431e-8fd0-9531dc4042ee","system_id":"levelo_inurba_marseille","lat":43.292642,"lon":5.384254,"is_reserved":false,"is_disabled":false,"rental_uris":{"android":"levelo://app?vid=f9bcadcb-39e6-431e-8fd0-9531dc4042ee","ios":"levelo://app?vid=f9bcadcb-39e6-431e-8fd0-9531dc4042ee"},"vehicle_type_id":"4","last_reported":1724616569,"current_range_meters":0,"station_id":"ce4bh692rcd13ifvqea0","pricing_plan_id":"cebpf4jnsgd1na2vs0mg"},{"bike_id":"89144b74-2862-4ffb-a3dd-bdb7c7cda24f","system_id":"levelo_inurba_marseille","lat":43.29268,"lon":5.38442,"is_reserved":false,"is_disabled":false,"rental_uris":{"android":"levelo://app?vid=89144b74-2862-4ffb-a3dd-bdb7c7cda24f","ios":"levelo://app?vid=89144b74-2862-4ffb-a3dd-bdb7c7cda24f"},"vehicle_type_id":"4","last_reported":1724616569,"current_range_meters":18000,"station_id":"ce4bh692rcd13ifvqea0","pricing_plan_id":"cebpf4jnsgd1na2vs0mg"},{"bike_id":"644d94cb-8205-44d9-9151-07d628c08983","system_id":"levelo_inurba_marseille","lat":43.292642,"lon":5.384254,"is_reserved":false,"is_disabled":false,"rental_uris":{"android":"levelo://app?vid=644d94cb-8205-44d9-9151-07d628c08983","ios":"levelo://app?vid=644d94cb-8205-44d9-9151-07d628c08983"},"vehicle_type_id":"4","last_reported":1724616569,"current_range_meters":0,"station_id":"ce4bh692rcd13ifvqea0","pricing_plan_id":"cebpf4jnsgd1na2vs0mg"},{"bike_id":"574175ec-c1db-44d6-a29a-0398147b7fd5","system_id":"levelo_inurba_marseille","lat":43.292642,"lon":5.384254,"is_reserved":false,"is_disabled":false,"rental_uris":{"android":"levelo://app?vid=574175ec-c1db-44d6-a29a-0398147b7fd5","ios":"levelo://app?vid=574175ec-c1db-44d6-a29a-0398147b7fd5"},"vehicle_type_id":"4","last_reported":1724616569,"current_range_meters":7600,"station_id":"ce4bh692rcd13ifvqea0","pricing_plan_id":"cebpf4jnsgd1na2vs0mg"},{"bike_id":"013d27bb-1572-47ea-a7bb-55a04e27ff87","system_id":"levelo_inurba_marseille","lat":43.292644,"lon":5.384257,"is_reserved":false,"is_disabled":false,"rental_uris":{"android":"levelo://app?vid=013d27bb-1572-47ea-a7bb-55a04e27ff87","ios":"levelo://app?vid=013d27bb-1572-47ea-a7bb-55a04e27ff87"},"vehicle_type_id":"4","last_reported":1724616569,"current_range_meters":19600,"station_id":"ce4bh692rcd13ifvqea0","pricing_plan_id":"cebpf4jnsgd1na2vs0mg"},{"bike_id":"5e727236-c679-4cab-844c-a2e9d0313e10","system_id":"levelo_inurba_marseille","lat":43.292642,"lon":5.384254,"is_reserved":false,"is_disabled":false,"rental_uris":{"android":"levelo://app?vid=5e727236-c679-4cab-844c-a2e9d0313e10","ios":"levelo://app?vid=5e727236-c679-4cab-844c-a2e9d0313e10"},"vehicle_type_id":"4","last_reported":1724616569,"current_range_meters":24000,"station_id":"ce4bh692rcd13ifvqea0","pricing_plan_id":"cebpf4jnsgd1na2vs0mg"},{"bike_id":"3f40647a-8ade-46bb-88bf-0e85f231abf2","system_id":"levelo_inurba_marseille","lat":43.292642,"lon":5.384254,"is_reserved":false,"is_disabled":false,"rental_uris":{"android":"levelo://app?vid=3f40647a-8ade-46bb-88bf-0e85f231abf2","ios":"levelo://app?vid=3f40647a-8ade-46bb-88bf-0e85f231abf2"},"vehicle_type_id":"4","last_reported":1724616569,"current_range_meters":11600,"station_id":"ce4bh692rcd13ifvqea0","pricing_plan_id":"cebpf4jnsgd1na2vs0mg"},{"bike_id":"ec456788-d55f-4ce1-9618-57910df16da5","system_id":"levelo_inurba_marseille","lat":43.29261,"lon":5.38437,"is_reserved":false,"is_disabled":false,"rental_uris":{"android":"levelo://app?vid=ec456788-d55f-4ce1-9618-57910df16da5","ios":"levelo://app?vid=ec456788-d55f-4ce1-9618-57910df16da5"},"vehicle_type_id":"4","last_reported":1724616569,"current_range_meters":12000,"station_id":"ce4bh692rcd13ifvqea0","pricing_plan_id":"cebpf4jnsgd1na2vs0mg"},{"bike_id":"c132cc7f-80c0-41f3-bc22-d2e12802ed6c","system_id":"levelo_inurba_marseille","lat":43.292644,"lon":5.384257,"is_reserved":false,"is_disabled":false,"rental_uris":{"android":"levelo://app?vid=c132cc7f-80c0-41f3-bc22-d2e12802ed6c","ios":"levelo://app?vid=c132cc7f-80c0-41f3-bc22-d2e12802ed6c"},"vehicle_type_id":"4","last_reported":1724616569,"current_range_meters":800,"station_id":"ce4bh692rcd13ifvqea0","pricing_plan_id":"cebpf4jnsgd1na2vs0mg"},{"bike_id":"c3cb94fe-c601-4c65-8974-2c0c1510c076","system_id":"levelo_inurba_marseille","lat":43.292644,"lon":5.384257,"is_reserved":false,"is_disabled":false,"rental_uris":{"android":"levelo://app?vid=c3cb94fe-c601-4c65-8974-2c0c1510c076","ios":"levelo://app?vid=c3cb94fe-c601-4c65-8974-2c0c1510c076"},"vehicle_type_id":"4","last_reported":1724616569,"current_range_meters":16800,"station_id":"ce4bh692rcd13ifvqea0","pricing_plan_id":"cebpf4jnsgd1na2vs0mg"},{"bike_id":"14f8e895-37fc-45b1-9f64-06bd07e6138e","system_id":"levelo_inurba_marseille","lat":43.292644,"lon":5.384257,"is_reserved":false,"is_disabled":false,"rental_uris":{"android":"levelo://app?vid=14f8e895-37fc-45b1-9f64-06bd07e6138e","ios":"levelo://app?vid=14f8e895-37fc-45b1-9f64-06bd07e6138e"},"vehicle_type_id":"4","last_reported":1724616569,"current_range_meters":22000,"station_id":"ce4bh692rcd13ifvqea0","pricing_plan_id":"cebpf4jnsgd1na2vs0mg"},{"bike_id":"8817d960-d4aa-44d0-9244-33fec773b70d","system_id":"levelo_inurba_marseille","lat":43.29256,"lon":5.3844,"is_reserved":false,"is_disabled":false,"rental_uris":{"android":"levelo://app?vid=8817d960-d4aa-44d0-9244-33fec773b70d","ios":"levelo://app?vid=8817d960-d4aa-44d0-9244-33fec773b70d"},"vehicle_type_id":"4","last_reported":1724616569,"current_range_meters":4000,"station_id":"ce4bh692rcd13ifvqea0","pricing_plan_id":"cebpf4jnsgd1na2vs0mg"},{"bike_id":"0d60ac95-b652-4f6d-a088-5a38c5d5b3bf","system_id":"levelo_inurba_marseille","lat":43.292642,"lon":5.384254,"is_reserved":false,"is_disabled":false,"rental_uris":{"android":"levelo://app?vid=0d60ac95-b652-4f6d-a088-5a38c5d5b3bf","ios":"levelo://app?vid=0d60ac95-b652-4f6d-a088-5a38c5d5b3bf"},"vehicle_type_id":"4","last_reported":1724616569,"current_range_meters":800,"station_id":"ce4bh692rcd13ifvqea0","pricing_plan_id":"cebpf4jnsgd1na2vs0mg"},{"bike_id":"12f2cd65-1d83-49cd-b588-278e00b09716","system_id":"levelo_inurba_marseille","lat":43.292642,"lon":5.384254,"is_reserved":false,"is_disabled":false,"rental_uris":{"android":"levelo://app?vid=12f2cd65-1d83-49cd-b588-278e00b09716","ios":"levelo://app?vid=12f2cd65-1d83-49cd-b588-278e00b09716"},"vehicle_type_id":"4","last_reported":1724616569,"current_range_meters":28000,"station_id":"ce4bh692rcd13ifvqea0","pricing_plan_id":"cebpf4jnsgd1na2vs0mg"},{"bike_id":"a263bac8-5ec4-4dc5-b2bf-48cac89e68ac","system_id":"levelo_inurba_marseille","lat":43.29254,"lon":5.38441,"is_reserved":false,"is_disabled":false,"rental_uris":{"android":"levelo://app?vid=a263bac8-5ec4-4dc5-b2bf-48cac89e68ac","ios":"levelo://app?vid=a263bac8-5ec4-4dc5-b2bf-48cac89e68ac"},"vehicle_type_id":"4","last_reported":1724616569,"current_range_meters":6400,"station_id":"ce4bh692rcd13ifvqea0","pricing_plan_id":"cebpf4jnsgd1na2vs0mg"},{"bike_id":"ade23f07-2170-4fbb-bfa6-22e38801049a","system_id":"levelo_inurba_marseille","lat":43.292644,"lon":5.384257,"is_reserved":false,"is_disabled":false,"rental_uris":{"android":"levelo://app?vid=ade23f07-2170-4fbb-bfa6-22e38801049a","ios":"levelo://app?vid=ade23f07-2170-4fbb-bfa6-22e38801049a"},"vehicle_type_id":"4","last_reported":1724616569,"current_range_meters":8800,"station_id":"ce4bh692rcd13ifvqea0","pricing_plan_id":"cebpf4jnsgd1na2vs0mg"},{"bike_id":"da8a3b99-14c4-4b0f-8920-f9d6ea762d17","system_id":"levelo_inurba_marseille","lat":43.292642,"lon":5.384254,"is_reserved":false,"is_disabled":false,"rental_uris":{"android":"levelo://app?vid=da8a3b99-14c4-4b0f-8920-f9d6ea762d17","ios":"levelo://app?vid=da8a3b99-14c4-4b0f-8920-f9d6ea762d17"},"vehicle_type_id":"4","last_reported":1724616569,"current_range_meters":1200,"station_id":"ce4bh692rcd13ifvqea0","pricing_plan_id":"cebpf4jnsgd1na2vs0mg"},{"bike_id":"1089c7ea-4819-4591-b051-b67aa4e9b3d2","system_id":"levelo_inurba_marseille","lat":43.292644,"lon":5.384257,"is_reserved":false,"is_disabled":false,"rental_uris":{"android":"levelo://app?vid=1089c7ea-4819-4591-b051-b67aa4e9b3d2","ios":"levelo://app?vid=1089c7ea-4819-4591-b051-b67aa4e9b3d2"},"vehicle_type_id":"4","last_reported":1724616569,"current_range_meters":31200,"station_id":"ce4bh692rcd13ifvqea0","pricing_plan_id":"cebpf4jnsgd1na2vs0mg"},{"bike_id":"c97b4b68-6d0f-4a77-a567-71e111b3bbc4","system_id":"levelo_inurba_marseille","lat":43.292644,"lon":5.384257,"is_reserved":false,"is_disabled":false,"rental_uris":{"android":"levelo://app?vid=c97b4b68-6d0f-4a77-a567-71e111b3bbc4","ios":"levelo://app?vid=c97b4b68-6d0f-4a77-a567-71e111b3bbc4"},"vehicle_type_id":"4","last_reported":1724616569,"current_range_meters":0,"station_id":"ce4bh692rcd13ifvqea0","pricing_plan_id":"cebpf4jnsgd1na2vs0mg"},{"bike_id":"18653427-3219-48ee-849b-a4b8b713b0cb","system_id":"levelo_inurba_marseille","lat":43.29251,"lon":5.38448,"is_reserved":false,"is_disabled":false,"rental_uris":{"android":"levelo://app?vid=18653427-3219-48ee-849b-a4b8b713b0cb","ios":"levelo://app?vid=18653427-3219-48ee-849b-a4b8b713b0cb"},"vehicle_type_id":"4","last_reported":1724616569,"current_range_meters":20400,"station_id":"ce4bh692rcd13ifvqea0","pricing_plan_id":"cebpf4jnsgd1na2vs0mg"},{"bike_id":"94c8019c-2f1d-4912-9de7-a84bd8c87712","system_id":"levelo_inurba_marseille","lat":43.290104,"lon":5.356111,"is_reserved":false,"is_disabled":false,"rental_uris":{"android":"levelo://app?vid=94c8019c-2f1d-4912-9de7-a84bd8c87712","ios":"levelo://app?vid=94c8019c-2f1d-4912-9de7-a84bd8c87712"},"vehicle_type_id":"4","last_reported":1724616569,"current_range_meters":31200,"station_id":"ce4bhb92rcd13ifvqen0","pricing_plan_id":"cebpf4jnsgd1na2vs0mg"},{"bike_id":"7145a122-61ab-4e89-ad50-5e4f116c8ed2","system_id":"levelo_inurba_marseille","lat":43.29096,"lon":5.38114,"is_reserved":false,"is_disabled":false,"rental_uris":{"android":"levelo://app?vid=7145a122-61ab-4e89-ad50-5e4f116c8ed2","ios":"levelo://app?vid=7145a122-61ab-4e89-ad50-5e4f116c8ed2"},"vehicle_type_id":"4","last_reported":1724616569,"current_range_meters":17200,"station_id":"ce4bh512rcd13ifvqe2g","pricing_plan_id":"cebpf4jnsgd1na2vs0mg"},{"bike_id":"e6297d22-b1f0-417e-b251-131e1effb507","system_id":"levelo_inurba_marseille","lat":43.290995,"lon":5.381361,"is_reserved":false,"is_disabled":false,"rental_uris":{"android":"levelo://app?vid=e6297d22-b1f0-417e-b251-131e1effb507","ios":"levelo://app?vid=e6297d22-b1f0-417e-b251-131e1effb507"},"vehicle_type_id":"4","last_reported":1724616569,"current_range_meters":10800,"station_id":"ce4bh512rcd13ifvqe2g","pricing_plan_id":"cebpf4jnsgd1na2vs0mg"},{"bike_id":"a05209b8-2a0a-4a3f-846b-67152678785f","system_id":"levelo_inurba_marseille","lat":43.291,"lon":5.38147,"is_reserved":false,"is_disabled":false,"rental_uris":{"android":"levelo://app?vid=a05209b8-2a0a-4a3f-846b-67152678785f","ios":"levelo://app?vid=a05209b8-2a0a-4a3f-846b-67152678785f"},"vehicle_type_id":"4","last_reported":1724616569,"current_range_meters":0,"station_id":"ce4bh512rcd13ifvqe2g","pricing_plan_id":"cebpf4jnsgd1na2vs0mg"},{"bike_id":"529c6e3f-7976-4da9-b510-187f3e7f6ab7","system_id":"levelo_inurba_marseille","lat":43.290958,"lon":5.381363,"is_reserved":false,"is_disabled":false,"rental_uris":{"android":"levelo://app?vid=529c6e3f-7976-4da9-b510-187f3e7f6ab7","ios":"levelo://app?vid=529c6e3f-7976-4da9-b510-187f3e7f6ab7"},"vehicle_type_id":"4","last_reported":1724616569,"current_range_meters":28800,"station_id":"ce4bh512rcd13ifvqe2g","pricing_plan_id":"cebpf4jnsgd1na2vs0mg"},{"bike_id":"204c85e6-9f51-4f42-bc6c-bb1866c53cbe","system_id":"levelo_inurba_marseille","lat":43.290995,"lon":5.381361,"is_reserved":false,"is_disabled":false,"rental_uris":{"android":"levelo://app?vid=204c85e6-9f51-4f42-bc6c-bb1866c53cbe","ios":"levelo://app?vid=204c85e6-9f51-4f42-bc6c-bb1866c53cbe"},"vehicle_type_id":"4","last_reported":1724616569,"current_range_meters":26000,"station_id":"ce4bh512rcd13ifvqe2g","pricing_plan_id":"cebpf4jnsgd1na2vs0mg"},{"bike_id":"35177f11-3ba5-4b94-8852-34f2659e2af4","system_id":"levelo_inurba_marseille","lat":43.29791,"lon":5.39347,"is_reserved":false,"is_disabled":false,"rental_uris":{"android":"levelo://app?vid=35177f11-3ba5-4b94-8852-34f2659e2af4","ios":"levelo://app?vid=35177f11-3ba5-4b94-8852-34f2659e2af4"},"vehicle_type_id":"4","last_reported":1724616569,"current_range_meters":8000,"station_id":"chh1huq6cuj3fo74tm60","pricing_plan_id":"cebpf4jnsgd1na2vs0mg"},{"bike_id":"3b24b3d5-1cbe-46c3-a70c-5fa547a2a4e1","system_id":"levelo_inurba_marseille","lat":43.297807,"lon":5.393533,"is_reserved":false,"is_disabled":false,"rental_uris":{"android":"levelo://app?vid=3b24b3d5-1cbe-46c3-a70c-5fa547a2a4e1","ios":"levelo://app?vid=3b24b3d5-1cbe-46c3-a70c-5fa547a2a4e1"},"vehicle_type_id":"4","last_reported":1724616569,"current_range_meters":3200,"station_id":"chh1huq6cuj3fo74tm60","pricing_plan_id":"cebpf4jnsgd1na2vs0mg"},{"bike_id":"1badf805-ff52-42d5-bd69-ebadbe94a1a1","system_id":"levelo_inurba_marseille","lat":43.297807,"lon":5.393533,"is_reserved":false,"is_disabled":false,"rental_uris":{"android":"levelo://app?vid=1badf805-ff52-42d5-bd69-ebadbe94a1a1","ios":"levelo://app?vid=1badf805-ff52-42d5-bd69-ebadbe94a1a1"},"vehicle_type_id":"4","last_reported":1724616569,"current_range_meters":19600,"station_id":"chh1huq6cuj3fo74tm60","pricing_plan_id":"cebpf4jnsgd1na2vs0mg"},{"bike_id":"dfdd0c0b-3072-41ad-8e86-6b2c04dcce82","system_id":"levelo_inurba_marseille","lat":43.297807,"lon":5.393533,"is_reserved":false,"is_disabled":false,"rental_uris":{"android":"levelo://app?vid=dfdd0c0b-3072-41ad-8e86-6b2c04dcce82","ios":"levelo://app?vid=dfdd0c0b-3072-41ad-8e86-6b2c04dcce82"},"vehicle_type_id":"4","last_reported":1724616569,"current_range_meters":25200,"station_id":"chh1huq6cuj3fo74tm60","pricing_plan_id":"cebpf4jnsgd1na2vs0mg"},{"bike_id":"43177f12-e1d0-4b0b-9df4-52379c4c6ddd","system_id":"levelo_inurba_marseille","lat":43.33022,"lon":5.39038,"is_reserved":false,"is_disabled":false,"rental_uris":{"android":"levelo://app?vid=43177f12-e1d0-4b0b-9df4-52379c4c6ddd","ios":"levelo://app?vid=43177f12-e1d0-4b0b-9df4-52379c4c6ddd"},"vehicle_type_id":"4","last_reported":1724616569,"current_range_meters":0,"station_id":"ce4bhr92rcd13ifvqhrg","pricing_plan_id":"cebpf4jnsgd1na2vs0mg"},{"bike_id":"90718a45-3a40-4b04-bcf5-d2916bdd6eaf","system_id":"levelo_inurba_marseille","lat":43.33023,"lon":5.39039,"is_reserved":false,"is_disabled":false,"rental_uris":{"android":"levelo://app?vid=90718a45-3a40-4b04-bcf5-d2916bdd6eaf","ios":"levelo://app?vid=90718a45-3a40-4b04-bcf5-d2916bdd6eaf"},"vehicle_type_id":"4","last_reported":1724616569,"current_range_meters":10000,"station_id":"ce4bhr92rcd13ifvqhrg","pricing_plan_id":"cebpf4jnsgd1na2vs0mg"},{"bike_id":"e24cf5ad-2a76-40f7-a271-2ecc094636ae","system_id":"levelo_inurba_marseille","lat":43.330442,"lon":5.389148,"is_reserved":false,"is_disabled":false,"rental_uris":{"android":"levelo://app?vid=e24cf5ad-2a76-40f7-a271-2ecc094636ae","ios":"levelo://app?vid=e24cf5ad-2a76-40f7-a271-2ecc094636ae"},"vehicle_type_id":"4","last_reported":1724616569,"current_range_meters":19200,"station_id":"ce4bhr92rcd13ifvqhrg","pricing_plan_id":"cebpf4jnsgd1na2vs0mg"},{"bike_id":"b2fabd9e-3b03-4375-8d2a-b9bf95cd5a4d","system_id":"levelo_inurba_marseille","lat":43.330442,"lon":5.389148,"is_reserved":false,"is_disabled":false,"rental_uris":{"android":"levelo://app?vid=b2fabd9e-3b03-4375-8d2a-b9bf95cd5a4d","ios":"levelo://app?vid=b2fabd9e-3b03-4375-8d2a-b9bf95cd5a4d"},"vehicle_type_id":"4","last_reported":1724616569,"current_range_meters":22400,"station_id":"ce4bhr92rcd13ifvqhrg","pricing_plan_id":"cebpf4jnsgd1na2vs0mg"},{"bike_id":"0356e7c6-107c-487e-a391-99a355aae6be","system_id":"levelo_inurba_marseille","lat":43.330442,"lon":5.389148,"is_reserved":false,"is_disabled":false,"rental_uris":{"android":"levelo://app?vid=0356e7c6-107c-487e-a391-99a355aae6be","ios":"levelo://app?vid=0356e7c6-107c-487e-a391-99a355aae6be"},"vehicle_type_id":"4","last_reported":1724616569,"current_range_meters":27200,"station_id":"ce4bhr92rcd13ifvqhrg","pricing_plan_id":"cebpf4jnsgd1na2vs0mg"},{"bike_id":"76a78128-9ff6-41f2-bf67-4e14d458255d","system_id":"levelo_inurba_marseille","lat":43.289741,"lon":5.378306,"is_reserved":false,"is_disabled":false,"rental_uris":{"android":"levelo://app?vid=76a78128-9ff6-41f2-bf67-4e14d458255d","ios":"levelo://app?vid=76a78128-9ff6-41f2-bf67-4e14d458255d"},"vehicle_type_id":"4","last_reported":1724616569,"current_range_meters":25200,"station_id":"ce4bh9p2rcd13ifvqed0","pricing_plan_id":"cebpf4jnsgd1na2vs0mg"},{"bike_id":"3b17254c-b627-42a1-8a21-e136d0e385c5","system_id":"levelo_inurba_marseille","lat":43.33024,"lon":5.39046,"is_reserved":false,"is_disabled":false,"rental_uris":{"android":"levelo://app?vid=3b17254c-b627-42a1-8a21-e136d0e385c5","ios":"levelo://app?vid=3b17254c-b627-42a1-8a21-e136d0e385c5"},"vehicle_type_id":"4","last_reported":1724616569,"current_range_meters":18000,"station_id":"ce4bhr92rcd13ifvqhrg","pricing_plan_id":"cebpf4jnsgd1na2vs0mg"},{"bike_id":"f77f4418-1eb7-4e04-842e-fb560358dc6d","system_id":"levelo_inurba_marseille","lat":43.305183,"lon":5.398963,"is_reserved":false,"is_disabled":false,"rental_uris":{"android":"levelo://app?vid=f77f4418-1eb7-4e04-842e-fb560358dc6d","ios":"levelo://app?vid=f77f4418-1eb7-4e04-842e-fb560358dc6d"},"vehicle_type_id":"4","last_reported":1724616569,"current_range_meters":7200,"station_id":"","pricing_plan_id":"cebpf4jnsgd1na2vs0mg"},{"bike_id":"7b4adca6-2ab8-45f9-a512-acd74d38043d","system_id":"levelo_inurba_marseille","lat":43.2901,"lon":5.381269,"is_reserved":false,"is_disabled":false,"rental_uris":{"android":"levelo://app?vid=7b4adca6-2ab8-45f9-a512-acd74d38043d","ios":"levelo://app?vid=7b4adca6-2ab8-45f9-a512-acd74d38043d"},"vehicle_type_id":"4","last_reported":1724616569,"current_range_meters":25200,"station_id":"ce4bh4p2rcd13ifvqe1g","pricing_plan_id":"cebpf4jnsgd1na2vs0mg"},{"bike_id":"2320b9d4-cd20-4cb0-bf9c-c6fa8014a20e","system_id":"levelo_inurba_marseille","lat":43.298681,"lon":5.397225,"is_reserved":false,"is_disabled":false,"rental_uris":{"android":"levelo://app?vid=2320b9d4-cd20-4cb0-bf9c-c6fa8014a20e","ios":"levelo://app?vid=2320b9d4-cd20-4cb0-bf9c-c6fa8014a20e"},"vehicle_type_id":"4","last_reported":1724616569,"current_range_meters":18800,"station_id":"ce4bh0h2rcd13ifvqd50","pricing_plan_id":"cebpf4jnsgd1na2vs0mg"},{"bike_id":"af32d5c6-543c-44fb-af28-ea68d21ab0c3","system_id":"levelo_inurba_marseille","lat":43.310276,"lon":5.400829,"is_reserved":false,"is_disabled":false,"rental_uris":{"android":"levelo://app?vid=af32d5c6-543c-44fb-af28-ea68d21ab0c3","ios":"levelo://app?vid=af32d5c6-543c-44fb-af28-ea68d21ab0c3"},"vehicle_type_id":"4","last_reported":1724616569,"current_range_meters":0,"station_id":"","pricing_plan_id":"cebpf4jnsgd1na2vs0mg"},