{"last_updated":1710353313,"ttl":30,"version":"2.2","data":{"bikes":[{"bike_id":"6bf1ac79-4d61-4fb6-af06-31c57d70c432","system_id":"levelo_inurba_marseille","lat":43.312239,"lon":5.368562,"is_reserved":false,"is_disabled":false,"rental_uris":{"android":"levelo://app?vid=6bf1ac79-4d61-4fb6-af06-31c57d70c432","ios":"levelo://app?vid=6bf1ac79-4d61-4fb6-af06-31c57d70c432"},"vehicle_type_id":"4","last_reported":1710353313,"current_range_meters":5600,"station_id":"ce4bgl92rcd13ifvqbq0","pricing_plan_id":"cebpf4jnsgd1na2vs0mg"},{"bike_id":"c9d6a586-c025-441e-ad18-549518d70015","system_id":"levelo_inurba_marseille","lat":43.312239,"lon":5.368562,"is_reserved":false,"is_disabled":false,"rental_uris":{"android":"levelo://app?vid=c9d6a586-c025-441e-ad18-549518d70015","ios":"levelo://app?vid=c9d6a586-c025-441e-ad18-549518d70015"},"vehicle_type_id":"4","last_reported":1710353313,"current_range_meters":5600,"station_id":"ce4bgl92rcd13ifvqbq0","pricing_plan_id":"cebpf4jnsgd1na2vs0mg"},{"bike_id":"b2766b9e-bce1-49fc-85e2-650b59428b2e","system_id":"levelo_inurba_marseille","lat":43.312239,"lon":5.368562,"is_reserved":false,"is_disabled":false,"rental_uris":{"android":"levelo://app?vid=b2766b9e-bce1-49fc-85e2-650b59428b2e","ios":"levelo://app?vid=b2766b9e-bce1-49fc-85e2-650b59428b2e"},"vehicle_type_id":"4","last_reported":1710353313,"current_range_meters":9200,"station_id":"ce4bgl92rcd13ifvqbq0","pricing_plan_id":"cebpf4jnsgd1na2vs0mg"},{"bike_id":"6d21ed21-229a-455c-8915-2d4cd47224e9","system_id":"levelo_inurba_marseille","lat":43.312239,"lon":5.368562,"is_reserved":false,"is_disabled":false,"rental_uris":{"android":"levelo://app?vid=6d21ed21-229a-455c-8915-2d4cd47224e9","ios":"levelo://app?vid=6d21ed21-229a-455c-8915-2d4cd47224e9"},"vehicle_type_id":"4","last_reported":1710353313,"current_range_meters":7600,"station_id":"ce4bgl92rcd13ifvqbq0","pricing_plan_id":"cebpf4jnsgd1na2vs0mg"},{"bike_id":"ef367d48-2a64-4d4a-9ec0-e9a85ddd0c75","system_id":"levelo_inurba_marseille","lat":43.305714,"lon":5.365633,"is_reserved":false,"is_disabled":false,"rental_uris":{"android":"levelo://app?vid=ef367d48-2a64-4d4a-9ec0-e9a85ddd0c75","ios":"levelo://app?vid=ef367d48-2a64-4d4a-9ec0-e9a85ddd0c75"},"vehicle_type_id":"4","last_reported":1710353313,"current_range_meters":16000,"station_id":"ce4bgs12rcd13ifvqcag","pricing_plan_id":"cebpf4jnsgd1na2vs0mg"},{"bike_id":"d0822767-26d6-49ec-a216-18efaaf1eb73","system_id":"levelo_inurba_marseille","lat":43.305706,"lon":5.365654,"is_reserved":false,"is_disabled":false,"rental_uris":{"android":"levelo://app?vid=d0822767-26d6-49ec-a216-18efaaf1eb73","ios":"levelo://app?vid=d0822767-26d6-49ec-a216-18efaaf1eb73"},"vehicle_type_id":"4","last_reported":1710353313,"current_range_meters":2400,"station_id":"ce4bgs12rcd13ifvqcag","pricing_plan_id":"cebpf4jnsgd1na2vs0mg"},{"bike_id":"cf12af79-50e5-4d8f-92b3-e73e8575d364","system_id":"levelo_inurba_marseille","lat":43.317075,"lon":5.377367,"is_reserved":false,"is_disabled":false,"rental_uris":{"android":"levelo://app?vid=cf12af79-50e5-4d8f-92b3-e73e8575d364","ios":"levelo://app?vid=cf12af79-50e5-4d8f-92b3-e73e8575d364"},"vehicle_type_id":"4","last_reported":1710353313,"current_range_meters":1600,"station_id":"ce4bgth2rcd13ifvqch0","pricing_plan_id":"cebpf4jnsgd1na2vs0mg"},{"bike_id":"eb15d8e2-9db0-4c31-ba74-580e555d6888","system_id":"levelo_inurba_marseille","lat":43.305989,"lon":5.37225,"is_reserved":false,"is_disabled":false,"rental_uris":{"android":"levelo://app?vid=eb15d8e2-9db0-4c31-ba74-580e555d6888","ios":"levelo://app?vid=eb15d8e2-9db0-4c31-ba74-580e555d6888"},"vehicle_type_id":"4","last_reported":1710353313,"current_range_meters":18000,"station_id":"ce4bgqh2rcd13ifvqc4g","pricing_plan_id":"cebpf4jnsgd1na2vs0mg"},{"bike_id":"4c94d40d-5fff-400f-9144-ff8a8a66d899","system_id":"levelo_inurba_marseille","lat":43.307945,"lon":5.376487,"is_reserved":false,"is_disabled":false,"rental_uris":{"android":"levelo://app?vid=4c94d40d-5fff-400f-9144-ff8a8a66d899","ios":"levelo://app?vid=4c94d40d-5fff-400f-9144-ff8a8a66d899"},"vehicle_type_id":"4","last_reported":1710353313,"current_range_meters":4000,"station_id":"ce4bgv92rcd13ifvqcq0","pricing_plan_id":"cebpf4jnsgd1na2vs0mg"},{"bike_id":"820ff72f-4636-4512-b609-71a1050b91de","system_id":"levelo_inurba_marseille","lat":43.317075,"lon":5.377367,"is_reserved":false,"is_disabled":false,"rental_uris":{"android":"levelo://app?vid=820ff72f-4636-4512-b609-71a1050b91de","ios":"levelo://app?vid=820ff72f-4636-4512-b609-71a1050b91de"},"vehicle_type_id":"4","last_reported":1710353313,"current_range_meters":2000,"station_id":"ce4bgth2rcd13ifvqch0","pricing_plan_id":"cebpf4jnsgd1na2vs0mg"},{"bike_id":"6df8a519-a704-46e9-b3eb-42b1fb917e85","system_id":"levelo_inurba_marseille","lat":43.31741,"lon":5.37761,"is_reserved":false,"is_disabled":false,"rental_uris":{"android":"levelo://app?vid=6df8a519-a704-46e9-b3eb-42b1fb917e85","ios":"levelo://app?vid=6df8a519-a704-46e9-b3eb-42b1fb917e85"},"vehicle_type_id":"4","last_reported":1710353313,"current_range_meters":22800,"station_id":"ce4bgth2rcd13ifvqch0","pricing_plan_id":"cebpf4jnsgd1na2vs0mg"},{"bike_id":"e9c5ec22-61d6-4bc1-b4e8-e42a605cf806","system_id":"levelo_inurba_marseille","lat":43.30304,"lon":5.368987,"is_reserved":false,"is_disabled":false,"rental_uris":{"android":"levelo://app?vid=e9c5ec22-61d6-4bc1-b4e8-e42a605cf806","ios":"levelo://app?vid=e9c5ec22-61d6-4bc1-b4e8-e42a605cf806"},"vehicle_type_id":"4","last_reported":1710353313,"current_range_meters":0,"station_id":"ce4bgqh2rcd13ifvqc5g","pricing_plan_id":"cebpf4jnsgd1na2vs0mg"},{"bike_id":"50184b0d-617f-460b-8304-e8042fa8678b","system_id":"levelo_inurba_marseille","lat":43.303046,"lon":5.368981,"is_reserved":false,"is_disabled":false,"rental_uris":{"android":"levelo://app?vid=50184b0d-617f-460b-8304-e8042fa8678b","ios":"levelo://app?vid=50184b0d-617f-460b-8304-e8042fa8678b"},"vehicle_type_id":"4","last_reported":1710353313,"current_range_meters":12800,"station_id":"ce4bgqh2rcd13ifvqc5g","pricing_plan_id":"cebpf4jnsgd1na2vs0mg"},{"bike_id":"79d05651-6c23-4107-a927-bebed9f006a3","system_id":"levelo_inurba_marseille","lat":43.315289,"lon":5.380349,"is_reserved":false,"is_disabled":false,"rental_uris":{"android":"levelo://app?vid=79d05651-6c23-4107-a927-bebed9f006a3","ios":"levelo://app?vid=79d05651-6c23-4107-a927-bebed9f006a3"},"vehicle_type_id":"4","last_reported":1710353313,"current_range_meters":11200,"station_id":"ce4bhsp2rcd13ifvqi50","pricing_plan_id":"cebpf4jnsgd1na2vs0mg"},{"bike_id":"53e6a580-4f42-456a-9acc-c0fc760dd98a","system_id":"levelo_inurba_marseille","lat":43.315289,"lon":5.380349,"is_reserved":false,"is_disabled":false,"rental_uris":{"android":"levelo://app?vid=53e6a580-4f42-456a-9acc-c0fc760dd98a","ios":"levelo://app?vid=53e6a580-4f42-456a-9acc-c0fc760dd98a"},"vehicle_type_id":"4","last_reported":1710353313,"current_range_meters":3600,"station_id":"ce4bhsp2rcd13ifvqi50","pricing_plan_id":"cebpf4jnsgd1na2vs0mg"},{"bike_id":"6a72228a-2825-41b9-a3cb-61aa6d088b55","system_id":"levelo_inurba_marseille","lat":43.31537,"lon":5.38031,"is_reserved":false,"is_disabled":false,"rental_uris":{"android":"levelo://app?vid=6a72228a-2825-41b9-a3cb-61aa6d088b55","ios":"levelo://app?vid=6a72228a-2825-41b9-a3cb-61aa6d088b55"},"vehicle_type_id":"4","last_reported":1710353313,"current_range_meters":0,"station_id":"ce4bhsp2rcd13ifvqi50","pricing_plan_id":"cebpf4jnsgd1na2vs0mg"},{"bike_id":"00839011-a3e5-4e19-ba87-59e6e978fb02","system_id":"levelo_inurba_marseille","lat":43.315293,"lon":5.380349,"is_reserved":false,"is_disabled":false,"rental_uris":{"android":"levelo://app?vid=00839011-a3e5-4e19-ba87-59e6e978fb02","ios":"levelo://app?vid=00839011-a3e5-4e19-ba87-59e6e978fb02"},"vehicle_type_id":"4","last_reported":1710353313,"current_range_meters":7600,"station_id":"ce4bhsp2rcd13ifvqi50","pricing_plan_id":"cebpf4jnsgd1na2vs0mg"},{"bike_id":"f5170af3-0869-46f8-aa17-ec87eb1a8cf1","system_id":"levelo_inurba_marseille","lat":43.315293,"lon":5.380349,"is_reserved":false,"is_disabled":false,"rental_uris":{"android":"levelo://app?vid=f5170af3-0869-46f8-aa17-ec87eb1a8cf1","ios":"levelo://app?vid=f5170af3-0869-46f8-aa17-ec87eb1a8cf1"},"vehicle_type_id":"4","last_reported":1710353313,"current_range_meters":4000,"station_id":"ce4bhsp2rcd13ifvqi50","pricing_plan_id":"cebpf4jnsgd1na2vs0mg"},{"bike_id":"040b9b70-6d66-48e8-9f66-a1e5daa186e0","system_id":"levelo_inurba_marseille","lat":43.301939,"lon":5.366286,"is_reserved":false,"is_disabled":false,"rental_uris":{"android":"levelo://app?vid=040b9b70-6d66-48e8-9f66-a1e5daa186e0","ios":"levelo://app?vid=040b9b70-6d66-48e8-9f66-a1e5daa186e0"},"vehicle_type_id":"4","last_reported":1710353313,"current_range_meters":1600,"station_id":"ce4bgrh2rcd13ifvqc8g","pricing_plan_id":"cebpf4jnsgd1na2vs0mg"},{"bike_id":"3e714466-b334-44eb-b7f5-1eb3f2473b75","system_id":"levelo_inurba_marseille","lat":43.301939,"lon":5.366286,"is_reserved":false,"is_disabled":false,"rental_uris":{"android":"levelo://app?vid=3e714466-b334-44eb-b7f5-1eb3f2473b75","ios":"levelo://app?vid=3e714466-b334-44eb-b7f5-1eb3f2473b75"},"vehicle_type_id":"4","last_reported":1710353313,"current_range_meters":9200,"station_id":"ce4bgrh2rcd13ifvqc8g","pricing_plan_id":"cebpf4jnsgd1na2vs0mg"},{"bike_id":"cd6975ea-3296-44b8-9c14-021deae5a5a4","system_id":"levelo_inurba_marseille","lat":43.308012,"lon":5.381511,"is_reserved":false,"is_disabled":false,"rental_uris":{"android":"levelo://app?vid=cd6975ea-3296-44b8-9c14-021deae5a5a4","ios":"levelo://app?vid=cd6975ea-3296-44b8-9c14-021deae5a5a4"},"vehicle_type_id":"4","last_reported":1710353313,"current_range_meters":15200,"station_id":"ce4bgt12rcd13ifvqce0","pricing_plan_id":"cebpf4jnsgd1na2vs0mg"},{"bike_id":"5b244bc5-6de2-4c14-99d6-4a69873b03c1","system_id":"levelo_inurba_marseille","lat":43.308012,"lon":5.381511,"is_reserved":false,"is_disabled":false,"rental_uris":{"android":"levelo://app?vid=5b244bc5-6de2-4c14-99d6-4a69873b03c1","ios":"levelo://app?vid=5b244bc5-6de2-4c14-99d6-4a69873b03c1"},"vehicle_type_id":"4","last_reported":1710353313,"current_range_meters":22800,"station_id":"ce4bgt12rcd13ifvqce0","pricing_plan_id":"cebpf4jnsgd1na2vs0mg"},{"bike_id":"7077a807-db42-4b43-9521-a5be867e5627","system_id":"levelo_inurba_marseille","lat":43.324771,"lon":5.36557,"is_reserved":false,"is_disabled":false,"rental_uris":{"android":"levelo://app?vid=7077a807-db42-4b43-9521-a5be867e5627","ios":"levelo://app?vid=7077a807-db42-4b43-9521-a5be867e5627"},"vehicle_type_id":"4","last_reported":1710353313,"current_range_meters":4800,"station_id":"ce4bhs12rcd13ifvqhvg","pricing_plan_id":"cebpf4jnsgd1na2vs0mg"},{"bike_id":"419c8a0e-be50-41cb-97b0-4dc83dde5c03","system_id":"levelo_inurba_marseille","lat":43.324771,"lon":5.36557,"is_reserved":false,"is_disabled":false,"rental_uris":{"android":"levelo://app?vid=419c8a0e-be50-41cb-97b0-4dc83dde5c03","ios":"levelo://app?vid=419c8a0e-be50-41cb-97b0-4dc83dde5c03"},"vehicle_type_id":"4","last_reported":1710353313,"current_range_meters":400,"station_id":"ce4bhs12rcd13ifvqhvg","pricing_plan_id":"cebpf4jnsgd1na2vs0mg"},{"bike_id":"36b9805d-1b04-4ec6-8f80-ae352e34369c","system_id":"levelo_inurba_marseille","lat":43.324771,"lon":5.36557,"is_reserved":false,"is_disabled":false,"rental_uris":{"android":"levelo://app?vid=36b9805d-1b04-4ec6-8f80-ae352e34369c","ios":"levelo://app?vid=36b9805d-1b04-4ec6-8f80-ae352e34369c"},"vehicle_type_id":"4","last_reported":1710353313,"current_range_meters":2400,"station_id":"ce4bhs12rcd13ifvqhvg","pricing_plan_id":"cebpf4jnsgd1na2vs0mg"},{"bike_id":"49f2117d-bbb1-42e5-80a2-7a881aecf261","system_id":"levelo_inurba_marseille","lat":43.324771,"lon":5.36557,"is_reserved":false,"is_disabled":false,"rental_uris":{"android":"levelo://app?vid=49f2117d-bbb1-42e5-80a2-7a881aecf261","ios":"levelo://app?vid=49f2117d-bbb1-42e5-80a2-7a881aecf261"},"vehicle_type_id":"4","last_reported":1710353313,"current_range_meters":10800,"station_id":"ce4bhs12rcd13ifvqhvg","pricing_plan_id":"cebpf4jnsgd1na2vs0mg"},{"bike_id":"ed2f200f-86c1-4eb8-ad3b-d4ae2c5298fd","system_id":"levelo_inurba_marseille","lat":43.324771,"lon":5.36557,"is_reserved":false,"is_disabled":false,"rental_uris":{"android":"levelo://app?vid=ed2f200f-86c1-4eb8-ad3b-d4ae2c5298fd","ios":"levelo://app?vid=ed2f200f-86c1-4eb8-ad3b-d4ae2c5298fd"},"vehicle_type_id":"4","last_reported":1710353313,"current_range_meters":24000,"station_id":"ce4bhs12rcd13ifvqhvg","pricing_plan_id":"cebpf4jnsgd1na2vs0mg"},{"bike_id":"b735f631-99f5-4034-8269-a86a4a969537","system_id":"levelo_inurba_marseille","lat":43.324771,"lon":5.36557,"is_reserved":false,"is_disabled":false,"rental_uris":{"android":"levelo://app?vid=b735f631-99f5-4034-8269-a86a4a969537","ios":"levelo://app?vid=b735f631-99f5-4034-8269-a86a4a969537"},"vehicle_type_id":"4","last_reported":1710353313,"current_range_meters":4800,"station_id":"ce4bhs12rcd13ifvqhvg","pricing_plan_id":"cebpf4jnsgd1na2vs0mg"},{"bike_id":"2842ba00-d3d0-4b15-b756-849d6fdce6d7","system_id":"levelo_inurba_marseille","lat":43.324771,"lon":5.36557,"is_reserved":false,"is_disabled":false,"rental_uris":{"android":"levelo://app?vid=2842ba00-d3d0-4b15-b756-849d6fdce6d7","ios":"levelo://app?vid=2842ba00-d3d0-4b15-b756-849d6fdce6d7"},"vehicle_type_id":"4","last_reported":1710353313,"current_range_meters":23200,"station_id":"ce4bhs12rcd13ifvqhvg","pricing_plan_id":"cebpf4jnsgd1na2vs0mg"},{"bike_id":"69f16bc0-91b1-4cad-91b5-51ae8c8ba203","system_id":"levelo_inurba_marseille","lat":43.32481,"lon":5.36562,"is_reserved":false,"is_disabled":false,"rental_uris":{"android":"levelo://app?vid=69f16bc0-91b1-4cad-91b5-51ae8c8ba203","ios":"levelo://app?vid=69f16bc0-91b1-4cad-91b5-51ae8c8ba203"},"vehicle_type_id":"4","last_reported":1710353313,"current_range_meters":4800,"station_id":"ce4bhs12rcd13ifvqhvg","pricing_plan_id":"cebpf4jnsgd1na2vs0mg"},{"bike_id":"75737f94-0aac-466c-878e-f5152ecd0234","system_id":"levelo_inurba_marseille","lat":43.324771,"lon":5.36557,"is_reserved":false,"is_disabled":false,"rental_uris":{"android":"levelo://app?vid=75737f94-0aac-466c-878e-f5152ecd0234","ios":"levelo://app?vid=75737f94-0aac-466c-878e-f5152ecd0234"},"vehicle_type_id":"4","last_reported":1710353313,"current_range_meters":2000,"station_id":"ce4bhs12rcd13ifvqhvg","pricing_plan_id":"cebpf4jnsgd1na2vs0mg"},{"bike_id":"3e493ae2-c51c-41da-a0b8-fbd174ae9e18","system_id":"levelo_inurba_marseille","lat":43.324825,"lon":5.365744,"is_reserved":false,"is_disabled":false,"rental_uris":{"android":"levelo://app?vid=3e493ae2-c51c-41da-a0b8-fbd174ae9e18","ios":"levelo://app?vid=3e493ae2-c51c-41da-a0b8-fbd174ae9e18"},"vehicle_type_id":"4","last_reported":1710353313,"current_range_meters":5600,"station_id":"ce4bhs12rcd13ifvqhvg","pricing_plan_id":"cebpf4jnsgd1na2vs0mg"},{"bike_id":"2e3cabf9-3880-4d07-ae3b-af234e57884b","system_id":"levelo_inurba_marseille","lat":43.324771,"lon":5.36557,"is_reserved":false,"is_disabled":false,"rental_uris":{"android":"levelo://app?vid=2e3cabf9-3880-4d07-ae3b-af234e57884b","ios":"levelo://app?vid=2e3cabf9-3880-4d07-ae3b-af234e57884b"},"vehicle_type_id":"4","last_reported":1710353313,"current_range_meters":5200,"station_id":"ce4bhs12rcd13ifvqhvg","pricing_plan_id":"cebpf4jnsgd1na2vs0mg"},{"bike_id":"22a27d94-1717-4440-ac7e-4a68cdccdba2","system_id":"levelo_inurba_marseille","lat":43.324771,"lon":5.36557,"is_reserved":false,"is_disabled":false,"rental_uris":{"android":"levelo://app?vid=22a27d94-1717-4440-ac7e-4a68cdccdba2","ios":"levelo://app?vid=22a27d94-1717-4440-ac7e-4a68cdccdba2"},"vehicle_type_id":"4","last_reported":1710353313,"current_range_meters":18800,"station_id":"ce4bhs12rcd13ifvqhvg","pricing_plan_id":"cebpf4jnsgd1na2vs0mg"},{"bike_id":"4168ee59-67d3-4e53-a0cf-5d27c36bd059","system_id":"levelo_inurba_marseille","lat":43.308012,"lon":5.381511,"is_reserved":false,"is_disabled":false,"rental_uris":{"android":"levelo://app?vid=4168ee59-67d3-4e53-a0cf-5d27c36bd059","ios":"levelo://app?vid=4168ee59-67d3-4e53-a0cf-5d27c36bd059"},"vehicle_type_id":"4","last_reported":1710353313,"current_range_meters":31200,"station_id":"ce4bgt12rcd13ifvqce0","pricing_plan_id":"cebpf4jnsgd1na2vs0mg"},{"bike_id":"2cbe4754-8bed-4fb8-ac7d-a2dfa79db6a5","system_id":"levelo_inurba_marseille","lat":43.324771,"lon":5.36557,"is_reserved":false,"is_disabled":false,"rental_uris":{"android":"levelo://app?vid=2cbe4754-8bed-4fb8-ac7d-a2dfa79db6a5","ios":"levelo://app?vid=2cbe4754-8bed-4fb8-ac7d-a2dfa79db6a5"},"vehicle_type_id":"4","last_reported":1710353313,"current_range_meters":7200,"station_id":"ce4bhs12rcd13ifvqhvg","pricing_plan_id":"cebpf4jnsgd1na2vs0mg"},{"bike_id":"8cfff264-df77-48a6-a0f9-4be90410bae9","system_id":"levelo_inurba_marseille","lat":43.314811,"lon":5.373103,"is_reserved":false,"is_disabled":false,"rental_uris":{"android":"levelo://app?vid=8cfff264-df77-48a6-a0f9-4be90410bae9","ios":"levelo://app?vid=8cfff264-df77-48a6-a0f9-4be90410bae9"},"vehicle_type_id":"4","last_reported":1710353313,"current_range_meters":9200,"station_id":"ce4bgt12rcd13ifvqcd0","pricing_plan_id":"cebpf4jnsgd1na2vs0mg"},{"bike_id":"bc174713-37d0-4cbb-a33a-1de0b1761942","system_id":"levelo_inurba_marseille","lat":43.310804,"lon":5.38359,"is_reserved":false,"is_disabled":false,"rental_uris":{"android":"levelo://app?vid=bc174713-37d0-4cbb-a33a-1de0b1761942","ios":"levelo://app?vid=bc174713-37d0-4cbb-a33a-1de0b1761942"},"vehicle_type_id":"4","last_reported":1710353313,"current_range_meters":22800,"station_id":"ce4bgv92rcd13ifvqcr0","pricing_plan_id":"cebpf4jnsgd1na2vs0mg"},{"bike_id":"2f771313-be69-4455-8a50-87f1e21ecbb3","system_id":"levelo_inurba_marseille","lat":43.30283,"lon":5.37694,"is_reserved":false,"is_disabled":false,"rental_uris":{"android":"levelo://app?vid=2f771313-be69-4455-8a50-87f1e21ecbb3","ios":"levelo://app?vid=2f771313-be69-4455-8a50-87f1e21ecbb3"},"vehicle_type_id":"4","last_reported":1710353313,"current_range_meters":0,"station_id":"ce4bguh2rcd13ifvqcj0","pricing_plan_id":"cebpf4jnsgd1na2vs0mg"},{"bike_id":"9541ffe8-b8d9-48a2-aab0-324a5580c0b6","system_id":"levelo_inurba_marseille","lat":43.310804,"lon":5.38359,"is_reserved":false,"is_disabled":false,"rental_uris":{"android":"levelo://app?vid=9541ffe8-b8d9-48a2-aab0-324a5580c0b6","ios":"levelo://app?vid=9541ffe8-b8d9-48a2-aab0-324a5580c0b6"},"vehicle_type_id":"4","last_reported":1710353313,"current_range_meters":0,"station_id":"ce4bgv92rcd13ifvqcr0","pricing_plan_id":"cebpf4jnsgd1na2vs0mg"},{"bike_id":"6891acb2-84d9-49a5-ae9f-2306209b9a06","system_id":"levelo_inurba_marseille","lat":43.3107,"lon":5.38365,"is_reserved":false,"is_disabled":false,"rental_uris":{"android":"levelo://app?vid=6891acb2-84d9-49a5-ae9f-2306209b9a06","ios":"levelo://app?vid=6891acb2-84d9-49a5-ae9f-2306209b9a06"},"vehicle_type_id":"4","last_reported":1710353313,"current_range_meters":28000,"station_id":"ce4bgv92rcd13ifvqcr0","pricing_plan_id":"cebpf4jnsgd1na2vs0mg"},{"bike_id":"85ad0556-8a35-4078-a593-29b45236573f","system_id":"levelo_inurba_marseille","lat":43.30143,"lon":5.37413,"is_reserved":false,"is_disabled":false,"rental_uris":{"android":"levelo://app?vid=85ad0556-8a35-4078-a593-29b45236573f","ios":"levelo://app?vid=85ad0556-8a35-4078-a593-29b45236573f"},"vehicle_type_id":"4","last_reported":1710353313,"current_range_meters":0,"station_id":"ce4bgs92rcd13ifvqcc0","pricing_plan_id":"cebpf4jnsgd1na2vs0mg"},{"bike_id":"78e56cee-00fd-4204-8c5b-4d86bcf43873","system_id":"levelo_inurba_marseille","lat":43.298037,"lon":5.381066,"is_reserved":false,"is_disabled":false,"rental_uris":{"android":"levelo://app?vid=78e56cee-00fd-4204-8c5b-4d86bcf43873","ios":"levelo://app?vid=78e56cee-00fd-4204-8c5b-4d86bcf43873"},"vehicle_type_id":"4","last_reported":1710353313,"current_range_meters":2000,"station_id":"ce4bgip2rcd13ifvqbb0","pricing_plan_id":"cebpf4jnsgd1na2vs0mg"},{"bike_id":"108d0463-7484-49b1-90df-fc408c569a32","system_id":"levelo_inurba_marseille","lat":43.319935,"lon":5.381699,"is_reserved":false,"is_disabled":false,"rental_uris":{"android":"levelo://app?vid=108d0463-7484-49b1-90df-fc408c569a32","ios":"levelo://app?vid=108d0463-7484-49b1-90df-fc408c569a32"},"vehicle_type_id":"4","last_reported":1710353313,"current_range_meters":0,"station_id":"ce4bhr12rcd13ifvqhpg","pricing_plan_id":"cebpf4jnsgd1na2vs0mg"},{"bike_id":"7d36ac95-87f1-4d6c-b68b-8931e166b0b5","system_id":"levelo_inurba_marseille","lat":43.319935,"lon":5.381699,"is_reserved":false,"is_disabled":false,"rental_uris":{"android":"levelo://app?vid=7d36ac95-87f1-4d6c-b68b-8931e166b0b5","ios":"levelo://app?vid=7d36ac95-87f1-4d6c-b68b-8931e166b0b5"},"vehicle_type_id":"4","last_reported":1710353313,"current_range_meters":19600,"station_id":"ce4bhr12rcd13ifvqhpg","pricing_plan_id":"cebpf4jnsgd1na2vs0mg"},{"bike_id":"ceb14724-9318-4a41-b333-c341bb4f50ad","system_id":"levelo_inurba_marseille","lat":43.319935,"lon":5.381699,"is_reserved":false,"is_disabled":false,"rental_uris":{"android":"levelo://app?vid=ceb14724-9318-4a41-b333-c341bb4f50ad","ios":"levelo://app?vid=ceb14724-9318-4a41-b333-c341bb4f50ad"},"vehicle_type_id":"4","last_reported":1710353313,"current_range_meters":4000,"station_id":"ce4bhr12rcd13ifvqhpg","pricing_plan_id":"cebpf4jnsgd1na2vs0mg"},{"bike_id":"057221b1-1b0d-4685-8564-80af51651ade","system_id":"levelo_inurba_marseille","lat":43.319935,"lon":5.381699,"is_reserved":false,"is_disabled":false,"rental_uris":{"android":"levelo://app?vid=057221b1-1b0d-4685-8564-80af51651ade","ios":"levelo://app?vid=057221b1-1b0d-4685-8564-80af51651ade"},"vehicle_type_id":"4","last_reported":1710353313,"current_range_meters":11200,"station_id":"ce4bhr12rcd13ifvqhpg","pricing_plan_id":"cebpf4jnsgd1na2vs0mg"},{"bike_id":"1dcc8183-b7cf-4237-af50-833418ba40b6","system_id":"levelo_inurba_marseille","lat":43.319935,"lon":5.381699,"is_reserved":false,"is_disabled":false,"rental_uris":{"android":"levelo://app?vid=1dcc8183-b7cf-4237-af50-833418ba40b6","ios":"levelo://app?vid=1dcc8183-b7cf-4237-af50-833418ba40b6"},"vehicle_type_id":"4","last_reported":1710353313,"current_range_meters":2000,"station_id":"ce4bhr12rcd13ifvqhpg","pricing_plan_id":"cebpf4jnsgd1na2vs0mg"},{"bike_id":"0e69524c-e611-4671-8b2f-e073593ad256","system_id":"levelo_inurba_marseille","lat":43.319935,"lon":5.381699,"is_reserved":false,"is_disabled":false,"rental_uris":{"android":"levelo://app?vid=0e69524c-e611-4671-8b2f-e073593ad256","ios":"levelo://app?vid=0e69524c-e611-4671-8b2f-e073593ad256"},"vehicle_type_id":"4","last_reported":1710353313,"current_range_meters":30400,"station_id":"ce4bhr12rcd13ifvqhpg","pricing_plan_id":"cebpf4jnsgd1na2vs0mg"},{"bike_id":"5f3c95b2-6ced-4bfc-bc25-cab3f7cf72ec","system_id":"levelo_inurba_marseille","lat":43.31996,"lon":5.38162,"is_reserved":false,"is_disabled":false,"rental_uris":{"android":"levelo://app?vid=5f3c95b2-6ced-4bfc-bc25-cab3f7cf72ec","ios":"levelo://app?vid=5f3c95b2-6ced-4bfc-bc25-cab3f7cf72ec"},"vehicle_type_id":"4","last_reported":1710353313,"current_range_meters":2800,"station_id":"ce4bhr12rcd13ifvqhpg","pricing_plan_id":"cebpf4jnsgd1na2vs0mg"},{"bike_id":"e5135d9e-cace-4405-af75-7c28b6d5f2af","system_id":"levelo_inurba_marseille","lat":43.319935,"lon":5.381699,"is_reserved":false,"is_disabled":false,"rental_uris":{"android":"levelo://app?vid=e5135d9e-cace-4405-af75-7c28b6d5f2af","ios":"levelo://app?vid=e5135d9e-cace-4405-af75-7c28b6d5f2af"},"vehicle_type_id":"4","last_reported":1710353313,"current_range_meters":14800,"station_id":"ce4bhr12rcd13ifvqhpg","pricing_plan_id":"cebpf4jnsgd1na2vs0mg"},{"bike_id":"ef6867c4-e666-481d-bfde-3a8d4ed923c2","system_id":"levelo_inurba_marseille","lat":43.319935,"lon":5.381699,"is_reserved":false,"is_disabled":false,"rental_uris":{"android":"levelo://app?vid=ef6867c4-e666-481d-bfde-3a8d4ed923c2","ios":"levelo://app?vid=ef6867c4-e666-481d-bfde-3a8d4ed923c2"},"vehicle_type_id":"4","last_reported":1710353313,"current_range_meters":2000,"station_id":"ce4bhr12rcd13ifvqhpg","pricing_plan_id":"cebpf4jnsgd1na2vs0mg"},{"bike_id":"8f31c532-dc42-48e0-893f-3b6c2fa61454","system_id":"levelo_inurba_marseille","lat":43.319935,"lon":5.381699,"is_reserved":false,"is_disabled":false,"rental_uris":{"android":"levelo://app?vid=8f31c532-dc42-48e0-893f-3b6c2fa61454","ios":"levelo://app?vid=8f31c532-dc42-48e0-893f-3b6c2fa61454"},"vehicle_type_id":"4","last_reported":1710353313,"current_range_meters":20400,"station_id":"ce4bhr12rcd13ifvqhpg","pricing_plan_id":"cebpf4jnsgd1na2vs0mg"},{"bike_id":"6f5134f5-1bdc-44fd-81d6-314bb0e3cf57","system_id":"levelo_inurba_marseille","lat":43.319935,"lon":5.381699,"is_reserved":false,"is_disabled":false,"rental_uris":{"android":"levelo://app?vid=6f5134f5-1bdc-44fd-81d6-314bb0e3cf57","ios":"levelo://app?vid=6f5134f5-1bdc-44fd-81d6-314bb0e3cf57"},"vehicle_type_id":"4","last_reported":1710353313,"current_range_meters":16800,"station_id":"ce4bhr12rcd13ifvqhpg","pricing_plan_id":"cebpf4jnsgd1na2vs0mg"},{"bike_id":"a4b8b9b9-f927-496e-adf4-6bcbe550ff22","system_id":"levelo_inurba_marseille","lat":43.313571,"lon":5.384829,"is_reserved":false,"is_disabled":false,"rental_uris":{"android":"levelo://app?vid=a4b8b9b9-f927-496e-adf4-6bcbe550ff22","ios":"levelo://app?vid=a4b8b9b9-f927-496e-adf4-6bcbe550ff22"},"vehicle_type_id":"4","last_reported":1710353313,"current_range_meters":5600,"station_id":"ce4bgt92rcd13ifvqcf0","pricing_plan_id":"cebpf4jnsgd1na2vs0mg"},{"bike_id":"814767ef-7eb2-40ab-b9b2-43608e504898","system_id":"levelo_inurba_marseille","lat":43.313571,"lon":5.384829,"is_reserved":false,"is_disabled":false,"rental_uris":{"android":"levelo://app?vid=814767ef-7eb2-40ab-b9b2-43608e504898","ios":"levelo://app?vid=814767ef-7eb2-40ab-b9b2-43608e504898"},"vehicle_type_id":"4","last_reported":1710353313,"current_range_meters":0,"station_id":"ce4bgt92rcd13ifvqcf0","pricing_plan_id":"cebpf4jnsgd1na2vs0mg"},{"bike_id":"9f26cea6-83cf-400f-9d8f-338383c4934b","system_id":"levelo_inurba_marseille","lat":43.313571,"lon":5.384829,"is_reserved":false,"is_disabled":false,"rental_uris":{"android":"levelo://app?vid=9f26cea6-83cf-400f-9d8f-338383c4934b","ios":"levelo://app?vid=9f26cea6-83cf-400f-9d8f-338383c4934b"},"vehicle_type_id":"4","last_reported":1710353313,"current_range_meters":25200,"station_id":"ce4bgt92rcd13ifvqcf0","pricing_plan_id":"cebpf4jnsgd1na2vs0mg"},{"bike_id":"58c2b895-68bc-4e42-aa94-9d1598bfb8d0","system_id":"levelo_inurba_marseille","lat":43.313571,"lon":5.384829,"is_reserved":false,"is_disabled":false,"rental_uris":{"android":"levelo://app?vid=58c2b895-68bc-4e42-aa94-9d1598bfb8d0","ios":"levelo://app?vid=58c2b895-68bc-4e42-aa94-9d1598bfb8d0"},"vehicle_type_id":"4","last_reported":1710353313,"current_range_meters":17200,"station_id":"ce4bgt92rcd13ifvqcf0","pricing_plan_id":"cebpf4jnsgd1na2vs0mg"},{"bike_id":"9288e36e-6ef9-4409-b291-520d763b11d1","system_id":"levelo_inurba_marseille","lat":43.313571,"lon":5.384829,"is_reserved":false,"is_disabled":false,"rental_uris":{"android":"levelo://app?vid=9288e36e-6ef9-4409-b291-520d763b11d1","ios":"levelo://app?vid=9288e36e-6ef9-4409-b291-520d763b11d1"},"vehicle_type_id":"4","last_reported":1710353313,"current_range_meters":8400,"station_id":"ce4bgt92rcd13ifvqcf0","pricing_plan_id":"cebpf4jnsgd1na2vs0mg"},{"bike_id":"7f6005b4-7b41-495d-90de-14dd6fc7acaa","system_id":"levelo_inurba_marseille","lat":43.313571,"lon":5.384829,"is_reserved":false,"is_disabled":false,"rental_uris":{"android":"levelo://app?vid=7f6005b4-7b41-495d-90de-14dd6fc7acaa","ios":"levelo://app?vid=7f6005b4-7b41-495d-90de-14dd6fc7acaa"},"vehicle_type_id":"4","last_reported":1710353313,"current_range_meters":4000,"station_id":"ce4bgt92rcd13ifvqcf0","pricing_plan_id":"cebpf4jnsgd1na2vs0mg"},{"bike_id":"a117e53a-97dc-4840-a3bd-bc677909118b","system_id":"levelo_inurba_marseille","lat":43.313571,"lon":5.384829,"is_reserved":false,"is_disabled":false,"rental_uris":{"android":"levelo://app?vid=a117e53a-97dc-4840-a3bd-bc677909118b","ios":"levelo://app?vid=a117e53a-97dc-4840-a3bd-bc677909118b"},"vehicle_type_id":"4","last_reported":1710353313,"current_range_meters":0,"station_id":"ce4bgt92rcd13ifvqcf0","pricing_plan_id":"cebpf4jnsgd1na2vs0mg"},{"bike_id":"d599bc67-653d-493a-863d-16905d6a4351","system_id":"levelo_inurba_marseille","lat":43.313571,"lon":5.384829,"is_reserved":false,"is_disabled":false,"rental_uris":{"android":"levelo://app?vid=d599bc67-653d-493a-863d-16905d6a4351","ios":"levelo://app?vid=d599bc67-653d-493a-863d-16905d6a4351"},"vehicle_type_id":"4","last_reported":1710353313,"current_range_meters":17600,"station_id":"ce4bgt92rcd13ifvqcf0","pricing_plan_id":"cebpf4jnsgd1na2vs0mg"},{"bike_id":"5c3811ec-2cdc-4dfd-b0d7-fbec340368c4","system_id":"levelo_inurba_marseille","lat":43.313571,"lon":5.384829,"is_reserved":false,"is_disabled":false,"rental_uris":{"android":"levelo://app?vid=5c3811ec-2cdc-4dfd-b0d7-fbec340368c4","ios":"levelo://app?vid=5c3811ec-2cdc-4dfd-b0d7-fbec340368c4"},"vehicle_type_id":"4","last_reported":1710353313,"current_range_meters":21600,"station_id":"ce4bgt92rcd13ifvqcf0","pricing_plan_id":"cebpf4jnsgd1na2vs0mg"},{"bike_id":"22a31495-ed0d-4908-8785-53ce78895634","system_id":"levelo_inurba_marseille","lat":43.313571,"lon":5.384829,"is_reserved":false,"is_disabled":false,"rental_uris":{"android":"levelo://app?vid=22a31495-ed0d-4908-8785-53ce78895634","ios":"levelo://app?vid=22a31495-ed0d-4908-8785-53ce78895634"},"vehicle_type_id":"4","last_reported":1710353313,"current_range_meters":14800,"station_id":"ce4bgt92rcd13ifvqcf0","pricing_plan_id":"cebpf4jnsgd1na2vs0mg"},{"bike_id":"54b78561-bffc-4423-94a5-4015becd3c4d","system_id":"levelo_inurba_marseille","lat":43.313571,"lon":5.384829,"is_reserved":false,"is_disabled":false,"rental_uris":{"android":"levelo://app?vid=54b78561-bffc-4423-94a5-4015becd3c4d","ios":"levelo://app?vid=54b78561-bffc-4423-94a5-4015becd3c4d"},"vehicle_type_id":"4","last_reported":1710353313,"current_range_meters":24000,"station_id":"ce4bgt92rcd13ifvqcf0","pricing_plan_id":"cebpf4jnsgd1na2vs0mg"},{"bike_id":"727266ee-550f-403a-a82e-5f3a8cc9ef94","system_id":"levelo_inurba_marseille","lat":43.309413,"lon":5.38508,"is_reserved":false,"is_disabled":false,"rental_uris":{"android":"levelo://app?vid=727266ee-550f-403a-a82e-5f3a8cc9ef94","ios":"levelo://app?vid=727266ee-550f-403a-a82e-5f3a8cc9ef94"},"vehicle_type_id":"4","last_reported":1710353313,"current_range_meters":6400,"station_id":"","pricing_plan_id":"cebpf4jnsgd1na2vs0mg"},{"bike_id":"c396f233-47f9-4be2-bc9a-30c51e94b7ca","system_id":"levelo_inurba_marseille","lat":43.305364,"lon":5.384119,"is_reserved":false,"is_disabled":false,"rental_uris":{"android":"levelo://app?vid=c396f233-47f9-4be2-bc9a-30c51e94b7ca","ios":"levelo://app?vid=c396f233-47f9-4be2-bc9a-30c51e94b7ca"},"vehicle_type_id":"4","last_reported":1710353313,"current_range_meters":9200,"station_id":"ce4bgg92rcd13ifvqb30","pricing_plan_id":"cebpf4jnsgd1na2vs0mg"},{"bike_id":"02e36adc-264a-44cf-b731-c3f62c2d7a92","system_id":"levelo_inurba_marseille","lat":43.31161,"lon":5.38689,"is_reserved":false,"is_disabled":false,"rental_uris":{"android":"levelo://app?vid=02e36adc-264a-44cf-b731-c3f62c2d7a92","ios":"levelo://app?vid=02e36adc-264a-44cf-b731-c3f62c2d7a92"},"vehicle_type_id":"4","last_reported":1710353313,"current_range_meters":10800,"station_id":"ce4bgv12rcd13ifvqcp0","pricing_plan_id":"cebpf4jnsgd1na2vs0mg"},{"bike_id":"13882ddf-d0b0-436d-a1fb-1c1b48286709","system_id":"levelo_inurba_marseille","lat":43.305525,"lon":5.384325,"is_reserved":false,"is_disabled":false,"rental_uris":{"android":"levelo://app?vid=13882ddf-d0b0-436d-a1fb-1c1b48286709","ios":"levelo://app?vid=13882ddf-d0b0-436d-a1fb-1c1b48286709"},"vehicle_type_id":"4","last_reported":1710353313,"current_range_meters":22000,"station_id":"ce4bgg92rcd13ifvqb30","pricing_plan_id":"cebpf4jnsgd1na2vs0mg"},{"bike_id":"5f9dfc18-2b70-4b4c-b94b-38aeb034a0fb","system_id":"levelo_inurba_marseille","lat":43.305364,"lon":5.384119,"is_reserved":false,"is_disabled":false,"rental_uris":{"android":"levelo://app?vid=5f9dfc18-2b70-4b4c-b94b-38aeb034a0fb","ios":"levelo://app?vid=5f9dfc18-2b70-4b4c-b94b-38aeb034a0fb"},"vehicle_type_id":"4","last_reported":1710353313,"current_range_meters":10000,"station_id":"ce4bgg92rcd13ifvqb30","pricing_plan_id":"cebpf4jnsgd1na2vs0mg"},{"bike_id":"8a83da41-3cfd-4396-bf0d-a4a217cf5d98","system_id":"levelo_inurba_marseille","lat":43.32623,"lon":5.37475,"is_reserved":false,"is_disabled":false,"rental_uris":{"android":"levelo://app?vid=8a83da41-3cfd-4396-bf0d-a4a217cf5d98","ios":"levelo://app?vid=8a83da41-3cfd-4396-bf0d-a4a217cf5d98"},"vehicle_type_id":"4","last_reported":1710353313,"current_range_meters":23600,"station_id":"","pricing_plan_id":"cebpf4jnsgd1na2vs0mg"},{"bike_id":"95f1ab8c-9c82-42c7-9228-6e04ba6a5cfa","system_id":"levelo_inurba_marseille","lat":43.311722,"lon":5.387247,"is_reserved":false,"is_disabled":false,"rental_uris":{"android":"levelo://app?vid=95f1ab8c-9c82-42c7-9228-6e04ba6a5cfa","ios":"levelo://app?vid=95f1ab8c-9c82-42c7-9228-6e04ba6a5cfa"},"vehicle_type_id":"4","last_reported":1710353313,"current_range_meters":22400,"station_id":"ce4bgv12rcd13ifvqcp0","pricing_plan_id":"cebpf4jnsgd1na2vs0mg"},{"bike_id":"babcbf5b-a079-4965-99b2-b53f682d2d32","system_id":"levelo_inurba_marseille","lat":43.29918,"lon":5.37475,"is_reserved":false,"is_disabled":false,"rental_uris":{"android":"levelo://app?vid=babcbf5b-a079-4965-99b2-b53f682d2d32","ios":"levelo://app?vid=babcbf5b-a079-4965-99b2-b53f682d2d32"},"vehicle_type_id":"4","last_reported":1710353313,"current_range_meters":0,"station_id":"ce4bgjh2rcd13ifvqbg0","pricing_plan_id":"cebpf4jnsgd1na2vs0mg"},{"bike_id":"698e135a-f3be-4677-b1c7-c8cf468b907d","system_id":"levelo_inurba_marseille","lat":43.299243,"lon":5.37481,"is_reserved":false,"is_disabled":false,"rental_uris":{"android":"levelo://app?vid=698e135a-f3be-4677-b1c7-c8cf468b907d","ios":"levelo://app?vid=698e135a-f3be-4677-b1c7-c8cf468b907d"},"vehicle_type_id":"4","last_reported":1710353313,"current_range_meters":10000,"station_id":"ce4bgjh2rcd13ifvqbg0","pricing_plan_id":"cebpf4jnsgd1na2vs0mg"},{"bike_id":"f0eef367-1903-4c30-8ca2-d5f8186ab6a8","system_id":"levelo_inurba_marseille","lat":43.311722,"lon":5.387247,"is_reserved":false,"is_disabled":false,"rental_uris":{"android":"levelo://app?vid=f0eef367-1903-4c30-8ca2-d5f8186ab6a8","ios":"levelo://app?vid=f0eef367-1903-4c30-8ca2-d5f8186ab6a8"},"vehicle_type_id":"4","last_reported":1710353313,"current_range_meters":11600,"station_id":"ce4bgv12rcd13ifvqcp0","pricing_plan_id":"cebpf4jnsgd1na2vs0mg"},{"bike_id":"45839d30-715a-486d-93d1-4741672eb4c1","system_id":"levelo_inurba_marseille","lat":43.311722,"lon":5.387247,"is_reserved":false,"is_disabled":false,"rental_uris":{"android":"levelo://app?vid=45839d30-715a-486d-93d1-4741672eb4c1","ios":"levelo://app?vid=45839d30-715a-486d-93d1-4741672eb4c1"},"vehicle_type_id":"4","last_reported":1710353313,"current_range_meters":0,"station_id":"ce4bgv12rcd13ifvqcp0","pricing_plan_id":"cebpf4jnsgd1na2vs0mg"},{"bike_id":"39d6982a-a0fb-4221-add4-f4116435d46c","system_id":"levelo_inurba_marseille","lat":43.299243,"lon":5.37481,"is_reserved":false,"is_disabled":false,"rental_uris":{"android":"levelo://app?vid=39d6982a-a0fb-4221-add4-f4116435d46c","ios":"levelo://app?vid=39d6982a-a0fb-4221-add4-f4116435d46c"},"vehicle_type_id":"4","last_reported":1710353313,"current_range_meters":29600,"station_id":"ce4bgjh2rcd13ifvqbg0","pricing_plan_id":"cebpf4jnsgd1na2vs0mg"},{"bike_id":"a6148dc8-06a7-4205-865e-96dfde7b6668","system_id":"levelo_inurba_marseille","lat":43.32291,"lon":5.38254,"is_reserved":false,"is_disabled":false,"rental_uris":{"android":"levelo://app?vid=a6148dc8-06a7-4205-865e-96dfde7b6668","ios":"levelo://app?vid=a6148dc8-06a7-4205-865e-96dfde7b6668"},"vehicle_type_id":"4","last_reported":1710353313,"current_range_meters":0,"station_id":"ce4bhr12rcd13ifvqhqg","pricing_plan_id":"cebpf4jnsgd1na2vs0mg"},{"bike_id":"e17f286e-276a-477a-ad66-3e999f055e4c","system_id":"levelo_inurba_marseille","lat":43.32285,"lon":5.38262,"is_reserved":false,"is_disabled":false,"rental_uris":{"android":"levelo://app?vid=e17f286e-276a-477a-ad66-3e999f055e4c","ios":"levelo://app?vid=e17f286e-276a-477a-ad66-3e999f055e4c"},"vehicle_type_id":"4","last_reported":1710353313,"current_range_meters":27200,"station_id":"ce4bhr12rcd13ifvqhqg","pricing_plan_id":"cebpf4jnsgd1na2vs0mg"},{"bike_id":"f2491452-d17d-4fd1-b87c-31e465894cd3","system_id":"levelo_inurba_marseille","lat":43.32288,"lon":5.38263,"is_reserved":false,"is_disabled":false,"rental_uris":{"android":"levelo://app?vid=f2491452-d17d-4fd1-b87c-31e465894cd3","ios":"levelo://app?vid=f2491452-d17d-4fd1-b87c-31e465894cd3"},"vehicle_type_id":"4","last_reported":1710353313,"current_range_meters":11200,"station_id":"ce4bhr12rcd13ifvqhqg","pricing_plan_id":"cebpf4jnsgd1na2vs0mg"},{"bike_id":"a1ea46c0-4921-4767-a801-a177044432f3","system_id":"levelo_inurba_marseille","lat":43.322872,"lon":5.382756,"is_reserved":false,"is_disabled":false,"rental_uris":{"android":"levelo://app?vid=a1ea46c0-4921-4767-a801-a177044432f3","ios":"levelo://app?vid=a1ea46c0-4921-4767-a801-a177044432f3"},"vehicle_type_id":"4","last_reported":1710353313,"current_range_meters":31200,"station_id":"ce4bhr12rcd13ifvqhqg","pricing_plan_id":"cebpf4jnsgd1na2vs0mg"},{"bike_id":"3ff125a5-dff1-4591-b6cc-449dc2424878","system_id":"levelo_inurba_marseille","lat":43.322872,"lon":5.382756,"is_reserved":false,"is_disabled":false,"rental_uris":{"android":"levelo://app?vid=3ff125a5-dff1-4591-b6cc-449dc2424878","ios":"levelo://app?vid=3ff125a5-dff1-4591-b6cc-449dc2424878"},"vehicle_type_id":"4","last_reported":1710353313,"current_range_meters":23200,"station_id":"ce4bhr12rcd13ifvqhqg","pricing_plan_id":"cebpf4jnsgd1na2vs0mg"},{"bike_id":"eaf5350b-08e3-4231-8a58-3cf3fba26ee0","system_id":"levelo_inurba_marseille","lat":43.322879,"lon":5.382678,"is_reserved":false,"is_disabled":false,"rental_uris":{"android":"levelo://app?vid=eaf5350b-08e3-4231-8a58-3cf3fba26ee0","ios":"levelo://app?vid=eaf5350b-08e3-4231-8a58-3cf3fba26ee0"},"vehicle_type_id":"4","last_reported":1710353313,"current_range_meters":28800,"station_id":"ce4bhr12rcd13ifvqhqg","pricing_plan_id":"cebpf4jnsgd1na2vs0mg"},{"bike_id":"36727d06-0af4-4c64-88de-4193d3d2494b","system_id":"levelo_inurba_marseille","lat":43.322872,"lon":5.382756,"is_reserved":false,"is_disabled":false,"rental_uris":{"android":"levelo://app?vid=36727d06-0af4-4c64-88de-4193d3d2494b","ios":"levelo://app?vid=36727d06-0af4-4c64-88de-4193d3d2494b"},"vehicle_type_id":"4","last_reported":1710353313,"current_range_meters":21200,"station_id":"ce4bhr12rcd13ifvqhqg","pricing_plan_id":"cebpf4jnsgd1na2vs0mg"},{"bike_id":"f548446b-7df9-499c-a458-49720886bca1","system_id":"levelo_inurba_marseille","lat":43.322872,"lon":5.382756,"is_reserved":false,"is_disabled":false,"rental_uris":{"android":"levelo://app?vid=f548446b-7df9-499c-a458-49720886bca1","ios":"levelo://app?vid=f548446b-7df9-499c-a458-49720886bca1"},"vehicle_type_id":"4","last_reported":1710353313,"current_range_meters":800,"station_id":"ce4bhr12rcd13ifvqhqg","pricing_plan_id":"cebpf4jnsgd1na2vs0mg"},{"bike_id":"9d0d2793-67b4-4e0d-9337-f818dc6311ea","system_id":"levelo_inurba_marseille","lat":43.322872,"lon":5.382756,"is_reserved":false,"is_disabled":false,"rental_uris":{"android":"levelo://app?vid=9d0d2793-67b4-4e0d-9337-f818dc6311ea","ios":"levelo://app?vid=9d0d2793-67b4-4e0d-9337-f818dc6311ea"},"vehicle_type_id":"4","last_reported":1710353313,"current_range_meters":19200,"station_id":"ce4bhr12rcd13ifvqhqg","pricing_plan_id":"cebpf4jnsgd1na2vs0mg"},{"bike_id":"e2f24066-a9da-4ac3-9953-f3c0e9a735d9","system_id":"levelo_inurba_marseille","lat":43.32292,"lon":5.38265,"is_reserved":false,"is_disabled":false,"rental_uris":{"android":"levelo://app?vid=e2f24066-a9da-4ac3-9953-f3c0e9a735d9","ios":"levelo://app?vid=e2f24066-a9da-4ac3-9953-f3c0e9a735d9"},"vehicle_type_id":"4","last_reported":1710353313,"current_range_meters":10000,"station_id":"ce4bhr12rcd13ifvqhqg","pricing_plan_id":"cebpf4jnsgd1na2vs0mg"},{"bike_id":"7d711117-8f24-4ca5-af35-2d207110a750","system_id":"levelo_inurba_marseille","lat":43.322872,"lon":5.382756,"is_reserved":false,"is_disabled":false,"rental_uris":{"android":"levelo://app?vid=7d711117-8f24-4ca5-af35-2d207110a750","ios":"levelo://app?vid=7d711117-8f24-4ca5-af35-2d207110a750"},"vehicle_type_id":"4","last_reported":1710353313,"current_range_meters":31600,"station_id":"ce4bhr12rcd13ifvqhqg","pricing_plan_id":"cebpf4jnsgd1na2vs0mg"},{"bike_id":"3abca3f8-73a4-4a83-9f7a-e9df11291bf3","system_id":"levelo_inurba_marseille","lat":43.322872,"lon":5.382756,"is_reserved":false,"is_disabled":false,"rental_uris":{"android":"levelo://app?vid=3abca3f8-73a4-4a83-9f7a-e9df11291bf3","ios":"levelo://app?vid=3abca3f8-73a4-4a83-9f7a-e9df11291bf3"},"vehicle_type_id":"4","last_reported":1710353313,"current_range_meters":30400,"station_id":"ce4bhr12rcd13ifvqhqg","pricing_plan_id":"cebpf4jnsgd1na2vs0mg"},{"bike_id":"118afa9f-7f73-417a-8201-d7b53eb7763e","system_id":"levelo_inurba_marseille","lat":43.297163,"lon":5.365866,"is_reserved":false,"is_disabled":false,"rental_uris":{"android":"levelo://app?vid=118afa9f-7f73-417a-8201-d7b53eb7763e","ios":"levelo://app?vid=118afa9f-7f73-417a-8201-d7b53eb7763e"},"vehicle_type_id":"4","last_reported":1710353313,"current_range_meters":28400,"station_id":"ce4bgn12rcd13ifvqbt0","pricing_plan_id":"cebpf4jnsgd1na2vs0mg"},{"bike_id":"38bc43b8-4d36-48e2-902b-72defbbaeceb","system_id":"levelo_inurba_marseille","lat":43.296131,"lon":5.370773,"is_reserved":false,"is_disabled":false,"rental_uris":{"android":"levelo://app?vid=38bc43b8-4d36-48e2-902b-72defbbaeceb","ios":"levelo://app?vid=38bc43b8-4d36-48e2-902b-72defbbaeceb"},"vehicle_type_id":"4","last_reported":1710353313,"current_range_meters":22000,"station_id":"ce4bgnh2rcd13ifvqc0g","pricing_plan_id":"cebpf4jnsgd1na2vs0mg"},{"bike_id":"71d7b8c3-b553-43c8-a7bd-a66aaf9065e9","system_id":"levelo_inurba_marseille","lat":43.29573,"lon":5.367355,"is_reserved":false,"is_disabled":false,"rental_uris":{"android":"levelo://app?vid=71d7b8c3-b553-43c8-a7bd-a66aaf9065e9","ios":"levelo://app?vid=71d7b8c3-b553-43c8-a7bd-a66aaf9065e9"},"vehicle_type_id":"4","last_reported":1710353313,"current_range_meters":18800,"station_id":"ce4bgph2rcd13ifvqc2g","pricing_plan_id":"cebpf4jnsgd1na2vs0mg"},{"bike_id":"019d0259-5a10-487c-b3fb-d2bc2f4ed8a2","system_id":"levelo_inurba_marseille","lat":43.29573,"lon":5.367355,"is_reserved":false,"is_disabled":false,"rental_uris":{"android":"levelo://app?vid=019d0259-5a10-487c-b3fb-d2bc2f4ed8a2","ios":"levelo://app?vid=019d0259-5a10-487c-b3fb-d2bc2f4ed8a2"},"vehicle_type_id":"4","last_reported":1710353313,"current_range_meters":1600,"station_id":"ce4bgph2rcd13ifvqc2g","pricing_plan_id":"cebpf4jnsgd1na2vs0mg"},{"bike_id":"c9973b9d-b2aa-4a09-8d26-3ac8413bf677","system_id":"levelo_inurba_marseille","lat":43.29573,"lon":5.367355,"is_reserved":false,"is_disabled":false,"rental_uris":{"android":"levelo://app?vid=c9973b9d-b2aa-4a09-8d26-3ac8413bf677","ios":"levelo://app?vid=c9973b9d-b2aa-4a09-8d26-3ac8413bf677"},"vehicle_type_id":"4","last_reported":1710353313,"current_range_meters":3200,"station_id":"ce4bgph2rcd13ifvqc2g","pricing_plan_id":"cebpf4jnsgd1na2vs0mg"},{"bike_id":"1886045f-a71e-4b43-bb95-2b8209f8d32f","system_id":"levelo_inurba_marseille","lat":43.297193,"lon":5.376918,"is_reserved":false,"is_disabled":false,"rental_uris":{"android":"levelo://app?vid=1886045f-a71e-4b43-bb95-2b8209f8d32f","ios":"levelo://app?vid=1886045f-a71e-4b43-bb95-2b8209f8d32f"},"vehicle_type_id":"4","last_reported":1710353313,"current_range_meters":0,"station_id":"ce4bgkh2rcd13ifvqbl0","pricing_plan_id":"cebpf4jnsgd1na2vs0mg"},{"bike_id":"02c667b8-c6f4-4638-9b0b-bfc5896f03b3","system_id":"levelo_inurba_marseille","lat":43.299028,"lon":5.381509,"is_reserved":false,"is_disabled":false,"rental_uris":{"android":"levelo://app?vid=02c667b8-c6f4-4638-9b0b-bfc5896f03b3","ios":"levelo://app?vid=02c667b8-c6f4-4638-9b0b-bfc5896f03b3"},"vehicle_type_id":"4","last_reported":1710353313,"current_range_meters":400,"station_id":"ce4bgj12rcd13ifvqbc0","pricing_plan_id":"cebpf4jnsgd1na2vs0mg"},{"bike_id":"8cb810f6-29fa-4d31-9f75-6d109c68c032","system_id":"levelo_inurba_marseille","lat":43.296935,"lon":5.376544,"is_reserved":false,"is_disabled":false,"rental_uris":{"android":"levelo://app?vid=8cb810f6-29fa-4d31-9f75-6d109c68c032","ios":"levelo://app?vid=8cb810f6-29fa-4d31-9f75-6d109c68c032"},"vehicle_type_id":"4","last_reported":1710353313,"current_range_meters":0,"station_id":"ce4bgkh2rcd13ifvqbl0","pricing_plan_id":"cebpf4jnsgd1na2vs0mg"},{"bike_id":"f9ca3a4c-cc1d-4102-a7b2-f4d169e70af7","system_id":"levelo_inurba_marseille","lat":43.299028,"lon":5.381509,"is_reserved":false,"is_disabled":false,"rental_uris":{"android":"levelo://app?vid=f9ca3a4c-cc1d-4102-a7b2-f4d169e70af7","ios":"levelo://app?vid=f9ca3a4c-cc1d-4102-a7b2-f4d169e70af7"},"vehicle_type_id":"4","last_reported":1710353313,"current_range_meters":3200,"station_id":"ce4bgj12rcd13ifvqbc0","pricing_plan_id":"cebpf4jnsgd1na2vs0mg"},{"bike_id":"11250817-4adb-4363-82f0-1da4d6a4af85","system_id":"levelo_inurba_marseille","lat":43.309589,"lon":5.390258,"is_reserved":false,"is_disabled":false,"rental_uris":{"android":"levelo://app?vid=11250817-4adb-4363-82f0-1da4d6a4af85","ios":"levelo://app?vid=11250817-4adb-4363-82f0-1da4d6a4af85"},"vehicle_type_id":"4","last_reported":1710353313,"current_range_meters":0,"station_id":"ce4bgup2rcd13ifvqco0","pricing_plan_id":"cebpf4jnsgd1na2vs0mg"},{"bike_id":"c853386d-332a-44e1-b8f3-c868b7c4a285","system_id":"levelo_inurba_marseille","lat":43.317528,"lon":5.390039,"is_reserved":false,"is_disabled":false,"rental_uris":{"android":"levelo://app?vid=c853386d-332a-44e1-b8f3-c868b7c4a285","ios":"levelo://app?vid=c853386d-332a-44e1-b8f3-c868b7c4a285"},"vehicle_type_id":"4","last_reported":1710353313,"current_range_meters":12000,"station_id":"ce4bhqp2rcd13ifvqhng","pricing_plan_id":"cebpf4jnsgd1na2vs0mg"},{"bike_id":"2d7b2839-5d60-489d-a0b0-69cf4aaf9424","system_id":"levelo_inurba_marseille","lat":43.32259,"lon":5.38686,"is_reserved":false,"is_disabled":false,"rental_uris":{"android":"levelo://app?vid=2d7b2839-5d60-489d-a0b0-69cf4aaf9424","ios":"levelo://app?vid=2d7b2839-5d60-489d-a0b0-69cf4aaf9424"},"vehicle_type_id":"4","last_reported":1710353313,"current_range_meters":12400,"station_id":"","pricing_plan_id":"cebpf4jnsgd1na2vs0mg"},{"bike_id":"6d310b89-9c60-4022-85a1-a6cb6d11c2da","system_id":"levelo_inurba_marseille","lat":43.31751,"lon":5.39013,"is_reserved":false,"is_disabled":false,"rental_uris":{"android":"levelo://app?vid=6d310b89-9c60-4022-85a1-a6cb6d11c2da","ios":"levelo://app?vid=6d310b89-9c60-4022-85a1-a6cb6d11c2da"},"vehicle_type_id":"4","last_reported":1710353313,"current_range_meters":21200,"station_id":"ce4bhqp2rcd13ifvqhng","pricing_plan_id":"cebpf4jnsgd1na2vs0mg"},{"bike_id":"400fc285-08c8-4b6b-a2e6-e4633d9bd4b4","system_id":"levelo_inurba_marseille","lat":43.317517,"lon":5.390143,"is_reserved":false,"is_disabled":false,"rental_uris":{"android":"levelo://app?vid=400fc285-08c8-4b6b-a2e6-e4633d9bd4b4","ios":"levelo://app?vid=400fc285-08c8-4b6b-a2e6-e4633d9bd4b4"},"vehicle_type_id":"4","last_reported":1710353313,"current_range_meters":2800,"station_id":"ce4bhqp2rcd13ifvqhng","pricing_plan_id":"cebpf4jnsgd1na2vs0mg"},{"bike_id":"86dedb7c-bab7-4d12-a006-94af04249fde","system_id":"levelo_inurba_marseille","lat":43.31756,"lon":5.39013,"is_reserved":false,"is_disabled":false,"rental_uris":{"android":"levelo://app?vid=86dedb7c-bab7-4d12-a006-94af04249fde","ios":"levelo://app?vid=86dedb7c-bab7-4d12-a006-94af04249fde"},"vehicle_type_id":"4","last_reported":1710353313,"current_range_meters":19200,"station_id":"ce4bhqp2rcd13ifvqhng","pricing_plan_id":"cebpf4jnsgd1na2vs0mg"},{"bike_id":"77143e07-9a56-4df7-8659-5c80a8c15c48","system_id":"levelo_inurba_marseille","lat":43.31754,"lon":5.39015,"is_reserved":false,"is_disabled":false,"rental_uris":{"android":"levelo://app?vid=77143e07-9a56-4df7-8659-5c80a8c15c48","ios":"levelo://app?vid=77143e07-9a56-4df7-8659-5c80a8c15c48"},"vehicle_type_id":"4","last_reported":1710353313,"current_range_meters":3600,"station_id":"ce4bhqp2rcd13ifvqhng","pricing_plan_id":"cebpf4jnsgd1na2vs0mg"},{"bike_id":"1088c83b-edd1-487f-ba9c-9b4dd7f4efbe","system_id":"levelo_inurba_marseille","lat":43.31755,"lon":5.39015,"is_reserved":false,"is_disabled":false,"rental_uris":{"android":"levelo://app?vid=1088c83b-edd1-487f-ba9c-9b4dd7f4efbe","ios":"levelo://app?vid=1088c83b-edd1-487f-ba9c-9b4dd7f4efbe"},"vehicle_type_id":"4","last_reported":1710353313,"current_range_meters":31200,"station_id":"ce4bhqp2rcd13ifvqhng","pricing_plan_id":"cebpf4jnsgd1na2vs0mg"},{"bike_id":"15e2991d-aea9-4dea-887a-fc4583d6a5ca","system_id":"levelo_inurba_marseille","lat":43.317557,"lon":5.390173,"is_reserved":false,"is_disabled":false,"rental_uris":{"android":"levelo://app?vid=15e2991d-aea9-4dea-887a-fc4583d6a5ca","ios":"levelo://app?vid=15e2991d-aea9-4dea-887a-fc4583d6a5ca"},"vehicle_type_id":"4","last_reported":1710353313,"current_range_meters":31200,"station_id":"ce4bhqp2rcd13ifvqhng","pricing_plan_id":"cebpf4jnsgd1na2vs0mg"},{"bike_id":"e7635339-4a3c-42a4-a346-f89d0509c084","system_id":"levelo_inurba_marseille","lat":43.317557,"lon":5.390173,"is_reserved":false,"is_disabled":false,"rental_uris":{"android":"levelo://app?vid=e7635339-4a3c-42a4-a346-f89d0509c084","ios":"levelo://app?vid=e7635339-4a3c-42a4-a346-f89d0509c084"},"vehicle_type_id":"4","last_reported":1710353313,"current_range_meters":27200,"station_id":"ce4bhqp2rcd13ifvqhng","pricing_plan_id":"cebpf4jnsgd1na2vs0mg"},{"bike_id":"c2fa3ed2-c6f8-4246-91ab-6e1b79742c61","system_id":"levelo_inurba_marseille","lat":43.31754,"lon":5.390183,"is_reserved":false,"is_disabled":false,"rental_uris":{"android":"levelo://app?vid=c2fa3ed2-c6f8-4246-91ab-6e1b79742c61","ios":"levelo://app?vid=c2fa3ed2-c6f8-4246-91ab-6e1b79742c61"},"vehicle_type_id":"4","last_reported":1710353313,"current_range_meters":20800,"station_id":"ce4bhqp2rcd13ifvqhng","pricing_plan_id":"cebpf4jnsgd1na2vs0mg"},{"bike_id":"a7e9409e-d196-40a9-8913-2226e2a94e30","system_id":"levelo_inurba_marseille","lat":43.3176,"lon":5.39016,"is_reserved":false,"is_disabled":false,"rental_uris":{"android":"levelo://app?vid=a7e9409e-d196-40a9-8913-2226e2a94e30","ios":"levelo://app?vid=a7e9409e-d196-40a9-8913-2226e2a94e30"},"vehicle_type_id":"4","last_reported":1710353313,"current_range_meters":31200,"station_id":"ce4bhqp2rcd13ifvqhng","pricing_plan_id":"cebpf4jnsgd1na2vs0mg"},{"bike_id":"73a693a1-684d-4847-a20f-d8c597f7ecd8","system_id":"levelo_inurba_marseille","lat":43.29751,"lon":5.379077,"is_reserved":false,"is_disabled":false,"rental_uris":{"android":"levelo://app?vid=73a693a1-684d-4847-a20f-d8c597f7ecd8","ios":"levelo://app?vid=73a693a1-684d-4847-a20f-d8c597f7ecd8"},"vehicle_type_id":"4","last_reported":1710353313,"current_range_meters":6800,"station_id":"","pricing_plan_id":"cebpf4jnsgd1na2vs0mg"},{"bike_id":"eaa04335-ce5f-4e82-9d4b-09e2bf70fc9e","system_id":"levelo_inurba_marseille","lat":43.31758,"lon":5.3902,"is_reserved":false,"is_disabled":false,"rental_uris":{"android":"levelo://app?vid=eaa04335-ce5f-4e82-9d4b-09e2bf70fc9e","ios":"levelo://app?vid=eaa04335-ce5f-4e82-9d4b-09e2bf70fc9e"},"vehicle_type_id":"4","last_reported":1710353313,"current_range_meters":6400,"station_id":"ce4bhqp2rcd13ifvqhng","pricing_plan_id":"cebpf4jnsgd1na2vs0mg"},{"bike_id":"f63c0e12-1219-43b7-8ae3-7050aa802158","system_id":"levelo_inurba_marseille","lat":43.31762,"lon":5.39019,"is_reserved":false,"is_disabled":false,"rental_uris":{"android":"levelo://app?vid=f63c0e12-1219-43b7-8ae3-7050aa802158","ios":"levelo://app?vid=f63c0e12-1219-43b7-8ae3-7050aa802158"},"vehicle_type_id":"4","last_reported":1710353313,"current_range_meters":22000,"station_id":"ce4bhqp2rcd13ifvqhng","pricing_plan_id":"cebpf4jnsgd1na2vs0mg"},{"bike_id":"ce5155a1-f569-4097-982c-1231a70fa71c","system_id":"levelo_inurba_marseille","lat":43.31758,"lon":5.39021,"is_reserved":false,"is_disabled":false,"rental_uris":{"android":"levelo://app?vid=ce5155a1-f569-4097-982c-1231a70fa71c","ios":"levelo://app?vid=ce5155a1-f569-4097-982c-1231a70fa71c"},"vehicle_type_id":"4","last_reported":1710353313,"current_range_meters":11200,"station_id":"ce4bhqp2rcd13ifvqhng","pricing_plan_id":"cebpf4jnsgd1na2vs0mg"},{"bike_id":"ba3a545d-9fec-4e88-b08a-c63ce08c8c4a","system_id":"levelo_inurba_marseille","lat":43.317557,"lon":5.390173,"is_reserved":false,"is_disabled":false,"rental_uris":{"android":"levelo://app?vid=ba3a545d-9fec-4e88-b08a-c63ce08c8c4a","ios":"levelo://app?vid=ba3a545d-9fec-4e88-b08a-c63ce08c8c4a"},"vehicle_type_id":"4","last_reported":1710353313,"current_range_meters":25200,"station_id":"ce4bhqp2rcd13ifvqhng","pricing_plan_id":"cebpf4jnsgd1na2vs0mg"},{"bike_id":"cd364902-762b-4c3e-844f-575971d38c11","system_id":"levelo_inurba_marseille","lat":43.31772,"lon":5.39017,"is_reserved":false,"is_disabled":false,"rental_uris":{"android":"levelo://app?vid=cd364902-762b-4c3e-844f-575971d38c11","ios":"levelo://app?vid=cd364902-762b-4c3e-844f-575971d38c11"},"vehicle_type_id":"4","last_reported":1710353313,"current_range_meters":15600,"station_id":"ce4bhqp2rcd13ifvqhng","pricing_plan_id":"cebpf4jnsgd1na2vs0mg"},{"bike_id":"3327a797-ea28-4477-b200-87d03234b974","system_id":"levelo_inurba_marseille","lat":43.31759,"lon":5.390232,"is_reserved":false,"is_disabled":false,"rental_uris":{"android":"levelo://app?vid=3327a797-ea28-4477-b200-87d03234b974","ios":"levelo://app?vid=3327a797-ea28-4477-b200-87d03234b974"},"vehicle_type_id":"4","last_reported":1710353313,"current_range_meters":27600,"station_id":"ce4bhqp2rcd13ifvqhng","pricing_plan_id":"cebpf4jnsgd1na2vs0mg"},{"bike_id":"6c04ae7c-4caa-4d9c-8b43-81f56b6f1a06","system_id":"levelo_inurba_marseille","lat":43.296935,"lon":5.376544,"is_reserved":false,"is_disabled":false,"rental_uris":{"android":"levelo://app?vid=6c04ae7c-4caa-4d9c-8b43-81f56b6f1a06","ios":"levelo://app?vid=6c04ae7c-4caa-4d9c-8b43-81f56b6f1a06"},"vehicle_type_id":"4","last_reported":1710353313,"current_range_meters":0,"station_id":"ce4bgkh2rcd13ifvqbl0","pricing_plan_id":"cebpf4jnsgd1na2vs0mg"},{"bike_id":"be54da70-120d-4842-b368-fb98c5948978","system_id":"levelo_inurba_marseille","lat":43.29744,"lon":5.3792,"is_reserved":false,"is_disabled":false,"rental_uris":{"android":"levelo://app?vid=be54da70-120d-4842-b368-fb98c5948978","ios":"levelo://app?vid=be54da70-120d-4842-b368-fb98c5948978"},"vehicle_type_id":"4","last_reported":1710353313,"current_range_meters":20000,"station_id":"","pricing_plan_id":"cebpf4jnsgd1na2vs0mg"},{"bike_id":"9f5b4bd4-f414-40a5-8f79-3c07c99f8a7c","system_id":"levelo_inurba_marseille","lat":43.30431,"lon":5.38879,"is_reserved":false,"is_disabled":false,"rental_uris":{"android":"levelo://app?vid=9f5b4bd4-f414-40a5-8f79-3c07c99f8a7c","ios":"levelo://app?vid=9f5b4bd4-f414-40a5-8f79-3c07c99f8a7c"},"vehicle_type_id":"4","last_reported":1710353313,"current_range_meters":14400,"station_id":"ce4bgk12rcd13ifvqbi0","pricing_plan_id":"cebpf4jnsgd1na2vs0mg"},{"bike_id":"3bbb4eb5-59d6-48cf-979d-cfa32d88a1fb","system_id":"levelo_inurba_marseille","lat":43.298037,"lon":5.381066,"is_reserved":false,"is_disabled":false,"rental_uris":{"android":"levelo://app?vid=3bbb4eb5-59d6-48cf-979d-cfa32d88a1fb","ios":"levelo://app?vid=3bbb4eb5-59d6-48cf-979d-cfa32d88a1fb"},"vehicle_type_id":"4","last_reported":1710353313,"current_range_meters":16800,"station_id":"ce4bgip2rcd13ifvqbb0","pricing_plan_id":"cebpf4jnsgd1na2vs0mg"},{"bike_id":"d0e47b9e-638b-4e2d-a311-1e4d904b9df0","system_id":"levelo_inurba_marseille","lat":43.3043,"lon":5.38887,"is_reserved":false,"is_disabled":false,"rental_uris":{"android":"levelo://app?vid=d0e47b9e-638b-4e2d-a311-1e4d904b9df0","ios":"levelo://app?vid=d0e47b9e-638b-4e2d-a311-1e4d904b9df0"},"vehicle_type_id":"4","last_reported":1710353313,"current_range_meters":2800,"station_id":"ce4bgk12rcd13ifvqbi0","pricing_plan_id":"cebpf4jnsgd1na2vs0mg"},{"bike_id":"fede9919-0872-4ad0-8e0c-0044f11af976","system_id":"levelo_inurba_marseille","lat":43.30431,"lon":5.38897,"is_reserved":false,"is_disabled":false,"rental_uris":{"android":"levelo://app?vid=fede9919-0872-4ad0-8e0c-0044f11af976","ios":"levelo://app?vid=fede9919-0872-4ad0-8e0c-0044f11af976"},"vehicle_type_id":"4","last_reported":1710353313,"current_range_meters":0,"station_id":"ce4bgk12rcd13ifvqbi0","pricing_plan_id":"cebpf4jnsgd1na2vs0mg"},{"bike_id":"87cc7370-2ef9-4424-9a59-a5f7e4e79089","system_id":"levelo_inurba_marseille","lat":43.3043,"lon":5.38897,"is_reserved":false,"is_disabled":false,"rental_uris":{"android":"levelo://app?vid=87cc7370-2ef9-4424-9a59-a5f7e4e79089","ios":"levelo://app?vid=87cc7370-2ef9-4424-9a59-a5f7e4e79089"},"vehicle_type_id":"4","last_reported":1710353313,"current_range_meters":0,"station_id":"ce4bgk12rcd13ifvqbi0","pricing_plan_id":"cebpf4jnsgd1na2vs0mg"},{"bike_id":"47a9a338-8d9a-46d9-a5ed-28c4ba3e58ae","system_id":"levelo_inurba_marseille","lat":43.296263,"lon":5.377094,"is_reserved":false,"is_disabled":false,"rental_uris":{"android":"levelo://app?vid=47a9a338-8d9a-46d9-a5ed-28c4ba3e58ae","ios":"levelo://app?vid=47a9a338-8d9a-46d9-a5ed-28c4ba3e58ae"},"vehicle_type_id":"4","last_reported":1710353313,"current_range_meters":10800,"station_id":"ce4bgi92rcd13ifvqb90","pricing_plan_id":"cebpf4jnsgd1na2vs0mg"},{"bike_id":"4373b4ce-5a69-451c-bbae-a7449a12dd89","system_id":"levelo_inurba_marseille","lat":43.29974,"lon":5.384762,"is_reserved":false,"is_disabled":false,"rental_uris":{"android":"levelo://app?vid=4373b4ce-5a69-451c-bbae-a7449a12dd89","ios":"levelo://app?vid=4373b4ce-5a69-451c-bbae-a7449a12dd89"},"vehicle_type_id":"4","last_reported":1710353313,"current_range_meters":0,"station_id":"","pricing_plan_id":"cebpf4jnsgd1na2vs0mg"},{"bike_id":"4765b902-678a-4810-a7a9-ba093e6868fa","system_id":"levelo_inurba_marseille","lat":43.299717,"lon":5.384845,"is_reserved":false,"is_disabled":false,"rental_uris":{"android":"levelo://app?vid=4765b902-678a-4810-a7a9-ba093e6868fa","ios":"levelo://app?vid=4765b902-678a-4810-a7a9-ba093e6868fa"},"vehicle_type_id":"4","last_reported":1710353313,"current_range_meters":8400,"station_id":"ce4bgj92rcd13ifvqbd0","pricing_plan_id":"cebpf4jnsgd1na2vs0mg"},{"bike_id":"3e048804-800d-4b9a-929b-849e838e900c","system_id":"levelo_inurba_marseille","lat":43.299711,"lon":5.384909,"is_reserved":false,"is_disabled":false,"rental_uris":{"android":"levelo://app?vid=3e048804-800d-4b9a-929b-849e838e900c","ios":"levelo://app?vid=3e048804-800d-4b9a-929b-849e838e900c"},"vehicle_type_id":"4","last_reported":1710353313,"current_range_meters":2400,"station_id":"ce4bgj92rcd13ifvqbd0","pricing_plan_id":"cebpf4jnsgd1na2vs0mg"},{"bike_id":"70e20882-3aa9-4208-954d-b7cc032416ee","system_id":"levelo_inurba_marseille","lat":43.29498,"lon":5.374,"is_reserved":false,"is_disabled":false,"rental_uris":{"android":"levelo://app?vid=70e20882-3aa9-4208-954d-b7cc032416ee","ios":"levelo://app?vid=70e20882-3aa9-4208-954d-b7cc032416ee"},"vehicle_type_id":"4","last_reported":1710353313,"current_range_meters":22400,"station_id":"","pricing_plan_id":"cebpf4jnsgd1na2vs0mg"},{"bike_id":"eadeb7aa-7539-4af2-af7d-58d166db0101","system_id":"levelo_inurba_marseille","lat":43.309589,"lon":5.390258,"is_reserved":false,"is_disabled":false,"rental_uris":{"android":"levelo://app?vid=eadeb7aa-7539-4af2-af7d-58d166db0101","ios":"levelo://app?vid=eadeb7aa-7539-4af2-af7d-58d166db0101"},"vehicle_type_id":"4","last_reported":1710353313,"current_range_meters":3600,"station_id":"ce4bgup2rcd13ifvqco0","pricing_plan_id":"cebpf4jnsgd1na2vs0mg"},{"bike_id":"c623da6a-a969-46b8-9bcb-c5ff99456ce6","system_id":"levelo_inurba_marseille","lat":43.32364,"lon":5.38842,"is_reserved":false,"is_disabled":false,"rental_uris":{"android":"levelo://app?vid=c623da6a-a969-46b8-9bcb-c5ff99456ce6","ios":"levelo://app?vid=c623da6a-a969-46b8-9bcb-c5ff99456ce6"},"vehicle_type_id":"4","last_reported":1710353313,"current_range_meters":18000,"station_id":"ce4bhqp2rcd13ifvqhog","pricing_plan_id":"cebpf4jnsgd1na2vs0mg"},{"bike_id":"214513c2-0f8d-4a35-aa55-ac50aeaa598a","system_id":"levelo_inurba_marseille","lat":43.32364,"lon":5.38872,"is_reserved":false,"is_disabled":false,"rental_uris":{"android":"levelo://app?vid=214513c2-0f8d-4a35-aa55-ac50aeaa598a","ios":"levelo://app?vid=214513c2-0f8d-4a35-aa55-ac50aeaa598a"},"vehicle_type_id":"4","last_reported":1710353313,"current_range_meters":24000,"station_id":"ce4bhqp2rcd13ifvqhog","pricing_plan_id":"cebpf4jnsgd1na2vs0mg"},{"bike_id":"8057b4d8-16e6-4d39-84b0-e8e0b97fc204","system_id":"levelo_inurba_marseille","lat":43.32367,"lon":5.388836,"is_reserved":false,"is_disabled":false,"rental_uris":{"android":"levelo://app?vid=8057b4d8-16e6-4d39-84b0-e8e0b97fc204","ios":"levelo://app?vid=8057b4d8-16e6-4d39-84b0-e8e0b97fc204"},"vehicle_type_id":"4","last_reported":1710353313,"current_range_meters":11200,"station_id":"ce4bhqp2rcd13ifvqhog","pricing_plan_id":"cebpf4jnsgd1na2vs0mg"},{"bike_id":"12289e1e-1c71-4773-991b-0dacf075009f","system_id":"levelo_inurba_marseille","lat":43.323665,"lon":5.388769,"is_reserved":false,"is_disabled":false,"rental_uris":{"android":"levelo://app?vid=12289e1e-1c71-4773-991b-0dacf075009f","ios":"levelo://app?vid=12289e1e-1c71-4773-991b-0dacf075009f"},"vehicle_type_id":"4","last_reported":1710353313,"current_range_meters":25200,"station_id":"ce4bhqp2rcd13ifvqhog","pricing_plan_id":"cebpf4jnsgd1na2vs0mg"},{"bike_id":"814e9b11-b6da-4c41-a98f-46d81e6f367e","system_id":"levelo_inurba_marseille","lat":43.32367,"lon":5.388836,"is_reserved":false,"is_disabled":false,"rental_uris":{"android":"levelo://app?vid=814e9b11-b6da-4c41-a98f-46d81e6f367e","ios":"levelo://app?vid=814e9b11-b6da-4c41-a98f-46d81e6f367e"},"vehicle_type_id":"4","last_reported":1710353313,"current_range_meters":16400,"station_id":"ce4bhqp2rcd13ifvqhog","pricing_plan_id":"cebpf4jnsgd1na2vs0mg"},{"bike_id":"f9d8fe70-a8de-437f-8109-ffd6464bca85","system_id":"levelo_inurba_marseille","lat":43.32367,"lon":5.388836,"is_reserved":false,"is_disabled":false,"rental_uris":{"android":"levelo://app?vid=f9d8fe70-a8de-437f-8109-ffd6464bca85","ios":"levelo://app?vid=f9d8fe70-a8de-437f-8109-ffd6464bca85"},"vehicle_type_id":"4","last_reported":1710353313,"current_range_meters":16800,"station_id":"ce4bhqp2rcd13ifvqhog","pricing_plan_id":"cebpf4jnsgd1na2vs0mg"},{"bike_id":"a0cf9f36-4339-413e-8c34-61c91fe4a834","system_id":"levelo_inurba_marseille","lat":43.32367,"lon":5.38881,"is_reserved":false,"is_disabled":false,"rental_uris":{"android":"levelo://app?vid=a0cf9f36-4339-413e-8c34-61c91fe4a834","ios":"levelo://app?vid=a0cf9f36-4339-413e-8c34-61c91fe4a834"},"vehicle_type_id":"4","last_reported":1710353313,"current_range_meters":9200,"station_id":"ce4bhqp2rcd13ifvqhog","pricing_plan_id":"cebpf4jnsgd1na2vs0mg"},{"bike_id":"a2dba51a-b2d7-4c36-b5ce-152632c4dfd5","system_id":"levelo_inurba_marseille","lat":43.32367,"lon":5.388836,"is_reserved":false,"is_disabled":false,"rental_uris":{"android":"levelo://app?vid=a2dba51a-b2d7-4c36-b5ce-152632c4dfd5","ios":"levelo://app?vid=a2dba51a-b2d7-4c36-b5ce-152632c4dfd5"},"vehicle_type_id":"4","last_reported":1710353313,"current_range_meters":18800,"station_id":"ce4bhqp2rcd13ifvqhog","pricing_plan_id":"cebpf4jnsgd1na2vs0mg"},{"bike_id":"e6a60513-e8b7-483d-a0ac-59c1b33b431c","system_id":"levelo_inurba_marseille","lat":43.32367,"lon":5.388836,"is_reserved":false,"is_disabled":false,"rental_uris":{"android":"levelo://app?vid=e6a60513-e8b7-483d-a0ac-59c1b33b431c","ios":"levelo://app?vid=e6a60513-e8b7-483d-a0ac-59c1b33b431c"},"vehicle_type_id":"4","last_reported":1710353313,"current_range_meters":16000,"station_id":"ce4bhqp2rcd13ifvqhog","pricing_plan_id":"cebpf4jnsgd1na2vs0mg"},{"bike_id":"991d7feb-dcd7-453d-a499-fd702ced26e1","system_id":"levelo_inurba_marseille","lat":43.32367,"lon":5.388836,"is_reserved":false,"is_disabled":false,"rental_uris":{"android":"levelo://app?vid=991d7feb-dcd7-453d-a499-fd702ced26e1","ios":"levelo://app?vid=991d7feb-dcd7-453d-a499-fd702ced26e1"},"vehicle_type_id":"4","last_reported":1710353313,"current_range_meters":4000,"station_id":"ce4bhqp2rcd13ifvqhog","pricing_plan_id":"cebpf4jnsgd1na2vs0mg"},{"bike_id":"e51693d7-1dd2-401e-9b75-f4e8a3f19ebd","system_id":"levelo_inurba_marseille","lat":43.32367,"lon":5.388836,"is_reserved":false,"is_disabled":false,"rental_uris":{"android":"levelo://app?vid=e51693d7-1dd2-401e-9b75-f4e8a3f19ebd","ios":"levelo://app?vid=e51693d7-1dd2-401e-9b75-f4e8a3f19ebd"},"vehicle_type_id":"4","last_reported":1710353313,"current_range_meters":20800,"station_id":"ce4bhqp2rcd13ifvqhog","pricing_plan_id":"cebpf4jnsgd1na2vs0mg"},{"bike_id":"4d51bd6b-94cd-443c-802c-71a7d7b1f44c","system_id":"levelo_inurba_marseille","lat":43.32367,"lon":5.38884,"is_reserved":false,"is_disabled":false,"rental_uris":{"android":"levelo://app?vid=4d51bd6b-94cd-443c-802c-71a7d7b1f44c","ios":"levelo://app?vid=4d51bd6b-94cd-443c-802c-71a7d7b1f44c"},"vehicle_type_id":"4","last_reported":1710353313,"current_range_meters":14400,"station_id":"ce4bhqp2rcd13ifvqhog","pricing_plan_id":"cebpf4jnsgd1na2vs0mg"},{"bike_id":"85208358-1d9c-42e8-98c3-73b8b13c7ee8","system_id":"levelo_inurba_marseille","lat":43.32368,"lon":5.38884,"is_reserved":false,"is_disabled":false,"rental_uris":{"android":"levelo://app?vid=85208358-1d9c-42e8-98c3-73b8b13c7ee8","ios":"levelo://app?vid=85208358-1d9c-42e8-98c3-73b8b13c7ee8"},"vehicle_type_id":"4","last_reported":1710353313,"current_range_meters":0,"station_id":"ce4bhqp2rcd13ifvqhog","pricing_plan_id":"cebpf4jnsgd1na2vs0mg"},{"bike_id":"049264a0-55e2-4f55-8e43-ef8b86006ff0","system_id":"levelo_inurba_marseille","lat":43.32367,"lon":5.388836,"is_reserved":false,"is_disabled":false,"rental_uris":{"android":"levelo://app?vid=049264a0-55e2-4f55-8e43-ef8b86006ff0","ios":"levelo://app?vid=049264a0-55e2-4f55-8e43-ef8b86006ff0"},"vehicle_type_id":"4","last_reported":1710353313,"current_range_meters":25200,"station_id":"ce4bhqp2rcd13ifvqhog","pricing_plan_id":"cebpf4jnsgd1na2vs0mg"},{"bike_id":"f14c9a56-6115-4cb7-8920-5b14ab230a3d","system_id":"levelo_inurba_marseille","lat":43.32371,"lon":5.38888,"is_reserved":false,"is_disabled":false,"rental_uris":{"android":"levelo://app?vid=f14c9a56-6115-4cb7-8920-5b14ab230a3d","ios":"levelo://app?vid=f14c9a56-6115-4cb7-8920-5b14ab230a3d"},"vehicle_type_id":"4","last_reported":1710353313,"current_range_meters":8400,"station_id":"ce4bhqp2rcd13ifvqhog","pricing_plan_id":"cebpf4jnsgd1na2vs0mg"},{"bike_id":"0baecd5e-0049-4b19-8872-834ba1edcdb4","system_id":"levelo_inurba_marseille","lat":43.32367,"lon":5.388836,"is_reserved":false,"is_disabled":false,"rental_uris":{"android":"levelo://app?vid=0baecd5e-0049-4b19-8872-834ba1edcdb4","ios":"levelo://app?vid=0baecd5e-0049-4b19-8872-834ba1edcdb4"},"vehicle_type_id":"4","last_reported":1710353313,"current_range_meters":15600,"station_id":"ce4bhqp2rcd13ifvqhog","pricing_plan_id":"cebpf4jnsgd1na2vs0mg"},{"bike_id":"12ba96d5-c106-44b3-91a0-3f237d67af1a","system_id":"levelo_inurba_marseille","lat":43.29602,"lon":5.381084,"is_reserved":false,"is_disabled":false,"rental_uris":{"android":"levelo://app?vid=12ba96d5-c106-44b3-91a0-3f237d67af1a","ios":"levelo://app?vid=12ba96d5-c106-44b3-91a0-3f237d67af1a"},"vehicle_type_id":"4","last_reported":1710353313,"current_range_meters":8000,"station_id":"ce4bgl12rcd13ifvqbo0","pricing_plan_id":"cebpf4jnsgd1na2vs0mg"},{"bike_id":"7685be38-06e1-4e96-8f50-946a493c799a","system_id":"levelo_inurba_marseille","lat":43.29601,"lon":5.381084,"is_reserved":false,"is_disabled":false,"rental_uris":{"android":"levelo://app?vid=7685be38-06e1-4e96-8f50-946a493c799a","ios":"levelo://app?vid=7685be38-06e1-4e96-8f50-946a493c799a"},"vehicle_type_id":"4","last_reported":1710353313,"current_range_meters":800,"station_id":"ce4bgl12rcd13ifvqbo0","pricing_plan_id":"cebpf4jnsgd1na2vs0mg"},{"bike_id":"b735a79c-ef77-4ed3-9e5e-cf72771ecef0","system_id":"levelo_inurba_marseille","lat":43.2959,"lon":5.38101,"is_reserved":false,"is_disabled":false,"rental_uris":{"android":"levelo://app?vid=b735a79c-ef77-4ed3-9e5e-cf72771ecef0","ios":"levelo://app?vid=b735a79c-ef77-4ed3-9e5e-cf72771ecef0"},"vehicle_type_id":"4","last_reported":1710353313,"current_range_meters":8000,"station_id":"ce4bgl12rcd13ifvqbo0","pricing_plan_id":"cebpf4jnsgd1na2vs0mg"},{"bike_id":"66287823-355e-4e62-aecb-fd57e7e39102","system_id":"levelo_inurba_marseille","lat":43.29601,"lon":5.381084,"is_reserved":false,"is_disabled":false,"rental_uris":{"android":"levelo://app?vid=66287823-355e-4e62-aecb-fd57e7e39102","ios":"levelo://app?vid=66287823-355e-4e62-aecb-fd57e7e39102"},"vehicle_type_id":"4","last_reported":1710353313,"current_range_meters":0,"station_id":"ce4bgl12rcd13ifvqbo0","pricing_plan_id":"cebpf4jnsgd1na2vs0mg"},{"bike_id":"bd168b39-676c-49d1-8e54-6e7efd9c2f3b","system_id":"levelo_inurba_marseille","lat":43.292642,"lon":5.384254,"is_reserved":false,"is_disabled":false,"rental_uris":{"android":"levelo://app?vid=bd168b39-676c-49d1-8e54-6e7efd9c2f3b","ios":"levelo://app?vid=bd168b39-676c-49d1-8e54-6e7efd9c2f3b"},"vehicle_type_id":"4","last_reported":1710353313,"current_range_meters":6400,"station_id":"ce4bh692rcd13ifvqea0","pricing_plan_id":"cebpf4jnsgd1na2vs0mg"},{"bike_id":"b4bc833e-abde-4127-898a-ff64b5dab7f8","system_id":"levelo_inurba_marseille","lat":43.292749,"lon":5.368402,"is_reserved":false,"is_disabled":false,"rental_uris":{"android":"levelo://app?vid=b4bc833e-abde-4127-898a-ff64b5dab7f8","ios":"levelo://app?vid=b4bc833e-abde-4127-898a-ff64b5dab7f8"},"vehicle_type_id":"4","last_reported":1710353313,"current_range_meters":0,"station_id":"ce4bhbp2rcd13ifvqesg","pricing_plan_id":"cebpf4jnsgd1na2vs0mg"},{"bike_id":"42971b54-43ab-40ea-b4ff-83ef0818906e","system_id":"levelo_inurba_marseille","lat":43.29299,"lon":5.37168,"is_reserved":false,"is_disabled":false,"rental_uris":{"android":"levelo://app?vid=42971b54-43ab-40ea-b4ff-83ef0818906e","ios":"levelo://app?vid=42971b54-43ab-40ea-b4ff-83ef0818906e"},"vehicle_type_id":"4","last_reported":1710353313,"current_range_meters":25600,"station_id":"ce4bgh92rcd13ifvqb40","pricing_plan_id":"cebpf4jnsgd1na2vs0mg"},{"bike_id":"99f925c1-504a-4a5b-8cb0-0e044041fb16","system_id":"levelo_inurba_marseille","lat":43.292749,"lon":5.368402,"is_reserved":false,"is_disabled":false,"rental_uris":{"android":"levelo://app?vid=99f925c1-504a-4a5b-8cb0-0e044041fb16","ios":"levelo://app?vid=99f925c1-504a-4a5b-8cb0-0e044041fb16"},"vehicle_type_id":"4","last_reported":1710353313,"current_range_meters":0,"station_id":"ce4bhbp2rcd13ifvqesg","pricing_plan_id":"cebpf4jnsgd1na2vs0mg"},{"bike_id":"30737002-6d9c-4239-b07b-37a2325e7da0","system_id":"levelo_inurba_marseille","lat":43.293009,"lon":5.374584,"is_reserved":false,"is_disabled":false,"rental_uris":{"android":"levelo://app?vid=30737002-6d9c-4239-b07b-37a2325e7da0","ios":"levelo://app?vid=30737002-6d9c-4239-b07b-37a2325e7da0"},"vehicle_type_id":"4","last_reported":1710353313,"current_range_meters":7200,"station_id":"ce4bgi12rcd13ifvqb70","pricing_plan_id":"cebpf4jnsgd1na2vs0mg"},{"bike_id":"5425c9e2-171a-427c-90db-9b35fe70306a","system_id":"levelo_inurba_marseille","lat":43.294165,"lon":5.378498,"is_reserved":false,"is_disabled":false,"rental_uris":{"android":"levelo://app?vid=5425c9e2-171a-427c-90db-9b35fe70306a","ios":"levelo://app?vid=5425c9e2-171a-427c-90db-9b35fe70306a"},"vehicle_type_id":"4","last_reported":1710353313,"current_range_meters":13200,"station_id":"","pricing_plan_id":"cebpf4jnsgd1na2vs0mg"},{"bike_id":"80e4176e-cb8d-41ce-abe0-38bb06b4d591","system_id":"levelo_inurba_marseille","lat":43.293009,"lon":5.374584,"is_reserved":false,"is_disabled":false,"rental_uris":{"android":"levelo://app?vid=80e4176e-cb8d-41ce-abe0-38bb06b4d591","ios":"levelo://app?vid=80e4176e-cb8d-41ce-abe0-38bb06b4d591"},"vehicle_type_id":"4","last_reported":1710353313,"current_range_meters":400,"station_id":"ce4bgi12rcd13ifvqb70","pricing_plan_id":"cebpf4jnsgd1na2vs0mg"},{"bike_id":"c004630d-ccba-4637-9e32-7307c0abe8fe","system_id":"levelo_inurba_marseille","lat":43.293009,"lon":5.374584,"is_reserved":false,"is_disabled":false,"rental_uris":{"android":"levelo://app?vid=c004630d-ccba-4637-9e32-7307c0abe8fe","ios":"levelo://app?vid=c004630d-ccba-4637-9e32-7307c0abe8fe"},"vehicle_type_id":"4","last_reported":1710353313,"current_range_meters":1200,"station_id":"ce4bgi12rcd13ifvqb70","pricing_plan_id":"cebpf4jnsgd1na2vs0mg"},{"bike_id":"18f42ad9-2bd0-49d1-bd0e-d6eacc6031d7","system_id":"levelo_inurba_marseille","lat":43.29231,"lon":5.36477,"is_reserved":false,"is_disabled":false,"rental_uris":{"android":"levelo://app?vid=18f42ad9-2bd0-49d1-bd0e-d6eacc6031d7","ios":"levelo://app?vid=18f42ad9-2bd0-49d1-bd0e-d6eacc6031d7"},"vehicle_type_id":"4","last_reported":1710353313,"current_range_meters":0,"station_id":"","pricing_plan_id":"cebpf4jnsgd1na2vs0mg"},{"bike_id":"c5d36329-68dd-483e-bed6-c79de97e391b","system_id":"levelo_inurba_marseille","lat":43.293009,"lon":5.374584,"is_reserved":false,"is_disabled":false,"rental_uris":{"android":"levelo://app?vid=c5d36329-68dd-483e-bed6-c79de97e391b","ios":"levelo://app?vid=c5d36329-68dd-483e-bed6-c79de97e391b"},"vehicle_type_id":"4","last_reported":1710353313,"current_range_meters":3600,"station_id":"ce4bgi12rcd13ifvqb70","pricing_plan_id":"cebpf4jnsgd1na2vs0mg"},{"bike_id":"6a8e88d8-0ee7-4c1b-8b53-0cbcf32f87e9","system_id":"levelo_inurba_marseille","lat":43.30588,"lon":5.39359,"is_reserved":false,"is_disabled":false,"rental_uris":{"android":"levelo://app?vid=6a8e88d8-0ee7-4c1b-8b53-0cbcf32f87e9","ios":"levelo://app?vid=6a8e88d8-0ee7-4c1b-8b53-0cbcf32f87e9"},"vehicle_type_id":"4","last_reported":1710353313,"current_range_meters":0,"station_id":"ce4bh0p2rcd13ifvqd80","pricing_plan_id":"cebpf4jnsgd1na2vs0mg"},{"bike_id":"66c29174-e8e5-4dcb-b059-4cb616bca50f","system_id":"levelo_inurba_marseille","lat":43.305994,"lon":5.393687,"is_reserved":false,"is_disabled":false,"rental_uris":{"android":"levelo://app?vid=66c29174-e8e5-4dcb-b059-4cb616bca50f","ios":"levelo://app?vid=66c29174-e8e5-4dcb-b059-4cb616bca50f"},"vehicle_type_id":"4","last_reported":1710353313,"current_range_meters":1200,"station_id":"ce4bh0p2rcd13ifvqd80","pricing_plan_id":"cebpf4jnsgd1na2vs0mg"},{"bike_id":"d5f95118-036e-4a50-abd1-78ab008121fe","system_id":"levelo_inurba_marseille","lat":43.303002,"lon":5.392142,"is_reserved":false,"is_disabled":false,"rental_uris":{"android":"levelo://app?vid=d5f95118-036e-4a50-abd1-78ab008121fe","ios":"levelo://app?vid=d5f95118-036e-4a50-abd1-78ab008121fe"},"vehicle_type_id":"4","last_reported":1710353313,"current_range_meters":17200,"station_id":"ce4bgkh2rcd13ifvqbk0","pricing_plan_id":"cebpf4jnsgd1na2vs0mg"},{"bike_id":"3663fa7e-a12a-43b3-abf0-7e92f1e93c27","system_id":"levelo_inurba_marseille","lat":43.293009,"lon":5.374584,"is_reserved":false,"is_disabled":false,"rental_uris":{"android":"levelo://app?vid=3663fa7e-a12a-43b3-abf0-7e92f1e93c27","ios":"levelo://app?vid=3663fa7e-a12a-43b3-abf0-7e92f1e93c27"},"vehicle_type_id":"4","last_reported":1710353313,"current_range_meters":9600,"station_id":"ce4bgi12rcd13ifvqb70","pricing_plan_id":"cebpf4jnsgd1na2vs0mg"},{"bike_id":"7b55d945-252b-4626-a83b-928436c784c6","system_id":"levelo_inurba_marseille","lat":43.2936,"lon":5.37835,"is_reserved":false,"is_disabled":false,"rental_uris":{"android":"levelo://app?vid=7b55d945-252b-4626-a83b-928436c784c6","ios":"levelo://app?vid=7b55d945-252b-4626-a83b-928436c784c6"},"vehicle_type_id":"4","last_reported":1710353313,"current_range_meters":5200,"station_id":"ce4bgjh2rcd13ifvqbf0","pricing_plan_id":"cebpf4jnsgd1na2vs0mg"},{"bike_id":"cb61f44d-0f89-4133-bdbe-01ab4a6757cc","system_id":"levelo_inurba_marseille","lat":43.2936,"lon":5.37835,"is_reserved":false,"is_disabled":false,"rental_uris":{"android":"levelo://app?vid=cb61f44d-0f89-4133-bdbe-01ab4a6757cc","ios":"levelo://app?vid=cb61f44d-0f89-4133-bdbe-01ab4a6757cc"},"vehicle_type_id":"4","last_reported":1710353313,"current_range_meters":0,"station_id":"ce4bgjh2rcd13ifvqbf0","pricing_plan_id":"cebpf4jnsgd1na2vs0mg"},{"bike_id":"d2e7809b-417d-497a-ac60-e909d77d1f04","system_id":"levelo_inurba_marseille","lat":43.293674,"lon":5.378412,"is_reserved":false,"is_disabled":false,"rental_uris":{"android":"levelo://app?vid=d2e7809b-417d-497a-ac60-e909d77d1f04","ios":"levelo://app?vid=d2e7809b-417d-497a-ac60-e909d77d1f04"},"vehicle_type_id":"4","last_reported":1710353313,"current_range_meters":0,"station_id":"ce4bgjh2rcd13ifvqbf0","pricing_plan_id":"cebpf4jnsgd1na2vs0mg"},{"bike_id":"fa6939a8-09aa-4a85-bcd7-39c725daff67","system_id":"levelo_inurba_marseille","lat":43.2936,"lon":5.37835,"is_reserved":false,"is_disabled":false,"rental_uris":{"android":"levelo://app?vid=fa6939a8-09aa-4a85-bcd7-39c725daff67","ios":"levelo://app?vid=fa6939a8-09aa-4a85-bcd7-39c725daff67"},"vehicle_type_id":"4","last_reported":1710353313,"current_range_meters":16400,"station_id":"ce4bgjh2rcd13ifvqbf0","pricing_plan_id":"cebpf4jnsgd1na2vs0mg"},{"bike_id":"2a53cb4e-cc9d-48a0-a4bd-e09fb6250cd3","system_id":"levelo_inurba_marseille","lat":43.2936,"lon":5.37835,"is_reserved":false,"is_disabled":false,"rental_uris":{"android":"levelo://app?vid=2a53cb4e-cc9d-48a0-a4bd-e09fb6250cd3","ios":"levelo://app?vid=2a53cb4e-cc9d-48a0-a4bd-e09fb6250cd3"},"vehicle_type_id":"4","last_reported":1710353313,"current_range_meters":3600,"station_id":"ce4bgjh2rcd13ifvqbf0","pricing_plan_id":"cebpf4jnsgd1na2vs0mg"},{"bike_id":"46ed2dee-ac25-43f0-bee7-6b65fd342931","system_id":"levelo_inurba_marseille","lat":43.2936,"lon":5.37835,"is_reserved":false,"is_disabled":false,"rental_uris":{"android":"levelo://app?vid=46ed2dee-ac25-43f0-bee7-6b65fd342931","ios":"levelo://app?vid=46ed2dee-ac25-43f0-bee7-6b65fd342931"},"vehicle_type_id":"4","last_reported":1710353313,"current_range_meters":4000,"station_id":"ce4bgjh2rcd13ifvqbf0","pricing_plan_id":"cebpf4jnsgd1na2vs0mg"},{"bike_id":"115c671f-1809-48a9-8727-fb43df3459d6","system_id":"levelo_inurba_marseille","lat":43.305364,"lon":5.384119,"is_reserved":false,"is_disabled":false,"rental_uris":{"android":"levelo://app?vid=115c671f-1809-48a9-8727-fb43df3459d6","ios":"levelo://app?vid=115c671f-1809-48a9-8727-fb43df3459d6"},"vehicle_type_id":"4","last_reported":1710353313,"current_range_meters":1600,"station_id":"ce4bgg92rcd13ifvqb30","pricing_plan_id":"cebpf4jnsgd1na2vs0mg"},{"bike_id":"46a55a43-f54f-4807-ba35-d409c30e13bc","system_id":"levelo_inurba_marseille","lat":43.29226,"lon":5.36081,"is_reserved":false,"is_disabled":false,"rental_uris":{"android":"levelo://app?vid=46a55a43-f54f-4807-ba35-d409c30e13bc","ios":"levelo://app?vid=46a55a43-f54f-4807-ba35-d409c30e13bc"},"vehicle_type_id":"4","last_reported":1710353313,"current_range_meters":27200,"station_id":"ce4bhbh2rcd13ifvqeqg","pricing_plan_id":"cebpf4jnsgd1na2vs0mg"},{"bike_id":"027ed46f-2f90-40b0-b724-79e0c6d0bfeb","system_id":"levelo_inurba_marseille","lat":43.30085,"lon":5.390856,"is_reserved":false,"is_disabled":false,"rental_uris":{"android":"levelo://app?vid=027ed46f-2f90-40b0-b724-79e0c6d0bfeb","ios":"levelo://app?vid=027ed46f-2f90-40b0-b724-79e0c6d0bfeb"},"vehicle_type_id":"4","last_reported":1710353313,"current_range_meters":30400,"station_id":"ce4bh192rcd13ifvqdb0","pricing_plan_id":"cebpf4jnsgd1na2vs0mg"},{"bike_id":"4f8b7c03-c09d-4c2b-8575-f707061e7c3b","system_id":"levelo_inurba_marseille","lat":43.30083,"lon":5.39083,"is_reserved":false,"is_disabled":false,"rental_uris":{"android":"levelo://app?vid=4f8b7c03-c09d-4c2b-8575-f707061e7c3b","ios":"levelo://app?vid=4f8b7c03-c09d-4c2b-8575-f707061e7c3b"},"vehicle_type_id":"4","last_reported":1710353313,"current_range_meters":0,"station_id":"","pricing_plan_id":"cebpf4jnsgd1na2vs0mg"},{"bike_id":"502e5683-a868-4f89-9d8a-75633d405d62","system_id":"levelo_inurba_marseille","lat":43.300852,"lon":5.390859,"is_reserved":false,"is_disabled":false,"rental_uris":{"android":"levelo://app?vid=502e5683-a868-4f89-9d8a-75633d405d62","ios":"levelo://app?vid=502e5683-a868-4f89-9d8a-75633d405d62"},"vehicle_type_id":"4","last_reported":1710353313,"current_range_meters":0,"station_id":"ce4bh192rcd13ifvqdb0","pricing_plan_id":"cebpf4jnsgd1na2vs0mg"},{"bike_id":"4cc769fe-1cbe-4726-8228-b8c0d094f13d","system_id":"levelo_inurba_marseille","lat":43.298764,"lon":5.388973,"is_reserved":false,"is_disabled":false,"rental_uris":{"android":"levelo://app?vid=4cc769fe-1cbe-4726-8228-b8c0d094f13d","ios":"levelo://app?vid=4cc769fe-1cbe-4726-8228-b8c0d094f13d"},"vehicle_type_id":"4","last_reported":1710353313,"current_range_meters":7600,"station_id":"ce4bh392rcd13ifvqdl0","pricing_plan_id":"cebpf4jnsgd1na2vs0mg"},{"bike_id":"f0ac832d-9568-4784-8aaf-0bc752773863","system_id":"levelo_inurba_marseille","lat":43.29881,"lon":5.38898,"is_reserved":false,"is_disabled":false,"rental_uris":{"android":"levelo://app?vid=f0ac832d-9568-4784-8aaf-0bc752773863","ios":"levelo://app?vid=f0ac832d-9568-4784-8aaf-0bc752773863"},"vehicle_type_id":"4","last_reported":1710353313,"current_range_meters":28400,"station_id":"ce4bh392rcd13ifvqdl0","pricing_plan_id":"cebpf4jnsgd1na2vs0mg"},{"bike_id":"7727e2ec-3cdd-49af-9094-43864130feed","system_id":"levelo_inurba_marseille","lat":43.29883,"lon":5.38905,"is_reserved":false,"is_disabled":false,"rental_uris":{"android":"levelo://app?vid=7727e2ec-3cdd-49af-9094-43864130feed","ios":"levelo://app?vid=7727e2ec-3cdd-49af-9094-43864130feed"},"vehicle_type_id":"4","last_reported":1710353313,"current_range_meters":15600,"station_id":"ce4bh392rcd13ifvqdl0","pricing_plan_id":"cebpf4jnsgd1na2vs0mg"},{"bike_id":"d56f8bbd-f27b-4e36-bafc-f03a001ccf40","system_id":"levelo_inurba_marseille","lat":43.291675,"lon":5.371583,"is_reserved":false,"is_disabled":false,"rental_uris":{"android":"levelo://app?vid=d56f8bbd-f27b-4e36-bafc-f03a001ccf40","ios":"levelo://app?vid=d56f8bbd-f27b-4e36-bafc-f03a001ccf40"},"vehicle_type_id":"4","last_reported":1710353313,"current_range_meters":12000,"station_id":"ce4bha92rcd13ifvqeh0","pricing_plan_id":"cebpf4jnsgd1na2vs0mg"},{"bike_id":"9a76df40-5a2f-42bc-9271-2cf77c838da0","system_id":"levelo_inurba_marseille","lat":43.2917,"lon":5.37143,"is_reserved":false,"is_disabled":false,"rental_uris":{"android":"levelo://app?vid=9a76df40-5a2f-42bc-9271-2cf77c838da0","ios":"levelo://app?vid=9a76df40-5a2f-42bc-9271-2cf77c838da0"},"vehicle_type_id":"4","last_reported":1710353313,"current_range_meters":0,"station_id":"ce4bha92rcd13ifvqeh0","pricing_plan_id":"cebpf4jnsgd1na2vs0mg"},{"bike_id":"a732c58c-c085-457f-835d-15db84e161cf","system_id":"levelo_inurba_marseille","lat":43.298764,"lon":5.388973,"is_reserved":false,"is_disabled":false,"rental_uris":{"android":"levelo://app?vid=a732c58c-c085-457f-835d-15db84e161cf","ios":"levelo://app?vid=a732c58c-c085-457f-835d-15db84e161cf"},"vehicle_type_id":"4","last_reported":1710353313,"current_range_meters":14000,"station_id":"ce4bh392rcd13ifvqdl0","pricing_plan_id":"cebpf4jnsgd1na2vs0mg"},{"bike_id":"300db7ae-37a7-4c2c-baa7-3cf2c175f983","system_id":"levelo_inurba_marseille","lat":43.294314,"lon":5.397498,"is_reserved":false,"is_disabled":false,"rental_uris":{"android":"levelo://app?vid=300db7ae-37a7-4c2c-baa7-3cf2c175f983","ios":"levelo://app?vid=300db7ae-37a7-4c2c-baa7-3cf2c175f983"},"vehicle_type_id":"4","last_reported":1710353313,"current_range_meters":0,"station_id":"ce4bh3h2rcd13ifvqdo0","pricing_plan_id":"cebpf4jnsgd1na2vs0mg"},{"bike_id":"7047288c-5cea-4dd8-8b7e-7e3808344ed3","system_id":"levelo_inurba_marseille","lat":43.2987,"lon":5.38912,"is_reserved":false,"is_disabled":false,"rental_uris":{"android":"levelo://app?vid=7047288c-5cea-4dd8-8b7e-7e3808344ed3","ios":"levelo://app?vid=7047288c-5cea-4dd8-8b7e-7e3808344ed3"},"vehicle_type_id":"4","last_reported":1710353313,"current_range_meters":400,"station_id":"ce4bh392rcd13ifvqdl0","pricing_plan_id":"cebpf4jnsgd1na2vs0mg"},{"bike_id":"bdf80a15-6546-4dd6-af4b-b5b8d0460fb2","system_id":"levelo_inurba_marseille","lat":43.291537,"lon":5.37153,"is_reserved":false,"is_disabled":false,"rental_uris":{"android":"levelo://app?vid=bdf80a15-6546-4dd6-af4b-b5b8d0460fb2","ios":"levelo://app?vid=bdf80a15-6546-4dd6-af4b-b5b8d0460fb2"},"vehicle_type_id":"4","last_reported":1710353313,"current_range_meters":0,"station_id":"ce4bha92rcd13ifvqeh0","pricing_plan_id":"cebpf4jnsgd1na2vs0mg"},{"bike_id":"0ce2c638-5193-4995-a888-02bcbd48bd29","system_id":"levelo_inurba_marseille","lat":43.29597,"lon":5.385502,"is_reserved":false,"is_disabled":false,"rental_uris":{"android":"levelo://app?vid=0ce2c638-5193-4995-a888-02bcbd48bd29","ios":"levelo://app?vid=0ce2c638-5193-4995-a888-02bcbd48bd29"},"vehicle_type_id":"4","last_reported":1710353313,"current_range_meters":0,"station_id":"ce4bgih2rcd13ifvqba0","pricing_plan_id":"cebpf4jnsgd1na2vs0mg"},{"bike_id":"cf7eb8f6-98f6-4a0d-acbd-29a1986a84e1","system_id":"levelo_inurba_marseille","lat":43.2936,"lon":5.37835,"is_reserved":false,"is_disabled":false,"rental_uris":{"android":"levelo://app?vid=cf7eb8f6-98f6-4a0d-acbd-29a1986a84e1","ios":"levelo://app?vid=cf7eb8f6-98f6-4a0d-acbd-29a1986a84e1"},"vehicle_type_id":"4","last_reported":1710353313,"current_range_meters":16800,"station_id":"ce4bgjh2rcd13ifvqbf0","pricing_plan_id":"cebpf4jnsgd1na2vs0mg"},{"bike_id":"8ba9db81-d7f5-4d06-bc74-35e370f6a266","system_id":"levelo_inurba_marseille","lat":43.291994,"lon":5.357886,"is_reserved":false,"is_disabled":false,"rental_uris":{"android":"levelo://app?vid=8ba9db81-d7f5-4d06-bc74-35e370f6a266","ios":"levelo://app?vid=8ba9db81-d7f5-4d06-bc74-35e370f6a266"},"vehicle_type_id":"4","last_reported":1710353313,"current_range_meters":0,"station_id":"ce4bhb12rcd13ifvqel0","pricing_plan_id":"cebpf4jnsgd1na2vs0mg"},{"bike_id":"5df810e9-67cf-4ba2-9666-d7af7567643a","system_id":"levelo_inurba_marseille","lat":43.29192,"lon":5.35797,"is_reserved":false,"is_disabled":false,"rental_uris":{"android":"levelo://app?vid=5df810e9-67cf-4ba2-9666-d7af7567643a","ios":"levelo://app?vid=5df810e9-67cf-4ba2-9666-d7af7567643a"},"vehicle_type_id":"4","last_reported":1710353313,"current_range_meters":7200,"station_id":"ce4bhb12rcd13ifvqel0","pricing_plan_id":"cebpf4jnsgd1na2vs0mg"},{"bike_id":"66c0f858-2ad7-4d9d-8dbf-bad018c79c95","system_id":"levelo_inurba_marseille","lat":43.2919,"lon":5.35797,"is_reserved":false,"is_disabled":false,"rental_uris":{"android":"levelo://app?vid=66c0f858-2ad7-4d9d-8dbf-bad018c79c95","ios":"levelo://app?vid=66c0f858-2ad7-4d9d-8dbf-bad018c79c95"},"vehicle_type_id":"4","last_reported":1710353313,"current_range_meters":25600,"station_id":"ce4bhb12rcd13ifvqel0","pricing_plan_id":"cebpf4jnsgd1na2vs0mg"},{"bike_id":"5c9d05d5-be08-4782-a457-78b0e7ff87c6","system_id":"levelo_inurba_marseille","lat":43.309038,"lon":5.396546,"is_reserved":false,"is_disabled":false,"rental_uris":{"android":"levelo://app?vid=5c9d05d5-be08-4782-a457-78b0e7ff87c6","ios":"levelo://app?vid=5c9d05d5-be08-4782-a457-78b0e7ff87c6"},"vehicle_type_id":"4","last_reported":1710353313,"current_range_meters":5600,"station_id":"ce4bh012rcd13ifvqcv0","pricing_plan_id":"cebpf4jnsgd1na2vs0mg"},{"bike_id":"e1299490-cbd8-4dd3-9c53-d338cfaed0f1","system_id":"levelo_inurba_marseille","lat":43.29186,"lon":5.35789,"is_reserved":false,"is_disabled":false,"rental_uris":{"android":"levelo://app?vid=e1299490-cbd8-4dd3-9c53-d338cfaed0f1","ios":"levelo://app?vid=e1299490-cbd8-4dd3-9c53-d338cfaed0f1"},"vehicle_type_id":"4","last_reported":1710353313,"current_range_meters":0,"station_id":"ce4bhb12rcd13ifvqel0","pricing_plan_id":"cebpf4jnsgd1na2vs0mg"},{"bike_id":"3dab585a-7d5a-4d5b-b9c9-8cab9e23e581","system_id":"levelo_inurba_marseille","lat":43.309047,"lon":5.396551,"is_reserved":false,"is_disabled":false,"rental_uris":{"android":"levelo://app?vid=3dab585a-7d5a-4d5b-b9c9-8cab9e23e581","ios":"levelo://app?vid=3dab585a-7d5a-4d5b-b9c9-8cab9e23e581"},"vehicle_type_id":"4","last_reported":1710353313,"current_range_meters":3200,"station_id":"ce4bh012rcd13ifvqcv0","pricing_plan_id":"cebpf4jnsgd1na2vs0mg"},{"bike_id":"762842b3-dab7-4f5a-9217-7e1955bb468f","system_id":"levelo_inurba_marseille","lat":43.309047,"lon":5.396551,"is_reserved":false,"is_disabled":false,"rental_uris":{"android":"levelo://app?vid=762842b3-dab7-4f5a-9217-7e1955bb468f","ios":"levelo://app?vid=762842b3-dab7-4f5a-9217-7e1955bb468f"},"vehicle_type_id":"4","last_reported":1710353313,"current_range_meters":24400,"station_id":"ce4bh012rcd13ifvqcv0","pricing_plan_id":"cebpf4jnsgd1na2vs0mg"},{"bike_id":"dbaec713-6c5a-4b2d-859c-57e81b198185","system_id":"levelo_inurba_marseille","lat":43.30881,"lon":5.39655,"is_reserved":false,"is_disabled":false,"rental_uris":{"android":"levelo://app?vid=dbaec713-6c5a-4b2d-859c-57e81b198185","ios":"levelo://app?vid=dbaec713-6c5a-4b2d-859c-57e81b198185"},"vehicle_type_id":"4","last_reported":1710353313,"current_range_meters":0,"station_id":"ce4bh012rcd13ifvqcv0","pricing_plan_id":"cebpf4jnsgd1na2vs0mg"},{"bike_id":"934519a8-7c2b-4d87-bb5f-e5f0b5063863","system_id":"levelo_inurba_marseille","lat":43.309038,"lon":5.396546,"is_reserved":false,"is_disabled":false,"rental_uris":{"android":"levelo://app?vid=934519a8-7c2b-4d87-bb5f-e5f0b5063863","ios":"levelo://app?vid=934519a8-7c2b-4d87-bb5f-e5f0b5063863"},"vehicle_type_id":"4","last_reported":1710353313,"current_range_meters":22000,"station_id":"ce4bh012rcd13ifvqcv0","pricing_plan_id":"cebpf4jnsgd1na2vs0mg"},{"bike_id":"1cf1f375-7e39-462c-a184-3f97be1fc8dc","system_id":"levelo_inurba_marseille","lat":43.309038,"lon":5.396546,"is_reserved":false,"is_disabled":false,"rental_uris":{"android":"levelo://app?vid=1cf1f375-7e39-462c-a184-3f97be1fc8dc","ios":"levelo://app?vid=1cf1f375-7e39-462c-a184-3f97be1fc8dc"},"vehicle_type_id":"4","last_reported":1710353313,"current_range_meters":23600,"station_id":"ce4bh012rcd13ifvqcv0","pricing_plan_id":"cebpf4jnsgd1na2vs0mg"},{"bike_id":"b22d7093-9d5a-4f72-bfa9-58aef5de34f0","system_id":"levelo_inurba_marseille","lat":43.309047,"lon":5.396551,"is_reserved":false,"is_disabled":false,"rental_uris":{"android":"levelo://app?vid=b22d7093-9d5a-4f72-bfa9-58aef5de34f0","ios":"levelo://app?vid=b22d7093-9d5a-4f72-bfa9-58aef5de34f0"},"vehicle_type_id":"4","last_reported":1710353313,"current_range_meters":22000,"station_id":"ce4bh012rcd13ifvqcv0","pricing_plan_id":"cebpf4jnsgd1na2vs0mg"},{"bike_id":"76eee499-6652-4c5e-a9d9-295a59f0f053","system_id":"levelo_inurba_marseille","lat":43.292873,"lon":5.379821,"is_reserved":false,"is_disabled":false,"rental_uris":{"android":"levelo://app?vid=76eee499-6652-4c5e-a9d9-295a59f0f053","ios":"levelo://app?vid=76eee499-6652-4c5e-a9d9-295a59f0f053"},"vehicle_type_id":"4","last_reported":1710353313,"current_range_meters":18800,"station_id":"","pricing_plan_id":"cebpf4jnsgd1na2vs0mg"},{"bike_id":"6b0b6f75-686c-4dc7-bd8a-1d6e22c49cc7","system_id":"levelo_inurba_marseille","lat":43.29531,"lon":5.38536,"is_reserved":false,"is_disabled":false,"rental_uris":{"android":"levelo://app?vid=6b0b6f75-686c-4dc7-bd8a-1d6e22c49cc7","ios":"levelo://app?vid=6b0b6f75-686c-4dc7-bd8a-1d6e22c49cc7"},"vehicle_type_id":"4","last_reported":1710353313,"current_range_meters":16400,"station_id":"ce4bgih2rcd13ifvqba0","pricing_plan_id":"cebpf4jnsgd1na2vs0mg"},{"bike_id":"4ae2f4da-fcf4-42d4-995c-4aa8c454f052","system_id":"levelo_inurba_marseille","lat":43.29533,"lon":5.3854,"is_reserved":false,"is_disabled":false,"rental_uris":{"android":"levelo://app?vid=4ae2f4da-fcf4-42d4-995c-4aa8c454f052","ios":"levelo://app?vid=4ae2f4da-fcf4-42d4-995c-4aa8c454f052"},"vehicle_type_id":"4","last_reported":1710353313,"current_range_meters":1200,"station_id":"ce4bgih2rcd13ifvqba0","pricing_plan_id":"cebpf4jnsgd1na2vs0mg"},{"bike_id":"502aaeae-cb35-4a42-9bfc-76389bd184e4","system_id":"levelo_inurba_marseille","lat":43.29529,"lon":5.385581,"is_reserved":false,"is_disabled":false,"rental_uris":{"android":"levelo://app?vid=502aaeae-cb35-4a42-9bfc-76389bd184e4","ios":"levelo://app?vid=502aaeae-cb35-4a42-9bfc-76389bd184e4"},"vehicle_type_id":"4","last_reported":1710353313,"current_range_meters":19600,"station_id":"ce4bgih2rcd13ifvqba0","pricing_plan_id":"cebpf4jnsgd1na2vs0mg"},{"bike_id":"eb54f43e-eeba-4b5b-a894-515e732c8e09","system_id":"levelo_inurba_marseille","lat":43.295578,"lon":5.385839,"is_reserved":false,"is_disabled":false,"rental_uris":{"android":"levelo://app?vid=eb54f43e-eeba-4b5b-a894-515e732c8e09","ios":"levelo://app?vid=eb54f43e-eeba-4b5b-a894-515e732c8e09"},"vehicle_type_id":"4","last_reported":1710353313,"current_range_meters":1200,"station_id":"ce4bgih2rcd13ifvqba0","pricing_plan_id":"cebpf4jnsgd1na2vs0mg"},{"bike_id":"0b87ff22-c1d7-444b-bfb0-86dddd522ac8","system_id":"levelo_inurba_marseille","lat":43.29543,"lon":5.38559,"is_reserved":false,"is_disabled":false,"rental_uris":{"android":"levelo://app?vid=0b87ff22-c1d7-444b-bfb0-86dddd522ac8","ios":"levelo://app?vid=0b87ff22-c1d7-444b-bfb0-86dddd522ac8"},"vehicle_type_id":"4","last_reported":1710353313,"current_range_meters":400,"station_id":"ce4bgih2rcd13ifvqba0","pricing_plan_id":"cebpf4jnsgd1na2vs0mg"},{"bike_id":"d08ddf1f-3aa2-4a39-b5c5-0e59e6c9a36f","system_id":"levelo_inurba_marseille","lat":43.29535,"lon":5.38545,"is_reserved":false,"is_disabled":false,"rental_uris":{"android":"levelo://app?vid=d08ddf1f-3aa2-4a39-b5c5-0e59e6c9a36f","ios":"levelo://app?vid=d08ddf1f-3aa2-4a39-b5c5-0e59e6c9a36f"},"vehicle_type_id":"4","last_reported":1710353313,"current_range_meters":2000,"station_id":"ce4bgih2rcd13ifvqba0","pricing_plan_id":"cebpf4jnsgd1na2vs0mg"},{"bike_id":"a1b572fd-5e70-4ad9-bb02-a89176b71d72","system_id":"levelo_inurba_marseille","lat":43.29532,"lon":5.3854,"is_reserved":false,"is_disabled":false,"rental_uris":{"android":"levelo://app?vid=a1b572fd-5e70-4ad9-bb02-a89176b71d72","ios":"levelo://app?vid=a1b572fd-5e70-4ad9-bb02-a89176b71d72"},"vehicle_type_id":"4","last_reported":1710353313,"current_range_meters":12800,"station_id":"ce4bgih2rcd13ifvqba0","pricing_plan_id":"cebpf4jnsgd1na2vs0mg"},{"bike_id":"cf6a31cc-fd9a-426e-8e02-cd4f6737c338","system_id":"levelo_inurba_marseille","lat":43.29527,"lon":5.38536,"is_reserved":false,"is_disabled":false,"rental_uris":{"android":"levelo://app?vid=cf6a31cc-fd9a-426e-8e02-cd4f6737c338","ios":"levelo://app?vid=cf6a31cc-fd9a-426e-8e02-cd4f6737c338"},"vehicle_type_id":"4","last_reported":1710353313,"current_range_meters":19200,"station_id":"ce4bgih2rcd13ifvqba0","pricing_plan_id":"cebpf4jnsgd1na2vs0mg"},{"bike_id":"b0252aef-7ef6-42a6-94a9-5d4d5007954a","system_id":"levelo_inurba_marseille","lat":43.29528,"lon":5.385395,"is_reserved":false,"is_disabled":false,"rental_uris":{"android":"levelo://app?vid=b0252aef-7ef6-42a6-94a9-5d4d5007954a","ios":"levelo://app?vid=b0252aef-7ef6-42a6-94a9-5d4d5007954a"},"vehicle_type_id":"4","last_reported":1710353313,"current_range_meters":0,"station_id":"ce4bgih2rcd13ifvqba0","pricing_plan_id":"cebpf4jnsgd1na2vs0mg"},{"bike_id":"6649d5da-bf3e-4ef1-9d6d-cfb1105dc98b","system_id":"levelo_inurba_marseille","lat":43.29529,"lon":5.385581,"is_reserved":false,"is_disabled":false,"rental_uris":{"android":"levelo://app?vid=6649d5da-bf3e-4ef1-9d6d-cfb1105dc98b","ios":"levelo://app?vid=6649d5da-bf3e-4ef1-9d6d-cfb1105dc98b"},"vehicle_type_id":"4","last_reported":1710353313,"current_range_meters":13200,"station_id":"ce4bgih2rcd13ifvqba0","pricing_plan_id":"cebpf4jnsgd1na2vs0mg"},{"bike_id":"b1757853-e8dd-4fdd-82fe-b2fb7cb26276","system_id":"levelo_inurba_marseille","lat":43.29529,"lon":5.385581,"is_reserved":false,"is_disabled":false,"rental_uris":{"android":"levelo://app?vid=b1757853-e8dd-4fdd-82fe-b2fb7cb26276","ios":"levelo://app?vid=b1757853-e8dd-4fdd-82fe-b2fb7cb26276"},"vehicle_type_id":"4","last_reported":1710353313,"current_range_meters":5600,"station_id":"ce4bgih2rcd13ifvqba0","pricing_plan_id":"cebpf4jnsgd1na2vs0mg"},{"bike_id":"a6785555-8e87-4f89-b5be-f9ab80e2ab88","system_id":"levelo_inurba_marseille","lat":43.29526,"lon":5.38539,"is_reserved":false,"is_disabled":false,"rental_uris":{"android":"levelo://app?vid=a6785555-8e87-4f89-b5be-f9ab80e2ab88","ios":"levelo://app?vid=a6785555-8e87-4f89-b5be-f9ab80e2ab88"},"vehicle_type_id":"4","last_reported":1710353313,"current_range_meters":0,"station_id":"ce4bgih2rcd13ifvqba0","pricing_plan_id":"cebpf4jnsgd1na2vs0mg"},{"bike_id":"8d51954d-6aeb-402d-b697-112ae14ee8a3","system_id":"levelo_inurba_marseille","lat":43.29529,"lon":5.385581,"is_reserved":false,"is_disabled":false,"rental_uris":{"android":"levelo://app?vid=8d51954d-6aeb-402d-b697-112ae14ee8a3","ios":"levelo://app?vid=8d51954d-6aeb-402d-b697-112ae14ee8a3"},"vehicle_type_id":"4","last_reported":1710353313,"current_range_meters":4400,"station_id":"ce4bgih2rcd13ifvqba0","pricing_plan_id":"cebpf4jnsgd1na2vs0mg"},{"bike_id":"9e0f41d8-d52b-47f9-812f-6e8aa8f833a6","system_id":"levelo_inurba_marseille","lat":43.29525,"lon":5.38538,"is_reserved":false,"is_disabled":false,"rental_uris":{"android":"levelo://app?vid=9e0f41d8-d52b-47f9-812f-6e8aa8f833a6","ios":"levelo://app?vid=9e0f41d8-d52b-47f9-812f-6e8aa8f833a6"},"vehicle_type_id":"4","last_reported":1710353313,"current_range_meters":0,"station_id":"ce4bgih2rcd13ifvqba0","pricing_plan_id":"cebpf4jnsgd1na2vs0mg"},{"bike_id":"47907c6f-9f0b-4d55-93b2-e9754eccf80e","system_id":"levelo_inurba_marseille","lat":43.29525,"lon":5.38543,"is_reserved":false,"is_disabled":false,"rental_uris":{"android":"levelo://app?vid=47907c6f-9f0b-4d55-93b2-e9754eccf80e","ios":"levelo://app?vid=47907c6f-9f0b-4d55-93b2-e9754eccf80e"},"vehicle_type_id":"4","last_reported":1710353313,"current_range_meters":0,"station_id":"ce4bgih2rcd13ifvqba0","pricing_plan_id":"cebpf4jnsgd1na2vs0mg"},{"bike_id":"765b1346-e382-4a96-b04e-9ad55deeb209","system_id":"levelo_inurba_marseille","lat":43.29529,"lon":5.38552,"is_reserved":false,"is_disabled":false,"rental_uris":{"android":"levelo://app?vid=765b1346-e382-4a96-b04e-9ad55deeb209","ios":"levelo://app?vid=765b1346-e382-4a96-b04e-9ad55deeb209"},"vehicle_type_id":"4","last_reported":1710353313,"current_range_meters":0,"station_id":"ce4bgih2rcd13ifvqba0","pricing_plan_id":"cebpf4jnsgd1na2vs0mg"},{"bike_id":"e603fc85-331e-4e3d-90c0-0a7d22332887","system_id":"levelo_inurba_marseille","lat":43.29529,"lon":5.385581,"is_reserved":false,"is_disabled":false,"rental_uris":{"android":"levelo://app?vid=e603fc85-331e-4e3d-90c0-0a7d22332887","ios":"levelo://app?vid=e603fc85-331e-4e3d-90c0-0a7d22332887"},"vehicle_type_id":"4","last_reported":1710353313,"current_range_meters":20000,"station_id":"ce4bgih2rcd13ifvqba0","pricing_plan_id":"cebpf4jnsgd1na2vs0mg"},{"bike_id":"a52663ab-bb98-4703-9011-bc76b62082be","system_id":"levelo_inurba_marseille","lat":43.29529,"lon":5.385581,"is_reserved":false,"is_disabled":false,"rental_uris":{"android":"levelo://app?vid=a52663ab-bb98-4703-9011-bc76b62082be","ios":"levelo://app?vid=a52663ab-bb98-4703-9011-bc76b62082be"},"vehicle_type_id":"4","last_reported":1710353313,"current_range_meters":13600,"station_id":"ce4bgih2rcd13ifvqba0","pricing_plan_id":"cebpf4jnsgd1na2vs0mg"},{"bike_id":"f4eeffa6-a0fd-4921-81ca-514de47c1c80","system_id":"levelo_inurba_marseille","lat":43.290779,"lon":5.371482,"is_reserved":false,"is_disabled":false,"rental_uris":{"android":"levelo://app?vid=f4eeffa6-a0fd-4921-81ca-514de47c1c80","ios":"levelo://app?vid=f4eeffa6-a0fd-4921-81ca-514de47c1c80"},"vehicle_type_id":"4","last_reported":1710353313,"current_range_meters":18800,"station_id":"ce4bh5p2rcd13ifvqe4g","pricing_plan_id":"cebpf4jnsgd1na2vs0mg"},{"bike_id":"ec98184c-e5c2-4a31-a3a8-b83d4260446a","system_id":"levelo_inurba_marseille","lat":43.290779,"lon":5.371482,"is_reserved":false,"is_disabled":false,"rental_uris":{"android":"levelo://app?vid=ec98184c-e5c2-4a31-a3a8-b83d4260446a","ios":"levelo://app?vid=ec98184c-e5c2-4a31-a3a8-b83d4260446a"},"vehicle_type_id":"4","last_reported":1710353313,"current_range_meters":4000,"station_id":"ce4bh5p2rcd13ifvqe4g","pricing_plan_id":"cebpf4jnsgd1na2vs0mg"},{"bike_id":"ec8404c1-d780-40b5-8558-158b2f154f5e","system_id":"levelo_inurba_marseille","lat":43.290779,"lon":5.371482,"is_reserved":false,"is_disabled":false,"rental_uris":{"android":"levelo://app?vid=ec8404c1-d780-40b5-8558-158b2f154f5e","ios":"levelo://app?vid=ec8404c1-d780-40b5-8558-158b2f154f5e"},"vehicle_type_id":"4","last_reported":1710353313,"current_range_meters":6000,"station_id":"ce4bh5p2rcd13ifvqe4g","pricing_plan_id":"cebpf4jnsgd1na2vs0mg"},