{"last_updated":1700872401,"ttl":30,"version":"2.2","data":{"bikes":[{"bike_id":"223ff5dc-e87b-4b24-a337-af8d19a57cc0","system_id":"levelo_inurba_marseille","lat":43.314811,"lon":5.373103,"is_reserved":false,"is_disabled":false,"rental_uris":{"android":"levelo://app?vid=223ff5dc-e87b-4b24-a337-af8d19a57cc0","ios":"levelo://app?vid=223ff5dc-e87b-4b24-a337-af8d19a57cc0"},"vehicle_type_id":"4","last_reported":1700872401,"current_range_meters":5200,"station_id":"ce4bgt12rcd13ifvqcd0","pricing_plan_id":"free"},{"bike_id":"a30b5890-8440-4d42-a751-51b0b2369cb6","system_id":"levelo_inurba_marseille","lat":43.309039,"lon":5.371797,"is_reserved":false,"is_disabled":false,"rental_uris":{"android":"levelo://app?vid=a30b5890-8440-4d42-a751-51b0b2369cb6","ios":"levelo://app?vid=a30b5890-8440-4d42-a751-51b0b2369cb6"},"vehicle_type_id":"4","last_reported":1700872401,"current_range_meters":4400,"station_id":"ce4bguh2rcd13ifvqckg","pricing_plan_id":"free"},{"bike_id":"e86ec09a-431c-4db9-89e9-f4647826db5b","system_id":"levelo_inurba_marseille","lat":43.308792,"lon":5.372009,"is_reserved":false,"is_disabled":false,"rental_uris":{"android":"levelo://app?vid=e86ec09a-431c-4db9-89e9-f4647826db5b","ios":"levelo://app?vid=e86ec09a-431c-4db9-89e9-f4647826db5b"},"vehicle_type_id":"4","last_reported":1700872401,"current_range_meters":4000,"station_id":"ce4bguh2rcd13ifvqckg","pricing_plan_id":"free"},{"bike_id":"0e3a20c0-fbe4-4be1-8a70-167c2d1fc9f6","system_id":"levelo_inurba_marseille","lat":43.305224,"lon":5.365653,"is_reserved":false,"is_disabled":false,"rental_uris":{"android":"levelo://app?vid=0e3a20c0-fbe4-4be1-8a70-167c2d1fc9f6","ios":"levelo://app?vid=0e3a20c0-fbe4-4be1-8a70-167c2d1fc9f6"},"vehicle_type_id":"4","last_reported":1700872401,"current_range_meters":1200,"station_id":"ce4bgs12rcd13ifvqcag","pricing_plan_id":"free"},{"bike_id":"96a21a0c-0f47-4594-bdaf-1c26cb9ecf01","system_id":"levelo_inurba_marseille","lat":43.31115,"lon":5.37764,"is_reserved":false,"is_disabled":false,"rental_uris":{"android":"levelo://app?vid=96a21a0c-0f47-4594-bdaf-1c26cb9ecf01","ios":"levelo://app?vid=96a21a0c-0f47-4594-bdaf-1c26cb9ecf01"},"vehicle_type_id":"4","last_reported":1700872401,"current_range_meters":23200,"station_id":"ce4bgt92rcd13ifvqcg0","pricing_plan_id":"free"},{"bike_id":"62e59312-ad34-4855-9017-344632c8716a","system_id":"levelo_inurba_marseille","lat":43.311131,"lon":5.377651,"is_reserved":false,"is_disabled":false,"rental_uris":{"android":"levelo://app?vid=62e59312-ad34-4855-9017-344632c8716a","ios":"levelo://app?vid=62e59312-ad34-4855-9017-344632c8716a"},"vehicle_type_id":"4","last_reported":1700872401,"current_range_meters":400,"station_id":"ce4bgt92rcd13ifvqcg0","pricing_plan_id":"free"},{"bike_id":"573a870a-b6c4-429d-8587-8103772b84bc","system_id":"levelo_inurba_marseille","lat":43.308185,"lon":5.376604,"is_reserved":false,"is_disabled":false,"rental_uris":{"android":"levelo://app?vid=573a870a-b6c4-429d-8587-8103772b84bc","ios":"levelo://app?vid=573a870a-b6c4-429d-8587-8103772b84bc"},"vehicle_type_id":"4","last_reported":1700872401,"current_range_meters":6800,"station_id":"ce4bgv92rcd13ifvqcq0","pricing_plan_id":"free"},{"bike_id":"f427a2c3-6e4a-446b-ae2f-9be8aa7f4122","system_id":"levelo_inurba_marseille","lat":43.31719,"lon":5.376813,"is_reserved":false,"is_disabled":false,"rental_uris":{"android":"levelo://app?vid=f427a2c3-6e4a-446b-ae2f-9be8aa7f4122","ios":"levelo://app?vid=f427a2c3-6e4a-446b-ae2f-9be8aa7f4122"},"vehicle_type_id":"4","last_reported":1700872401,"current_range_meters":26800,"station_id":"ce4bgth2rcd13ifvqch0","pricing_plan_id":"free"},{"bike_id":"b898b018-f57d-4901-bab2-fdd15d391de9","system_id":"levelo_inurba_marseille","lat":43.317168,"lon":5.376883,"is_reserved":false,"is_disabled":false,"rental_uris":{"android":"levelo://app?vid=b898b018-f57d-4901-bab2-fdd15d391de9","ios":"levelo://app?vid=b898b018-f57d-4901-bab2-fdd15d391de9"},"vehicle_type_id":"4","last_reported":1700872401,"current_range_meters":29200,"station_id":"ce4bgth2rcd13ifvqch0","pricing_plan_id":"free"},{"bike_id":"d0838722-4519-4ead-99e9-d3f441a66736","system_id":"levelo_inurba_marseille","lat":43.317075,"lon":5.377367,"is_reserved":false,"is_disabled":false,"rental_uris":{"android":"levelo://app?vid=d0838722-4519-4ead-99e9-d3f441a66736","ios":"levelo://app?vid=d0838722-4519-4ead-99e9-d3f441a66736"},"vehicle_type_id":"4","last_reported":1700872401,"current_range_meters":18400,"station_id":"ce4bgth2rcd13ifvqch0","pricing_plan_id":"free"},{"bike_id":"9b9f39ce-3c56-4311-a2c2-7f18c9eb7245","system_id":"levelo_inurba_marseille","lat":43.303046,"lon":5.368981,"is_reserved":false,"is_disabled":false,"rental_uris":{"android":"levelo://app?vid=9b9f39ce-3c56-4311-a2c2-7f18c9eb7245","ios":"levelo://app?vid=9b9f39ce-3c56-4311-a2c2-7f18c9eb7245"},"vehicle_type_id":"4","last_reported":1700872401,"current_range_meters":25200,"station_id":"ce4bgqh2rcd13ifvqc5g","pricing_plan_id":"free"},{"bike_id":"cf92051e-3b73-41ee-8f87-07a63c97f5fc","system_id":"levelo_inurba_marseille","lat":43.315289,"lon":5.380349,"is_reserved":false,"is_disabled":false,"rental_uris":{"android":"levelo://app?vid=cf92051e-3b73-41ee-8f87-07a63c97f5fc","ios":"levelo://app?vid=cf92051e-3b73-41ee-8f87-07a63c97f5fc"},"vehicle_type_id":"4","last_reported":1700872401,"current_range_meters":18800,"station_id":"ce4bhsp2rcd13ifvqi50","pricing_plan_id":"free"},{"bike_id":"0109dba6-d5bd-4ae3-815d-4c101d8be0c5","system_id":"levelo_inurba_marseille","lat":43.30272,"lon":5.36906,"is_reserved":false,"is_disabled":false,"rental_uris":{"android":"levelo://app?vid=0109dba6-d5bd-4ae3-815d-4c101d8be0c5","ios":"levelo://app?vid=0109dba6-d5bd-4ae3-815d-4c101d8be0c5"},"vehicle_type_id":"4","last_reported":1700872401,"current_range_meters":19200,"station_id":"","pricing_plan_id":"free"},{"bike_id":"26564182-7c28-41be-8e2b-ec656c3c9717","system_id":"levelo_inurba_marseille","lat":43.30801,"lon":5.38153,"is_reserved":false,"is_disabled":false,"rental_uris":{"android":"levelo://app?vid=26564182-7c28-41be-8e2b-ec656c3c9717","ios":"levelo://app?vid=26564182-7c28-41be-8e2b-ec656c3c9717"},"vehicle_type_id":"4","last_reported":1700872401,"current_range_meters":21200,"station_id":"ce4bgt12rcd13ifvqce0","pricing_plan_id":"free"},{"bike_id":"9c6df890-3a9a-4101-a4c0-d867b1e8545c","system_id":"levelo_inurba_marseille","lat":43.308012,"lon":5.381511,"is_reserved":false,"is_disabled":false,"rental_uris":{"android":"levelo://app?vid=9c6df890-3a9a-4101-a4c0-d867b1e8545c","ios":"levelo://app?vid=9c6df890-3a9a-4101-a4c0-d867b1e8545c"},"vehicle_type_id":"4","last_reported":1700872401,"current_range_meters":6000,"station_id":"ce4bgt12rcd13ifvqce0","pricing_plan_id":"free"},{"bike_id":"3903d50d-385f-440d-8e1c-aa2332a65271","system_id":"levelo_inurba_marseille","lat":43.308012,"lon":5.381511,"is_reserved":false,"is_disabled":false,"rental_uris":{"android":"levelo://app?vid=3903d50d-385f-440d-8e1c-aa2332a65271","ios":"levelo://app?vid=3903d50d-385f-440d-8e1c-aa2332a65271"},"vehicle_type_id":"4","last_reported":1700872401,"current_range_meters":5200,"station_id":"ce4bgt12rcd13ifvqce0","pricing_plan_id":"free"},{"bike_id":"e13ae174-9a9b-4a0d-b3bc-4ea47ce72ff6","system_id":"levelo_inurba_marseille","lat":43.308,"lon":5.38158,"is_reserved":false,"is_disabled":false,"rental_uris":{"android":"levelo://app?vid=e13ae174-9a9b-4a0d-b3bc-4ea47ce72ff6","ios":"levelo://app?vid=e13ae174-9a9b-4a0d-b3bc-4ea47ce72ff6"},"vehicle_type_id":"4","last_reported":1700872401,"current_range_meters":11200,"station_id":"ce4bgt12rcd13ifvqce0","pricing_plan_id":"free"},{"bike_id":"558df456-1901-4b92-af49-be365b4ba985","system_id":"levelo_inurba_marseille","lat":43.308012,"lon":5.381511,"is_reserved":false,"is_disabled":false,"rental_uris":{"android":"levelo://app?vid=558df456-1901-4b92-af49-be365b4ba985","ios":"levelo://app?vid=558df456-1901-4b92-af49-be365b4ba985"},"vehicle_type_id":"4","last_reported":1700872401,"current_range_meters":15600,"station_id":"ce4bgt12rcd13ifvqce0","pricing_plan_id":"free"},{"bike_id":"40651570-2caa-481e-83f2-ed9b577fc84a","system_id":"levelo_inurba_marseille","lat":43.323162,"lon":5.374616,"is_reserved":false,"is_disabled":false,"rental_uris":{"android":"levelo://app?vid=40651570-2caa-481e-83f2-ed9b577fc84a","ios":"levelo://app?vid=40651570-2caa-481e-83f2-ed9b577fc84a"},"vehicle_type_id":"4","last_reported":1700872401,"current_range_meters":12000,"station_id":"","pricing_plan_id":"free"},{"bike_id":"9785a589-bc9a-4833-a226-b342d44dca82","system_id":"levelo_inurba_marseille","lat":43.30466,"lon":5.37905,"is_reserved":false,"is_disabled":false,"rental_uris":{"android":"levelo://app?vid=9785a589-bc9a-4833-a226-b342d44dca82","ios":"levelo://app?vid=9785a589-bc9a-4833-a226-b342d44dca82"},"vehicle_type_id":"4","last_reported":1700872401,"current_range_meters":0,"station_id":"ce4bgup2rcd13ifvqcn0","pricing_plan_id":"free"},{"bike_id":"ee7b2315-1ca6-4f8e-a62a-6313cf5cda28","system_id":"levelo_inurba_marseille","lat":43.324845,"lon":5.365703,"is_reserved":false,"is_disabled":false,"rental_uris":{"android":"levelo://app?vid=ee7b2315-1ca6-4f8e-a62a-6313cf5cda28","ios":"levelo://app?vid=ee7b2315-1ca6-4f8e-a62a-6313cf5cda28"},"vehicle_type_id":"4","last_reported":1700872401,"current_range_meters":14800,"station_id":"ce4bhs12rcd13ifvqhvg","pricing_plan_id":"free"},{"bike_id":"633e99a4-97e9-4c08-bb87-d8afdd3002ae","system_id":"levelo_inurba_marseille","lat":43.302784,"lon":5.377158,"is_reserved":false,"is_disabled":false,"rental_uris":{"android":"levelo://app?vid=633e99a4-97e9-4c08-bb87-d8afdd3002ae","ios":"levelo://app?vid=633e99a4-97e9-4c08-bb87-d8afdd3002ae"},"vehicle_type_id":"4","last_reported":1700872401,"current_range_meters":12800,"station_id":"ce4bguh2rcd13ifvqcj0","pricing_plan_id":"free"},{"bike_id":"babfdd7e-6cd2-4e72-8866-ac8539f5db7f","system_id":"levelo_inurba_marseille","lat":43.319973,"lon":5.381605,"is_reserved":false,"is_disabled":false,"rental_uris":{"android":"levelo://app?vid=babfdd7e-6cd2-4e72-8866-ac8539f5db7f","ios":"levelo://app?vid=babfdd7e-6cd2-4e72-8866-ac8539f5db7f"},"vehicle_type_id":"4","last_reported":1700872401,"current_range_meters":0,"station_id":"ce4bhr12rcd13ifvqhpg","pricing_plan_id":"free"},{"bike_id":"7478f726-aab6-4ec5-91c0-888c469769db","system_id":"levelo_inurba_marseille","lat":43.313571,"lon":5.384829,"is_reserved":false,"is_disabled":false,"rental_uris":{"android":"levelo://app?vid=7478f726-aab6-4ec5-91c0-888c469769db","ios":"levelo://app?vid=7478f726-aab6-4ec5-91c0-888c469769db"},"vehicle_type_id":"4","last_reported":1700872401,"current_range_meters":15600,"station_id":"ce4bgt92rcd13ifvqcf0","pricing_plan_id":"free"},{"bike_id":"2ec2ef43-2533-4e19-976c-8232d79e4856","system_id":"levelo_inurba_marseille","lat":43.313571,"lon":5.384829,"is_reserved":false,"is_disabled":false,"rental_uris":{"android":"levelo://app?vid=2ec2ef43-2533-4e19-976c-8232d79e4856","ios":"levelo://app?vid=2ec2ef43-2533-4e19-976c-8232d79e4856"},"vehicle_type_id":"4","last_reported":1700872401,"current_range_meters":13600,"station_id":"ce4bgt92rcd13ifvqcf0","pricing_plan_id":"free"},{"bike_id":"d3044786-2431-4822-96f8-37c5954b4b4c","system_id":"levelo_inurba_marseille","lat":43.322958,"lon":5.378626,"is_reserved":false,"is_disabled":false,"rental_uris":{"android":"levelo://app?vid=d3044786-2431-4822-96f8-37c5954b4b4c","ios":"levelo://app?vid=d3044786-2431-4822-96f8-37c5954b4b4c"},"vehicle_type_id":"4","last_reported":1700872401,"current_range_meters":28800,"station_id":"","pricing_plan_id":"free"},{"bike_id":"3cf7df4e-117c-401f-a50b-b48096222f3f","system_id":"levelo_inurba_marseille","lat":43.299356,"lon":5.3654,"is_reserved":false,"is_disabled":false,"rental_uris":{"android":"levelo://app?vid=3cf7df4e-117c-401f-a50b-b48096222f3f","ios":"levelo://app?vid=3cf7df4e-117c-401f-a50b-b48096222f3f"},"vehicle_type_id":"4","last_reported":1700872401,"current_range_meters":0,"station_id":"ce4bgm92rcd13ifvqbr0","pricing_plan_id":"free"},{"bike_id":"8eccf735-9f13-4d66-89ee-04a7bf59eec2","system_id":"levelo_inurba_marseille","lat":43.320662,"lon":5.383073,"is_reserved":false,"is_disabled":false,"rental_uris":{"android":"levelo://app?vid=8eccf735-9f13-4d66-89ee-04a7bf59eec2","ios":"levelo://app?vid=8eccf735-9f13-4d66-89ee-04a7bf59eec2"},"vehicle_type_id":"4","last_reported":1700872401,"current_range_meters":30000,"station_id":"","pricing_plan_id":"free"},{"bike_id":"799f10c9-81c3-4d79-a9aa-505ce434ae93","system_id":"levelo_inurba_marseille","lat":43.298433,"lon":5.362774,"is_reserved":false,"is_disabled":false,"rental_uris":{"android":"levelo://app?vid=799f10c9-81c3-4d79-a9aa-505ce434ae93","ios":"levelo://app?vid=799f10c9-81c3-4d79-a9aa-505ce434ae93"},"vehicle_type_id":"4","last_reported":1700872401,"current_range_meters":28400,"station_id":"ce4bgpp2rcd13ifvqc3g","pricing_plan_id":"free"},{"bike_id":"8f07817e-a080-4d58-97a9-5778cc231a65","system_id":"levelo_inurba_marseille","lat":43.305364,"lon":5.384119,"is_reserved":false,"is_disabled":false,"rental_uris":{"android":"levelo://app?vid=8f07817e-a080-4d58-97a9-5778cc231a65","ios":"levelo://app?vid=8f07817e-a080-4d58-97a9-5778cc231a65"},"vehicle_type_id":"4","last_reported":1700872401,"current_range_meters":15600,"station_id":"ce4bgg92rcd13ifvqb30","pricing_plan_id":"free"},{"bike_id":"1a40b385-68ba-48d5-a1cb-20965b2f9dc5","system_id":"levelo_inurba_marseille","lat":43.320419,"lon":5.384148,"is_reserved":false,"is_disabled":false,"rental_uris":{"android":"levelo://app?vid=1a40b385-68ba-48d5-a1cb-20965b2f9dc5","ios":"levelo://app?vid=1a40b385-68ba-48d5-a1cb-20965b2f9dc5"},"vehicle_type_id":"4","last_reported":1700872401,"current_range_meters":800,"station_id":"","pricing_plan_id":"free"},{"bike_id":"6a9ddbbf-9b08-4a5b-bcb4-5996bb9aecbe","system_id":"levelo_inurba_marseille","lat":43.311722,"lon":5.387247,"is_reserved":false,"is_disabled":false,"rental_uris":{"android":"levelo://app?vid=6a9ddbbf-9b08-4a5b-bcb4-5996bb9aecbe","ios":"levelo://app?vid=6a9ddbbf-9b08-4a5b-bcb4-5996bb9aecbe"},"vehicle_type_id":"4","last_reported":1700872401,"current_range_meters":27200,"station_id":"ce4bgv12rcd13ifvqcp0","pricing_plan_id":"free"},{"bike_id":"7c93eefc-07fe-4a09-b42f-ee22a5cbe113","system_id":"levelo_inurba_marseille","lat":43.322872,"lon":5.382756,"is_reserved":false,"is_disabled":false,"rental_uris":{"android":"levelo://app?vid=7c93eefc-07fe-4a09-b42f-ee22a5cbe113","ios":"levelo://app?vid=7c93eefc-07fe-4a09-b42f-ee22a5cbe113"},"vehicle_type_id":"4","last_reported":1700872401,"current_range_meters":27200,"station_id":"ce4bhr12rcd13ifvqhqg","pricing_plan_id":"free"},{"bike_id":"57f07daa-f979-41b2-bf81-49ff7a829b2a","system_id":"levelo_inurba_marseille","lat":43.322893,"lon":5.382671,"is_reserved":false,"is_disabled":false,"rental_uris":{"android":"levelo://app?vid=57f07daa-f979-41b2-bf81-49ff7a829b2a","ios":"levelo://app?vid=57f07daa-f979-41b2-bf81-49ff7a829b2a"},"vehicle_type_id":"4","last_reported":1700872401,"current_range_meters":30400,"station_id":"ce4bhr12rcd13ifvqhqg","pricing_plan_id":"free"},{"bike_id":"f9ce9c3f-5ce0-442f-986c-f1a94ddddd6a","system_id":"levelo_inurba_marseille","lat":43.322872,"lon":5.382756,"is_reserved":false,"is_disabled":false,"rental_uris":{"android":"levelo://app?vid=f9ce9c3f-5ce0-442f-986c-f1a94ddddd6a","ios":"levelo://app?vid=f9ce9c3f-5ce0-442f-986c-f1a94ddddd6a"},"vehicle_type_id":"4","last_reported":1700872401,"current_range_meters":31200,"station_id":"ce4bhr12rcd13ifvqhqg","pricing_plan_id":"free"},{"bike_id":"f8736720-e966-45a6-a671-1e9c1c844291","system_id":"levelo_inurba_marseille","lat":43.322872,"lon":5.382756,"is_reserved":false,"is_disabled":false,"rental_uris":{"android":"levelo://app?vid=f8736720-e966-45a6-a671-1e9c1c844291","ios":"levelo://app?vid=f8736720-e966-45a6-a671-1e9c1c844291"},"vehicle_type_id":"4","last_reported":1700872401,"current_range_meters":25600,"station_id":"ce4bhr12rcd13ifvqhqg","pricing_plan_id":"free"},{"bike_id":"4625bec6-4af3-44cb-8699-3acd72afd201","system_id":"levelo_inurba_marseille","lat":43.322872,"lon":5.382756,"is_reserved":false,"is_disabled":false,"rental_uris":{"android":"levelo://app?vid=4625bec6-4af3-44cb-8699-3acd72afd201","ios":"levelo://app?vid=4625bec6-4af3-44cb-8699-3acd72afd201"},"vehicle_type_id":"4","last_reported":1700872401,"current_range_meters":22800,"station_id":"ce4bhr12rcd13ifvqhqg","pricing_plan_id":"free"},{"bike_id":"1a43851e-90fe-4bd3-bf83-8e67c213fe9f","system_id":"levelo_inurba_marseille","lat":43.322872,"lon":5.382756,"is_reserved":false,"is_disabled":false,"rental_uris":{"android":"levelo://app?vid=1a43851e-90fe-4bd3-bf83-8e67c213fe9f","ios":"levelo://app?vid=1a43851e-90fe-4bd3-bf83-8e67c213fe9f"},"vehicle_type_id":"4","last_reported":1700872401,"current_range_meters":29200,"station_id":"ce4bhr12rcd13ifvqhqg","pricing_plan_id":"free"},{"bike_id":"a36123d0-b313-4c4b-8aaf-e729cefc59b8","system_id":"levelo_inurba_marseille","lat":43.297163,"lon":5.365866,"is_reserved":false,"is_disabled":false,"rental_uris":{"android":"levelo://app?vid=a36123d0-b313-4c4b-8aaf-e729cefc59b8","ios":"levelo://app?vid=a36123d0-b313-4c4b-8aaf-e729cefc59b8"},"vehicle_type_id":"4","last_reported":1700872401,"current_range_meters":6800,"station_id":"ce4bgn12rcd13ifvqbt0","pricing_plan_id":"free"},{"bike_id":"e275a45c-bfaf-4d19-897d-782d652e5c0c","system_id":"levelo_inurba_marseille","lat":43.328371,"lon":5.366909,"is_reserved":false,"is_disabled":false,"rental_uris":{"android":"levelo://app?vid=e275a45c-bfaf-4d19-897d-782d652e5c0c","ios":"levelo://app?vid=e275a45c-bfaf-4d19-897d-782d652e5c0c"},"vehicle_type_id":"4","last_reported":1700872401,"current_range_meters":19200,"station_id":"ce4bhs92rcd13ifvqi0g","pricing_plan_id":"free"},{"bike_id":"4d7509f5-9559-42ca-a60d-bef9e80f0981","system_id":"levelo_inurba_marseille","lat":43.2996,"lon":5.37917,"is_reserved":false,"is_disabled":false,"rental_uris":{"android":"levelo://app?vid=4d7509f5-9559-42ca-a60d-bef9e80f0981","ios":"levelo://app?vid=4d7509f5-9559-42ca-a60d-bef9e80f0981"},"vehicle_type_id":"4","last_reported":1700872401,"current_range_meters":0,"station_id":"","pricing_plan_id":"free"},{"bike_id":"c5c85326-a4e1-41b4-baf7-8eb6cc6d22fc","system_id":"levelo_inurba_marseille","lat":43.29573,"lon":5.367355,"is_reserved":false,"is_disabled":false,"rental_uris":{"android":"levelo://app?vid=c5c85326-a4e1-41b4-baf7-8eb6cc6d22fc","ios":"levelo://app?vid=c5c85326-a4e1-41b4-baf7-8eb6cc6d22fc"},"vehicle_type_id":"4","last_reported":1700872401,"current_range_meters":25200,"station_id":"ce4bgph2rcd13ifvqc2g","pricing_plan_id":"free"},{"bike_id":"656459cf-498f-49a1-bb2c-2df4545f7de5","system_id":"levelo_inurba_marseille","lat":43.31756,"lon":5.39019,"is_reserved":false,"is_disabled":false,"rental_uris":{"android":"levelo://app?vid=656459cf-498f-49a1-bb2c-2df4545f7de5","ios":"levelo://app?vid=656459cf-498f-49a1-bb2c-2df4545f7de5"},"vehicle_type_id":"4","last_reported":1700872401,"current_range_meters":26800,"station_id":"ce4bhqp2rcd13ifvqhng","pricing_plan_id":"free"},{"bike_id":"2024f774-34b3-4e02-9340-e65046d53f69","system_id":"levelo_inurba_marseille","lat":43.304274,"lon":5.388873,"is_reserved":false,"is_disabled":false,"rental_uris":{"android":"levelo://app?vid=2024f774-34b3-4e02-9340-e65046d53f69","ios":"levelo://app?vid=2024f774-34b3-4e02-9340-e65046d53f69"},"vehicle_type_id":"4","last_reported":1700872401,"current_range_meters":5600,"station_id":"ce4bgk12rcd13ifvqbi0","pricing_plan_id":"free"},{"bike_id":"0f6eec71-1881-4c15-bb63-132f4a546340","system_id":"levelo_inurba_marseille","lat":43.304274,"lon":5.388873,"is_reserved":false,"is_disabled":false,"rental_uris":{"android":"levelo://app?vid=0f6eec71-1881-4c15-bb63-132f4a546340","ios":"levelo://app?vid=0f6eec71-1881-4c15-bb63-132f4a546340"},"vehicle_type_id":"4","last_reported":1700872401,"current_range_meters":28000,"station_id":"ce4bgk12rcd13ifvqbi0","pricing_plan_id":"free"},{"bike_id":"2c2c2815-cd1c-4dbf-8571-fcbd41d21856","system_id":"levelo_inurba_marseille","lat":43.299724,"lon":5.384848,"is_reserved":false,"is_disabled":false,"rental_uris":{"android":"levelo://app?vid=2c2c2815-cd1c-4dbf-8571-fcbd41d21856","ios":"levelo://app?vid=2c2c2815-cd1c-4dbf-8571-fcbd41d21856"},"vehicle_type_id":"4","last_reported":1700872401,"current_range_meters":10400,"station_id":"ce4bgj92rcd13ifvqbd0","pricing_plan_id":"free"},{"bike_id":"ff822368-00cb-4dfa-8697-959628b6f270","system_id":"levelo_inurba_marseille","lat":43.330386,"lon":5.358926,"is_reserved":false,"is_disabled":false,"rental_uris":{"android":"levelo://app?vid=ff822368-00cb-4dfa-8697-959628b6f270","ios":"levelo://app?vid=ff822368-00cb-4dfa-8697-959628b6f270"},"vehicle_type_id":"4","last_reported":1700872401,"current_range_meters":19600,"station_id":"","pricing_plan_id":"free"},{"bike_id":"6b621983-5e9e-42f7-990d-ad5a093820d2","system_id":"levelo_inurba_marseille","lat":43.293801,"lon":5.363066,"is_reserved":false,"is_disabled":false,"rental_uris":{"android":"levelo://app?vid=6b621983-5e9e-42f7-990d-ad5a093820d2","ios":"levelo://app?vid=6b621983-5e9e-42f7-990d-ad5a093820d2"},"vehicle_type_id":"4","last_reported":1700872401,"current_range_meters":2800,"station_id":"","pricing_plan_id":"free"},{"bike_id":"3579b072-efa9-4e62-b324-30ad6abef829","system_id":"levelo_inurba_marseille","lat":43.32368,"lon":5.38886,"is_reserved":false,"is_disabled":false,"rental_uris":{"android":"levelo://app?vid=3579b072-efa9-4e62-b324-30ad6abef829","ios":"levelo://app?vid=3579b072-efa9-4e62-b324-30ad6abef829"},"vehicle_type_id":"4","last_reported":1700872401,"current_range_meters":25200,"station_id":"ce4bhqp2rcd13ifvqhog","pricing_plan_id":"free"},{"bike_id":"9d649035-4d17-42d5-9b01-441530544f5e","system_id":"levelo_inurba_marseille","lat":43.323669,"lon":5.388914,"is_reserved":false,"is_disabled":false,"rental_uris":{"android":"levelo://app?vid=9d649035-4d17-42d5-9b01-441530544f5e","ios":"levelo://app?vid=9d649035-4d17-42d5-9b01-441530544f5e"},"vehicle_type_id":"4","last_reported":1700872401,"current_range_meters":400,"station_id":"ce4bhqp2rcd13ifvqhog","pricing_plan_id":"free"},{"bike_id":"a7f24806-682d-4225-90b6-b58e1746348c","system_id":"levelo_inurba_marseille","lat":43.293009,"lon":5.374584,"is_reserved":false,"is_disabled":false,"rental_uris":{"android":"levelo://app?vid=a7f24806-682d-4225-90b6-b58e1746348c","ios":"levelo://app?vid=a7f24806-682d-4225-90b6-b58e1746348c"},"vehicle_type_id":"4","last_reported":1700872401,"current_range_meters":16800,"station_id":"ce4bgi12rcd13ifvqb70","pricing_plan_id":"free"},{"bike_id":"178eb7c0-6a62-4bf1-a56f-a82d0e477eba","system_id":"levelo_inurba_marseille","lat":43.333667,"lon":5.360114,"is_reserved":false,"is_disabled":false,"rental_uris":{"android":"levelo://app?vid=178eb7c0-6a62-4bf1-a56f-a82d0e477eba","ios":"levelo://app?vid=178eb7c0-6a62-4bf1-a56f-a82d0e477eba"},"vehicle_type_id":"4","last_reported":1700872401,"current_range_meters":2800,"station_id":"","pricing_plan_id":"free"},{"bike_id":"c73c2b81-1b99-47b3-bec7-be3ac005e3c7","system_id":"levelo_inurba_marseille","lat":43.309038,"lon":5.396546,"is_reserved":false,"is_disabled":false,"rental_uris":{"android":"levelo://app?vid=c73c2b81-1b99-47b3-bec7-be3ac005e3c7","ios":"levelo://app?vid=c73c2b81-1b99-47b3-bec7-be3ac005e3c7"},"vehicle_type_id":"4","last_reported":1700872401,"current_range_meters":31600,"station_id":"ce4bh012rcd13ifvqcv0","pricing_plan_id":"free"},{"bike_id":"89a6db06-8845-432e-acf9-59e6d0497d33","system_id":"levelo_inurba_marseille","lat":43.31326,"lon":5.39687,"is_reserved":false,"is_disabled":false,"rental_uris":{"android":"levelo://app?vid=89a6db06-8845-432e-acf9-59e6d0497d33","ios":"levelo://app?vid=89a6db06-8845-432e-acf9-59e6d0497d33"},"vehicle_type_id":"4","last_reported":1700872401,"current_range_meters":18800,"station_id":"ce4bgvp2rcd13ifvqcu0","pricing_plan_id":"free"},{"bike_id":"7cd9be1a-99b0-41ae-9072-ad1706b74100","system_id":"levelo_inurba_marseille","lat":43.309038,"lon":5.396546,"is_reserved":false,"is_disabled":false,"rental_uris":{"android":"levelo://app?vid=7cd9be1a-99b0-41ae-9072-ad1706b74100","ios":"levelo://app?vid=7cd9be1a-99b0-41ae-9072-ad1706b74100"},"vehicle_type_id":"4","last_reported":1700872401,"current_range_meters":18000,"station_id":"ce4bh012rcd13ifvqcv0","pricing_plan_id":"free"},{"bike_id":"0e273f49-cb6d-4052-9db1-925f19221155","system_id":"levelo_inurba_marseille","lat":43.309038,"lon":5.396546,"is_reserved":false,"is_disabled":false,"rental_uris":{"android":"levelo://app?vid=0e273f49-cb6d-4052-9db1-925f19221155","ios":"levelo://app?vid=0e273f49-cb6d-4052-9db1-925f19221155"},"vehicle_type_id":"4","last_reported":1700872401,"current_range_meters":25200,"station_id":"ce4bh012rcd13ifvqcv0","pricing_plan_id":"free"},{"bike_id":"cb35b119-84c1-485c-aba0-a69f99cf82cb","system_id":"levelo_inurba_marseille","lat":43.309047,"lon":5.396551,"is_reserved":false,"is_disabled":false,"rental_uris":{"android":"levelo://app?vid=cb35b119-84c1-485c-aba0-a69f99cf82cb","ios":"levelo://app?vid=cb35b119-84c1-485c-aba0-a69f99cf82cb"},"vehicle_type_id":"4","last_reported":1700872401,"current_range_meters":25600,"station_id":"ce4bh012rcd13ifvqcv0","pricing_plan_id":"free"},{"bike_id":"811b560c-73ad-4229-94e8-f200ecb55f0b","system_id":"levelo_inurba_marseille","lat":43.31327,"lon":5.39693,"is_reserved":false,"is_disabled":false,"rental_uris":{"android":"levelo://app?vid=811b560c-73ad-4229-94e8-f200ecb55f0b","ios":"levelo://app?vid=811b560c-73ad-4229-94e8-f200ecb55f0b"},"vehicle_type_id":"4","last_reported":1700872401,"current_range_meters":16800,"station_id":"ce4bgvp2rcd13ifvqcu0","pricing_plan_id":"free"},{"bike_id":"08e318de-e6be-4d92-bb43-f34e2aee1130","system_id":"levelo_inurba_marseille","lat":43.313267,"lon":5.396937,"is_reserved":false,"is_disabled":false,"rental_uris":{"android":"levelo://app?vid=08e318de-e6be-4d92-bb43-f34e2aee1130","ios":"levelo://app?vid=08e318de-e6be-4d92-bb43-f34e2aee1130"},"vehicle_type_id":"4","last_reported":1700872401,"current_range_meters":27600,"station_id":"ce4bgvp2rcd13ifvqcu0","pricing_plan_id":"free"},{"bike_id":"e97ef889-44b1-4212-985b-61b517c97417","system_id":"levelo_inurba_marseille","lat":43.309038,"lon":5.396546,"is_reserved":false,"is_disabled":false,"rental_uris":{"android":"levelo://app?vid=e97ef889-44b1-4212-985b-61b517c97417","ios":"levelo://app?vid=e97ef889-44b1-4212-985b-61b517c97417"},"vehicle_type_id":"4","last_reported":1700872401,"current_range_meters":8000,"station_id":"ce4bh012rcd13ifvqcv0","pricing_plan_id":"free"},{"bike_id":"6e82d0f5-eb7f-4cea-81d4-b337539bfcee","system_id":"levelo_inurba_marseille","lat":43.31325,"lon":5.39699,"is_reserved":false,"is_disabled":false,"rental_uris":{"android":"levelo://app?vid=6e82d0f5-eb7f-4cea-81d4-b337539bfcee","ios":"levelo://app?vid=6e82d0f5-eb7f-4cea-81d4-b337539bfcee"},"vehicle_type_id":"4","last_reported":1700872401,"current_range_meters":26400,"station_id":"ce4bgvp2rcd13ifvqcu0","pricing_plan_id":"free"},{"bike_id":"1d10a1b1-d55f-4279-928a-9c6858f32ca9","system_id":"levelo_inurba_marseille","lat":43.33211,"lon":5.38112,"is_reserved":false,"is_disabled":false,"rental_uris":{"android":"levelo://app?vid=1d10a1b1-d55f-4279-928a-9c6858f32ca9","ios":"levelo://app?vid=1d10a1b1-d55f-4279-928a-9c6858f32ca9"},"vehicle_type_id":"4","last_reported":1700872401,"current_range_meters":0,"station_id":"","pricing_plan_id":"free"},{"bike_id":"357a9025-63f3-4548-a8bb-88ee099638ad","system_id":"levelo_inurba_marseille","lat":43.29529,"lon":5.385581,"is_reserved":false,"is_disabled":false,"rental_uris":{"android":"levelo://app?vid=357a9025-63f3-4548-a8bb-88ee099638ad","ios":"levelo://app?vid=357a9025-63f3-4548-a8bb-88ee099638ad"},"vehicle_type_id":"4","last_reported":1700872401,"current_range_meters":11200,"station_id":"ce4bgih2rcd13ifvqba0","pricing_plan_id":"free"},{"bike_id":"5dc5b317-d2d3-44bf-8e39-239901a33e7d","system_id":"levelo_inurba_marseille","lat":43.29529,"lon":5.385581,"is_reserved":false,"is_disabled":false,"rental_uris":{"android":"levelo://app?vid=5dc5b317-d2d3-44bf-8e39-239901a33e7d","ios":"levelo://app?vid=5dc5b317-d2d3-44bf-8e39-239901a33e7d"},"vehicle_type_id":"4","last_reported":1700872401,"current_range_meters":22000,"station_id":"ce4bgih2rcd13ifvqba0","pricing_plan_id":"free"},{"bike_id":"43cdf951-3b65-4a63-ac1d-646ed0436392","system_id":"levelo_inurba_marseille","lat":43.290035,"lon":5.371755,"is_reserved":false,"is_disabled":false,"rental_uris":{"android":"levelo://app?vid=43cdf951-3b65-4a63-ac1d-646ed0436392","ios":"levelo://app?vid=43cdf951-3b65-4a63-ac1d-646ed0436392"},"vehicle_type_id":"4","last_reported":1700872401,"current_range_meters":26800,"station_id":"","pricing_plan_id":"free"},{"bike_id":"090522e0-5a42-4837-a096-ee2dd3dcbd1d","system_id":"levelo_inurba_marseille","lat":43.290624,"lon":5.359245,"is_reserved":false,"is_disabled":false,"rental_uris":{"android":"levelo://app?vid=090522e0-5a42-4837-a096-ee2dd3dcbd1d","ios":"levelo://app?vid=090522e0-5a42-4837-a096-ee2dd3dcbd1d"},"vehicle_type_id":"4","last_reported":1700872401,"current_range_meters":7600,"station_id":"ce4bha92rcd13ifvqeg0","pricing_plan_id":"free"},{"bike_id":"dd05b885-84b5-4014-ac84-54d2da3e1e34","system_id":"levelo_inurba_marseille","lat":43.294153,"lon":5.386305,"is_reserved":false,"is_disabled":false,"rental_uris":{"android":"levelo://app?vid=dd05b885-84b5-4014-ac84-54d2da3e1e34","ios":"levelo://app?vid=dd05b885-84b5-4014-ac84-54d2da3e1e34"},"vehicle_type_id":"4","last_reported":1700872401,"current_range_meters":26400,"station_id":"ce4bh2h2rcd13ifvqdh0","pricing_plan_id":"free"},{"bike_id":"95134bcf-37df-4b0c-83f9-6d5b8451487c","system_id":"levelo_inurba_marseille","lat":43.304274,"lon":5.397513,"is_reserved":false,"is_disabled":false,"rental_uris":{"android":"levelo://app?vid=95134bcf-37df-4b0c-83f9-6d5b8451487c","ios":"levelo://app?vid=95134bcf-37df-4b0c-83f9-6d5b8451487c"},"vehicle_type_id":"4","last_reported":1700872401,"current_range_meters":10000,"station_id":"ce4bh092rcd13ifvqd20","pricing_plan_id":"free"},{"bike_id":"6ea582cf-9ad8-4b0b-87e7-addca810ad20","system_id":"levelo_inurba_marseille","lat":43.290995,"lon":5.381361,"is_reserved":false,"is_disabled":false,"rental_uris":{"android":"levelo://app?vid=6ea582cf-9ad8-4b0b-87e7-addca810ad20","ios":"levelo://app?vid=6ea582cf-9ad8-4b0b-87e7-addca810ad20"},"vehicle_type_id":"4","last_reported":1700872401,"current_range_meters":26400,"station_id":"ce4bh512rcd13ifvqe2g","pricing_plan_id":"free"},{"bike_id":"e2dde836-1f7f-4eff-a87b-4f84d0ac896f","system_id":"levelo_inurba_marseille","lat":43.297912,"lon":5.39339,"is_reserved":false,"is_disabled":false,"rental_uris":{"android":"levelo://app?vid=e2dde836-1f7f-4eff-a87b-4f84d0ac896f","ios":"levelo://app?vid=e2dde836-1f7f-4eff-a87b-4f84d0ac896f"},"vehicle_type_id":"4","last_reported":1700872401,"current_range_meters":17600,"station_id":"chh1huq6cuj3fo74tm60","pricing_plan_id":"free"},{"bike_id":"2040c377-0452-429d-a9dc-5c5f9194392c","system_id":"levelo_inurba_marseille","lat":43.297815,"lon":5.393548,"is_reserved":false,"is_disabled":false,"rental_uris":{"android":"levelo://app?vid=2040c377-0452-429d-a9dc-5c5f9194392c","ios":"levelo://app?vid=2040c377-0452-429d-a9dc-5c5f9194392c"},"vehicle_type_id":"4","last_reported":1700872401,"current_range_meters":30400,"station_id":"chh1huq6cuj3fo74tm60","pricing_plan_id":"free"},{"bike_id":"71fa0b4e-173c-44e5-aa88-9cf57f55f04e","system_id":"levelo_inurba_marseille","lat":43.295169,"lon":5.390426,"is_reserved":false,"is_disabled":false,"rental_uris":{"android":"levelo://app?vid=71fa0b4e-173c-44e5-aa88-9cf57f55f04e","ios":"levelo://app?vid=71fa0b4e-173c-44e5-aa88-9cf57f55f04e"},"vehicle_type_id":"4","last_reported":1700872401,"current_range_meters":21200,"station_id":"ce4bh3p2rcd13ifvqdp0","pricing_plan_id":"free"},{"bike_id":"4ecbefc9-0598-4481-bf3e-6dcf06fad11b","system_id":"levelo_inurba_marseille","lat":43.28856,"lon":5.358371,"is_reserved":false,"is_disabled":false,"rental_uris":{"android":"levelo://app?vid=4ecbefc9-0598-4481-bf3e-6dcf06fad11b","ios":"levelo://app?vid=4ecbefc9-0598-4481-bf3e-6dcf06fad11b"},"vehicle_type_id":"4","last_reported":1700872401,"current_range_meters":27600,"station_id":"ce4bhb12rcd13ifvqem0","pricing_plan_id":"free"},{"bike_id":"975a11ba-4bd5-48fe-8919-652c2e785d23","system_id":"levelo_inurba_marseille","lat":43.28856,"lon":5.358371,"is_reserved":false,"is_disabled":false,"rental_uris":{"android":"levelo://app?vid=975a11ba-4bd5-48fe-8919-652c2e785d23","ios":"levelo://app?vid=975a11ba-4bd5-48fe-8919-652c2e785d23"},"vehicle_type_id":"4","last_reported":1700872401,"current_range_meters":26400,"station_id":"ce4bhb12rcd13ifvqem0","pricing_plan_id":"free"},{"bike_id":"63930bac-dba8-4359-a8d1-182651ab01d7","system_id":"levelo_inurba_marseille","lat":43.31282,"lon":5.40164,"is_reserved":false,"is_disabled":false,"rental_uris":{"android":"levelo://app?vid=63930bac-dba8-4359-a8d1-182651ab01d7","ios":"levelo://app?vid=63930bac-dba8-4359-a8d1-182651ab01d7"},"vehicle_type_id":"4","last_reported":1700872401,"current_range_meters":12000,"station_id":"ce4bh092rcd13ifvqd30","pricing_plan_id":"free"},{"bike_id":"fdd2553e-5305-46cf-aef1-ceebf924bbf7","system_id":"levelo_inurba_marseille","lat":43.31269,"lon":5.40168,"is_reserved":false,"is_disabled":false,"rental_uris":{"android":"levelo://app?vid=fdd2553e-5305-46cf-aef1-ceebf924bbf7","ios":"levelo://app?vid=fdd2553e-5305-46cf-aef1-ceebf924bbf7"},"vehicle_type_id":"4","last_reported":1700872401,"current_range_meters":8000,"station_id":"ce4bh092rcd13ifvqd30","pricing_plan_id":"free"},{"bike_id":"6d3380cd-34a6-405f-9e14-9dfad01eb06b","system_id":"levelo_inurba_marseille","lat":43.312609,"lon":5.401662,"is_reserved":false,"is_disabled":false,"rental_uris":{"android":"levelo://app?vid=6d3380cd-34a6-405f-9e14-9dfad01eb06b","ios":"levelo://app?vid=6d3380cd-34a6-405f-9e14-9dfad01eb06b"},"vehicle_type_id":"4","last_reported":1700872401,"current_range_meters":28400,"station_id":"ce4bh092rcd13ifvqd30","pricing_plan_id":"free"},{"bike_id":"f72598aa-bd37-4e8a-9aec-45e2ac53dc28","system_id":"levelo_inurba_marseille","lat":43.306412,"lon":5.401035,"is_reserved":false,"is_disabled":false,"rental_uris":{"android":"levelo://app?vid=f72598aa-bd37-4e8a-9aec-45e2ac53dc28","ios":"levelo://app?vid=f72598aa-bd37-4e8a-9aec-45e2ac53dc28"},"vehicle_type_id":"4","last_reported":1700872401,"current_range_meters":30800,"station_id":"ce4bh112rcd13ifvqda0","pricing_plan_id":"free"},{"bike_id":"f4612c04-428a-4912-b783-c6c7aa4a86a8","system_id":"levelo_inurba_marseille","lat":43.309315,"lon":5.401448,"is_reserved":false,"is_disabled":false,"rental_uris":{"android":"levelo://app?vid=f4612c04-428a-4912-b783-c6c7aa4a86a8","ios":"levelo://app?vid=f4612c04-428a-4912-b783-c6c7aa4a86a8"},"vehicle_type_id":"4","last_reported":1700872401,"current_range_meters":0,"station_id":"ce4bgvp2rcd13ifvqct0","pricing_plan_id":"free"},{"bike_id":"c3a2007a-719d-4ce9-80fc-5a60d97e4877","system_id":"levelo_inurba_marseille","lat":43.309371,"lon":5.401449,"is_reserved":false,"is_disabled":false,"rental_uris":{"android":"levelo://app?vid=c3a2007a-719d-4ce9-80fc-5a60d97e4877","ios":"levelo://app?vid=c3a2007a-719d-4ce9-80fc-5a60d97e4877"},"vehicle_type_id":"4","last_reported":1700872401,"current_range_meters":3200,"station_id":"ce4bgvp2rcd13ifvqct0","pricing_plan_id":"free"},{"bike_id":"892704f3-1d77-4404-9d73-158b8203f713","system_id":"levelo_inurba_marseille","lat":43.306412,"lon":5.401035,"is_reserved":false,"is_disabled":false,"rental_uris":{"android":"levelo://app?vid=892704f3-1d77-4404-9d73-158b8203f713","ios":"levelo://app?vid=892704f3-1d77-4404-9d73-158b8203f713"},"vehicle_type_id":"4","last_reported":1700872401,"current_range_meters":28400,"station_id":"ce4bh112rcd13ifvqda0","pricing_plan_id":"free"},{"bike_id":"6ebf7f46-15ee-4bf6-a076-b183e2921d50","system_id":"levelo_inurba_marseille","lat":43.306412,"lon":5.401035,"is_reserved":false,"is_disabled":false,"rental_uris":{"android":"levelo://app?vid=6ebf7f46-15ee-4bf6-a076-b183e2921d50","ios":"levelo://app?vid=6ebf7f46-15ee-4bf6-a076-b183e2921d50"},"vehicle_type_id":"4","last_reported":1700872401,"current_range_meters":30800,"station_id":"ce4bh112rcd13ifvqda0","pricing_plan_id":"free"},{"bike_id":"ee423ce3-71ae-4efb-995d-eff80d13b971","system_id":"levelo_inurba_marseille","lat":43.30642,"lon":5.401031,"is_reserved":false,"is_disabled":false,"rental_uris":{"android":"levelo://app?vid=ee423ce3-71ae-4efb-995d-eff80d13b971","ios":"levelo://app?vid=ee423ce3-71ae-4efb-995d-eff80d13b971"},"vehicle_type_id":"4","last_reported":1700872401,"current_range_meters":3600,"station_id":"ce4bh112rcd13ifvqda0","pricing_plan_id":"free"},{"bike_id":"b0e1ae2e-f687-455b-b9f2-a5109c6d8978","system_id":"levelo_inurba_marseille","lat":43.30642,"lon":5.401031,"is_reserved":false,"is_disabled":false,"rental_uris":{"android":"levelo://app?vid=b0e1ae2e-f687-455b-b9f2-a5109c6d8978","ios":"levelo://app?vid=b0e1ae2e-f687-455b-b9f2-a5109c6d8978"},"vehicle_type_id":"4","last_reported":1700872401,"current_range_meters":14000,"station_id":"ce4bh112rcd13ifvqda0","pricing_plan_id":"free"},{"bike_id":"c4008481-6112-4635-b194-937a47e49174","system_id":"levelo_inurba_marseille","lat":43.301117,"lon":5.398795,"is_reserved":false,"is_disabled":false,"rental_uris":{"android":"levelo://app?vid=c4008481-6112-4635-b194-937a47e49174","ios":"levelo://app?vid=c4008481-6112-4635-b194-937a47e49174"},"vehicle_type_id":"4","last_reported":1700872401,"current_range_meters":2800,"station_id":"ce4bh0h2rcd13ifvqd40","pricing_plan_id":"free"},{"bike_id":"ed3f905f-4c4a-41fb-98a0-1b9d048491fb","system_id":"levelo_inurba_marseille","lat":43.28727,"lon":5.36078,"is_reserved":false,"is_disabled":false,"rental_uris":{"android":"levelo://app?vid=ed3f905f-4c4a-41fb-98a0-1b9d048491fb","ios":"levelo://app?vid=ed3f905f-4c4a-41fb-98a0-1b9d048491fb"},"vehicle_type_id":"4","last_reported":1700872401,"current_range_meters":18000,"station_id":"cki0cbj6b192h4jlfktg","pricing_plan_id":"free"},{"bike_id":"35048064-54e9-44b1-b850-ffc1a2d58da8","system_id":"levelo_inurba_marseille","lat":43.286961,"lon":5.373785,"is_reserved":false,"is_disabled":false,"rental_uris":{"android":"levelo://app?vid=35048064-54e9-44b1-b850-ffc1a2d58da8","ios":"levelo://app?vid=35048064-54e9-44b1-b850-ffc1a2d58da8"},"vehicle_type_id":"4","last_reported":1700872401,"current_range_meters":28400,"station_id":"ce4bh3p2rcd13ifvqdq0","pricing_plan_id":"free"},{"bike_id":"bd5d7eaf-004d-4125-93e5-c4c6035b0a9a","system_id":"levelo_inurba_marseille","lat":43.286961,"lon":5.373785,"is_reserved":false,"is_disabled":false,"rental_uris":{"android":"levelo://app?vid=bd5d7eaf-004d-4125-93e5-c4c6035b0a9a","ios":"levelo://app?vid=bd5d7eaf-004d-4125-93e5-c4c6035b0a9a"},"vehicle_type_id":"4","last_reported":1700872401,"current_range_meters":30000,"station_id":"ce4bh3p2rcd13ifvqdq0","pricing_plan_id":"free"},{"bike_id":"f0dd7707-ba88-4235-91e6-a42a6d1a0c9c","system_id":"levelo_inurba_marseille","lat":43.286591,"lon":5.363346,"is_reserved":false,"is_disabled":false,"rental_uris":{"android":"levelo://app?vid=f0dd7707-ba88-4235-91e6-a42a6d1a0c9c","ios":"levelo://app?vid=f0dd7707-ba88-4235-91e6-a42a6d1a0c9c"},"vehicle_type_id":"4","last_reported":1700872401,"current_range_meters":26800,"station_id":"ce4bhah2rcd13ifvqej0","pricing_plan_id":"free"},{"bike_id":"bfb9a0d7-285a-45b7-bc40-c9bb4154e619","system_id":"levelo_inurba_marseille","lat":43.286591,"lon":5.363346,"is_reserved":false,"is_disabled":false,"rental_uris":{"android":"levelo://app?vid=bfb9a0d7-285a-45b7-bc40-c9bb4154e619","ios":"levelo://app?vid=bfb9a0d7-285a-45b7-bc40-c9bb4154e619"},"vehicle_type_id":"4","last_reported":1700872401,"current_range_meters":27200,"station_id":"ce4bhah2rcd13ifvqej0","pricing_plan_id":"free"},{"bike_id":"32ed9e5d-0cf1-4c97-b8e7-e7f561ea0de7","system_id":"levelo_inurba_marseille","lat":43.286593,"lon":5.363346,"is_reserved":false,"is_disabled":false,"rental_uris":{"android":"levelo://app?vid=32ed9e5d-0cf1-4c97-b8e7-e7f561ea0de7","ios":"levelo://app?vid=32ed9e5d-0cf1-4c97-b8e7-e7f561ea0de7"},"vehicle_type_id":"4","last_reported":1700872401,"current_range_meters":28400,"station_id":"ce4bhah2rcd13ifvqej0","pricing_plan_id":"free"},{"bike_id":"75039ee5-be5f-42b4-a931-d35b3abfac15","system_id":"levelo_inurba_marseille","lat":43.289307,"lon":5.38406,"is_reserved":false,"is_disabled":false,"rental_uris":{"android":"levelo://app?vid=75039ee5-be5f-42b4-a931-d35b3abfac15","ios":"levelo://app?vid=75039ee5-be5f-42b4-a931-d35b3abfac15"},"vehicle_type_id":"4","last_reported":1700872401,"current_range_meters":2800,"station_id":"ce4bh612rcd13ifvqe6g","pricing_plan_id":"free"},{"bike_id":"971f4ae8-210a-4d27-8290-41c7eb3365d3","system_id":"levelo_inurba_marseille","lat":43.302759,"lon":5.400793,"is_reserved":false,"is_disabled":false,"rental_uris":{"android":"levelo://app?vid=971f4ae8-210a-4d27-8290-41c7eb3365d3","ios":"levelo://app?vid=971f4ae8-210a-4d27-8290-41c7eb3365d3"},"vehicle_type_id":"4","last_reported":1700872401,"current_range_meters":28800,"station_id":"ce4bgvh2rcd13ifvqcs0","pricing_plan_id":"free"},{"bike_id":"a114aae6-8ceb-4886-b20a-6780de28c969","system_id":"levelo_inurba_marseille","lat":43.286039,"lon":5.370679,"is_reserved":false,"is_disabled":false,"rental_uris":{"android":"levelo://app?vid=a114aae6-8ceb-4886-b20a-6780de28c969","ios":"levelo://app?vid=a114aae6-8ceb-4886-b20a-6780de28c969"},"vehicle_type_id":"4","last_reported":1700872401,"current_range_meters":26800,"station_id":"ce4bht12rcd13ifvqi60","pricing_plan_id":"free"},{"bike_id":"d66661ef-927c-4424-b8ae-7c5428195326","system_id":"levelo_inurba_marseille","lat":43.291994,"lon":5.392907,"is_reserved":false,"is_disabled":false,"rental_uris":{"android":"levelo://app?vid=d66661ef-927c-4424-b8ae-7c5428195326","ios":"levelo://app?vid=d66661ef-927c-4424-b8ae-7c5428195326"},"vehicle_type_id":"4","last_reported":1700872401,"current_range_meters":12800,"station_id":"ce4bh192rcd13ifvqdd0","pricing_plan_id":"free"},{"bike_id":"ee4891d5-a13a-49e9-80b2-724d3220b9c2","system_id":"levelo_inurba_marseille","lat":43.28467,"lon":5.35889,"is_reserved":false,"is_disabled":false,"rental_uris":{"android":"levelo://app?vid=ee4891d5-a13a-49e9-80b2-724d3220b9c2","ios":"levelo://app?vid=ee4891d5-a13a-49e9-80b2-724d3220b9c2"},"vehicle_type_id":"4","last_reported":1700872401,"current_range_meters":22400,"station_id":"ce4bhah2rcd13ifvqei0","pricing_plan_id":"free"},{"bike_id":"bec460e9-8bd7-4de2-b033-6f6fc15d3b46","system_id":"levelo_inurba_marseille","lat":43.28466,"lon":5.35894,"is_reserved":false,"is_disabled":false,"rental_uris":{"android":"levelo://app?vid=bec460e9-8bd7-4de2-b033-6f6fc15d3b46","ios":"levelo://app?vid=bec460e9-8bd7-4de2-b033-6f6fc15d3b46"},"vehicle_type_id":"4","last_reported":1700872401,"current_range_meters":7200,"station_id":"ce4bhah2rcd13ifvqei0","pricing_plan_id":"free"},{"bike_id":"bd7806b1-cdf2-4a1e-b5e0-df163e1f8f4c","system_id":"levelo_inurba_marseille","lat":43.28466,"lon":5.35892,"is_reserved":false,"is_disabled":false,"rental_uris":{"android":"levelo://app?vid=bd7806b1-cdf2-4a1e-b5e0-df163e1f8f4c","ios":"levelo://app?vid=bd7806b1-cdf2-4a1e-b5e0-df163e1f8f4c"},"vehicle_type_id":"4","last_reported":1700872401,"current_range_meters":22800,"station_id":"ce4bhah2rcd13ifvqei0","pricing_plan_id":"free"},{"bike_id":"13505c99-ea7e-409d-83e8-c6b742142ac3","system_id":"levelo_inurba_marseille","lat":43.28465,"lon":5.35887,"is_reserved":false,"is_disabled":false,"rental_uris":{"android":"levelo://app?vid=13505c99-ea7e-409d-83e8-c6b742142ac3","ios":"levelo://app?vid=13505c99-ea7e-409d-83e8-c6b742142ac3"},"vehicle_type_id":"4","last_reported":1700872401,"current_range_meters":18800,"station_id":"ce4bhah2rcd13ifvqei0","pricing_plan_id":"free"},{"bike_id":"61cc7b97-d233-4710-86c8-d385a58acb08","system_id":"levelo_inurba_marseille","lat":43.284534,"lon":5.358662,"is_reserved":false,"is_disabled":false,"rental_uris":{"android":"levelo://app?vid=61cc7b97-d233-4710-86c8-d385a58acb08","ios":"levelo://app?vid=61cc7b97-d233-4710-86c8-d385a58acb08"},"vehicle_type_id":"4","last_reported":1700872401,"current_range_meters":30400,"station_id":"ce4bhah2rcd13ifvqei0","pricing_plan_id":"free"},{"bike_id":"52451758-9074-43bc-8aaf-e1be3ff78e0b","system_id":"levelo_inurba_marseille","lat":43.28461,"lon":5.35886,"is_reserved":false,"is_disabled":false,"rental_uris":{"android":"levelo://app?vid=52451758-9074-43bc-8aaf-e1be3ff78e0b","ios":"levelo://app?vid=52451758-9074-43bc-8aaf-e1be3ff78e0b"},"vehicle_type_id":"4","last_reported":1700872401,"current_range_meters":19600,"station_id":"ce4bhah2rcd13ifvqei0","pricing_plan_id":"free"},{"bike_id":"7f290dac-b761-4a08-9e2c-c94ce0063aa1","system_id":"levelo_inurba_marseille","lat":43.284534,"lon":5.358662,"is_reserved":false,"is_disabled":false,"rental_uris":{"android":"levelo://app?vid=7f290dac-b761-4a08-9e2c-c94ce0063aa1","ios":"levelo://app?vid=7f290dac-b761-4a08-9e2c-c94ce0063aa1"},"vehicle_type_id":"4","last_reported":1700872401,"current_range_meters":7600,"station_id":"ce4bhah2rcd13ifvqei0","pricing_plan_id":"free"},{"bike_id":"464fb64a-e97b-4368-9517-d9757701de11","system_id":"levelo_inurba_marseille","lat":43.285848,"lon":5.350787,"is_reserved":false,"is_disabled":false,"rental_uris":{"android":"levelo://app?vid=464fb64a-e97b-4368-9517-d9757701de11","ios":"levelo://app?vid=464fb64a-e97b-4368-9517-d9757701de11"},"vehicle_type_id":"4","last_reported":1700872401,"current_range_meters":2800,"station_id":"ce4bhch2rcd13ifvqeug","pricing_plan_id":"free"},{"bike_id":"f91e9e8f-ef32-423c-bc14-45c8f750f710","system_id":"levelo_inurba_marseille","lat":43.283998,"lon":5.375062,"is_reserved":false,"is_disabled":false,"rental_uris":{"android":"levelo://app?vid=f91e9e8f-ef32-423c-bc14-45c8f750f710","ios":"levelo://app?vid=f91e9e8f-ef32-423c-bc14-45c8f750f710"},"vehicle_type_id":"4","last_reported":1700872401,"current_range_meters":25600,"station_id":"ce4bh412rcd13ifvqds0","pricing_plan_id":"free"},{"bike_id":"142eb67f-a24f-481b-967d-2f491d522295","system_id":"levelo_inurba_marseille","lat":43.283998,"lon":5.375062,"is_reserved":false,"is_disabled":false,"rental_uris":{"android":"levelo://app?vid=142eb67f-a24f-481b-967d-2f491d522295","ios":"levelo://app?vid=142eb67f-a24f-481b-967d-2f491d522295"},"vehicle_type_id":"4","last_reported":1700872401,"current_range_meters":7200,"station_id":"ce4bh412rcd13ifvqds0","pricing_plan_id":"free"},{"bike_id":"558b3358-2d94-4445-80f1-fbe321294024","system_id":"levelo_inurba_marseille","lat":43.283998,"lon":5.375062,"is_reserved":false,"is_disabled":false,"rental_uris":{"android":"levelo://app?vid=558b3358-2d94-4445-80f1-fbe321294024","ios":"levelo://app?vid=558b3358-2d94-4445-80f1-fbe321294024"},"vehicle_type_id":"4","last_reported":1700872401,"current_range_meters":16000,"station_id":"ce4bh412rcd13ifvqds0","pricing_plan_id":"free"},{"bike_id":"aeea8f7f-c24d-43b5-901f-ccb44bed323e","system_id":"levelo_inurba_marseille","lat":43.286743,"lon":5.38669,"is_reserved":false,"is_disabled":false,"rental_uris":{"android":"levelo://app?vid=aeea8f7f-c24d-43b5-901f-ccb44bed323e","ios":"levelo://app?vid=aeea8f7f-c24d-43b5-901f-ccb44bed323e"},"vehicle_type_id":"4","last_reported":1700872401,"current_range_meters":22800,"station_id":"ce4bhg12rcd13ifvqf80","pricing_plan_id":"free"},{"bike_id":"b0beddf5-7bb3-41c4-bfcf-47f938baf159","system_id":"levelo_inurba_marseille","lat":43.319179,"lon":5.407725,"is_reserved":false,"is_disabled":false,"rental_uris":{"android":"levelo://app?vid=b0beddf5-7bb3-41c4-bfcf-47f938baf159","ios":"levelo://app?vid=b0beddf5-7bb3-41c4-bfcf-47f938baf159"},"vehicle_type_id":"4","last_reported":1700872401,"current_range_meters":28800,"station_id":"ce4bhq12rcd13ifvqhig","pricing_plan_id":"free"},{"bike_id":"85e4ecba-9efd-43c9-9c6b-00bb89a9eb10","system_id":"levelo_inurba_marseille","lat":43.319179,"lon":5.407725,"is_reserved":false,"is_disabled":false,"rental_uris":{"android":"levelo://app?vid=85e4ecba-9efd-43c9-9c6b-00bb89a9eb10","ios":"levelo://app?vid=85e4ecba-9efd-43c9-9c6b-00bb89a9eb10"},"vehicle_type_id":"4","last_reported":1700872401,"current_range_meters":26800,"station_id":"ce4bhq12rcd13ifvqhig","pricing_plan_id":"free"},{"bike_id":"b4bc6c19-20e6-4b1e-b989-40d4ba171e93","system_id":"levelo_inurba_marseille","lat":43.332215,"lon":5.398959,"is_reserved":false,"is_disabled":false,"rental_uris":{"android":"levelo://app?vid=b4bc6c19-20e6-4b1e-b989-40d4ba171e93","ios":"levelo://app?vid=b4bc6c19-20e6-4b1e-b989-40d4ba171e93"},"vehicle_type_id":"4","last_reported":1700872401,"current_range_meters":6000,"station_id":"","pricing_plan_id":"free"},{"bike_id":"60fb846c-95d4-493d-8ff0-fc77dde513c4","system_id":"levelo_inurba_marseille","lat":43.337201,"lon":5.391705,"is_reserved":false,"is_disabled":false,"rental_uris":{"android":"levelo://app?vid=60fb846c-95d4-493d-8ff0-fc77dde513c4","ios":"levelo://app?vid=60fb846c-95d4-493d-8ff0-fc77dde513c4"},"vehicle_type_id":"4","last_reported":1700872401,"current_range_meters":7600,"station_id":"ce4bhr92rcd13ifvqhsg","pricing_plan_id":"free"},{"bike_id":"fbed67cb-7d52-4e0c-8488-1d40e28e0960","system_id":"levelo_inurba_marseille","lat":43.32339,"lon":5.406161,"is_reserved":false,"is_disabled":false,"rental_uris":{"android":"levelo://app?vid=fbed67cb-7d52-4e0c-8488-1d40e28e0960","ios":"levelo://app?vid=fbed67cb-7d52-4e0c-8488-1d40e28e0960"},"vehicle_type_id":"4","last_reported":1700872401,"current_range_meters":0,"station_id":"ce4bhq92rcd13ifvqhjg","pricing_plan_id":"free"},{"bike_id":"2758dd14-b7c3-4191-8e51-dc327f32832b","system_id":"levelo_inurba_marseille","lat":43.297946,"lon":5.404063,"is_reserved":false,"is_disabled":false,"rental_uris":{"android":"levelo://app?vid=2758dd14-b7c3-4191-8e51-dc327f32832b","ios":"levelo://app?vid=2758dd14-b7c3-4191-8e51-dc327f32832b"},"vehicle_type_id":"4","last_reported":1700872401,"current_range_meters":26400,"station_id":"ce4bh112rcd13ifvqd90","pricing_plan_id":"free"},{"bike_id":"f2e32a4c-cf3d-4678-8fe7-3a95c1462a9e","system_id":"levelo_inurba_marseille","lat":43.29795,"lon":5.404086,"is_reserved":false,"is_disabled":false,"rental_uris":{"android":"levelo://app?vid=f2e32a4c-cf3d-4678-8fe7-3a95c1462a9e","ios":"levelo://app?vid=f2e32a4c-cf3d-4678-8fe7-3a95c1462a9e"},"vehicle_type_id":"4","last_reported":1700872401,"current_range_meters":25200,"station_id":"ce4bh112rcd13ifvqd90","pricing_plan_id":"free"},{"bike_id":"01546b6b-3d6d-4bff-af1c-3f9d6b6e47d5","system_id":"levelo_inurba_marseille","lat":43.288501,"lon":5.393087,"is_reserved":false,"is_disabled":false,"rental_uris":{"android":"levelo://app?vid=01546b6b-3d6d-4bff-af1c-3f9d6b6e47d5","ios":"levelo://app?vid=01546b6b-3d6d-4bff-af1c-3f9d6b6e47d5"},"vehicle_type_id":"4","last_reported":1700872401,"current_range_meters":16800,"station_id":"ce4bh2p2rcd13ifvqdi0","pricing_plan_id":"free"},{"bike_id":"2076f76b-0daf-4316-8601-a1b204e23ba5","system_id":"levelo_inurba_marseille","lat":43.28818,"lon":5.39283,"is_reserved":false,"is_disabled":false,"rental_uris":{"android":"levelo://app?vid=2076f76b-0daf-4316-8601-a1b204e23ba5","ios":"levelo://app?vid=2076f76b-0daf-4316-8601-a1b204e23ba5"},"vehicle_type_id":"4","last_reported":1700872401,"current_range_meters":0,"station_id":"ce4bh2p2rcd13ifvqdi0","pricing_plan_id":"free"},{"bike_id":"d8905097-0e2e-4da3-9d33-60f3b147d8fe","system_id":"levelo_inurba_marseille","lat":43.283498,"lon":5.380948,"is_reserved":false,"is_disabled":false,"rental_uris":{"android":"levelo://app?vid=d8905097-0e2e-4da3-9d33-60f3b147d8fe","ios":"levelo://app?vid=d8905097-0e2e-4da3-9d33-60f3b147d8fe"},"vehicle_type_id":"4","last_reported":1700872401,"current_range_meters":20800,"station_id":"ce4bh412rcd13ifvqdr0","pricing_plan_id":"free"},{"bike_id":"cf0e01a8-d865-460f-9ee9-9c493a2a4c56","system_id":"levelo_inurba_marseille","lat":43.283494,"lon":5.380945,"is_reserved":false,"is_disabled":false,"rental_uris":{"android":"levelo://app?vid=cf0e01a8-d865-460f-9ee9-9c493a2a4c56","ios":"levelo://app?vid=cf0e01a8-d865-460f-9ee9-9c493a2a4c56"},"vehicle_type_id":"4","last_reported":1700872401,"current_range_meters":23200,"station_id":"ce4bh412rcd13ifvqdr0","pricing_plan_id":"free"},{"bike_id":"e2899241-8a0c-417c-82c1-98329a18eaa9","system_id":"levelo_inurba_marseille","lat":43.289363,"lon":5.396322,"is_reserved":false,"is_disabled":false,"rental_uris":{"android":"levelo://app?vid=e2899241-8a0c-417c-82c1-98329a18eaa9","ios":"levelo://app?vid=e2899241-8a0c-417c-82c1-98329a18eaa9"},"vehicle_type_id":"4","last_reported":1700872401,"current_range_meters":24400,"station_id":"ce4bh3h2rcd13ifvqdn0","pricing_plan_id":"free"},{"bike_id":"e2284003-4e46-4e0a-93e7-73d05c3666d9","system_id":"levelo_inurba_marseille","lat":43.33508,"lon":5.397755,"is_reserved":false,"is_disabled":false,"rental_uris":{"android":"levelo://app?vid=e2284003-4e46-4e0a-93e7-73d05c3666d9","ios":"levelo://app?vid=e2284003-4e46-4e0a-93e7-73d05c3666d9"},"vehicle_type_id":"4","last_reported":1700872401,"current_range_meters":24400,"station_id":"","pricing_plan_id":"free"},{"bike_id":"7eaba995-b5b4-40ef-85e7-42b5957a83f4","system_id":"levelo_inurba_marseille","lat":43.283502,"lon":5.386471,"is_reserved":false,"is_disabled":false,"rental_uris":{"android":"levelo://app?vid=7eaba995-b5b4-40ef-85e7-42b5957a83f4","ios":"levelo://app?vid=7eaba995-b5b4-40ef-85e7-42b5957a83f4"},"vehicle_type_id":"4","last_reported":1700872401,"current_range_meters":11600,"station_id":"ce4bh492rcd13ifvqdvg","pricing_plan_id":"free"},{"bike_id":"5b671571-78b2-4f57-8063-0989c709b238","system_id":"levelo_inurba_marseille","lat":43.282744,"lon":5.350533,"is_reserved":false,"is_disabled":false,"rental_uris":{"android":"levelo://app?vid=5b671571-78b2-4f57-8063-0989c709b238","ios":"levelo://app?vid=5b671571-78b2-4f57-8063-0989c709b238"},"vehicle_type_id":"4","last_reported":1700872401,"current_range_meters":15600,"station_id":"ce4bhbp2rcd13ifvqerg","pricing_plan_id":"free"},{"bike_id":"92af5a52-3ab4-44de-aff9-defbc1fddbe3","system_id":"levelo_inurba_marseille","lat":43.28039,"lon":5.369297,"is_reserved":false,"is_disabled":false,"rental_uris":{"android":"levelo://app?vid=92af5a52-3ab4-44de-aff9-defbc1fddbe3","ios":"levelo://app?vid=92af5a52-3ab4-44de-aff9-defbc1fddbe3"},"vehicle_type_id":"4","last_reported":1700872401,"current_range_meters":15200,"station_id":"ce4bha12rcd13ifvqef0","pricing_plan_id":"free"},{"bike_id":"09a88198-c1d5-46a8-9a74-3393cd531e27","system_id":"levelo_inurba_marseille","lat":43.28039,"lon":5.369297,"is_reserved":false,"is_disabled":false,"rental_uris":{"android":"levelo://app?vid=09a88198-c1d5-46a8-9a74-3393cd531e27","ios":"levelo://app?vid=09a88198-c1d5-46a8-9a74-3393cd531e27"},"vehicle_type_id":"4","last_reported":1700872401,"current_range_meters":31600,"station_id":"ce4bha12rcd13ifvqef0","pricing_plan_id":"free"},{"bike_id":"11c26a24-41a9-461b-9820-061684d3b67b","system_id":"levelo_inurba_marseille","lat":43.296263,"lon":5.40601,"is_reserved":false,"is_disabled":false,"rental_uris":{"android":"levelo://app?vid=11c26a24-41a9-461b-9820-061684d3b67b","ios":"levelo://app?vid=11c26a24-41a9-461b-9820-061684d3b67b"},"vehicle_type_id":"4","last_reported":1700872401,"current_range_meters":25200,"station_id":"ce4bh0h2rcd13ifvqd60","pricing_plan_id":"free"},{"bike_id":"5a4bdb63-d89a-4bf8-a9dd-12d23525a7d9","system_id":"levelo_inurba_marseille","lat":43.281044,"lon":5.378308,"is_reserved":false,"is_disabled":false,"rental_uris":{"android":"levelo://app?vid=5a4bdb63-d89a-4bf8-a9dd-12d23525a7d9","ios":"levelo://app?vid=5a4bdb63-d89a-4bf8-a9dd-12d23525a7d9"},"vehicle_type_id":"4","last_reported":1700872401,"current_range_meters":21600,"station_id":"ce4bha12rcd13ifvqee0","pricing_plan_id":"free"},{"bike_id":"59e761ea-e1c4-4aaa-a75f-dcc85eab25c7","system_id":"levelo_inurba_marseille","lat":43.285742,"lon":5.395004,"is_reserved":false,"is_disabled":false,"rental_uris":{"android":"levelo://app?vid=59e761ea-e1c4-4aaa-a75f-dcc85eab25c7","ios":"levelo://app?vid=59e761ea-e1c4-4aaa-a75f-dcc85eab25c7"},"vehicle_type_id":"4","last_reported":1700872401,"current_range_meters":0,"station_id":"ce4bh292rcd13ifvqdg0","pricing_plan_id":"free"},{"bike_id":"c371bff1-b3d2-4c0b-a23c-92960c679caf","system_id":"levelo_inurba_marseille","lat":43.326605,"lon":5.409903,"is_reserved":false,"is_disabled":false,"rental_uris":{"android":"levelo://app?vid=c371bff1-b3d2-4c0b-a23c-92960c679caf","ios":"levelo://app?vid=c371bff1-b3d2-4c0b-a23c-92960c679caf"},"vehicle_type_id":"4","last_reported":1700872401,"current_range_meters":3200,"station_id":"ce4bhpp2rcd13ifvqhgg","pricing_plan_id":"free"},{"bike_id":"7d001ce1-3295-4b75-9e6e-3a475eef70ee","system_id":"levelo_inurba_marseille","lat":43.326605,"lon":5.409903,"is_reserved":false,"is_disabled":false,"rental_uris":{"android":"levelo://app?vid=7d001ce1-3295-4b75-9e6e-3a475eef70ee","ios":"levelo://app?vid=7d001ce1-3295-4b75-9e6e-3a475eef70ee"},"vehicle_type_id":"4","last_reported":1700872401,"current_range_meters":12400,"station_id":"ce4bhpp2rcd13ifvqhgg","pricing_plan_id":"free"},{"bike_id":"fd114853-7457-45d8-9582-8acd9b09cf99","system_id":"levelo_inurba_marseille","lat":43.326605,"lon":5.409903,"is_reserved":false,"is_disabled":false,"rental_uris":{"android":"levelo://app?vid=fd114853-7457-45d8-9582-8acd9b09cf99","ios":"levelo://app?vid=fd114853-7457-45d8-9582-8acd9b09cf99"},"vehicle_type_id":"4","last_reported":1700872401,"current_range_meters":18000,"station_id":"ce4bhpp2rcd13ifvqhgg","pricing_plan_id":"free"},{"bike_id":"8ad7fbdb-7846-4f8b-b832-8edba0d286a0","system_id":"levelo_inurba_marseille","lat":43.279087,"lon":5.380114,"is_reserved":false,"is_disabled":false,"rental_uris":{"android":"levelo://app?vid=8ad7fbdb-7846-4f8b-b832-8edba0d286a0","ios":"levelo://app?vid=8ad7fbdb-7846-4f8b-b832-8edba0d286a0"},"vehicle_type_id":"4","last_reported":1700872401,"current_range_meters":4400,"station_id":"ce4bhf92rcd13ifvqf50","pricing_plan_id":"free"},{"bike_id":"830ca874-cb54-4912-a61f-248518ca3502","system_id":"levelo_inurba_marseille","lat":43.279087,"lon":5.380114,"is_reserved":false,"is_disabled":false,"rental_uris":{"android":"levelo://app?vid=830ca874-cb54-4912-a61f-248518ca3502","ios":"levelo://app?vid=830ca874-cb54-4912-a61f-248518ca3502"},"vehicle_type_id":"4","last_reported":1700872401,"current_range_meters":8400,"station_id":"ce4bhf92rcd13ifvqf50","pricing_plan_id":"free"},{"bike_id":"052b1800-26d9-41f0-9ebd-e64177fe5bdb","system_id":"levelo_inurba_marseille","lat":43.287154,"lon":5.399979,"is_reserved":false,"is_disabled":false,"rental_uris":{"android":"levelo://app?vid=052b1800-26d9-41f0-9ebd-e64177fe5bdb","ios":"levelo://app?vid=052b1800-26d9-41f0-9ebd-e64177fe5bdb"},"vehicle_type_id":"4","last_reported":1700872401,"current_range_meters":28800,"station_id":"ce4bho92rcd13ifvqh3g","pricing_plan_id":"free"},{"bike_id":"27937e94-ddb2-47f8-a077-4be732443cc4","system_id":"levelo_inurba_marseille","lat":43.287154,"lon":5.399979,"is_reserved":false,"is_disabled":false,"rental_uris":{"android":"levelo://app?vid=27937e94-ddb2-47f8-a077-4be732443cc4","ios":"levelo://app?vid=27937e94-ddb2-47f8-a077-4be732443cc4"},"vehicle_type_id":"4","last_reported":1700872401,"current_range_meters":31600,"station_id":"ce4bho92rcd13ifvqh3g","pricing_plan_id":"free"},{"bike_id":"4de02c4c-6788-47e8-86f7-ed7b45f7de7a","system_id":"levelo_inurba_marseille","lat":43.287154,"lon":5.399979,"is_reserved":false,"is_disabled":false,"rental_uris":{"android":"levelo://app?vid=4de02c4c-6788-47e8-86f7-ed7b45f7de7a","ios":"levelo://app?vid=4de02c4c-6788-47e8-86f7-ed7b45f7de7a"},"vehicle_type_id":"4","last_reported":1700872401,"current_range_meters":25200,"station_id":"ce4bho92rcd13ifvqh3g","pricing_plan_id":"free"},{"bike_id":"27acdbf5-43bc-44ce-8eba-b63c97170fea","system_id":"levelo_inurba_marseille","lat":43.287154,"lon":5.399979,"is_reserved":false,"is_disabled":false,"rental_uris":{"android":"levelo://app?vid=27acdbf5-43bc-44ce-8eba-b63c97170fea","ios":"levelo://app?vid=27acdbf5-43bc-44ce-8eba-b63c97170fea"},"vehicle_type_id":"4","last_reported":1700872401,"current_range_meters":30800,"station_id":"ce4bho92rcd13ifvqh3g","pricing_plan_id":"free"},{"bike_id":"46857abf-efc6-4ffc-b652-8f2ca60edc0a","system_id":"levelo_inurba_marseille","lat":43.287154,"lon":5.399979,"is_reserved":false,"is_disabled":false,"rental_uris":{"android":"levelo://app?vid=46857abf-efc6-4ffc-b652-8f2ca60edc0a","ios":"levelo://app?vid=46857abf-efc6-4ffc-b652-8f2ca60edc0a"},"vehicle_type_id":"4","last_reported":1700872401,"current_range_meters":31600,"station_id":"ce4bho92rcd13ifvqh3g","pricing_plan_id":"free"},{"bike_id":"d1b5c516-b496-412b-b6ec-6fb07b03d1a9","system_id":"levelo_inurba_marseille","lat":43.287154,"lon":5.399979,"is_reserved":false,"is_disabled":false,"rental_uris":{"android":"levelo://app?vid=d1b5c516-b496-412b-b6ec-6fb07b03d1a9","ios":"levelo://app?vid=d1b5c516-b496-412b-b6ec-6fb07b03d1a9"},"vehicle_type_id":"4","last_reported":1700872401,"current_range_meters":28400,"station_id":"ce4bho92rcd13ifvqh3g","pricing_plan_id":"free"},{"bike_id":"00de6aa8-b204-48ba-b466-21a838ae3da5","system_id":"levelo_inurba_marseille","lat":43.287154,"lon":5.399979,"is_reserved":false,"is_disabled":false,"rental_uris":{"android":"levelo://app?vid=00de6aa8-b204-48ba-b466-21a838ae3da5","ios":"levelo://app?vid=00de6aa8-b204-48ba-b466-21a838ae3da5"},"vehicle_type_id":"4","last_reported":1700872401,"current_range_meters":28000,"station_id":"ce4bho92rcd13ifvqh3g","pricing_plan_id":"free"},{"bike_id":"41299eb5-aa15-4fa9-83e7-fb27b4a01b20","system_id":"levelo_inurba_marseille","lat":43.287154,"lon":5.399979,"is_reserved":false,"is_disabled":false,"rental_uris":{"android":"levelo://app?vid=41299eb5-aa15-4fa9-83e7-fb27b4a01b20","ios":"levelo://app?vid=41299eb5-aa15-4fa9-83e7-fb27b4a01b20"},"vehicle_type_id":"4","last_reported":1700872401,"current_range_meters":11200,"station_id":"ce4bho92rcd13ifvqh3g","pricing_plan_id":"free"},{"bike_id":"a8d9014a-a3ad-4f23-951e-ee7258a51040","system_id":"levelo_inurba_marseille","lat":43.287154,"lon":5.399979,"is_reserved":false,"is_disabled":false,"rental_uris":{"android":"levelo://app?vid=a8d9014a-a3ad-4f23-951e-ee7258a51040","ios":"levelo://app?vid=a8d9014a-a3ad-4f23-951e-ee7258a51040"},"vehicle_type_id":"4","last_reported":1700872401,"current_range_meters":31600,"station_id":"ce4bho92rcd13ifvqh3g","pricing_plan_id":"free"},{"bike_id":"a93e0362-81bc-4f4c-bc54-baee07d92e71","system_id":"levelo_inurba_marseille","lat":43.287154,"lon":5.399979,"is_reserved":false,"is_disabled":false,"rental_uris":{"android":"levelo://app?vid=a93e0362-81bc-4f4c-bc54-baee07d92e71","ios":"levelo://app?vid=a93e0362-81bc-4f4c-bc54-baee07d92e71"},"vehicle_type_id":"4","last_reported":1700872401,"current_range_meters":31600,"station_id":"ce4bho92rcd13ifvqh3g","pricing_plan_id":"free"},{"bike_id":"495c9886-34e3-479d-a1e0-c47a9c43931c","system_id":"levelo_inurba_marseille","lat":43.287154,"lon":5.399979,"is_reserved":false,"is_disabled":false,"rental_uris":{"android":"levelo://app?vid=495c9886-34e3-479d-a1e0-c47a9c43931c","ios":"levelo://app?vid=495c9886-34e3-479d-a1e0-c47a9c43931c"},"vehicle_type_id":"4","last_reported":1700872401,"current_range_meters":27200,"station_id":"ce4bho92rcd13ifvqh3g","pricing_plan_id":"free"},{"bike_id":"ac64d9bb-a149-4f04-8e36-8712271e3ed5","system_id":"levelo_inurba_marseille","lat":43.27971,"lon":5.38734,"is_reserved":false,"is_disabled":false,"rental_uris":{"android":"levelo://app?vid=ac64d9bb-a149-4f04-8e36-8712271e3ed5","ios":"levelo://app?vid=ac64d9bb-a149-4f04-8e36-8712271e3ed5"},"vehicle_type_id":"4","last_reported":1700872401,"current_range_meters":24800,"station_id":"ce4bhg12rcd13ifvqf80","pricing_plan_id":"free"},{"bike_id":"32b1fae5-5583-4b0c-86b8-5c0fd165aff8","system_id":"levelo_inurba_marseille","lat":43.27961,"lon":5.38726,"is_reserved":false,"is_disabled":false,"rental_uris":{"android":"levelo://app?vid=32b1fae5-5583-4b0c-86b8-5c0fd165aff8","ios":"levelo://app?vid=32b1fae5-5583-4b0c-86b8-5c0fd165aff8"},"vehicle_type_id":"4","last_reported":1700872401,"current_range_meters":28800,"station_id":"ce4bhg12rcd13ifvqf80","pricing_plan_id":"free"},{"bike_id":"9dcf3490-4150-49c9-b594-b85a6311d749","system_id":"levelo_inurba_marseille","lat":43.292571,"lon":5.409107,"is_reserved":false,"is_disabled":false,"rental_uris":{"android":"levelo://app?vid=9dcf3490-4150-49c9-b594-b85a6311d749","ios":"levelo://app?vid=9dcf3490-4150-49c9-b594-b85a6311d749"},"vehicle_type_id":"4","last_reported":1700872401,"current_range_meters":18000,"station_id":"ce4bh192rcd13ifvqdc0","pricing_plan_id":"free"},{"bike_id":"22d347e4-9673-489d-af28-13b064fc6114","system_id":"levelo_inurba_marseille","lat":43.292571,"lon":5.409107,"is_reserved":false,"is_disabled":false,"rental_uris":{"android":"levelo://app?vid=22d347e4-9673-489d-af28-13b064fc6114","ios":"levelo://app?vid=22d347e4-9673-489d-af28-13b064fc6114"},"vehicle_type_id":"4","last_reported":1700872401,"current_range_meters":29200,"station_id":"ce4bh192rcd13ifvqdc0","pricing_plan_id":"free"},{"bike_id":"026f72c0-eba9-4313-b651-a426147b19e5","system_id":"levelo_inurba_marseille","lat":43.292607,"lon":5.409103,"is_reserved":false,"is_disabled":false,"rental_uris":{"android":"levelo://app?vid=026f72c0-eba9-4313-b651-a426147b19e5","ios":"levelo://app?vid=026f72c0-eba9-4313-b651-a426147b19e5"},"vehicle_type_id":"4","last_reported":1700872401,"current_range_meters":18000,"station_id":"ce4bh192rcd13ifvqdc0","pricing_plan_id":"free"},{"bike_id":"0a7d255e-499b-4057-821b-08d215075f2e","system_id":"levelo_inurba_marseille","lat":43.292571,"lon":5.409107,"is_reserved":false,"is_disabled":false,"rental_uris":{"android":"levelo://app?vid=0a7d255e-499b-4057-821b-08d215075f2e","ios":"levelo://app?vid=0a7d255e-499b-4057-821b-08d215075f2e"},"vehicle_type_id":"4","last_reported":1700872401,"current_range_meters":31200,"station_id":"ce4bh192rcd13ifvqdc0","pricing_plan_id":"free"},{"bike_id":"773e27eb-4857-43dd-a4f5-28f78c183ea7","system_id":"levelo_inurba_marseille","lat":43.292569,"lon":5.409107,"is_reserved":false,"is_disabled":false,"rental_uris":{"android":"levelo://app?vid=773e27eb-4857-43dd-a4f5-28f78c183ea7","ios":"levelo://app?vid=773e27eb-4857-43dd-a4f5-28f78c183ea7"},"vehicle_type_id":"4","last_reported":1700872401,"current_range_meters":11600,"station_id":"ce4bh192rcd13ifvqdc0","pricing_plan_id":"free"},{"bike_id":"27e07b6f-814f-4cb6-9d7c-42ac4e12d45e","system_id":"levelo_inurba_marseille","lat":43.278399,"lon":5.392139,"is_reserved":false,"is_disabled":false,"rental_uris":{"android":"levelo://app?vid=27e07b6f-814f-4cb6-9d7c-42ac4e12d45e","ios":"levelo://app?vid=27e07b6f-814f-4cb6-9d7c-42ac4e12d45e"},"vehicle_type_id":"4","last_reported":1700872401,"current_range_meters":26000,"station_id":"ce4bhjp2rcd13ifvqga0","pricing_plan_id":"free"},{"bike_id":"a7e93d14-e94b-4c46-8fed-114a943442ad","system_id":"levelo_inurba_marseille","lat":43.336134,"lon":5.410341,"is_reserved":false,"is_disabled":false,"rental_uris":{"android":"levelo://app?vid=a7e93d14-e94b-4c46-8fed-114a943442ad","ios":"levelo://app?vid=a7e93d14-e94b-4c46-8fed-114a943442ad"},"vehicle_type_id":"4","last_reported":1700872401,"current_range_meters":6800,"station_id":"ce4bhqh2rcd13ifvqhmg","pricing_plan_id":"free"},{"bike_id":"d7e96dab-8a31-411e-9eb2-a0c89e002e0c","system_id":"levelo_inurba_marseille","lat":43.3031,"lon":5.41916,"is_reserved":false,"is_disabled":false,"rental_uris":{"android":"levelo://app?vid=d7e96dab-8a31-411e-9eb2-a0c89e002e0c","ios":"levelo://app?vid=d7e96dab-8a31-411e-9eb2-a0c89e002e0c"},"vehicle_type_id":"4","last_reported":1700872401,"current_range_meters":24800,"station_id":"","pricing_plan_id":"free"},{"bike_id":"ce28396f-bd42-4767-946b-ad3df086bf4a","system_id":"levelo_inurba_marseille","lat":43.33612,"lon":5.410321,"is_reserved":false,"is_disabled":false,"rental_uris":{"android":"levelo://app?vid=ce28396f-bd42-4767-946b-ad3df086bf4a","ios":"levelo://app?vid=ce28396f-bd42-4767-946b-ad3df086bf4a"},"vehicle_type_id":"4","last_reported":1700872401,"current_range_meters":0,"station_id":"ce4bhqh2rcd13ifvqhmg","pricing_plan_id":"free"},{"bike_id":"afbe1c8e-59e6-444c-a06d-40b4c873ce79","system_id":"levelo_inurba_marseille","lat":43.33612,"lon":5.410321,"is_reserved":false,"is_disabled":false,"rental_uris":{"android":"levelo://app?vid=afbe1c8e-59e6-444c-a06d-40b4c873ce79","ios":"levelo://app?vid=afbe1c8e-59e6-444c-a06d-40b4c873ce79"},"vehicle_type_id":"4","last_reported":1700872401,"current_range_meters":8800,"station_id":"ce4bhqh2rcd13ifvqhmg","pricing_plan_id":"free"},{"bike_id":"11284616-1b72-4efe-b230-40509eb9808d","system_id":"levelo_inurba_marseille","lat":43.276771,"lon":5.388799,"is_reserved":false,"is_disabled":false,"rental_uris":{"android":"levelo://app?vid=11284616-1b72-4efe-b230-40509eb9808d","ios":"levelo://app?vid=11284616-1b72-4efe-b230-40509eb9808d"},"vehicle_type_id":"4","last_reported":1700872401,"current_range_meters":12400,"station_id":"ce4bhi12rcd13ifvqfo0","pricing_plan_id":"free"},{"bike_id":"2aba52bf-9cdb-4dd3-a1ea-4c8b2bed0e7d","system_id":"levelo_inurba_marseille","lat":43.279952,"lon":5.400085,"is_reserved":false,"is_disabled":false,"rental_uris":{"android":"levelo://app?vid=2aba52bf-9cdb-4dd3-a1ea-4c8b2bed0e7d","ios":"levelo://app?vid=2aba52bf-9cdb-4dd3-a1ea-4c8b2bed0e7d"},"vehicle_type_id":"4","last_reported":1700872401,"current_range_meters":10000,"station_id":"ce4bho92rcd13ifvqh4g","pricing_plan_id":"free"},{"bike_id":"561d56c0-616a-4955-bd15-b0e0ddd3d6ba","system_id":"levelo_inurba_marseille","lat":43.279952,"lon":5.400085,"is_reserved":false,"is_disabled":false,"rental_uris":{"android":"levelo://app?vid=561d56c0-616a-4955-bd15-b0e0ddd3d6ba","ios":"levelo://app?vid=561d56c0-616a-4955-bd15-b0e0ddd3d6ba"},"vehicle_type_id":"4","last_reported":1700872401,"current_range_meters":28800,"station_id":"ce4bho92rcd13ifvqh4g","pricing_plan_id":"free"},{"bike_id":"b60c989a-f647-496d-a388-48e50aa05bad","system_id":"levelo_inurba_marseille","lat":43.27995,"lon":5.40008,"is_reserved":false,"is_disabled":false,"rental_uris":{"android":"levelo://app?vid=b60c989a-f647-496d-a388-48e50aa05bad","ios":"levelo://app?vid=b60c989a-f647-496d-a388-48e50aa05bad"},"vehicle_type_id":"4","last_reported":1700872401,"current_range_meters":28000,"station_id":"ce4bho92rcd13ifvqh4g","pricing_plan_id":"free"},{"bike_id":"3b5836a7-12bc-4eeb-81a3-25b20505d9af","system_id":"levelo_inurba_marseille","lat":43.31721,"lon":5.42406,"is_reserved":false,"is_disabled":false,"rental_uris":{"android":"levelo://app?vid=3b5836a7-12bc-4eeb-81a3-25b20505d9af","ios":"levelo://app?vid=3b5836a7-12bc-4eeb-81a3-25b20505d9af"},"vehicle_type_id":"4","last_reported":1700872401,"current_range_meters":30000,"station_id":"ce4bhp92rcd13ifvqhbg","pricing_plan_id":"free"},{"bike_id":"30b1c21c-43f6-4096-a8a1-15bb8bf09358","system_id":"levelo_inurba_marseille","lat":43.274103,"lon":5.394016,"is_reserved":false,"is_disabled":false,"rental_uris":{"android":"levelo://app?vid=30b1c21c-43f6-4096-a8a1-15bb8bf09358","ios":"levelo://app?vid=30b1c21c-43f6-4096-a8a1-15bb8bf09358"},"vehicle_type_id":"4","last_reported":1700872401,"current_range_meters":15200,"station_id":"ce4bhdp2rcd13ifvqf20","pricing_plan_id":"free"},{"bike_id":"62a4131c-a361-4342-8c26-db721e4c4d35","system_id":"levelo_inurba_marseille","lat":43.274099,"lon":5.394019,"is_reserved":false,"is_disabled":false,"rental_uris":{"android":"levelo://app?vid=62a4131c-a361-4342-8c26-db721e4c4d35","ios":"levelo://app?vid=62a4131c-a361-4342-8c26-db721e4c4d35"},"vehicle_type_id":"4","last_reported":1700872401,"current_range_meters":31600,"station_id":"ce4bhdp2rcd13ifvqf20","pricing_plan_id":"free"},{"bike_id":"4732b60d-7c6b-414e-89c1-aca2b5a2ce52","system_id":"levelo_inurba_marseille","lat":43.274103,"lon":5.394016,"is_reserved":false,"is_disabled":false,"rental_uris":{"android":"levelo://app?vid=4732b60d-7c6b-414e-89c1-aca2b5a2ce52","ios":"levelo://app?vid=4732b60d-7c6b-414e-89c1-aca2b5a2ce52"},"vehicle_type_id":"4","last_reported":1700872401,"current_range_meters":22000,"station_id":"ce4bhdp2rcd13ifvqf20","pricing_plan_id":"free"},{"bike_id":"39ba2a28-4e45-47ae-b54e-2e865e84aa2a","system_id":"levelo_inurba_marseille","lat":43.295523,"lon":5.422926,"is_reserved":false,"is_disabled":false,"rental_uris":{"android":"levelo://app?vid=39ba2a28-4e45-47ae-b54e-2e865e84aa2a","ios":"levelo://app?vid=39ba2a28-4e45-47ae-b54e-2e865e84aa2a"},"vehicle_type_id":"4","last_reported":1700872401,"current_range_meters":28800,"station_id":"ce4bhph2rcd13ifvqhdg","pricing_plan_id":"free"},{"bike_id":"9830637b-caf5-476f-85b7-c02033487ff2","system_id":"levelo_inurba_marseille","lat":43.295511,"lon":5.422926,"is_reserved":false,"is_disabled":false,"rental_uris":{"android":"levelo://app?vid=9830637b-caf5-476f-85b7-c02033487ff2","ios":"levelo://app?vid=9830637b-caf5-476f-85b7-c02033487ff2"},"vehicle_type_id":"4","last_reported":1700872401,"current_range_meters":32000,"station_id":"ce4bhph2rcd13ifvqhdg","pricing_plan_id":"free"},{"bike_id":"9f3ea0ae-761e-43b1-ad64-979f3efc0236","system_id":"levelo_inurba_marseille","lat":43.295511,"lon":5.422926,"is_reserved":false,"is_disabled":false,"rental_uris":{"android":"levelo://app?vid=9f3ea0ae-761e-43b1-ad64-979f3efc0236","ios":"levelo://app?vid=9f3ea0ae-761e-43b1-ad64-979f3efc0236"},"vehicle_type_id":"4","last_reported":1700872401,"current_range_meters":24400,"station_id":"ce4bhph2rcd13ifvqhdg","pricing_plan_id":"free"},{"bike_id":"886b94e7-3f0f-4f28-ab90-06e9345b689d","system_id":"levelo_inurba_marseille","lat":43.29556,"lon":5.42287,"is_reserved":false,"is_disabled":false,"rental_uris":{"android":"levelo://app?vid=886b94e7-3f0f-4f28-ab90-06e9345b689d","ios":"levelo://app?vid=886b94e7-3f0f-4f28-ab90-06e9345b689d"},"vehicle_type_id":"4","last_reported":1700872401,"current_range_meters":2400,"station_id":"ce4bhph2rcd13ifvqhdg","pricing_plan_id":"free"},{"bike_id":"ec3d03da-78c9-4642-80f1-267154a38bb0","system_id":"levelo_inurba_marseille","lat":43.295511,"lon":5.422926,"is_reserved":false,"is_disabled":false,"rental_uris":{"android":"levelo://app?vid=ec3d03da-78c9-4642-80f1-267154a38bb0","ios":"levelo://app?vid=ec3d03da-78c9-4642-80f1-267154a38bb0"},"vehicle_type_id":"4","last_reported":1700872401,"current_range_meters":32000,"station_id":"ce4bhph2rcd13ifvqhdg","pricing_plan_id":"free"},{"bike_id":"1a90ad96-70fc-4155-86e7-f16ea0bf6707","system_id":"levelo_inurba_marseille","lat":43.295523,"lon":5.422926,"is_reserved":false,"is_disabled":false,"rental_uris":{"android":"levelo://app?vid=1a90ad96-70fc-4155-86e7-f16ea0bf6707","ios":"levelo://app?vid=1a90ad96-70fc-4155-86e7-f16ea0bf6707"},"vehicle_type_id":"4","last_reported":1700872401,"current_range_meters":28000,"station_id":"ce4bhph2rcd13ifvqhdg","pricing_plan_id":"free"},{"bike_id":"36c661af-b1d4-4283-adeb-a6b360ed03cd","system_id":"levelo_inurba_marseille","lat":43.29559,"lon":5.4229,"is_reserved":false,"is_disabled":false,"rental_uris":{"android":"levelo://app?vid=36c661af-b1d4-4283-adeb-a6b360ed03cd","ios":"levelo://app?vid=36c661af-b1d4-4283-adeb-a6b360ed03cd"},"vehicle_type_id":"4","last_reported":1700872401,"current_range_meters":14000,"station_id":"ce4bhph2rcd13ifvqhdg","pricing_plan_id":"free"},{"bike_id":"118822d8-6e1e-4e74-a488-66c0b9bac4ea","system_id":"levelo_inurba_marseille","lat":43.29552,"lon":5.42287,"is_reserved":false,"is_disabled":false,"rental_uris":{"android":"levelo://app?vid=118822d8-6e1e-4e74-a488-66c0b9bac4ea","ios":"levelo://app?vid=118822d8-6e1e-4e74-a488-66c0b9bac4ea"},"vehicle_type_id":"4","last_reported":1700872401,"current_range_meters":22000,"station_id":"ce4bhph2rcd13ifvqhdg","pricing_plan_id":"free"},{"bike_id":"c0e7c921-2f34-4325-9644-1440c95e11ac","system_id":"levelo_inurba_marseille","lat":43.295523,"lon":5.422926,"is_reserved":false,"is_disabled":false,"rental_uris":{"android":"levelo://app?vid=c0e7c921-2f34-4325-9644-1440c95e11ac","ios":"levelo://app?vid=c0e7c921-2f34-4325-9644-1440c95e11ac"},"vehicle_type_id":"4","last_reported":1700872401,"current_range_meters":27200,"station_id":"ce4bhph2rcd13ifvqhdg","pricing_plan_id":"free"},{"bike_id":"60384595-5838-46d3-8ef9-ce34760ba3f9","system_id":"levelo_inurba_marseille","lat":43.295511,"lon":5.422926,"is_reserved":false,"is_disabled":false,"rental_uris":{"android":"levelo://app?vid=60384595-5838-46d3-8ef9-ce34760ba3f9","ios":"levelo://app?vid=60384595-5838-46d3-8ef9-ce34760ba3f9"},"vehicle_type_id":"4","last_reported":1700872401,"current_range_meters":32000,"station_id":"ce4bhph2rcd13ifvqhdg","pricing_plan_id":"free"},{"bike_id":"6d892d9f-8bb7-466b-91e4-6b4cd5e06b20","system_id":"levelo_inurba_marseille","lat":43.295511,"lon":5.422926,"is_reserved":false,"is_disabled":false,"rental_uris":{"android":"levelo://app?vid=6d892d9f-8bb7-466b-91e4-6b4cd5e06b20","ios":"levelo://app?vid=6d892d9f-8bb7-466b-91e4-6b4cd5e06b20"},"vehicle_type_id":"4","last_reported":1700872401,"current_range_meters":27200,"station_id":"ce4bhph2rcd13ifvqhdg","pricing_plan_id":"free"},{"bike_id":"573fe38e-331a-49c6-a2ec-1c794d6ebce8","system_id":"levelo_inurba_marseille","lat":43.272118,"lon":5.391758,"is_reserved":false,"is_disabled":false,"rental_uris":{"android":"levelo://app?vid=573fe38e-331a-49c6-a2ec-1c794d6ebce8","ios":"levelo://app?vid=573fe38e-331a-49c6-a2ec-1c794d6ebce8"},"vehicle_type_id":"4","last_reported":1700872401,"current_range_meters":30800,"station_id":"ce4bhhp2rcd13ifvqfm0","pricing_plan_id":"free"},{"bike_id":"972365b9-5066-4bb4-a1e7-7285f81f2be6","system_id":"levelo_inurba_marseille","lat":43.272124,"lon":5.391768,"is_reserved":false,"is_disabled":false,"rental_uris":{"android":"levelo://app?vid=972365b9-5066-4bb4-a1e7-7285f81f2be6","ios":"levelo://app?vid=972365b9-5066-4bb4-a1e7-7285f81f2be6"},"vehicle_type_id":"4","last_reported":1700872401,"current_range_meters":31200,"station_id":"ce4bhhp2rcd13ifvqfm0","pricing_plan_id":"free"},{"bike_id":"ad3a3065-766e-4f36-8196-671d736c9c64","system_id":"levelo_inurba_marseille","lat":43.272116,"lon":5.391763,"is_reserved":false,"is_disabled":false,"rental_uris":{"android":"levelo://app?vid=ad3a3065-766e-4f36-8196-671d736c9c64","ios":"levelo://app?vid=ad3a3065-766e-4f36-8196-671d736c9c64"},"vehicle_type_id":"4","last_reported":1700872401,"current_range_meters":26400,"station_id":"ce4bhhp2rcd13ifvqfm0","pricing_plan_id":"free"},{"bike_id":"4c9e8ea6-1860-487c-a8f2-7ba28a0f5e88","system_id":"levelo_inurba_marseille","lat":43.272118,"lon":5.391758,"is_reserved":false,"is_disabled":false,"rental_uris":{"android":"levelo://app?vid=4c9e8ea6-1860-487c-a8f2-7ba28a0f5e88","ios":"levelo://app?vid=4c9e8ea6-1860-487c-a8f2-7ba28a0f5e88"},"vehicle_type_id":"4","last_reported":1700872401,"current_range_meters":18400,"station_id":"ce4bhhp2rcd13ifvqfm0","pricing_plan_id":"free"},{"bike_id":"7655e38b-7390-4585-994e-24fd1b1163a9","system_id":"levelo_inurba_marseille","lat":43.272124,"lon":5.391768,"is_reserved":false,"is_disabled":false,"rental_uris":{"android":"levelo://app?vid=7655e38b-7390-4585-994e-24fd1b1163a9","ios":"levelo://app?vid=7655e38b-7390-4585-994e-24fd1b1163a9"},"vehicle_type_id":"4","last_reported":1700872401,"current_range_meters":30800,"station_id":"ce4bhhp2rcd13ifvqfm0","pricing_plan_id":"free"},{"bike_id":"47d53317-69ac-4b3f-91ab-ee694328e9b5","system_id":"levelo_inurba_marseille","lat":43.272116,"lon":5.391763,"is_reserved":false,"is_disabled":false,"rental_uris":{"android":"levelo://app?vid=47d53317-69ac-4b3f-91ab-ee694328e9b5","ios":"levelo://app?vid=47d53317-69ac-4b3f-91ab-ee694328e9b5"},"vehicle_type_id":"4","last_reported":1700872401,"current_range_meters":26000,"station_id":"ce4bhhp2rcd13ifvqfm0","pricing_plan_id":"free"},{"bike_id":"19bcdaf8-9fc3-4bc2-aad4-4a3356dce2c4","system_id":"levelo_inurba_marseille","lat":43.272116,"lon":5.391763,"is_reserved":false,"is_disabled":false,"rental_uris":{"android":"levelo://app?vid=19bcdaf8-9fc3-4bc2-aad4-4a3356dce2c4","ios":"levelo://app?vid=19bcdaf8-9fc3-4bc2-aad4-4a3356dce2c4"},"vehicle_type_id":"4","last_reported":1700872401,"current_range_meters":29600,"station_id":"ce4bhhp2rcd13ifvqfm0","pricing_plan_id":"free"},{"bike_id":"c6d8125a-1b62-4ad9-80dc-d1ee14e73569","system_id":"levelo_inurba_marseille","lat":43.272124,"lon":5.391768,"is_reserved":false,"is_disabled":false,"rental_uris":{"android":"levelo://app?vid=c6d8125a-1b62-4ad9-80dc-d1ee14e73569","ios":"levelo://app?vid=c6d8125a-1b62-4ad9-80dc-d1ee14e73569"},"vehicle_type_id":"4","last_reported":1700872401,"current_range_meters":31600,"station_id":"ce4bhhp2rcd13ifvqfm0","pricing_plan_id":"free"},{"bike_id":"aa22c1ea-be6a-4a90-ae1e-c5f4358f819f","system_id":"levelo_inurba_marseille","lat":43.272124,"lon":5.391768,"is_reserved":false,"is_disabled":false,"rental_uris":{"android":"levelo://app?vid=aa22c1ea-be6a-4a90-ae1e-c5f4358f819f","ios":"levelo://app?vid=aa22c1ea-be6a-4a90-ae1e-c5f4358f819f"},"vehicle_type_id":"4","last_reported":1700872401,"current_range_meters":22800,"station_id":"ce4bhhp2rcd13ifvqfm0","pricing_plan_id":"free"},{"bike_id":"8f5f574b-8e28-4011-81b8-fdc97b7da9a5","system_id":"levelo_inurba_marseille","lat":43.272116,"lon":5.391763,"is_reserved":false,"is_disabled":false,"rental_uris":{"android":"levelo://app?vid=8f5f574b-8e28-4011-81b8-fdc97b7da9a5","ios":"levelo://app?vid=8f5f574b-8e28-4011-81b8-fdc97b7da9a5"},"vehicle_type_id":"4","last_reported":1700872401,"current_range_meters":31600,"station_id":"ce4bhhp2rcd13ifvqfm0","pricing_plan_id":"free"},{"bike_id":"2c7da182-3f44-4ae1-ab43-3d0682e24d9c","system_id":"levelo_inurba_marseille","lat":43.272116,"lon":5.391763,"is_reserved":false,"is_disabled":false,"rental_uris":{"android":"levelo://app?vid=2c7da182-3f44-4ae1-ab43-3d0682e24d9c","ios":"levelo://app?vid=2c7da182-3f44-4ae1-ab43-3d0682e24d9c"},"vehicle_type_id":"4","last_reported":1700872401,"current_range_meters":6400,"station_id":"ce4bhhp2rcd13ifvqfm0","pricing_plan_id":"free"},{"bike_id":"d0d13fe1-104c-4071-9a2f-8920a3cfc528","system_id":"levelo_inurba_marseille","lat":43.272116,"lon":5.391763,"is_reserved":false,"is_disabled":false,"rental_uris":{"android":"levelo://app?vid=d0d13fe1-104c-4071-9a2f-8920a3cfc528","ios":"levelo://app?vid=d0d13fe1-104c-4071-9a2f-8920a3cfc528"},"vehicle_type_id":"4","last_reported":1700872401,"current_range_meters":29600,"station_id":"ce4bhhp2rcd13ifvqfm0","pricing_plan_id":"free"},{"bike_id":"73176751-e983-409a-913b-01433cfcb5f1","system_id":"levelo_inurba_marseille","lat":43.272118,"lon":5.391758,"is_reserved":false,"is_disabled":false,"rental_uris":{"android":"levelo://app?vid=73176751-e983-409a-913b-01433cfcb5f1","ios":"levelo://app?vid=73176751-e983-409a-913b-01433cfcb5f1"},"vehicle_type_id":"4","last_reported":1700872401,"current_range_meters":21200,"station_id":"ce4bhhp2rcd13ifvqfm0","pricing_plan_id":"free"},{"bike_id":"3c60f82e-c309-4a8c-a544-21e9efb08d7f","system_id":"levelo_inurba_marseille","lat":43.272124,"lon":5.391768,"is_reserved":false,"is_disabled":false,"rental_uris":{"android":"levelo://app?vid=3c60f82e-c309-4a8c-a544-21e9efb08d7f","ios":"levelo://app?vid=3c60f82e-c309-4a8c-a544-21e9efb08d7f"},"vehicle_type_id":"4","last_reported":1700872401,"current_range_meters":28800,"station_id":"ce4bhhp2rcd13ifvqfm0","pricing_plan_id":"free"},{"bike_id":"901fa4ec-9425-49b8-9b51-d554be21da46","system_id":"levelo_inurba_marseille","lat":43.272116,"lon":5.391747,"is_reserved":false,"is_disabled":false,"rental_uris":{"android":"levelo://app?vid=901fa4ec-9425-49b8-9b51-d554be21da46","ios":"levelo://app?vid=901fa4ec-9425-49b8-9b51-d554be21da46"},"vehicle_type_id":"4","last_reported":1700872401,"current_range_meters":31600,"station_id":"ce4bhhp2rcd13ifvqfm0","pricing_plan_id":"free"},{"bike_id":"5901f883-30ae-42bb-900a-5a3cd670a8f8","system_id":"levelo_inurba_marseille","lat":43.272116,"lon":5.391747,"is_reserved":false,"is_disabled":false,"rental_uris":{"android":"levelo://app?vid=5901f883-30ae-42bb-900a-5a3cd670a8f8","ios":"levelo://app?vid=5901f883-30ae-42bb-900a-5a3cd670a8f8"},"vehicle_type_id":"4","last_reported":1700872401,"current_range_meters":30000,"station_id":"ce4bhhp2rcd13ifvqfm0","pricing_plan_id":"free"},{"bike_id":"3b78b081-46f5-4e78-8ba2-dc69d2ab5191","system_id":"levelo_inurba_marseille","lat":43.272118,"lon":5.391758,"is_reserved":false,"is_disabled":false,"rental_uris":{"android":"levelo://app?vid=3b78b081-46f5-4e78-8ba2-dc69d2ab5191","ios":"levelo://app?vid=3b78b081-46f5-4e78-8ba2-dc69d2ab5191"},"vehicle_type_id":"4","last_reported":1700872401,"current_range_meters":27200,"station_id":"ce4bhhp2rcd13ifvqfm0","pricing_plan_id":"free"},{"bike_id":"56260590-b5b4-4119-b0f6-ab98949cafac","system_id":"levelo_inurba_marseille","lat":43.272116,"lon":5.391763,"is_reserved":false,"is_disabled":false,"rental_uris":{"android":"levelo://app?vid=56260590-b5b4-4119-b0f6-ab98949cafac","ios":"levelo://app?vid=56260590-b5b4-4119-b0f6-ab98949cafac"},"vehicle_type_id":"4","last_reported":1700872401,"current_range_meters":30000,"station_id":"ce4bhhp2rcd13ifvqfm0","pricing_plan_id":"free"},{"bike_id":"dd2a2bad-e85b-495d-8fad-30c4e62358c4","system_id":"levelo_inurba_marseille","lat":43.272118,"lon":5.391758,"is_reserved":false,"is_disabled":false,"rental_uris":{"android":"levelo://app?vid=dd2a2bad-e85b-495d-8fad-30c4e62358c4","ios":"levelo://app?vid=dd2a2bad-e85b-495d-8fad-30c4e62358c4"},"vehicle_type_id":"4","last_reported":1700872401,"current_range_meters":31600,"station_id":"ce4bhhp2rcd13ifvqfm0","pricing_plan_id":"free"},{"bike_id":"a5e1fc86-f804-4675-93f6-eca9faf79274","system_id":"levelo_inurba_marseille","lat":43.272118,"lon":5.391758,"is_reserved":false,"is_disabled":false,"rental_uris":{"android":"levelo://app?vid=a5e1fc86-f804-4675-93f6-eca9faf79274","ios":"levelo://app?vid=a5e1fc86-f804-4675-93f6-eca9faf79274"},"vehicle_type_id":"4","last_reported":1700872401,"current_range_meters":20800,"station_id":"ce4bhhp2rcd13ifvqfm0","pricing_plan_id":"free"},{"bike_id":"a5a158f8-deed-4db1-a6b5-eeb728bfdf5e","system_id":"levelo_inurba_marseille","lat":43.272116,"lon":5.391747,"is_reserved":false,"is_disabled":false,"rental_uris":{"android":"levelo://app?vid=a5a158f8-deed-4db1-a6b5-eeb728bfdf5e","ios":"levelo://app?vid=a5a158f8-deed-4db1-a6b5-eeb728bfdf5e"},"vehicle_type_id":"4","last_reported":1700872401,"current_range_meters":31600,"station_id":"ce4bhhp2rcd13ifvqfm0","pricing_plan_id":"free"},{"bike_id":"572302d4-546a-4def-bbcd-7344a2ac172e","system_id":"levelo_inurba_marseille","lat":43.272116,"lon":5.391747,"is_reserved":false,"is_disabled":false,"rental_uris":{"android":"levelo://app?vid=572302d4-546a-4def-bbcd-7344a2ac172e","ios":"levelo://app?vid=572302d4-546a-4def-bbcd-7344a2ac172e"},"vehicle_type_id":"4","last_reported":1700872401,"current_range_meters":32000,"station_id":"ce4bhhp2rcd13ifvqfm0","pricing_plan_id":"free"},{"bike_id":"8e6420e2-b412-4f03-b8cf-0f1c7bc2f261","system_id":"levelo_inurba_marseille","lat":43.272118,"lon":5.391758,"is_reserved":false,"is_disabled":false,"rental_uris":{"android":"levelo://app?vid=8e6420e2-b412-4f03-b8cf-0f1c7bc2f261","ios":"levelo://app?vid=8e6420e2-b412-4f03-b8cf-0f1c7bc2f261"},"vehicle_type_id":"4","last_reported":1700872401,"current_range_meters":25200,"station_id":"ce4bhhp2rcd13ifvqfm0","pricing_plan_id":"free"},{"bike_id":"04d62d6c-0b21-44de-bd80-a24a0b50e10e","system_id":"levelo_inurba_marseille","lat":43.272118,"lon":5.391758,"is_reserved":false,"is_disabled":false,"rental_uris":{"android":"levelo://app?vid=04d62d6c-0b21-44de-bd80-a24a0b50e10e","ios":"levelo://app?vid=04d62d6c-0b21-44de-bd80-a24a0b50e10e"},"vehicle_type_id":"4","last_reported":1700872401,"current_range_meters":14000,"station_id":"ce4bhhp2rcd13ifvqfm0","pricing_plan_id":"free"},{"bike_id":"64182f69-ed8f-42e2-a611-4044e31cb71b","system_id":"levelo_inurba_marseille","lat":43.272124,"lon":5.391768,"is_reserved":false,"is_disabled":false,"rental_uris":{"android":"levelo://app?vid=64182f69-ed8f-42e2-a611-4044e31cb71b","ios":"levelo://app?vid=64182f69-ed8f-42e2-a611-4044e31cb71b"},"vehicle_type_id":"4","last_reported":1700872401,"current_range_meters":32000,"station_id":"ce4bhhp2rcd13ifvqfm0","pricing_plan_id":"free"},{"bike_id":"3dcaea45-77d9-4819-90c9-7cf451e45da0","system_id":"levelo_inurba_marseille","lat":43.272116,"lon":5.391763,"is_reserved":false,"is_disabled":false,"rental_uris":{"android":"levelo://app?vid=3dcaea45-77d9-4819-90c9-7cf451e45da0","ios":"levelo://app?vid=3dcaea45-77d9-4819-90c9-7cf451e45da0"},"vehicle_type_id":"4","last_reported":1700872401,"current_range_meters":28000,"station_id":"ce4bhhp2rcd13ifvqfm0","pricing_plan_id":"free"},{"bike_id":"24b0e14c-2449-4202-ac41-8946d5866910","system_id":"levelo_inurba_marseille","lat":43.272124,"lon":5.391768,"is_reserved":false,"is_disabled":false,"rental_uris":{"android":"levelo://app?vid=24b0e14c-2449-4202-ac41-8946d5866910","ios":"levelo://app?vid=24b0e14c-2449-4202-ac41-8946d5866910"},"vehicle_type_id":"4","last_reported":1700872401,"current_range_meters":30000,"station_id":"ce4bhhp2rcd13ifvqfm0","pricing_plan_id":"free"},{"bike_id":"5cd5ff54-0b74-41d5-be32-e9d0e2959c0b","system_id":"levelo_inurba_marseille","lat":43.272118,"lon":5.391758,"is_reserved":false,"is_disabled":false,"rental_uris":{"android":"levelo://app?vid=5cd5ff54-0b74-41d5-be32-e9d0e2959c0b","ios":"levelo://app?vid=5cd5ff54-0b74-41d5-be32-e9d0e2959c0b"},"vehicle_type_id":"4","last_reported":1700872401,"current_range_meters":31600,"station_id":"ce4bhhp2rcd13ifvqfm0","pricing_plan_id":"free"},{"bike_id":"28e8ce00-6b21-4e06-9930-c7c4408cc650","system_id":"levelo_inurba_marseille","lat":43.278164,"lon":5.407143,"is_reserved":false,"is_disabled":false,"rental_uris":{"android":"levelo://app?vid=28e8ce00-6b21-4e06-9930-c7c4408cc650","ios":"levelo://app?vid=28e8ce00-6b21-4e06-9930-c7c4408cc650"},"vehicle_type_id":"4","last_reported":1700872401,"current_range_meters":0,"station_id":"","pricing_plan_id":"free"},{"bike_id":"fc3c3486-b5e3-401b-9cc4-f32844ec20e0","system_id":"levelo_inurba_marseille","lat":43.279496,"lon":5.410527,"is_reserved":false,"is_disabled":false,"rental_uris":{"android":"levelo://app?vid=fc3c3486-b5e3-401b-9cc4-f32844ec20e0","ios":"levelo://app?vid=fc3c3486-b5e3-401b-9cc4-f32844ec20e0"},"vehicle_type_id":"4","last_reported":1700872401,"current_range_meters":0,"station_id":"ce4bhnp2rcd13ifvqh0g","pricing_plan_id":"free"},{"bike_id":"774a082e-2358-4af1-bbe3-c5fce15d59cf","system_id":"levelo_inurba_marseille","lat":43.269319,"lon":5.389397,"is_reserved":false,"is_disabled":false,"rental_uris":{"android":"levelo://app?vid=774a082e-2358-4af1-bbe3-c5fce15d59cf","ios":"levelo://app?vid=774a082e-2358-4af1-bbe3-c5fce15d59cf"},"vehicle_type_id":"4","last_reported":1700872401,"current_range_meters":24400,"station_id":"ce4bhhh2rcd13ifvqfl0","pricing_plan_id":"free"},{"bike_id":"f23d8119-b478-4639-98c5-6883279f9f84","system_id":"levelo_inurba_marseille","lat":43.32592,"lon":5.43067,"is_reserved":false,"is_disabled":false,"rental_uris":{"android":"levelo://app?vid=f23d8119-b478-4639-98c5-6883279f9f84","ios":"levelo://app?vid=f23d8119-b478-4639-98c5-6883279f9f84"},"vehicle_type_id":"4","last_reported":1700872401,"current_range_meters":28800,"station_id":"","pricing_plan_id":"free"},{"bike_id":"e7b368e8-9edf-4ac8-acef-7e9558d427aa","system_id":"levelo_inurba_marseille","lat":43.32591,"lon":5.430713,"is_reserved":false,"is_disabled":false,"rental_uris":{"android":"levelo://app?vid=e7b368e8-9edf-4ac8-acef-7e9558d427aa","ios":"levelo://app?vid=e7b368e8-9edf-4ac8-acef-7e9558d427aa"},"vehicle_type_id":"4","last_reported":1700872401,"current_range_meters":0,"station_id":"","pricing_plan_id":"free"},{"bike_id":"ed30d6a1-b23a-49e5-9c83-5546be72a734","system_id":"levelo_inurba_marseille","lat":43.3259,"lon":5.43075,"is_reserved":false,"is_disabled":false,"rental_uris":{"android":"levelo://app?vid=ed30d6a1-b23a-49e5-9c83-5546be72a734","ios":"levelo://app?vid=ed30d6a1-b23a-49e5-9c83-5546be72a734"},"vehicle_type_id":"4","last_reported":1700872401,"current_range_meters":23600,"station_id":"","pricing_plan_id":"free"},{"bike_id":"d67469ee-5362-4610-a163-fe05ae3cf4f7","system_id":"levelo_inurba_marseille","lat":43.32604,"lon":5.430817,"is_reserved":false,"is_disabled":false,"rental_uris":{"android":"levelo://app?vid=d67469ee-5362-4610-a163-fe05ae3cf4f7","ios":"levelo://app?vid=d67469ee-5362-4610-a163-fe05ae3cf4f7"},"vehicle_type_id":"4","last_reported":1700872401,"current_range_meters":12000,"station_id":"","pricing_plan_id":"free"},{"bike_id":"32fbbc6b-2b36-4b47-b2bb-379bdb7e6de0","system_id":"levelo_inurba_marseille","lat":43.265714,"lon":5.372891,"is_reserved":false,"is_disabled":false,"rental_uris":{"android":"levelo://app?vid=32fbbc6b-2b36-4b47-b2bb-379bdb7e6de0","ios":"levelo://app?vid=32fbbc6b-2b36-4b47-b2bb-379bdb7e6de0"},"vehicle_type_id":"4","last_reported":1700872401,"current_range_meters":30800,"station_id":"ce4bhg12rcd13ifvqf70","pricing_plan_id":"free"},{"bike_id":"8485df04-2fa0-4caf-ae78-28411bc621b1","system_id":"levelo_inurba_marseille","lat":43.267966,"lon":5.393976,"is_reserved":false,"is_disabled":false,"rental_uris":{"android":"levelo://app?vid=8485df04-2fa0-4caf-ae78-28411bc621b1","ios":"levelo://app?vid=8485df04-2fa0-4caf-ae78-28411bc621b1"},"vehicle_type_id":"4","last_reported":1700872401,"current_range_meters":28000,"station_id":"ce4bhh12rcd13ifvqfg0","pricing_plan_id":"free"},{"bike_id":"b1a1b4a0-b8e3-4eec-b824-7d81745bc34b","system_id":"levelo_inurba_marseille","lat":43.267966,"lon":5.393976,"is_reserved":false,"is_disabled":false,"rental_uris":{"android":"levelo://app?vid=b1a1b4a0-b8e3-4eec-b824-7d81745bc34b","ios":"levelo://app?vid=b1a1b4a0-b8e3-4eec-b824-7d81745bc34b"},"vehicle_type_id":"4","last_reported":1700872401,"current_range_meters":30400,"station_id":"ce4bhh12rcd13ifvqfg0","pricing_plan_id":"free"},{"bike_id":"2b5f0b27-ae58-4e9e-bd76-c585f78e8a73","system_id":"levelo_inurba_marseille","lat":43.26386,"lon":5.37454,"is_reserved":false,"is_disabled":false,"rental_uris":{"android":"levelo://app?vid=2b5f0b27-ae58-4e9e-bd76-c585f78e8a73","ios":"levelo://app?vid=2b5f0b27-ae58-4e9e-bd76-c585f78e8a73"},"vehicle_type_id":"4","last_reported":1700872401,"current_range_meters":12800,"station_id":"","pricing_plan_id":"free"},{"bike_id":"f00797c0-a198-4f4a-aadd-db8078078185","system_id":"levelo_inurba_marseille","lat":43.26566,"lon":5.390037,"is_reserved":false,"is_disabled":false,"rental_uris":{"android":"levelo://app?vid=f00797c0-a198-4f4a-aadd-db8078078185","ios":"levelo://app?vid=f00797c0-a198-4f4a-aadd-db8078078185"},"vehicle_type_id":"4","last_reported":1700872401,"current_range_meters":13200,"station_id":"ce4bhe12rcd13ifvqf30","pricing_plan_id":"free"},{"bike_id":"c282a134-913a-4801-9208-e39fcce4d029","system_id":"levelo_inurba_marseille","lat":43.265571,"lon":5.390032,"is_reserved":false,"is_disabled":false,"rental_uris":{"android":"levelo://app?vid=c282a134-913a-4801-9208-e39fcce4d029","ios":"levelo://app?vid=c282a134-913a-4801-9208-e39fcce4d029"},"vehicle_type_id":"4","last_reported":1700872401,"current_range_meters":1600,"station_id":"ce4bhe12rcd13ifvqf30","pricing_plan_id":"free"},{"bike_id":"80f89bbe-5ef0-4f11-9f5b-8a1f2ebfd112","system_id":"levelo_inurba_marseille","lat":43.269317,"lon":5.402603,"is_reserved":false,"is_disabled":false,"rental_uris":{"android":"levelo://app?vid=80f89bbe-5ef0-4f11-9f5b-8a1f2ebfd112","ios":"levelo://app?vid=80f89bbe-5ef0-4f11-9f5b-8a1f2ebfd112"},"vehicle_type_id":"4","last_reported":1700872401,"current_range_meters":22400,"station_id":"cjm6bp8fraef2m0cb0m0","pricing_plan_id":"free"},{"bike_id":"a6cf9b04-855d-4dc5-9c72-ce4a8e5bbb9c","system_id":"levelo_inurba_marseille","lat":43.317227,"lon":5.436952,"is_reserved":false,"is_disabled":false,"rental_uris":{"android":"levelo://app?vid=a6cf9b04-855d-4dc5-9c72-ce4a8e5bbb9c","ios":"levelo://app?vid=a6cf9b04-855d-4dc5-9c72-ce4a8e5bbb9c"},"vehicle_type_id":"4","last_reported":1700872401,"current_range_meters":400,"station_id":"ce4bhp92rcd13ifvqhcg","pricing_plan_id":"free"},{"bike_id":"f809b2bb-3716-4d7b-8de4-7c32b60e559d","system_id":"levelo_inurba_marseille","lat":43.317104,"lon":5.436818,"is_reserved":false,"is_disabled":false,"rental_uris":{"android":"levelo://app?vid=f809b2bb-3716-4d7b-8de4-7c32b60e559d","ios":"levelo://app?vid=f809b2bb-3716-4d7b-8de4-7c32b60e559d"},"vehicle_type_id":"4","last_reported":1700872401,"current_range_meters":19200,"station_id":"ce4bhp92rcd13ifvqhcg","pricing_plan_id":"free"},{"bike_id":"1b98b7d3-c287-45d9-80ab-ed0171f3329e","system_id":"levelo_inurba_marseille","lat":43.317104,"lon":5.436818,"is_reserved":false,"is_disabled":false,"rental_uris":{"android":"levelo://app?vid=1b98b7d3-c287-45d9-80ab-ed0171f3329e","ios":"levelo://app?vid=1b98b7d3-c287-45d9-80ab-ed0171f3329e"},"vehicle_type_id":"4","last_reported":1700872401,"current_range_meters":30400,"station_id":"ce4bhp92rcd13ifvqhcg","pricing_plan_id":"free"},{"bike_id":"4572da7b-b339-4c7f-80aa-57f54e950769","system_id":"levelo_inurba_marseille","lat":43.271388,"lon":5.409269,"is_reserved":false,"is_disabled":false,"rental_uris":{"android":"levelo://app?vid=4572da7b-b339-4c7f-80aa-57f54e950769","ios":"levelo://app?vid=4572da7b-b339-4c7f-80aa-57f54e950769"},"vehicle_type_id":"4","last_reported":1700872401,"current_range_meters":26400,"station_id":"ce4bhl12rcd13ifvqgf0","pricing_plan_id":"free"},{"bike_id":"2f057b81-6fc8-4570-8186-e577abd426a5","system_id":"levelo_inurba_marseille","lat":43.262012,"lon":5.379307,"is_reserved":false,"is_disabled":false,"rental_uris":{"android":"levelo://app?vid=2f057b81-6fc8-4570-8186-e577abd426a5","ios":"levelo://app?vid=2f057b81-6fc8-4570-8186-e577abd426a5"},"vehicle_type_id":"4","last_reported":1700872401,"current_range_meters":5600,"station_id":"ce4bhjp2rcd13ifvqg90","pricing_plan_id":"free"},{"bike_id":"67839cdf-c8b8-4577-88bf-4372677836f5","system_id":"levelo_inurba_marseille","lat":43.26202,"lon":5.379299,"is_reserved":false,"is_disabled":false,"rental_uris":{"android":"levelo://app?vid=67839cdf-c8b8-4577-88bf-4372677836f5","ios":"levelo://app?vid=67839cdf-c8b8-4577-88bf-4372677836f5"},"vehicle_type_id":"4","last_reported":1700872401,"current_range_meters":24000,"station_id":"ce4bhjp2rcd13ifvqg90","pricing_plan_id":"free"},{"bike_id":"001de6f8-100f-4d90-9035-712cc428c1d5","system_id":"levelo_inurba_marseille","lat":43.267959,"lon":5.402687,"is_reserved":false,"is_disabled":false,"rental_uris":{"android":"levelo://app?vid=001de6f8-100f-4d90-9035-712cc428c1d5","ios":"levelo://app?vid=001de6f8-100f-4d90-9035-712cc428c1d5"},"vehicle_type_id":"4","last_reported":1700872401,"current_range_meters":10400,"station_id":"ce501612rcd8frsf0b60","pricing_plan_id":"free"},{"bike_id":"91794d0e-e2e6-4dd9-a1b6-ff7501e49342","system_id":"levelo_inurba_marseille","lat":43.299013,"lon":5.436688,"is_reserved":false,"is_disabled":false,"rental_uris":{"android":"levelo://app?vid=91794d0e-e2e6-4dd9-a1b6-ff7501e49342","ios":"levelo://app?vid=91794d0e-e2e6-4dd9-a1b6-ff7501e49342"},"vehicle_type_id":"4","last_reported":1700872401,"current_range_meters":4000,"station_id":"ce4bhpp2rcd13ifvqhfg","pricing_plan_id":"free"},{"bike_id":"8af0d2ed-93d1-485d-9803-40c71e52d0d9","system_id":"levelo_inurba_marseille","lat":43.298986,"lon":5.436683,"is_reserved":false,"is_disabled":false,"rental_uris":{"android":"levelo://app?vid=8af0d2ed-93d1-485d-9803-40c71e52d0d9","ios":"levelo://app?vid=8af0d2ed-93d1-485d-9803-40c71e52d0d9"},"vehicle_type_id":"4","last_reported":1700872401,"current_range_meters":17200,"station_id":"ce4bhpp2rcd13ifvqhfg","pricing_plan_id":"free"},{"bike_id":"7c5a83ac-336c-4b91-a5ea-82b3c6d6127d","system_id":"levelo_inurba_marseille","lat":43.298768,"lon":5.43643,"is_reserved":false,"is_disabled":false,"rental_uris":{"android":"levelo://app?vid=7c5a83ac-336c-4b91-a5ea-82b3c6d6127d","ios":"levelo://app?vid=7c5a83ac-336c-4b91-a5ea-82b3c6d6127d"},"vehicle_type_id":"4","last_reported":1700872401,"current_range_meters":30000,"station_id":"ce4bhpp2rcd13ifvqhfg","pricing_plan_id":"free"},{"bike_id":"1e272c67-0721-4a45-a082-8c54474509d1","system_id":"levelo_inurba_marseille","lat":43.29901,"lon":5.436851,"is_reserved":false,"is_disabled":false,"rental_uris":{"android":"levelo://app?vid=1e272c67-0721-4a45-a082-8c54474509d1","ios":"levelo://app?vid=1e272c67-0721-4a45-a082-8c54474509d1"},