{"last_updated":1737807307,"ttl":60,"version":"2.2","data":{"bikes":[{"bike_id":"e8bc2939-1915-4b1a-8a90-549fa526f797","system_id":"levelo_inurba_marseille","lat":43.27418,"lon":5.39416,"is_reserved":false,"is_disabled":false,"rental_uris":{"android":"levelo://app?vid=e8bc2939-1915-4b1a-8a90-549fa526f797","ios":"levelo://app?vid=e8bc2939-1915-4b1a-8a90-549fa526f797"},"vehicle_type_id":"4","last_reported":1737807307,"current_range_meters":38400,"station_id":"ce4bhdp2rcd13ifvqf20","pricing_plan_id":"cebpf4jnsgd1na2vs0mg"},{"bike_id":"7ae5b370-edbc-417e-9cf9-5608d3296075","system_id":"levelo_inurba_marseille","lat":43.27831,"lon":5.39215,"is_reserved":false,"is_disabled":false,"rental_uris":{"android":"levelo://app?vid=7ae5b370-edbc-417e-9cf9-5608d3296075","ios":"levelo://app?vid=7ae5b370-edbc-417e-9cf9-5608d3296075"},"vehicle_type_id":"4","last_reported":1737807307,"current_range_meters":27200,"station_id":"ce4bhjp2rcd13ifvqga0","pricing_plan_id":"cebpf4jnsgd1na2vs0mg"},{"bike_id":"83d6ce04-9d99-45fa-9ffb-39f7af6b8358","system_id":"levelo_inurba_marseille","lat":43.29516,"lon":5.39056,"is_reserved":false,"is_disabled":false,"rental_uris":{"android":"levelo://app?vid=83d6ce04-9d99-45fa-9ffb-39f7af6b8358","ios":"levelo://app?vid=83d6ce04-9d99-45fa-9ffb-39f7af6b8358"},"vehicle_type_id":"4","last_reported":1737807307,"current_range_meters":38000,"station_id":"ce4bh3p2rcd13ifvqdp0","pricing_plan_id":"cebpf4jnsgd1na2vs0mg"},{"bike_id":"22fdda07-29f7-4097-aa7c-457566d3caba","system_id":"levelo_inurba_marseille","lat":43.25089,"lon":5.39517,"is_reserved":false,"is_disabled":false,"rental_uris":{"android":"levelo://app?vid=22fdda07-29f7-4097-aa7c-457566d3caba","ios":"levelo://app?vid=22fdda07-29f7-4097-aa7c-457566d3caba"},"vehicle_type_id":"4","last_reported":1737807307,"current_range_meters":30000,"station_id":"ce4bhm12rcd13ifvqgkg","pricing_plan_id":"cebpf4jnsgd1na2vs0mg"},{"bike_id":"8c964ee4-38c3-4de8-9045-d32f4c643923","system_id":"levelo_inurba_marseille","lat":43.29906,"lon":5.37506,"is_reserved":false,"is_disabled":false,"rental_uris":{"android":"levelo://app?vid=8c964ee4-38c3-4de8-9045-d32f4c643923","ios":"levelo://app?vid=8c964ee4-38c3-4de8-9045-d32f4c643923"},"vehicle_type_id":"4","last_reported":1737807307,"current_range_meters":37600,"station_id":"ce4bgjh2rcd13ifvqbg0","pricing_plan_id":"cebpf4jnsgd1na2vs0mg"},{"bike_id":"e3f9cb26-dbd7-4487-bcf7-ad1275ce25c6","system_id":"levelo_inurba_marseille","lat":43.27998,"lon":5.41666,"is_reserved":false,"is_disabled":false,"rental_uris":{"android":"levelo://app?vid=e3f9cb26-dbd7-4487-bcf7-ad1275ce25c6","ios":"levelo://app?vid=e3f9cb26-dbd7-4487-bcf7-ad1275ce25c6"},"vehicle_type_id":"4","last_reported":1737807307,"current_range_meters":20800,"station_id":"ce4bho12rcd13ifvqh1g","pricing_plan_id":"cebpf4jnsgd1na2vs0mg"},{"bike_id":"58d9e3df-28a3-4560-b2cd-4d33fefbd544","system_id":"levelo_inurba_marseille","lat":43.28364,"lon":5.38134,"is_reserved":false,"is_disabled":true,"rental_uris":{"android":"levelo://app?vid=58d9e3df-28a3-4560-b2cd-4d33fefbd544","ios":"levelo://app?vid=58d9e3df-28a3-4560-b2cd-4d33fefbd544"},"vehicle_type_id":"4","last_reported":1737807307,"current_range_meters":22800,"station_id":"ce4bh412rcd13ifvqdr0","pricing_plan_id":"cebpf4jnsgd1na2vs0mg"},{"bike_id":"0793f05d-0029-4d54-a0fe-9c0436426db5","system_id":"levelo_inurba_marseille","lat":43.23186,"lon":5.35554,"is_reserved":false,"is_disabled":false,"rental_uris":{"android":"levelo://app?vid=0793f05d-0029-4d54-a0fe-9c0436426db5","ios":"levelo://app?vid=0793f05d-0029-4d54-a0fe-9c0436426db5"},"vehicle_type_id":"4","last_reported":1737807307,"current_range_meters":39200,"station_id":"ce4bhu92rcd13ifvqi70","pricing_plan_id":"cebpf4jnsgd1na2vs0mg"},{"bike_id":"2e69219e-a32a-45dd-bfbe-a39a3389fa1c","system_id":"levelo_inurba_marseille","lat":43.25078,"lon":5.39514,"is_reserved":false,"is_disabled":false,"rental_uris":{"android":"levelo://app?vid=2e69219e-a32a-45dd-bfbe-a39a3389fa1c","ios":"levelo://app?vid=2e69219e-a32a-45dd-bfbe-a39a3389fa1c"},"vehicle_type_id":"4","last_reported":1737807307,"current_range_meters":28000,"station_id":"ce4bhm12rcd13ifvqgkg","pricing_plan_id":"cebpf4jnsgd1na2vs0mg"},{"bike_id":"4914872c-162c-4b5d-a9af-cff65f389580","system_id":"levelo_inurba_marseille","lat":43.29592,"lon":5.38088,"is_reserved":false,"is_disabled":true,"rental_uris":{"android":"levelo://app?vid=4914872c-162c-4b5d-a9af-cff65f389580","ios":"levelo://app?vid=4914872c-162c-4b5d-a9af-cff65f389580"},"vehicle_type_id":"4","last_reported":1737807307,"current_range_meters":0,"station_id":"ce4bgl12rcd13ifvqbo0","pricing_plan_id":"cebpf4jnsgd1na2vs0mg"},{"bike_id":"f19dc989-9b1f-48ea-abf9-5fac135f6a39","system_id":"levelo_inurba_marseille","lat":43.28269,"lon":5.35096,"is_reserved":false,"is_disabled":false,"rental_uris":{"android":"levelo://app?vid=f19dc989-9b1f-48ea-abf9-5fac135f6a39","ios":"levelo://app?vid=f19dc989-9b1f-48ea-abf9-5fac135f6a39"},"vehicle_type_id":"4","last_reported":1737807307,"current_range_meters":38800,"station_id":"ce4bhbp2rcd13ifvqerg","pricing_plan_id":"cebpf4jnsgd1na2vs0mg"},{"bike_id":"78f1bcbe-297f-4d89-be9d-ff7c664d65b5","system_id":"levelo_inurba_marseille","lat":43.27183,"lon":5.40998,"is_reserved":false,"is_disabled":false,"rental_uris":{"android":"levelo://app?vid=78f1bcbe-297f-4d89-be9d-ff7c664d65b5","ios":"levelo://app?vid=78f1bcbe-297f-4d89-be9d-ff7c664d65b5"},"vehicle_type_id":"4","last_reported":1737807307,"current_range_meters":9200,"station_id":"ce4bhl12rcd13ifvqgf0","pricing_plan_id":"cebpf4jnsgd1na2vs0mg"},{"bike_id":"b75fb621-ddf4-43e4-8307-4e53f1879d3d","system_id":"levelo_inurba_marseille","lat":43.3055,"lon":5.36545,"is_reserved":false,"is_disabled":false,"rental_uris":{"android":"levelo://app?vid=b75fb621-ddf4-43e4-8307-4e53f1879d3d","ios":"levelo://app?vid=b75fb621-ddf4-43e4-8307-4e53f1879d3d"},"vehicle_type_id":"4","last_reported":1737807307,"current_range_meters":36400,"station_id":"ce4bgs12rcd13ifvqcag","pricing_plan_id":"cebpf4jnsgd1na2vs0mg"},{"bike_id":"b1279c7a-1446-4139-9aa3-d2ea00fcb203","system_id":"levelo_inurba_marseille","lat":43.32527,"lon":5.41455,"is_reserved":false,"is_disabled":false,"rental_uris":{"android":"levelo://app?vid=b1279c7a-1446-4139-9aa3-d2ea00fcb203","ios":"levelo://app?vid=b1279c7a-1446-4139-9aa3-d2ea00fcb203"},"vehicle_type_id":"4","last_reported":1737807307,"current_range_meters":37600,"station_id":"ce4bhq12rcd13ifvqhhg","pricing_plan_id":"cebpf4jnsgd1na2vs0mg"},{"bike_id":"7d0e70a8-ef0b-4f1a-9a95-f911df4aa629","system_id":"levelo_inurba_marseille","lat":43.26492,"lon":5.39546,"is_reserved":false,"is_disabled":false,"rental_uris":{"android":"levelo://app?vid=7d0e70a8-ef0b-4f1a-9a95-f911df4aa629","ios":"levelo://app?vid=7d0e70a8-ef0b-4f1a-9a95-f911df4aa629"},"vehicle_type_id":"4","last_reported":1737807307,"current_range_meters":10000,"station_id":"ce4bhi12rcd13ifvqfq0","pricing_plan_id":"cebpf4jnsgd1na2vs0mg"},{"bike_id":"24a66805-c17e-471a-bdd5-de10fae324cf","system_id":"levelo_inurba_marseille","lat":43.23209,"lon":5.3557,"is_reserved":false,"is_disabled":false,"rental_uris":{"android":"levelo://app?vid=24a66805-c17e-471a-bdd5-de10fae324cf","ios":"levelo://app?vid=24a66805-c17e-471a-bdd5-de10fae324cf"},"vehicle_type_id":"4","last_reported":1737807307,"current_range_meters":14800,"station_id":"ce4bhu92rcd13ifvqi70","pricing_plan_id":"cebpf4jnsgd1na2vs0mg"},{"bike_id":"9687ab49-0eb1-48af-af9a-9d5625ef7192","system_id":"levelo_inurba_marseille","lat":43.30135,"lon":5.3742,"is_reserved":false,"is_disabled":false,"rental_uris":{"android":"levelo://app?vid=9687ab49-0eb1-48af-af9a-9d5625ef7192","ios":"levelo://app?vid=9687ab49-0eb1-48af-af9a-9d5625ef7192"},"vehicle_type_id":"4","last_reported":1737807307,"current_range_meters":20800,"station_id":"ce4bgs92rcd13ifvqcc0","pricing_plan_id":"cebpf4jnsgd1na2vs0mg"},{"bike_id":"9fa14550-b343-4ac3-9931-2c3f234d871f","system_id":"levelo_inurba_marseille","lat":43.30616,"lon":5.38435,"is_reserved":false,"is_disabled":false,"rental_uris":{"android":"levelo://app?vid=9fa14550-b343-4ac3-9931-2c3f234d871f","ios":"levelo://app?vid=9fa14550-b343-4ac3-9931-2c3f234d871f"},"vehicle_type_id":"4","last_reported":1737807307,"current_range_meters":36400,"station_id":"ce4bgg92rcd13ifvqb30","pricing_plan_id":"cebpf4jnsgd1na2vs0mg"},{"bike_id":"9d5ccda8-3701-45d5-9f90-ad50ba3514f0","system_id":"levelo_inurba_marseille","lat":43.28411,"lon":5.34991,"is_reserved":false,"is_disabled":false,"rental_uris":{"android":"levelo://app?vid=9d5ccda8-3701-45d5-9f90-ad50ba3514f0","ios":"levelo://app?vid=9d5ccda8-3701-45d5-9f90-ad50ba3514f0"},"vehicle_type_id":"4","last_reported":1737807307,"current_range_meters":25200,"station_id":"ce4bhbh2rcd13ifvqepg","pricing_plan_id":"cebpf4jnsgd1na2vs0mg"},{"bike_id":"b8dabcf6-0a30-4ef3-864d-5a2b0008cb16","system_id":"levelo_inurba_marseille","lat":43.3171,"lon":5.43707,"is_reserved":false,"is_disabled":false,"rental_uris":{"android":"levelo://app?vid=b8dabcf6-0a30-4ef3-864d-5a2b0008cb16","ios":"levelo://app?vid=b8dabcf6-0a30-4ef3-864d-5a2b0008cb16"},"vehicle_type_id":"4","last_reported":1737807307,"current_range_meters":18000,"station_id":"ce4bhp92rcd13ifvqhcg","pricing_plan_id":"cebpf4jnsgd1na2vs0mg"},{"bike_id":"5c15a029-e897-4208-9fad-ec5d3fccd2d5","system_id":"levelo_inurba_marseille","lat":43.28605,"lon":5.37067,"is_reserved":false,"is_disabled":false,"rental_uris":{"android":"levelo://app?vid=5c15a029-e897-4208-9fad-ec5d3fccd2d5","ios":"levelo://app?vid=5c15a029-e897-4208-9fad-ec5d3fccd2d5"},"vehicle_type_id":"4","last_reported":1737807307,"current_range_meters":18000,"station_id":"ce4bht12rcd13ifvqi60","pricing_plan_id":"cebpf4jnsgd1na2vs0mg"},{"bike_id":"f7ac40bf-9ec2-46b3-898f-7f04d59d08e5","system_id":"levelo_inurba_marseille","lat":43.27186,"lon":5.41058,"is_reserved":false,"is_disabled":false,"rental_uris":{"android":"levelo://app?vid=f7ac40bf-9ec2-46b3-898f-7f04d59d08e5","ios":"levelo://app?vid=f7ac40bf-9ec2-46b3-898f-7f04d59d08e5"},"vehicle_type_id":"4","last_reported":1737807307,"current_range_meters":15200,"station_id":"ce4bhl12rcd13ifvqgf0","pricing_plan_id":"cebpf4jnsgd1na2vs0mg"},{"bike_id":"d6fd12db-b649-491b-ae85-e4bec940de64","system_id":"levelo_inurba_marseille","lat":43.30519,"lon":5.36536,"is_reserved":false,"is_disabled":false,"rental_uris":{"android":"levelo://app?vid=d6fd12db-b649-491b-ae85-e4bec940de64","ios":"levelo://app?vid=d6fd12db-b649-491b-ae85-e4bec940de64"},"vehicle_type_id":"4","last_reported":1737807307,"current_range_meters":39200,"station_id":"ce4bgs12rcd13ifvqcag","pricing_plan_id":"cebpf4jnsgd1na2vs0mg"},{"bike_id":"7ff41bb0-58bb-4e7a-856f-2a2aba66f15e","system_id":"levelo_inurba_marseille","lat":43.31717,"lon":5.43691,"is_reserved":false,"is_disabled":false,"rental_uris":{"android":"levelo://app?vid=7ff41bb0-58bb-4e7a-856f-2a2aba66f15e","ios":"levelo://app?vid=7ff41bb0-58bb-4e7a-856f-2a2aba66f15e"},"vehicle_type_id":"4","last_reported":1737807307,"current_range_meters":39200,"station_id":"ce4bhp92rcd13ifvqhcg","pricing_plan_id":"cebpf4jnsgd1na2vs0mg"},{"bike_id":"fe184b4b-9d25-408a-9883-cb03c07b1e90","system_id":"levelo_inurba_marseille","lat":43.23195,"lon":5.35565,"is_reserved":false,"is_disabled":false,"rental_uris":{"android":"levelo://app?vid=fe184b4b-9d25-408a-9883-cb03c07b1e90","ios":"levelo://app?vid=fe184b4b-9d25-408a-9883-cb03c07b1e90"},"vehicle_type_id":"4","last_reported":1737807307,"current_range_meters":30000,"station_id":"ce4bhu92rcd13ifvqi70","pricing_plan_id":"cebpf4jnsgd1na2vs0mg"},{"bike_id":"a30351db-fe9e-4b20-8751-6b327939c9b8","system_id":"levelo_inurba_marseille","lat":43.30167,"lon":5.38086,"is_reserved":false,"is_disabled":false,"rental_uris":{"android":"levelo://app?vid=a30351db-fe9e-4b20-8751-6b327939c9b8","ios":"levelo://app?vid=a30351db-fe9e-4b20-8751-6b327939c9b8"},"vehicle_type_id":"4","last_reported":1737807307,"current_range_meters":33200,"station_id":"ce4bgjp2rcd13ifvqbh0","pricing_plan_id":"cebpf4jnsgd1na2vs0mg"},{"bike_id":"d28a08f4-b8e3-43ff-90bf-8177ac7549ea","system_id":"levelo_inurba_marseille","lat":43.25584,"lon":5.38242,"is_reserved":false,"is_disabled":false,"rental_uris":{"android":"levelo://app?vid=d28a08f4-b8e3-43ff-90bf-8177ac7549ea","ios":"levelo://app?vid=d28a08f4-b8e3-43ff-90bf-8177ac7549ea"},"vehicle_type_id":"4","last_reported":1737807307,"current_range_meters":38800,"station_id":"ce4bhih2rcd13ifvqfs0","pricing_plan_id":"cebpf4jnsgd1na2vs0mg"},{"bike_id":"32a7e43c-c18d-4825-8e64-9dff47c13f05","system_id":"levelo_inurba_marseille","lat":43.29682,"lon":5.373,"is_reserved":false,"is_disabled":false,"rental_uris":{"android":"levelo://app?vid=32a7e43c-c18d-4825-8e64-9dff47c13f05","ios":"levelo://app?vid=32a7e43c-c18d-4825-8e64-9dff47c13f05"},"vehicle_type_id":"4","last_reported":1737807307,"current_range_meters":16800,"station_id":"ce4bgk12rcd13ifvqbj0","pricing_plan_id":"cebpf4jnsgd1na2vs0mg"},{"bike_id":"bebc52aa-759c-4713-8c42-8a9a04f9da60","system_id":"levelo_inurba_marseille","lat":43.27648,"lon":5.36145,"is_reserved":false,"is_disabled":false,"rental_uris":{"android":"levelo://app?vid=bebc52aa-759c-4713-8c42-8a9a04f9da60","ios":"levelo://app?vid=bebc52aa-759c-4713-8c42-8a9a04f9da60"},"vehicle_type_id":"4","last_reported":1737807307,"current_range_meters":17600,"station_id":"ce4bgj92rcd13ifvqbe0","pricing_plan_id":"cebpf4jnsgd1na2vs0mg"},{"bike_id":"8286799e-763f-468e-8bf5-75302a8ecbf9","system_id":"levelo_inurba_marseille","lat":43.29789,"lon":5.37102,"is_reserved":false,"is_disabled":false,"rental_uris":{"android":"levelo://app?vid=8286799e-763f-468e-8bf5-75302a8ecbf9","ios":"levelo://app?vid=8286799e-763f-468e-8bf5-75302a8ecbf9"},"vehicle_type_id":"4","last_reported":1737807307,"current_range_meters":35200,"station_id":"ce4bgop2rcd13ifvqc1g","pricing_plan_id":"cebpf4jnsgd1na2vs0mg"},{"bike_id":"4a3ca55c-fef4-43f3-af2c-be858b71f7ad","system_id":"levelo_inurba_marseille","lat":43.2501,"lon":5.38938,"is_reserved":false,"is_disabled":false,"rental_uris":{"android":"levelo://app?vid=4a3ca55c-fef4-43f3-af2c-be858b71f7ad","ios":"levelo://app?vid=4a3ca55c-fef4-43f3-af2c-be858b71f7ad"},"vehicle_type_id":"4","last_reported":1737807307,"current_range_meters":9600,"station_id":"ce4bhgp2rcd13ifvqfd0","pricing_plan_id":"cebpf4jnsgd1na2vs0mg"},{"bike_id":"a10d56fe-8c59-4699-a750-9d73c7dede29","system_id":"levelo_inurba_marseille","lat":43.29585,"lon":5.3674,"is_reserved":false,"is_disabled":false,"rental_uris":{"android":"levelo://app?vid=a10d56fe-8c59-4699-a750-9d73c7dede29","ios":"levelo://app?vid=a10d56fe-8c59-4699-a750-9d73c7dede29"},"vehicle_type_id":"4","last_reported":1737807307,"current_range_meters":14000,"station_id":"ce4bgph2rcd13ifvqc2g","pricing_plan_id":"cebpf4jnsgd1na2vs0mg"},{"bike_id":"200ddf53-a54a-4bcb-b67b-f4196a9a5c8c","system_id":"levelo_inurba_marseille","lat":43.27961,"lon":5.38704,"is_reserved":false,"is_disabled":true,"rental_uris":{"android":"levelo://app?vid=200ddf53-a54a-4bcb-b67b-f4196a9a5c8c","ios":"levelo://app?vid=200ddf53-a54a-4bcb-b67b-f4196a9a5c8c"},"vehicle_type_id":"4","last_reported":1737807307,"current_range_meters":2000,"station_id":"ce4bhg12rcd13ifvqf80","pricing_plan_id":"cebpf4jnsgd1na2vs0mg"},{"bike_id":"548e1f8c-f86f-437f-8d1c-280a7faaee0a","system_id":"levelo_inurba_marseille","lat":43.296,"lon":5.37718,"is_reserved":false,"is_disabled":false,"rental_uris":{"android":"levelo://app?vid=548e1f8c-f86f-437f-8d1c-280a7faaee0a","ios":"levelo://app?vid=548e1f8c-f86f-437f-8d1c-280a7faaee0a"},"vehicle_type_id":"4","last_reported":1737807307,"current_range_meters":39200,"station_id":"ce4bgi92rcd13ifvqb90","pricing_plan_id":"cebpf4jnsgd1na2vs0mg"},{"bike_id":"3608a3cf-49c3-46d4-b709-f8e9629a9213","system_id":"levelo_inurba_marseille","lat":43.24646,"lon":5.38897,"is_reserved":false,"is_disabled":false,"rental_uris":{"android":"levelo://app?vid=3608a3cf-49c3-46d4-b709-f8e9629a9213","ios":"levelo://app?vid=3608a3cf-49c3-46d4-b709-f8e9629a9213"},"vehicle_type_id":"4","last_reported":1737807307,"current_range_meters":4800,"station_id":"ce4bhg12rcd13ifvqf60","pricing_plan_id":"cebpf4jnsgd1na2vs0mg"},{"bike_id":"72805537-feaa-4a34-a7f7-4b9e6e1718d5","system_id":"levelo_inurba_marseille","lat":43.28964,"lon":5.37839,"is_reserved":false,"is_disabled":false,"rental_uris":{"android":"levelo://app?vid=72805537-feaa-4a34-a7f7-4b9e6e1718d5","ios":"levelo://app?vid=72805537-feaa-4a34-a7f7-4b9e6e1718d5"},"vehicle_type_id":"4","last_reported":1737807307,"current_range_meters":39200,"station_id":"ce4bh9p2rcd13ifvqed0","pricing_plan_id":"cebpf4jnsgd1na2vs0mg"},{"bike_id":"14bf4a6f-fef1-4a06-b3aa-0e981ead5f8c","system_id":"levelo_inurba_marseille","lat":43.30304,"lon":5.37694,"is_reserved":false,"is_disabled":false,"rental_uris":{"android":"levelo://app?vid=14bf4a6f-fef1-4a06-b3aa-0e981ead5f8c","ios":"levelo://app?vid=14bf4a6f-fef1-4a06-b3aa-0e981ead5f8c"},"vehicle_type_id":"4","last_reported":1737807307,"current_range_meters":8000,"station_id":"ce4bguh2rcd13ifvqcj0","pricing_plan_id":"cebpf4jnsgd1na2vs0mg"},{"bike_id":"b11a17e3-16e5-470b-bf3a-83e311a39fc4","system_id":"levelo_inurba_marseille","lat":43.287097,"lon":5.37395,"is_reserved":false,"is_disabled":false,"rental_uris":{"android":"levelo://app?vid=b11a17e3-16e5-470b-bf3a-83e311a39fc4","ios":"levelo://app?vid=b11a17e3-16e5-470b-bf3a-83e311a39fc4"},"vehicle_type_id":"4","last_reported":1737807307,"current_range_meters":38800,"station_id":"ce4bh3p2rcd13ifvqdq0","pricing_plan_id":"cebpf4jnsgd1na2vs0mg"},{"bike_id":"54ce1a66-7db5-4b7d-ba73-898b5c53aa73","system_id":"levelo_inurba_marseille","lat":43.23955,"lon":5.36653,"is_reserved":false,"is_disabled":false,"rental_uris":{"android":"levelo://app?vid=54ce1a66-7db5-4b7d-ba73-898b5c53aa73","ios":"levelo://app?vid=54ce1a66-7db5-4b7d-ba73-898b5c53aa73"},"vehicle_type_id":"4","last_reported":1737807307,"current_range_meters":12400,"station_id":"ce4bhi12rcd13ifvqfp0","pricing_plan_id":"cebpf4jnsgd1na2vs0mg"},{"bike_id":"4a42291b-34e8-49cc-9020-b6cdaf599b0c","system_id":"levelo_inurba_marseille","lat":43.29965,"lon":5.37204,"is_reserved":false,"is_disabled":false,"rental_uris":{"android":"levelo://app?vid=4a42291b-34e8-49cc-9020-b6cdaf599b0c","ios":"levelo://app?vid=4a42291b-34e8-49cc-9020-b6cdaf599b0c"},"vehicle_type_id":"4","last_reported":1737807307,"current_range_meters":38800,"station_id":"ce4bgr92rcd13ifvqc7g","pricing_plan_id":"cebpf4jnsgd1na2vs0mg"},{"bike_id":"596ddc7f-d26a-4319-879e-a0216d9b96c8","system_id":"levelo_inurba_marseille","lat":43.29187,"lon":5.37158,"is_reserved":false,"is_disabled":false,"rental_uris":{"android":"levelo://app?vid=596ddc7f-d26a-4319-879e-a0216d9b96c8","ios":"levelo://app?vid=596ddc7f-d26a-4319-879e-a0216d9b96c8"},"vehicle_type_id":"4","last_reported":1737807307,"current_range_meters":39200,"station_id":"ce4bha92rcd13ifvqeh0","pricing_plan_id":"cebpf4jnsgd1na2vs0mg"},{"bike_id":"d0655a64-f33b-420f-acf1-a8b5cd94ebf1","system_id":"levelo_inurba_marseille","lat":43.31337,"lon":5.36725,"is_reserved":false,"is_disabled":false,"rental_uris":{"android":"levelo://app?vid=d0655a64-f33b-420f-acf1-a8b5cd94ebf1","ios":"levelo://app?vid=d0655a64-f33b-420f-acf1-a8b5cd94ebf1"},"vehicle_type_id":"4","last_reported":1737807307,"current_range_meters":18800,"station_id":"ce4bgr92rcd13ifvqc6g","pricing_plan_id":"cebpf4jnsgd1na2vs0mg"},{"bike_id":"7f444722-4a28-4a0d-8ed5-a9a85bf495a8","system_id":"levelo_inurba_marseille","lat":43.29256,"lon":5.40114,"is_reserved":false,"is_disabled":false,"rental_uris":{"android":"levelo://app?vid=7f444722-4a28-4a0d-8ed5-a9a85bf495a8","ios":"levelo://app?vid=7f444722-4a28-4a0d-8ed5-a9a85bf495a8"},"vehicle_type_id":"4","last_reported":1737807307,"current_range_meters":10000,"station_id":"ce4bh312rcd13ifvqdk0","pricing_plan_id":"cebpf4jnsgd1na2vs0mg"},{"bike_id":"34aa6db6-d08c-4f6b-ad5e-1bad446eaa72","system_id":"levelo_inurba_marseille","lat":43.232,"lon":5.40004,"is_reserved":false,"is_disabled":false,"rental_uris":{"android":"levelo://app?vid=34aa6db6-d08c-4f6b-ad5e-1bad446eaa72","ios":"levelo://app?vid=34aa6db6-d08c-4f6b-ad5e-1bad446eaa72"},"vehicle_type_id":"4","last_reported":1737807307,"current_range_meters":38400,"station_id":"ce4bhn12rcd13ifvqgqg","pricing_plan_id":"cebpf4jnsgd1na2vs0mg"},{"bike_id":"94155216-1fa7-44c1-b5e9-67c0da1d93c6","system_id":"levelo_inurba_marseille","lat":43.279587,"lon":5.41055,"is_reserved":false,"is_disabled":false,"rental_uris":{"android":"levelo://app?vid=94155216-1fa7-44c1-b5e9-67c0da1d93c6","ios":"levelo://app?vid=94155216-1fa7-44c1-b5e9-67c0da1d93c6"},"vehicle_type_id":"4","last_reported":1737807307,"current_range_meters":36400,"station_id":"ce4bhnp2rcd13ifvqh0g","pricing_plan_id":"cebpf4jnsgd1na2vs0mg"},{"bike_id":"f45bf20d-7a46-40ad-af2a-10a351af91dc","system_id":"levelo_inurba_marseille","lat":43.28044,"lon":5.36949,"is_reserved":false,"is_disabled":false,"rental_uris":{"android":"levelo://app?vid=f45bf20d-7a46-40ad-af2a-10a351af91dc","ios":"levelo://app?vid=f45bf20d-7a46-40ad-af2a-10a351af91dc"},"vehicle_type_id":"4","last_reported":1737807307,"current_range_meters":24000,"station_id":"ce4bha12rcd13ifvqef0","pricing_plan_id":"cebpf4jnsgd1na2vs0mg"},{"bike_id":"a2dbdc7e-8ab2-4f75-8035-18bef5b78a3b","system_id":"levelo_inurba_marseille","lat":43.25856,"lon":5.39926,"is_reserved":false,"is_disabled":false,"rental_uris":{"android":"levelo://app?vid=a2dbdc7e-8ab2-4f75-8035-18bef5b78a3b","ios":"levelo://app?vid=a2dbdc7e-8ab2-4f75-8035-18bef5b78a3b"},"vehicle_type_id":"4","last_reported":1737807307,"current_range_meters":37600,"station_id":"ce4bhl92rcd13ifvqghg","pricing_plan_id":"cebpf4jnsgd1na2vs0mg"},{"bike_id":"9382a9ac-6268-4537-8d4c-1e70a6d4ac7d","system_id":"levelo_inurba_marseille","lat":43.25717,"lon":5.4112,"is_reserved":false,"is_disabled":false,"rental_uris":{"android":"levelo://app?vid=9382a9ac-6268-4537-8d4c-1e70a6d4ac7d","ios":"levelo://app?vid=9382a9ac-6268-4537-8d4c-1e70a6d4ac7d"},"vehicle_type_id":"4","last_reported":1737807307,"current_range_meters":8000,"station_id":"ce4bhkp2rcd13ifvqgd0","pricing_plan_id":"cebpf4jnsgd1na2vs0mg"},{"bike_id":"96f4e4cd-02de-47bb-a775-1bc9d4fdde7c","system_id":"levelo_inurba_marseille","lat":43.29242,"lon":5.38449,"is_reserved":false,"is_disabled":true,"rental_uris":{"android":"levelo://app?vid=96f4e4cd-02de-47bb-a775-1bc9d4fdde7c","ios":"levelo://app?vid=96f4e4cd-02de-47bb-a775-1bc9d4fdde7c"},"vehicle_type_id":"4","last_reported":1737807307,"current_range_meters":17600,"station_id":"ce4bh692rcd13ifvqea0","pricing_plan_id":"cebpf4jnsgd1na2vs0mg"},{"bike_id":"9838cc78-2b53-49d3-ae13-82df62c4fd64","system_id":"levelo_inurba_marseille","lat":43.28416,"lon":5.40937,"is_reserved":false,"is_disabled":true,"rental_uris":{"android":"levelo://app?vid=9838cc78-2b53-49d3-ae13-82df62c4fd64","ios":"levelo://app?vid=9838cc78-2b53-49d3-ae13-82df62c4fd64"},"vehicle_type_id":"4","last_reported":1737807307,"current_range_meters":0,"station_id":"","pricing_plan_id":"cebpf4jnsgd1na2vs0mg"},{"bike_id":"6f0b6fb7-b816-4ccd-bfdc-92ce647cffcc","system_id":"levelo_inurba_marseille","lat":43.290283,"lon":5.399791,"is_reserved":false,"is_disabled":false,"rental_uris":{"android":"levelo://app?vid=6f0b6fb7-b816-4ccd-bfdc-92ce647cffcc","ios":"levelo://app?vid=6f0b6fb7-b816-4ccd-bfdc-92ce647cffcc"},"vehicle_type_id":"4","last_reported":1737807307,"current_range_meters":6400,"station_id":"ce4bh392rcd13ifvqdm0","pricing_plan_id":"cebpf4jnsgd1na2vs0mg"},{"bike_id":"d1505571-0e18-4a2f-beb2-6fe91926e9c8","system_id":"levelo_inurba_marseille","lat":43.290822,"lon":5.37489,"is_reserved":false,"is_disabled":false,"rental_uris":{"android":"levelo://app?vid=d1505571-0e18-4a2f-beb2-6fe91926e9c8","ios":"levelo://app?vid=d1505571-0e18-4a2f-beb2-6fe91926e9c8"},"vehicle_type_id":"4","last_reported":1737807307,"current_range_meters":3200,"station_id":"","pricing_plan_id":"cebpf4jnsgd1na2vs0mg"},{"bike_id":"9eb25b12-5e2d-4582-9d7a-264c52c86aa4","system_id":"levelo_inurba_marseille","lat":43.33775,"lon":5.37441,"is_reserved":false,"is_disabled":false,"rental_uris":{"android":"levelo://app?vid=9eb25b12-5e2d-4582-9d7a-264c52c86aa4","ios":"levelo://app?vid=9eb25b12-5e2d-4582-9d7a-264c52c86aa4"},"vehicle_type_id":"4","last_reported":1737807307,"current_range_meters":22000,"station_id":"","pricing_plan_id":"cebpf4jnsgd1na2vs0mg"},{"bike_id":"ae14495d-03f6-4aa8-8991-0542179a3eb8","system_id":"levelo_inurba_marseille","lat":43.29269,"lon":5.3684,"is_reserved":false,"is_disabled":false,"rental_uris":{"android":"levelo://app?vid=ae14495d-03f6-4aa8-8991-0542179a3eb8","ios":"levelo://app?vid=ae14495d-03f6-4aa8-8991-0542179a3eb8"},"vehicle_type_id":"4","last_reported":1737807307,"current_range_meters":18000,"station_id":"ce4bhbp2rcd13ifvqesg","pricing_plan_id":"cebpf4jnsgd1na2vs0mg"},{"bike_id":"a604cd02-bf67-49ed-b44f-738b9732b22c","system_id":"levelo_inurba_marseille","lat":43.31339,"lon":5.39673,"is_reserved":false,"is_disabled":true,"rental_uris":{"android":"levelo://app?vid=a604cd02-bf67-49ed-b44f-738b9732b22c","ios":"levelo://app?vid=a604cd02-bf67-49ed-b44f-738b9732b22c"},"vehicle_type_id":"4","last_reported":1737807307,"current_range_meters":36800,"station_id":"ce4bgvp2rcd13ifvqcu0","pricing_plan_id":"cebpf4jnsgd1na2vs0mg"},{"bike_id":"bf096a89-ee72-4f37-85bd-7b3cf9f0cb41","system_id":"levelo_inurba_marseille","lat":43.31922,"lon":5.37902,"is_reserved":false,"is_disabled":false,"rental_uris":{"android":"levelo://app?vid=bf096a89-ee72-4f37-85bd-7b3cf9f0cb41","ios":"levelo://app?vid=bf096a89-ee72-4f37-85bd-7b3cf9f0cb41"},"vehicle_type_id":"4","last_reported":1737807307,"current_range_meters":31200,"station_id":"","pricing_plan_id":"cebpf4jnsgd1na2vs0mg"},{"bike_id":"66d1f8cf-8260-44c6-89e8-aa09a832fe98","system_id":"levelo_inurba_marseille","lat":43.2467,"lon":5.38172,"is_reserved":false,"is_disabled":true,"rental_uris":{"android":"levelo://app?vid=66d1f8cf-8260-44c6-89e8-aa09a832fe98","ios":"levelo://app?vid=66d1f8cf-8260-44c6-89e8-aa09a832fe98"},"vehicle_type_id":"4","last_reported":1737807307,"current_range_meters":0,"station_id":"ce4bhih2rcd13ifvqfr0","pricing_plan_id":"cebpf4jnsgd1na2vs0mg"},{"bike_id":"37e3e111-9b37-43f0-b268-a39efb3d8c36","system_id":"levelo_inurba_marseille","lat":43.29621,"lon":5.37182,"is_reserved":false,"is_disabled":false,"rental_uris":{"android":"levelo://app?vid=37e3e111-9b37-43f0-b268-a39efb3d8c36","ios":"levelo://app?vid=37e3e111-9b37-43f0-b268-a39efb3d8c36"},"vehicle_type_id":"4","last_reported":1737807307,"current_range_meters":38800,"station_id":"ce4bgnh2rcd13ifvqc0g","pricing_plan_id":"cebpf4jnsgd1na2vs0mg"},{"bike_id":"d54d1a54-5615-429e-8bd3-417cb8eb3f7d","system_id":"levelo_inurba_marseille","lat":43.2836,"lon":5.38635,"is_reserved":false,"is_disabled":false,"rental_uris":{"android":"levelo://app?vid=d54d1a54-5615-429e-8bd3-417cb8eb3f7d","ios":"levelo://app?vid=d54d1a54-5615-429e-8bd3-417cb8eb3f7d"},"vehicle_type_id":"4","last_reported":1737807307,"current_range_meters":22800,"station_id":"ce4bh492rcd13ifvqdvg","pricing_plan_id":"cebpf4jnsgd1na2vs0mg"},{"bike_id":"65ca12ea-78b8-417a-804f-95973b00ea1a","system_id":"levelo_inurba_marseille","lat":43.30275,"lon":5.37727,"is_reserved":false,"is_disabled":false,"rental_uris":{"android":"levelo://app?vid=65ca12ea-78b8-417a-804f-95973b00ea1a","ios":"levelo://app?vid=65ca12ea-78b8-417a-804f-95973b00ea1a"},"vehicle_type_id":"4","last_reported":1737807307,"current_range_meters":39200,"station_id":"ce4bguh2rcd13ifvqcj0","pricing_plan_id":"cebpf4jnsgd1na2vs0mg"},{"bike_id":"b07b7099-dd41-4a54-84a6-423365409601","system_id":"levelo_inurba_marseille","lat":43.26213,"lon":5.37443,"is_reserved":false,"is_disabled":false,"rental_uris":{"android":"levelo://app?vid=b07b7099-dd41-4a54-84a6-423365409601","ios":"levelo://app?vid=b07b7099-dd41-4a54-84a6-423365409601"},"vehicle_type_id":"4","last_reported":1737807307,"current_range_meters":8800,"station_id":"ce4bhgp2rcd13ifvqfc0","pricing_plan_id":"cebpf4jnsgd1na2vs0mg"},{"bike_id":"b266e498-70cd-4652-847b-6e6aaebbaa56","system_id":"levelo_inurba_marseille","lat":43.30293,"lon":5.37705,"is_reserved":false,"is_disabled":false,"rental_uris":{"android":"levelo://app?vid=b266e498-70cd-4652-847b-6e6aaebbaa56","ios":"levelo://app?vid=b266e498-70cd-4652-847b-6e6aaebbaa56"},"vehicle_type_id":"4","last_reported":1737807307,"current_range_meters":17600,"station_id":"ce4bguh2rcd13ifvqcj0","pricing_plan_id":"cebpf4jnsgd1na2vs0mg"},{"bike_id":"bdbeb0bc-94af-40ad-86ee-d9d913e841ee","system_id":"levelo_inurba_marseille","lat":43.28854,"lon":5.35847,"is_reserved":false,"is_disabled":false,"rental_uris":{"android":"levelo://app?vid=bdbeb0bc-94af-40ad-86ee-d9d913e841ee","ios":"levelo://app?vid=bdbeb0bc-94af-40ad-86ee-d9d913e841ee"},"vehicle_type_id":"4","last_reported":1737807307,"current_range_meters":31200,"station_id":"ce4bhb12rcd13ifvqem0","pricing_plan_id":"cebpf4jnsgd1na2vs0mg"},{"bike_id":"9a54fc1f-b6ed-4e62-aaf6-64389a8ce060","system_id":"levelo_inurba_marseille","lat":43.28607,"lon":5.35108,"is_reserved":false,"is_disabled":true,"rental_uris":{"android":"levelo://app?vid=9a54fc1f-b6ed-4e62-aaf6-64389a8ce060","ios":"levelo://app?vid=9a54fc1f-b6ed-4e62-aaf6-64389a8ce060"},"vehicle_type_id":"4","last_reported":1737807307,"current_range_meters":400,"station_id":"ce4bhch2rcd13ifvqeug","pricing_plan_id":"cebpf4jnsgd1na2vs0mg"},{"bike_id":"c276da85-c857-4b0d-8792-c2826228a14c","system_id":"levelo_inurba_marseille","lat":43.23966,"lon":5.36625,"is_reserved":false,"is_disabled":false,"rental_uris":{"android":"levelo://app?vid=c276da85-c857-4b0d-8792-c2826228a14c","ios":"levelo://app?vid=c276da85-c857-4b0d-8792-c2826228a14c"},"vehicle_type_id":"4","last_reported":1737807307,"current_range_meters":26800,"station_id":"ce4bhi12rcd13ifvqfp0","pricing_plan_id":"cebpf4jnsgd1na2vs0mg"},{"bike_id":"867d41e1-ec2e-4484-a31e-d471983f0ab7","system_id":"levelo_inurba_marseille","lat":43.33367,"lon":5.40058,"is_reserved":false,"is_disabled":false,"rental_uris":{"android":"levelo://app?vid=867d41e1-ec2e-4484-a31e-d471983f0ab7","ios":"levelo://app?vid=867d41e1-ec2e-4484-a31e-d471983f0ab7"},"vehicle_type_id":"4","last_reported":1737807307,"current_range_meters":14400,"station_id":"","pricing_plan_id":"cebpf4jnsgd1na2vs0mg"},{"bike_id":"7bd5f868-66e3-45e1-be95-6aefbe1524e1","system_id":"levelo_inurba_marseille","lat":43.25013,"lon":5.38928,"is_reserved":false,"is_disabled":true,"rental_uris":{"android":"levelo://app?vid=7bd5f868-66e3-45e1-be95-6aefbe1524e1","ios":"levelo://app?vid=7bd5f868-66e3-45e1-be95-6aefbe1524e1"},"vehicle_type_id":"4","last_reported":1737807307,"current_range_meters":0,"station_id":"ce4bhgp2rcd13ifvqfd0","pricing_plan_id":"cebpf4jnsgd1na2vs0mg"},{"bike_id":"a5d4847f-749e-473a-8567-e2dfc02ffb19","system_id":"levelo_inurba_marseille","lat":43.26218,"lon":5.37442,"is_reserved":false,"is_disabled":false,"rental_uris":{"android":"levelo://app?vid=a5d4847f-749e-473a-8567-e2dfc02ffb19","ios":"levelo://app?vid=a5d4847f-749e-473a-8567-e2dfc02ffb19"},"vehicle_type_id":"4","last_reported":1737807307,"current_range_meters":19600,"station_id":"ce4bhgp2rcd13ifvqfc0","pricing_plan_id":"cebpf4jnsgd1na2vs0mg"},{"bike_id":"424dac30-9845-4334-94aa-e447006a726b","system_id":"levelo_inurba_marseille","lat":43.27923,"lon":5.410517,"is_reserved":false,"is_disabled":false,"rental_uris":{"android":"levelo://app?vid=424dac30-9845-4334-94aa-e447006a726b","ios":"levelo://app?vid=424dac30-9845-4334-94aa-e447006a726b"},"vehicle_type_id":"4","last_reported":1737807307,"current_range_meters":28400,"station_id":"ce4bhnp2rcd13ifvqh0g","pricing_plan_id":"cebpf4jnsgd1na2vs0mg"},{"bike_id":"84c6a895-a73d-46e1-b12a-efa799b2f004","system_id":"levelo_inurba_marseille","lat":43.23954,"lon":5.36646,"is_reserved":false,"is_disabled":false,"rental_uris":{"android":"levelo://app?vid=84c6a895-a73d-46e1-b12a-efa799b2f004","ios":"levelo://app?vid=84c6a895-a73d-46e1-b12a-efa799b2f004"},"vehicle_type_id":"4","last_reported":1737807307,"current_range_meters":22400,"station_id":"ce4bhi12rcd13ifvqfp0","pricing_plan_id":"cebpf4jnsgd1na2vs0mg"},{"bike_id":"61f8c04a-e346-4354-baef-b3b3c7fb4aa5","system_id":"levelo_inurba_marseille","lat":43.30661,"lon":5.40066,"is_reserved":false,"is_disabled":false,"rental_uris":{"android":"levelo://app?vid=61f8c04a-e346-4354-baef-b3b3c7fb4aa5","ios":"levelo://app?vid=61f8c04a-e346-4354-baef-b3b3c7fb4aa5"},"vehicle_type_id":"4","last_reported":1737807307,"current_range_meters":23200,"station_id":"ce4bh112rcd13ifvqda0","pricing_plan_id":"cebpf4jnsgd1na2vs0mg"},{"bike_id":"347dd29e-9a9e-4a37-8ddd-6e2050aaff03","system_id":"levelo_inurba_marseille","lat":43.33734,"lon":5.39207,"is_reserved":false,"is_disabled":false,"rental_uris":{"android":"levelo://app?vid=347dd29e-9a9e-4a37-8ddd-6e2050aaff03","ios":"levelo://app?vid=347dd29e-9a9e-4a37-8ddd-6e2050aaff03"},"vehicle_type_id":"4","last_reported":1737807307,"current_range_meters":35600,"station_id":"ce4bhr92rcd13ifvqhsg","pricing_plan_id":"cebpf4jnsgd1na2vs0mg"},{"bike_id":"90f21880-e2be-4783-9f34-140c522daba8","system_id":"levelo_inurba_marseille","lat":43.29716,"lon":5.3662,"is_reserved":false,"is_disabled":false,"rental_uris":{"android":"levelo://app?vid=90f21880-e2be-4783-9f34-140c522daba8","ios":"levelo://app?vid=90f21880-e2be-4783-9f34-140c522daba8"},"vehicle_type_id":"4","last_reported":1737807307,"current_range_meters":19600,"station_id":"ce4bgn12rcd13ifvqbt0","pricing_plan_id":"cebpf4jnsgd1na2vs0mg"},{"bike_id":"c959572c-6974-4ed4-8889-654758c49222","system_id":"levelo_inurba_marseille","lat":43.26567,"lon":5.3901,"is_reserved":false,"is_disabled":true,"rental_uris":{"android":"levelo://app?vid=c959572c-6974-4ed4-8889-654758c49222","ios":"levelo://app?vid=c959572c-6974-4ed4-8889-654758c49222"},"vehicle_type_id":"4","last_reported":1737807307,"current_range_meters":1200,"station_id":"ce4bhe12rcd13ifvqf30","pricing_plan_id":"cebpf4jnsgd1na2vs0mg"},{"bike_id":"088f9493-d4f4-4fa4-8701-181abed46e32","system_id":"levelo_inurba_marseille","lat":43.29276,"lon":5.36846,"is_reserved":false,"is_disabled":false,"rental_uris":{"android":"levelo://app?vid=088f9493-d4f4-4fa4-8701-181abed46e32","ios":"levelo://app?vid=088f9493-d4f4-4fa4-8701-181abed46e32"},"vehicle_type_id":"4","last_reported":1737807307,"current_range_meters":32800,"station_id":"ce4bhbp2rcd13ifvqesg","pricing_plan_id":"cebpf4jnsgd1na2vs0mg"},{"bike_id":"3ec5db81-5910-4323-88f7-ec1444411d72","system_id":"levelo_inurba_marseille","lat":43.29797,"lon":5.40397,"is_reserved":false,"is_disabled":false,"rental_uris":{"android":"levelo://app?vid=3ec5db81-5910-4323-88f7-ec1444411d72","ios":"levelo://app?vid=3ec5db81-5910-4323-88f7-ec1444411d72"},"vehicle_type_id":"4","last_reported":1737807307,"current_range_meters":38400,"station_id":"ce4bh112rcd13ifvqd90","pricing_plan_id":"cebpf4jnsgd1na2vs0mg"},{"bike_id":"90b8a1b1-ad54-458d-9362-f5197bbdf048","system_id":"levelo_inurba_marseille","lat":43.229201,"lon":5.35394,"is_reserved":false,"is_disabled":false,"rental_uris":{"android":"levelo://app?vid=90b8a1b1-ad54-458d-9362-f5197bbdf048","ios":"levelo://app?vid=90b8a1b1-ad54-458d-9362-f5197bbdf048"},"vehicle_type_id":"4","last_reported":1737807307,"current_range_meters":39200,"station_id":"cpo3532slgdg3j2ikp40","pricing_plan_id":"cebpf4jnsgd1na2vs0mg"},{"bike_id":"53035af4-ce28-4b9e-9322-5b8d4befc56f","system_id":"levelo_inurba_marseille","lat":43.29546,"lon":5.42285,"is_reserved":false,"is_disabled":false,"rental_uris":{"android":"levelo://app?vid=53035af4-ce28-4b9e-9322-5b8d4befc56f","ios":"levelo://app?vid=53035af4-ce28-4b9e-9322-5b8d4befc56f"},"vehicle_type_id":"4","last_reported":1737807307,"current_range_meters":38800,"station_id":"ce4bhph2rcd13ifvqhdg","pricing_plan_id":"cebpf4jnsgd1na2vs0mg"},{"bike_id":"59a858f6-56fb-47d7-ac7a-cc7c4fa27434","system_id":"levelo_inurba_marseille","lat":43.29682,"lon":5.37298,"is_reserved":false,"is_disabled":false,"rental_uris":{"android":"levelo://app?vid=59a858f6-56fb-47d7-ac7a-cc7c4fa27434","ios":"levelo://app?vid=59a858f6-56fb-47d7-ac7a-cc7c4fa27434"},"vehicle_type_id":"4","last_reported":1737807307,"current_range_meters":39200,"station_id":"ce4bgk12rcd13ifvqbj0","pricing_plan_id":"cebpf4jnsgd1na2vs0mg"},{"bike_id":"df4fd266-086b-483a-938f-17440868e0c7","system_id":"levelo_inurba_marseille","lat":43.29003,"lon":5.35609,"is_reserved":false,"is_disabled":true,"rental_uris":{"android":"levelo://app?vid=df4fd266-086b-483a-938f-17440868e0c7","ios":"levelo://app?vid=df4fd266-086b-483a-938f-17440868e0c7"},"vehicle_type_id":"4","last_reported":1737807307,"current_range_meters":400,"station_id":"ce4bhb92rcd13ifvqen0","pricing_plan_id":"cebpf4jnsgd1na2vs0mg"},{"bike_id":"03c5f419-2f6e-49ce-a5ae-8e5c8a07213a","system_id":"levelo_inurba_marseille","lat":43.30209,"lon":5.39482,"is_reserved":false,"is_disabled":false,"rental_uris":{"android":"levelo://app?vid=03c5f419-2f6e-49ce-a5ae-8e5c8a07213a","ios":"levelo://app?vid=03c5f419-2f6e-49ce-a5ae-8e5c8a07213a"},"vehicle_type_id":"4","last_reported":1737807307,"current_range_meters":38400,"station_id":"ce4bh0p2rcd13ifvqd70","pricing_plan_id":"cebpf4jnsgd1na2vs0mg"},{"bike_id":"b8942bec-956c-4dbc-a150-dd505ab0503f","system_id":"levelo_inurba_marseille","lat":43.3035,"lon":5.41881,"is_reserved":false,"is_disabled":false,"rental_uris":{"android":"levelo://app?vid=b8942bec-956c-4dbc-a150-dd505ab0503f","ios":"levelo://app?vid=b8942bec-956c-4dbc-a150-dd505ab0503f"},"vehicle_type_id":"4","last_reported":1737807307,"current_range_meters":37600,"station_id":"ce4bhop2rcd13ifvqh7g","pricing_plan_id":"cebpf4jnsgd1na2vs0mg"},{"bike_id":"83c8aa6d-0489-4600-af1d-2124f9ba1692","system_id":"levelo_inurba_marseille","lat":43.24995,"lon":5.38933,"is_reserved":false,"is_disabled":false,"rental_uris":{"android":"levelo://app?vid=83c8aa6d-0489-4600-af1d-2124f9ba1692","ios":"levelo://app?vid=83c8aa6d-0489-4600-af1d-2124f9ba1692"},"vehicle_type_id":"4","last_reported":1737807307,"current_range_meters":4800,"station_id":"ce4bhgp2rcd13ifvqfd0","pricing_plan_id":"cebpf4jnsgd1na2vs0mg"},{"bike_id":"1267de3f-5e86-4017-9522-3faa4504a3b1","system_id":"levelo_inurba_marseille","lat":43.30139,"lon":5.38094,"is_reserved":false,"is_disabled":false,"rental_uris":{"android":"levelo://app?vid=1267de3f-5e86-4017-9522-3faa4504a3b1","ios":"levelo://app?vid=1267de3f-5e86-4017-9522-3faa4504a3b1"},"vehicle_type_id":"4","last_reported":1737807307,"current_range_meters":16800,"station_id":"ce4bgjp2rcd13ifvqbh0","pricing_plan_id":"cebpf4jnsgd1na2vs0mg"},{"bike_id":"833c4efa-a8bf-4e0e-a76d-d4f428cf3c7a","system_id":"levelo_inurba_marseille","lat":43.24389,"lon":5.37064,"is_reserved":false,"is_disabled":false,"rental_uris":{"android":"levelo://app?vid=833c4efa-a8bf-4e0e-a76d-d4f428cf3c7a","ios":"levelo://app?vid=833c4efa-a8bf-4e0e-a76d-d4f428cf3c7a"},"vehicle_type_id":"4","last_reported":1737807307,"current_range_meters":17200,"station_id":"ce4bhhh2rcd13ifvqfk0","pricing_plan_id":"cebpf4jnsgd1na2vs0mg"},{"bike_id":"f456b3f6-6f76-4509-a072-0e95b0668b0c","system_id":"levelo_inurba_marseille","lat":43.25588,"lon":5.3823,"is_reserved":false,"is_disabled":false,"rental_uris":{"android":"levelo://app?vid=f456b3f6-6f76-4509-a072-0e95b0668b0c","ios":"levelo://app?vid=f456b3f6-6f76-4509-a072-0e95b0668b0c"},"vehicle_type_id":"4","last_reported":1737807307,"current_range_meters":2800,"station_id":"ce4bhih2rcd13ifvqfs0","pricing_plan_id":"cebpf4jnsgd1na2vs0mg"},{"bike_id":"da28def9-12ad-4630-a85b-97700b888ed6","system_id":"levelo_inurba_marseille","lat":43.30422,"lon":5.39748,"is_reserved":false,"is_disabled":true,"rental_uris":{"android":"levelo://app?vid=da28def9-12ad-4630-a85b-97700b888ed6","ios":"levelo://app?vid=da28def9-12ad-4630-a85b-97700b888ed6"},"vehicle_type_id":"4","last_reported":1737807307,"current_range_meters":0,"station_id":"ce4bh092rcd13ifvqd20","pricing_plan_id":"cebpf4jnsgd1na2vs0mg"},{"bike_id":"2381caec-e9d8-4127-95f1-82816164fcf8","system_id":"levelo_inurba_marseille","lat":43.29616,"lon":5.37161,"is_reserved":false,"is_disabled":false,"rental_uris":{"android":"levelo://app?vid=2381caec-e9d8-4127-95f1-82816164fcf8","ios":"levelo://app?vid=2381caec-e9d8-4127-95f1-82816164fcf8"},"vehicle_type_id":"4","last_reported":1737807307,"current_range_meters":28000,"station_id":"ce4bgnh2rcd13ifvqc0g","pricing_plan_id":"cebpf4jnsgd1na2vs0mg"},{"bike_id":"1ab9b624-40b7-465c-a005-729f21b3d75d","system_id":"levelo_inurba_marseille","lat":43.25714,"lon":5.41105,"is_reserved":false,"is_disabled":false,"rental_uris":{"android":"levelo://app?vid=1ab9b624-40b7-465c-a005-729f21b3d75d","ios":"levelo://app?vid=1ab9b624-40b7-465c-a005-729f21b3d75d"},"vehicle_type_id":"4","last_reported":1737807307,"current_range_meters":39200,"station_id":"ce4bhkp2rcd13ifvqgd0","pricing_plan_id":"cebpf4jnsgd1na2vs0mg"},{"bike_id":"0b0d2b48-7ed8-463e-9e37-22b040f68bfe","system_id":"levelo_inurba_marseille","lat":43.26678,"lon":5.38274,"is_reserved":false,"is_disabled":false,"rental_uris":{"android":"levelo://app?vid=0b0d2b48-7ed8-463e-9e37-22b040f68bfe","ios":"levelo://app?vid=0b0d2b48-7ed8-463e-9e37-22b040f68bfe"},"vehicle_type_id":"4","last_reported":1737807307,"current_range_meters":9600,"station_id":"ce4bhg92rcd13ifvqf90","pricing_plan_id":"cebpf4jnsgd1na2vs0mg"},{"bike_id":"8609669b-68c7-4651-8463-8b069e6b3840","system_id":"levelo_inurba_marseille","lat":43.3201,"lon":5.38151,"is_reserved":false,"is_disabled":false,"rental_uris":{"android":"levelo://app?vid=8609669b-68c7-4651-8463-8b069e6b3840","ios":"levelo://app?vid=8609669b-68c7-4651-8463-8b069e6b3840"},"vehicle_type_id":"4","last_reported":1737807307,"current_range_meters":36400,"station_id":"ce4bhr12rcd13ifvqhpg","pricing_plan_id":"cebpf4jnsgd1na2vs0mg"},{"bike_id":"dabad150-600b-4273-9d4a-f2cb97af39fc","system_id":"levelo_inurba_marseille","lat":43.24641,"lon":5.38913,"is_reserved":false,"is_disabled":false,"rental_uris":{"android":"levelo://app?vid=dabad150-600b-4273-9d4a-f2cb97af39fc","ios":"levelo://app?vid=dabad150-600b-4273-9d4a-f2cb97af39fc"},"vehicle_type_id":"4","last_reported":1737807307,"current_range_meters":33200,"station_id":"ce4bhg12rcd13ifvqf60","pricing_plan_id":"cebpf4jnsgd1na2vs0mg"},{"bike_id":"802c724f-e10a-4925-b718-48204db3c906","system_id":"levelo_inurba_marseille","lat":43.29518,"lon":5.39058,"is_reserved":false,"is_disabled":false,"rental_uris":{"android":"levelo://app?vid=802c724f-e10a-4925-b718-48204db3c906","ios":"levelo://app?vid=802c724f-e10a-4925-b718-48204db3c906"},"vehicle_type_id":"4","last_reported":1737807307,"current_range_meters":17200,"station_id":"ce4bh3p2rcd13ifvqdp0","pricing_plan_id":"cebpf4jnsgd1na2vs0mg"},{"bike_id":"32bd91ee-7005-4053-9194-c0fd9d734f1e","system_id":"levelo_inurba_marseille","lat":43.27811,"lon":5.40702,"is_reserved":false,"is_disabled":false,"rental_uris":{"android":"levelo://app?vid=32bd91ee-7005-4053-9194-c0fd9d734f1e","ios":"levelo://app?vid=32bd91ee-7005-4053-9194-c0fd9d734f1e"},"vehicle_type_id":"4","last_reported":1737807307,"current_range_meters":32000,"station_id":"ce4bhnh2rcd13ifvqgtg","pricing_plan_id":"cebpf4jnsgd1na2vs0mg"},{"bike_id":"da351246-909a-4986-a69c-176945d7bc8a","system_id":"levelo_inurba_marseille","lat":43.276627,"lon":5.38939,"is_reserved":false,"is_disabled":true,"rental_uris":{"android":"levelo://app?vid=da351246-909a-4986-a69c-176945d7bc8a","ios":"levelo://app?vid=da351246-909a-4986-a69c-176945d7bc8a"},"vehicle_type_id":"4","last_reported":1737807307,"current_range_meters":38800,"station_id":"ce4bhi12rcd13ifvqfo0","pricing_plan_id":"cebpf4jnsgd1na2vs0mg"},{"bike_id":"ca805d73-821d-490a-bcc8-007604e0a447","system_id":"levelo_inurba_marseille","lat":43.26685,"lon":5.38269,"is_reserved":false,"is_disabled":false,"rental_uris":{"android":"levelo://app?vid=ca805d73-821d-490a-bcc8-007604e0a447","ios":"levelo://app?vid=ca805d73-821d-490a-bcc8-007604e0a447"},"vehicle_type_id":"4","last_reported":1737807307,"current_range_meters":28000,"station_id":"ce4bhg92rcd13ifvqf90","pricing_plan_id":"cebpf4jnsgd1na2vs0mg"},{"bike_id":"9d67ce9e-3476-46bd-a24e-30eb2f617760","system_id":"levelo_inurba_marseille","lat":43.2989,"lon":5.4364,"is_reserved":false,"is_disabled":false,"rental_uris":{"android":"levelo://app?vid=9d67ce9e-3476-46bd-a24e-30eb2f617760","ios":"levelo://app?vid=9d67ce9e-3476-46bd-a24e-30eb2f617760"},"vehicle_type_id":"4","last_reported":1737807307,"current_range_meters":12800,"station_id":"ce4bhpp2rcd13ifvqhfg","pricing_plan_id":"cebpf4jnsgd1na2vs0mg"},{"bike_id":"35857df8-1748-4079-bda7-4ec3f898fc5d","system_id":"levelo_inurba_marseille","lat":43.29029,"lon":5.38144,"is_reserved":false,"is_disabled":false,"rental_uris":{"android":"levelo://app?vid=35857df8-1748-4079-bda7-4ec3f898fc5d","ios":"levelo://app?vid=35857df8-1748-4079-bda7-4ec3f898fc5d"},"vehicle_type_id":"4","last_reported":1737807307,"current_range_meters":24400,"station_id":"ce4bh4p2rcd13ifvqe1g","pricing_plan_id":"cebpf4jnsgd1na2vs0mg"},{"bike_id":"0e5a3f0b-2e27-48f8-9f1b-d6f7c703cae0","system_id":"levelo_inurba_marseille","lat":43.30524,"lon":5.36566,"is_reserved":false,"is_disabled":false,"rental_uris":{"android":"levelo://app?vid=0e5a3f0b-2e27-48f8-9f1b-d6f7c703cae0","ios":"levelo://app?vid=0e5a3f0b-2e27-48f8-9f1b-d6f7c703cae0"},"vehicle_type_id":"4","last_reported":1737807307,"current_range_meters":12400,"station_id":"ce4bgs12rcd13ifvqcag","pricing_plan_id":"cebpf4jnsgd1na2vs0mg"},{"bike_id":"1c35c755-8b1c-439e-8798-f1a001a3969d","system_id":"levelo_inurba_marseille","lat":43.281,"lon":5.37842,"is_reserved":false,"is_disabled":true,"rental_uris":{"android":"levelo://app?vid=1c35c755-8b1c-439e-8798-f1a001a3969d","ios":"levelo://app?vid=1c35c755-8b1c-439e-8798-f1a001a3969d"},"vehicle_type_id":"4","last_reported":1737807307,"current_range_meters":0,"station_id":"ce4bha12rcd13ifvqee0","pricing_plan_id":"cebpf4jnsgd1na2vs0mg"},{"bike_id":"e7bbd1f2-3eab-4a3a-bb32-cf87c8be734c","system_id":"levelo_inurba_marseille","lat":43.31357,"lon":5.38519,"is_reserved":false,"is_disabled":false,"rental_uris":{"android":"levelo://app?vid=e7bbd1f2-3eab-4a3a-bb32-cf87c8be734c","ios":"levelo://app?vid=e7bbd1f2-3eab-4a3a-bb32-cf87c8be734c"},"vehicle_type_id":"4","last_reported":1737807307,"current_range_meters":38800,"station_id":"ce4bgt92rcd13ifvqcf0","pricing_plan_id":"cebpf4jnsgd1na2vs0mg"},{"bike_id":"5015e4bd-899a-47c1-8f1b-341701bc372a","system_id":"levelo_inurba_marseille","lat":43.30804,"lon":5.38153,"is_reserved":false,"is_disabled":false,"rental_uris":{"android":"levelo://app?vid=5015e4bd-899a-47c1-8f1b-341701bc372a","ios":"levelo://app?vid=5015e4bd-899a-47c1-8f1b-341701bc372a"},"vehicle_type_id":"4","last_reported":1737807307,"current_range_meters":38800,"station_id":"ce4bgt12rcd13ifvqce0","pricing_plan_id":"cebpf4jnsgd1na2vs0mg"},{"bike_id":"bce09769-02dc-489a-bcd7-84421f3b354f","system_id":"levelo_inurba_marseille","lat":43.32359,"lon":5.38909,"is_reserved":false,"is_disabled":false,"rental_uris":{"android":"levelo://app?vid=bce09769-02dc-489a-bcd7-84421f3b354f","ios":"levelo://app?vid=bce09769-02dc-489a-bcd7-84421f3b354f"},"vehicle_type_id":"4","last_reported":1737807307,"current_range_meters":18800,"station_id":"ce4bhqp2rcd13ifvqhog","pricing_plan_id":"cebpf4jnsgd1na2vs0mg"},{"bike_id":"cc6546a7-95c1-496c-a5e3-02a7863560d1","system_id":"levelo_inurba_marseille","lat":43.29242,"lon":5.40919,"is_reserved":false,"is_disabled":false,"rental_uris":{"android":"levelo://app?vid=cc6546a7-95c1-496c-a5e3-02a7863560d1","ios":"levelo://app?vid=cc6546a7-95c1-496c-a5e3-02a7863560d1"},"vehicle_type_id":"4","last_reported":1737807307,"current_range_meters":21600,"station_id":"ce4bh192rcd13ifvqdc0","pricing_plan_id":"cebpf4jnsgd1na2vs0mg"},{"bike_id":"a2734c3e-3b19-4965-b0bf-2bc7baac7f17","system_id":"levelo_inurba_marseille","lat":43.27062,"lon":5.40261,"is_reserved":false,"is_disabled":false,"rental_uris":{"android":"levelo://app?vid=a2734c3e-3b19-4965-b0bf-2bc7baac7f17","ios":"levelo://app?vid=a2734c3e-3b19-4965-b0bf-2bc7baac7f17"},"vehicle_type_id":"4","last_reported":1737807307,"current_range_meters":8800,"station_id":"ce4bhk92rcd13ifvqgc0","pricing_plan_id":"cebpf4jnsgd1na2vs0mg"},{"bike_id":"b96c22ba-a4c6-4ca8-b881-a2a2972e9bc2","system_id":"levelo_inurba_marseille","lat":43.26032,"lon":5.37562,"is_reserved":false,"is_disabled":true,"rental_uris":{"android":"levelo://app?vid=b96c22ba-a4c6-4ca8-b881-a2a2972e9bc2","ios":"levelo://app?vid=b96c22ba-a4c6-4ca8-b881-a2a2972e9bc2"},"vehicle_type_id":"4","last_reported":1737807307,"current_range_meters":36800,"station_id":"ce4bhgh2rcd13ifvqfa0","pricing_plan_id":"cebpf4jnsgd1na2vs0mg"},{"bike_id":"b29baa06-53a2-43b0-9db7-c20bef07c805","system_id":"levelo_inurba_marseille","lat":43.31323,"lon":5.39712,"is_reserved":false,"is_disabled":false,"rental_uris":{"android":"levelo://app?vid=b29baa06-53a2-43b0-9db7-c20bef07c805","ios":"levelo://app?vid=b29baa06-53a2-43b0-9db7-c20bef07c805"},"vehicle_type_id":"4","last_reported":1737807307,"current_range_meters":27200,"station_id":"ce4bgvp2rcd13ifvqcu0","pricing_plan_id":"cebpf4jnsgd1na2vs0mg"},{"bike_id":"456c720b-c4bb-42a0-89e1-2a9fe602ff7b","system_id":"levelo_inurba_marseille","lat":43.241618,"lon":5.36397,"is_reserved":false,"is_disabled":false,"rental_uris":{"android":"levelo://app?vid=456c720b-c4bb-42a0-89e1-2a9fe602ff7b","ios":"levelo://app?vid=456c720b-c4bb-42a0-89e1-2a9fe602ff7b"},"vehicle_type_id":"4","last_reported":1737807307,"current_range_meters":16000,"station_id":"cpo36qri1sfpv3e86is0","pricing_plan_id":"cebpf4jnsgd1na2vs0mg"},{"bike_id":"61df6208-7c8d-4faf-b087-b4cb2a715156","system_id":"levelo_inurba_marseille","lat":43.31997,"lon":5.38166,"is_reserved":false,"is_disabled":false,"rental_uris":{"android":"levelo://app?vid=61df6208-7c8d-4faf-b087-b4cb2a715156","ios":"levelo://app?vid=61df6208-7c8d-4faf-b087-b4cb2a715156"},"vehicle_type_id":"4","last_reported":1737807307,"current_range_meters":39200,"station_id":"ce4bhr12rcd13ifvqhpg","pricing_plan_id":"cebpf4jnsgd1na2vs0mg"},{"bike_id":"1346ff93-9ddb-4093-aa5d-b6cb09dfef3c","system_id":"levelo_inurba_marseille","lat":43.29099,"lon":5.381506,"is_reserved":false,"is_disabled":true,"rental_uris":{"android":"levelo://app?vid=1346ff93-9ddb-4093-aa5d-b6cb09dfef3c","ios":"levelo://app?vid=1346ff93-9ddb-4093-aa5d-b6cb09dfef3c"},"vehicle_type_id":"4","last_reported":1737807307,"current_range_meters":9600,"station_id":"ce4bh512rcd13ifvqe2g","pricing_plan_id":"cebpf4jnsgd1na2vs0mg"},{"bike_id":"354a0ed3-542c-4648-b29a-783f2de4680e","system_id":"levelo_inurba_marseille","lat":43.27651,"lon":5.38917,"is_reserved":false,"is_disabled":true,"rental_uris":{"android":"levelo://app?vid=354a0ed3-542c-4648-b29a-783f2de4680e","ios":"levelo://app?vid=354a0ed3-542c-4648-b29a-783f2de4680e"},"vehicle_type_id":"4","last_reported":1737807307,"current_range_meters":32400,"station_id":"ce4bhi12rcd13ifvqfo0","pricing_plan_id":"cebpf4jnsgd1na2vs0mg"},{"bike_id":"1e77e574-f5f3-4895-8e75-d0715b84f698","system_id":"levelo_inurba_marseille","lat":43.2864,"lon":5.35084,"is_reserved":false,"is_disabled":false,"rental_uris":{"android":"levelo://app?vid=1e77e574-f5f3-4895-8e75-d0715b84f698","ios":"levelo://app?vid=1e77e574-f5f3-4895-8e75-d0715b84f698"},"vehicle_type_id":"4","last_reported":1737807307,"current_range_meters":28000,"station_id":"ce4bhch2rcd13ifvqeug","pricing_plan_id":"cebpf4jnsgd1na2vs0mg"},{"bike_id":"d0b97dd4-6015-4f42-b5f6-8f3b6c506949","system_id":"levelo_inurba_marseille","lat":43.29555,"lon":5.42295,"is_reserved":false,"is_disabled":false,"rental_uris":{"android":"levelo://app?vid=d0b97dd4-6015-4f42-b5f6-8f3b6c506949","ios":"levelo://app?vid=d0b97dd4-6015-4f42-b5f6-8f3b6c506949"},"vehicle_type_id":"4","last_reported":1737807307,"current_range_meters":24800,"station_id":"ce4bhph2rcd13ifvqhdg","pricing_plan_id":"cebpf4jnsgd1na2vs0mg"},{"bike_id":"d5665470-c1b3-45e5-80ac-4df7d60c2564","system_id":"levelo_inurba_marseille","lat":43.32096,"lon":5.36797,"is_reserved":false,"is_disabled":false,"rental_uris":{"android":"levelo://app?vid=d5665470-c1b3-45e5-80ac-4df7d60c2564","ios":"levelo://app?vid=d5665470-c1b3-45e5-80ac-4df7d60c2564"},"vehicle_type_id":"4","last_reported":1737807307,"current_range_meters":33200,"station_id":"ce4bhrh2rcd13ifvqhug","pricing_plan_id":"cebpf4jnsgd1na2vs0mg"},{"bike_id":"ff1b0103-25b8-4cfb-a5c1-dc0a5d0a2595","system_id":"levelo_inurba_marseille","lat":43.26811,"lon":5.40272,"is_reserved":false,"is_disabled":false,"rental_uris":{"android":"levelo://app?vid=ff1b0103-25b8-4cfb-a5c1-dc0a5d0a2595","ios":"levelo://app?vid=ff1b0103-25b8-4cfb-a5c1-dc0a5d0a2595"},"vehicle_type_id":"4","last_reported":1737807307,"current_range_meters":38000,"station_id":"ce501612rcd8frsf0b60","pricing_plan_id":"cebpf4jnsgd1na2vs0mg"},{"bike_id":"48a19640-1fdc-48ff-a25e-2158bf9c43ab","system_id":"levelo_inurba_marseille","lat":43.33013,"lon":5.39059,"is_reserved":false,"is_disabled":false,"rental_uris":{"android":"levelo://app?vid=48a19640-1fdc-48ff-a25e-2158bf9c43ab","ios":"levelo://app?vid=48a19640-1fdc-48ff-a25e-2158bf9c43ab"},"vehicle_type_id":"4","last_reported":1737807307,"current_range_meters":29600,"station_id":"ce4bhr92rcd13ifvqhrg","pricing_plan_id":"cebpf4jnsgd1na2vs0mg"},{"bike_id":"11cc95e4-3cf9-4012-822f-515c26b74bb6","system_id":"levelo_inurba_marseille","lat":43.33571,"lon":5.40974,"is_reserved":false,"is_disabled":false,"rental_uris":{"android":"levelo://app?vid=11cc95e4-3cf9-4012-822f-515c26b74bb6","ios":"levelo://app?vid=11cc95e4-3cf9-4012-822f-515c26b74bb6"},"vehicle_type_id":"4","last_reported":1737807307,"current_range_meters":37600,"station_id":"ce4bhqh2rcd13ifvqhmg","pricing_plan_id":"cebpf4jnsgd1na2vs0mg"},{"bike_id":"eaf25af6-8c16-499b-a0d2-d34f6ae0e408","system_id":"levelo_inurba_marseille","lat":43.29301,"lon":5.3746,"is_reserved":false,"is_disabled":false,"rental_uris":{"android":"levelo://app?vid=eaf25af6-8c16-499b-a0d2-d34f6ae0e408","ios":"levelo://app?vid=eaf25af6-8c16-499b-a0d2-d34f6ae0e408"},"vehicle_type_id":"4","last_reported":1737807307,"current_range_meters":38800,"station_id":"ce4bgi12rcd13ifvqb70","pricing_plan_id":"cebpf4jnsgd1na2vs0mg"},{"bike_id":"e51d4cc0-ae29-4f84-a3c3-d9e7b51b22a4","system_id":"levelo_inurba_marseille","lat":43.28473,"lon":5.3842,"is_reserved":false,"is_disabled":false,"rental_uris":{"android":"levelo://app?vid=e51d4cc0-ae29-4f84-a3c3-d9e7b51b22a4","ios":"levelo://app?vid=e51d4cc0-ae29-4f84-a3c3-d9e7b51b22a4"},"vehicle_type_id":"4","last_reported":1737807307,"current_range_meters":38800,"station_id":"ce4bh512rcd13ifvqe3g","pricing_plan_id":"cebpf4jnsgd1na2vs0mg"},{"bike_id":"578c81fa-0a4a-43ef-9adc-5413f31860e1","system_id":"levelo_inurba_marseille","lat":43.29686,"lon":5.37291,"is_reserved":false,"is_disabled":false,"rental_uris":{"android":"levelo://app?vid=578c81fa-0a4a-43ef-9adc-5413f31860e1","ios":"levelo://app?vid=578c81fa-0a4a-43ef-9adc-5413f31860e1"},"vehicle_type_id":"4","last_reported":1737807307,"current_range_meters":39200,"station_id":"ce4bgk12rcd13ifvqbj0","pricing_plan_id":"cebpf4jnsgd1na2vs0mg"},{"bike_id":"35614ed7-a0df-4792-bca2-a1978fcd9fab","system_id":"levelo_inurba_marseille","lat":43.30807,"lon":5.4353,"is_reserved":false,"is_disabled":false,"rental_uris":{"android":"levelo://app?vid=35614ed7-a0df-4792-bca2-a1978fcd9fab","ios":"levelo://app?vid=35614ed7-a0df-4792-bca2-a1978fcd9fab"},"vehicle_type_id":"4","last_reported":1737807307,"current_range_meters":35600,"station_id":"ce4bhph2rcd13ifvqheg","pricing_plan_id":"cebpf4jnsgd1na2vs0mg"},{"bike_id":"6d17c276-0a0b-4d66-8572-ced57eea72cc","system_id":"levelo_inurba_marseille","lat":43.335946,"lon":5.409702,"is_reserved":false,"is_disabled":false,"rental_uris":{"android":"levelo://app?vid=6d17c276-0a0b-4d66-8572-ced57eea72cc","ios":"levelo://app?vid=6d17c276-0a0b-4d66-8572-ced57eea72cc"},"vehicle_type_id":"4","last_reported":1737807307,"current_range_meters":14000,"station_id":"","pricing_plan_id":"cebpf4jnsgd1na2vs0mg"},{"bike_id":"cb6be3ae-c010-4b14-9349-f94744a98582","system_id":"levelo_inurba_marseille","lat":43.29676,"lon":5.37305,"is_reserved":false,"is_disabled":false,"rental_uris":{"android":"levelo://app?vid=cb6be3ae-c010-4b14-9349-f94744a98582","ios":"levelo://app?vid=cb6be3ae-c010-4b14-9349-f94744a98582"},"vehicle_type_id":"4","last_reported":1737807307,"current_range_meters":32000,"station_id":"ce4bgk12rcd13ifvqbj0","pricing_plan_id":"cebpf4jnsgd1na2vs0mg"},{"bike_id":"111fc91b-7abd-4de0-b789-b690542d25fa","system_id":"levelo_inurba_marseille","lat":43.32002,"lon":5.38165,"is_reserved":false,"is_disabled":false,"rental_uris":{"android":"levelo://app?vid=111fc91b-7abd-4de0-b789-b690542d25fa","ios":"levelo://app?vid=111fc91b-7abd-4de0-b789-b690542d25fa"},"vehicle_type_id":"4","last_reported":1737807307,"current_range_meters":7200,"station_id":"ce4bhr12rcd13ifvqhpg","pricing_plan_id":"cebpf4jnsgd1na2vs0mg"},{"bike_id":"58e811bb-64a6-42d5-b58d-7710b02b375a","system_id":"levelo_inurba_marseille","lat":43.25498,"lon":5.37658,"is_reserved":false,"is_disabled":false,"rental_uris":{"android":"levelo://app?vid=58e811bb-64a6-42d5-b58d-7710b02b375a","ios":"levelo://app?vid=58e811bb-64a6-42d5-b58d-7710b02b375a"},"vehicle_type_id":"4","last_reported":1737807307,"current_range_meters":38000,"station_id":"ce4bhh12rcd13ifvqff0","pricing_plan_id":"cebpf4jnsgd1na2vs0mg"},{"bike_id":"48e8ea53-6671-4afb-9c8d-1c5842cd6e14","system_id":"levelo_inurba_marseille","lat":43.3054,"lon":5.36573,"is_reserved":false,"is_disabled":false,"rental_uris":{"android":"levelo://app?vid=48e8ea53-6671-4afb-9c8d-1c5842cd6e14","ios":"levelo://app?vid=48e8ea53-6671-4afb-9c8d-1c5842cd6e14"},"vehicle_type_id":"4","last_reported":1737807307,"current_range_meters":38800,"station_id":"ce4bgs12rcd13ifvqcag","pricing_plan_id":"cebpf4jnsgd1na2vs0mg"},{"bike_id":"361cd0b7-edfc-4eec-a6fd-ba4bdf540479","system_id":"levelo_inurba_marseille","lat":43.32472,"lon":5.36585,"is_reserved":false,"is_disabled":false,"rental_uris":{"android":"levelo://app?vid=361cd0b7-edfc-4eec-a6fd-ba4bdf540479","ios":"levelo://app?vid=361cd0b7-edfc-4eec-a6fd-ba4bdf540479"},"vehicle_type_id":"4","last_reported":1737807307,"current_range_meters":36800,"station_id":"ce4bhs12rcd13ifvqhvg","pricing_plan_id":"cebpf4jnsgd1na2vs0mg"},{"bike_id":"1945deae-6710-49e8-8393-ea34a9334a47","system_id":"levelo_inurba_marseille","lat":43.31116,"lon":5.37775,"is_reserved":false,"is_disabled":false,"rental_uris":{"android":"levelo://app?vid=1945deae-6710-49e8-8393-ea34a9334a47","ios":"levelo://app?vid=1945deae-6710-49e8-8393-ea34a9334a47"},"vehicle_type_id":"4","last_reported":1737807307,"current_range_meters":32400,"station_id":"ce4bgt92rcd13ifvqcg0","pricing_plan_id":"cebpf4jnsgd1na2vs0mg"},{"bike_id":"400d49b2-9326-4507-a9b7-07dce80d705b","system_id":"levelo_inurba_marseille","lat":43.30249,"lon":5.40056,"is_reserved":false,"is_disabled":false,"rental_uris":{"android":"levelo://app?vid=400d49b2-9326-4507-a9b7-07dce80d705b","ios":"levelo://app?vid=400d49b2-9326-4507-a9b7-07dce80d705b"},"vehicle_type_id":"4","last_reported":1737807307,"current_range_meters":6400,"station_id":"ce4bgvh2rcd13ifvqcs0","pricing_plan_id":"cebpf4jnsgd1na2vs0mg"},{"bike_id":"29af223e-652f-45b9-ac49-c1179617d491","system_id":"levelo_inurba_marseille","lat":43.24386,"lon":5.37061,"is_reserved":false,"is_disabled":false,"rental_uris":{"android":"levelo://app?vid=29af223e-652f-45b9-ac49-c1179617d491","ios":"levelo://app?vid=29af223e-652f-45b9-ac49-c1179617d491"},"vehicle_type_id":"4","last_reported":1737807307,"current_range_meters":20000,"station_id":"ce4bhhh2rcd13ifvqfk0","pricing_plan_id":"cebpf4jnsgd1na2vs0mg"},{"bike_id":"787fabc3-eb91-469a-81b6-44a6fdcc4a9b","system_id":"levelo_inurba_marseille","lat":43.2306,"lon":5.354884,"is_reserved":false,"is_disabled":true,"rental_uris":{"android":"levelo://app?vid=787fabc3-eb91-469a-81b6-44a6fdcc4a9b","ios":"levelo://app?vid=787fabc3-eb91-469a-81b6-44a6fdcc4a9b"},"vehicle_type_id":"4","last_reported":1737807307,"current_range_meters":1200,"station_id":"cpo3342slgdg3j2ifvpg","pricing_plan_id":"cebpf4jnsgd1na2vs0mg"},{"bike_id":"bd002190-7253-4748-ac67-ef72549b7175","system_id":"levelo_inurba_marseille","lat":43.32454,"lon":5.36572,"is_reserved":false,"is_disabled":false,"rental_uris":{"android":"levelo://app?vid=bd002190-7253-4748-ac67-ef72549b7175","ios":"levelo://app?vid=bd002190-7253-4748-ac67-ef72549b7175"},"vehicle_type_id":"4","last_reported":1737807307,"current_range_meters":18800,"station_id":"ce4bhs12rcd13ifvqhvg","pricing_plan_id":"cebpf4jnsgd1na2vs0mg"},{"bike_id":"135924fb-5e1a-4006-8b3c-0a6dcc2e60ec","system_id":"levelo_inurba_marseille","lat":43.24393,"lon":5.37061,"is_reserved":false,"is_disabled":false,"rental_uris":{"android":"levelo://app?vid=135924fb-5e1a-4006-8b3c-0a6dcc2e60ec","ios":"levelo://app?vid=135924fb-5e1a-4006-8b3c-0a6dcc2e60ec"},"vehicle_type_id":"4","last_reported":1737807307,"current_range_meters":38400,"station_id":"ce4bhhh2rcd13ifvqfk0","pricing_plan_id":"cebpf4jnsgd1na2vs0mg"},{"bike_id":"7aad9059-a46f-476a-999b-2dabd1dcf54c","system_id":"levelo_inurba_marseille","lat":43.30542,"lon":5.36536,"is_reserved":false,"is_disabled":false,"rental_uris":{"android":"levelo://app?vid=7aad9059-a46f-476a-999b-2dabd1dcf54c","ios":"levelo://app?vid=7aad9059-a46f-476a-999b-2dabd1dcf54c"},"vehicle_type_id":"4","last_reported":1737807307,"current_range_meters":37600,"station_id":"ce4bgs12rcd13ifvqcag","pricing_plan_id":"cebpf4jnsgd1na2vs0mg"},{"bike_id":"6037994a-2d39-4f27-8621-92e5f0b7ed0c","system_id":"levelo_inurba_marseille","lat":43.23154,"lon":5.4373,"is_reserved":false,"is_disabled":false,"rental_uris":{"android":"levelo://app?vid=6037994a-2d39-4f27-8621-92e5f0b7ed0c","ios":"levelo://app?vid=6037994a-2d39-4f27-8621-92e5f0b7ed0c"},"vehicle_type_id":"4","last_reported":1737807307,"current_range_meters":19600,"station_id":"ce4bhmp2rcd13ifvqgog","pricing_plan_id":"cebpf4jnsgd1na2vs0mg"},{"bike_id":"53306a9d-9aa6-4b26-9c3c-9b37c9d37f9f","system_id":"levelo_inurba_marseille","lat":43.28264,"lon":5.35076,"is_reserved":false,"is_disabled":false,"rental_uris":{"android":"levelo://app?vid=53306a9d-9aa6-4b26-9c3c-9b37c9d37f9f","ios":"levelo://app?vid=53306a9d-9aa6-4b26-9c3c-9b37c9d37f9f"},"vehicle_type_id":"4","last_reported":1737807307,"current_range_meters":38800,"station_id":"ce4bhbp2rcd13ifvqerg","pricing_plan_id":"cebpf4jnsgd1na2vs0mg"},{"bike_id":"a6da11aa-cb09-4191-a454-c3a90a627542","system_id":"levelo_inurba_marseille","lat":43.25872,"lon":5.39908,"is_reserved":false,"is_disabled":true,"rental_uris":{"android":"levelo://app?vid=a6da11aa-cb09-4191-a454-c3a90a627542","ios":"levelo://app?vid=a6da11aa-cb09-4191-a454-c3a90a627542"},"vehicle_type_id":"4","last_reported":1737807307,"current_range_meters":2000,"station_id":"ce4bhl92rcd13ifvqghg","pricing_plan_id":"cebpf4jnsgd1na2vs0mg"},{"bike_id":"ea624404-124a-4128-9041-089ad79942c5","system_id":"levelo_inurba_marseille","lat":43.29544,"lon":5.42293,"is_reserved":false,"is_disabled":false,"rental_uris":{"android":"levelo://app?vid=ea624404-124a-4128-9041-089ad79942c5","ios":"levelo://app?vid=ea624404-124a-4128-9041-089ad79942c5"},"vehicle_type_id":"4","last_reported":1737807307,"current_range_meters":32400,"station_id":"ce4bhph2rcd13ifvqhdg","pricing_plan_id":"cebpf4jnsgd1na2vs0mg"},{"bike_id":"7f1596e0-f6d9-4072-b5fd-4558f8ae0b9d","system_id":"levelo_inurba_marseille","lat":43.25713,"lon":5.41117,"is_reserved":false,"is_disabled":false,"rental_uris":{"android":"levelo://app?vid=7f1596e0-f6d9-4072-b5fd-4558f8ae0b9d","ios":"levelo://app?vid=7f1596e0-f6d9-4072-b5fd-4558f8ae0b9d"},"vehicle_type_id":"4","last_reported":1737807307,"current_range_meters":39200,"station_id":"ce4bhkp2rcd13ifvqgd0","pricing_plan_id":"cebpf4jnsgd1na2vs0mg"},{"bike_id":"662826ac-353a-4d90-b4d6-b01a8f2632b2","system_id":"levelo_inurba_marseille","lat":43.22932,"lon":5.35379,"is_reserved":false,"is_disabled":false,"rental_uris":{"android":"levelo://app?vid=662826ac-353a-4d90-b4d6-b01a8f2632b2","ios":"levelo://app?vid=662826ac-353a-4d90-b4d6-b01a8f2632b2"},"vehicle_type_id":"4","last_reported":1737807307,"current_range_meters":20400,"station_id":"cpo3532slgdg3j2ikp40","pricing_plan_id":"cebpf4jnsgd1na2vs0mg"},{"bike_id":"9696924a-b655-4c3b-952a-eb79690eeb58","system_id":"levelo_inurba_marseille","lat":43.23153,"lon":5.43709,"is_reserved":false,"is_disabled":false,"rental_uris":{"android":"levelo://app?vid=9696924a-b655-4c3b-952a-eb79690eeb58","ios":"levelo://app?vid=9696924a-b655-4c3b-952a-eb79690eeb58"},"vehicle_type_id":"4","last_reported":1737807307,"current_range_meters":20800,"station_id":"ce4bhmp2rcd13ifvqgog","pricing_plan_id":"cebpf4jnsgd1na2vs0mg"},{"bike_id":"40276c2b-c10e-42ab-857d-43e7ecb22cd6","system_id":"levelo_inurba_marseille","lat":43.27193,"lon":5.41008,"is_reserved":false,"is_disabled":false,"rental_uris":{"android":"levelo://app?vid=40276c2b-c10e-42ab-857d-43e7ecb22cd6","ios":"levelo://app?vid=40276c2b-c10e-42ab-857d-43e7ecb22cd6"},"vehicle_type_id":"4","last_reported":1737807307,"current_range_meters":32800,"station_id":"ce4bhl12rcd13ifvqgf0","pricing_plan_id":"cebpf4jnsgd1na2vs0mg"},{"bike_id":"e227aabc-157e-4d57-a2a0-e96b0b895179","system_id":"levelo_inurba_marseille","lat":43.23937,"lon":5.36705,"is_reserved":false,"is_disabled":false,"rental_uris":{"android":"levelo://app?vid=e227aabc-157e-4d57-a2a0-e96b0b895179","ios":"levelo://app?vid=e227aabc-157e-4d57-a2a0-e96b0b895179"},"vehicle_type_id":"4","last_reported":1737807307,"current_range_meters":28000,"station_id":"","pricing_plan_id":"cebpf4jnsgd1na2vs0mg"},{"bike_id":"73e00b2b-2668-4d2a-93ac-08132f002d5b","system_id":"levelo_inurba_marseille","lat":43.28101,"lon":5.37871,"is_reserved":false,"is_disabled":false,"rental_uris":{"android":"levelo://app?vid=73e00b2b-2668-4d2a-93ac-08132f002d5b","ios":"levelo://app?vid=73e00b2b-2668-4d2a-93ac-08132f002d5b"},"vehicle_type_id":"4","last_reported":1737807307,"current_range_meters":14000,"station_id":"ce4bha12rcd13ifvqee0","pricing_plan_id":"cebpf4jnsgd1na2vs0mg"},{"bike_id":"03c9ea00-dc72-414c-b006-4436167fc80d","system_id":"levelo_inurba_marseille","lat":43.29786,"lon":5.40412,"is_reserved":false,"is_disabled":false,"rental_uris":{"android":"levelo://app?vid=03c9ea00-dc72-414c-b006-4436167fc80d","ios":"levelo://app?vid=03c9ea00-dc72-414c-b006-4436167fc80d"},"vehicle_type_id":"4","last_reported":1737807307,"current_range_meters":38400,"station_id":"ce4bh112rcd13ifvqd90","pricing_plan_id":"cebpf4jnsgd1na2vs0mg"},{"bike_id":"18777148-8978-438b-82fa-d702dd4920f1","system_id":"levelo_inurba_marseille","lat":43.28265,"lon":5.35088,"is_reserved":false,"is_disabled":false,"rental_uris":{"android":"levelo://app?vid=18777148-8978-438b-82fa-d702dd4920f1","ios":"levelo://app?vid=18777148-8978-438b-82fa-d702dd4920f1"},"vehicle_type_id":"4","last_reported":1737807307,"current_range_meters":33200,"station_id":"ce4bhbp2rcd13ifvqerg","pricing_plan_id":"cebpf4jnsgd1na2vs0mg"},{"bike_id":"00d570d3-3e44-418e-8fb5-d8cab8cadbe0","system_id":"levelo_inurba_marseille","lat":43.29963,"lon":5.37175,"is_reserved":false,"is_disabled":false,"rental_uris":{"android":"levelo://app?vid=00d570d3-3e44-418e-8fb5-d8cab8cadbe0","ios":"levelo://app?vid=00d570d3-3e44-418e-8fb5-d8cab8cadbe0"},"vehicle_type_id":"4","last_reported":1737807307,"current_range_meters":39200,"station_id":"ce4bgr92rcd13ifvqc7g","pricing_plan_id":"cebpf4jnsgd1na2vs0mg"},{"bike_id":"65b8614e-3341-455c-8c98-42b5d99800dd","system_id":"levelo_inurba_marseille","lat":43.293,"lon":5.37472,"is_reserved":false,"is_disabled":false,"rental_uris":{"android":"levelo://app?vid=65b8614e-3341-455c-8c98-42b5d99800dd","ios":"levelo://app?vid=65b8614e-3341-455c-8c98-42b5d99800dd"},"vehicle_type_id":"4","last_reported":1737807307,"current_range_meters":33200,"station_id":"ce4bgi12rcd13ifvqb70","pricing_plan_id":"cebpf4jnsgd1na2vs0mg"},{"bike_id":"4696d5ef-8a42-4036-a71c-2c9add75b0f9","system_id":"levelo_inurba_marseille","lat":43.29974,"lon":5.41334,"is_reserved":false,"is_disabled":false,"rental_uris":{"android":"levelo://app?vid=4696d5ef-8a42-4036-a71c-2c9add75b0f9","ios":"levelo://app?vid=4696d5ef-8a42-4036-a71c-2c9add75b0f9"},"vehicle_type_id":"4","last_reported":1737807307,"current_range_meters":26000,"station_id":"ce4bhp12rcd13ifvqh9g","pricing_plan_id":"cebpf4jnsgd1na2vs0mg"},{"bike_id":"0ee42e9d-671c-4504-91a8-fe1b698bb168","system_id":"levelo_inurba_marseille","lat":43.30279,"lon":5.37708,"is_reserved":false,"is_disabled":false,"rental_uris":{"android":"levelo://app?vid=0ee42e9d-671c-4504-91a8-fe1b698bb168","ios":"levelo://app?vid=0ee42e9d-671c-4504-91a8-fe1b698bb168"},"vehicle_type_id":"4","last_reported":1737807307,"current_range_meters":36800,"station_id":"ce4bguh2rcd13ifvqcj0","pricing_plan_id":"cebpf4jnsgd1na2vs0mg"},{"bike_id":"497881f0-1f99-4e89-9d01-fc067bd2431e","system_id":"levelo_inurba_marseille","lat":43.30276,"lon":5.39804,"is_reserved":false,"is_disabled":false,"rental_uris":{"android":"levelo://app?vid=497881f0-1f99-4e89-9d01-fc067bd2431e","ios":"levelo://app?vid=497881f0-1f99-4e89-9d01-fc067bd2431e"},"vehicle_type_id":"4","last_reported":1737807307,"current_range_meters":9600,"station_id":"ce4bhh92rcd13ifvqfi0","pricing_plan_id":"cebpf4jnsgd1na2vs0mg"},{"bike_id":"571fc473-8937-4299-8e51-e85601e79bdd","system_id":"levelo_inurba_marseille","lat":43.30365,"lon":5.41881,"is_reserved":false,"is_disabled":false,"rental_uris":{"android":"levelo://app?vid=571fc473-8937-4299-8e51-e85601e79bdd","ios":"levelo://app?vid=571fc473-8937-4299-8e51-e85601e79bdd"},"vehicle_type_id":"4","last_reported":1737807307,"current_range_meters":29600,"station_id":"ce4bhop2rcd13ifvqh7g","pricing_plan_id":"cebpf4jnsgd1na2vs0mg"},{"bike_id":"7f522602-a80d-46b9-a8a6-5b25117fd106","system_id":"levelo_inurba_marseille","lat":43.29617,"lon":5.3774,"is_reserved":false,"is_disabled":false,"rental_uris":{"android":"levelo://app?vid=7f522602-a80d-46b9-a8a6-5b25117fd106","ios":"levelo://app?vid=7f522602-a80d-46b9-a8a6-5b25117fd106"},"vehicle_type_id":"4","last_reported":1737807307,"current_range_meters":37600,"station_id":"ce4bgi92rcd13ifvqb90","pricing_plan_id":"cebpf4jnsgd1na2vs0mg"},{"bike_id":"373aac7d-8fa3-4ba3-b8ea-d0ff03d4baa6","system_id":"levelo_inurba_marseille","lat":43.27301,"lon":5.39097,"is_reserved":false,"is_disabled":false,"rental_uris":{"android":"levelo://app?vid=373aac7d-8fa3-4ba3-b8ea-d0ff03d4baa6","ios":"levelo://app?vid=373aac7d-8fa3-4ba3-b8ea-d0ff03d4baa6"},"vehicle_type_id":"4","last_reported":1737807307,"current_range_meters":6400,"station_id":"ce4bhgp2rcd13ifvqfe0","pricing_plan_id":"cebpf4jnsgd1na2vs0mg"},{"bike_id":"9d02f1c9-e2b9-44db-a3d4-b6e99abb6bb6","system_id":"levelo_inurba_marseille","lat":43.304396,"lon":5.397399,"is_reserved":false,"is_disabled":false,"rental_uris":{"android":"levelo://app?vid=9d02f1c9-e2b9-44db-a3d4-b6e99abb6bb6","ios":"levelo://app?vid=9d02f1c9-e2b9-44db-a3d4-b6e99abb6bb6"},"vehicle_type_id":"4","last_reported":1737807307,"current_range_meters":39200,"station_id":"ce4bh092rcd13ifvqd20","pricing_plan_id":"cebpf4jnsgd1na2vs0mg"},{"bike_id":"f9c62656-c213-4d37-bccf-53ca245dbdbd","system_id":"levelo_inurba_marseille","lat":43.33023,"lon":5.39052,"is_reserved":false,"is_disabled":false,"rental_uris":{"android":"levelo://app?vid=f9c62656-c213-4d37-bccf-53ca245dbdbd","ios":"levelo://app?vid=f9c62656-c213-4d37-bccf-53ca245dbdbd"},"vehicle_type_id":"4","last_reported":1737807307,"current_range_meters":14000,"station_id":"ce4bhr92rcd13ifvqhrg","pricing_plan_id":"cebpf4jnsgd1na2vs0mg"},{"bike_id":"3e58f363-8612-4346-82fb-2e73f66b7add","system_id":"levelo_inurba_marseille","lat":43.266828,"lon":5.382771,"is_reserved":false,"is_disabled":false,"rental_uris":{"android":"levelo://app?vid=3e58f363-8612-4346-82fb-2e73f66b7add","ios":"levelo://app?vid=3e58f363-8612-4346-82fb-2e73f66b7add"},"vehicle_type_id":"4","last_reported":1737807307,"current_range_meters":38800,"station_id":"ce4bhg92rcd13ifvqf90","pricing_plan_id":"cebpf4jnsgd1na2vs0mg"},{"bike_id":"7c78a755-c7f5-4f07-a96b-621451d47948","system_id":"levelo_inurba_marseille","lat":43.29907,"lon":5.43673,"is_reserved":false,"is_disabled":false,"rental_uris":{"android":"levelo://app?vid=7c78a755-c7f5-4f07-a96b-621451d47948","ios":"levelo://app?vid=7c78a755-c7f5-4f07-a96b-621451d47948"},"vehicle_type_id":"4","last_reported":1737807307,"current_range_meters":36400,"station_id":"ce4bhpp2rcd13ifvqhfg","pricing_plan_id":"cebpf4jnsgd1na2vs0mg"},{"bike_id":"3e6f2ba0-f5c9-4b14-98e2-0497db63554a","system_id":"levelo_inurba_marseille","lat":43.26214,"lon":5.37441,"is_reserved":false,"is_disabled":false,"rental_uris":{"android":"levelo://app?vid=3e6f2ba0-f5c9-4b14-98e2-0497db63554a","ios":"levelo://app?vid=3e6f2ba0-f5c9-4b14-98e2-0497db63554a"},"vehicle_type_id":"4","last_reported":1737807307,"current_range_meters":29600,"station_id":"ce4bhgp2rcd13ifvqfc0","pricing_plan_id":"cebpf4jnsgd1na2vs0mg"},{"bike_id":"2440353b-7c31-43d3-9ae2-ef06cb6860d8","system_id":"levelo_inurba_marseille","lat":43.29284,"lon":5.37447,"is_reserved":false,"is_disabled":false,"rental_uris":{"android":"levelo://app?vid=2440353b-7c31-43d3-9ae2-ef06cb6860d8","ios":"levelo://app?vid=2440353b-7c31-43d3-9ae2-ef06cb6860d8"},"vehicle_type_id":"4","last_reported":1737807307,"current_range_meters":10000,"station_id":"ce4bgi12rcd13ifvqb70","pricing_plan_id":"cebpf4jnsgd1na2vs0mg"},{"bike_id":"da8916d0-e844-4d0b-8472-d74c3987bc62","system_id":"levelo_inurba_marseille","lat":43.29972,"lon":5.38494,"is_reserved":false,"is_disabled":true,"rental_uris":{"android":"levelo://app?vid=da8916d0-e844-4d0b-8472-d74c3987bc62","ios":"levelo://app?vid=da8916d0-e844-4d0b-8472-d74c3987bc62"},"vehicle_type_id":"4","last_reported":1737807307,"current_range_meters":38800,"station_id":"ce4bgj92rcd13ifvqbd0","pricing_plan_id":"cebpf4jnsgd1na2vs0mg"},{"bike_id":"9cc5ea20-a232-440c-be2d-efd5324ff1a5","system_id":"levelo_inurba_marseille","lat":43.2781,"lon":5.40719,"is_reserved":false,"is_disabled":false,"rental_uris":{"android":"levelo://app?vid=9cc5ea20-a232-440c-be2d-efd5324ff1a5","ios":"levelo://app?vid=9cc5ea20-a232-440c-be2d-efd5324ff1a5"},"vehicle_type_id":"4","last_reported":1737807307,"current_range_meters":27600,"station_id":"ce4bhnh2rcd13ifvqgtg","pricing_plan_id":"cebpf4jnsgd1na2vs0mg"},{"bike_id":"7b1e016f-c7a2-457d-b49c-9279d3d77813","system_id":"levelo_inurba_marseille","lat":43.24393,"lon":5.37052,"is_reserved":false,"is_disabled":false,"rental_uris":{"android":"levelo://app?vid=7b1e016f-c7a2-457d-b49c-9279d3d77813","ios":"levelo://app?vid=7b1e016f-c7a2-457d-b49c-9279d3d77813"},"vehicle_type_id":"4","last_reported":1737807307,"current_range_meters":11200,"station_id":"ce4bhhh2rcd13ifvqfk0","pricing_plan_id":"cebpf4jnsgd1na2vs0mg"},{"bike_id":"9ef435d8-606b-4725-b3be-4d4047a016fd","system_id":"levelo_inurba_marseille","lat":43.2897,"lon":5.37839,"is_reserved":false,"is_disabled":false,"rental_uris":{"android":"levelo://app?vid=9ef435d8-606b-4725-b3be-4d4047a016fd","ios":"levelo://app?vid=9ef435d8-606b-4725-b3be-4d4047a016fd"},"vehicle_type_id":"4","last_reported":1737807307,"current_range_meters":39200,"station_id":"ce4bh9p2rcd13ifvqed0","pricing_plan_id":"cebpf4jnsgd1na2vs0mg"},{"bike_id":"fe101654-405a-4eae-9dc9-58016cdcfc28","system_id":"levelo_inurba_marseille","lat":43.29177,"lon":5.3715,"is_reserved":false,"is_disabled":false,"rental_uris":{"android":"levelo://app?vid=fe101654-405a-4eae-9dc9-58016cdcfc28","ios":"levelo://app?vid=fe101654-405a-4eae-9dc9-58016cdcfc28"},"vehicle_type_id":"4","last_reported":1737807307,"current_range_meters":38000,"station_id":"ce4bha92rcd13ifvqeh0","pricing_plan_id":"cebpf4jnsgd1na2vs0mg"},{"bike_id":"f83eae7a-ac87-48aa-9902-f2e5e16ac1f4","system_id":"levelo_inurba_marseille","lat":43.30951,"lon":5.39066,"is_reserved":false,"is_disabled":false,"rental_uris":{"android":"levelo://app?vid=f83eae7a-ac87-48aa-9902-f2e5e16ac1f4","ios":"levelo://app?vid=f83eae7a-ac87-48aa-9902-f2e5e16ac1f4"},"vehicle_type_id":"4","last_reported":1737807307,"current_range_meters":35600,"station_id":"ce4bgup2rcd13ifvqco0","pricing_plan_id":"cebpf4jnsgd1na2vs0mg"},{"bike_id":"7efe2e23-4eb5-42e6-bdfe-af45bc849b33","system_id":"levelo_inurba_marseille","lat":43.2511,"lon":5.40324,"is_reserved":false,"is_disabled":false,"rental_uris":{"android":"levelo://app?vid=7efe2e23-4eb5-42e6-bdfe-af45bc849b33","ios":"levelo://app?vid=7efe2e23-4eb5-42e6-bdfe-af45bc849b33"},"vehicle_type_id":"4","last_reported":1737807307,"current_range_meters":8000,"station_id":"ce4bhlh2rcd13ifvqgig","pricing_plan_id":"cebpf4jnsgd1na2vs0mg"},{"bike_id":"8fd0082a-8558-471d-bd5c-8f2bb03de120","system_id":"levelo_inurba_marseille","lat":43.28723,"lon":5.39988,"is_reserved":false,"is_disabled":true,"rental_uris":{"android":"levelo://app?vid=8fd0082a-8558-471d-bd5c-8f2bb03de120","ios":"levelo://app?vid=8fd0082a-8558-471d-bd5c-8f2bb03de120"},"vehicle_type_id":"4","last_reported":1737807307,"current_range_meters":30800,"station_id":"ce4bho92rcd13ifvqh3g","pricing_plan_id":"cebpf4jnsgd1na2vs0mg"},{"bike_id":"ec215256-d883-4e03-8196-c439ba03cc3a","system_id":"levelo_inurba_marseille","lat":43.30202,"lon":5.39475,"is_reserved":false,"is_disabled":false,"rental_uris":{"android":"levelo://app?vid=ec215256-d883-4e03-8196-c439ba03cc3a","ios":"levelo://app?vid=ec215256-d883-4e03-8196-c439ba03cc3a"},"vehicle_type_id":"4","last_reported":1737807307,"current_range_meters":36400,"station_id":"ce4bh0p2rcd13ifvqd70","pricing_plan_id":"cebpf4jnsgd1na2vs0mg"},{"bike_id":"be065451-9086-47c9-be3d-608cd0770072","system_id":"levelo_inurba_marseille","lat":43.25856,"lon":5.39915,"is_reserved":false,"is_disabled":false,"rental_uris":{"android":"levelo://app?vid=be065451-9086-47c9-be3d-608cd0770072","ios":"levelo://app?vid=be065451-9086-47c9-be3d-608cd0770072"},"vehicle_type_id":"4","last_reported":1737807307,"current_range_meters":37600,"station_id":"ce4bhl92rcd13ifvqghg","pricing_plan_id":"cebpf4jnsgd1na2vs0mg"},{"bike_id":"f3230c48-d736-422c-bb85-588c13127959","system_id":"levelo_inurba_marseille","lat":43.23959,"lon":5.36633,"is_reserved":false,"is_disabled":false,"rental_uris":{"android":"levelo://app?vid=f3230c48-d736-422c-bb85-588c13127959","ios":"levelo://app?vid=f3230c48-d736-422c-bb85-588c13127959"},"vehicle_type_id":"4","last_reported":1737807307,"current_range_meters":31200,"station_id":"ce4bhi12rcd13ifvqfp0","pricing_plan_id":"cebpf4jnsgd1na2vs0mg"},{"bike_id":"d465c82e-dd8f-4049-a78f-a952bd36016c","system_id":"levelo_inurba_marseille","lat":43.26685,"lon":5.38274,"is_reserved":false,"is_disabled":false,"rental_uris":{"android":"levelo://app?vid=d465c82e-dd8f-4049-a78f-a952bd36016c","ios":"levelo://app?vid=d465c82e-dd8f-4049-a78f-a952bd36016c"},"vehicle_type_id":"4","last_reported":1737807307,"current_range_meters":36000,"station_id":"ce4bhg92rcd13ifvqf90","pricing_plan_id":"cebpf4jnsgd1na2vs0mg"},{"bike_id":"26b6dedf-9b4c-42bc-9e42-49ab9caa3857","system_id":"levelo_inurba_marseille","lat":43.29606,"lon":5.3771,"is_reserved":false,"is_disabled":false,"rental_uris":{"android":"levelo://app?vid=26b6dedf-9b4c-42bc-9e42-49ab9caa3857","ios":"levelo://app?vid=26b6dedf-9b4c-42bc-9e42-49ab9caa3857"},"vehicle_type_id":"4","last_reported":1737807307,"current_range_meters":37600,"station_id":"ce4bgi92rcd13ifvqb90","pricing_plan_id":"cebpf4jnsgd1na2vs0mg"},{"bike_id":"ac1ef55e-d11d-4b33-bcf3-ee28191e9b27","system_id":"levelo_inurba_marseille","lat":43.23061,"lon":5.3549,"is_reserved":false,"is_disabled":false,"rental_uris":{"android":"levelo://app?vid=ac1ef55e-d11d-4b33-bcf3-ee28191e9b27","ios":"levelo://app?vid=ac1ef55e-d11d-4b33-bcf3-ee28191e9b27"},"vehicle_type_id":"4","last_reported":1737807307,"current_range_meters":10800,"station_id":"cpo3342slgdg3j2ifvpg","pricing_plan_id":"cebpf4jnsgd1na2vs0mg"},{"bike_id":"f6b9dfa3-8a24-4a50-a3d1-40c4ad4d5a60","system_id":"levelo_inurba_marseille","lat":43.30279,"lon":5.37702,"is_reserved":false,"is_disabled":false,"rental_uris":{"android":"levelo://app?vid=f6b9dfa3-8a24-4a50-a3d1-40c4ad4d5a60","ios":"levelo://app?vid=f6b9dfa3-8a24-4a50-a3d1-40c4ad4d5a60"},"vehicle_type_id":"4","last_reported":1737807307,"current_range_meters":39200,"station_id":"ce4bguh2rcd13ifvqcj0","pricing_plan_id":"cebpf4jnsgd1na2vs0mg"},{"bike_id":"d1b5d76c-ac41-4e67-a702-a368c420f19d","system_id":"levelo_inurba_marseille","lat":43.287169,"lon":5.373914,"is_reserved":false,"is_disabled":false,"rental_uris":{"android":"levelo://app?vid=d1b5d76c-ac41-4e67-a702-a368c420f19d","ios":"levelo://app?vid=d1b5d76c-ac41-4e67-a702-a368c420f19d"},"vehicle_type_id":"4","last_reported":1737807307,"current_range_meters":20800,"station_id":"ce4bh3p2rcd13ifvqdq0","pricing_plan_id":"cebpf4jnsgd1na2vs0mg"},{"bike_id":"9f0c46f0-4fb9-4e17-b4b9-e5ede73a87dc","system_id":"levelo_inurba_marseille","lat":43.32368,"lon":5.38907,"is_reserved":false,"is_disabled":false,"rental_uris":{"android":"levelo://app?vid=9f0c46f0-4fb9-4e17-b4b9-e5ede73a87dc","ios":"levelo://app?vid=9f0c46f0-4fb9-4e17-b4b9-e5ede73a87dc"},"vehicle_type_id":"4","last_reported":1737807307,"current_range_meters":29600,"station_id":"ce4bhqp2rcd13ifvqhog","pricing_plan_id":"cebpf4jnsgd1na2vs0mg"},{"bike_id":"1b8ab376-cfd7-48b3-9ad4-fc3dd25c0ae2","system_id":"levelo_inurba_marseille","lat":43.30147,"lon":5.38086,"is_reserved":false,"is_disabled":false,"rental_uris":{"android":"levelo://app?vid=1b8ab376-cfd7-48b3-9ad4-fc3dd25c0ae2","ios":"levelo://app?vid=1b8ab376-cfd7-48b3-9ad4-fc3dd25c0ae2"},"vehicle_type_id":"4","last_reported":1737807307,"current_range_meters":34000,"station_id":"ce4bgjp2rcd13ifvqbh0","pricing_plan_id":"cebpf4jnsgd1na2vs0mg"},{"bike_id":"ae4db684-dcbc-4005-9fb6-be1945f6df72","system_id":"levelo_inurba_marseille","lat":43.2979,"lon":5.39343,"is_reserved":false,"is_disabled":false,"rental_uris":{"android":"levelo://app?vid=ae4db684-dcbc-4005-9fb6-be1945f6df72","ios":"levelo://app?vid=ae4db684-dcbc-4005-9fb6-be1945f6df72"},"vehicle_type_id":"4","last_reported":1737807307,"current_range_meters":38000,"station_id":"chh1huq6cuj3fo74tm60","pricing_plan_id":"cebpf4jnsgd1na2vs0mg"},{"bike_id":"d082c3a0-149e-44e5-8b82-db1946c733ed","system_id":"levelo_inurba_marseille","lat":43.28151,"lon":5.42645,"is_reserved":false,"is_disabled":false,"rental_uris":{"android":"levelo://app?vid=d082c3a0-149e-44e5-8b82-db1946c733ed","ios":"levelo://app?vid=d082c3a0-149e-44e5-8b82-db1946c733ed"},"vehicle_type_id":"4","last_reported":1737807307,"current_range_meters":24800,"station_id":"ce4bhnh2rcd13ifvqgug","pricing_plan_id":"cebpf4jnsgd1na2vs0mg"},{"bike_id":"1ddf198a-94ae-4a42-a842-41c98885b560","system_id":"levelo_inurba_marseille","lat":43.282645,"lon":5.35078,"is_reserved":false,"is_disabled":false,"rental_uris":{"android":"levelo://app?vid=1ddf198a-94ae-4a42-a842-41c98885b560","ios":"levelo://app?vid=1ddf198a-94ae-4a42-a842-41c98885b560"},"vehicle_type_id":"4","last_reported":1737807307,"current_range_meters":38800,"station_id":"ce4bhbp2rcd13ifvqerg","pricing_plan_id":"cebpf4jnsgd1na2vs0mg"},{"bike_id":"b3be33ae-cc25-4118-a3f1-a6409d19dd0e","system_id":"levelo_inurba_marseille","lat":43.31692,"lon":5.40466,"is_reserved":false,"is_disabled":false,"rental_uris":{"android":"levelo://app?vid=b3be33ae-cc25-4118-a3f1-a6409d19dd0e","ios":"levelo://app?vid=b3be33ae-cc25-4118-a3f1-a6409d19dd0e"},"vehicle_type_id":"4","last_reported":1737807307,"current_range_meters":36800,"station_id":"ce4bh012rcd13ifvqd00","pricing_plan_id":"cebpf4jnsgd1na2vs0mg"},{"bike_id":"e9decb53-49c1-40f5-9f18-8747b2a49d7d","system_id":"levelo_inurba_marseille","lat":43.26681,"lon":5.38271,"is_reserved":false,"is_disabled":false,"rental_uris":{"android":"levelo://app?vid=e9decb53-49c1-40f5-9f18-8747b2a49d7d","ios":"levelo://app?vid=e9decb53-49c1-40f5-9f18-8747b2a49d7d"},"vehicle_type_id":"4","last_reported":1737807307,"current_range_meters":16400,"station_id":"ce4bhg92rcd13ifvqf90","pricing_plan_id":"cebpf4jnsgd1na2vs0mg"},{"bike_id":"0851b06b-a037-4e68-9057-2908986d991d","system_id":"levelo_inurba_marseille","lat":43.3035,"lon":5.41874,"is_reserved":false,"is_disabled":false,"rental_uris":{"android":"levelo://app?vid=0851b06b-a037-4e68-9057-2908986d991d","ios":"levelo://app?vid=0851b06b-a037-4e68-9057-2908986d991d"},"vehicle_type_id":"4","last_reported":1737807307,"current_range_meters":28800,"station_id":"ce4bhop2rcd13ifvqh7g","pricing_plan_id":"cebpf4jnsgd1na2vs0mg"},{"bike_id":"16cba4e1-cb10-44ef-b1a1-eca95385335f","system_id":"levelo_inurba_marseille","lat":43.28429,"lon":5.34995,"is_reserved":false,"is_disabled":true,"rental_uris":{"android":"levelo://app?vid=16cba4e1-cb10-44ef-b1a1-eca95385335f","ios":"levelo://app?vid=16cba4e1-cb10-44ef-b1a1-eca95385335f"},"vehicle_type_id":"4","last_reported":1737807307,"current_range_meters":17200,"station_id":"ce4bhbh2rcd13ifvqepg","pricing_plan_id":"cebpf4jnsgd1na2vs0mg"},{"bike_id":"7a10888c-582c-499c-a3fa-0ab95acc6885","system_id":"levelo_inurba_marseille","lat":43.27052,"lon":5.40269,"is_reserved":false,"is_disabled":false,"rental_uris":{"android":"levelo://app?vid=7a10888c-582c-499c-a3fa-0ab95acc6885","ios":"levelo://app?vid=7a10888c-582c-499c-a3fa-0ab95acc6885"},"vehicle_type_id":"4","last_reported":1737807307,"current_range_meters":36800,"station_id":"ce4bhk92rcd13ifvqgc0","pricing_plan_id":"cebpf4jnsgd1na2vs0mg"},{"bike_id":"05c81ff1-1edd-46e7-b102-d28e801b191a","system_id":"levelo_inurba_marseille","lat":43.28455,"lon":5.35886,"is_reserved":false,"is_disabled":false,"rental_uris":{"android":"levelo://app?vid=05c81ff1-1edd-46e7-b102-d28e801b191a","ios":"levelo://app?vid=05c81ff1-1edd-46e7-b102-d28e801b191a"},"vehicle_type_id":"4","last_reported":1737807307,"current_range_meters":6000,"station_id":"ce4bhah2rcd13ifvqei0","pricing_plan_id":"cebpf4jnsgd1na2vs0mg"},{"bike_id":"50f6923c-24b2-4186-af99-03897004f9d8","system_id":"levelo_inurba_marseille","lat":43.30905,"lon":5.40179,"is_reserved":false,"is_disabled":false,"rental_uris":{"android":"levelo://app?vid=50f6923c-24b2-4186-af99-03897004f9d8","ios":"levelo://app?vid=50f6923c-24b2-4186-af99-03897004f9d8"},"vehicle_type_id":"4","last_reported":1737807307,"current_range_meters":38000,"station_id":"ce4bgvp2rcd13ifvqct0","pricing_plan_id":"cebpf4jnsgd1na2vs0mg"},{"bike_id":"e28cd362-bf6b-4a47-b19d-eace2e851faa","system_id":"levelo_inurba_marseille","lat":43.26008,"lon":5.37562,"is_reserved":false,"is_disabled":false,"rental_uris":{"android":"levelo://app?vid=e28cd362-bf6b-4a47-b19d-eace2e851faa","ios":"levelo://app?vid=e28cd362-bf6b-4a47-b19d-eace2e851faa"},"vehicle_type_id":"4","last_reported":1737807307,"current_range_meters":30800,"station_id":"","pricing_plan_id":"cebpf4jnsgd1na2vs0mg"},{"bike_id":"176072ba-a66c-40f4-8e60-429a0d5c7c90","system_id":"levelo_inurba_marseille","lat":43.30946,"lon":5.39036,"is_reserved":false,"is_disabled":false,"rental_uris":{"android":"levelo://app?vid=176072ba-a66c-40f4-8e60-429a0d5c7c90","ios":"levelo://app?vid=176072ba-a66c-40f4-8e60-429a0d5c7c90"},"vehicle_type_id":"4","last_reported":1737807307,"current_range_meters":30400,"station_id":"ce4bgup2rcd13ifvqco0","pricing_plan_id":"cebpf4jnsgd1na2vs0mg"},{"bike_id":"527f4649-8f1a-4e0f-b8a9-814737744a1b","system_id":"levelo_inurba_marseille","lat":43.23963,"lon":5.36634,"is_reserved":false,"is_disabled":false,"rental_uris":{"android":"levelo://app?vid=527f4649-8f1a-4e0f-b8a9-814737744a1b","ios":"levelo://app?vid=527f4649-8f1a-4e0f-b8a9-814737744a1b"},"vehicle_type_id":"4","last_reported":1737807307,"current_range_meters":9600,"station_id":"ce4bhi12rcd13ifvqfp0","pricing_plan_id":"cebpf4jnsgd1na2vs0mg"},{"bike_id":"2b8e90db-8819-413f-9fe2-a6878a7b442a","system_id":"levelo_inurba_marseille","lat":43.29735,"lon":5.3768,"is_reserved":false,"is_disabled":false,"rental_uris":{"android":"levelo://app?vid=2b8e90db-8819-413f-9fe2-a6878a7b442a","ios":"levelo://app?vid=2b8e90db-8819-413f-9fe2-a6878a7b442a"},"vehicle_type_id":"4","last_reported":1737807307,"current_range_meters":38400,"station_id":"ce4bgkh2rcd13ifvqbl0","pricing_plan_id":"cebpf4jnsgd1na2vs0mg"},{"bike_id":"979c822c-34ed-43fc-a2ac-c454a2e21cc1","system_id":"levelo_inurba_marseille","lat":43.29242,"lon":5.40909,"is_reserved":false,"is_disabled":false,"rental_uris":{"android":"levelo://app?vid=979c822c-34ed-43fc-a2ac-c454a2e21cc1","ios":"levelo://app?vid=979c822c-34ed-43fc-a2ac-c454a2e21cc1"},"vehicle_type_id":"4","last_reported":1737807307,"current_range_meters":38000,"station_id":"ce4bh192rcd13ifvqdc0","pricing_plan_id":"cebpf4jnsgd1na2vs0mg"},{"bike_id":"f4a67fd7-7ba0-462e-b321-724410a83bc3","system_id":"levelo_inurba_marseille","lat":43.28624,"lon":5.35122,"is_reserved":false,"is_disabled":true,"rental_uris":{"android":"levelo://app?vid=f4a67fd7-7ba0-462e-b321-724410a83bc3","ios":"levelo://app?vid=f4a67fd7-7ba0-462e-b321-724410a83bc3"},"vehicle_type_id":"4","last_reported":1737807307,"current_range_meters":17600,"station_id":"ce4bhch2rcd13ifvqeug","pricing_plan_id":"cebpf4jnsgd1na2vs0mg"},{"bike_id":"841a1767-078e-4378-8ef2-78843610d635","system_id":"levelo_inurba_marseille","lat":43.23191,"lon":5.3556,"is_reserved":false,"is_disabled":false,"rental_uris":{"android":"levelo://app?vid=841a1767-078e-4378-8ef2-78843610d635","ios":"levelo://app?vid=841a1767-078e-4378-8ef2-78843610d635"},"vehicle_type_id":"4","last_reported":1737807307,"current_range_meters":7200,"station_id":"ce4bhu92rcd13ifvqi70","pricing_plan_id":"cebpf4jnsgd1na2vs0mg"},{"bike_id":"24d59ec5-cf08-4fae-9a26-710e13f73f2f","system_id":"levelo_inurba_marseille","lat":43.28423,"lon":5.35005,"is_reserved":false,"is_disabled":false,"rental_uris":{"android":"levelo://app?vid=24d59ec5-cf08-4fae-9a26-710e13f73f2f","ios":"levelo://app?vid=24d59ec5-cf08-4fae-9a26-710e13f73f2f"},"vehicle_type_id":"4","last_reported":1737807307,"current_range_meters":38800,"station_id":"ce4bhbh2rcd13ifvqepg","pricing_plan_id":"cebpf4jnsgd1na2vs0mg"},{"bike_id":"a429b57d-452d-4623-b8d1-c6c8eb545a68","system_id":"levelo_inurba_marseille","lat":43.28259,"lon":5.35084,"is_reserved":false,"is_disabled":false,"rental_uris":{"android":"levelo://app?vid=a429b57d-452d-4623-b8d1-c6c8eb545a68","ios":"levelo://app?vid=a429b57d-452d-4623-b8d1-c6c8eb545a68"},"vehicle_type_id":"4","last_reported":1737807307,"current_range_meters":30800,"station_id":"ce4bhbp2rcd13ifvqerg","pricing_plan_id":"cebpf4jnsgd1na2vs0mg"},{"bike_id":"95144118-884f-4827-9dc4-395be0b57793","system_id":"levelo_inurba_marseille","lat":43.31725,"lon":5.42399,"is_reserved":false,"is_disabled":false,"rental_uris":{"android":"levelo://app?vid=95144118-884f-4827-9dc4-395be0b57793","ios":"levelo://app?vid=95144118-884f-4827-9dc4-395be0b57793"},"vehicle_type_id":"4","last_reported":1737807307,"current_range_meters":39200,"station_id":"ce4bhp92rcd13ifvqhbg","pricing_plan_id":"cebpf4jnsgd1na2vs0mg"},{"bike_id":"f0ea2b6a-80e2-4a1c-8829-2617faab7925","system_id":"levelo_inurba_marseille","lat":43.34141,"lon":5.40902,"is_reserved":false,"is_disabled":false,"rental_uris":{"android":"levelo://app?vid=f0ea2b6a-80e2-4a1c-8829-2617faab7925","ios":"levelo://app?vid=f0ea2b6a-80e2-4a1c-8829-2617faab7925"},"vehicle_type_id":"4","last_reported":1737807307,"current_range_meters":16000,"station_id":"ce4bhqh2rcd13ifvqhlg","pricing_plan_id":"cebpf4jnsgd1na2vs0mg"},{"bike_id":"5c995afd-2cd1-49c1-8bf9-110c6b679d80","system_id":"levelo_inurba_marseille","lat":43.24083,"lon":5.37754,"is_reserved":false,"is_disabled":false,"rental_uris":{"android":"levelo://app?vid=5c995afd-2cd1-49c1-8bf9-110c6b679d80","ios":"levelo://app?vid=5c995afd-2cd1-49c1-8bf9-110c6b679d80"},"vehicle_type_id":"4","last_reported":1737807307,"current_range_meters":8000,"station_id":"ce4bhnp2rcd13ifvqgvg","pricing_plan_id":"cebpf4jnsgd1na2vs0mg"},{"bike_id":"164386fe-30c9-4115-85f5-95e2f1424e97","system_id":"levelo_inurba_marseille","lat":43.23156,"lon":5.43713,"is_reserved":false,"is_disabled":false,"rental_uris":{"android":"levelo://app?vid=164386fe-30c9-4115-85f5-95e2f1424e97","ios":"levelo://app?vid=164386fe-30c9-4115-85f5-95e2f1424e97"},"vehicle_type_id":"4","last_reported":1737807307,"current_range_meters":9200,"station_id":"ce4bhmp2rcd13ifvqgog","pricing_plan_id":"cebpf4jnsgd1na2vs0mg"},{"bike_id":"adce305b-52ab-48ed-b869-88a382f8d738","system_id":"levelo_inurba_marseille","lat":43.24065,"lon":5.37751,"is_reserved":false,"is_disabled":false,"rental_uris":{"android":"levelo://app?vid=adce305b-52ab-48ed-b869-88a382f8d738","ios":"levelo://app?vid=adce305b-52ab-48ed-b869-88a382f8d738"},"vehicle_type_id":"4","last_reported":1737807307,"current_range_meters":28800,"station_id":"ce4bhnp2rcd13ifvqgvg","pricing_plan_id":"cebpf4jnsgd1na2vs0mg"},{"bike_id":"b64d880e-4583-44f0-8c16-3495e23cf3e5","system_id":"levelo_inurba_marseille","lat":43.2989,"lon":5.43679,"is_reserved":false,"is_disabled":false,"rental_uris":{"android":"levelo://app?vid=b64d880e-4583-44f0-8c16-3495e23cf3e5","ios":"levelo://app?vid=b64d880e-4583-44f0-8c16-3495e23cf3e5"},"vehicle_type_id":"4","last_reported":1737807307,"current_range_meters":24400,"station_id":"ce4bhpp2rcd13ifvqhfg","pricing_plan_id":"cebpf4jnsgd1na2vs0mg"},{"bike_id":"aa0f0c17-5398-4660-bb86-d231c3452a48","system_id":"levelo_inurba_marseille","lat":43.312818,"lon":5.385285,"is_reserved":false,"is_disabled":false,"rental_uris":{"android":"levelo://app?vid=aa0f0c17-5398-4660-bb86-d231c3452a48","ios":"levelo://app?vid=aa0f0c17-5398-4660-bb86-d231c3452a48"},"vehicle_type_id":"4","last_reported":1737807307,"current_range_meters":37600,"station_id":"ce4bgt92rcd13ifvqcf0","pricing_plan_id":"cebpf4jnsgd1na2vs0mg"},{"bike_id":"b873533f-943b-4033-a86d-9d99128fa59a","system_id":"levelo_inurba_marseille","lat":43.32469,"lon":5.3656,"is_reserved":false,"is_disabled":false,"rental_uris":{"android":"levelo://app?vid=b873533f-943b-4033-a86d-9d99128fa59a","ios":"levelo://app?vid=b873533f-943b-4033-a86d-9d99128fa59a"},"vehicle_type_id":"4","last_reported":1737807307,"current_range_meters":38800,"station_id":"ce4bhs12rcd13ifvqhvg","pricing_plan_id":"cebpf4jnsgd1na2vs0mg"},{"bike_id":"b512f278-f0c1-43f2-8a46-0d781f9a43d5","system_id":"levelo_inurba_marseille","lat":43.29194,"lon":5.35818,"is_reserved":false,"is_disabled":false,"rental_uris":{"android":"levelo://app?vid=b512f278-f0c1-43f2-8a46-0d781f9a43d5","ios":"levelo://app?vid=b512f278-f0c1-43f2-8a46-0d781f9a43d5"},"vehicle_type_id":"4","last_reported":1737807307,"current_range_meters":38800,"station_id":"ce4bhb12rcd13ifvqel0","pricing_plan_id":"cebpf4jnsgd1na2vs0mg"},{"bike_id":"c6eb5c4c-ffb8-4227-b060-4e2a28985b77","system_id":"levelo_inurba_marseille","lat":43.23184,"lon":5.40001,"is_reserved":false,"is_disabled":false,"rental_uris":{"android":"levelo://app?vid=c6eb5c4c-ffb8-4227-b060-4e2a28985b77","ios":"levelo://app?vid=c6eb5c4c-ffb8-4227-b060-4e2a28985b77"},"vehicle_type_id":"4","last_reported":1737807307,"current_range_meters":6400,"station_id":"ce4bhn12rcd13ifvqgqg","pricing_plan_id":"cebpf4jnsgd1na2vs0mg"},{"bike_id":"f80d01d0-a712-409a-8ab3-b8a044fec525","system_id":"levelo_inurba_marseille","lat":43.25865,"lon":5.39942,"is_reserved":false,"is_disabled":true,"rental_uris":{"android":"levelo://app?vid=f80d01d0-a712-409a-8ab3-b8a044fec525","ios":"levelo://app?vid=f80d01d0-a712-409a-8ab3-b8a044fec525"},"vehicle_type_id":"4","last_reported":1737807307,"current_range_meters":38400,"station_id":"ce4bhl92rcd13ifvqghg","pricing_plan_id":"cebpf4jnsgd1na2vs0mg"},{"bike_id":"375c54aa-d8c3-44cb-9610-967b44886ba6","system_id":"levelo_inurba_marseille","lat":43.33593,"lon":5.40959,"is_reserved":false,"is_disabled":false,"rental_uris":{"android":"levelo://app?vid=375c54aa-d8c3-44cb-9610-967b44886ba6","ios":"levelo://app?vid=375c54aa-d8c3-44cb-9610-967b44886ba6"},"vehicle_type_id":"4","last_reported":1737807307,"current_range_meters":39200,"station_id":"ce4bhqh2rcd13ifvqhmg","pricing_plan_id":"cebpf4jnsgd1na2vs0mg"},{"bike_id":"dc3cc8b3-b152-4cb6-8fc4-d6cd73f4fb97","system_id":"levelo_inurba_marseille","lat":43.29284,"lon":5.36853,"is_reserved":false,"is_disabled":false,"rental_uris":{"android":"levelo://app?vid=dc3cc8b3-b152-4cb6-8fc4-d6cd73f4fb97","ios":"levelo://app?vid=dc3cc8b3-b152-4cb6-8fc4-d6cd73f4fb97"},"vehicle_type_id":"4","last_reported":1737807307,"current_range_meters":29600,"station_id":"ce4bhbp2rcd13ifvqesg","pricing_plan_id":"cebpf4jnsgd1na2vs0mg"},{"bike_id":"64b05942-9108-496e-8e85-b5cf311ce848","system_id":"levelo_inurba_marseille","lat":43.26215,"lon":5.3744,"is_reserved":false,"is_disabled":false,"rental_uris":{"android":"levelo://app?vid=64b05942-9108-496e-8e85-b5cf311ce848","ios":"levelo://app?vid=64b05942-9108-496e-8e85-b5cf311ce848"},"vehicle_type_id":"4","last_reported":1737807307,"current_range_meters":25200,"station_id":"ce4bhgp2rcd13ifvqfc0","pricing_plan_id":"cebpf4jnsgd1na2vs0mg"},{"bike_id":"1c60614b-b37a-4609-bb32-5fe323bbf848","system_id":"levelo_inurba_marseille","lat":43.3089,"lon":5.37194,"is_reserved":false,"is_disabled":false,"rental_uris":{"android":"levelo://app?vid=1c60614b-b37a-4609-bb32-5fe323bbf848","ios":"levelo://app?vid=1c60614b-b37a-4609-bb32-5fe323bbf848"},"vehicle_type_id":"4","last_reported":1737807307,"current_range_meters":28800,"station_id":"ce4bguh2rcd13ifvqckg","pricing_plan_id":"cebpf4jnsgd1na2vs0mg"},{"bike_id":"0da05c91-b4db-4424-93fa-80e05b294f90","system_id":"levelo_inurba_marseille","lat":43.33004,"lon":5.39066,"is_reserved":false,"is_disabled":false,"rental_uris":{"android":"levelo://app?vid=0da05c91-b4db-4424-93fa-80e05b294f90","ios":"levelo://app?vid=0da05c91-b4db-4424-93fa-80e05b294f90"},"vehicle_type_id":"4","last_reported":1737807307,"current_range_meters":38000,"station_id":"ce4bhr92rcd13ifvqhrg","pricing_plan_id":"cebpf4jnsgd1na2vs0mg"},{"bike_id":"54d018ef-ee3b-4563-a77f-d29dda67ae2d","system_id":"levelo_inurba_marseille","lat":43.28983,"lon":5.37844,"is_reserved":false,"is_disabled":false,"rental_uris":{"android":"levelo://app?vid=54d018ef-ee3b-4563-a77f-d29dda67ae2d","ios":"levelo://app?vid=54d018ef-ee3b-4563-a77f-d29dda67ae2d"},"vehicle_type_id":"4","last_reported":1737807307,"current_range_meters":30800,"station_id":"ce4bh9p2rcd13ifvqed0","pricing_plan_id":"cebpf4jnsgd1na2vs0mg"},{"bike_id":"aaa4ac11-aea4-4483-bae2-eeb7f46ebbee","system_id":"levelo_inurba_marseille","lat":43.31877,"lon":5.40727,"is_reserved":false,"is_disabled":false,"rental_uris":{"android":"levelo://app?vid=aaa4ac11-aea4-4483-bae2-eeb7f46ebbee","ios":"levelo://app?vid=aaa4ac11-aea4-4483-bae2-eeb7f46ebbee"},"vehicle_type_id":"4","last_reported":1737807307,"current_range_meters":38800,"station_id":"ce4bhq12rcd13ifvqhig","pricing_plan_id":"cebpf4jnsgd1na2vs0mg"},{"bike_id":"860a93cd-54b1-4116-83df-1be46931bc52","system_id":"levelo_inurba_marseille","lat":43.29579,"lon":5.36738,"is_reserved":false,"is_disabled":false,"rental_uris":{"android":"levelo://app?vid=860a93cd-54b1-4116-83df-1be46931bc52","ios":"levelo://app?vid=860a93cd-54b1-4116-83df-1be46931bc52"},"vehicle_type_id":"4","last_reported":1737807307,"current_range_meters":32400,"station_id":"ce4bgph2rcd13ifvqc2g","pricing_plan_id":"cebpf4jnsgd1na2vs0mg"},{"bike_id":"f9d1568c-97ef-44c7-b3b2-fce509d6d87a","system_id":"levelo_inurba_marseille","lat":43.28409,"lon":5.37517,"is_reserved":false,"is_disabled":true,"rental_uris":{"android":"levelo://app?vid=f9d1568c-97ef-44c7-b3b2-fce509d6d87a","ios":"levelo://app?vid=f9d1568c-97ef-44c7-b3b2-fce509d6d87a"},"vehicle_type_id":"4","last_reported":1737807307,"current_range_meters":11200,"station_id":"ce4bh412rcd13ifvqds0","pricing_plan_id":"cebpf4jnsgd1na2vs0mg"},{"bike_id":"05abb292-7f1f-4267-be4e-4c490e975e94","system_id":"levelo_inurba_marseille","lat":43.29892,"lon":5.38933,"is_reserved":false,"is_disabled":false,"rental_uris":{"android":"levelo://app?vid=05abb292-7f1f-4267-be4e-4c490e975e94","ios":"levelo://app?vid=05abb292-7f1f-4267-be4e-4c490e975e94"},"vehicle_type_id":"4","last_reported":1737807307,"current_range_meters":34800,"station_id":"ce4bh392rcd13ifvqdl0","pricing_plan_id":"cebpf4jnsgd1na2vs0mg"},{"bike_id":"5fcf16b4-2c4c-41c2-bbb3-fed2ab799fe9","system_id":"levelo_inurba_marseille","lat":43.28698,"lon":5.37394,"is_reserved":false,"is_disabled":false,"rental_uris":{"android":"levelo://app?vid=5fcf16b4-2c4c-41c2-bbb3-fed2ab799fe9","ios":"levelo://app?vid=5fcf16b4-2c4c-41c2-bbb3-fed2ab799fe9"},"vehicle_type_id":"4","last_reported":1737807307,"current_range_meters":14800,"station_id":"ce4bh3p2rcd13ifvqdq0","pricing_plan_id":"cebpf4jnsgd1na2vs0mg"},