{"last_updated":1742368187,"ttl":60,"version":"2.2","data":{"bikes":[{"bike_id":"0ff42c09-fa58-44ed-81fc-3d4433b4e646","system_id":"levelo_inurba_marseille","lat":43.29795,"lon":5.38136,"is_reserved":false,"is_disabled":false,"rental_uris":{"android":"levelo://app?vid=0ff42c09-fa58-44ed-81fc-3d4433b4e646","ios":"levelo://app?vid=0ff42c09-fa58-44ed-81fc-3d4433b4e646"},"vehicle_type_id":"4","last_reported":1742368187,"current_range_meters":2800,"station_id":"ce4bgip2rcd13ifvqbb0","pricing_plan_id":"cebpf4jnsgd1na2vs0mg"},{"bike_id":"637995e0-cc0c-4d95-8d5f-d31b4a662aff","system_id":"levelo_inurba_marseille","lat":43.25003,"lon":5.38929,"is_reserved":false,"is_disabled":false,"rental_uris":{"android":"levelo://app?vid=637995e0-cc0c-4d95-8d5f-d31b4a662aff","ios":"levelo://app?vid=637995e0-cc0c-4d95-8d5f-d31b4a662aff"},"vehicle_type_id":"4","last_reported":1742368187,"current_range_meters":2800,"station_id":"ce4bhgp2rcd13ifvqfd0","pricing_plan_id":"cebpf4jnsgd1na2vs0mg"},{"bike_id":"b157661b-022b-4aa0-b21e-49789ef76c80","system_id":"levelo_inurba_marseille","lat":43.26157,"lon":5.39767,"is_reserved":false,"is_disabled":false,"rental_uris":{"android":"levelo://app?vid=b157661b-022b-4aa0-b21e-49789ef76c80","ios":"levelo://app?vid=b157661b-022b-4aa0-b21e-49789ef76c80"},"vehicle_type_id":"4","last_reported":1742368187,"current_range_meters":2800,"station_id":"","pricing_plan_id":"cebpf4jnsgd1na2vs0mg"},{"bike_id":"916d4bfa-8c3d-4ab2-9d90-24ecce2674a8","system_id":"levelo_inurba_marseille","lat":43.25004,"lon":5.38928,"is_reserved":false,"is_disabled":false,"rental_uris":{"android":"levelo://app?vid=916d4bfa-8c3d-4ab2-9d90-24ecce2674a8","ios":"levelo://app?vid=916d4bfa-8c3d-4ab2-9d90-24ecce2674a8"},"vehicle_type_id":"4","last_reported":1742368187,"current_range_meters":2800,"station_id":"ce4bhgp2rcd13ifvqfd0","pricing_plan_id":"cebpf4jnsgd1na2vs0mg"},{"bike_id":"55c83ebf-913d-48a1-abee-3e29e6909fd2","system_id":"levelo_inurba_marseille","lat":43.27996,"lon":5.41675,"is_reserved":false,"is_disabled":true,"rental_uris":{"android":"levelo://app?vid=55c83ebf-913d-48a1-abee-3e29e6909fd2","ios":"levelo://app?vid=55c83ebf-913d-48a1-abee-3e29e6909fd2"},"vehicle_type_id":"4","last_reported":1742368187,"current_range_meters":2800,"station_id":"ce4bho12rcd13ifvqh1g","pricing_plan_id":"cebpf4jnsgd1na2vs0mg"},{"bike_id":"732cefd3-2704-4061-a156-77fccaa9b7b9","system_id":"levelo_inurba_marseille","lat":43.27561,"lon":5.38411,"is_reserved":false,"is_disabled":false,"rental_uris":{"android":"levelo://app?vid=732cefd3-2704-4061-a156-77fccaa9b7b9","ios":"levelo://app?vid=732cefd3-2704-4061-a156-77fccaa9b7b9"},"vehicle_type_id":"4","last_reported":1742368187,"current_range_meters":3200,"station_id":"ce4bhh92rcd13ifvqfi0","pricing_plan_id":"cebpf4jnsgd1na2vs0mg"},{"bike_id":"3db91aa6-845b-4ce3-9a81-55687c0461bc","system_id":"levelo_inurba_marseille","lat":43.250068,"lon":5.389291,"is_reserved":false,"is_disabled":false,"rental_uris":{"android":"levelo://app?vid=3db91aa6-845b-4ce3-9a81-55687c0461bc","ios":"levelo://app?vid=3db91aa6-845b-4ce3-9a81-55687c0461bc"},"vehicle_type_id":"4","last_reported":1742368187,"current_range_meters":3200,"station_id":"ce4bhgp2rcd13ifvqfd0","pricing_plan_id":"cebpf4jnsgd1na2vs0mg"},{"bike_id":"5049bad3-1ce8-459d-9412-2217bc06de80","system_id":"levelo_inurba_marseille","lat":43.281637,"lon":5.424612,"is_reserved":false,"is_disabled":false,"rental_uris":{"android":"levelo://app?vid=5049bad3-1ce8-459d-9412-2217bc06de80","ios":"levelo://app?vid=5049bad3-1ce8-459d-9412-2217bc06de80"},"vehicle_type_id":"4","last_reported":1742368187,"current_range_meters":3200,"station_id":"ce4bhnh2rcd13ifvqgug","pricing_plan_id":"cebpf4jnsgd1na2vs0mg"},{"bike_id":"d9b01bb4-efad-436a-91a6-5bd86ba0f8fc","system_id":"levelo_inurba_marseille","lat":43.30427,"lon":5.38895,"is_reserved":false,"is_disabled":false,"rental_uris":{"android":"levelo://app?vid=d9b01bb4-efad-436a-91a6-5bd86ba0f8fc","ios":"levelo://app?vid=d9b01bb4-efad-436a-91a6-5bd86ba0f8fc"},"vehicle_type_id":"4","last_reported":1742368187,"current_range_meters":3200,"station_id":"ce4bgk12rcd13ifvqbi0","pricing_plan_id":"cebpf4jnsgd1na2vs0mg"},{"bike_id":"32ff9102-69e4-44a3-b772-0c802bd82ebf","system_id":"levelo_inurba_marseille","lat":43.28104,"lon":5.37829,"is_reserved":false,"is_disabled":false,"rental_uris":{"android":"levelo://app?vid=32ff9102-69e4-44a3-b772-0c802bd82ebf","ios":"levelo://app?vid=32ff9102-69e4-44a3-b772-0c802bd82ebf"},"vehicle_type_id":"4","last_reported":1742368187,"current_range_meters":3200,"station_id":"ce4bha12rcd13ifvqee0","pricing_plan_id":"cebpf4jnsgd1na2vs0mg"},{"bike_id":"39a080ac-2661-4788-b365-3acbabf5cf6b","system_id":"levelo_inurba_marseille","lat":43.2894,"lon":5.36637,"is_reserved":false,"is_disabled":false,"rental_uris":{"android":"levelo://app?vid=39a080ac-2661-4788-b365-3acbabf5cf6b","ios":"levelo://app?vid=39a080ac-2661-4788-b365-3acbabf5cf6b"},"vehicle_type_id":"4","last_reported":1742368187,"current_range_meters":3600,"station_id":"ce4bhap2rcd13ifvqek0","pricing_plan_id":"cebpf4jnsgd1na2vs0mg"},{"bike_id":"6d8e8090-a4c7-4966-a3f4-a833922b9e5a","system_id":"levelo_inurba_marseille","lat":43.23189,"lon":5.35572,"is_reserved":false,"is_disabled":false,"rental_uris":{"android":"levelo://app?vid=6d8e8090-a4c7-4966-a3f4-a833922b9e5a","ios":"levelo://app?vid=6d8e8090-a4c7-4966-a3f4-a833922b9e5a"},"vehicle_type_id":"4","last_reported":1742368187,"current_range_meters":3600,"station_id":"ce4bhu92rcd13ifvqi70","pricing_plan_id":"cebpf4jnsgd1na2vs0mg"},{"bike_id":"2665cc4b-07ed-4ae6-a66f-2b09983c709d","system_id":"levelo_inurba_marseille","lat":43.33761,"lon":5.37489,"is_reserved":false,"is_disabled":false,"rental_uris":{"android":"levelo://app?vid=2665cc4b-07ed-4ae6-a66f-2b09983c709d","ios":"levelo://app?vid=2665cc4b-07ed-4ae6-a66f-2b09983c709d"},"vehicle_type_id":"4","last_reported":1742368187,"current_range_meters":3600,"station_id":"","pricing_plan_id":"cebpf4jnsgd1na2vs0mg"},{"bike_id":"0d3accb9-853e-4df0-b9d8-4607b8048f46","system_id":"levelo_inurba_marseille","lat":43.241663,"lon":5.363946,"is_reserved":false,"is_disabled":false,"rental_uris":{"android":"levelo://app?vid=0d3accb9-853e-4df0-b9d8-4607b8048f46","ios":"levelo://app?vid=0d3accb9-853e-4df0-b9d8-4607b8048f46"},"vehicle_type_id":"4","last_reported":1742368187,"current_range_meters":3600,"station_id":"cpo36qri1sfpv3e86is0","pricing_plan_id":"cebpf4jnsgd1na2vs0mg"},{"bike_id":"03fa3fa4-ba5a-4ea6-a2f5-2774c7ef9edb","system_id":"levelo_inurba_marseille","lat":43.29166,"lon":5.37149,"is_reserved":false,"is_disabled":true,"rental_uris":{"android":"levelo://app?vid=03fa3fa4-ba5a-4ea6-a2f5-2774c7ef9edb","ios":"levelo://app?vid=03fa3fa4-ba5a-4ea6-a2f5-2774c7ef9edb"},"vehicle_type_id":"4","last_reported":1742368187,"current_range_meters":3600,"station_id":"ce4bha92rcd13ifvqeh0","pricing_plan_id":"cebpf4jnsgd1na2vs0mg"},{"bike_id":"bf53558a-323c-40e3-9c37-ac64ba388e1c","system_id":"levelo_inurba_marseille","lat":43.239585,"lon":5.366311,"is_reserved":false,"is_disabled":false,"rental_uris":{"android":"levelo://app?vid=bf53558a-323c-40e3-9c37-ac64ba388e1c","ios":"levelo://app?vid=bf53558a-323c-40e3-9c37-ac64ba388e1c"},"vehicle_type_id":"4","last_reported":1742368187,"current_range_meters":3600,"station_id":"ce4bhi12rcd13ifvqfp0","pricing_plan_id":"cebpf4jnsgd1na2vs0mg"},{"bike_id":"f2688207-1ac0-49bd-ae09-1d51a216de0a","system_id":"levelo_inurba_marseille","lat":43.24647,"lon":5.38896,"is_reserved":false,"is_disabled":false,"rental_uris":{"android":"levelo://app?vid=f2688207-1ac0-49bd-ae09-1d51a216de0a","ios":"levelo://app?vid=f2688207-1ac0-49bd-ae09-1d51a216de0a"},"vehicle_type_id":"4","last_reported":1742368187,"current_range_meters":3600,"station_id":"ce4bhg12rcd13ifvqf60","pricing_plan_id":"cebpf4jnsgd1na2vs0mg"},{"bike_id":"6227a0ff-d0ca-42a3-9618-9e5a19927c8d","system_id":"levelo_inurba_marseille","lat":43.279524,"lon":5.410474,"is_reserved":false,"is_disabled":false,"rental_uris":{"android":"levelo://app?vid=6227a0ff-d0ca-42a3-9618-9e5a19927c8d","ios":"levelo://app?vid=6227a0ff-d0ca-42a3-9618-9e5a19927c8d"},"vehicle_type_id":"4","last_reported":1742368187,"current_range_meters":3600,"station_id":"ce4bhnp2rcd13ifvqh0g","pricing_plan_id":"cebpf4jnsgd1na2vs0mg"},{"bike_id":"35695dd4-791c-4486-b261-10bd7a9e52e9","system_id":"levelo_inurba_marseille","lat":43.26126,"lon":5.40558,"is_reserved":false,"is_disabled":true,"rental_uris":{"android":"levelo://app?vid=35695dd4-791c-4486-b261-10bd7a9e52e9","ios":"levelo://app?vid=35695dd4-791c-4486-b261-10bd7a9e52e9"},"vehicle_type_id":"4","last_reported":1742368187,"current_range_meters":4000,"station_id":"","pricing_plan_id":"cebpf4jnsgd1na2vs0mg"},{"bike_id":"d2b138d3-b83e-4865-a4e9-9e6d2da17a2d","system_id":"levelo_inurba_marseille","lat":43.28982,"lon":5.37835,"is_reserved":false,"is_disabled":false,"rental_uris":{"android":"levelo://app?vid=d2b138d3-b83e-4865-a4e9-9e6d2da17a2d","ios":"levelo://app?vid=d2b138d3-b83e-4865-a4e9-9e6d2da17a2d"},"vehicle_type_id":"4","last_reported":1742368187,"current_range_meters":3600,"station_id":"ce4bh9p2rcd13ifvqed0","pricing_plan_id":"cebpf4jnsgd1na2vs0mg"},{"bike_id":"76fa3238-8dcf-4eeb-9cef-951f36a912f7","system_id":"levelo_inurba_marseille","lat":43.30929,"lon":5.40175,"is_reserved":false,"is_disabled":false,"rental_uris":{"android":"levelo://app?vid=76fa3238-8dcf-4eeb-9cef-951f36a912f7","ios":"levelo://app?vid=76fa3238-8dcf-4eeb-9cef-951f36a912f7"},"vehicle_type_id":"4","last_reported":1742368187,"current_range_meters":4000,"station_id":"ce4bgvp2rcd13ifvqct0","pricing_plan_id":"cebpf4jnsgd1na2vs0mg"},{"bike_id":"3d91cdf8-e514-4e18-a4f3-5cf2478d66e0","system_id":"levelo_inurba_marseille","lat":43.28325,"lon":5.381347,"is_reserved":false,"is_disabled":false,"rental_uris":{"android":"levelo://app?vid=3d91cdf8-e514-4e18-a4f3-5cf2478d66e0","ios":"levelo://app?vid=3d91cdf8-e514-4e18-a4f3-5cf2478d66e0"},"vehicle_type_id":"4","last_reported":1742368187,"current_range_meters":4000,"station_id":"ce4bh412rcd13ifvqdr0","pricing_plan_id":"cebpf4jnsgd1na2vs0mg"},{"bike_id":"8fe7e33b-57fc-439c-ba02-015988635c80","system_id":"levelo_inurba_marseille","lat":43.27072,"lon":5.42279,"is_reserved":false,"is_disabled":true,"rental_uris":{"android":"levelo://app?vid=8fe7e33b-57fc-439c-ba02-015988635c80","ios":"levelo://app?vid=8fe7e33b-57fc-439c-ba02-015988635c80"},"vehicle_type_id":"4","last_reported":1742368187,"current_range_meters":4000,"station_id":"ce4bhk92rcd13ifvqgb0","pricing_plan_id":"cebpf4jnsgd1na2vs0mg"},{"bike_id":"f5c97f8a-2624-4b99-bdf9-59f10ff7cfce","system_id":"levelo_inurba_marseille","lat":43.27605,"lon":5.36141,"is_reserved":false,"is_disabled":false,"rental_uris":{"android":"levelo://app?vid=f5c97f8a-2624-4b99-bdf9-59f10ff7cfce","ios":"levelo://app?vid=f5c97f8a-2624-4b99-bdf9-59f10ff7cfce"},"vehicle_type_id":"4","last_reported":1742368187,"current_range_meters":4400,"station_id":"ce4bgj92rcd13ifvqbe0","pricing_plan_id":"cebpf4jnsgd1na2vs0mg"},{"bike_id":"b23ec4a4-8b22-4cee-b1a4-d5ff68cc7e4f","system_id":"levelo_inurba_marseille","lat":43.30309,"lon":5.36884,"is_reserved":false,"is_disabled":false,"rental_uris":{"android":"levelo://app?vid=b23ec4a4-8b22-4cee-b1a4-d5ff68cc7e4f","ios":"levelo://app?vid=b23ec4a4-8b22-4cee-b1a4-d5ff68cc7e4f"},"vehicle_type_id":"4","last_reported":1742368187,"current_range_meters":4800,"station_id":"ce4bgqh2rcd13ifvqc5g","pricing_plan_id":"cebpf4jnsgd1na2vs0mg"},{"bike_id":"00ed3cbb-10e0-480e-9475-0a52fd8c21a9","system_id":"levelo_inurba_marseille","lat":43.26951,"lon":5.38637,"is_reserved":false,"is_disabled":false,"rental_uris":{"android":"levelo://app?vid=00ed3cbb-10e0-480e-9475-0a52fd8c21a9","ios":"levelo://app?vid=00ed3cbb-10e0-480e-9475-0a52fd8c21a9"},"vehicle_type_id":"4","last_reported":1742368187,"current_range_meters":4800,"station_id":"ce4bhh92rcd13ifvqfh0","pricing_plan_id":"cebpf4jnsgd1na2vs0mg"},{"bike_id":"97a1e633-c2b3-487e-8569-9036bf18d175","system_id":"levelo_inurba_marseille","lat":43.24167,"lon":5.36402,"is_reserved":false,"is_disabled":false,"rental_uris":{"android":"levelo://app?vid=97a1e633-c2b3-487e-8569-9036bf18d175","ios":"levelo://app?vid=97a1e633-c2b3-487e-8569-9036bf18d175"},"vehicle_type_id":"4","last_reported":1742368187,"current_range_meters":4800,"station_id":"cpo36qri1sfpv3e86is0","pricing_plan_id":"cebpf4jnsgd1na2vs0mg"},{"bike_id":"df227953-74ac-4151-8017-3b7a1e24e192","system_id":"levelo_inurba_marseille","lat":43.23973,"lon":5.36602,"is_reserved":false,"is_disabled":false,"rental_uris":{"android":"levelo://app?vid=df227953-74ac-4151-8017-3b7a1e24e192","ios":"levelo://app?vid=df227953-74ac-4151-8017-3b7a1e24e192"},"vehicle_type_id":"4","last_reported":1742368187,"current_range_meters":4800,"station_id":"ce4bhi12rcd13ifvqfp0","pricing_plan_id":"cebpf4jnsgd1na2vs0mg"},{"bike_id":"a3ea1aa5-5308-41a5-bb80-121dbfe7c811","system_id":"levelo_inurba_marseille","lat":43.28719,"lon":5.39994,"is_reserved":false,"is_disabled":true,"rental_uris":{"android":"levelo://app?vid=a3ea1aa5-5308-41a5-bb80-121dbfe7c811","ios":"levelo://app?vid=a3ea1aa5-5308-41a5-bb80-121dbfe7c811"},"vehicle_type_id":"4","last_reported":1742368187,"current_range_meters":4800,"station_id":"ce4bho92rcd13ifvqh3g","pricing_plan_id":"cebpf4jnsgd1na2vs0mg"},{"bike_id":"5e2fca71-0f3f-4aa4-affd-fff1472c16b4","system_id":"levelo_inurba_marseille","lat":43.24174,"lon":5.39726,"is_reserved":false,"is_disabled":false,"rental_uris":{"android":"levelo://app?vid=5e2fca71-0f3f-4aa4-affd-fff1472c16b4","ios":"levelo://app?vid=5e2fca71-0f3f-4aa4-affd-fff1472c16b4"},"vehicle_type_id":"4","last_reported":1742368187,"current_range_meters":4800,"station_id":"ce4bhn12rcd13ifvqgpg","pricing_plan_id":"cebpf4jnsgd1na2vs0mg"},{"bike_id":"613d47dd-19fe-4699-9531-1fd6c3a43c75","system_id":"levelo_inurba_marseille","lat":43.23961,"lon":5.36631,"is_reserved":false,"is_disabled":false,"rental_uris":{"android":"levelo://app?vid=613d47dd-19fe-4699-9531-1fd6c3a43c75","ios":"levelo://app?vid=613d47dd-19fe-4699-9531-1fd6c3a43c75"},"vehicle_type_id":"4","last_reported":1742368187,"current_range_meters":5600,"station_id":"ce4bhi12rcd13ifvqfp0","pricing_plan_id":"cebpf4jnsgd1na2vs0mg"},{"bike_id":"03d98425-8b28-46f5-a32a-80c99df04621","system_id":"levelo_inurba_marseille","lat":43.26566,"lon":5.39028,"is_reserved":false,"is_disabled":false,"rental_uris":{"android":"levelo://app?vid=03d98425-8b28-46f5-a32a-80c99df04621","ios":"levelo://app?vid=03d98425-8b28-46f5-a32a-80c99df04621"},"vehicle_type_id":"4","last_reported":1742368187,"current_range_meters":5600,"station_id":"ce4bhe12rcd13ifvqf30","pricing_plan_id":"cebpf4jnsgd1na2vs0mg"},{"bike_id":"8a4e1b2e-8fac-480b-a668-ef6a620a9814","system_id":"levelo_inurba_marseille","lat":43.27828,"lon":5.42421,"is_reserved":false,"is_disabled":false,"rental_uris":{"android":"levelo://app?vid=8a4e1b2e-8fac-480b-a668-ef6a620a9814","ios":"levelo://app?vid=8a4e1b2e-8fac-480b-a668-ef6a620a9814"},"vehicle_type_id":"4","last_reported":1742368187,"current_range_meters":5600,"station_id":"","pricing_plan_id":"cebpf4jnsgd1na2vs0mg"},{"bike_id":"929cf2c7-60f7-4352-ac9c-fb3b1e70202d","system_id":"levelo_inurba_marseille","lat":43.306,"lon":5.39365,"is_reserved":false,"is_disabled":false,"rental_uris":{"android":"levelo://app?vid=929cf2c7-60f7-4352-ac9c-fb3b1e70202d","ios":"levelo://app?vid=929cf2c7-60f7-4352-ac9c-fb3b1e70202d"},"vehicle_type_id":"4","last_reported":1742368187,"current_range_meters":5600,"station_id":"ce4bh0p2rcd13ifvqd80","pricing_plan_id":"cebpf4jnsgd1na2vs0mg"},{"bike_id":"94036602-2816-4b9b-b9fa-5934a4cff116","system_id":"levelo_inurba_marseille","lat":43.30797,"lon":5.40072,"is_reserved":false,"is_disabled":false,"rental_uris":{"android":"levelo://app?vid=94036602-2816-4b9b-b9fa-5934a4cff116","ios":"levelo://app?vid=94036602-2816-4b9b-b9fa-5934a4cff116"},"vehicle_type_id":"4","last_reported":1742368187,"current_range_meters":6000,"station_id":"ce4bh192rcd13ifvqdb0","pricing_plan_id":"cebpf4jnsgd1na2vs0mg"},{"bike_id":"1fc3d62d-4997-4ac3-a923-df4af1ed6f2c","system_id":"levelo_inurba_marseille","lat":43.3047,"lon":5.379,"is_reserved":false,"is_disabled":false,"rental_uris":{"android":"levelo://app?vid=1fc3d62d-4997-4ac3-a923-df4af1ed6f2c","ios":"levelo://app?vid=1fc3d62d-4997-4ac3-a923-df4af1ed6f2c"},"vehicle_type_id":"4","last_reported":1742368187,"current_range_meters":6000,"station_id":"ce4bgup2rcd13ifvqcn0","pricing_plan_id":"cebpf4jnsgd1na2vs0mg"},{"bike_id":"b1d9f1af-d8f9-4b97-a270-4bf890a49af9","system_id":"levelo_inurba_marseille","lat":43.28434,"lon":5.37531,"is_reserved":false,"is_disabled":false,"rental_uris":{"android":"levelo://app?vid=b1d9f1af-d8f9-4b97-a270-4bf890a49af9","ios":"levelo://app?vid=b1d9f1af-d8f9-4b97-a270-4bf890a49af9"},"vehicle_type_id":"4","last_reported":1742368187,"current_range_meters":6000,"station_id":"ce4bh412rcd13ifvqds0","pricing_plan_id":"cebpf4jnsgd1na2vs0mg"},{"bike_id":"900606e9-1414-408c-b609-f4c9952f2d0c","system_id":"levelo_inurba_marseille","lat":43.31095,"lon":5.37806,"is_reserved":false,"is_disabled":true,"rental_uris":{"android":"levelo://app?vid=900606e9-1414-408c-b609-f4c9952f2d0c","ios":"levelo://app?vid=900606e9-1414-408c-b609-f4c9952f2d0c"},"vehicle_type_id":"4","last_reported":1742368187,"current_range_meters":6000,"station_id":"ce4bgt92rcd13ifvqcg0","pricing_plan_id":"cebpf4jnsgd1na2vs0mg"},{"bike_id":"284246fb-e8a0-47be-af3d-27a97f0de6bc","system_id":"levelo_inurba_marseille","lat":43.24074,"lon":5.37762,"is_reserved":false,"is_disabled":false,"rental_uris":{"android":"levelo://app?vid=284246fb-e8a0-47be-af3d-27a97f0de6bc","ios":"levelo://app?vid=284246fb-e8a0-47be-af3d-27a97f0de6bc"},"vehicle_type_id":"4","last_reported":1742368187,"current_range_meters":6400,"station_id":"ce4bhnp2rcd13ifvqgvg","pricing_plan_id":"cebpf4jnsgd1na2vs0mg"},{"bike_id":"99333c07-7df7-4d5a-86b2-6667c539b923","system_id":"levelo_inurba_marseille","lat":43.23153,"lon":5.43709,"is_reserved":false,"is_disabled":false,"rental_uris":{"android":"levelo://app?vid=99333c07-7df7-4d5a-86b2-6667c539b923","ios":"levelo://app?vid=99333c07-7df7-4d5a-86b2-6667c539b923"},"vehicle_type_id":"4","last_reported":1742368187,"current_range_meters":6400,"station_id":"ce4bhmp2rcd13ifvqgog","pricing_plan_id":"cebpf4jnsgd1na2vs0mg"},{"bike_id":"52bd4f14-775f-459f-9791-851d088e69cb","system_id":"levelo_inurba_marseille","lat":43.250021,"lon":5.38933,"is_reserved":false,"is_disabled":false,"rental_uris":{"android":"levelo://app?vid=52bd4f14-775f-459f-9791-851d088e69cb","ios":"levelo://app?vid=52bd4f14-775f-459f-9791-851d088e69cb"},"vehicle_type_id":"4","last_reported":1742368187,"current_range_meters":6400,"station_id":"ce4bhgp2rcd13ifvqfd0","pricing_plan_id":"cebpf4jnsgd1na2vs0mg"},{"bike_id":"4f6d11f4-8d23-4e35-8c59-e818e64ce7ab","system_id":"levelo_inurba_marseille","lat":43.29528,"lon":5.43899,"is_reserved":false,"is_disabled":false,"rental_uris":{"android":"levelo://app?vid=4f6d11f4-8d23-4e35-8c59-e818e64ce7ab","ios":"levelo://app?vid=4f6d11f4-8d23-4e35-8c59-e818e64ce7ab"},"vehicle_type_id":"4","last_reported":1742368187,"current_range_meters":6400,"station_id":"","pricing_plan_id":"cebpf4jnsgd1na2vs0mg"},{"bike_id":"831ed4b1-c17f-4bed-a9ab-7178af18fab5","system_id":"levelo_inurba_marseille","lat":43.3025,"lon":5.40065,"is_reserved":false,"is_disabled":false,"rental_uris":{"android":"levelo://app?vid=831ed4b1-c17f-4bed-a9ab-7178af18fab5","ios":"levelo://app?vid=831ed4b1-c17f-4bed-a9ab-7178af18fab5"},"vehicle_type_id":"4","last_reported":1742368187,"current_range_meters":6400,"station_id":"ce4bgvh2rcd13ifvqcs0","pricing_plan_id":"cebpf4jnsgd1na2vs0mg"},{"bike_id":"4f838d7c-2e96-4ae2-aa9f-a2fcf69ec564","system_id":"levelo_inurba_marseille","lat":43.27812,"lon":5.40712,"is_reserved":false,"is_disabled":false,"rental_uris":{"android":"levelo://app?vid=4f838d7c-2e96-4ae2-aa9f-a2fcf69ec564","ios":"levelo://app?vid=4f838d7c-2e96-4ae2-aa9f-a2fcf69ec564"},"vehicle_type_id":"4","last_reported":1742368187,"current_range_meters":6400,"station_id":"ce4bhnh2rcd13ifvqgtg","pricing_plan_id":"cebpf4jnsgd1na2vs0mg"},{"bike_id":"2b1860cd-c7d7-4275-92ee-e31c02194138","system_id":"levelo_inurba_marseille","lat":43.26943,"lon":5.38642,"is_reserved":false,"is_disabled":false,"rental_uris":{"android":"levelo://app?vid=2b1860cd-c7d7-4275-92ee-e31c02194138","ios":"levelo://app?vid=2b1860cd-c7d7-4275-92ee-e31c02194138"},"vehicle_type_id":"4","last_reported":1742368187,"current_range_meters":6400,"station_id":"ce4bhh92rcd13ifvqfh0","pricing_plan_id":"cebpf4jnsgd1na2vs0mg"},{"bike_id":"9b180da6-cd66-4fe5-be40-5cda13af1440","system_id":"levelo_inurba_marseille","lat":43.28936,"lon":5.36407,"is_reserved":false,"is_disabled":false,"rental_uris":{"android":"levelo://app?vid=9b180da6-cd66-4fe5-be40-5cda13af1440","ios":"levelo://app?vid=9b180da6-cd66-4fe5-be40-5cda13af1440"},"vehicle_type_id":"4","last_reported":1742368187,"current_range_meters":6400,"station_id":"ce4bhc92rcd13ifvqetg","pricing_plan_id":"cebpf4jnsgd1na2vs0mg"},{"bike_id":"c8aebf71-8f92-4a15-a86e-14c7cfbd9a29","system_id":"levelo_inurba_marseille","lat":43.29649,"lon":5.38058,"is_reserved":false,"is_disabled":false,"rental_uris":{"android":"levelo://app?vid=c8aebf71-8f92-4a15-a86e-14c7cfbd9a29","ios":"levelo://app?vid=c8aebf71-8f92-4a15-a86e-14c7cfbd9a29"},"vehicle_type_id":"4","last_reported":1742368187,"current_range_meters":6400,"station_id":"","pricing_plan_id":"cebpf4jnsgd1na2vs0mg"},{"bike_id":"8f79f3b7-6513-4def-bb2d-05a7d82b97a5","system_id":"levelo_inurba_marseille","lat":43.24161,"lon":5.3641,"is_reserved":false,"is_disabled":false,"rental_uris":{"android":"levelo://app?vid=8f79f3b7-6513-4def-bb2d-05a7d82b97a5","ios":"levelo://app?vid=8f79f3b7-6513-4def-bb2d-05a7d82b97a5"},"vehicle_type_id":"4","last_reported":1742368187,"current_range_meters":6400,"station_id":"cpo36qri1sfpv3e86is0","pricing_plan_id":"cebpf4jnsgd1na2vs0mg"},{"bike_id":"6368f354-6da7-4884-a394-062f1a963ed6","system_id":"levelo_inurba_marseille","lat":43.2929,"lon":5.42779,"is_reserved":false,"is_disabled":false,"rental_uris":{"android":"levelo://app?vid=6368f354-6da7-4884-a394-062f1a963ed6","ios":"levelo://app?vid=6368f354-6da7-4884-a394-062f1a963ed6"},"vehicle_type_id":"4","last_reported":1742368187,"current_range_meters":6400,"station_id":"","pricing_plan_id":"cebpf4jnsgd1na2vs0mg"},{"bike_id":"7de40e3a-3443-4d8c-b2af-ab19dc2f7517","system_id":"levelo_inurba_marseille","lat":43.29582,"lon":5.37516,"is_reserved":false,"is_disabled":false,"rental_uris":{"android":"levelo://app?vid=7de40e3a-3443-4d8c-b2af-ab19dc2f7517","ios":"levelo://app?vid=7de40e3a-3443-4d8c-b2af-ab19dc2f7517"},"vehicle_type_id":"4","last_reported":1742368187,"current_range_meters":6400,"station_id":"ce4bgh92rcd13ifvqb50","pricing_plan_id":"cebpf4jnsgd1na2vs0mg"},{"bike_id":"0ba2b948-e176-4f5e-9069-2973ce19836e","system_id":"levelo_inurba_marseille","lat":43.29827,"lon":5.3805,"is_reserved":false,"is_disabled":false,"rental_uris":{"android":"levelo://app?vid=0ba2b948-e176-4f5e-9069-2973ce19836e","ios":"levelo://app?vid=0ba2b948-e176-4f5e-9069-2973ce19836e"},"vehicle_type_id":"4","last_reported":1742368187,"current_range_meters":6800,"station_id":"ce4bgip2rcd13ifvqbb0","pricing_plan_id":"cebpf4jnsgd1na2vs0mg"},{"bike_id":"e118aacc-23a6-42da-8cab-5e2f10593946","system_id":"levelo_inurba_marseille","lat":43.33595,"lon":5.41016,"is_reserved":false,"is_disabled":false,"rental_uris":{"android":"levelo://app?vid=e118aacc-23a6-42da-8cab-5e2f10593946","ios":"levelo://app?vid=e118aacc-23a6-42da-8cab-5e2f10593946"},"vehicle_type_id":"4","last_reported":1742368187,"current_range_meters":6800,"station_id":"ce4bhqh2rcd13ifvqhmg","pricing_plan_id":"cebpf4jnsgd1na2vs0mg"},{"bike_id":"dbb2b436-08e0-42f8-8e61-60f0d312b103","system_id":"levelo_inurba_marseille","lat":43.28958,"lon":5.36417,"is_reserved":false,"is_disabled":false,"rental_uris":{"android":"levelo://app?vid=dbb2b436-08e0-42f8-8e61-60f0d312b103","ios":"levelo://app?vid=dbb2b436-08e0-42f8-8e61-60f0d312b103"},"vehicle_type_id":"4","last_reported":1742368187,"current_range_meters":6800,"station_id":"ce4bhc92rcd13ifvqetg","pricing_plan_id":"cebpf4jnsgd1na2vs0mg"},{"bike_id":"d0ecd06f-b344-485c-8550-9fa5bf448f53","system_id":"levelo_inurba_marseille","lat":43.25828,"lon":5.39452,"is_reserved":false,"is_disabled":false,"rental_uris":{"android":"levelo://app?vid=d0ecd06f-b344-485c-8550-9fa5bf448f53","ios":"levelo://app?vid=d0ecd06f-b344-485c-8550-9fa5bf448f53"},"vehicle_type_id":"4","last_reported":1742368187,"current_range_meters":6800,"station_id":"ce4bhip2rcd13ifvqft0","pricing_plan_id":"cebpf4jnsgd1na2vs0mg"},{"bike_id":"5cc7107b-4638-44b7-9016-fb56a8137a82","system_id":"levelo_inurba_marseille","lat":43.3301,"lon":5.39061,"is_reserved":false,"is_disabled":false,"rental_uris":{"android":"levelo://app?vid=5cc7107b-4638-44b7-9016-fb56a8137a82","ios":"levelo://app?vid=5cc7107b-4638-44b7-9016-fb56a8137a82"},"vehicle_type_id":"4","last_reported":1742368187,"current_range_meters":6800,"station_id":"ce4bhr92rcd13ifvqhrg","pricing_plan_id":"cebpf4jnsgd1na2vs0mg"},{"bike_id":"1b7e8b6e-26c6-4662-b0c0-9d265ce6acf1","system_id":"levelo_inurba_marseille","lat":43.2409,"lon":5.37751,"is_reserved":false,"is_disabled":false,"rental_uris":{"android":"levelo://app?vid=1b7e8b6e-26c6-4662-b0c0-9d265ce6acf1","ios":"levelo://app?vid=1b7e8b6e-26c6-4662-b0c0-9d265ce6acf1"},"vehicle_type_id":"4","last_reported":1742368187,"current_range_meters":6800,"station_id":"ce4bhnp2rcd13ifvqgvg","pricing_plan_id":"cebpf4jnsgd1na2vs0mg"},{"bike_id":"8528cfd6-758c-4197-aaac-800294acfea6","system_id":"levelo_inurba_marseille","lat":43.2585,"lon":5.39934,"is_reserved":false,"is_disabled":false,"rental_uris":{"android":"levelo://app?vid=8528cfd6-758c-4197-aaac-800294acfea6","ios":"levelo://app?vid=8528cfd6-758c-4197-aaac-800294acfea6"},"vehicle_type_id":"4","last_reported":1742368187,"current_range_meters":6800,"station_id":"ce4bhl92rcd13ifvqghg","pricing_plan_id":"cebpf4jnsgd1na2vs0mg"},{"bike_id":"8bfc242c-df93-4661-bdab-462c9f15b0d7","system_id":"levelo_inurba_marseille","lat":43.31172,"lon":5.38709,"is_reserved":false,"is_disabled":false,"rental_uris":{"android":"levelo://app?vid=8bfc242c-df93-4661-bdab-462c9f15b0d7","ios":"levelo://app?vid=8bfc242c-df93-4661-bdab-462c9f15b0d7"},"vehicle_type_id":"4","last_reported":1742368187,"current_range_meters":6800,"station_id":"ce4bgv12rcd13ifvqcp0","pricing_plan_id":"cebpf4jnsgd1na2vs0mg"},{"bike_id":"38233fcc-45aa-475d-b774-1f1525a8fb6d","system_id":"levelo_inurba_marseille","lat":43.26032,"lon":5.39404,"is_reserved":false,"is_disabled":false,"rental_uris":{"android":"levelo://app?vid=38233fcc-45aa-475d-b774-1f1525a8fb6d","ios":"levelo://app?vid=38233fcc-45aa-475d-b774-1f1525a8fb6d"},"vehicle_type_id":"4","last_reported":1742368187,"current_range_meters":6800,"station_id":"ce4bhh92rcd13ifvqfj0","pricing_plan_id":"cebpf4jnsgd1na2vs0mg"},{"bike_id":"c615b7dd-2094-4974-82b8-2a84922ae42d","system_id":"levelo_inurba_marseille","lat":43.25495,"lon":5.3767,"is_reserved":false,"is_disabled":false,"rental_uris":{"android":"levelo://app?vid=c615b7dd-2094-4974-82b8-2a84922ae42d","ios":"levelo://app?vid=c615b7dd-2094-4974-82b8-2a84922ae42d"},"vehicle_type_id":"4","last_reported":1742368187,"current_range_meters":6800,"station_id":"ce4bhh12rcd13ifvqff0","pricing_plan_id":"cebpf4jnsgd1na2vs0mg"},{"bike_id":"66c04a3a-9d69-4941-9191-7796f62ff29e","system_id":"levelo_inurba_marseille","lat":43.28408,"lon":5.37523,"is_reserved":false,"is_disabled":false,"rental_uris":{"android":"levelo://app?vid=66c04a3a-9d69-4941-9191-7796f62ff29e","ios":"levelo://app?vid=66c04a3a-9d69-4941-9191-7796f62ff29e"},"vehicle_type_id":"4","last_reported":1742368187,"current_range_meters":6800,"station_id":"ce4bh412rcd13ifvqds0","pricing_plan_id":"cebpf4jnsgd1na2vs0mg"},{"bike_id":"15a3ec63-7712-4d11-88e8-ca7e9429a811","system_id":"levelo_inurba_marseille","lat":43.28712,"lon":5.37929,"is_reserved":false,"is_disabled":false,"rental_uris":{"android":"levelo://app?vid=15a3ec63-7712-4d11-88e8-ca7e9429a811","ios":"levelo://app?vid=15a3ec63-7712-4d11-88e8-ca7e9429a811"},"vehicle_type_id":"4","last_reported":1742368187,"current_range_meters":6400,"station_id":"ce4bh9p2rcd13ifvqec0","pricing_plan_id":"cebpf4jnsgd1na2vs0mg"},{"bike_id":"faccb755-09d8-4857-a76e-a52465dbf53e","system_id":"levelo_inurba_marseille","lat":43.28405,"lon":5.34999,"is_reserved":false,"is_disabled":false,"rental_uris":{"android":"levelo://app?vid=faccb755-09d8-4857-a76e-a52465dbf53e","ios":"levelo://app?vid=faccb755-09d8-4857-a76e-a52465dbf53e"},"vehicle_type_id":"4","last_reported":1742368187,"current_range_meters":7200,"station_id":"ce4bhbh2rcd13ifvqepg","pricing_plan_id":"cebpf4jnsgd1na2vs0mg"},{"bike_id":"718400e7-c797-4341-b23b-49d9bc203210","system_id":"levelo_inurba_marseille","lat":43.29626,"lon":5.40597,"is_reserved":false,"is_disabled":false,"rental_uris":{"android":"levelo://app?vid=718400e7-c797-4341-b23b-49d9bc203210","ios":"levelo://app?vid=718400e7-c797-4341-b23b-49d9bc203210"},"vehicle_type_id":"4","last_reported":1742368187,"current_range_meters":7200,"station_id":"ce4bh0h2rcd13ifvqd60","pricing_plan_id":"cebpf4jnsgd1na2vs0mg"},{"bike_id":"049b5602-ba3f-4a09-ad40-b8c54e6f1cb6","system_id":"levelo_inurba_marseille","lat":43.250063,"lon":5.389159,"is_reserved":false,"is_disabled":true,"rental_uris":{"android":"levelo://app?vid=049b5602-ba3f-4a09-ad40-b8c54e6f1cb6","ios":"levelo://app?vid=049b5602-ba3f-4a09-ad40-b8c54e6f1cb6"},"vehicle_type_id":"4","last_reported":1742368187,"current_range_meters":7200,"station_id":"ce4bhgp2rcd13ifvqfd0","pricing_plan_id":"cebpf4jnsgd1na2vs0mg"},{"bike_id":"2e31975a-16d4-44f9-ad3e-bb5c17fbb4c7","system_id":"levelo_inurba_marseille","lat":43.28353,"lon":5.38105,"is_reserved":false,"is_disabled":false,"rental_uris":{"android":"levelo://app?vid=2e31975a-16d4-44f9-ad3e-bb5c17fbb4c7","ios":"levelo://app?vid=2e31975a-16d4-44f9-ad3e-bb5c17fbb4c7"},"vehicle_type_id":"4","last_reported":1742368187,"current_range_meters":7200,"station_id":"ce4bh412rcd13ifvqdr0","pricing_plan_id":"cebpf4jnsgd1na2vs0mg"},{"bike_id":"2cbefabe-1f5b-414a-bf13-49a155d66689","system_id":"levelo_inurba_marseille","lat":43.30142,"lon":5.37417,"is_reserved":false,"is_disabled":false,"rental_uris":{"android":"levelo://app?vid=2cbefabe-1f5b-414a-bf13-49a155d66689","ios":"levelo://app?vid=2cbefabe-1f5b-414a-bf13-49a155d66689"},"vehicle_type_id":"4","last_reported":1742368187,"current_range_meters":7200,"station_id":"ce4bgs92rcd13ifvqcc0","pricing_plan_id":"cebpf4jnsgd1na2vs0mg"},{"bike_id":"2fc9495d-c829-4229-a4db-5c8674880d7a","system_id":"levelo_inurba_marseille","lat":43.2304,"lon":5.35546,"is_reserved":false,"is_disabled":false,"rental_uris":{"android":"levelo://app?vid=2fc9495d-c829-4229-a4db-5c8674880d7a","ios":"levelo://app?vid=2fc9495d-c829-4229-a4db-5c8674880d7a"},"vehicle_type_id":"4","last_reported":1742368187,"current_range_meters":7200,"station_id":"cpo3342slgdg3j2ifvpg","pricing_plan_id":"cebpf4jnsgd1na2vs0mg"},{"bike_id":"244972ac-6b8e-496c-8ff7-a07dcecb25e0","system_id":"levelo_inurba_marseille","lat":43.2808,"lon":5.39658,"is_reserved":false,"is_disabled":false,"rental_uris":{"android":"levelo://app?vid=244972ac-6b8e-496c-8ff7-a07dcecb25e0","ios":"levelo://app?vid=244972ac-6b8e-496c-8ff7-a07dcecb25e0"},"vehicle_type_id":"4","last_reported":1742368187,"current_range_meters":7200,"station_id":"ce4bho12rcd13ifvqh2g","pricing_plan_id":"cebpf4jnsgd1na2vs0mg"},{"bike_id":"0b60e72b-d8b1-4266-9b63-b94b87c1ad4b","system_id":"levelo_inurba_marseille","lat":43.23194,"lon":5.39994,"is_reserved":false,"is_disabled":false,"rental_uris":{"android":"levelo://app?vid=0b60e72b-d8b1-4266-9b63-b94b87c1ad4b","ios":"levelo://app?vid=0b60e72b-d8b1-4266-9b63-b94b87c1ad4b"},"vehicle_type_id":"4","last_reported":1742368187,"current_range_meters":8000,"station_id":"ce4bhn12rcd13ifvqgqg","pricing_plan_id":"cebpf4jnsgd1na2vs0mg"},{"bike_id":"3c4f394c-0305-4c58-97e5-6826bd9d917e","system_id":"levelo_inurba_marseille","lat":43.32468,"lon":5.36564,"is_reserved":false,"is_disabled":false,"rental_uris":{"android":"levelo://app?vid=3c4f394c-0305-4c58-97e5-6826bd9d917e","ios":"levelo://app?vid=3c4f394c-0305-4c58-97e5-6826bd9d917e"},"vehicle_type_id":"4","last_reported":1742368187,"current_range_meters":8000,"station_id":"ce4bhs12rcd13ifvqhvg","pricing_plan_id":"cebpf4jnsgd1na2vs0mg"},{"bike_id":"6ae6f76c-6a01-4d75-9d3f-dfa610803a78","system_id":"levelo_inurba_marseille","lat":43.23063,"lon":5.35496,"is_reserved":false,"is_disabled":false,"rental_uris":{"android":"levelo://app?vid=6ae6f76c-6a01-4d75-9d3f-dfa610803a78","ios":"levelo://app?vid=6ae6f76c-6a01-4d75-9d3f-dfa610803a78"},"vehicle_type_id":"4","last_reported":1742368187,"current_range_meters":8000,"station_id":"cpo3342slgdg3j2ifvpg","pricing_plan_id":"cebpf4jnsgd1na2vs0mg"},{"bike_id":"519efbbc-7577-4063-8eac-658ef30e98a3","system_id":"levelo_inurba_marseille","lat":43.24991,"lon":5.38957,"is_reserved":false,"is_disabled":false,"rental_uris":{"android":"levelo://app?vid=519efbbc-7577-4063-8eac-658ef30e98a3","ios":"levelo://app?vid=519efbbc-7577-4063-8eac-658ef30e98a3"},"vehicle_type_id":"4","last_reported":1742368187,"current_range_meters":8000,"station_id":"ce4bhgp2rcd13ifvqfd0","pricing_plan_id":"cebpf4jnsgd1na2vs0mg"},{"bike_id":"253fce13-8607-4f2f-839f-40104be19b05","system_id":"levelo_inurba_marseille","lat":43.23968,"lon":5.36629,"is_reserved":false,"is_disabled":false,"rental_uris":{"android":"levelo://app?vid=253fce13-8607-4f2f-839f-40104be19b05","ios":"levelo://app?vid=253fce13-8607-4f2f-839f-40104be19b05"},"vehicle_type_id":"4","last_reported":1742368187,"current_range_meters":8000,"station_id":"ce4bhi12rcd13ifvqfp0","pricing_plan_id":"cebpf4jnsgd1na2vs0mg"},{"bike_id":"49d04d98-1548-409e-b15d-5f0b85a3c26c","system_id":"levelo_inurba_marseille","lat":43.30377,"lon":5.42491,"is_reserved":false,"is_disabled":false,"rental_uris":{"android":"levelo://app?vid=49d04d98-1548-409e-b15d-5f0b85a3c26c","ios":"levelo://app?vid=49d04d98-1548-409e-b15d-5f0b85a3c26c"},"vehicle_type_id":"4","last_reported":1742368187,"current_range_meters":8000,"station_id":"ce4bhoh2rcd13ifvqh6g","pricing_plan_id":"cebpf4jnsgd1na2vs0mg"},{"bike_id":"df4642c9-c3fd-4f88-b1d5-c33a4aa2259c","system_id":"levelo_inurba_marseille","lat":43.23187,"lon":5.39985,"is_reserved":false,"is_disabled":false,"rental_uris":{"android":"levelo://app?vid=df4642c9-c3fd-4f88-b1d5-c33a4aa2259c","ios":"levelo://app?vid=df4642c9-c3fd-4f88-b1d5-c33a4aa2259c"},"vehicle_type_id":"4","last_reported":1742368187,"current_range_meters":8000,"station_id":"ce4bhn12rcd13ifvqgqg","pricing_plan_id":"cebpf4jnsgd1na2vs0mg"},{"bike_id":"3bff80ec-e94e-42a9-988b-9e0817493bec","system_id":"levelo_inurba_marseille","lat":43.2319,"lon":5.3555,"is_reserved":false,"is_disabled":false,"rental_uris":{"android":"levelo://app?vid=3bff80ec-e94e-42a9-988b-9e0817493bec","ios":"levelo://app?vid=3bff80ec-e94e-42a9-988b-9e0817493bec"},"vehicle_type_id":"4","last_reported":1742368187,"current_range_meters":8000,"station_id":"ce4bhu92rcd13ifvqi70","pricing_plan_id":"cebpf4jnsgd1na2vs0mg"},{"bike_id":"f9f95d77-cd6d-437a-bc5c-0793f8733c24","system_id":"levelo_inurba_marseille","lat":43.29926,"lon":5.37484,"is_reserved":false,"is_disabled":false,"rental_uris":{"android":"levelo://app?vid=f9f95d77-cd6d-437a-bc5c-0793f8733c24","ios":"levelo://app?vid=f9f95d77-cd6d-437a-bc5c-0793f8733c24"},"vehicle_type_id":"4","last_reported":1742368187,"current_range_meters":7200,"station_id":"ce4bgjh2rcd13ifvqbg0","pricing_plan_id":"cebpf4jnsgd1na2vs0mg"},{"bike_id":"d1069439-00e9-4aad-ad31-ab5b44b63348","system_id":"levelo_inurba_marseille","lat":43.31656,"lon":5.40498,"is_reserved":false,"is_disabled":true,"rental_uris":{"android":"levelo://app?vid=d1069439-00e9-4aad-ad31-ab5b44b63348","ios":"levelo://app?vid=d1069439-00e9-4aad-ad31-ab5b44b63348"},"vehicle_type_id":"4","last_reported":1742368187,"current_range_meters":8000,"station_id":"ce4bh012rcd13ifvqd00","pricing_plan_id":"cebpf4jnsgd1na2vs0mg"},{"bike_id":"ca1c0a28-8faf-435f-9d8b-370c3a07ff34","system_id":"levelo_inurba_marseille","lat":43.24159,"lon":5.36412,"is_reserved":false,"is_disabled":false,"rental_uris":{"android":"levelo://app?vid=ca1c0a28-8faf-435f-9d8b-370c3a07ff34","ios":"levelo://app?vid=ca1c0a28-8faf-435f-9d8b-370c3a07ff34"},"vehicle_type_id":"4","last_reported":1742368187,"current_range_meters":8400,"station_id":"cpo36qri1sfpv3e86is0","pricing_plan_id":"cebpf4jnsgd1na2vs0mg"},{"bike_id":"a342afa1-fe1b-4de5-8f98-f3f81167fac6","system_id":"levelo_inurba_marseille","lat":43.22927,"lon":5.35391,"is_reserved":false,"is_disabled":false,"rental_uris":{"android":"levelo://app?vid=a342afa1-fe1b-4de5-8f98-f3f81167fac6","ios":"levelo://app?vid=a342afa1-fe1b-4de5-8f98-f3f81167fac6"},"vehicle_type_id":"4","last_reported":1742368187,"current_range_meters":8400,"station_id":"cpo3532slgdg3j2ikp40","pricing_plan_id":"cebpf4jnsgd1na2vs0mg"},{"bike_id":"7b1a5216-e4aa-4491-9419-ed9aa96e2372","system_id":"levelo_inurba_marseille","lat":43.29893,"lon":5.43667,"is_reserved":false,"is_disabled":false,"rental_uris":{"android":"levelo://app?vid=7b1a5216-e4aa-4491-9419-ed9aa96e2372","ios":"levelo://app?vid=7b1a5216-e4aa-4491-9419-ed9aa96e2372"},"vehicle_type_id":"4","last_reported":1742368187,"current_range_meters":8400,"station_id":"ce4bhpp2rcd13ifvqhfg","pricing_plan_id":"cebpf4jnsgd1na2vs0mg"},{"bike_id":"539fc8c4-24e6-4af1-852f-0f9aae2257a1","system_id":"levelo_inurba_marseille","lat":43.23192,"lon":5.35551,"is_reserved":false,"is_disabled":false,"rental_uris":{"android":"levelo://app?vid=539fc8c4-24e6-4af1-852f-0f9aae2257a1","ios":"levelo://app?vid=539fc8c4-24e6-4af1-852f-0f9aae2257a1"},"vehicle_type_id":"4","last_reported":1742368187,"current_range_meters":8400,"station_id":"ce4bhu92rcd13ifvqi70","pricing_plan_id":"cebpf4jnsgd1na2vs0mg"},{"bike_id":"1b2b097c-30a0-445c-b086-9bc752348acb","system_id":"levelo_inurba_marseille","lat":43.24074,"lon":5.37767,"is_reserved":false,"is_disabled":false,"rental_uris":{"android":"levelo://app?vid=1b2b097c-30a0-445c-b086-9bc752348acb","ios":"levelo://app?vid=1b2b097c-30a0-445c-b086-9bc752348acb"},"vehicle_type_id":"4","last_reported":1742368187,"current_range_meters":8400,"station_id":"ce4bhnp2rcd13ifvqgvg","pricing_plan_id":"cebpf4jnsgd1na2vs0mg"},{"bike_id":"ec0f291c-c999-415f-a256-c2aa9938d2fe","system_id":"levelo_inurba_marseille","lat":43.24542,"lon":5.39518,"is_reserved":false,"is_disabled":false,"rental_uris":{"android":"levelo://app?vid=ec0f291c-c999-415f-a256-c2aa9938d2fe","ios":"levelo://app?vid=ec0f291c-c999-415f-a256-c2aa9938d2fe"},"vehicle_type_id":"4","last_reported":1742368187,"current_range_meters":8400,"station_id":"ce4bhlp2rcd13ifvqgjg","pricing_plan_id":"cebpf4jnsgd1na2vs0mg"},{"bike_id":"501f7fd9-069d-4c8f-b512-803a0a667daa","system_id":"levelo_inurba_marseille","lat":43.31697,"lon":5.43686,"is_reserved":false,"is_disabled":false,"rental_uris":{"android":"levelo://app?vid=501f7fd9-069d-4c8f-b512-803a0a667daa","ios":"levelo://app?vid=501f7fd9-069d-4c8f-b512-803a0a667daa"},"vehicle_type_id":"4","last_reported":1742368187,"current_range_meters":8400,"station_id":"ce4bhp92rcd13ifvqhcg","pricing_plan_id":"cebpf4jnsgd1na2vs0mg"},{"bike_id":"227bb96b-5fc9-4422-9c3e-e5d8a8b5cbc5","system_id":"levelo_inurba_marseille","lat":43.31684,"lon":5.40476,"is_reserved":false,"is_disabled":false,"rental_uris":{"android":"levelo://app?vid=227bb96b-5fc9-4422-9c3e-e5d8a8b5cbc5","ios":"levelo://app?vid=227bb96b-5fc9-4422-9c3e-e5d8a8b5cbc5"},"vehicle_type_id":"4","last_reported":1742368187,"current_range_meters":8400,"station_id":"ce4bh012rcd13ifvqd00","pricing_plan_id":"cebpf4jnsgd1na2vs0mg"},{"bike_id":"a8c89f12-e7b0-458f-b7a3-09032d50c758","system_id":"levelo_inurba_marseille","lat":43.27812,"lon":5.4072,"is_reserved":false,"is_disabled":false,"rental_uris":{"android":"levelo://app?vid=a8c89f12-e7b0-458f-b7a3-09032d50c758","ios":"levelo://app?vid=a8c89f12-e7b0-458f-b7a3-09032d50c758"},"vehicle_type_id":"4","last_reported":1742368187,"current_range_meters":8400,"station_id":"ce4bhnh2rcd13ifvqgtg","pricing_plan_id":"cebpf4jnsgd1na2vs0mg"},{"bike_id":"61c41159-7a8b-45ee-a18c-926f56b3edec","system_id":"levelo_inurba_marseille","lat":43.25887,"lon":5.39345,"is_reserved":false,"is_disabled":false,"rental_uris":{"android":"levelo://app?vid=61c41159-7a8b-45ee-a18c-926f56b3edec","ios":"levelo://app?vid=61c41159-7a8b-45ee-a18c-926f56b3edec"},"vehicle_type_id":"4","last_reported":1742368187,"current_range_meters":8400,"station_id":"","pricing_plan_id":"cebpf4jnsgd1na2vs0mg"},{"bike_id":"89b0eaa1-699b-4896-9f14-80f0bbeb273a","system_id":"levelo_inurba_marseille","lat":43.30422,"lon":5.38895,"is_reserved":false,"is_disabled":false,"rental_uris":{"android":"levelo://app?vid=89b0eaa1-699b-4896-9f14-80f0bbeb273a","ios":"levelo://app?vid=89b0eaa1-699b-4896-9f14-80f0bbeb273a"},"vehicle_type_id":"4","last_reported":1742368187,"current_range_meters":8800,"station_id":"ce4bgk12rcd13ifvqbi0","pricing_plan_id":"cebpf4jnsgd1na2vs0mg"},{"bike_id":"d00028dc-9b0d-47df-ad9d-778d21fb21b2","system_id":"levelo_inurba_marseille","lat":43.2319,"lon":5.35557,"is_reserved":false,"is_disabled":false,"rental_uris":{"android":"levelo://app?vid=d00028dc-9b0d-47df-ad9d-778d21fb21b2","ios":"levelo://app?vid=d00028dc-9b0d-47df-ad9d-778d21fb21b2"},"vehicle_type_id":"4","last_reported":1742368187,"current_range_meters":8800,"station_id":"ce4bhu92rcd13ifvqi70","pricing_plan_id":"cebpf4jnsgd1na2vs0mg"},{"bike_id":"4b1455e3-a129-4c21-aa44-d1039bebb628","system_id":"levelo_inurba_marseille","lat":43.27829,"lon":5.40696,"is_reserved":false,"is_disabled":false,"rental_uris":{"android":"levelo://app?vid=4b1455e3-a129-4c21-aa44-d1039bebb628","ios":"levelo://app?vid=4b1455e3-a129-4c21-aa44-d1039bebb628"},"vehicle_type_id":"4","last_reported":1742368187,"current_range_meters":8800,"station_id":"ce4bhnh2rcd13ifvqgtg","pricing_plan_id":"cebpf4jnsgd1na2vs0mg"},{"bike_id":"5bead0f2-5ada-420f-bea0-acb8d2ad9da4","system_id":"levelo_inurba_marseille","lat":43.23189,"lon":5.39983,"is_reserved":false,"is_disabled":false,"rental_uris":{"android":"levelo://app?vid=5bead0f2-5ada-420f-bea0-acb8d2ad9da4","ios":"levelo://app?vid=5bead0f2-5ada-420f-bea0-acb8d2ad9da4"},"vehicle_type_id":"4","last_reported":1742368187,"current_range_meters":8800,"station_id":"ce4bhn12rcd13ifvqgqg","pricing_plan_id":"cebpf4jnsgd1na2vs0mg"},{"bike_id":"bd68f678-16cb-4c38-81de-5da19b0ce0d5","system_id":"levelo_inurba_marseille","lat":43.24083,"lon":5.37749,"is_reserved":false,"is_disabled":false,"rental_uris":{"android":"levelo://app?vid=bd68f678-16cb-4c38-81de-5da19b0ce0d5","ios":"levelo://app?vid=bd68f678-16cb-4c38-81de-5da19b0ce0d5"},"vehicle_type_id":"4","last_reported":1742368187,"current_range_meters":8800,"station_id":"ce4bhnp2rcd13ifvqgvg","pricing_plan_id":"cebpf4jnsgd1na2vs0mg"},{"bike_id":"2e8e2e12-65e7-450a-83a2-d80d023fe506","system_id":"levelo_inurba_marseille","lat":43.31698,"lon":5.40494,"is_reserved":false,"is_disabled":false,"rental_uris":{"android":"levelo://app?vid=2e8e2e12-65e7-450a-83a2-d80d023fe506","ios":"levelo://app?vid=2e8e2e12-65e7-450a-83a2-d80d023fe506"},"vehicle_type_id":"4","last_reported":1742368187,"current_range_meters":8800,"station_id":"ce4bh012rcd13ifvqd00","pricing_plan_id":"cebpf4jnsgd1na2vs0mg"},{"bike_id":"bae48a4d-4e9d-4f61-834c-800be6aad56d","system_id":"levelo_inurba_marseille","lat":43.29556,"lon":5.42291,"is_reserved":false,"is_disabled":false,"rental_uris":{"android":"levelo://app?vid=bae48a4d-4e9d-4f61-834c-800be6aad56d","ios":"levelo://app?vid=bae48a4d-4e9d-4f61-834c-800be6aad56d"},"vehicle_type_id":"4","last_reported":1742368187,"current_range_meters":12400,"station_id":"ce4bhph2rcd13ifvqhdg","pricing_plan_id":"cebpf4jnsgd1na2vs0mg"},{"bike_id":"89cb3140-d211-4c4d-97ca-7e01c3c4da90","system_id":"levelo_inurba_marseille","lat":43.23182,"lon":5.35574,"is_reserved":false,"is_disabled":false,"rental_uris":{"android":"levelo://app?vid=89cb3140-d211-4c4d-97ca-7e01c3c4da90","ios":"levelo://app?vid=89cb3140-d211-4c4d-97ca-7e01c3c4da90"},"vehicle_type_id":"4","last_reported":1742368187,"current_range_meters":8800,"station_id":"ce4bhu92rcd13ifvqi70","pricing_plan_id":"cebpf4jnsgd1na2vs0mg"},{"bike_id":"6b162ed9-3599-4156-a34b-2df90433ae5c","system_id":"levelo_inurba_marseille","lat":43.2418,"lon":5.39739,"is_reserved":false,"is_disabled":false,"rental_uris":{"android":"levelo://app?vid=6b162ed9-3599-4156-a34b-2df90433ae5c","ios":"levelo://app?vid=6b162ed9-3599-4156-a34b-2df90433ae5c"},"vehicle_type_id":"4","last_reported":1742368187,"current_range_meters":8800,"station_id":"ce4bhn12rcd13ifvqgpg","pricing_plan_id":"cebpf4jnsgd1na2vs0mg"},{"bike_id":"d8e3283c-2263-44be-ada6-b7fcaf2d88a1","system_id":"levelo_inurba_marseille","lat":43.30665,"lon":5.40047,"is_reserved":false,"is_disabled":false,"rental_uris":{"android":"levelo://app?vid=d8e3283c-2263-44be-ada6-b7fcaf2d88a1","ios":"levelo://app?vid=d8e3283c-2263-44be-ada6-b7fcaf2d88a1"},"vehicle_type_id":"4","last_reported":1742368187,"current_range_meters":8800,"station_id":"ce4bgvp2rcd13ifvqct0","pricing_plan_id":"cebpf4jnsgd1na2vs0mg"},{"bike_id":"b4b2c2c3-f8dc-4ba9-99d8-15825522ed6f","system_id":"levelo_inurba_marseille","lat":43.24077,"lon":5.37749,"is_reserved":false,"is_disabled":false,"rental_uris":{"android":"levelo://app?vid=b4b2c2c3-f8dc-4ba9-99d8-15825522ed6f","ios":"levelo://app?vid=b4b2c2c3-f8dc-4ba9-99d8-15825522ed6f"},"vehicle_type_id":"4","last_reported":1742368187,"current_range_meters":9200,"station_id":"ce4bhnp2rcd13ifvqgvg","pricing_plan_id":"cebpf4jnsgd1na2vs0mg"},{"bike_id":"11bffd4d-691e-479c-be44-e39bfa076b4b","system_id":"levelo_inurba_marseille","lat":43.28441,"lon":5.35871,"is_reserved":false,"is_disabled":false,"rental_uris":{"android":"levelo://app?vid=11bffd4d-691e-479c-be44-e39bfa076b4b","ios":"levelo://app?vid=11bffd4d-691e-479c-be44-e39bfa076b4b"},"vehicle_type_id":"4","last_reported":1742368187,"current_range_meters":9200,"station_id":"ce4bhah2rcd13ifvqei0","pricing_plan_id":"cebpf4jnsgd1na2vs0mg"},{"bike_id":"b872c9c8-415e-4db5-90a9-86fb8d30a182","system_id":"levelo_inurba_marseille","lat":43.24079,"lon":5.3775,"is_reserved":false,"is_disabled":false,"rental_uris":{"android":"levelo://app?vid=b872c9c8-415e-4db5-90a9-86fb8d30a182","ios":"levelo://app?vid=b872c9c8-415e-4db5-90a9-86fb8d30a182"},"vehicle_type_id":"4","last_reported":1742368187,"current_range_meters":8800,"station_id":"ce4bhnp2rcd13ifvqgvg","pricing_plan_id":"cebpf4jnsgd1na2vs0mg"},{"bike_id":"5e244767-2fd5-4cae-9f0c-0a11498d0074","system_id":"levelo_inurba_marseille","lat":43.27508,"lon":5.42448,"is_reserved":false,"is_disabled":false,"rental_uris":{"android":"levelo://app?vid=5e244767-2fd5-4cae-9f0c-0a11498d0074","ios":"levelo://app?vid=5e244767-2fd5-4cae-9f0c-0a11498d0074"},"vehicle_type_id":"4","last_reported":1742368187,"current_range_meters":9200,"station_id":"ce4bhn92rcd13ifvqgrg","pricing_plan_id":"cebpf4jnsgd1na2vs0mg"},{"bike_id":"940e816e-4f07-47f8-8676-f1878d791ee8","system_id":"levelo_inurba_marseille","lat":43.25508,"lon":5.37664,"is_reserved":false,"is_disabled":false,"rental_uris":{"android":"levelo://app?vid=940e816e-4f07-47f8-8676-f1878d791ee8","ios":"levelo://app?vid=940e816e-4f07-47f8-8676-f1878d791ee8"},"vehicle_type_id":"4","last_reported":1742368187,"current_range_meters":9200,"station_id":"ce4bhh12rcd13ifvqff0","pricing_plan_id":"cebpf4jnsgd1na2vs0mg"},{"bike_id":"4c0905cc-b612-4ef2-96a8-e0669ccf6813","system_id":"levelo_inurba_marseille","lat":43.29228,"lon":5.36063,"is_reserved":false,"is_disabled":false,"rental_uris":{"android":"levelo://app?vid=4c0905cc-b612-4ef2-96a8-e0669ccf6813","ios":"levelo://app?vid=4c0905cc-b612-4ef2-96a8-e0669ccf6813"},"vehicle_type_id":"4","last_reported":1742368187,"current_range_meters":9200,"station_id":"ce4bhbh2rcd13ifvqeqg","pricing_plan_id":"cebpf4jnsgd1na2vs0mg"},{"bike_id":"ab11fa9b-759f-447f-a4f1-b143e2360775","system_id":"levelo_inurba_marseille","lat":43.31346,"lon":5.39172,"is_reserved":false,"is_disabled":false,"rental_uris":{"android":"levelo://app?vid=ab11fa9b-759f-447f-a4f1-b143e2360775","ios":"levelo://app?vid=ab11fa9b-759f-447f-a4f1-b143e2360775"},"vehicle_type_id":"4","last_reported":1742368187,"current_range_meters":9200,"station_id":"","pricing_plan_id":"cebpf4jnsgd1na2vs0mg"},{"bike_id":"c75d1d5e-0f86-4204-b011-68e0f1c00d24","system_id":"levelo_inurba_marseille","lat":43.29576,"lon":5.3997,"is_reserved":false,"is_disabled":false,"rental_uris":{"android":"levelo://app?vid=c75d1d5e-0f86-4204-b011-68e0f1c00d24","ios":"levelo://app?vid=c75d1d5e-0f86-4204-b011-68e0f1c00d24"},"vehicle_type_id":"4","last_reported":1742368187,"current_range_meters":11600,"station_id":"ce4bh312rcd13ifvqdj0","pricing_plan_id":"cebpf4jnsgd1na2vs0mg"},{"bike_id":"e94b1f20-3e0e-4dcb-9056-1e4af333e85a","system_id":"levelo_inurba_marseille","lat":43.28933,"lon":5.39735,"is_reserved":false,"is_disabled":false,"rental_uris":{"android":"levelo://app?vid=e94b1f20-3e0e-4dcb-9056-1e4af333e85a","ios":"levelo://app?vid=e94b1f20-3e0e-4dcb-9056-1e4af333e85a"},"vehicle_type_id":"4","last_reported":1742368187,"current_range_meters":9200,"station_id":"","pricing_plan_id":"cebpf4jnsgd1na2vs0mg"},{"bike_id":"4ccc3f56-6ae5-4d6a-9eb1-b86c5e38aaee","system_id":"levelo_inurba_marseille","lat":43.27799,"lon":5.40722,"is_reserved":false,"is_disabled":false,"rental_uris":{"android":"levelo://app?vid=4ccc3f56-6ae5-4d6a-9eb1-b86c5e38aaee","ios":"levelo://app?vid=4ccc3f56-6ae5-4d6a-9eb1-b86c5e38aaee"},"vehicle_type_id":"4","last_reported":1742368187,"current_range_meters":9200,"station_id":"ce4bhnh2rcd13ifvqgtg","pricing_plan_id":"cebpf4jnsgd1na2vs0mg"},{"bike_id":"a9f9e92b-f404-4b8e-be48-a1fdb3e3428e","system_id":"levelo_inurba_marseille","lat":43.24067,"lon":5.37779,"is_reserved":false,"is_disabled":false,"rental_uris":{"android":"levelo://app?vid=a9f9e92b-f404-4b8e-be48-a1fdb3e3428e","ios":"levelo://app?vid=a9f9e92b-f404-4b8e-be48-a1fdb3e3428e"},"vehicle_type_id":"4","last_reported":1742368187,"current_range_meters":9200,"station_id":"ce4bhnp2rcd13ifvqgvg","pricing_plan_id":"cebpf4jnsgd1na2vs0mg"},{"bike_id":"a5f60b2e-f48d-408b-b773-a1d8fadbd2dd","system_id":"levelo_inurba_marseille","lat":43.28349,"lon":5.38117,"is_reserved":false,"is_disabled":false,"rental_uris":{"android":"levelo://app?vid=a5f60b2e-f48d-408b-b773-a1d8fadbd2dd","ios":"levelo://app?vid=a5f60b2e-f48d-408b-b773-a1d8fadbd2dd"},"vehicle_type_id":"4","last_reported":1742368187,"current_range_meters":9600,"station_id":"ce4bh412rcd13ifvqdr0","pricing_plan_id":"cebpf4jnsgd1na2vs0mg"},{"bike_id":"82fee542-6fe0-4881-abf3-bf76f21162be","system_id":"levelo_inurba_marseille","lat":43.30647,"lon":5.40084,"is_reserved":false,"is_disabled":false,"rental_uris":{"android":"levelo://app?vid=82fee542-6fe0-4881-abf3-bf76f21162be","ios":"levelo://app?vid=82fee542-6fe0-4881-abf3-bf76f21162be"},"vehicle_type_id":"4","last_reported":1742368187,"current_range_meters":9600,"station_id":"ce4bh112rcd13ifvqda0","pricing_plan_id":"cebpf4jnsgd1na2vs0mg"},{"bike_id":"1f4d04b1-8f45-4926-aad8-072dc7b7d942","system_id":"levelo_inurba_marseille","lat":43.28025,"lon":5.36964,"is_reserved":false,"is_disabled":false,"rental_uris":{"android":"levelo://app?vid=1f4d04b1-8f45-4926-aad8-072dc7b7d942","ios":"levelo://app?vid=1f4d04b1-8f45-4926-aad8-072dc7b7d942"},"vehicle_type_id":"4","last_reported":1742368187,"current_range_meters":9600,"station_id":"ce4bha12rcd13ifvqef0","pricing_plan_id":"cebpf4jnsgd1na2vs0mg"},{"bike_id":"b132483d-1d99-4f2a-9ca2-8544144e934f","system_id":"levelo_inurba_marseille","lat":43.32292,"lon":5.39018,"is_reserved":false,"is_disabled":false,"rental_uris":{"android":"levelo://app?vid=b132483d-1d99-4f2a-9ca2-8544144e934f","ios":"levelo://app?vid=b132483d-1d99-4f2a-9ca2-8544144e934f"},"vehicle_type_id":"4","last_reported":1742368187,"current_range_meters":9600,"station_id":"","pricing_plan_id":"cebpf4jnsgd1na2vs0mg"},{"bike_id":"b98eff8b-8bbd-44cf-94d7-71a6341eecc2","system_id":"levelo_inurba_marseille","lat":43.23182,"lon":5.39993,"is_reserved":false,"is_disabled":false,"rental_uris":{"android":"levelo://app?vid=b98eff8b-8bbd-44cf-94d7-71a6341eecc2","ios":"levelo://app?vid=b98eff8b-8bbd-44cf-94d7-71a6341eecc2"},"vehicle_type_id":"4","last_reported":1742368187,"current_range_meters":9600,"station_id":"ce4bhn12rcd13ifvqgqg","pricing_plan_id":"cebpf4jnsgd1na2vs0mg"},{"bike_id":"770aee05-45b2-4671-bc90-b41e1ada8b63","system_id":"levelo_inurba_marseille","lat":43.28866,"lon":5.35855,"is_reserved":false,"is_disabled":false,"rental_uris":{"android":"levelo://app?vid=770aee05-45b2-4671-bc90-b41e1ada8b63","ios":"levelo://app?vid=770aee05-45b2-4671-bc90-b41e1ada8b63"},"vehicle_type_id":"4","last_reported":1742368187,"current_range_meters":9200,"station_id":"ce4bhb12rcd13ifvqem0","pricing_plan_id":"cebpf4jnsgd1na2vs0mg"},{"bike_id":"cd603e1e-759a-47fa-ae88-d6383a6efa24","system_id":"levelo_inurba_marseille","lat":43.30528,"lon":5.38446,"is_reserved":false,"is_disabled":false,"rental_uris":{"android":"levelo://app?vid=cd603e1e-759a-47fa-ae88-d6383a6efa24","ios":"levelo://app?vid=cd603e1e-759a-47fa-ae88-d6383a6efa24"},"vehicle_type_id":"4","last_reported":1742368187,"current_range_meters":9600,"station_id":"ce4bgg92rcd13ifvqb30","pricing_plan_id":"cebpf4jnsgd1na2vs0mg"},{"bike_id":"f142dc05-f5d3-4cbc-afe5-c54cd3d760d6","system_id":"levelo_inurba_marseille","lat":43.28091,"lon":5.39663,"is_reserved":false,"is_disabled":false,"rental_uris":{"android":"levelo://app?vid=f142dc05-f5d3-4cbc-afe5-c54cd3d760d6","ios":"levelo://app?vid=f142dc05-f5d3-4cbc-afe5-c54cd3d760d6"},"vehicle_type_id":"4","last_reported":1742368187,"current_range_meters":9600,"station_id":"ce4bho12rcd13ifvqh2g","pricing_plan_id":"cebpf4jnsgd1na2vs0mg"},{"bike_id":"cabc56a7-dd90-4978-a4aa-b0149cec9ec6","system_id":"levelo_inurba_marseille","lat":43.25499,"lon":5.376485,"is_reserved":false,"is_disabled":false,"rental_uris":{"android":"levelo://app?vid=cabc56a7-dd90-4978-a4aa-b0149cec9ec6","ios":"levelo://app?vid=cabc56a7-dd90-4978-a4aa-b0149cec9ec6"},"vehicle_type_id":"4","last_reported":1742368187,"current_range_meters":9600,"station_id":"ce4bhh12rcd13ifvqff0","pricing_plan_id":"cebpf4jnsgd1na2vs0mg"},{"bike_id":"62f7539b-b047-479e-84e9-11e5c010431d","system_id":"levelo_inurba_marseille","lat":43.30027,"lon":5.40012,"is_reserved":false,"is_disabled":false,"rental_uris":{"android":"levelo://app?vid=62f7539b-b047-479e-84e9-11e5c010431d","ios":"levelo://app?vid=62f7539b-b047-479e-84e9-11e5c010431d"},"vehicle_type_id":"4","last_reported":1742368187,"current_range_meters":9600,"station_id":"","pricing_plan_id":"cebpf4jnsgd1na2vs0mg"},{"bike_id":"6055976c-ce6b-482e-8196-64c0486a2528","system_id":"levelo_inurba_marseille","lat":43.31714,"lon":5.37756,"is_reserved":false,"is_disabled":false,"rental_uris":{"android":"levelo://app?vid=6055976c-ce6b-482e-8196-64c0486a2528","ios":"levelo://app?vid=6055976c-ce6b-482e-8196-64c0486a2528"},"vehicle_type_id":"4","last_reported":1742368187,"current_range_meters":10000,"station_id":"ce4bgth2rcd13ifvqch0","pricing_plan_id":"cebpf4jnsgd1na2vs0mg"},{"bike_id":"ef512198-3f43-4d32-801b-f63c871c0ea6","system_id":"levelo_inurba_marseille","lat":43.28843,"lon":5.35855,"is_reserved":false,"is_disabled":false,"rental_uris":{"android":"levelo://app?vid=ef512198-3f43-4d32-801b-f63c871c0ea6","ios":"levelo://app?vid=ef512198-3f43-4d32-801b-f63c871c0ea6"},"vehicle_type_id":"4","last_reported":1742368187,"current_range_meters":10000,"station_id":"ce4bhb12rcd13ifvqem0","pricing_plan_id":"cebpf4jnsgd1na2vs0mg"},{"bike_id":"7f61d7be-d227-44df-9b33-b8f4965e514f","system_id":"levelo_inurba_marseille","lat":43.23187,"lon":5.35574,"is_reserved":false,"is_disabled":false,"rental_uris":{"android":"levelo://app?vid=7f61d7be-d227-44df-9b33-b8f4965e514f","ios":"levelo://app?vid=7f61d7be-d227-44df-9b33-b8f4965e514f"},"vehicle_type_id":"4","last_reported":1742368187,"current_range_meters":10000,"station_id":"ce4bhu92rcd13ifvqi70","pricing_plan_id":"cebpf4jnsgd1na2vs0mg"},{"bike_id":"8abf66b0-4c7b-4a5b-9216-254c311cdf06","system_id":"levelo_inurba_marseille","lat":43.25578,"lon":5.38218,"is_reserved":false,"is_disabled":false,"rental_uris":{"android":"levelo://app?vid=8abf66b0-4c7b-4a5b-9216-254c311cdf06","ios":"levelo://app?vid=8abf66b0-4c7b-4a5b-9216-254c311cdf06"},"vehicle_type_id":"4","last_reported":1742368187,"current_range_meters":10000,"station_id":"ce4bhih2rcd13ifvqfs0","pricing_plan_id":"cebpf4jnsgd1na2vs0mg"},{"bike_id":"4dfde5f1-5b7a-4544-af46-1b4f858c8262","system_id":"levelo_inurba_marseille","lat":43.28454,"lon":5.35892,"is_reserved":false,"is_disabled":false,"rental_uris":{"android":"levelo://app?vid=4dfde5f1-5b7a-4544-af46-1b4f858c8262","ios":"levelo://app?vid=4dfde5f1-5b7a-4544-af46-1b4f858c8262"},"vehicle_type_id":"4","last_reported":1742368187,"current_range_meters":10000,"station_id":"ce4bhah2rcd13ifvqei0","pricing_plan_id":"cebpf4jnsgd1na2vs0mg"},{"bike_id":"3a9c8e10-9112-4acb-9f57-0b327c6b8f90","system_id":"levelo_inurba_marseille","lat":43.24647,"lon":5.38893,"is_reserved":false,"is_disabled":false,"rental_uris":{"android":"levelo://app?vid=3a9c8e10-9112-4acb-9f57-0b327c6b8f90","ios":"levelo://app?vid=3a9c8e10-9112-4acb-9f57-0b327c6b8f90"},"vehicle_type_id":"4","last_reported":1742368187,"current_range_meters":10000,"station_id":"ce4bhg12rcd13ifvqf60","pricing_plan_id":"cebpf4jnsgd1na2vs0mg"},{"bike_id":"46bb371c-22fb-4f4b-b4cd-6276a971bef1","system_id":"levelo_inurba_marseille","lat":43.24079,"lon":5.37755,"is_reserved":false,"is_disabled":false,"rental_uris":{"android":"levelo://app?vid=46bb371c-22fb-4f4b-b4cd-6276a971bef1","ios":"levelo://app?vid=46bb371c-22fb-4f4b-b4cd-6276a971bef1"},"vehicle_type_id":"4","last_reported":1742368187,"current_range_meters":10000,"station_id":"ce4bhnp2rcd13ifvqgvg","pricing_plan_id":"cebpf4jnsgd1na2vs0mg"},{"bike_id":"c2f4da44-a44d-44d2-8be6-51648ee37d7f","system_id":"levelo_inurba_marseille","lat":43.25009,"lon":5.38929,"is_reserved":false,"is_disabled":false,"rental_uris":{"android":"levelo://app?vid=c2f4da44-a44d-44d2-8be6-51648ee37d7f","ios":"levelo://app?vid=c2f4da44-a44d-44d2-8be6-51648ee37d7f"},"vehicle_type_id":"4","last_reported":1742368187,"current_range_meters":10000,"station_id":"ce4bhgp2rcd13ifvqfd0","pricing_plan_id":"cebpf4jnsgd1na2vs0mg"},{"bike_id":"f1bd2fa8-2ac3-4058-8f00-bcb345e0fd8b","system_id":"levelo_inurba_marseille","lat":43.2408,"lon":5.37758,"is_reserved":false,"is_disabled":false,"rental_uris":{"android":"levelo://app?vid=f1bd2fa8-2ac3-4058-8f00-bcb345e0fd8b","ios":"levelo://app?vid=f1bd2fa8-2ac3-4058-8f00-bcb345e0fd8b"},"vehicle_type_id":"4","last_reported":1742368187,"current_range_meters":10000,"station_id":"ce4bhnp2rcd13ifvqgvg","pricing_plan_id":"cebpf4jnsgd1na2vs0mg"},{"bike_id":"bfa40974-876e-403f-8ee9-98898195442a","system_id":"levelo_inurba_marseille","lat":43.28454,"lon":5.35895,"is_reserved":false,"is_disabled":false,"rental_uris":{"android":"levelo://app?vid=bfa40974-876e-403f-8ee9-98898195442a","ios":"levelo://app?vid=bfa40974-876e-403f-8ee9-98898195442a"},"vehicle_type_id":"4","last_reported":1742368187,"current_range_meters":10000,"station_id":"ce4bhah2rcd13ifvqei0","pricing_plan_id":"cebpf4jnsgd1na2vs0mg"},{"bike_id":"fe598ad7-c708-4daa-aca8-2b7154687dcd","system_id":"levelo_inurba_marseille","lat":43.30152,"lon":5.38095,"is_reserved":false,"is_disabled":false,"rental_uris":{"android":"levelo://app?vid=fe598ad7-c708-4daa-aca8-2b7154687dcd","ios":"levelo://app?vid=fe598ad7-c708-4daa-aca8-2b7154687dcd"},"vehicle_type_id":"4","last_reported":1742368187,"current_range_meters":10800,"station_id":"ce4bgjp2rcd13ifvqbh0","pricing_plan_id":"cebpf4jnsgd1na2vs0mg"},{"bike_id":"bb78a1d1-78ba-4f37-81f4-87b10a1775a5","system_id":"levelo_inurba_marseille","lat":43.32099,"lon":5.36798,"is_reserved":false,"is_disabled":false,"rental_uris":{"android":"levelo://app?vid=bb78a1d1-78ba-4f37-81f4-87b10a1775a5","ios":"levelo://app?vid=bb78a1d1-78ba-4f37-81f4-87b10a1775a5"},"vehicle_type_id":"4","last_reported":1742368187,"current_range_meters":10800,"station_id":"ce4bhrh2rcd13ifvqhug","pricing_plan_id":"cebpf4jnsgd1na2vs0mg"},{"bike_id":"44a4af3e-84f5-4f54-943d-83cf9fa4d793","system_id":"levelo_inurba_marseille","lat":43.278426,"lon":5.407175,"is_reserved":false,"is_disabled":false,"rental_uris":{"android":"levelo://app?vid=44a4af3e-84f5-4f54-943d-83cf9fa4d793","ios":"levelo://app?vid=44a4af3e-84f5-4f54-943d-83cf9fa4d793"},"vehicle_type_id":"4","last_reported":1742368187,"current_range_meters":10800,"station_id":"ce4bhnh2rcd13ifvqgtg","pricing_plan_id":"cebpf4jnsgd1na2vs0mg"},{"bike_id":"eb9c78c4-f20d-4ee6-9d11-7d8e71362578","system_id":"levelo_inurba_marseille","lat":43.30874,"lon":5.37181,"is_reserved":false,"is_disabled":false,"rental_uris":{"android":"levelo://app?vid=eb9c78c4-f20d-4ee6-9d11-7d8e71362578","ios":"levelo://app?vid=eb9c78c4-f20d-4ee6-9d11-7d8e71362578"},"vehicle_type_id":"4","last_reported":1742368187,"current_range_meters":10800,"station_id":"ce4bguh2rcd13ifvqckg","pricing_plan_id":"cebpf4jnsgd1na2vs0mg"},{"bike_id":"3455258b-4135-46b9-9a26-10bf95160e40","system_id":"levelo_inurba_marseille","lat":43.231904,"lon":5.355546,"is_reserved":false,"is_disabled":false,"rental_uris":{"android":"levelo://app?vid=3455258b-4135-46b9-9a26-10bf95160e40","ios":"levelo://app?vid=3455258b-4135-46b9-9a26-10bf95160e40"},"vehicle_type_id":"4","last_reported":1742368187,"current_range_meters":10800,"station_id":"ce4bhu92rcd13ifvqi70","pricing_plan_id":"cebpf4jnsgd1na2vs0mg"},{"bike_id":"d0b6bb68-002e-46bf-93dd-b7e833c43fb4","system_id":"levelo_inurba_marseille","lat":43.28082,"lon":5.37857,"is_reserved":false,"is_disabled":false,"rental_uris":{"android":"levelo://app?vid=d0b6bb68-002e-46bf-93dd-b7e833c43fb4","ios":"levelo://app?vid=d0b6bb68-002e-46bf-93dd-b7e833c43fb4"},"vehicle_type_id":"4","last_reported":1742368187,"current_range_meters":10800,"station_id":"ce4bha12rcd13ifvqee0","pricing_plan_id":"cebpf4jnsgd1na2vs0mg"},{"bike_id":"67095e44-74b7-42a7-afaa-63921b9390d6","system_id":"levelo_inurba_marseille","lat":43.30423,"lon":5.388829,"is_reserved":false,"is_disabled":false,"rental_uris":{"android":"levelo://app?vid=67095e44-74b7-42a7-afaa-63921b9390d6","ios":"levelo://app?vid=67095e44-74b7-42a7-afaa-63921b9390d6"},"vehicle_type_id":"4","last_reported":1742368187,"current_range_meters":10800,"station_id":"ce4bgk12rcd13ifvqbi0","pricing_plan_id":"cebpf4jnsgd1na2vs0mg"},{"bike_id":"f31fd8fc-38af-431a-83a8-4d065c63a44e","system_id":"levelo_inurba_marseille","lat":43.28383,"lon":5.38656,"is_reserved":false,"is_disabled":false,"rental_uris":{"android":"levelo://app?vid=f31fd8fc-38af-431a-83a8-4d065c63a44e","ios":"levelo://app?vid=f31fd8fc-38af-431a-83a8-4d065c63a44e"},"vehicle_type_id":"4","last_reported":1742368187,"current_range_meters":10800,"station_id":"ce4bh492rcd13ifvqdvg","pricing_plan_id":"cebpf4jnsgd1na2vs0mg"},{"bike_id":"fafb26b7-3ee0-440e-a2d0-18a783ab328f","system_id":"levelo_inurba_marseille","lat":43.28441,"lon":5.39207,"is_reserved":false,"is_disabled":false,"rental_uris":{"android":"levelo://app?vid=fafb26b7-3ee0-440e-a2d0-18a783ab328f","ios":"levelo://app?vid=fafb26b7-3ee0-440e-a2d0-18a783ab328f"},"vehicle_type_id":"4","last_reported":1742368187,"current_range_meters":10000,"station_id":"ce4bhoh2rcd13ifvqh5g","pricing_plan_id":"cebpf4jnsgd1na2vs0mg"},{"bike_id":"06a6152a-e477-491f-83ed-9b68fd573e32","system_id":"levelo_inurba_marseille","lat":43.25826,"lon":5.39435,"is_reserved":false,"is_disabled":false,"rental_uris":{"android":"levelo://app?vid=06a6152a-e477-491f-83ed-9b68fd573e32","ios":"levelo://app?vid=06a6152a-e477-491f-83ed-9b68fd573e32"},"vehicle_type_id":"4","last_reported":1742368187,"current_range_meters":10800,"station_id":"ce4bhip2rcd13ifvqft0","pricing_plan_id":"cebpf4jnsgd1na2vs0mg"},{"bike_id":"ade49e88-18c0-4811-826f-05d853dd80b4","system_id":"levelo_inurba_marseille","lat":43.2901,"lon":5.38639,"is_reserved":false,"is_disabled":false,"rental_uris":{"android":"levelo://app?vid=ade49e88-18c0-4811-826f-05d853dd80b4","ios":"levelo://app?vid=ade49e88-18c0-4811-826f-05d853dd80b4"},"vehicle_type_id":"4","last_reported":1742368187,"current_range_meters":11200,"station_id":"ce4bh4p2rcd13ifvqe0g","pricing_plan_id":"cebpf4jnsgd1na2vs0mg"},{"bike_id":"78c7f344-224f-4ee1-abbd-94f4d94ef023","system_id":"levelo_inurba_marseille","lat":43.239571,"lon":5.366376,"is_reserved":false,"is_disabled":true,"rental_uris":{"android":"levelo://app?vid=78c7f344-224f-4ee1-abbd-94f4d94ef023","ios":"levelo://app?vid=78c7f344-224f-4ee1-abbd-94f4d94ef023"},"vehicle_type_id":"4","last_reported":1742368187,"current_range_meters":11200,"station_id":"ce4bhi12rcd13ifvqfp0","pricing_plan_id":"cebpf4jnsgd1na2vs0mg"},{"bike_id":"9ca3bb79-a2d6-4b1d-bacb-81aee7604188","system_id":"levelo_inurba_marseille","lat":43.28557,"lon":5.39537,"is_reserved":false,"is_disabled":false,"rental_uris":{"android":"levelo://app?vid=9ca3bb79-a2d6-4b1d-bacb-81aee7604188","ios":"levelo://app?vid=9ca3bb79-a2d6-4b1d-bacb-81aee7604188"},"vehicle_type_id":"4","last_reported":1742368187,"current_range_meters":11200,"station_id":"ce4bh292rcd13ifvqdg0","pricing_plan_id":"cebpf4jnsgd1na2vs0mg"},{"bike_id":"f4165607-80d2-4e6e-8b9c-c523c42872fb","system_id":"levelo_inurba_marseille","lat":43.24795,"lon":5.37473,"is_reserved":false,"is_disabled":false,"rental_uris":{"android":"levelo://app?vid=f4165607-80d2-4e6e-8b9c-c523c42872fb","ios":"levelo://app?vid=f4165607-80d2-4e6e-8b9c-c523c42872fb"},"vehicle_type_id":"4","last_reported":1742368187,"current_range_meters":11200,"station_id":"ce4bhgh2rcd13ifvqfb0","pricing_plan_id":"cebpf4jnsgd1na2vs0mg"},{"bike_id":"bab53481-ee99-4570-8697-2f780131a218","system_id":"levelo_inurba_marseille","lat":43.29032,"lon":5.39982,"is_reserved":false,"is_disabled":false,"rental_uris":{"android":"levelo://app?vid=bab53481-ee99-4570-8697-2f780131a218","ios":"levelo://app?vid=bab53481-ee99-4570-8697-2f780131a218"},"vehicle_type_id":"4","last_reported":1742368187,"current_range_meters":11200,"station_id":"ce4bh392rcd13ifvqdm0","pricing_plan_id":"cebpf4jnsgd1na2vs0mg"},{"bike_id":"40519983-510e-4b9a-9562-e0995123f6e0","system_id":"levelo_inurba_marseille","lat":43.23187,"lon":5.35556,"is_reserved":false,"is_disabled":false,"rental_uris":{"android":"levelo://app?vid=40519983-510e-4b9a-9562-e0995123f6e0","ios":"levelo://app?vid=40519983-510e-4b9a-9562-e0995123f6e0"},"vehicle_type_id":"4","last_reported":1742368187,"current_range_meters":11200,"station_id":"ce4bhu92rcd13ifvqi70","pricing_plan_id":"cebpf4jnsgd1na2vs0mg"},{"bike_id":"94344c0c-c86f-4e16-b61d-11aacc1b7580","system_id":"levelo_inurba_marseille","lat":43.287263,"lon":5.465923,"is_reserved":false,"is_disabled":false,"rental_uris":{"android":"levelo://app?vid=94344c0c-c86f-4e16-b61d-11aacc1b7580","ios":"levelo://app?vid=94344c0c-c86f-4e16-b61d-11aacc1b7580"},"vehicle_type_id":"4","last_reported":1742368187,"current_range_meters":11200,"station_id":"","pricing_plan_id":"cebpf4jnsgd1na2vs0mg"},{"bike_id":"89a66d15-b2b9-456f-bf55-c28ef57a6652","system_id":"levelo_inurba_marseille","lat":43.2903,"lon":5.35947,"is_reserved":false,"is_disabled":false,"rental_uris":{"android":"levelo://app?vid=89a66d15-b2b9-456f-bf55-c28ef57a6652","ios":"levelo://app?vid=89a66d15-b2b9-456f-bf55-c28ef57a6652"},"vehicle_type_id":"4","last_reported":1742368187,"current_range_meters":11200,"station_id":"ce4bha92rcd13ifvqeg0","pricing_plan_id":"cebpf4jnsgd1na2vs0mg"},{"bike_id":"e60c1153-ceb4-4f72-92cd-2dc1051b5e4c","system_id":"levelo_inurba_marseille","lat":43.26066,"lon":5.39392,"is_reserved":false,"is_disabled":true,"rental_uris":{"android":"levelo://app?vid=e60c1153-ceb4-4f72-92cd-2dc1051b5e4c","ios":"levelo://app?vid=e60c1153-ceb4-4f72-92cd-2dc1051b5e4c"},"vehicle_type_id":"4","last_reported":1742368187,"current_range_meters":11600,"station_id":"ce4bhh92rcd13ifvqfj0","pricing_plan_id":"cebpf4jnsgd1na2vs0mg"},{"bike_id":"419aae3c-0cd5-4de2-b558-15bec2ef92d2","system_id":"levelo_inurba_marseille","lat":43.29603,"lon":5.38102,"is_reserved":false,"is_disabled":false,"rental_uris":{"android":"levelo://app?vid=419aae3c-0cd5-4de2-b558-15bec2ef92d2","ios":"levelo://app?vid=419aae3c-0cd5-4de2-b558-15bec2ef92d2"},"vehicle_type_id":"4","last_reported":1742368187,"current_range_meters":11600,"station_id":"ce4bgl12rcd13ifvqbo0","pricing_plan_id":"cebpf4jnsgd1na2vs0mg"},{"bike_id":"1e4afefa-7a47-4a84-8c62-59dc70217efb","system_id":"levelo_inurba_marseille","lat":43.27812,"lon":5.40736,"is_reserved":false,"is_disabled":false,"rental_uris":{"android":"levelo://app?vid=1e4afefa-7a47-4a84-8c62-59dc70217efb","ios":"levelo://app?vid=1e4afefa-7a47-4a84-8c62-59dc70217efb"},"vehicle_type_id":"4","last_reported":1742368187,"current_range_meters":11600,"station_id":"ce4bhnh2rcd13ifvqgtg","pricing_plan_id":"cebpf4jnsgd1na2vs0mg"},{"bike_id":"1eb28855-6a0c-4acf-9ce6-09e607480387","system_id":"levelo_inurba_marseille","lat":43.28036,"lon":5.36941,"is_reserved":false,"is_disabled":false,"rental_uris":{"android":"levelo://app?vid=1eb28855-6a0c-4acf-9ce6-09e607480387","ios":"levelo://app?vid=1eb28855-6a0c-4acf-9ce6-09e607480387"},"vehicle_type_id":"4","last_reported":1742368187,"current_range_meters":11600,"station_id":"ce4bha12rcd13ifvqef0","pricing_plan_id":"cebpf4jnsgd1na2vs0mg"},{"bike_id":"b852d01e-3671-4e92-8904-1a81c6a31cce","system_id":"levelo_inurba_marseille","lat":43.30913,"lon":5.36863,"is_reserved":false,"is_disabled":false,"rental_uris":{"android":"levelo://app?vid=b852d01e-3671-4e92-8904-1a81c6a31cce","ios":"levelo://app?vid=b852d01e-3671-4e92-8904-1a81c6a31cce"},"vehicle_type_id":"4","last_reported":1742368187,"current_range_meters":11200,"station_id":"ce4bgn92rcd13ifvqbvg","pricing_plan_id":"cebpf4jnsgd1na2vs0mg"},{"bike_id":"26c3156d-8d38-4b11-92b6-f3f49ed4bf9b","system_id":"levelo_inurba_marseille","lat":43.279036,"lon":5.412106,"is_reserved":false,"is_disabled":false,"rental_uris":{"android":"levelo://app?vid=26c3156d-8d38-4b11-92b6-f3f49ed4bf9b","ios":"levelo://app?vid=26c3156d-8d38-4b11-92b6-f3f49ed4bf9b"},"vehicle_type_id":"4","last_reported":1742368187,"current_range_meters":11600,"station_id":"","pricing_plan_id":"cebpf4jnsgd1na2vs0mg"},{"bike_id":"6138b640-3a79-45fe-b651-9195792b5201","system_id":"levelo_inurba_marseille","lat":43.23951,"lon":5.36656,"is_reserved":false,"is_disabled":false,"rental_uris":{"android":"levelo://app?vid=6138b640-3a79-45fe-b651-9195792b5201","ios":"levelo://app?vid=6138b640-3a79-45fe-b651-9195792b5201"},"vehicle_type_id":"4","last_reported":1742368187,"current_range_meters":11600,"station_id":"ce4bhi12rcd13ifvqfp0","pricing_plan_id":"cebpf4jnsgd1na2vs0mg"},{"bike_id":"3259b682-e4dc-4a27-895a-2ee089a67444","system_id":"levelo_inurba_marseille","lat":43.28624,"lon":5.41281,"is_reserved":false,"is_disabled":false,"rental_uris":{"android":"levelo://app?vid=3259b682-e4dc-4a27-895a-2ee089a67444","ios":"levelo://app?vid=3259b682-e4dc-4a27-895a-2ee089a67444"},"vehicle_type_id":"4","last_reported":1742368187,"current_range_meters":11600,"station_id":"","pricing_plan_id":"cebpf4jnsgd1na2vs0mg"},{"bike_id":"dcd9ef25-6255-4c20-a5e8-75f644b14e29","system_id":"levelo_inurba_marseille","lat":43.3171,"lon":5.37743,"is_reserved":false,"is_disabled":false,"rental_uris":{"android":"levelo://app?vid=dcd9ef25-6255-4c20-a5e8-75f644b14e29","ios":"levelo://app?vid=dcd9ef25-6255-4c20-a5e8-75f644b14e29"},"vehicle_type_id":"4","last_reported":1742368187,"current_range_meters":11600,"station_id":"ce4bgth2rcd13ifvqch0","pricing_plan_id":"cebpf4jnsgd1na2vs0mg"},{"bike_id":"d92b2aca-e173-4b5d-8754-67afd6d56858","system_id":"levelo_inurba_marseille","lat":43.2851,"lon":5.35847,"is_reserved":false,"is_disabled":false,"rental_uris":{"android":"levelo://app?vid=d92b2aca-e173-4b5d-8754-67afd6d56858","ios":"levelo://app?vid=d92b2aca-e173-4b5d-8754-67afd6d56858"},"vehicle_type_id":"4","last_reported":1742368187,"current_range_meters":11600,"station_id":"ce4bhah2rcd13ifvqei0","pricing_plan_id":"cebpf4jnsgd1na2vs0mg"},{"bike_id":"860975fd-6715-42b2-9d40-fbcaf6f2b6b5","system_id":"levelo_inurba_marseille","lat":43.28991,"lon":5.37829,"is_reserved":false,"is_disabled":false,"rental_uris":{"android":"levelo://app?vid=860975fd-6715-42b2-9d40-fbcaf6f2b6b5","ios":"levelo://app?vid=860975fd-6715-42b2-9d40-fbcaf6f2b6b5"},"vehicle_type_id":"4","last_reported":1742368187,"current_range_meters":11600,"station_id":"ce4bh9p2rcd13ifvqed0","pricing_plan_id":"cebpf4jnsgd1na2vs0mg"},{"bike_id":"14040204-5465-4db0-ab0e-41e91dfa7e0d","system_id":"levelo_inurba_marseille","lat":43.31384,"lon":5.37444,"is_reserved":false,"is_disabled":false,"rental_uris":{"android":"levelo://app?vid=14040204-5465-4db0-ab0e-41e91dfa7e0d","ios":"levelo://app?vid=14040204-5465-4db0-ab0e-41e91dfa7e0d"},"vehicle_type_id":"4","last_reported":1742368187,"current_range_meters":12000,"station_id":"","pricing_plan_id":"cebpf4jnsgd1na2vs0mg"},{"bike_id":"95335876-88d4-4fc9-816f-c9a7c105be3e","system_id":"levelo_inurba_marseille","lat":43.27941,"lon":5.41055,"is_reserved":false,"is_disabled":false,"rental_uris":{"android":"levelo://app?vid=95335876-88d4-4fc9-816f-c9a7c105be3e","ios":"levelo://app?vid=95335876-88d4-4fc9-816f-c9a7c105be3e"},"vehicle_type_id":"4","last_reported":1742368187,"current_range_meters":12000,"station_id":"ce4bhnp2rcd13ifvqh0g","pricing_plan_id":"cebpf4jnsgd1na2vs0mg"},{"bike_id":"669efc5f-3868-4777-858d-7762a513b807","system_id":"levelo_inurba_marseille","lat":43.28336,"lon":5.38092,"is_reserved":false,"is_disabled":false,"rental_uris":{"android":"levelo://app?vid=669efc5f-3868-4777-858d-7762a513b807","ios":"levelo://app?vid=669efc5f-3868-4777-858d-7762a513b807"},"vehicle_type_id":"4","last_reported":1742368187,"current_range_meters":12000,"station_id":"ce4bh412rcd13ifvqdr0","pricing_plan_id":"cebpf4jnsgd1na2vs0mg"},{"bike_id":"5e07b34e-5151-4825-afa5-72777afe71ba","system_id":"levelo_inurba_marseille","lat":43.27489,"lon":5.42452,"is_reserved":false,"is_disabled":false,"rental_uris":{"android":"levelo://app?vid=5e07b34e-5151-4825-afa5-72777afe71ba","ios":"levelo://app?vid=5e07b34e-5151-4825-afa5-72777afe71ba"},"vehicle_type_id":"4","last_reported":1742368187,"current_range_meters":12000,"station_id":"ce4bhn92rcd13ifvqgrg","pricing_plan_id":"cebpf4jnsgd1na2vs0mg"},{"bike_id":"f7ec7579-ce4b-4e1f-8f96-ae037f27d71a","system_id":"levelo_inurba_marseille","lat":43.28611,"lon":5.35103,"is_reserved":false,"is_disabled":false,"rental_uris":{"android":"levelo://app?vid=f7ec7579-ce4b-4e1f-8f96-ae037f27d71a","ios":"levelo://app?vid=f7ec7579-ce4b-4e1f-8f96-ae037f27d71a"},"vehicle_type_id":"4","last_reported":1742368187,"current_range_meters":12000,"station_id":"ce4bhch2rcd13ifvqeug","pricing_plan_id":"cebpf4jnsgd1na2vs0mg"},{"bike_id":"f1dcd5b6-294c-4f9f-a5dc-52ba2710eacb","system_id":"levelo_inurba_marseille","lat":43.23183,"lon":5.39997,"is_reserved":false,"is_disabled":false,"rental_uris":{"android":"levelo://app?vid=f1dcd5b6-294c-4f9f-a5dc-52ba2710eacb","ios":"levelo://app?vid=f1dcd5b6-294c-4f9f-a5dc-52ba2710eacb"},"vehicle_type_id":"4","last_reported":1742368187,"current_range_meters":12000,"station_id":"ce4bhn12rcd13ifvqgqg","pricing_plan_id":"cebpf4jnsgd1na2vs0mg"},{"bike_id":"c03bf0bc-bd13-4839-83fb-cde67bd118c3","system_id":"levelo_inurba_marseille","lat":43.27493,"lon":5.42462,"is_reserved":false,"is_disabled":false,"rental_uris":{"android":"levelo://app?vid=c03bf0bc-bd13-4839-83fb-cde67bd118c3","ios":"levelo://app?vid=c03bf0bc-bd13-4839-83fb-cde67bd118c3"},"vehicle_type_id":"4","last_reported":1742368187,"current_range_meters":12000,"station_id":"ce4bhn92rcd13ifvqgrg","pricing_plan_id":"cebpf4jnsgd1na2vs0mg"},{"bike_id":"75e8bee3-0a10-4522-9d7e-72ece2846129","system_id":"levelo_inurba_marseille","lat":43.33026,"lon":5.39046,"is_reserved":false,"is_disabled":false,"rental_uris":{"android":"levelo://app?vid=75e8bee3-0a10-4522-9d7e-72ece2846129","ios":"levelo://app?vid=75e8bee3-0a10-4522-9d7e-72ece2846129"},"vehicle_type_id":"4","last_reported":1742368187,"current_range_meters":12000,"station_id":"ce4bhr92rcd13ifvqhrg","pricing_plan_id":"cebpf4jnsgd1na2vs0mg"},{"bike_id":"eb1bdab6-cce9-43ab-9ab1-efcd014e54ae","system_id":"levelo_inurba_marseille","lat":43.29029,"lon":5.3592,"is_reserved":false,"is_disabled":false,"rental_uris":{"android":"levelo://app?vid=eb1bdab6-cce9-43ab-9ab1-efcd014e54ae","ios":"levelo://app?vid=eb1bdab6-cce9-43ab-9ab1-efcd014e54ae"},"vehicle_type_id":"4","last_reported":1742368187,"current_range_meters":12000,"station_id":"ce4bha92rcd13ifvqeg0","pricing_plan_id":"cebpf4jnsgd1na2vs0mg"},{"bike_id":"aadb2f8c-155c-4734-84dd-a0e3df2d0be8","system_id":"levelo_inurba_marseille","lat":43.30798,"lon":5.43528,"is_reserved":false,"is_disabled":true,"rental_uris":{"android":"levelo://app?vid=aadb2f8c-155c-4734-84dd-a0e3df2d0be8","ios":"levelo://app?vid=aadb2f8c-155c-4734-84dd-a0e3df2d0be8"},"vehicle_type_id":"4","last_reported":1742368187,"current_range_meters":12000,"station_id":"ce4bhph2rcd13ifvqheg","pricing_plan_id":"cebpf4jnsgd1na2vs0mg"},{"bike_id":"92d8111d-dc94-481c-a128-adb8a5cd5d90","system_id":"levelo_inurba_marseille","lat":43.2622,"lon":5.40468,"is_reserved":false,"is_disabled":false,"rental_uris":{"android":"levelo://app?vid=92d8111d-dc94-481c-a128-adb8a5cd5d90","ios":"levelo://app?vid=92d8111d-dc94-481c-a128-adb8a5cd5d90"},"vehicle_type_id":"4","last_reported":1742368187,"current_range_meters":12000,"station_id":"ce4bhmh2rcd13ifvqgmg","pricing_plan_id":"cebpf4jnsgd1na2vs0mg"},{"bike_id":"5ba84a7a-2301-4588-acb7-3959e8f66676","system_id":"levelo_inurba_marseille","lat":43.29933,"lon":5.36531,"is_reserved":false,"is_disabled":false,"rental_uris":{"android":"levelo://app?vid=5ba84a7a-2301-4588-acb7-3959e8f66676","ios":"levelo://app?vid=5ba84a7a-2301-4588-acb7-3959e8f66676"},"vehicle_type_id":"4","last_reported":1742368187,"current_range_meters":12400,"station_id":"ce4bgm92rcd13ifvqbr0","pricing_plan_id":"cebpf4jnsgd1na2vs0mg"},{"bike_id":"b6cec0a8-8151-4282-95b3-b7e2e2bb4ad7","system_id":"levelo_inurba_marseille","lat":43.29565,"lon":5.37517,"is_reserved":false,"is_disabled":false,"rental_uris":{"android":"levelo://app?vid=b6cec0a8-8151-4282-95b3-b7e2e2bb4ad7","ios":"levelo://app?vid=b6cec0a8-8151-4282-95b3-b7e2e2bb4ad7"},"vehicle_type_id":"4","last_reported":1742368187,"current_range_meters":12400,"station_id":"ce4bgh92rcd13ifvqb50","pricing_plan_id":"cebpf4jnsgd1na2vs0mg"},{"bike_id":"3a93b571-ed30-4cd4-aca9-8a8fdc87a1c6","system_id":"levelo_inurba_marseille","lat":43.23966,"lon":5.36639,"is_reserved":false,"is_disabled":false,"rental_uris":{"android":"levelo://app?vid=3a93b571-ed30-4cd4-aca9-8a8fdc87a1c6","ios":"levelo://app?vid=3a93b571-ed30-4cd4-aca9-8a8fdc87a1c6"},"vehicle_type_id":"4","last_reported":1742368187,"current_range_meters":12400,"station_id":"ce4bhi12rcd13ifvqfp0","pricing_plan_id":"cebpf4jnsgd1na2vs0mg"},{"bike_id":"827ba91a-2c1b-4df0-8fbe-d0c133e6b435","system_id":"levelo_inurba_marseille","lat":43.2979,"lon":5.4473,"is_reserved":false,"is_disabled":false,"rental_uris":{"android":"levelo://app?vid=827ba91a-2c1b-4df0-8fbe-d0c133e6b435","ios":"levelo://app?vid=827ba91a-2c1b-4df0-8fbe-d0c133e6b435"},"vehicle_type_id":"4","last_reported":1742368187,"current_range_meters":12400,"station_id":"","pricing_plan_id":"cebpf4jnsgd1na2vs0mg"},{"bike_id":"44187d56-76b6-47dd-b47f-67b36cbb1a5a","system_id":"levelo_inurba_marseille","lat":43.26555,"lon":5.37291,"is_reserved":false,"is_disabled":false,"rental_uris":{"android":"levelo://app?vid=44187d56-76b6-47dd-b47f-67b36cbb1a5a","ios":"levelo://app?vid=44187d56-76b6-47dd-b47f-67b36cbb1a5a"},"vehicle_type_id":"4","last_reported":1742368187,"current_range_meters":12400,"station_id":"ce4bhg12rcd13ifvqf70","pricing_plan_id":"cebpf4jnsgd1na2vs0mg"},{"bike_id":"ee1884a5-ef61-4830-a4ed-e618726e4546","system_id":"levelo_inurba_marseille","lat":43.29793,"lon":5.38094,"is_reserved":false,"is_disabled":false,"rental_uris":{"android":"levelo://app?vid=ee1884a5-ef61-4830-a4ed-e618726e4546","ios":"levelo://app?vid=ee1884a5-ef61-4830-a4ed-e618726e4546"},"vehicle_type_id":"4","last_reported":1742368187,"current_range_meters":12800,"station_id":"ce4bgip2rcd13ifvqbb0","pricing_plan_id":"cebpf4jnsgd1na2vs0mg"},{"bike_id":"e62c4628-e02c-4d18-93a4-2f038fe4001c","system_id":"levelo_inurba_marseille","lat":43.27488,"lon":5.42462,"is_reserved":false,"is_disabled":false,"rental_uris":{"android":"levelo://app?vid=e62c4628-e02c-4d18-93a4-2f038fe4001c","ios":"levelo://app?vid=e62c4628-e02c-4d18-93a4-2f038fe4001c"},"vehicle_type_id":"4","last_reported":1742368187,"current_range_meters":12800,"station_id":"ce4bhn92rcd13ifvqgrg","pricing_plan_id":"cebpf4jnsgd1na2vs0mg"},{"bike_id":"f97f3241-4274-4450-af5d-8c68f271d09d","system_id":"levelo_inurba_marseille","lat":43.29039,"lon":5.38632,"is_reserved":false,"is_disabled":true,"rental_uris":{"android":"levelo://app?vid=f97f3241-4274-4450-af5d-8c68f271d09d","ios":"levelo://app?vid=f97f3241-4274-4450-af5d-8c68f271d09d"},"vehicle_type_id":"4","last_reported":1742368187,"current_range_meters":12800,"station_id":"ce4bh4p2rcd13ifvqe0g","pricing_plan_id":"cebpf4jnsgd1na2vs0mg"},{"bike_id":"058e51a4-3487-4245-ad8a-a3458153d2ed","system_id":"levelo_inurba_marseille","lat":43.30157,"lon":5.38079,"is_reserved":false,"is_disabled":false,"rental_uris":{"android":"levelo://app?vid=058e51a4-3487-4245-ad8a-a3458153d2ed","ios":"levelo://app?vid=058e51a4-3487-4245-ad8a-a3458153d2ed"},"vehicle_type_id":"4","last_reported":1742368187,"current_range_meters":13600,"station_id":"ce4bgjp2rcd13ifvqbh0","pricing_plan_id":"cebpf4jnsgd1na2vs0mg"},{"bike_id":"d7f2963b-8e65-4e56-856d-76ea32190275","system_id":"levelo_inurba_marseille","lat":43.28415,"lon":5.37502,"is_reserved":false,"is_disabled":false,"rental_uris":{"android":"levelo://app?vid=d7f2963b-8e65-4e56-856d-76ea32190275","ios":"levelo://app?vid=d7f2963b-8e65-4e56-856d-76ea32190275"},"vehicle_type_id":"4","last_reported":1742368187,"current_range_meters":13600,"station_id":"ce4bh412rcd13ifvqds0","pricing_plan_id":"cebpf4jnsgd1na2vs0mg"},{"bike_id":"b0d2fd39-c5b7-4eb0-bbb9-af7d841ce0e3","system_id":"levelo_inurba_marseille","lat":43.241658,"lon":5.364052,"is_reserved":false,"is_disabled":true,"rental_uris":{"android":"levelo://app?vid=b0d2fd39-c5b7-4eb0-bbb9-af7d841ce0e3","ios":"levelo://app?vid=b0d2fd39-c5b7-4eb0-bbb9-af7d841ce0e3"},"vehicle_type_id":"4","last_reported":1742368187,"current_range_meters":13600,"station_id":"cpo36qri1sfpv3e86is0","pricing_plan_id":"cebpf4jnsgd1na2vs0mg"},{"bike_id":"ae888dcd-8c55-4227-acad-e1e2b2b9c9df","system_id":"levelo_inurba_marseille","lat":43.29938,"lon":5.36532,"is_reserved":false,"is_disabled":false,"rental_uris":{"android":"levelo://app?vid=ae888dcd-8c55-4227-acad-e1e2b2b9c9df","ios":"levelo://app?vid=ae888dcd-8c55-4227-acad-e1e2b2b9c9df"},"vehicle_type_id":"4","last_reported":1742368187,"current_range_meters":13600,"station_id":"ce4bgm92rcd13ifvqbr0","pricing_plan_id":"cebpf4jnsgd1na2vs0mg"},{"bike_id":"96e343bd-79d6-4e3f-b7dd-d78e5f35d6d8","system_id":"levelo_inurba_marseille","lat":43.28153,"lon":5.42647,"is_reserved":false,"is_disabled":false,"rental_uris":{"android":"levelo://app?vid=96e343bd-79d6-4e3f-b7dd-d78e5f35d6d8","ios":"levelo://app?vid=96e343bd-79d6-4e3f-b7dd-d78e5f35d6d8"},"vehicle_type_id":"4","last_reported":1742368187,"current_range_meters":13600,"station_id":"ce4bhnh2rcd13ifvqgug","pricing_plan_id":"cebpf4jnsgd1na2vs0mg"},{"bike_id":"4bb084c1-7055-4fe8-8fa0-918e67c89a12","system_id":"levelo_inurba_marseille","lat":43.28414,"lon":5.34981,"is_reserved":false,"is_disabled":false,"rental_uris":{"android":"levelo://app?vid=4bb084c1-7055-4fe8-8fa0-918e67c89a12","ios":"levelo://app?vid=4bb084c1-7055-4fe8-8fa0-918e67c89a12"},"vehicle_type_id":"4","last_reported":1742368187,"current_range_meters":14000,"station_id":"ce4bhbh2rcd13ifvqepg","pricing_plan_id":"cebpf4jnsgd1na2vs0mg"},{"bike_id":"e43e1df3-23ee-492f-91d0-10148cea6a83","system_id":"levelo_inurba_marseille","lat":43.2781,"lon":5.40714,"is_reserved":false,"is_disabled":false,"rental_uris":{"android":"levelo://app?vid=e43e1df3-23ee-492f-91d0-10148cea6a83","ios":"levelo://app?vid=e43e1df3-23ee-492f-91d0-10148cea6a83"},"vehicle_type_id":"4","last_reported":1742368187,"current_range_meters":14000,"station_id":"ce4bhnh2rcd13ifvqgtg","pricing_plan_id":"cebpf4jnsgd1na2vs0mg"},{"bike_id":"4884b938-3bf9-4b10-9298-409793c47f4c","system_id":"levelo_inurba_marseille","lat":43.30468,"lon":5.37909,"is_reserved":false,"is_disabled":false,"rental_uris":{"android":"levelo://app?vid=4884b938-3bf9-4b10-9298-409793c47f4c","ios":"levelo://app?vid=4884b938-3bf9-4b10-9298-409793c47f4c"},"vehicle_type_id":"4","last_reported":1742368187,"current_range_meters":14000,"station_id":"ce4bgup2rcd13ifvqcn0","pricing_plan_id":"cebpf4jnsgd1na2vs0mg"},{"bike_id":"42c7c2b3-3db4-47b4-98db-e4a4d9037f24","system_id":"levelo_inurba_marseille","lat":43.30811,"lon":5.38174,"is_reserved":false,"is_disabled":false,"rental_uris":{"android":"levelo://app?vid=42c7c2b3-3db4-47b4-98db-e4a4d9037f24","ios":"levelo://app?vid=42c7c2b3-3db4-47b4-98db-e4a4d9037f24"},"vehicle_type_id":"4","last_reported":1742368187,"current_range_meters":14000,"station_id":"ce4bhl92rcd13ifvqghg","pricing_plan_id":"cebpf4jnsgd1na2vs0mg"},{"bike_id":"1b6c7be3-00d3-4063-b5d2-97e0e6cf22b8","system_id":"levelo_inurba_marseille","lat":43.29205,"lon":5.35822,"is_reserved":false,"is_disabled":false,"rental_uris":{"android":"levelo://app?vid=1b6c7be3-00d3-4063-b5d2-97e0e6cf22b8","ios":"levelo://app?vid=1b6c7be3-00d3-4063-b5d2-97e0e6cf22b8"},"vehicle_type_id":"4","last_reported":1742368187,"current_range_meters":14000,"station_id":"ce4bhb12rcd13ifvqel0","pricing_plan_id":"cebpf4jnsgd1na2vs0mg"},{"bike_id":"202cf808-cc43-4e17-81cc-6677fd4bcb68","system_id":"levelo_inurba_marseille","lat":43.29779,"lon":5.39368,"is_reserved":false,"is_disabled":false,"rental_uris":{"android":"levelo://app?vid=202cf808-cc43-4e17-81cc-6677fd4bcb68","ios":"levelo://app?vid=202cf808-cc43-4e17-81cc-6677fd4bcb68"},"vehicle_type_id":"4","last_reported":1742368187,"current_range_meters":14000,"station_id":"chh1huq6cuj3fo74tm60","pricing_plan_id":"cebpf4jnsgd1na2vs0mg"},{"bike_id":"9f30ca48-676f-48ca-93ee-f0dd33c2d4f6","system_id":"levelo_inurba_marseille","lat":43.28935,"lon":5.36407,"is_reserved":false,"is_disabled":false,"rental_uris":{"android":"levelo://app?vid=9f30ca48-676f-48ca-93ee-f0dd33c2d4f6","ios":"levelo://app?vid=9f30ca48-676f-48ca-93ee-f0dd33c2d4f6"},"vehicle_type_id":"4","last_reported":1742368187,"current_range_meters":14000,"station_id":"ce4bhc92rcd13ifvqetg","pricing_plan_id":"cebpf4jnsgd1na2vs0mg"},{"bike_id":"3caca121-c6ee-4ecb-b642-704be86e8f2d","system_id":"levelo_inurba_marseille","lat":43.23183,"lon":5.39983,"is_reserved":false,"is_disabled":false,"rental_uris":{"android":"levelo://app?vid=3caca121-c6ee-4ecb-b642-704be86e8f2d","ios":"levelo://app?vid=3caca121-c6ee-4ecb-b642-704be86e8f2d"},"vehicle_type_id":"4","last_reported":1742368187,"current_range_meters":14000,"station_id":"ce4bhn12rcd13ifvqgqg","pricing_plan_id":"cebpf4jnsgd1na2vs0mg"},{"bike_id":"0d48238a-a936-4ed8-8efd-04ccecead748","system_id":"levelo_inurba_marseille","lat":43.25575,"lon":5.38237,"is_reserved":false,"is_disabled":false,"rental_uris":{"android":"levelo://app?vid=0d48238a-a936-4ed8-8efd-04ccecead748","ios":"levelo://app?vid=0d48238a-a936-4ed8-8efd-04ccecead748"},"vehicle_type_id":"4","last_reported":1742368187,"current_range_meters":14000,"station_id":"ce4bhih2rcd13ifvqfs0","pricing_plan_id":"cebpf4jnsgd1na2vs0mg"},{"bike_id":"308d9482-2ea5-474f-a039-beb909d1aca5","system_id":"levelo_inurba_marseille","lat":43.27958,"lon":5.41051,"is_reserved":false,"is_disabled":true,"rental_uris":{"android":"levelo://app?vid=308d9482-2ea5-474f-a039-beb909d1aca5","ios":"levelo://app?vid=308d9482-2ea5-474f-a039-beb909d1aca5"},"vehicle_type_id":"4","last_reported":1742368187,"current_range_meters":14000,"station_id":"ce4bhnp2rcd13ifvqh0g","pricing_plan_id":"cebpf4jnsgd1na2vs0mg"},{"bike_id":"f5c3ae74-c1e7-4312-aaf8-ca982ce92b47","system_id":"levelo_inurba_marseille","lat":43.2499,"lon":5.38967,"is_reserved":false,"is_disabled":false,"rental_uris":{"android":"levelo://app?vid=f5c3ae74-c1e7-4312-aaf8-ca982ce92b47","ios":"levelo://app?vid=f5c3ae74-c1e7-4312-aaf8-ca982ce92b47"},"vehicle_type_id":"4","last_reported":1742368187,"current_range_meters":14000,"station_id":"ce4bhgp2rcd13ifvqfd0","pricing_plan_id":"cebpf4jnsgd1na2vs0mg"},{"bike_id":"5c8487e8-96e5-47d7-8a32-a95534fa76ce","system_id":"levelo_inurba_marseille","lat":43.28475,"lon":5.38424,"is_reserved":false,"is_disabled":false,"rental_uris":{"android":"levelo://app?vid=5c8487e8-96e5-47d7-8a32-a95534fa76ce","ios":"levelo://app?vid=5c8487e8-96e5-47d7-8a32-a95534fa76ce"},"vehicle_type_id":"4","last_reported":1742368187,"current_range_meters":13600,"station_id":"ce4bh512rcd13ifvqe3g","pricing_plan_id":"cebpf4jnsgd1na2vs0mg"},{"bike_id":"02f43b01-3b74-45fa-a40e-2df823c84cda","system_id":"levelo_inurba_marseille","lat":43.24165,"lon":5.39716,"is_reserved":false,"is_disabled":false,"rental_uris":{"android":"levelo://app?vid=02f43b01-3b74-45fa-a40e-2df823c84cda","ios":"levelo://app?vid=02f43b01-3b74-45fa-a40e-2df823c84cda"},"vehicle_type_id":"4","last_reported":1742368187,"current_range_meters":14000,"station_id":"ce4bhn12rcd13ifvqgpg","pricing_plan_id":"cebpf4jnsgd1na2vs0mg"},{"bike_id":"0487a772-a454-40c0-9f20-9f9316872a61","system_id":"levelo_inurba_marseille","lat":43.29556,"lon":5.42283,"is_reserved":false,"is_disabled":false,"rental_uris":{"android":"levelo://app?vid=0487a772-a454-40c0-9f20-9f9316872a61","ios":"levelo://app?vid=0487a772-a454-40c0-9f20-9f9316872a61"},"vehicle_type_id":"4","last_reported":1742368187,"current_range_meters":14000,"station_id":"ce4bhph2rcd13ifvqhdg","pricing_plan_id":"cebpf4jnsgd1na2vs0mg"},{"bike_id":"9d26c008-8ec1-4269-9cd2-f45774f03ccb","system_id":"levelo_inurba_marseille","lat":43.27981,"lon":5.37956,"is_reserved":false,"is_disabled":false,"rental_uris":{"android":"levelo://app?vid=9d26c008-8ec1-4269-9cd2-f45774f03ccb","ios":"levelo://app?vid=9d26c008-8ec1-4269-9cd2-f45774f03ccb"},"vehicle_type_id":"4","last_reported":1742368187,"current_range_meters":14000,"station_id":"","pricing_plan_id":"cebpf4jnsgd1na2vs0mg"},{"bike_id":"2a8d133d-961d-4660-a78a-bb4a11ccea95","system_id":"levelo_inurba_marseille","lat":43.27804,"lon":5.40724,"is_reserved":false,"is_disabled":false,"rental_uris":{"android":"levelo://app?vid=2a8d133d-961d-4660-a78a-bb4a11ccea95","ios":"levelo://app?vid=2a8d133d-961d-4660-a78a-bb4a11ccea95"},"vehicle_type_id":"4","last_reported":1742368187,"current_range_meters":14000,"station_id":"ce4bhnh2rcd13ifvqgtg","pricing_plan_id":"cebpf4jnsgd1na2vs0mg"},{"bike_id":"176d2e0b-da43-4b98-b92e-b45d4ab12b2f","system_id":"levelo_inurba_marseille","lat":43.302129,"lon":5.384552,"is_reserved":false,"is_disabled":false,"rental_uris":{"android":"levelo://app?vid=176d2e0b-da43-4b98-b92e-b45d4ab12b2f","ios":"levelo://app?vid=176d2e0b-da43-4b98-b92e-b45d4ab12b2f"},"vehicle_type_id":"4","last_reported":1742368187,"current_range_meters":14000,"station_id":"","pricing_plan_id":"cebpf4jnsgd1na2vs0mg"},{"bike_id":"1c455d45-5846-4d42-a25a-e6c2271a63ea","system_id":"levelo_inurba_marseille","lat":43.27329,"lon":5.3907,"is_reserved":false,"is_disabled":false,"rental_uris":{"android":"levelo://app?vid=1c455d45-5846-4d42-a25a-e6c2271a63ea","ios":"levelo://app?vid=1c455d45-5846-4d42-a25a-e6c2271a63ea"},"vehicle_type_id":"4","last_reported":1742368187,"current_range_meters":14000,"station_id":"ce4bhgp2rcd13ifvqfe0","pricing_plan_id":"cebpf4jnsgd1na2vs0mg"},{"bike_id":"17292a42-d255-4dea-9451-b2e0c37d927d","system_id":"levelo_inurba_marseille","lat":43.31738,"lon":5.38777,"is_reserved":false,"is_disabled":false,"rental_uris":{"android":"levelo://app?vid=17292a42-d255-4dea-9451-b2e0c37d927d","ios":"levelo://app?vid=17292a42-d255-4dea-9451-b2e0c37d927d"},"vehicle_type_id":"4","last_reported":1742368187,"current_range_meters":14400,"station_id":"","pricing_plan_id":"cebpf4jnsgd1na2vs0mg"},{"bike_id":"44647773-1fb5-4bbf-972a-f8fec5a4f217","system_id":"levelo_inurba_marseille","lat":43.30885,"lon":5.40262,"is_reserved":false,"is_disabled":false,"rental_uris":{"android":"levelo://app?vid=44647773-1fb5-4bbf-972a-f8fec5a4f217","ios":"levelo://app?vid=44647773-1fb5-4bbf-972a-f8fec5a4f217"},"vehicle_type_id":"4","last_reported":1742368187,"current_range_meters":14400,"station_id":"","pricing_plan_id":"cebpf4jnsgd1na2vs0mg"},{"bike_id":"a289cc38-5006-492c-8c94-ed76614a14d0","system_id":"levelo_inurba_marseille","lat":43.25556,"lon":5.38243,"is_reserved":false,"is_disabled":false,"rental_uris":{"android":"levelo://app?vid=a289cc38-5006-492c-8c94-ed76614a14d0","ios":"levelo://app?vid=a289cc38-5006-492c-8c94-ed76614a14d0"},"vehicle_type_id":"4","last_reported":1742368187,"current_range_meters":14400,"station_id":"ce4bhih2rcd13ifvqfs0","pricing_plan_id":"cebpf4jnsgd1na2vs0mg"},{"bike_id":"75c8c815-e310-4857-badb-1ff95c15941b","system_id":"levelo_inurba_marseille","lat":43.30753,"lon":5.38005,"is_reserved":false,"is_disabled":false,"rental_uris":{"android":"levelo://app?vid=75c8c815-e310-4857-badb-1ff95c15941b","ios":"levelo://app?vid=75c8c815-e310-4857-badb-1ff95c15941b"},"vehicle_type_id":"4","last_reported":1742368187,"current_range_meters":14400,"station_id":"ce4bgup2rcd13ifvqcn0","pricing_plan_id":"cebpf4jnsgd1na2vs0mg"},{"bike_id":"84e141f2-a01b-47bf-b16e-31262f0bfcf2","system_id":"levelo_inurba_marseille","lat":43.24066,"lon":5.37763,"is_reserved":false,"is_disabled":false,"rental_uris":{"android":"levelo://app?vid=84e141f2-a01b-47bf-b16e-31262f0bfcf2","ios":"levelo://app?vid=84e141f2-a01b-47bf-b16e-31262f0bfcf2"},"vehicle_type_id":"4","last_reported":1742368187,"current_range_meters":14400,"station_id":"ce4bhnp2rcd13ifvqgvg","pricing_plan_id":"cebpf4jnsgd1na2vs0mg"},{"bike_id":"210b2a72-8464-41b3-9593-32f24d2b77ec","system_id":"levelo_inurba_marseille","lat":43.27844,"lon":5.4066,"is_reserved":false,"is_disabled":false,"rental_uris":{"android":"levelo://app?vid=210b2a72-8464-41b3-9593-32f24d2b77ec","ios":"levelo://app?vid=210b2a72-8464-41b3-9593-32f24d2b77ec"},"vehicle_type_id":"4","last_reported":1742368187,"current_range_meters":14800,"station_id":"","pricing_plan_id":"cebpf4jnsgd1na2vs0mg"},{"bike_id":"3fc95a18-7688-4f03-837d-1fefed2e1ff2","system_id":"levelo_inurba_marseille","lat":43.29827,"lon":5.38104,"is_reserved":false,"is_disabled":false,"rental_uris":{"android":"levelo://app?vid=3fc95a18-7688-4f03-837d-1fefed2e1ff2","ios":"levelo://app?vid=3fc95a18-7688-4f03-837d-1fefed2e1ff2"},"vehicle_type_id":"4","last_reported":1742368187,"current_range_meters":14800,"station_id":"ce4bgip2rcd13ifvqbb0","pricing_plan_id":"cebpf4jnsgd1na2vs0mg"},{"bike_id":"cd002deb-54b8-42dd-8cf9-1e01fdd8174d","system_id":"levelo_inurba_marseille","lat":43.31497,"lon":5.3731,"is_reserved":false,"is_disabled":false,"rental_uris":{"android":"levelo://app?vid=cd002deb-54b8-42dd-8cf9-1e01fdd8174d","ios":"levelo://app?vid=cd002deb-54b8-42dd-8cf9-1e01fdd8174d"},"vehicle_type_id":"4","last_reported":1742368187,"current_range_meters":14800,"station_id":"ce4bgt12rcd13ifvqcd0","pricing_plan_id":"cebpf4jnsgd1na2vs0mg"},{"bike_id":"e913b0cd-b2a6-4678-bba9-91b2476e2c22","system_id":"levelo_inurba_marseille","lat":43.24182,"lon":5.39726,"is_reserved":false,"is_disabled":false,"rental_uris":{"android":"levelo://app?vid=e913b0cd-b2a6-4678-bba9-91b2476e2c22","ios":"levelo://app?vid=e913b0cd-b2a6-4678-bba9-91b2476e2c22"},"vehicle_type_id":"4","last_reported":1742368187,"current_range_meters":14800,"station_id":"ce4bhn12rcd13ifvqgpg","pricing_plan_id":"cebpf4jnsgd1na2vs0mg"},{"bike_id":"fd78d565-e8af-4c6e-94e3-d92db15cedac","system_id":"levelo_inurba_marseille","lat":43.23156,"lon":5.437084,"is_reserved":false,"is_disabled":true,"rental_uris":{"android":"levelo://app?vid=fd78d565-e8af-4c6e-94e3-d92db15cedac","ios":"levelo://app?vid=fd78d565-e8af-4c6e-94e3-d92db15cedac"},"vehicle_type_id":"4","last_reported":1742368187,"current_range_meters":14800,"station_id":"ce4bhmp2rcd13ifvqgog","pricing_plan_id":"cebpf4jnsgd1na2vs0mg"},{"bike_id":"671210b1-9e8f-4893-953f-985ab8b97e34","system_id":"levelo_inurba_marseille","lat":43.32115,"lon":5.36795,"is_reserved":false,"is_disabled":false,"rental_uris":{"android":"levelo://app?vid=671210b1-9e8f-4893-953f-985ab8b97e34","ios":"levelo://app?vid=671210b1-9e8f-4893-953f-985ab8b97e34"},"vehicle_type_id":"4","last_reported":1742368187,"current_range_meters":14800,"station_id":"ce4bhrh2rcd13ifvqhug","pricing_plan_id":"cebpf4jnsgd1na2vs0mg"},{"bike_id":"249e687c-6192-4e65-ad46-42f35855b43d","system_id":"levelo_inurba_marseille","lat":43.30203,"lon":5.38078,"is_reserved":false,"is_disabled":false,"rental_uris":{"android":"levelo://app?vid=249e687c-6192-4e65-ad46-42f35855b43d","ios":"levelo://app?vid=249e687c-6192-4e65-ad46-42f35855b43d"},"vehicle_type_id":"4","last_reported":1742368187,"current_range_meters":15200,"station_id":"","pricing_plan_id":"cebpf4jnsgd1na2vs0mg"},{"bike_id":"cf824abf-b0e9-4815-97e1-521f1c7dc06c","system_id":"levelo_inurba_marseille","lat":43.306,"lon":5.39355,"is_reserved":false,"is_disabled":false,"rental_uris":{"android":"levelo://app?vid=cf824abf-b0e9-4815-97e1-521f1c7dc06c","ios":"levelo://app?vid=cf824abf-b0e9-4815-97e1-521f1c7dc06c"},"vehicle_type_id":"4","last_reported":1742368187,"current_range_meters":15200,"station_id":"ce4bh0p2rcd13ifvqd80","pricing_plan_id":"cebpf4jnsgd1na2vs0mg"},{"bike_id":"1c6e69be-b184-4136-ac73-5fb94dae4903","system_id":"levelo_inurba_marseille","lat":43.32368,"lon":5.38869,"is_reserved":false,"is_disabled":false,"rental_uris":{"android":"levelo://app?vid=1c6e69be-b184-4136-ac73-5fb94dae4903","ios":"levelo://app?vid=1c6e69be-b184-4136-ac73-5fb94dae4903"},"vehicle_type_id":"4","last_reported":1742368187,"current_range_meters":15200,"station_id":"ce4bhqp2rcd13ifvqhog","pricing_plan_id":"cebpf4jnsgd1na2vs0mg"},{"bike_id":"36171524-784d-4f5a-84fe-e4628286a384","system_id":"levelo_inurba_marseille","lat":43.29496,"lon":5.37957,"is_reserved":false,"is_disabled":false,"rental_uris":{"android":"levelo://app?vid=36171524-784d-4f5a-84fe-e4628286a384","ios":"levelo://app?vid=36171524-784d-4f5a-84fe-e4628286a384"},"vehicle_type_id":"4","last_reported":1742368187,"current_range_meters":15200,"station_id":"","pricing_plan_id":"cebpf4jnsgd1na2vs0mg"},{"bike_id":"471b8c1a-1a85-4080-b533-fb41f3dbfd81","system_id":"levelo_inurba_marseille","lat":43.23194,"lon":5.35565,"is_reserved":false,"is_disabled":false,"rental_uris":{"android":"levelo://app?vid=471b8c1a-1a85-4080-b533-fb41f3dbfd81","ios":"levelo://app?vid=471b8c1a-1a85-4080-b533-fb41f3dbfd81"},"vehicle_type_id":"4","last_reported":1742368187,"current_range_meters":15200,"station_id":"ce4bhu92rcd13ifvqi70","pricing_plan_id":"cebpf4jnsgd1na2vs0mg"},{"bike_id":"6e1b7554-d276-4569-91aa-b2407ae6e11d","system_id":"levelo_inurba_marseille","lat":43.23203,"lon":5.39953,"is_reserved":false,"is_disabled":false,"rental_uris":{"android":"levelo://app?vid=6e1b7554-d276-4569-91aa-b2407ae6e11d","ios":"levelo://app?vid=6e1b7554-d276-4569-91aa-b2407ae6e11d"},"vehicle_type_id":"4","last_reported":1742368187,"current_range_meters":15200,"station_id":"ce4bhn12rcd13ifvqgqg","pricing_plan_id":"cebpf4jnsgd1na2vs0mg"},{"bike_id":"a969a25a-4e38-49a2-a6d1-8bac8795f6af","system_id":"levelo_inurba_marseille","lat":43.30273,"lon":5.37718,"is_reserved":false,"is_disabled":false,"rental_uris":{"android":"levelo://app?vid=a969a25a-4e38-49a2-a6d1-8bac8795f6af","ios":"levelo://app?vid=a969a25a-4e38-49a2-a6d1-8bac8795f6af"},"vehicle_type_id":"4","last_reported":1742368187,"current_range_meters":14800,"station_id":"ce4bguh2rcd13ifvqcj0","pricing_plan_id":"cebpf4jnsgd1na2vs0mg"},{"bike_id":"b5314b92-b06b-4f9b-a2ed-1035a0a025a4","system_id":"levelo_inurba_marseille","lat":43.28709,"lon":5.37939,"is_reserved":false,"is_disabled":false,"rental_uris":{"android":"levelo://app?vid=b5314b92-b06b-4f9b-a2ed-1035a0a025a4","ios":"levelo://app?vid=b5314b92-b06b-4f9b-a2ed-1035a0a025a4"},"vehicle_type_id":"4","last_reported":1742368187,"current_range_meters":15200,"station_id":"ce4bh9p2rcd13ifvqec0","pricing_plan_id":"cebpf4jnsgd1na2vs0mg"},