{"last_updated":1730488066,"ttl":60,"version":"2.2","data":{"bikes":[{"bike_id":"4cf13f4a-64af-4166-b132-8fe405819188","system_id":"levelo_inurba_marseille","lat":43.25502,"lon":5.37655,"is_reserved":false,"is_disabled":false,"rental_uris":{"android":"levelo://app?vid=4cf13f4a-64af-4166-b132-8fe405819188","ios":"levelo://app?vid=4cf13f4a-64af-4166-b132-8fe405819188"},"vehicle_type_id":"4","last_reported":1730488066,"current_range_meters":24800,"station_id":"ce4bhh12rcd13ifvqff0","pricing_plan_id":"cebpf4jnsgd1na2vs0mg"},{"bike_id":"36d826ee-cf04-49f1-91ed-9dfd2b3e4728","system_id":"levelo_inurba_marseille","lat":43.29591,"lon":5.38105,"is_reserved":false,"is_disabled":false,"rental_uris":{"android":"levelo://app?vid=36d826ee-cf04-49f1-91ed-9dfd2b3e4728","ios":"levelo://app?vid=36d826ee-cf04-49f1-91ed-9dfd2b3e4728"},"vehicle_type_id":"4","last_reported":1730488066,"current_range_meters":36400,"station_id":"ce4bgl12rcd13ifvqbo0","pricing_plan_id":"cebpf4jnsgd1na2vs0mg"},{"bike_id":"7f47fea8-3b5e-437a-a31e-f4194bf70b17","system_id":"levelo_inurba_marseille","lat":43.24658,"lon":5.3816,"is_reserved":false,"is_disabled":false,"rental_uris":{"android":"levelo://app?vid=7f47fea8-3b5e-437a-a31e-f4194bf70b17","ios":"levelo://app?vid=7f47fea8-3b5e-437a-a31e-f4194bf70b17"},"vehicle_type_id":"4","last_reported":1730488066,"current_range_meters":33200,"station_id":"ce4bhih2rcd13ifvqfr0","pricing_plan_id":"cebpf4jnsgd1na2vs0mg"},{"bike_id":"2c8a4263-6f69-484f-8ecb-39d7c98fd1f6","system_id":"levelo_inurba_marseille","lat":43.29984,"lon":5.3718,"is_reserved":false,"is_disabled":false,"rental_uris":{"android":"levelo://app?vid=2c8a4263-6f69-484f-8ecb-39d7c98fd1f6","ios":"levelo://app?vid=2c8a4263-6f69-484f-8ecb-39d7c98fd1f6"},"vehicle_type_id":"4","last_reported":1730488066,"current_range_meters":36800,"station_id":"ce4bgr92rcd13ifvqc7g","pricing_plan_id":"cebpf4jnsgd1na2vs0mg"},{"bike_id":"157e70a5-60b7-48bc-96e0-f0f9bf2163e1","system_id":"levelo_inurba_marseille","lat":43.2847,"lon":5.38415,"is_reserved":false,"is_disabled":false,"rental_uris":{"android":"levelo://app?vid=157e70a5-60b7-48bc-96e0-f0f9bf2163e1","ios":"levelo://app?vid=157e70a5-60b7-48bc-96e0-f0f9bf2163e1"},"vehicle_type_id":"4","last_reported":1730488066,"current_range_meters":25600,"station_id":"ce4bh512rcd13ifvqe3g","pricing_plan_id":"cebpf4jnsgd1na2vs0mg"},{"bike_id":"8682c02d-b75e-4986-bf40-c0b0cf6578e7","system_id":"levelo_inurba_marseille","lat":43.32108,"lon":5.36777,"is_reserved":false,"is_disabled":false,"rental_uris":{"android":"levelo://app?vid=8682c02d-b75e-4986-bf40-c0b0cf6578e7","ios":"levelo://app?vid=8682c02d-b75e-4986-bf40-c0b0cf6578e7"},"vehicle_type_id":"4","last_reported":1730488066,"current_range_meters":6000,"station_id":"ce4bhrh2rcd13ifvqhug","pricing_plan_id":"cebpf4jnsgd1na2vs0mg"},{"bike_id":"4060b50c-15a4-41ff-9d32-c5b655d62ee3","system_id":"levelo_inurba_marseille","lat":43.28769,"lon":5.3902,"is_reserved":false,"is_disabled":false,"rental_uris":{"android":"levelo://app?vid=4060b50c-15a4-41ff-9d32-c5b655d62ee3","ios":"levelo://app?vid=4060b50c-15a4-41ff-9d32-c5b655d62ee3"},"vehicle_type_id":"4","last_reported":1730488066,"current_range_meters":8800,"station_id":"","pricing_plan_id":"cebpf4jnsgd1na2vs0mg"},{"bike_id":"f4585e26-1b29-48d3-8b37-58ec663397e9","system_id":"levelo_inurba_marseille","lat":43.28344,"lon":5.38103,"is_reserved":false,"is_disabled":false,"rental_uris":{"android":"levelo://app?vid=f4585e26-1b29-48d3-8b37-58ec663397e9","ios":"levelo://app?vid=f4585e26-1b29-48d3-8b37-58ec663397e9"},"vehicle_type_id":"4","last_reported":1730488066,"current_range_meters":38000,"station_id":"ce4bh412rcd13ifvqdr0","pricing_plan_id":"cebpf4jnsgd1na2vs0mg"},{"bike_id":"512c4bd5-3edb-49b7-a54a-bbe327a08aa0","system_id":"levelo_inurba_marseille","lat":43.25726,"lon":5.41114,"is_reserved":false,"is_disabled":false,"rental_uris":{"android":"levelo://app?vid=512c4bd5-3edb-49b7-a54a-bbe327a08aa0","ios":"levelo://app?vid=512c4bd5-3edb-49b7-a54a-bbe327a08aa0"},"vehicle_type_id":"4","last_reported":1730488066,"current_range_meters":16800,"station_id":"ce4bhkp2rcd13ifvqgd0","pricing_plan_id":"cebpf4jnsgd1na2vs0mg"},{"bike_id":"a4627486-a087-47d1-bdea-e9476cd49986","system_id":"levelo_inurba_marseille","lat":43.23189,"lon":5.35549,"is_reserved":false,"is_disabled":false,"rental_uris":{"android":"levelo://app?vid=a4627486-a087-47d1-bdea-e9476cd49986","ios":"levelo://app?vid=a4627486-a087-47d1-bdea-e9476cd49986"},"vehicle_type_id":"4","last_reported":1730488066,"current_range_meters":30000,"station_id":"ce4bhu92rcd13ifvqi70","pricing_plan_id":"cebpf4jnsgd1na2vs0mg"},{"bike_id":"98606055-e59c-468c-9d5f-0ff0d6cc7798","system_id":"levelo_inurba_marseille","lat":43.29597,"lon":5.38095,"is_reserved":false,"is_disabled":false,"rental_uris":{"android":"levelo://app?vid=98606055-e59c-468c-9d5f-0ff0d6cc7798","ios":"levelo://app?vid=98606055-e59c-468c-9d5f-0ff0d6cc7798"},"vehicle_type_id":"4","last_reported":1730488066,"current_range_meters":32400,"station_id":"ce4bgl12rcd13ifvqbo0","pricing_plan_id":"cebpf4jnsgd1na2vs0mg"},{"bike_id":"509a9bdc-ca48-4855-8040-748bb9b3087b","system_id":"levelo_inurba_marseille","lat":43.25936,"lon":5.40911,"is_reserved":false,"is_disabled":false,"rental_uris":{"android":"levelo://app?vid=509a9bdc-ca48-4855-8040-748bb9b3087b","ios":"levelo://app?vid=509a9bdc-ca48-4855-8040-748bb9b3087b"},"vehicle_type_id":"4","last_reported":1730488066,"current_range_meters":26000,"station_id":"ce4bhm92rcd13ifvqglg","pricing_plan_id":"cebpf4jnsgd1na2vs0mg"},{"bike_id":"bd607f33-e58c-48ff-a79f-d208b3653036","system_id":"levelo_inurba_marseille","lat":43.2455,"lon":5.39521,"is_reserved":false,"is_disabled":false,"rental_uris":{"android":"levelo://app?vid=bd607f33-e58c-48ff-a79f-d208b3653036","ios":"levelo://app?vid=bd607f33-e58c-48ff-a79f-d208b3653036"},"vehicle_type_id":"4","last_reported":1730488066,"current_range_meters":7200,"station_id":"ce4bhlp2rcd13ifvqgjg","pricing_plan_id":"cebpf4jnsgd1na2vs0mg"},{"bike_id":"fe897454-dffc-4f65-b97d-08e45f23a6e2","system_id":"levelo_inurba_marseille","lat":43.29166,"lon":5.3716,"is_reserved":false,"is_disabled":false,"rental_uris":{"android":"levelo://app?vid=fe897454-dffc-4f65-b97d-08e45f23a6e2","ios":"levelo://app?vid=fe897454-dffc-4f65-b97d-08e45f23a6e2"},"vehicle_type_id":"4","last_reported":1730488066,"current_range_meters":10000,"station_id":"ce4bha92rcd13ifvqeh0","pricing_plan_id":"cebpf4jnsgd1na2vs0mg"},{"bike_id":"efbe383f-83c6-4df5-ac1f-ffa8f2e0197b","system_id":"levelo_inurba_marseille","lat":43.31335,"lon":5.39699,"is_reserved":false,"is_disabled":false,"rental_uris":{"android":"levelo://app?vid=efbe383f-83c6-4df5-ac1f-ffa8f2e0197b","ios":"levelo://app?vid=efbe383f-83c6-4df5-ac1f-ffa8f2e0197b"},"vehicle_type_id":"4","last_reported":1730488066,"current_range_meters":8400,"station_id":"ce4bgvp2rcd13ifvqcu0","pricing_plan_id":"cebpf4jnsgd1na2vs0mg"},{"bike_id":"d2bed7db-ae5c-49c5-96f9-833c1b101e8d","system_id":"levelo_inurba_marseille","lat":43.30801,"lon":5.43525,"is_reserved":false,"is_disabled":false,"rental_uris":{"android":"levelo://app?vid=d2bed7db-ae5c-49c5-96f9-833c1b101e8d","ios":"levelo://app?vid=d2bed7db-ae5c-49c5-96f9-833c1b101e8d"},"vehicle_type_id":"4","last_reported":1730488066,"current_range_meters":3200,"station_id":"ce4bhph2rcd13ifvqheg","pricing_plan_id":"cebpf4jnsgd1na2vs0mg"},{"bike_id":"eead80c6-16a4-414f-bb42-55f7ee733971","system_id":"levelo_inurba_marseille","lat":43.30527,"lon":5.38433,"is_reserved":false,"is_disabled":false,"rental_uris":{"android":"levelo://app?vid=eead80c6-16a4-414f-bb42-55f7ee733971","ios":"levelo://app?vid=eead80c6-16a4-414f-bb42-55f7ee733971"},"vehicle_type_id":"4","last_reported":1730488066,"current_range_meters":5600,"station_id":"ce4bgg92rcd13ifvqb30","pricing_plan_id":"cebpf4jnsgd1na2vs0mg"},{"bike_id":"9372836d-5085-4681-8d53-b7d017ef6a3d","system_id":"levelo_inurba_marseille","lat":43.310699,"lon":5.383565,"is_reserved":false,"is_disabled":false,"rental_uris":{"android":"levelo://app?vid=9372836d-5085-4681-8d53-b7d017ef6a3d","ios":"levelo://app?vid=9372836d-5085-4681-8d53-b7d017ef6a3d"},"vehicle_type_id":"4","last_reported":1730488066,"current_range_meters":3200,"station_id":"ce4bgv92rcd13ifvqcr0","pricing_plan_id":"cebpf4jnsgd1na2vs0mg"},{"bike_id":"d939edb6-4472-4de1-920d-e35623da1e3c","system_id":"levelo_inurba_marseille","lat":43.27424,"lon":5.39418,"is_reserved":false,"is_disabled":false,"rental_uris":{"android":"levelo://app?vid=d939edb6-4472-4de1-920d-e35623da1e3c","ios":"levelo://app?vid=d939edb6-4472-4de1-920d-e35623da1e3c"},"vehicle_type_id":"4","last_reported":1730488066,"current_range_meters":25600,"station_id":"ce4bhdp2rcd13ifvqf20","pricing_plan_id":"cebpf4jnsgd1na2vs0mg"},{"bike_id":"53666ca2-d243-4f5e-8466-56bcf2799a94","system_id":"levelo_inurba_marseille","lat":43.29419,"lon":5.38629,"is_reserved":false,"is_disabled":false,"rental_uris":{"android":"levelo://app?vid=53666ca2-d243-4f5e-8466-56bcf2799a94","ios":"levelo://app?vid=53666ca2-d243-4f5e-8466-56bcf2799a94"},"vehicle_type_id":"4","last_reported":1730488066,"current_range_meters":12400,"station_id":"ce4bh2h2rcd13ifvqdh0","pricing_plan_id":"cebpf4jnsgd1na2vs0mg"},{"bike_id":"ca7418d4-c49d-4525-bde7-bfd3a3b3b27d","system_id":"levelo_inurba_marseille","lat":43.29416,"lon":5.38625,"is_reserved":false,"is_disabled":false,"rental_uris":{"android":"levelo://app?vid=ca7418d4-c49d-4525-bde7-bfd3a3b3b27d","ios":"levelo://app?vid=ca7418d4-c49d-4525-bde7-bfd3a3b3b27d"},"vehicle_type_id":"4","last_reported":1730488066,"current_range_meters":38400,"station_id":"ce4bh2h2rcd13ifvqdh0","pricing_plan_id":"cebpf4jnsgd1na2vs0mg"},{"bike_id":"f9c1ab10-6aca-4125-81db-f0d90fa2915d","system_id":"levelo_inurba_marseille","lat":43.296,"lon":5.37729,"is_reserved":false,"is_disabled":false,"rental_uris":{"android":"levelo://app?vid=f9c1ab10-6aca-4125-81db-f0d90fa2915d","ios":"levelo://app?vid=f9c1ab10-6aca-4125-81db-f0d90fa2915d"},"vehicle_type_id":"4","last_reported":1730488066,"current_range_meters":38800,"station_id":"ce4bgi92rcd13ifvqb90","pricing_plan_id":"cebpf4jnsgd1na2vs0mg"},{"bike_id":"ea1c796d-8371-4a8a-bdfb-1d6794eb91c5","system_id":"levelo_inurba_marseille","lat":43.29698,"lon":5.377,"is_reserved":false,"is_disabled":false,"rental_uris":{"android":"levelo://app?vid=ea1c796d-8371-4a8a-bdfb-1d6794eb91c5","ios":"levelo://app?vid=ea1c796d-8371-4a8a-bdfb-1d6794eb91c5"},"vehicle_type_id":"4","last_reported":1730488066,"current_range_meters":20400,"station_id":"ce4bgkh2rcd13ifvqbl0","pricing_plan_id":"cebpf4jnsgd1na2vs0mg"},{"bike_id":"956f1479-9e28-47c4-8d7e-8d831209c19f","system_id":"levelo_inurba_marseille","lat":43.302189,"lon":5.394686,"is_reserved":false,"is_disabled":false,"rental_uris":{"android":"levelo://app?vid=956f1479-9e28-47c4-8d7e-8d831209c19f","ios":"levelo://app?vid=956f1479-9e28-47c4-8d7e-8d831209c19f"},"vehicle_type_id":"4","last_reported":1730488066,"current_range_meters":30400,"station_id":"ce4bh0p2rcd13ifvqd70","pricing_plan_id":"cebpf4jnsgd1na2vs0mg"},{"bike_id":"c02cdcb9-6b5e-473e-bc99-790ac5bb9b49","system_id":"levelo_inurba_marseille","lat":43.29028,"lon":5.38645,"is_reserved":false,"is_disabled":false,"rental_uris":{"android":"levelo://app?vid=c02cdcb9-6b5e-473e-bc99-790ac5bb9b49","ios":"levelo://app?vid=c02cdcb9-6b5e-473e-bc99-790ac5bb9b49"},"vehicle_type_id":"4","last_reported":1730488066,"current_range_meters":34800,"station_id":"ce4bh4p2rcd13ifvqe0g","pricing_plan_id":"cebpf4jnsgd1na2vs0mg"},{"bike_id":"a7125d65-74ce-495d-817a-4658be7b2ef8","system_id":"levelo_inurba_marseille","lat":43.286897,"lon":5.373975,"is_reserved":false,"is_disabled":false,"rental_uris":{"android":"levelo://app?vid=a7125d65-74ce-495d-817a-4658be7b2ef8","ios":"levelo://app?vid=a7125d65-74ce-495d-817a-4658be7b2ef8"},"vehicle_type_id":"4","last_reported":1730488066,"current_range_meters":20400,"station_id":"ce4bh3p2rcd13ifvqdq0","pricing_plan_id":"cebpf4jnsgd1na2vs0mg"},{"bike_id":"83de51a4-b6dd-4a8c-88e0-1f296bc09662","system_id":"levelo_inurba_marseille","lat":43.289594,"lon":5.397514,"is_reserved":false,"is_disabled":false,"rental_uris":{"android":"levelo://app?vid=83de51a4-b6dd-4a8c-88e0-1f296bc09662","ios":"levelo://app?vid=83de51a4-b6dd-4a8c-88e0-1f296bc09662"},"vehicle_type_id":"4","last_reported":1730488066,"current_range_meters":8800,"station_id":"ce4bgjh2rcd13ifvqbf0","pricing_plan_id":"cebpf4jnsgd1na2vs0mg"},{"bike_id":"ce4b9b4b-c9db-466f-ade6-da9f1060e908","system_id":"levelo_inurba_marseille","lat":43.29035,"lon":5.38635,"is_reserved":false,"is_disabled":false,"rental_uris":{"android":"levelo://app?vid=ce4b9b4b-c9db-466f-ade6-da9f1060e908","ios":"levelo://app?vid=ce4b9b4b-c9db-466f-ade6-da9f1060e908"},"vehicle_type_id":"4","last_reported":1730488066,"current_range_meters":38800,"station_id":"ce4bh4p2rcd13ifvqe0g","pricing_plan_id":"cebpf4jnsgd1na2vs0mg"},{"bike_id":"a256a6e7-b213-46ad-83f5-e197403aa7d8","system_id":"levelo_inurba_marseille","lat":43.31717,"lon":5.42394,"is_reserved":false,"is_disabled":false,"rental_uris":{"android":"levelo://app?vid=a256a6e7-b213-46ad-83f5-e197403aa7d8","ios":"levelo://app?vid=a256a6e7-b213-46ad-83f5-e197403aa7d8"},"vehicle_type_id":"4","last_reported":1730488066,"current_range_meters":17200,"station_id":"ce4bhp92rcd13ifvqhbg","pricing_plan_id":"cebpf4jnsgd1na2vs0mg"},{"bike_id":"8708343a-526d-4697-bb1f-4993887c3887","system_id":"levelo_inurba_marseille","lat":43.3094,"lon":5.40147,"is_reserved":false,"is_disabled":false,"rental_uris":{"android":"levelo://app?vid=8708343a-526d-4697-bb1f-4993887c3887","ios":"levelo://app?vid=8708343a-526d-4697-bb1f-4993887c3887"},"vehicle_type_id":"4","last_reported":1730488066,"current_range_meters":8000,"station_id":"ce4bgvp2rcd13ifvqct0","pricing_plan_id":"cebpf4jnsgd1na2vs0mg"},{"bike_id":"2f96ca02-e95c-4b69-8a12-e3990eda3b50","system_id":"levelo_inurba_marseille","lat":43.26785,"lon":5.39414,"is_reserved":false,"is_disabled":false,"rental_uris":{"android":"levelo://app?vid=2f96ca02-e95c-4b69-8a12-e3990eda3b50","ios":"levelo://app?vid=2f96ca02-e95c-4b69-8a12-e3990eda3b50"},"vehicle_type_id":"4","last_reported":1730488066,"current_range_meters":39200,"station_id":"ce4bhh12rcd13ifvqfg0","pricing_plan_id":"cebpf4jnsgd1na2vs0mg"},{"bike_id":"7aca20f8-1574-4b9d-bf15-a513db192236","system_id":"levelo_inurba_marseille","lat":43.29417,"lon":5.38631,"is_reserved":false,"is_disabled":false,"rental_uris":{"android":"levelo://app?vid=7aca20f8-1574-4b9d-bf15-a513db192236","ios":"levelo://app?vid=7aca20f8-1574-4b9d-bf15-a513db192236"},"vehicle_type_id":"4","last_reported":1730488066,"current_range_meters":38800,"station_id":"ce4bh2h2rcd13ifvqdh0","pricing_plan_id":"cebpf4jnsgd1na2vs0mg"},{"bike_id":"43403c31-f486-4b79-a467-b4d9942cb66b","system_id":"levelo_inurba_marseille","lat":43.30309,"lon":5.36898,"is_reserved":false,"is_disabled":false,"rental_uris":{"android":"levelo://app?vid=43403c31-f486-4b79-a467-b4d9942cb66b","ios":"levelo://app?vid=43403c31-f486-4b79-a467-b4d9942cb66b"},"vehicle_type_id":"4","last_reported":1730488066,"current_range_meters":6400,"station_id":"ce4bgqh2rcd13ifvqc5g","pricing_plan_id":"cebpf4jnsgd1na2vs0mg"},{"bike_id":"86501ceb-c189-4af2-bac2-4f3b6c95b810","system_id":"levelo_inurba_marseille","lat":43.29406,"lon":5.38615,"is_reserved":false,"is_disabled":false,"rental_uris":{"android":"levelo://app?vid=86501ceb-c189-4af2-bac2-4f3b6c95b810","ios":"levelo://app?vid=86501ceb-c189-4af2-bac2-4f3b6c95b810"},"vehicle_type_id":"4","last_reported":1730488066,"current_range_meters":38800,"station_id":"ce4bh2h2rcd13ifvqdh0","pricing_plan_id":"cebpf4jnsgd1na2vs0mg"},{"bike_id":"14633e24-d1b1-4f20-b3e8-6d3c27471bba","system_id":"levelo_inurba_marseille","lat":43.29936,"lon":5.36542,"is_reserved":false,"is_disabled":false,"rental_uris":{"android":"levelo://app?vid=14633e24-d1b1-4f20-b3e8-6d3c27471bba","ios":"levelo://app?vid=14633e24-d1b1-4f20-b3e8-6d3c27471bba"},"vehicle_type_id":"4","last_reported":1730488066,"current_range_meters":24800,"station_id":"ce4bgm92rcd13ifvqbr0","pricing_plan_id":"cebpf4jnsgd1na2vs0mg"},{"bike_id":"9014a721-3c0c-4a50-b085-8dc746dc75f3","system_id":"levelo_inurba_marseille","lat":43.29964,"lon":5.38501,"is_reserved":false,"is_disabled":false,"rental_uris":{"android":"levelo://app?vid=9014a721-3c0c-4a50-b085-8dc746dc75f3","ios":"levelo://app?vid=9014a721-3c0c-4a50-b085-8dc746dc75f3"},"vehicle_type_id":"4","last_reported":1730488066,"current_range_meters":24800,"station_id":"ce4bgj92rcd13ifvqbd0","pricing_plan_id":"cebpf4jnsgd1na2vs0mg"},{"bike_id":"7dc1c1ed-2472-4dd8-84f9-9b00a0c2baff","system_id":"levelo_inurba_marseille","lat":43.295563,"lon":5.422943,"is_reserved":false,"is_disabled":false,"rental_uris":{"android":"levelo://app?vid=7dc1c1ed-2472-4dd8-84f9-9b00a0c2baff","ios":"levelo://app?vid=7dc1c1ed-2472-4dd8-84f9-9b00a0c2baff"},"vehicle_type_id":"4","last_reported":1730488066,"current_range_meters":38800,"station_id":"ce4bhph2rcd13ifvqhdg","pricing_plan_id":"cebpf4jnsgd1na2vs0mg"},{"bike_id":"13c11a85-2f3c-4271-b6b7-4cf175b207a7","system_id":"levelo_inurba_marseille","lat":43.26586,"lon":5.39008,"is_reserved":false,"is_disabled":false,"rental_uris":{"android":"levelo://app?vid=13c11a85-2f3c-4271-b6b7-4cf175b207a7","ios":"levelo://app?vid=13c11a85-2f3c-4271-b6b7-4cf175b207a7"},"vehicle_type_id":"4","last_reported":1730488066,"current_range_meters":38800,"station_id":"ce4bhe12rcd13ifvqf30","pricing_plan_id":"cebpf4jnsgd1na2vs0mg"},{"bike_id":"a7ff335d-8c74-4dee-94a0-af44a3182f2e","system_id":"levelo_inurba_marseille","lat":43.29703,"lon":5.37698,"is_reserved":false,"is_disabled":false,"rental_uris":{"android":"levelo://app?vid=a7ff335d-8c74-4dee-94a0-af44a3182f2e","ios":"levelo://app?vid=a7ff335d-8c74-4dee-94a0-af44a3182f2e"},"vehicle_type_id":"4","last_reported":1730488066,"current_range_meters":37600,"station_id":"ce4bgkh2rcd13ifvqbl0","pricing_plan_id":"cebpf4jnsgd1na2vs0mg"},{"bike_id":"90d5d68c-138a-4f05-95ba-e50b716963cc","system_id":"levelo_inurba_marseille","lat":43.29266,"lon":5.3844,"is_reserved":false,"is_disabled":false,"rental_uris":{"android":"levelo://app?vid=90d5d68c-138a-4f05-95ba-e50b716963cc","ios":"levelo://app?vid=90d5d68c-138a-4f05-95ba-e50b716963cc"},"vehicle_type_id":"4","last_reported":1730488066,"current_range_meters":30800,"station_id":"ce4bh692rcd13ifvqea0","pricing_plan_id":"cebpf4jnsgd1na2vs0mg"},{"bike_id":"34076489-4ac9-4d97-825a-aadace6220d1","system_id":"levelo_inurba_marseille","lat":43.29599,"lon":5.3772,"is_reserved":false,"is_disabled":false,"rental_uris":{"android":"levelo://app?vid=34076489-4ac9-4d97-825a-aadace6220d1","ios":"levelo://app?vid=34076489-4ac9-4d97-825a-aadace6220d1"},"vehicle_type_id":"4","last_reported":1730488066,"current_range_meters":38800,"station_id":"ce4bgi92rcd13ifvqb90","pricing_plan_id":"cebpf4jnsgd1na2vs0mg"},{"bike_id":"afa39957-71be-4682-bdac-91a4c814290b","system_id":"levelo_inurba_marseille","lat":43.28922,"lon":5.38386,"is_reserved":false,"is_disabled":false,"rental_uris":{"android":"levelo://app?vid=afa39957-71be-4682-bdac-91a4c814290b","ios":"levelo://app?vid=afa39957-71be-4682-bdac-91a4c814290b"},"vehicle_type_id":"4","last_reported":1730488066,"current_range_meters":38800,"station_id":"ce4bh612rcd13ifvqe6g","pricing_plan_id":"cebpf4jnsgd1na2vs0mg"},{"bike_id":"9938ebcd-9900-4f33-ae62-087d07b91466","system_id":"levelo_inurba_marseille","lat":43.25727,"lon":5.41109,"is_reserved":false,"is_disabled":false,"rental_uris":{"android":"levelo://app?vid=9938ebcd-9900-4f33-ae62-087d07b91466","ios":"levelo://app?vid=9938ebcd-9900-4f33-ae62-087d07b91466"},"vehicle_type_id":"4","last_reported":1730488066,"current_range_meters":38800,"station_id":"ce4bhkp2rcd13ifvqgd0","pricing_plan_id":"cebpf4jnsgd1na2vs0mg"},{"bike_id":"e960ac30-070e-494a-a9c1-effafcd9c6f4","system_id":"levelo_inurba_marseille","lat":43.29456,"lon":5.39583,"is_reserved":false,"is_disabled":false,"rental_uris":{"android":"levelo://app?vid=e960ac30-070e-494a-a9c1-effafcd9c6f4","ios":"levelo://app?vid=e960ac30-070e-494a-a9c1-effafcd9c6f4"},"vehicle_type_id":"4","last_reported":1730488066,"current_range_meters":11600,"station_id":"","pricing_plan_id":"cebpf4jnsgd1na2vs0mg"},{"bike_id":"6c26f9c8-71ad-4674-b09c-5d483b8428e0","system_id":"levelo_inurba_marseille","lat":43.30125,"lon":5.39866,"is_reserved":false,"is_disabled":false,"rental_uris":{"android":"levelo://app?vid=6c26f9c8-71ad-4674-b09c-5d483b8428e0","ios":"levelo://app?vid=6c26f9c8-71ad-4674-b09c-5d483b8428e0"},"vehicle_type_id":"4","last_reported":1730488066,"current_range_meters":3200,"station_id":"ce4bh0h2rcd13ifvqd40","pricing_plan_id":"cebpf4jnsgd1na2vs0mg"},{"bike_id":"a7685ae9-473c-4794-bcfd-4cf8917449dc","system_id":"levelo_inurba_marseille","lat":43.29258,"lon":5.40901,"is_reserved":false,"is_disabled":false,"rental_uris":{"android":"levelo://app?vid=a7685ae9-473c-4794-bcfd-4cf8917449dc","ios":"levelo://app?vid=a7685ae9-473c-4794-bcfd-4cf8917449dc"},"vehicle_type_id":"4","last_reported":1730488066,"current_range_meters":34800,"station_id":"ce4bh192rcd13ifvqdc0","pricing_plan_id":"cebpf4jnsgd1na2vs0mg"},{"bike_id":"016827c6-89c9-4dac-85af-9baffef07159","system_id":"levelo_inurba_marseille","lat":43.29524,"lon":5.38549,"is_reserved":false,"is_disabled":false,"rental_uris":{"android":"levelo://app?vid=016827c6-89c9-4dac-85af-9baffef07159","ios":"levelo://app?vid=016827c6-89c9-4dac-85af-9baffef07159"},"vehicle_type_id":"4","last_reported":1730488066,"current_range_meters":27600,"station_id":"ce4bgih2rcd13ifvqba0","pricing_plan_id":"cebpf4jnsgd1na2vs0mg"},{"bike_id":"d69eef29-33f1-400b-9dbd-e583b4f600d8","system_id":"levelo_inurba_marseille","lat":43.24657,"lon":5.38891,"is_reserved":false,"is_disabled":false,"rental_uris":{"android":"levelo://app?vid=d69eef29-33f1-400b-9dbd-e583b4f600d8","ios":"levelo://app?vid=d69eef29-33f1-400b-9dbd-e583b4f600d8"},"vehicle_type_id":"4","last_reported":1730488066,"current_range_meters":20400,"station_id":"ce4bhg12rcd13ifvqf60","pricing_plan_id":"cebpf4jnsgd1na2vs0mg"},{"bike_id":"bd4e2b20-1aa1-479f-bd96-ad4e0572a62c","system_id":"levelo_inurba_marseille","lat":43.32491,"lon":5.36577,"is_reserved":false,"is_disabled":false,"rental_uris":{"android":"levelo://app?vid=bd4e2b20-1aa1-479f-bd96-ad4e0572a62c","ios":"levelo://app?vid=bd4e2b20-1aa1-479f-bd96-ad4e0572a62c"},"vehicle_type_id":"4","last_reported":1730488066,"current_range_meters":28400,"station_id":"ce4bhs12rcd13ifvqhvg","pricing_plan_id":"cebpf4jnsgd1na2vs0mg"},{"bike_id":"66047545-0fb8-424f-9043-6c30d457954a","system_id":"levelo_inurba_marseille","lat":43.3093,"lon":5.40141,"is_reserved":false,"is_disabled":false,"rental_uris":{"android":"levelo://app?vid=66047545-0fb8-424f-9043-6c30d457954a","ios":"levelo://app?vid=66047545-0fb8-424f-9043-6c30d457954a"},"vehicle_type_id":"4","last_reported":1730488066,"current_range_meters":15200,"station_id":"ce4bgvp2rcd13ifvqct0","pricing_plan_id":"cebpf4jnsgd1na2vs0mg"},{"bike_id":"a166176a-6375-462d-890b-231578cd93ab","system_id":"levelo_inurba_marseille","lat":43.29257,"lon":5.38431,"is_reserved":false,"is_disabled":false,"rental_uris":{"android":"levelo://app?vid=a166176a-6375-462d-890b-231578cd93ab","ios":"levelo://app?vid=a166176a-6375-462d-890b-231578cd93ab"},"vehicle_type_id":"4","last_reported":1730488066,"current_range_meters":36400,"station_id":"ce4bh692rcd13ifvqea0","pricing_plan_id":"cebpf4jnsgd1na2vs0mg"},{"bike_id":"6361f89f-ca53-4945-bcf1-78bfbb192efb","system_id":"levelo_inurba_marseille","lat":43.28441,"lon":5.39203,"is_reserved":false,"is_disabled":false,"rental_uris":{"android":"levelo://app?vid=6361f89f-ca53-4945-bcf1-78bfbb192efb","ios":"levelo://app?vid=6361f89f-ca53-4945-bcf1-78bfbb192efb"},"vehicle_type_id":"4","last_reported":1730488066,"current_range_meters":24400,"station_id":"ce4bhoh2rcd13ifvqh5g","pricing_plan_id":"cebpf4jnsgd1na2vs0mg"},{"bike_id":"317d8648-1888-421e-ba60-471ba77ee79e","system_id":"levelo_inurba_marseille","lat":43.29808,"lon":5.38078,"is_reserved":false,"is_disabled":false,"rental_uris":{"android":"levelo://app?vid=317d8648-1888-421e-ba60-471ba77ee79e","ios":"levelo://app?vid=317d8648-1888-421e-ba60-471ba77ee79e"},"vehicle_type_id":"4","last_reported":1730488066,"current_range_meters":10800,"station_id":"ce4bgip2rcd13ifvqbb0","pricing_plan_id":"cebpf4jnsgd1na2vs0mg"},{"bike_id":"658dacf4-7ef3-4634-8126-9bbd88e5a6eb","system_id":"levelo_inurba_marseille","lat":43.23191,"lon":5.35546,"is_reserved":false,"is_disabled":false,"rental_uris":{"android":"levelo://app?vid=658dacf4-7ef3-4634-8126-9bbd88e5a6eb","ios":"levelo://app?vid=658dacf4-7ef3-4634-8126-9bbd88e5a6eb"},"vehicle_type_id":"4","last_reported":1730488066,"current_range_meters":23200,"station_id":"ce4bhu92rcd13ifvqi70","pricing_plan_id":"cebpf4jnsgd1na2vs0mg"},{"bike_id":"0a0b91e3-68d7-4928-a325-3af7346d0f7e","system_id":"levelo_inurba_marseille","lat":43.29807,"lon":5.38105,"is_reserved":false,"is_disabled":false,"rental_uris":{"android":"levelo://app?vid=0a0b91e3-68d7-4928-a325-3af7346d0f7e","ios":"levelo://app?vid=0a0b91e3-68d7-4928-a325-3af7346d0f7e"},"vehicle_type_id":"4","last_reported":1730488066,"current_range_meters":30000,"station_id":"ce4bgip2rcd13ifvqbb0","pricing_plan_id":"cebpf4jnsgd1na2vs0mg"},{"bike_id":"b98cfd7f-acdf-400e-bf8f-9132b0f74693","system_id":"levelo_inurba_marseille","lat":43.28103,"lon":5.37847,"is_reserved":false,"is_disabled":false,"rental_uris":{"android":"levelo://app?vid=b98cfd7f-acdf-400e-bf8f-9132b0f74693","ios":"levelo://app?vid=b98cfd7f-acdf-400e-bf8f-9132b0f74693"},"vehicle_type_id":"4","last_reported":1730488066,"current_range_meters":29600,"station_id":"ce4bha12rcd13ifvqee0","pricing_plan_id":"cebpf4jnsgd1na2vs0mg"},{"bike_id":"e62e38a9-284c-4b15-bfe8-8b214b98f04b","system_id":"levelo_inurba_marseille","lat":43.2305,"lon":5.35493,"is_reserved":false,"is_disabled":false,"rental_uris":{"android":"levelo://app?vid=e62e38a9-284c-4b15-bfe8-8b214b98f04b","ios":"levelo://app?vid=e62e38a9-284c-4b15-bfe8-8b214b98f04b"},"vehicle_type_id":"4","last_reported":1730488066,"current_range_meters":25600,"station_id":"cpo3342slgdg3j2ifvpg","pricing_plan_id":"cebpf4jnsgd1na2vs0mg"},{"bike_id":"522cf0ac-265a-440b-92ae-96252ff4b6fc","system_id":"levelo_inurba_marseille","lat":43.29029,"lon":5.38636,"is_reserved":false,"is_disabled":false,"rental_uris":{"android":"levelo://app?vid=522cf0ac-265a-440b-92ae-96252ff4b6fc","ios":"levelo://app?vid=522cf0ac-265a-440b-92ae-96252ff4b6fc"},"vehicle_type_id":"4","last_reported":1730488066,"current_range_meters":20800,"station_id":"ce4bh4p2rcd13ifvqe0g","pricing_plan_id":"cebpf4jnsgd1na2vs0mg"},{"bike_id":"7c71e086-d9c3-4a53-a3e0-3013c6558a07","system_id":"levelo_inurba_marseille","lat":43.28471,"lon":5.38401,"is_reserved":false,"is_disabled":false,"rental_uris":{"android":"levelo://app?vid=7c71e086-d9c3-4a53-a3e0-3013c6558a07","ios":"levelo://app?vid=7c71e086-d9c3-4a53-a3e0-3013c6558a07"},"vehicle_type_id":"4","last_reported":1730488066,"current_range_meters":39200,"station_id":"ce4bh512rcd13ifvqe3g","pricing_plan_id":"cebpf4jnsgd1na2vs0mg"},{"bike_id":"e7ba2081-2d39-4d89-bf87-a4fc5c880f93","system_id":"levelo_inurba_marseille","lat":43.28105,"lon":5.37838,"is_reserved":false,"is_disabled":false,"rental_uris":{"android":"levelo://app?vid=e7ba2081-2d39-4d89-bf87-a4fc5c880f93","ios":"levelo://app?vid=e7ba2081-2d39-4d89-bf87-a4fc5c880f93"},"vehicle_type_id":"4","last_reported":1730488066,"current_range_meters":38800,"station_id":"ce4bha12rcd13ifvqee0","pricing_plan_id":"cebpf4jnsgd1na2vs0mg"},{"bike_id":"66e6a61a-0590-4291-95c3-52cdc3a56c40","system_id":"levelo_inurba_marseille","lat":43.31989,"lon":5.38162,"is_reserved":false,"is_disabled":false,"rental_uris":{"android":"levelo://app?vid=66e6a61a-0590-4291-95c3-52cdc3a56c40","ios":"levelo://app?vid=66e6a61a-0590-4291-95c3-52cdc3a56c40"},"vehicle_type_id":"4","last_reported":1730488066,"current_range_meters":8800,"station_id":"ce4bhr12rcd13ifvqhpg","pricing_plan_id":"cebpf4jnsgd1na2vs0mg"},{"bike_id":"60b0e576-c582-4ce4-80e1-9be8f9fe27cc","system_id":"levelo_inurba_marseille","lat":43.3124,"lon":5.36854,"is_reserved":false,"is_disabled":false,"rental_uris":{"android":"levelo://app?vid=60b0e576-c582-4ce4-80e1-9be8f9fe27cc","ios":"levelo://app?vid=60b0e576-c582-4ce4-80e1-9be8f9fe27cc"},"vehicle_type_id":"4","last_reported":1730488066,"current_range_meters":1600,"station_id":"ce4bgl92rcd13ifvqbq0","pricing_plan_id":"cebpf4jnsgd1na2vs0mg"},{"bike_id":"7f13858a-bf09-42cc-a2ae-f1a6f96a5ea8","system_id":"levelo_inurba_marseille","lat":43.29973,"lon":5.3849,"is_reserved":false,"is_disabled":false,"rental_uris":{"android":"levelo://app?vid=7f13858a-bf09-42cc-a2ae-f1a6f96a5ea8","ios":"levelo://app?vid=7f13858a-bf09-42cc-a2ae-f1a6f96a5ea8"},"vehicle_type_id":"4","last_reported":1730488066,"current_range_meters":25200,"station_id":"ce4bgj92rcd13ifvqbd0","pricing_plan_id":"cebpf4jnsgd1na2vs0mg"},{"bike_id":"b890158d-4cc0-42ea-b1b1-cf934d08cc8a","system_id":"levelo_inurba_marseille","lat":43.32363,"lon":5.38885,"is_reserved":false,"is_disabled":false,"rental_uris":{"android":"levelo://app?vid=b890158d-4cc0-42ea-b1b1-cf934d08cc8a","ios":"levelo://app?vid=b890158d-4cc0-42ea-b1b1-cf934d08cc8a"},"vehicle_type_id":"4","last_reported":1730488066,"current_range_meters":31200,"station_id":"ce4bhqp2rcd13ifvqhog","pricing_plan_id":"cebpf4jnsgd1na2vs0mg"},{"bike_id":"fe9625bd-3854-4eec-a593-8fa0f2878c84","system_id":"levelo_inurba_marseille","lat":43.29533,"lon":5.38536,"is_reserved":false,"is_disabled":false,"rental_uris":{"android":"levelo://app?vid=fe9625bd-3854-4eec-a593-8fa0f2878c84","ios":"levelo://app?vid=fe9625bd-3854-4eec-a593-8fa0f2878c84"},"vehicle_type_id":"4","last_reported":1730488066,"current_range_meters":16400,"station_id":"ce4bgih2rcd13ifvqba0","pricing_plan_id":"cebpf4jnsgd1na2vs0mg"},{"bike_id":"569b0fbe-ed72-417d-9e56-1ca18cf64965","system_id":"levelo_inurba_marseille","lat":43.29697,"lon":5.36163,"is_reserved":false,"is_disabled":false,"rental_uris":{"android":"levelo://app?vid=569b0fbe-ed72-417d-9e56-1ca18cf64965","ios":"levelo://app?vid=569b0fbe-ed72-417d-9e56-1ca18cf64965"},"vehicle_type_id":"4","last_reported":1730488066,"current_range_meters":35600,"station_id":"","pricing_plan_id":"cebpf4jnsgd1na2vs0mg"},{"bike_id":"81ec34b3-cc1d-4fa3-ae53-660912a7bfc7","system_id":"levelo_inurba_marseille","lat":43.2903,"lon":5.38641,"is_reserved":false,"is_disabled":false,"rental_uris":{"android":"levelo://app?vid=81ec34b3-cc1d-4fa3-ae53-660912a7bfc7","ios":"levelo://app?vid=81ec34b3-cc1d-4fa3-ae53-660912a7bfc7"},"vehicle_type_id":"4","last_reported":1730488066,"current_range_meters":29600,"station_id":"ce4bh4p2rcd13ifvqe0g","pricing_plan_id":"cebpf4jnsgd1na2vs0mg"},{"bike_id":"58888b2f-4043-49e7-8689-b66db66cd29d","system_id":"levelo_inurba_marseille","lat":43.29618,"lon":5.37169,"is_reserved":false,"is_disabled":false,"rental_uris":{"android":"levelo://app?vid=58888b2f-4043-49e7-8689-b66db66cd29d","ios":"levelo://app?vid=58888b2f-4043-49e7-8689-b66db66cd29d"},"vehicle_type_id":"4","last_reported":1730488066,"current_range_meters":34000,"station_id":"ce4bgnh2rcd13ifvqc0g","pricing_plan_id":"cebpf4jnsgd1na2vs0mg"},{"bike_id":"a0f24817-96c3-43f1-8df3-4fdc906cff21","system_id":"levelo_inurba_marseille","lat":43.31327,"lon":5.39695,"is_reserved":false,"is_disabled":false,"rental_uris":{"android":"levelo://app?vid=a0f24817-96c3-43f1-8df3-4fdc906cff21","ios":"levelo://app?vid=a0f24817-96c3-43f1-8df3-4fdc906cff21"},"vehicle_type_id":"4","last_reported":1730488066,"current_range_meters":16000,"station_id":"ce4bgvp2rcd13ifvqcu0","pricing_plan_id":"cebpf4jnsgd1na2vs0mg"},{"bike_id":"fa7676c1-2639-4b99-bd6e-8a5d76a8230f","system_id":"levelo_inurba_marseille","lat":43.29097,"lon":5.38145,"is_reserved":false,"is_disabled":false,"rental_uris":{"android":"levelo://app?vid=fa7676c1-2639-4b99-bd6e-8a5d76a8230f","ios":"levelo://app?vid=fa7676c1-2639-4b99-bd6e-8a5d76a8230f"},"vehicle_type_id":"4","last_reported":1730488066,"current_range_meters":20400,"station_id":"ce4bh512rcd13ifvqe2g","pricing_plan_id":"cebpf4jnsgd1na2vs0mg"},{"bike_id":"ae6438f8-57ee-43d4-8e49-35f050ba43cc","system_id":"levelo_inurba_marseille","lat":43.2925,"lon":5.38437,"is_reserved":false,"is_disabled":false,"rental_uris":{"android":"levelo://app?vid=ae6438f8-57ee-43d4-8e49-35f050ba43cc","ios":"levelo://app?vid=ae6438f8-57ee-43d4-8e49-35f050ba43cc"},"vehicle_type_id":"4","last_reported":1730488066,"current_range_meters":30800,"station_id":"ce4bh692rcd13ifvqea0","pricing_plan_id":"cebpf4jnsgd1na2vs0mg"},{"bike_id":"33a35d52-0527-4fcf-a71d-b955380e23e2","system_id":"levelo_inurba_marseille","lat":43.24541,"lon":5.39524,"is_reserved":false,"is_disabled":false,"rental_uris":{"android":"levelo://app?vid=33a35d52-0527-4fcf-a71d-b955380e23e2","ios":"levelo://app?vid=33a35d52-0527-4fcf-a71d-b955380e23e2"},"vehicle_type_id":"4","last_reported":1730488066,"current_range_meters":12400,"station_id":"ce4bhlp2rcd13ifvqgjg","pricing_plan_id":"cebpf4jnsgd1na2vs0mg"},{"bike_id":"b63084c1-e516-4e21-ab1a-e03ff7fa8ed4","system_id":"levelo_inurba_marseille","lat":43.2988,"lon":5.38911,"is_reserved":false,"is_disabled":false,"rental_uris":{"android":"levelo://app?vid=b63084c1-e516-4e21-ab1a-e03ff7fa8ed4","ios":"levelo://app?vid=b63084c1-e516-4e21-ab1a-e03ff7fa8ed4"},"vehicle_type_id":"4","last_reported":1730488066,"current_range_meters":30400,"station_id":"ce4bh392rcd13ifvqdl0","pricing_plan_id":"cebpf4jnsgd1na2vs0mg"},{"bike_id":"4c859085-1a8a-4d4b-af1c-e6988c35d919","system_id":"levelo_inurba_marseille","lat":43.32655,"lon":5.40992,"is_reserved":false,"is_disabled":false,"rental_uris":{"android":"levelo://app?vid=4c859085-1a8a-4d4b-af1c-e6988c35d919","ios":"levelo://app?vid=4c859085-1a8a-4d4b-af1c-e6988c35d919"},"vehicle_type_id":"4","last_reported":1730488066,"current_range_meters":14400,"station_id":"ce4bhpp2rcd13ifvqhgg","pricing_plan_id":"cebpf4jnsgd1na2vs0mg"},{"bike_id":"9b3cdd1c-31e2-45e9-a347-f5de25356952","system_id":"levelo_inurba_marseille","lat":43.29411,"lon":5.38604,"is_reserved":false,"is_disabled":false,"rental_uris":{"android":"levelo://app?vid=9b3cdd1c-31e2-45e9-a347-f5de25356952","ios":"levelo://app?vid=9b3cdd1c-31e2-45e9-a347-f5de25356952"},"vehicle_type_id":"4","last_reported":1730488066,"current_range_meters":38800,"station_id":"ce4bh2h2rcd13ifvqdh0","pricing_plan_id":"cebpf4jnsgd1na2vs0mg"},{"bike_id":"e17c59d5-3203-4078-b42c-b4f6c60ac7cc","system_id":"levelo_inurba_marseille","lat":43.28038,"lon":5.36945,"is_reserved":false,"is_disabled":false,"rental_uris":{"android":"levelo://app?vid=e17c59d5-3203-4078-b42c-b4f6c60ac7cc","ios":"levelo://app?vid=e17c59d5-3203-4078-b42c-b4f6c60ac7cc"},"vehicle_type_id":"4","last_reported":1730488066,"current_range_meters":25200,"station_id":"ce4bha12rcd13ifvqef0","pricing_plan_id":"cebpf4jnsgd1na2vs0mg"},{"bike_id":"016a4bf1-781c-43c3-9a9e-b42149c36362","system_id":"levelo_inurba_marseille","lat":43.28347,"lon":5.38104,"is_reserved":false,"is_disabled":false,"rental_uris":{"android":"levelo://app?vid=016a4bf1-781c-43c3-9a9e-b42149c36362","ios":"levelo://app?vid=016a4bf1-781c-43c3-9a9e-b42149c36362"},"vehicle_type_id":"4","last_reported":1730488066,"current_range_meters":8000,"station_id":"ce4bh412rcd13ifvqdr0","pricing_plan_id":"cebpf4jnsgd1na2vs0mg"},{"bike_id":"55836d35-8792-4714-8542-55c2528b4dac","system_id":"levelo_inurba_marseille","lat":43.29025,"lon":5.38642,"is_reserved":false,"is_disabled":false,"rental_uris":{"android":"levelo://app?vid=55836d35-8792-4714-8542-55c2528b4dac","ios":"levelo://app?vid=55836d35-8792-4714-8542-55c2528b4dac"},"vehicle_type_id":"4","last_reported":1730488066,"current_range_meters":10000,"station_id":"ce4bh4p2rcd13ifvqe0g","pricing_plan_id":"cebpf4jnsgd1na2vs0mg"},{"bike_id":"cffb5f57-4e0f-4783-aee4-e0d75d299fd0","system_id":"levelo_inurba_marseille","lat":43.32653,"lon":5.40998,"is_reserved":false,"is_disabled":false,"rental_uris":{"android":"levelo://app?vid=cffb5f57-4e0f-4783-aee4-e0d75d299fd0","ios":"levelo://app?vid=cffb5f57-4e0f-4783-aee4-e0d75d299fd0"},"vehicle_type_id":"4","last_reported":1730488066,"current_range_meters":6000,"station_id":"ce4bhpp2rcd13ifvqhgg","pricing_plan_id":"cebpf4jnsgd1na2vs0mg"},{"bike_id":"2d7de978-fe7a-4748-bce2-9b270b74d3a7","system_id":"levelo_inurba_marseille","lat":43.28106,"lon":5.37848,"is_reserved":false,"is_disabled":false,"rental_uris":{"android":"levelo://app?vid=2d7de978-fe7a-4748-bce2-9b270b74d3a7","ios":"levelo://app?vid=2d7de978-fe7a-4748-bce2-9b270b74d3a7"},"vehicle_type_id":"4","last_reported":1730488066,"current_range_meters":38000,"station_id":"ce4bha12rcd13ifvqee0","pricing_plan_id":"cebpf4jnsgd1na2vs0mg"},{"bike_id":"25b785d7-1b68-431b-8ac9-327db00f1aa2","system_id":"levelo_inurba_marseille","lat":43.29968,"lon":5.385,"is_reserved":false,"is_disabled":false,"rental_uris":{"android":"levelo://app?vid=25b785d7-1b68-431b-8ac9-327db00f1aa2","ios":"levelo://app?vid=25b785d7-1b68-431b-8ac9-327db00f1aa2"},"vehicle_type_id":"4","last_reported":1730488066,"current_range_meters":4000,"station_id":"ce4bgj92rcd13ifvqbd0","pricing_plan_id":"cebpf4jnsgd1na2vs0mg"},{"bike_id":"ee8e5491-b766-4f99-8b7d-dbe793364439","system_id":"levelo_inurba_marseille","lat":43.24072,"lon":5.37764,"is_reserved":false,"is_disabled":false,"rental_uris":{"android":"levelo://app?vid=ee8e5491-b766-4f99-8b7d-dbe793364439","ios":"levelo://app?vid=ee8e5491-b766-4f99-8b7d-dbe793364439"},"vehicle_type_id":"4","last_reported":1730488066,"current_range_meters":8000,"station_id":"ce4bhnp2rcd13ifvqgvg","pricing_plan_id":"cebpf4jnsgd1na2vs0mg"},{"bike_id":"b0176a28-527c-42b9-b750-f1dad8510223","system_id":"levelo_inurba_marseille","lat":43.29639,"lon":5.37599,"is_reserved":false,"is_disabled":false,"rental_uris":{"android":"levelo://app?vid=b0176a28-527c-42b9-b750-f1dad8510223","ios":"levelo://app?vid=b0176a28-527c-42b9-b750-f1dad8510223"},"vehicle_type_id":"4","last_reported":1730488066,"current_range_meters":32800,"station_id":"","pricing_plan_id":"cebpf4jnsgd1na2vs0mg"},{"bike_id":"a3d3ffed-cb9c-41b5-a03f-391020866e92","system_id":"levelo_inurba_marseille","lat":43.26502,"lon":5.3954,"is_reserved":false,"is_disabled":false,"rental_uris":{"android":"levelo://app?vid=a3d3ffed-cb9c-41b5-a03f-391020866e92","ios":"levelo://app?vid=a3d3ffed-cb9c-41b5-a03f-391020866e92"},"vehicle_type_id":"4","last_reported":1730488066,"current_range_meters":39200,"station_id":"ce4bhi12rcd13ifvqfq0","pricing_plan_id":"cebpf4jnsgd1na2vs0mg"},{"bike_id":"a4de29bb-1d70-40a6-bd33-383183bead72","system_id":"levelo_inurba_marseille","lat":43.29421,"lon":5.3861,"is_reserved":false,"is_disabled":false,"rental_uris":{"android":"levelo://app?vid=a4de29bb-1d70-40a6-bd33-383183bead72","ios":"levelo://app?vid=a4de29bb-1d70-40a6-bd33-383183bead72"},"vehicle_type_id":"4","last_reported":1730488066,"current_range_meters":38800,"station_id":"ce4bh2h2rcd13ifvqdh0","pricing_plan_id":"cebpf4jnsgd1na2vs0mg"},{"bike_id":"971278ea-a959-492c-a695-27132035b303","system_id":"levelo_inurba_marseille","lat":43.2961,"lon":5.37728,"is_reserved":false,"is_disabled":false,"rental_uris":{"android":"levelo://app?vid=971278ea-a959-492c-a695-27132035b303","ios":"levelo://app?vid=971278ea-a959-492c-a695-27132035b303"},"vehicle_type_id":"4","last_reported":1730488066,"current_range_meters":8800,"station_id":"ce4bgi92rcd13ifvqb90","pricing_plan_id":"cebpf4jnsgd1na2vs0mg"},{"bike_id":"690a1760-6f34-4606-98eb-b610087f6136","system_id":"levelo_inurba_marseille","lat":43.28146,"lon":5.42653,"is_reserved":false,"is_disabled":false,"rental_uris":{"android":"levelo://app?vid=690a1760-6f34-4606-98eb-b610087f6136","ios":"levelo://app?vid=690a1760-6f34-4606-98eb-b610087f6136"},"vehicle_type_id":"4","last_reported":1730488066,"current_range_meters":13600,"station_id":"ce4bhnh2rcd13ifvqgug","pricing_plan_id":"cebpf4jnsgd1na2vs0mg"},{"bike_id":"e1610605-5756-4123-907e-88ebe2cdf2d8","system_id":"levelo_inurba_marseille","lat":43.290334,"lon":5.386362,"is_reserved":false,"is_disabled":false,"rental_uris":{"android":"levelo://app?vid=e1610605-5756-4123-907e-88ebe2cdf2d8","ios":"levelo://app?vid=e1610605-5756-4123-907e-88ebe2cdf2d8"},"vehicle_type_id":"4","last_reported":1730488066,"current_range_meters":34000,"station_id":"ce4bh4p2rcd13ifvqe0g","pricing_plan_id":"cebpf4jnsgd1na2vs0mg"},{"bike_id":"18402065-9e87-476b-95ad-30853de181a0","system_id":"levelo_inurba_marseille","lat":43.32449,"lon":5.4555,"is_reserved":false,"is_disabled":false,"rental_uris":{"android":"levelo://app?vid=18402065-9e87-476b-95ad-30853de181a0","ios":"levelo://app?vid=18402065-9e87-476b-95ad-30853de181a0"},"vehicle_type_id":"4","last_reported":1730488066,"current_range_meters":10800,"station_id":"","pricing_plan_id":"cebpf4jnsgd1na2vs0mg"},{"bike_id":"f5a6641d-b355-4802-b233-fd2a3f641ff7","system_id":"levelo_inurba_marseille","lat":43.29568,"lon":5.37503,"is_reserved":false,"is_disabled":false,"rental_uris":{"android":"levelo://app?vid=f5a6641d-b355-4802-b233-fd2a3f641ff7","ios":"levelo://app?vid=f5a6641d-b355-4802-b233-fd2a3f641ff7"},"vehicle_type_id":"4","last_reported":1730488066,"current_range_meters":39200,"station_id":"ce4bgh92rcd13ifvqb50","pricing_plan_id":"cebpf4jnsgd1na2vs0mg"},{"bike_id":"f6fac059-fe85-4d7a-8ea9-001b079724c7","system_id":"levelo_inurba_marseille","lat":43.29413,"lon":5.38609,"is_reserved":false,"is_disabled":false,"rental_uris":{"android":"levelo://app?vid=f6fac059-fe85-4d7a-8ea9-001b079724c7","ios":"levelo://app?vid=f6fac059-fe85-4d7a-8ea9-001b079724c7"},"vehicle_type_id":"4","last_reported":1730488066,"current_range_meters":38800,"station_id":"ce4bh2h2rcd13ifvqdh0","pricing_plan_id":"cebpf4jnsgd1na2vs0mg"},{"bike_id":"711fc037-1485-48d1-a756-6d4246ae9cd4","system_id":"levelo_inurba_marseille","lat":43.24655,"lon":5.38898,"is_reserved":false,"is_disabled":false,"rental_uris":{"android":"levelo://app?vid=711fc037-1485-48d1-a756-6d4246ae9cd4","ios":"levelo://app?vid=711fc037-1485-48d1-a756-6d4246ae9cd4"},"vehicle_type_id":"4","last_reported":1730488066,"current_range_meters":6800,"station_id":"ce4bhg12rcd13ifvqf60","pricing_plan_id":"cebpf4jnsgd1na2vs0mg"},{"bike_id":"bc077c92-b0fa-4624-9bea-c7263cd1a3f9","system_id":"levelo_inurba_marseille","lat":43.27986,"lon":5.4166,"is_reserved":false,"is_disabled":false,"rental_uris":{"android":"levelo://app?vid=bc077c92-b0fa-4624-9bea-c7263cd1a3f9","ios":"levelo://app?vid=bc077c92-b0fa-4624-9bea-c7263cd1a3f9"},"vehicle_type_id":"4","last_reported":1730488066,"current_range_meters":17600,"station_id":"ce4bho12rcd13ifvqh1g","pricing_plan_id":"cebpf4jnsgd1na2vs0mg"},{"bike_id":"e631f115-1734-4c6e-9e17-6f4e5c5b456a","system_id":"levelo_inurba_marseille","lat":43.31481,"lon":5.37313,"is_reserved":false,"is_disabled":false,"rental_uris":{"android":"levelo://app?vid=e631f115-1734-4c6e-9e17-6f4e5c5b456a","ios":"levelo://app?vid=e631f115-1734-4c6e-9e17-6f4e5c5b456a"},"vehicle_type_id":"4","last_reported":1730488066,"current_range_meters":15200,"station_id":"ce4bgt12rcd13ifvqcd0","pricing_plan_id":"cebpf4jnsgd1na2vs0mg"},{"bike_id":"b8fc8de3-105f-433e-93f8-bd86e6f13f3e","system_id":"levelo_inurba_marseille","lat":43.29789,"lon":5.39355,"is_reserved":false,"is_disabled":false,"rental_uris":{"android":"levelo://app?vid=b8fc8de3-105f-433e-93f8-bd86e6f13f3e","ios":"levelo://app?vid=b8fc8de3-105f-433e-93f8-bd86e6f13f3e"},"vehicle_type_id":"4","last_reported":1730488066,"current_range_meters":30000,"station_id":"chh1huq6cuj3fo74tm60","pricing_plan_id":"cebpf4jnsgd1na2vs0mg"},{"bike_id":"9e54130a-3084-46d5-a88d-7b44c836d8d6","system_id":"levelo_inurba_marseille","lat":43.268005,"lon":5.402741,"is_reserved":false,"is_disabled":false,"rental_uris":{"android":"levelo://app?vid=9e54130a-3084-46d5-a88d-7b44c836d8d6","ios":"levelo://app?vid=9e54130a-3084-46d5-a88d-7b44c836d8d6"},"vehicle_type_id":"4","last_reported":1730488066,"current_range_meters":6400,"station_id":"ce501612rcd8frsf0b60","pricing_plan_id":"cebpf4jnsgd1na2vs0mg"},{"bike_id":"311470e1-1b3a-4991-abe9-af1aba042095","system_id":"levelo_inurba_marseille","lat":43.2903,"lon":5.38653,"is_reserved":false,"is_disabled":false,"rental_uris":{"android":"levelo://app?vid=311470e1-1b3a-4991-abe9-af1aba042095","ios":"levelo://app?vid=311470e1-1b3a-4991-abe9-af1aba042095"},"vehicle_type_id":"4","last_reported":1730488066,"current_range_meters":20800,"station_id":"ce4bh4p2rcd13ifvqe0g","pricing_plan_id":"cebpf4jnsgd1na2vs0mg"},{"bike_id":"aa143365-9eca-4166-ad43-26a0cd732d6e","system_id":"levelo_inurba_marseille","lat":43.31265,"lon":5.40169,"is_reserved":false,"is_disabled":false,"rental_uris":{"android":"levelo://app?vid=aa143365-9eca-4166-ad43-26a0cd732d6e","ios":"levelo://app?vid=aa143365-9eca-4166-ad43-26a0cd732d6e"},"vehicle_type_id":"4","last_reported":1730488066,"current_range_meters":17200,"station_id":"ce4bh092rcd13ifvqd30","pricing_plan_id":"cebpf4jnsgd1na2vs0mg"},{"bike_id":"13f606cf-8fa3-410d-81cf-b83ed1cd32a4","system_id":"levelo_inurba_marseille","lat":43.26791,"lon":5.39415,"is_reserved":false,"is_disabled":false,"rental_uris":{"android":"levelo://app?vid=13f606cf-8fa3-410d-81cf-b83ed1cd32a4","ios":"levelo://app?vid=13f606cf-8fa3-410d-81cf-b83ed1cd32a4"},"vehicle_type_id":"4","last_reported":1730488066,"current_range_meters":28000,"station_id":"ce4bhh12rcd13ifvqfg0","pricing_plan_id":"cebpf4jnsgd1na2vs0mg"},{"bike_id":"2956b347-5a4f-4f58-9aee-5df2b298cbda","system_id":"levelo_inurba_marseille","lat":43.28444,"lon":5.39185,"is_reserved":false,"is_disabled":false,"rental_uris":{"android":"levelo://app?vid=2956b347-5a4f-4f58-9aee-5df2b298cbda","ios":"levelo://app?vid=2956b347-5a4f-4f58-9aee-5df2b298cbda"},"vehicle_type_id":"4","last_reported":1730488066,"current_range_meters":18800,"station_id":"ce4bhoh2rcd13ifvqh5g","pricing_plan_id":"cebpf4jnsgd1na2vs0mg"},{"bike_id":"a081e81c-e673-4c5b-988b-c13f95731442","system_id":"levelo_inurba_marseille","lat":43.2743,"lon":5.3942,"is_reserved":false,"is_disabled":false,"rental_uris":{"android":"levelo://app?vid=a081e81c-e673-4c5b-988b-c13f95731442","ios":"levelo://app?vid=a081e81c-e673-4c5b-988b-c13f95731442"},"vehicle_type_id":"4","last_reported":1730488066,"current_range_meters":37600,"station_id":"ce4bhdp2rcd13ifvqf20","pricing_plan_id":"cebpf4jnsgd1na2vs0mg"},{"bike_id":"bf60f47d-6e67-4bba-a51b-eaa7f82f5c23","system_id":"levelo_inurba_marseille","lat":43.31113,"lon":5.37771,"is_reserved":false,"is_disabled":false,"rental_uris":{"android":"levelo://app?vid=bf60f47d-6e67-4bba-a51b-eaa7f82f5c23","ios":"levelo://app?vid=bf60f47d-6e67-4bba-a51b-eaa7f82f5c23"},"vehicle_type_id":"4","last_reported":1730488066,"current_range_meters":2800,"station_id":"ce4bgt92rcd13ifvqcg0","pricing_plan_id":"cebpf4jnsgd1na2vs0mg"},{"bike_id":"2d08356f-96c4-486a-a26d-a90786c55e33","system_id":"levelo_inurba_marseille","lat":43.279229,"lon":5.395764,"is_reserved":false,"is_disabled":false,"rental_uris":{"android":"levelo://app?vid=2d08356f-96c4-486a-a26d-a90786c55e33","ios":"levelo://app?vid=2d08356f-96c4-486a-a26d-a90786c55e33"},"vehicle_type_id":"4","last_reported":1730488066,"current_range_meters":22400,"station_id":"ce4bh492rcd13ifvqdug","pricing_plan_id":"cebpf4jnsgd1na2vs0mg"},{"bike_id":"01a21b68-e9bd-4a8e-8888-d00afb90da73","system_id":"levelo_inurba_marseille","lat":43.29972,"lon":5.37167,"is_reserved":false,"is_disabled":false,"rental_uris":{"android":"levelo://app?vid=01a21b68-e9bd-4a8e-8888-d00afb90da73","ios":"levelo://app?vid=01a21b68-e9bd-4a8e-8888-d00afb90da73"},"vehicle_type_id":"4","last_reported":1730488066,"current_range_meters":28800,"station_id":"ce4bgr92rcd13ifvqc7g","pricing_plan_id":"cebpf4jnsgd1na2vs0mg"},{"bike_id":"b88cc387-1703-4938-af81-f8d0873d75c3","system_id":"levelo_inurba_marseille","lat":43.28665,"lon":5.38675,"is_reserved":false,"is_disabled":false,"rental_uris":{"android":"levelo://app?vid=b88cc387-1703-4938-af81-f8d0873d75c3","ios":"levelo://app?vid=b88cc387-1703-4938-af81-f8d0873d75c3"},"vehicle_type_id":"4","last_reported":1730488066,"current_range_meters":30800,"station_id":"ce4bh492rcd13ifvqdug","pricing_plan_id":"cebpf4jnsgd1na2vs0mg"},{"bike_id":"838468ab-f744-461f-83fc-e19e85a2ff90","system_id":"levelo_inurba_marseille","lat":43.29255,"lon":5.40897,"is_reserved":false,"is_disabled":false,"rental_uris":{"android":"levelo://app?vid=838468ab-f744-461f-83fc-e19e85a2ff90","ios":"levelo://app?vid=838468ab-f744-461f-83fc-e19e85a2ff90"},"vehicle_type_id":"4","last_reported":1730488066,"current_range_meters":4400,"station_id":"ce4bh192rcd13ifvqdc0","pricing_plan_id":"cebpf4jnsgd1na2vs0mg"},{"bike_id":"ea92c34c-2cbb-485d-908f-40abd2a05d38","system_id":"levelo_inurba_marseille","lat":43.29532,"lon":5.38543,"is_reserved":false,"is_disabled":false,"rental_uris":{"android":"levelo://app?vid=ea92c34c-2cbb-485d-908f-40abd2a05d38","ios":"levelo://app?vid=ea92c34c-2cbb-485d-908f-40abd2a05d38"},"vehicle_type_id":"4","last_reported":1730488066,"current_range_meters":38800,"station_id":"ce4bgih2rcd13ifvqba0","pricing_plan_id":"cebpf4jnsgd1na2vs0mg"},{"bike_id":"bff4d2d5-c517-49af-84bd-b3ba7cffdb4c","system_id":"levelo_inurba_marseille","lat":43.25823,"lon":5.39438,"is_reserved":false,"is_disabled":false,"rental_uris":{"android":"levelo://app?vid=bff4d2d5-c517-49af-84bd-b3ba7cffdb4c","ios":"levelo://app?vid=bff4d2d5-c517-49af-84bd-b3ba7cffdb4c"},"vehicle_type_id":"4","last_reported":1730488066,"current_range_meters":27600,"station_id":"ce4bhip2rcd13ifvqft0","pricing_plan_id":"cebpf4jnsgd1na2vs0mg"},{"bike_id":"f5b8ac0f-cd64-4677-b9a3-29759d99c053","system_id":"levelo_inurba_marseille","lat":43.24998,"lon":5.38935,"is_reserved":false,"is_disabled":false,"rental_uris":{"android":"levelo://app?vid=f5b8ac0f-cd64-4677-b9a3-29759d99c053","ios":"levelo://app?vid=f5b8ac0f-cd64-4677-b9a3-29759d99c053"},"vehicle_type_id":"4","last_reported":1730488066,"current_range_meters":37600,"station_id":"ce4bhgp2rcd13ifvqfd0","pricing_plan_id":"cebpf4jnsgd1na2vs0mg"},{"bike_id":"de9618ea-10e3-4310-b928-6c66cebf53d6","system_id":"levelo_inurba_marseille","lat":43.29274,"lon":5.40121,"is_reserved":false,"is_disabled":false,"rental_uris":{"android":"levelo://app?vid=de9618ea-10e3-4310-b928-6c66cebf53d6","ios":"levelo://app?vid=de9618ea-10e3-4310-b928-6c66cebf53d6"},"vehicle_type_id":"4","last_reported":1730488066,"current_range_meters":32400,"station_id":"ce4bh312rcd13ifvqdk0","pricing_plan_id":"cebpf4jnsgd1na2vs0mg"},{"bike_id":"f286460b-1327-42c6-b462-403c33c2bb53","system_id":"levelo_inurba_marseille","lat":43.2986,"lon":5.3973,"is_reserved":false,"is_disabled":false,"rental_uris":{"android":"levelo://app?vid=f286460b-1327-42c6-b462-403c33c2bb53","ios":"levelo://app?vid=f286460b-1327-42c6-b462-403c33c2bb53"},"vehicle_type_id":"4","last_reported":1730488066,"current_range_meters":16000,"station_id":"ce4bh0h2rcd13ifvqd50","pricing_plan_id":"cebpf4jnsgd1na2vs0mg"},{"bike_id":"8c67d340-801d-46e5-b910-2f8aff3ff078","system_id":"levelo_inurba_marseille","lat":43.33366,"lon":5.37036,"is_reserved":false,"is_disabled":false,"rental_uris":{"android":"levelo://app?vid=8c67d340-801d-46e5-b910-2f8aff3ff078","ios":"levelo://app?vid=8c67d340-801d-46e5-b910-2f8aff3ff078"},"vehicle_type_id":"4","last_reported":1730488066,"current_range_meters":12000,"station_id":"","pricing_plan_id":"cebpf4jnsgd1na2vs0mg"},{"bike_id":"83356032-baeb-401a-bdff-8adddb83ed12","system_id":"levelo_inurba_marseille","lat":43.23197,"lon":5.35551,"is_reserved":false,"is_disabled":false,"rental_uris":{"android":"levelo://app?vid=83356032-baeb-401a-bdff-8adddb83ed12","ios":"levelo://app?vid=83356032-baeb-401a-bdff-8adddb83ed12"},"vehicle_type_id":"4","last_reported":1730488066,"current_range_meters":38800,"station_id":"ce4bhu92rcd13ifvqi70","pricing_plan_id":"cebpf4jnsgd1na2vs0mg"},{"bike_id":"8b023a8b-720f-44be-b0c9-cca39c242018","system_id":"levelo_inurba_marseille","lat":43.2509,"lon":5.39522,"is_reserved":false,"is_disabled":false,"rental_uris":{"android":"levelo://app?vid=8b023a8b-720f-44be-b0c9-cca39c242018","ios":"levelo://app?vid=8b023a8b-720f-44be-b0c9-cca39c242018"},"vehicle_type_id":"4","last_reported":1730488066,"current_range_meters":18800,"station_id":"ce4bhm12rcd13ifvqgkg","pricing_plan_id":"cebpf4jnsgd1na2vs0mg"},{"bike_id":"83f4cd16-b451-45ad-9011-af2f9d3ab738","system_id":"levelo_inurba_marseille","lat":43.286595,"lon":5.386705,"is_reserved":false,"is_disabled":false,"rental_uris":{"android":"levelo://app?vid=83f4cd16-b451-45ad-9011-af2f9d3ab738","ios":"levelo://app?vid=83f4cd16-b451-45ad-9011-af2f9d3ab738"},"vehicle_type_id":"4","last_reported":1730488066,"current_range_meters":36800,"station_id":"ce4bh492rcd13ifvqdug","pricing_plan_id":"cebpf4jnsgd1na2vs0mg"},{"bike_id":"c9fe9305-e5b5-403a-8ac6-ee784523647c","system_id":"levelo_inurba_marseille","lat":43.23426,"lon":5.35941,"is_reserved":false,"is_disabled":false,"rental_uris":{"android":"levelo://app?vid=c9fe9305-e5b5-403a-8ac6-ee784523647c","ios":"levelo://app?vid=c9fe9305-e5b5-403a-8ac6-ee784523647c"},"vehicle_type_id":"4","last_reported":1730488066,"current_range_meters":21600,"station_id":"","pricing_plan_id":"cebpf4jnsgd1na2vs0mg"},{"bike_id":"69a0d18e-0381-4102-9fad-3f8c57fc1228","system_id":"levelo_inurba_marseille","lat":43.230663,"lon":5.354913,"is_reserved":false,"is_disabled":false,"rental_uris":{"android":"levelo://app?vid=69a0d18e-0381-4102-9fad-3f8c57fc1228","ios":"levelo://app?vid=69a0d18e-0381-4102-9fad-3f8c57fc1228"},"vehicle_type_id":"4","last_reported":1730488066,"current_range_meters":38800,"station_id":"cpo3342slgdg3j2ifvpg","pricing_plan_id":"cebpf4jnsgd1na2vs0mg"},{"bike_id":"07d0df56-f8bc-46e6-871c-8e071fb175e5","system_id":"levelo_inurba_marseille","lat":43.2319,"lon":5.35557,"is_reserved":false,"is_disabled":false,"rental_uris":{"android":"levelo://app?vid=07d0df56-f8bc-46e6-871c-8e071fb175e5","ios":"levelo://app?vid=07d0df56-f8bc-46e6-871c-8e071fb175e5"},"vehicle_type_id":"4","last_reported":1730488066,"current_range_meters":38800,"station_id":"ce4bhu92rcd13ifvqi70","pricing_plan_id":"cebpf4jnsgd1na2vs0mg"},{"bike_id":"d067261d-1f65-4dda-b2ae-d6541cf03bfa","system_id":"levelo_inurba_marseille","lat":43.28667,"lon":5.38663,"is_reserved":false,"is_disabled":false,"rental_uris":{"android":"levelo://app?vid=d067261d-1f65-4dda-b2ae-d6541cf03bfa","ios":"levelo://app?vid=d067261d-1f65-4dda-b2ae-d6541cf03bfa"},"vehicle_type_id":"4","last_reported":1730488066,"current_range_meters":36800,"station_id":"ce4bh492rcd13ifvqdug","pricing_plan_id":"cebpf4jnsgd1na2vs0mg"},{"bike_id":"19e6008c-0743-45ac-b4bf-fc683ef0e14c","system_id":"levelo_inurba_marseille","lat":43.25721,"lon":5.41114,"is_reserved":false,"is_disabled":false,"rental_uris":{"android":"levelo://app?vid=19e6008c-0743-45ac-b4bf-fc683ef0e14c","ios":"levelo://app?vid=19e6008c-0743-45ac-b4bf-fc683ef0e14c"},"vehicle_type_id":"4","last_reported":1730488066,"current_range_meters":28800,"station_id":"ce4bhkp2rcd13ifvqgd0","pricing_plan_id":"cebpf4jnsgd1na2vs0mg"},{"bike_id":"ea65b303-9ce6-4614-8c17-85f50b72e135","system_id":"levelo_inurba_marseille","lat":43.27934,"lon":5.41047,"is_reserved":false,"is_disabled":false,"rental_uris":{"android":"levelo://app?vid=ea65b303-9ce6-4614-8c17-85f50b72e135","ios":"levelo://app?vid=ea65b303-9ce6-4614-8c17-85f50b72e135"},"vehicle_type_id":"4","last_reported":1730488066,"current_range_meters":28400,"station_id":"ce4bhnp2rcd13ifvqh0g","pricing_plan_id":"cebpf4jnsgd1na2vs0mg"},{"bike_id":"c121262e-e64f-4c57-ad81-84bc1a1971e7","system_id":"levelo_inurba_marseille","lat":43.29417,"lon":5.38613,"is_reserved":false,"is_disabled":false,"rental_uris":{"android":"levelo://app?vid=c121262e-e64f-4c57-ad81-84bc1a1971e7","ios":"levelo://app?vid=c121262e-e64f-4c57-ad81-84bc1a1971e7"},"vehicle_type_id":"4","last_reported":1730488066,"current_range_meters":26800,"station_id":"ce4bh2h2rcd13ifvqdh0","pricing_plan_id":"cebpf4jnsgd1na2vs0mg"},{"bike_id":"7acebfbf-e69c-471c-a0f1-db5a386f6510","system_id":"levelo_inurba_marseille","lat":43.29418,"lon":5.38632,"is_reserved":false,"is_disabled":false,"rental_uris":{"android":"levelo://app?vid=7acebfbf-e69c-471c-a0f1-db5a386f6510","ios":"levelo://app?vid=7acebfbf-e69c-471c-a0f1-db5a386f6510"},"vehicle_type_id":"4","last_reported":1730488066,"current_range_meters":38800,"station_id":"ce4bh2h2rcd13ifvqdh0","pricing_plan_id":"cebpf4jnsgd1na2vs0mg"},{"bike_id":"92f5ead6-9039-4f26-83e2-1d901f323392","system_id":"levelo_inurba_marseille","lat":43.319102,"lon":5.408155,"is_reserved":false,"is_disabled":false,"rental_uris":{"android":"levelo://app?vid=92f5ead6-9039-4f26-83e2-1d901f323392","ios":"levelo://app?vid=92f5ead6-9039-4f26-83e2-1d901f323392"},"vehicle_type_id":"4","last_reported":1730488066,"current_range_meters":24800,"station_id":"ce4bhq12rcd13ifvqhig","pricing_plan_id":"cebpf4jnsgd1na2vs0mg"},{"bike_id":"e46bb17b-2752-4677-bb19-57747f80054d","system_id":"levelo_inurba_marseille","lat":43.30355,"lon":5.41883,"is_reserved":false,"is_disabled":false,"rental_uris":{"android":"levelo://app?vid=e46bb17b-2752-4677-bb19-57747f80054d","ios":"levelo://app?vid=e46bb17b-2752-4677-bb19-57747f80054d"},"vehicle_type_id":"4","last_reported":1730488066,"current_range_meters":17200,"station_id":"ce4bhop2rcd13ifvqh7g","pricing_plan_id":"cebpf4jnsgd1na2vs0mg"},{"bike_id":"223427b6-a667-4fba-bfd1-d25670cecee0","system_id":"levelo_inurba_marseille","lat":43.29031,"lon":5.3756,"is_reserved":false,"is_disabled":false,"rental_uris":{"android":"levelo://app?vid=223427b6-a667-4fba-bfd1-d25670cecee0","ios":"levelo://app?vid=223427b6-a667-4fba-bfd1-d25670cecee0"},"vehicle_type_id":"4","last_reported":1730488066,"current_range_meters":38800,"station_id":"ce4bh692rcd13ifvqe90","pricing_plan_id":"cebpf4jnsgd1na2vs0mg"},{"bike_id":"5593522d-2de9-48c0-a42a-44f9da3b1f87","system_id":"levelo_inurba_marseille","lat":43.30007,"lon":5.37187,"is_reserved":false,"is_disabled":false,"rental_uris":{"android":"levelo://app?vid=5593522d-2de9-48c0-a42a-44f9da3b1f87","ios":"levelo://app?vid=5593522d-2de9-48c0-a42a-44f9da3b1f87"},"vehicle_type_id":"4","last_reported":1730488066,"current_range_meters":38000,"station_id":"ce4bgr92rcd13ifvqc7g","pricing_plan_id":"cebpf4jnsgd1na2vs0mg"},{"bike_id":"27a302cb-edc8-497a-bad2-a9681f63458f","system_id":"levelo_inurba_marseille","lat":43.28476,"lon":5.38564,"is_reserved":false,"is_disabled":false,"rental_uris":{"android":"levelo://app?vid=27a302cb-edc8-497a-bad2-a9681f63458f","ios":"levelo://app?vid=27a302cb-edc8-497a-bad2-a9681f63458f"},"vehicle_type_id":"4","last_reported":1730488066,"current_range_meters":25200,"station_id":"ce4bh8p2rcd13ifvqeb0","pricing_plan_id":"cebpf4jnsgd1na2vs0mg"},{"bike_id":"367151e3-d9d1-496e-afc3-1d3ad14f98c6","system_id":"levelo_inurba_marseille","lat":43.32368,"lon":5.38885,"is_reserved":false,"is_disabled":false,"rental_uris":{"android":"levelo://app?vid=367151e3-d9d1-496e-afc3-1d3ad14f98c6","ios":"levelo://app?vid=367151e3-d9d1-496e-afc3-1d3ad14f98c6"},"vehicle_type_id":"4","last_reported":1730488066,"current_range_meters":36000,"station_id":"ce4bhqp2rcd13ifvqhog","pricing_plan_id":"cebpf4jnsgd1na2vs0mg"},{"bike_id":"f615e294-0409-44a2-a018-25a12cadb6a0","system_id":"levelo_inurba_marseille","lat":43.29254,"lon":5.38447,"is_reserved":false,"is_disabled":false,"rental_uris":{"android":"levelo://app?vid=f615e294-0409-44a2-a018-25a12cadb6a0","ios":"levelo://app?vid=f615e294-0409-44a2-a018-25a12cadb6a0"},"vehicle_type_id":"4","last_reported":1730488066,"current_range_meters":9600,"station_id":"ce4bh692rcd13ifvqea0","pricing_plan_id":"cebpf4jnsgd1na2vs0mg"},{"bike_id":"fa7d38ef-c418-4bde-b143-9bcbada10e22","system_id":"levelo_inurba_marseille","lat":43.28922,"lon":5.39624,"is_reserved":false,"is_disabled":false,"rental_uris":{"android":"levelo://app?vid=fa7d38ef-c418-4bde-b143-9bcbada10e22","ios":"levelo://app?vid=fa7d38ef-c418-4bde-b143-9bcbada10e22"},"vehicle_type_id":"4","last_reported":1730488066,"current_range_meters":37600,"station_id":"ce4bh3h2rcd13ifvqdn0","pricing_plan_id":"cebpf4jnsgd1na2vs0mg"},{"bike_id":"d8b30d62-8fb7-4930-b190-e85b44e5d382","system_id":"levelo_inurba_marseille","lat":43.29807,"lon":5.38095,"is_reserved":false,"is_disabled":false,"rental_uris":{"android":"levelo://app?vid=d8b30d62-8fb7-4930-b190-e85b44e5d382","ios":"levelo://app?vid=d8b30d62-8fb7-4930-b190-e85b44e5d382"},"vehicle_type_id":"4","last_reported":1730488066,"current_range_meters":24400,"station_id":"ce4bgip2rcd13ifvqbb0","pricing_plan_id":"cebpf4jnsgd1na2vs0mg"},{"bike_id":"45a7b138-6734-4c36-9029-1c78825153fb","system_id":"levelo_inurba_marseille","lat":43.27378,"lon":5.36265,"is_reserved":false,"is_disabled":false,"rental_uris":{"android":"levelo://app?vid=45a7b138-6734-4c36-9029-1c78825153fb","ios":"levelo://app?vid=45a7b138-6734-4c36-9029-1c78825153fb"},"vehicle_type_id":"4","last_reported":1730488066,"current_range_meters":30800,"station_id":"ce4bhbh2rcd13ifvqeo0","pricing_plan_id":"cebpf4jnsgd1na2vs0mg"},{"bike_id":"b308451d-42cb-41d1-b5a5-a3a56d0b89d4","system_id":"levelo_inurba_marseille","lat":43.29033,"lon":5.38649,"is_reserved":false,"is_disabled":false,"rental_uris":{"android":"levelo://app?vid=b308451d-42cb-41d1-b5a5-a3a56d0b89d4","ios":"levelo://app?vid=b308451d-42cb-41d1-b5a5-a3a56d0b89d4"},"vehicle_type_id":"4","last_reported":1730488066,"current_range_meters":38800,"station_id":"ce4bh4p2rcd13ifvqe0g","pricing_plan_id":"cebpf4jnsgd1na2vs0mg"},{"bike_id":"a51b32eb-bce6-49ee-995d-911914cb0a4d","system_id":"levelo_inurba_marseille","lat":43.298061,"lon":5.380956,"is_reserved":false,"is_disabled":false,"rental_uris":{"android":"levelo://app?vid=a51b32eb-bce6-49ee-995d-911914cb0a4d","ios":"levelo://app?vid=a51b32eb-bce6-49ee-995d-911914cb0a4d"},"vehicle_type_id":"4","last_reported":1730488066,"current_range_meters":19200,"station_id":"ce4bgip2rcd13ifvqbb0","pricing_plan_id":"cebpf4jnsgd1na2vs0mg"},{"bike_id":"57d18951-2001-4003-92d2-aa5cb684af8c","system_id":"levelo_inurba_marseille","lat":43.27109,"lon":5.39455,"is_reserved":false,"is_disabled":false,"rental_uris":{"android":"levelo://app?vid=57d18951-2001-4003-92d2-aa5cb684af8c","ios":"levelo://app?vid=57d18951-2001-4003-92d2-aa5cb684af8c"},"vehicle_type_id":"4","last_reported":1730488066,"current_range_meters":20800,"station_id":"","pricing_plan_id":"cebpf4jnsgd1na2vs0mg"},{"bike_id":"5c27b960-6461-4f9d-887b-b61a1549abaa","system_id":"levelo_inurba_marseille","lat":43.25111,"lon":5.40319,"is_reserved":false,"is_disabled":false,"rental_uris":{"android":"levelo://app?vid=5c27b960-6461-4f9d-887b-b61a1549abaa","ios":"levelo://app?vid=5c27b960-6461-4f9d-887b-b61a1549abaa"},"vehicle_type_id":"4","last_reported":1730488066,"current_range_meters":12800,"station_id":"ce4bhlh2rcd13ifvqgig","pricing_plan_id":"cebpf4jnsgd1na2vs0mg"},{"bike_id":"3730747f-62e1-4de2-8b52-5c433fdc4dd3","system_id":"levelo_inurba_marseille","lat":43.23179,"lon":5.39986,"is_reserved":false,"is_disabled":false,"rental_uris":{"android":"levelo://app?vid=3730747f-62e1-4de2-8b52-5c433fdc4dd3","ios":"levelo://app?vid=3730747f-62e1-4de2-8b52-5c433fdc4dd3"},"vehicle_type_id":"4","last_reported":1730488066,"current_range_meters":6400,"station_id":"ce4bhn12rcd13ifvqgqg","pricing_plan_id":"cebpf4jnsgd1na2vs0mg"},{"bike_id":"682bf1c5-5903-4d2f-ab10-5dd6d792be55","system_id":"levelo_inurba_marseille","lat":43.25825,"lon":5.39438,"is_reserved":false,"is_disabled":false,"rental_uris":{"android":"levelo://app?vid=682bf1c5-5903-4d2f-ab10-5dd6d792be55","ios":"levelo://app?vid=682bf1c5-5903-4d2f-ab10-5dd6d792be55"},"vehicle_type_id":"4","last_reported":1730488066,"current_range_meters":13600,"station_id":"ce4bhip2rcd13ifvqft0","pricing_plan_id":"cebpf4jnsgd1na2vs0mg"},{"bike_id":"e8bb2e43-06e1-4662-9540-13b29d948ad5","system_id":"levelo_inurba_marseille","lat":43.33725,"lon":5.39187,"is_reserved":false,"is_disabled":false,"rental_uris":{"android":"levelo://app?vid=e8bb2e43-06e1-4662-9540-13b29d948ad5","ios":"levelo://app?vid=e8bb2e43-06e1-4662-9540-13b29d948ad5"},"vehicle_type_id":"4","last_reported":1730488066,"current_range_meters":7200,"station_id":"ce4bhr92rcd13ifvqhsg","pricing_plan_id":"cebpf4jnsgd1na2vs0mg"},{"bike_id":"8f921bfa-d64f-4564-86cf-1940fa7b1a78","system_id":"levelo_inurba_marseille","lat":43.29445,"lon":5.39748,"is_reserved":false,"is_disabled":false,"rental_uris":{"android":"levelo://app?vid=8f921bfa-d64f-4564-86cf-1940fa7b1a78","ios":"levelo://app?vid=8f921bfa-d64f-4564-86cf-1940fa7b1a78"},"vehicle_type_id":"4","last_reported":1730488066,"current_range_meters":4400,"station_id":"ce4bh3h2rcd13ifvqdo0","pricing_plan_id":"cebpf4jnsgd1na2vs0mg"},{"bike_id":"acbd4b0d-3693-4cc0-8d0e-f86217a260cb","system_id":"levelo_inurba_marseille","lat":43.28934,"lon":5.38383,"is_reserved":false,"is_disabled":false,"rental_uris":{"android":"levelo://app?vid=acbd4b0d-3693-4cc0-8d0e-f86217a260cb","ios":"levelo://app?vid=acbd4b0d-3693-4cc0-8d0e-f86217a260cb"},"vehicle_type_id":"4","last_reported":1730488066,"current_range_meters":10800,"station_id":"ce4bh612rcd13ifvqe6g","pricing_plan_id":"cebpf4jnsgd1na2vs0mg"},{"bike_id":"dee78bd8-3802-45af-a002-dc082f3ccf4c","system_id":"levelo_inurba_marseille","lat":43.2998,"lon":5.38475,"is_reserved":false,"is_disabled":false,"rental_uris":{"android":"levelo://app?vid=dee78bd8-3802-45af-a002-dc082f3ccf4c","ios":"levelo://app?vid=dee78bd8-3802-45af-a002-dc082f3ccf4c"},"vehicle_type_id":"4","last_reported":1730488066,"current_range_meters":17200,"station_id":"ce4bgj92rcd13ifvqbd0","pricing_plan_id":"cebpf4jnsgd1na2vs0mg"},{"bike_id":"ad0b6116-1175-4843-b640-e7e76a5199c3","system_id":"levelo_inurba_marseille","lat":43.29614,"lon":5.37155,"is_reserved":false,"is_disabled":false,"rental_uris":{"android":"levelo://app?vid=ad0b6116-1175-4843-b640-e7e76a5199c3","ios":"levelo://app?vid=ad0b6116-1175-4843-b640-e7e76a5199c3"},"vehicle_type_id":"4","last_reported":1730488066,"current_range_meters":38800,"station_id":"ce4bgnh2rcd13ifvqc0g","pricing_plan_id":"cebpf4jnsgd1na2vs0mg"},{"bike_id":"94279a57-03c0-47b7-abe3-7226e86fd3b0","system_id":"levelo_inurba_marseille","lat":43.27604,"lon":5.36117,"is_reserved":false,"is_disabled":false,"rental_uris":{"android":"levelo://app?vid=94279a57-03c0-47b7-abe3-7226e86fd3b0","ios":"levelo://app?vid=94279a57-03c0-47b7-abe3-7226e86fd3b0"},"vehicle_type_id":"4","last_reported":1730488066,"current_range_meters":24400,"station_id":"ce4bgj92rcd13ifvqbe0","pricing_plan_id":"cebpf4jnsgd1na2vs0mg"},{"bike_id":"59b6c4df-2efc-488e-9091-ae041fc70747","system_id":"levelo_inurba_marseille","lat":43.29906,"lon":5.38141,"is_reserved":false,"is_disabled":false,"rental_uris":{"android":"levelo://app?vid=59b6c4df-2efc-488e-9091-ae041fc70747","ios":"levelo://app?vid=59b6c4df-2efc-488e-9091-ae041fc70747"},"vehicle_type_id":"4","last_reported":1730488066,"current_range_meters":3600,"station_id":"ce4bgj12rcd13ifvqbc0","pricing_plan_id":"cebpf4jnsgd1na2vs0mg"},{"bike_id":"9ee9f6c7-8f7f-4af6-9064-132ef6a59dfd","system_id":"levelo_inurba_marseille","lat":43.30277,"lon":5.37701,"is_reserved":false,"is_disabled":false,"rental_uris":{"android":"levelo://app?vid=9ee9f6c7-8f7f-4af6-9064-132ef6a59dfd","ios":"levelo://app?vid=9ee9f6c7-8f7f-4af6-9064-132ef6a59dfd"},"vehicle_type_id":"4","last_reported":1730488066,"current_range_meters":32000,"station_id":"ce4bguh2rcd13ifvqcj0","pricing_plan_id":"cebpf4jnsgd1na2vs0mg"},{"bike_id":"41866827-2f64-4cf7-8a6f-149d36745074","system_id":"levelo_inurba_marseille","lat":43.33031,"lon":5.39045,"is_reserved":false,"is_disabled":false,"rental_uris":{"android":"levelo://app?vid=41866827-2f64-4cf7-8a6f-149d36745074","ios":"levelo://app?vid=41866827-2f64-4cf7-8a6f-149d36745074"},"vehicle_type_id":"4","last_reported":1730488066,"current_range_meters":24000,"station_id":"ce4bhr92rcd13ifvqhrg","pricing_plan_id":"cebpf4jnsgd1na2vs0mg"},{"bike_id":"42048d4f-3394-4b7d-9f23-8170efa9936e","system_id":"levelo_inurba_marseille","lat":43.29599,"lon":5.37718,"is_reserved":false,"is_disabled":false,"rental_uris":{"android":"levelo://app?vid=42048d4f-3394-4b7d-9f23-8170efa9936e","ios":"levelo://app?vid=42048d4f-3394-4b7d-9f23-8170efa9936e"},"vehicle_type_id":"4","last_reported":1730488066,"current_range_meters":37600,"station_id":"ce4bgi92rcd13ifvqb90","pricing_plan_id":"cebpf4jnsgd1na2vs0mg"},{"bike_id":"811f91a7-b491-4bd2-b61b-6549a4b39843","system_id":"levelo_inurba_marseille","lat":43.29414,"lon":5.38609,"is_reserved":false,"is_disabled":false,"rental_uris":{"android":"levelo://app?vid=811f91a7-b491-4bd2-b61b-6549a4b39843","ios":"levelo://app?vid=811f91a7-b491-4bd2-b61b-6549a4b39843"},"vehicle_type_id":"4","last_reported":1730488066,"current_range_meters":32400,"station_id":"ce4bh2h2rcd13ifvqdh0","pricing_plan_id":"cebpf4jnsgd1na2vs0mg"},{"bike_id":"ce7a9679-1309-4337-a277-05901a838b7d","system_id":"levelo_inurba_marseille","lat":43.29347,"lon":5.43429,"is_reserved":false,"is_disabled":false,"rental_uris":{"android":"levelo://app?vid=ce7a9679-1309-4337-a277-05901a838b7d","ios":"levelo://app?vid=ce7a9679-1309-4337-a277-05901a838b7d"},"vehicle_type_id":"4","last_reported":1730488066,"current_range_meters":16000,"station_id":"","pricing_plan_id":"cebpf4jnsgd1na2vs0mg"},{"bike_id":"53723872-2042-4a2a-a3f1-1097eb0222b3","system_id":"levelo_inurba_marseille","lat":43.29022,"lon":5.38647,"is_reserved":false,"is_disabled":false,"rental_uris":{"android":"levelo://app?vid=53723872-2042-4a2a-a3f1-1097eb0222b3","ios":"levelo://app?vid=53723872-2042-4a2a-a3f1-1097eb0222b3"},"vehicle_type_id":"4","last_reported":1730488066,"current_range_meters":37600,"station_id":"ce4bh4p2rcd13ifvqe0g","pricing_plan_id":"cebpf4jnsgd1na2vs0mg"},{"bike_id":"4f7284c8-d4ff-445f-a445-a7ce122e2dd7","system_id":"levelo_inurba_marseille","lat":43.30783,"lon":5.37649,"is_reserved":false,"is_disabled":false,"rental_uris":{"android":"levelo://app?vid=4f7284c8-d4ff-445f-a445-a7ce122e2dd7","ios":"levelo://app?vid=4f7284c8-d4ff-445f-a445-a7ce122e2dd7"},"vehicle_type_id":"4","last_reported":1730488066,"current_range_meters":38800,"station_id":"ce4bgv92rcd13ifvqcq0","pricing_plan_id":"cebpf4jnsgd1na2vs0mg"},{"bike_id":"3ae8841f-d1cc-4892-a751-8ec8126cd94b","system_id":"levelo_inurba_marseille","lat":43.29171,"lon":5.37146,"is_reserved":false,"is_disabled":false,"rental_uris":{"android":"levelo://app?vid=3ae8841f-d1cc-4892-a751-8ec8126cd94b","ios":"levelo://app?vid=3ae8841f-d1cc-4892-a751-8ec8126cd94b"},"vehicle_type_id":"4","last_reported":1730488066,"current_range_meters":8400,"station_id":"ce4bha92rcd13ifvqeh0","pricing_plan_id":"cebpf4jnsgd1na2vs0mg"},{"bike_id":"cb8c5fac-0167-4c47-846d-08c7ae196292","system_id":"levelo_inurba_marseille","lat":43.29846,"lon":5.36283,"is_reserved":false,"is_disabled":false,"rental_uris":{"android":"levelo://app?vid=cb8c5fac-0167-4c47-846d-08c7ae196292","ios":"levelo://app?vid=cb8c5fac-0167-4c47-846d-08c7ae196292"},"vehicle_type_id":"4","last_reported":1730488066,"current_range_meters":36400,"station_id":"ce4bgpp2rcd13ifvqc3g","pricing_plan_id":"cebpf4jnsgd1na2vs0mg"},{"bike_id":"599ccf78-c0e4-4752-a96f-647a881ccaac","system_id":"levelo_inurba_marseille","lat":43.29618,"lon":5.37169,"is_reserved":false,"is_disabled":false,"rental_uris":{"android":"levelo://app?vid=599ccf78-c0e4-4752-a96f-647a881ccaac","ios":"levelo://app?vid=599ccf78-c0e4-4752-a96f-647a881ccaac"},"vehicle_type_id":"4","last_reported":1730488066,"current_range_meters":18000,"station_id":"ce4bgnh2rcd13ifvqc0g","pricing_plan_id":"cebpf4jnsgd1na2vs0mg"},{"bike_id":"a98b2f3b-5060-470b-9b14-03f8bb869539","system_id":"levelo_inurba_marseille","lat":43.28572,"lon":5.39496,"is_reserved":false,"is_disabled":false,"rental_uris":{"android":"levelo://app?vid=a98b2f3b-5060-470b-9b14-03f8bb869539","ios":"levelo://app?vid=a98b2f3b-5060-470b-9b14-03f8bb869539"},"vehicle_type_id":"4","last_reported":1730488066,"current_range_meters":32400,"station_id":"ce4bh292rcd13ifvqdg0","pricing_plan_id":"cebpf4jnsgd1na2vs0mg"},{"bike_id":"5f3a8755-2f68-4e02-bcb6-84343925c567","system_id":"levelo_inurba_marseille","lat":43.265729,"lon":5.390239,"is_reserved":false,"is_disabled":false,"rental_uris":{"android":"levelo://app?vid=5f3a8755-2f68-4e02-bcb6-84343925c567","ios":"levelo://app?vid=5f3a8755-2f68-4e02-bcb6-84343925c567"},"vehicle_type_id":"4","last_reported":1730488066,"current_range_meters":38800,"station_id":"ce4bhe12rcd13ifvqf30","pricing_plan_id":"cebpf4jnsgd1na2vs0mg"},{"bike_id":"f875d8c1-2418-4485-8232-5f9a7c08c422","system_id":"levelo_inurba_marseille","lat":43.290347,"lon":5.369807,"is_reserved":false,"is_disabled":false,"rental_uris":{"android":"levelo://app?vid=f875d8c1-2418-4485-8232-5f9a7c08c422","ios":"levelo://app?vid=f875d8c1-2418-4485-8232-5f9a7c08c422"},"vehicle_type_id":"4","last_reported":1730488066,"current_range_meters":8400,"station_id":"ce4bh5p2rcd13ifvqe4g","pricing_plan_id":"cebpf4jnsgd1na2vs0mg"},{"bike_id":"89278f8d-dfe9-4ad6-a16f-d4bb717fd27f","system_id":"levelo_inurba_marseille","lat":43.29422,"lon":5.38628,"is_reserved":false,"is_disabled":false,"rental_uris":{"android":"levelo://app?vid=89278f8d-dfe9-4ad6-a16f-d4bb717fd27f","ios":"levelo://app?vid=89278f8d-dfe9-4ad6-a16f-d4bb717fd27f"},"vehicle_type_id":"4","last_reported":1730488066,"current_range_meters":24000,"station_id":"ce4bh2h2rcd13ifvqdh0","pricing_plan_id":"cebpf4jnsgd1na2vs0mg"},{"bike_id":"84595f86-5271-4f78-840b-c9c150f15c67","system_id":"levelo_inurba_marseille","lat":43.29984,"lon":5.37171,"is_reserved":false,"is_disabled":false,"rental_uris":{"android":"levelo://app?vid=84595f86-5271-4f78-840b-c9c150f15c67","ios":"levelo://app?vid=84595f86-5271-4f78-840b-c9c150f15c67"},"vehicle_type_id":"4","last_reported":1730488066,"current_range_meters":39200,"station_id":"ce4bgr92rcd13ifvqc7g","pricing_plan_id":"cebpf4jnsgd1na2vs0mg"},{"bike_id":"aea44ede-f2aa-4413-b1bd-9de00b274b46","system_id":"levelo_inurba_marseille","lat":43.24998,"lon":5.38925,"is_reserved":false,"is_disabled":false,"rental_uris":{"android":"levelo://app?vid=aea44ede-f2aa-4413-b1bd-9de00b274b46","ios":"levelo://app?vid=aea44ede-f2aa-4413-b1bd-9de00b274b46"},"vehicle_type_id":"4","last_reported":1730488066,"current_range_meters":30400,"station_id":"ce4bhgp2rcd13ifvqfd0","pricing_plan_id":"cebpf4jnsgd1na2vs0mg"},{"bike_id":"7200179c-86bd-414e-93c9-ac9e37aecfd9","system_id":"levelo_inurba_marseille","lat":43.30132,"lon":5.38784,"is_reserved":false,"is_disabled":false,"rental_uris":{"android":"levelo://app?vid=7200179c-86bd-414e-93c9-ac9e37aecfd9","ios":"levelo://app?vid=7200179c-86bd-414e-93c9-ac9e37aecfd9"},"vehicle_type_id":"4","last_reported":1730488066,"current_range_meters":31200,"station_id":"ce4bghh2rcd13ifvqb60","pricing_plan_id":"cebpf4jnsgd1na2vs0mg"},{"bike_id":"48f311ea-c15c-4c36-b596-38b404fd4878","system_id":"levelo_inurba_marseille","lat":43.29595,"lon":5.38097,"is_reserved":false,"is_disabled":false,"rental_uris":{"android":"levelo://app?vid=48f311ea-c15c-4c36-b596-38b404fd4878","ios":"levelo://app?vid=48f311ea-c15c-4c36-b596-38b404fd4878"},"vehicle_type_id":"4","last_reported":1730488066,"current_range_meters":36000,"station_id":"ce4bgl12rcd13ifvqbo0","pricing_plan_id":"cebpf4jnsgd1na2vs0mg"},{"bike_id":"276b2d1e-7059-4e74-a7da-ce07ae31918a","system_id":"levelo_inurba_marseille","lat":43.25585,"lon":5.38228,"is_reserved":false,"is_disabled":false,"rental_uris":{"android":"levelo://app?vid=276b2d1e-7059-4e74-a7da-ce07ae31918a","ios":"levelo://app?vid=276b2d1e-7059-4e74-a7da-ce07ae31918a"},"vehicle_type_id":"4","last_reported":1730488066,"current_range_meters":25600,"station_id":"ce4bhih2rcd13ifvqfs0","pricing_plan_id":"cebpf4jnsgd1na2vs0mg"},{"bike_id":"41d47d69-979b-4480-8fb6-135de4b1e8ff","system_id":"levelo_inurba_marseille","lat":43.2572,"lon":5.41112,"is_reserved":false,"is_disabled":false,"rental_uris":{"android":"levelo://app?vid=41d47d69-979b-4480-8fb6-135de4b1e8ff","ios":"levelo://app?vid=41d47d69-979b-4480-8fb6-135de4b1e8ff"},"vehicle_type_id":"4","last_reported":1730488066,"current_range_meters":38800,"station_id":"ce4bhkp2rcd13ifvqgd0","pricing_plan_id":"cebpf4jnsgd1na2vs0mg"},{"bike_id":"19962a1c-7cc9-48c4-bb67-d8f29d99d936","system_id":"levelo_inurba_marseille","lat":43.27317,"lon":5.39101,"is_reserved":false,"is_disabled":false,"rental_uris":{"android":"levelo://app?vid=19962a1c-7cc9-48c4-bb67-d8f29d99d936","ios":"levelo://app?vid=19962a1c-7cc9-48c4-bb67-d8f29d99d936"},"vehicle_type_id":"4","last_reported":1730488066,"current_range_meters":27600,"station_id":"ce4bhgp2rcd13ifvqfe0","pricing_plan_id":"cebpf4jnsgd1na2vs0mg"},{"bike_id":"066435ff-957d-4c00-bee6-d0afc37d866a","system_id":"levelo_inurba_marseille","lat":43.29687,"lon":5.37303,"is_reserved":false,"is_disabled":false,"rental_uris":{"android":"levelo://app?vid=066435ff-957d-4c00-bee6-d0afc37d866a","ios":"levelo://app?vid=066435ff-957d-4c00-bee6-d0afc37d866a"},"vehicle_type_id":"4","last_reported":1730488066,"current_range_meters":13600,"station_id":"ce4bgk12rcd13ifvqbj0","pricing_plan_id":"cebpf4jnsgd1na2vs0mg"},{"bike_id":"9672c570-58d9-4825-a0a0-9807afd552cd","system_id":"levelo_inurba_marseille","lat":43.30773,"lon":5.37652,"is_reserved":false,"is_disabled":false,"rental_uris":{"android":"levelo://app?vid=9672c570-58d9-4825-a0a0-9807afd552cd","ios":"levelo://app?vid=9672c570-58d9-4825-a0a0-9807afd552cd"},"vehicle_type_id":"4","last_reported":1730488066,"current_range_meters":38800,"station_id":"ce4bgv92rcd13ifvqcq0","pricing_plan_id":"cebpf4jnsgd1na2vs0mg"},{"bike_id":"f68b3ed3-30da-4022-9721-0a70833c562e","system_id":"levelo_inurba_marseille","lat":43.29258,"lon":5.38446,"is_reserved":false,"is_disabled":false,"rental_uris":{"android":"levelo://app?vid=f68b3ed3-30da-4022-9721-0a70833c562e","ios":"levelo://app?vid=f68b3ed3-30da-4022-9721-0a70833c562e"},"vehicle_type_id":"4","last_reported":1730488066,"current_range_meters":38800,"station_id":"ce4bh692rcd13ifvqea0","pricing_plan_id":"cebpf4jnsgd1na2vs0mg"},{"bike_id":"1f1632d0-3b04-45d9-9e18-35c41e08aec0","system_id":"levelo_inurba_marseille","lat":43.29254,"lon":5.38436,"is_reserved":false,"is_disabled":false,"rental_uris":{"android":"levelo://app?vid=1f1632d0-3b04-45d9-9e18-35c41e08aec0","ios":"levelo://app?vid=1f1632d0-3b04-45d9-9e18-35c41e08aec0"},"vehicle_type_id":"4","last_reported":1730488066,"current_range_meters":9600,"station_id":"ce4bh692rcd13ifvqea0","pricing_plan_id":"cebpf4jnsgd1na2vs0mg"},{"bike_id":"2565876a-0761-4ba5-8c32-fe57beb03d94","system_id":"levelo_inurba_marseille","lat":43.30354,"lon":5.41877,"is_reserved":false,"is_disabled":false,"rental_uris":{"android":"levelo://app?vid=2565876a-0761-4ba5-8c32-fe57beb03d94","ios":"levelo://app?vid=2565876a-0761-4ba5-8c32-fe57beb03d94"},"vehicle_type_id":"4","last_reported":1730488066,"current_range_meters":38800,"station_id":"ce4bhop2rcd13ifvqh7g","pricing_plan_id":"cebpf4jnsgd1na2vs0mg"},{"bike_id":"15e2c685-257d-4297-877a-0aca2d50c457","system_id":"levelo_inurba_marseille","lat":43.29524,"lon":5.38543,"is_reserved":false,"is_disabled":false,"rental_uris":{"android":"levelo://app?vid=15e2c685-257d-4297-877a-0aca2d50c457","ios":"levelo://app?vid=15e2c685-257d-4297-877a-0aca2d50c457"},"vehicle_type_id":"4","last_reported":1730488066,"current_range_meters":3200,"station_id":"ce4bgih2rcd13ifvqba0","pricing_plan_id":"cebpf4jnsgd1na2vs0mg"},{"bike_id":"e39e1e28-0432-422f-99a9-1b8f8972f3cf","system_id":"levelo_inurba_marseille","lat":43.30382,"lon":5.41879,"is_reserved":false,"is_disabled":false,"rental_uris":{"android":"levelo://app?vid=e39e1e28-0432-422f-99a9-1b8f8972f3cf","ios":"levelo://app?vid=e39e1e28-0432-422f-99a9-1b8f8972f3cf"},"vehicle_type_id":"4","last_reported":1730488066,"current_range_meters":24800,"station_id":"ce4bhop2rcd13ifvqh7g","pricing_plan_id":"cebpf4jnsgd1na2vs0mg"},{"bike_id":"20735d6c-f64d-4804-9c0a-97ab0e63b259","system_id":"levelo_inurba_marseille","lat":43.29563,"lon":5.37369,"is_reserved":false,"is_disabled":false,"rental_uris":{"android":"levelo://app?vid=20735d6c-f64d-4804-9c0a-97ab0e63b259","ios":"levelo://app?vid=20735d6c-f64d-4804-9c0a-97ab0e63b259"},"vehicle_type_id":"4","last_reported":1730488066,"current_range_meters":38000,"station_id":"","pricing_plan_id":"cebpf4jnsgd1na2vs0mg"},{"bike_id":"bf4d3e05-778d-43c7-a6f9-36a204e68783","system_id":"levelo_inurba_marseille","lat":43.29414,"lon":5.38613,"is_reserved":false,"is_disabled":false,"rental_uris":{"android":"levelo://app?vid=bf4d3e05-778d-43c7-a6f9-36a204e68783","ios":"levelo://app?vid=bf4d3e05-778d-43c7-a6f9-36a204e68783"},"vehicle_type_id":"4","last_reported":1730488066,"current_range_meters":38800,"station_id":"ce4bh2h2rcd13ifvqdh0","pricing_plan_id":"cebpf4jnsgd1na2vs0mg"},{"bike_id":"2e679aa2-6222-4666-94d2-8febbbac34cf","system_id":"levelo_inurba_marseille","lat":43.28958,"lon":5.4809,"is_reserved":false,"is_disabled":false,"rental_uris":{"android":"levelo://app?vid=2e679aa2-6222-4666-94d2-8febbbac34cf","ios":"levelo://app?vid=2e679aa2-6222-4666-94d2-8febbbac34cf"},"vehicle_type_id":"4","last_reported":1730488066,"current_range_meters":6000,"station_id":"","pricing_plan_id":"cebpf4jnsgd1na2vs0mg"},{"bike_id":"824d79de-37c9-48a6-8501-ab22ab90c310","system_id":"levelo_inurba_marseille","lat":43.28662,"lon":5.38668,"is_reserved":false,"is_disabled":false,"rental_uris":{"android":"levelo://app?vid=824d79de-37c9-48a6-8501-ab22ab90c310","ios":"levelo://app?vid=824d79de-37c9-48a6-8501-ab22ab90c310"},"vehicle_type_id":"4","last_reported":1730488066,"current_range_meters":38800,"station_id":"ce4bh492rcd13ifvqdug","pricing_plan_id":"cebpf4jnsgd1na2vs0mg"},{"bike_id":"5e009c35-9d88-4f66-bd94-1eb3233a1fac","system_id":"levelo_inurba_marseille","lat":43.29533,"lon":5.38543,"is_reserved":false,"is_disabled":false,"rental_uris":{"android":"levelo://app?vid=5e009c35-9d88-4f66-bd94-1eb3233a1fac","ios":"levelo://app?vid=5e009c35-9d88-4f66-bd94-1eb3233a1fac"},"vehicle_type_id":"4","last_reported":1730488066,"current_range_meters":28000,"station_id":"ce4bgih2rcd13ifvqba0","pricing_plan_id":"cebpf4jnsgd1na2vs0mg"},{"bike_id":"54dd712f-6350-40fd-8a91-ee2e61e6eb84","system_id":"levelo_inurba_marseille","lat":43.25501,"lon":5.37649,"is_reserved":false,"is_disabled":false,"rental_uris":{"android":"levelo://app?vid=54dd712f-6350-40fd-8a91-ee2e61e6eb84","ios":"levelo://app?vid=54dd712f-6350-40fd-8a91-ee2e61e6eb84"},"vehicle_type_id":"4","last_reported":1730488066,"current_range_meters":13600,"station_id":"ce4bhh12rcd13ifvqff0","pricing_plan_id":"cebpf4jnsgd1na2vs0mg"},{"bike_id":"00914418-d711-4803-ba46-3e4794134197","system_id":"levelo_inurba_marseille","lat":43.29588,"lon":5.37719,"is_reserved":false,"is_disabled":false,"rental_uris":{"android":"levelo://app?vid=00914418-d711-4803-ba46-3e4794134197","ios":"levelo://app?vid=00914418-d711-4803-ba46-3e4794134197"},"vehicle_type_id":"4","last_reported":1730488066,"current_range_meters":38800,"station_id":"ce4bgi92rcd13ifvqb90","pricing_plan_id":"cebpf4jnsgd1na2vs0mg"},{"bike_id":"7c50e5e9-c136-4efc-b8bd-aefde72dc3b3","system_id":"levelo_inurba_marseille","lat":43.272827,"lon":5.391708,"is_reserved":false,"is_disabled":false,"rental_uris":{"android":"levelo://app?vid=7c50e5e9-c136-4efc-b8bd-aefde72dc3b3","ios":"levelo://app?vid=7c50e5e9-c136-4efc-b8bd-aefde72dc3b3"},"vehicle_type_id":"4","last_reported":1730488066,"current_range_meters":10800,"station_id":"","pricing_plan_id":"cebpf4jnsgd1na2vs0mg"},{"bike_id":"43696823-ec85-43a1-892d-54413b95bdce","system_id":"levelo_inurba_marseille","lat":43.229556,"lon":5.353404,"is_reserved":false,"is_disabled":false,"rental_uris":{"android":"levelo://app?vid=43696823-ec85-43a1-892d-54413b95bdce","ios":"levelo://app?vid=43696823-ec85-43a1-892d-54413b95bdce"},"vehicle_type_id":"4","last_reported":1730488066,"current_range_meters":30400,"station_id":"cpo3532slgdg3j2ikp40","pricing_plan_id":"cebpf4jnsgd1na2vs0mg"},{"bike_id":"6205e089-896e-4e5e-ae17-f8e6ecd38df5","system_id":"levelo_inurba_marseille","lat":43.29597,"lon":5.37713,"is_reserved":false,"is_disabled":false,"rental_uris":{"android":"levelo://app?vid=6205e089-896e-4e5e-ae17-f8e6ecd38df5","ios":"levelo://app?vid=6205e089-896e-4e5e-ae17-f8e6ecd38df5"},"vehicle_type_id":"4","last_reported":1730488066,"current_range_meters":32800,"station_id":"ce4bgi92rcd13ifvqb90","pricing_plan_id":"cebpf4jnsgd1na2vs0mg"},{"bike_id":"70b1042d-897e-466e-b64b-9553842a0fbc","system_id":"levelo_inurba_marseille","lat":43.30914,"lon":5.36847,"is_reserved":false,"is_disabled":false,"rental_uris":{"android":"levelo://app?vid=70b1042d-897e-466e-b64b-9553842a0fbc","ios":"levelo://app?vid=70b1042d-897e-466e-b64b-9553842a0fbc"},"vehicle_type_id":"4","last_reported":1730488066,"current_range_meters":4000,"station_id":"ce4bgn92rcd13ifvqbvg","pricing_plan_id":"cebpf4jnsgd1na2vs0mg"},{"bike_id":"09be3748-ef53-43dd-a3ec-e99061c1fb02","system_id":"levelo_inurba_marseille","lat":43.29416,"lon":5.38627,"is_reserved":false,"is_disabled":false,"rental_uris":{"android":"levelo://app?vid=09be3748-ef53-43dd-a3ec-e99061c1fb02","ios":"levelo://app?vid=09be3748-ef53-43dd-a3ec-e99061c1fb02"},"vehicle_type_id":"4","last_reported":1730488066,"current_range_meters":38800,"station_id":"ce4bh2h2rcd13ifvqdh0","pricing_plan_id":"cebpf4jnsgd1na2vs0mg"},{"bike_id":"b4fb4fe5-9a32-4d87-a40a-aabe1025d71a","system_id":"levelo_inurba_marseille","lat":43.30137,"lon":5.37421,"is_reserved":false,"is_disabled":false,"rental_uris":{"android":"levelo://app?vid=b4fb4fe5-9a32-4d87-a40a-aabe1025d71a","ios":"levelo://app?vid=b4fb4fe5-9a32-4d87-a40a-aabe1025d71a"},"vehicle_type_id":"4","last_reported":1730488066,"current_range_meters":31200,"station_id":"ce4bgs92rcd13ifvqcc0","pricing_plan_id":"cebpf4jnsgd1na2vs0mg"},{"bike_id":"46f3d543-8dec-423b-b5a7-0d7916f14460","system_id":"levelo_inurba_marseille","lat":43.29242,"lon":5.38443,"is_reserved":false,"is_disabled":false,"rental_uris":{"android":"levelo://app?vid=46f3d543-8dec-423b-b5a7-0d7916f14460","ios":"levelo://app?vid=46f3d543-8dec-423b-b5a7-0d7916f14460"},"vehicle_type_id":"4","last_reported":1730488066,"current_range_meters":8000,"station_id":"ce4bh692rcd13ifvqea0","pricing_plan_id":"cebpf4jnsgd1na2vs0mg"},{"bike_id":"d397b293-47ea-4010-bcf0-e831aa66f2fd","system_id":"levelo_inurba_marseille","lat":43.28972,"lon":5.37826,"is_reserved":false,"is_disabled":false,"rental_uris":{"android":"levelo://app?vid=d397b293-47ea-4010-bcf0-e831aa66f2fd","ios":"levelo://app?vid=d397b293-47ea-4010-bcf0-e831aa66f2fd"},"vehicle_type_id":"4","last_reported":1730488066,"current_range_meters":37600,"station_id":"ce4bh9p2rcd13ifvqed0","pricing_plan_id":"cebpf4jnsgd1na2vs0mg"},{"bike_id":"44077018-4dba-4c60-9b65-8397f6e9af31","system_id":"levelo_inurba_marseille","lat":43.25867,"lon":5.39899,"is_reserved":false,"is_disabled":false,"rental_uris":{"android":"levelo://app?vid=44077018-4dba-4c60-9b65-8397f6e9af31","ios":"levelo://app?vid=44077018-4dba-4c60-9b65-8397f6e9af31"},"vehicle_type_id":"4","last_reported":1730488066,"current_range_meters":34800,"station_id":"ce4bhl92rcd13ifvqghg","pricing_plan_id":"cebpf4jnsgd1na2vs0mg"},{"bike_id":"f89ae353-b5c8-47a5-9832-cff109b7ba8e","system_id":"levelo_inurba_marseille","lat":43.29412,"lon":5.38596,"is_reserved":false,"is_disabled":false,"rental_uris":{"android":"levelo://app?vid=f89ae353-b5c8-47a5-9832-cff109b7ba8e","ios":"levelo://app?vid=f89ae353-b5c8-47a5-9832-cff109b7ba8e"},"vehicle_type_id":"4","last_reported":1730488066,"current_range_meters":30400,"station_id":"ce4bh2h2rcd13ifvqdh0","pricing_plan_id":"cebpf4jnsgd1na2vs0mg"},{"bike_id":"55d57c35-2798-44bd-b340-e44ab4f96ac1","system_id":"levelo_inurba_marseille","lat":43.337444,"lon":5.374475,"is_reserved":false,"is_disabled":false,"rental_uris":{"android":"levelo://app?vid=55d57c35-2798-44bd-b340-e44ab4f96ac1","ios":"levelo://app?vid=55d57c35-2798-44bd-b340-e44ab4f96ac1"},"vehicle_type_id":"4","last_reported":1730488066,"current_range_meters":36400,"station_id":"","pricing_plan_id":"cebpf4jnsgd1na2vs0mg"},{"bike_id":"0160854c-1c1e-462b-a871-b5f8e012995c","system_id":"levelo_inurba_marseille","lat":43.23176,"lon":5.39986,"is_reserved":false,"is_disabled":false,"rental_uris":{"android":"levelo://app?vid=0160854c-1c1e-462b-a871-b5f8e012995c","ios":"levelo://app?vid=0160854c-1c1e-462b-a871-b5f8e012995c"},"vehicle_type_id":"4","last_reported":1730488066,"current_range_meters":4800,"station_id":"ce4bhn12rcd13ifvqgqg","pricing_plan_id":"cebpf4jnsgd1na2vs0mg"},{"bike_id":"0d4e0479-d8a2-45f2-91e0-dd87823320fe","system_id":"levelo_inurba_marseille","lat":43.33777,"lon":5.37469,"is_reserved":false,"is_disabled":false,"rental_uris":{"android":"levelo://app?vid=0d4e0479-d8a2-45f2-91e0-dd87823320fe","ios":"levelo://app?vid=0d4e0479-d8a2-45f2-91e0-dd87823320fe"},"vehicle_type_id":"4","last_reported":1730488066,"current_range_meters":24800,"station_id":"","pricing_plan_id":"cebpf4jnsgd1na2vs0mg"},{"bike_id":"3621c4f9-06a7-4177-a984-88e086f5a073","system_id":"levelo_inurba_marseille","lat":43.2919,"lon":5.39315,"is_reserved":false,"is_disabled":false,"rental_uris":{"android":"levelo://app?vid=3621c4f9-06a7-4177-a984-88e086f5a073","ios":"levelo://app?vid=3621c4f9-06a7-4177-a984-88e086f5a073"},"vehicle_type_id":"4","last_reported":1730488066,"current_range_meters":38400,"station_id":"ce4bh192rcd13ifvqdd0","pricing_plan_id":"cebpf4jnsgd1na2vs0mg"},{"bike_id":"5b10e4f3-9bec-4ec2-9bd5-6daecc47a716","system_id":"levelo_inurba_marseille","lat":43.288334,"lon":5.392331,"is_reserved":false,"is_disabled":false,"rental_uris":{"android":"levelo://app?vid=5b10e4f3-9bec-4ec2-9bd5-6daecc47a716","ios":"levelo://app?vid=5b10e4f3-9bec-4ec2-9bd5-6daecc47a716"},"vehicle_type_id":"4","last_reported":1730488066,"current_range_meters":16800,"station_id":"ce4bh2p2rcd13ifvqdi0","pricing_plan_id":"cebpf4jnsgd1na2vs0mg"},{"bike_id":"3e63b5b3-93dd-4feb-96f0-463819b1c4fb","system_id":"levelo_inurba_marseille","lat":43.2958,"lon":5.36744,"is_reserved":false,"is_disabled":false,"rental_uris":{"android":"levelo://app?vid=3e63b5b3-93dd-4feb-96f0-463819b1c4fb","ios":"levelo://app?vid=3e63b5b3-93dd-4feb-96f0-463819b1c4fb"},"vehicle_type_id":"4","last_reported":1730488066,"current_range_meters":36800,"station_id":"ce4bgph2rcd13ifvqc2g","pricing_plan_id":"cebpf4jnsgd1na2vs0mg"},{"bike_id":"c53fe948-b915-403b-9f35-e1b298621dfb","system_id":"levelo_inurba_marseille","lat":43.24666,"lon":5.38162,"is_reserved":false,"is_disabled":false,"rental_uris":{"android":"levelo://app?vid=c53fe948-b915-403b-9f35-e1b298621dfb","ios":"levelo://app?vid=c53fe948-b915-403b-9f35-e1b298621dfb"},"vehicle_type_id":"4","last_reported":1730488066,"current_range_meters":8000,"station_id":"ce4bhih2rcd13ifvqfr0","pricing_plan_id":"cebpf4jnsgd1na2vs0mg"},{"bike_id":"3a9c2b09-4859-425b-9aec-59e976709864","system_id":"levelo_inurba_marseille","lat":43.28941,"lon":5.36639,"is_reserved":false,"is_disabled":false,"rental_uris":{"android":"levelo://app?vid=3a9c2b09-4859-425b-9aec-59e976709864","ios":"levelo://app?vid=3a9c2b09-4859-425b-9aec-59e976709864"},"vehicle_type_id":"4","last_reported":1730488066,"current_range_meters":18000,"station_id":"ce4bhap2rcd13ifvqek0","pricing_plan_id":"cebpf4jnsgd1na2vs0mg"},{"bike_id":"1d4323b0-f44c-44fa-a0bc-473adc27646d","system_id":"levelo_inurba_marseille","lat":43.29413,"lon":5.38628,"is_reserved":false,"is_disabled":false,"rental_uris":{"android":"levelo://app?vid=1d4323b0-f44c-44fa-a0bc-473adc27646d","ios":"levelo://app?vid=1d4323b0-f44c-44fa-a0bc-473adc27646d"},"vehicle_type_id":"4","last_reported":1730488066,"current_range_meters":9200,"station_id":"ce4bh2h2rcd13ifvqdh0","pricing_plan_id":"cebpf4jnsgd1na2vs0mg"},{"bike_id":"7edda5be-cf74-499d-9fbd-2d52bcbe5f3c","system_id":"levelo_inurba_marseille","lat":43.28109,"lon":5.37845,"is_reserved":false,"is_disabled":false,"rental_uris":{"android":"levelo://app?vid=7edda5be-cf74-499d-9fbd-2d52bcbe5f3c","ios":"levelo://app?vid=7edda5be-cf74-499d-9fbd-2d52bcbe5f3c"},"vehicle_type_id":"4","last_reported":1730488066,"current_range_meters":37600,"station_id":"ce4bha12rcd13ifvqee0","pricing_plan_id":"cebpf4jnsgd1na2vs0mg"},{"bike_id":"3040547d-7cac-4ac8-a811-2d6932ea8c51","system_id":"levelo_inurba_marseille","lat":43.28361,"lon":5.38634,"is_reserved":false,"is_disabled":false,"rental_uris":{"android":"levelo://app?vid=3040547d-7cac-4ac8-a811-2d6932ea8c51","ios":"levelo://app?vid=3040547d-7cac-4ac8-a811-2d6932ea8c51"},"vehicle_type_id":"4","last_reported":1730488066,"current_range_meters":38800,"station_id":"ce4bh492rcd13ifvqdvg","pricing_plan_id":"cebpf4jnsgd1na2vs0mg"},{"bike_id":"b9961e3a-4148-4c9e-aebf-f66bcdc81abc","system_id":"levelo_inurba_marseille","lat":43.28765,"lon":5.38211,"is_reserved":false,"is_disabled":false,"rental_uris":{"android":"levelo://app?vid=b9961e3a-4148-4c9e-aebf-f66bcdc81abc","ios":"levelo://app?vid=b9961e3a-4148-4c9e-aebf-f66bcdc81abc"},"vehicle_type_id":"4","last_reported":1730488066,"current_range_meters":16400,"station_id":"","pricing_plan_id":"cebpf4jnsgd1na2vs0mg"},{"bike_id":"d43d67f3-395a-471b-8c22-d596ee0d8526","system_id":"levelo_inurba_marseille","lat":43.30133,"lon":5.39851,"is_reserved":false,"is_disabled":false,"rental_uris":{"android":"levelo://app?vid=d43d67f3-395a-471b-8c22-d596ee0d8526","ios":"levelo://app?vid=d43d67f3-395a-471b-8c22-d596ee0d8526"},"vehicle_type_id":"4","last_reported":1730488066,"current_range_meters":32800,"station_id":"ce4bh0h2rcd13ifvqd40","pricing_plan_id":"cebpf4jnsgd1na2vs0mg"},{"bike_id":"9dc1e927-a833-444e-8891-94663573c923","system_id":"levelo_inurba_marseille","lat":43.29522,"lon":5.3854,"is_reserved":false,"is_disabled":false,"rental_uris":{"android":"levelo://app?vid=9dc1e927-a833-444e-8891-94663573c923","ios":"levelo://app?vid=9dc1e927-a833-444e-8891-94663573c923"},"vehicle_type_id":"4","last_reported":1730488066,"current_range_meters":39200,"station_id":"ce4bgih2rcd13ifvqba0","pricing_plan_id":"cebpf4jnsgd1na2vs0mg"},{"bike_id":"89f05114-251a-4d4b-bbd9-d727a3e1da82","system_id":"levelo_inurba_marseille","lat":43.30355,"lon":5.41884,"is_reserved":false,"is_disabled":false,"rental_uris":{"android":"levelo://app?vid=89f05114-251a-4d4b-bbd9-d727a3e1da82","ios":"levelo://app?vid=89f05114-251a-4d4b-bbd9-d727a3e1da82"},"vehicle_type_id":"4","last_reported":1730488066,"current_range_meters":10000,"station_id":"ce4bhop2rcd13ifvqh7g","pricing_plan_id":"cebpf4jnsgd1na2vs0mg"},{"bike_id":"dcc3412c-7336-4d5e-a8cb-a4954fb1723f","system_id":"levelo_inurba_marseille","lat":43.23068,"lon":5.35495,"is_reserved":false,"is_disabled":false,"rental_uris":{"android":"levelo://app?vid=dcc3412c-7336-4d5e-a8cb-a4954fb1723f","ios":"levelo://app?vid=dcc3412c-7336-4d5e-a8cb-a4954fb1723f"},"vehicle_type_id":"4","last_reported":1730488066,"current_range_meters":6400,"station_id":"cpo3342slgdg3j2ifvpg","pricing_plan_id":"cebpf4jnsgd1na2vs0mg"},{"bike_id":"307485a8-03c5-4576-ab62-b50dc46abcb2","system_id":"levelo_inurba_marseille","lat":43.24679,"lon":5.38156,"is_reserved":false,"is_disabled":false,"rental_uris":{"android":"levelo://app?vid=307485a8-03c5-4576-ab62-b50dc46abcb2","ios":"levelo://app?vid=307485a8-03c5-4576-ab62-b50dc46abcb2"},"vehicle_type_id":"4","last_reported":1730488066,"current_range_meters":22400,"station_id":"ce4bhih2rcd13ifvqfr0","pricing_plan_id":"cebpf4jnsgd1na2vs0mg"},{"bike_id":"ef6cd22d-620b-4690-bbfe-42ed1f9d398f","system_id":"levelo_inurba_marseille","lat":43.29417,"lon":5.38624,"is_reserved":false,"is_disabled":false,"rental_uris":{"android":"levelo://app?vid=ef6cd22d-620b-4690-bbfe-42ed1f9d398f","ios":"levelo://app?vid=ef6cd22d-620b-4690-bbfe-42ed1f9d398f"},"vehicle_type_id":"4","last_reported":1730488066,"current_range_meters":28000,"station_id":"ce4bh2h2rcd13ifvqdh0","pricing_plan_id":"cebpf4jnsgd1na2vs0mg"},{"bike_id":"505dabf1-4fe2-4098-8e70-326684bfd6a3","system_id":"levelo_inurba_marseille","lat":43.30146,"lon":5.39837,"is_reserved":false,"is_disabled":false,"rental_uris":{"android":"levelo://app?vid=505dabf1-4fe2-4098-8e70-326684bfd6a3","ios":"levelo://app?vid=505dabf1-4fe2-4098-8e70-326684bfd6a3"},"vehicle_type_id":"4","last_reported":1730488066,"current_range_meters":22800,"station_id":"ce4bh0h2rcd13ifvqd40","pricing_plan_id":"cebpf4jnsgd1na2vs0mg"},{"bike_id":"1fed9dc7-d57c-4b25-b27c-1f6a291e4091","system_id":"levelo_inurba_marseille","lat":43.23168,"lon":5.39988,"is_reserved":false,"is_disabled":false,"rental_uris":{"android":"levelo://app?vid=1fed9dc7-d57c-4b25-b27c-1f6a291e4091","ios":"levelo://app?vid=1fed9dc7-d57c-4b25-b27c-1f6a291e4091"},"vehicle_type_id":"4","last_reported":1730488066,"current_range_meters":14000,"station_id":"ce4bhn12rcd13ifvqgqg","pricing_plan_id":"cebpf4jnsgd1na2vs0mg"},{"bike_id":"ed759bb5-5ff6-423d-80d1-928673ac490c","system_id":"levelo_inurba_marseille","lat":43.29902,"lon":5.3814,"is_reserved":false,"is_disabled":false,"rental_uris":{"android":"levelo://app?vid=ed759bb5-5ff6-423d-80d1-928673ac490c","ios":"levelo://app?vid=ed759bb5-5ff6-423d-80d1-928673ac490c"},"vehicle_type_id":"4","last_reported":1730488066,"current_range_meters":28400,"station_id":"ce4bgj12rcd13ifvqbc0","pricing_plan_id":"cebpf4jnsgd1na2vs0mg"},{"bike_id":"6eebaa63-3150-485e-aa8f-063147b7db12","system_id":"levelo_inurba_marseille","lat":43.28348,"lon":5.38107,"is_reserved":false,"is_disabled":false,"rental_uris":{"android":"levelo://app?vid=6eebaa63-3150-485e-aa8f-063147b7db12","ios":"levelo://app?vid=6eebaa63-3150-485e-aa8f-063147b7db12"},"vehicle_type_id":"4","last_reported":1730488066,"current_range_meters":38800,"station_id":"ce4bh412rcd13ifvqdr0","pricing_plan_id":"cebpf4jnsgd1na2vs0mg"},{"bike_id":"47d8b02d-09d5-42ce-ae8f-5dc9b22fa0a3","system_id":"levelo_inurba_marseille","lat":43.27423,"lon":5.3941,"is_reserved":false,"is_disabled":false,"rental_uris":{"android":"levelo://app?vid=47d8b02d-09d5-42ce-ae8f-5dc9b22fa0a3","ios":"levelo://app?vid=47d8b02d-09d5-42ce-ae8f-5dc9b22fa0a3"},"vehicle_type_id":"4","last_reported":1730488066,"current_range_meters":30800,"station_id":"ce4bhdp2rcd13ifvqf20","pricing_plan_id":"cebpf4jnsgd1na2vs0mg"},{"bike_id":"178dd10a-770d-48af-924b-ec366d471771","system_id":"levelo_inurba_marseille","lat":43.28106,"lon":5.37843,"is_reserved":false,"is_disabled":false,"rental_uris":{"android":"levelo://app?vid=178dd10a-770d-48af-924b-ec366d471771","ios":"levelo://app?vid=178dd10a-770d-48af-924b-ec366d471771"},"vehicle_type_id":"4","last_reported":1730488066,"current_range_meters":30000,"station_id":"ce4bha12rcd13ifvqee0","pricing_plan_id":"cebpf4jnsgd1na2vs0mg"},{"bike_id":"75532ae5-e34a-4db2-8289-2a6aad3f06d4","system_id":"levelo_inurba_marseille","lat":43.28279,"lon":5.35059,"is_reserved":false,"is_disabled":false,"rental_uris":{"android":"levelo://app?vid=75532ae5-e34a-4db2-8289-2a6aad3f06d4","ios":"levelo://app?vid=75532ae5-e34a-4db2-8289-2a6aad3f06d4"},"vehicle_type_id":"4","last_reported":1730488066,"current_range_meters":3200,"station_id":"ce4bhbp2rcd13ifvqerg","pricing_plan_id":"cebpf4jnsgd1na2vs0mg"},{"bike_id":"13e883b6-9cb1-4d46-8ef7-97f5549f3c21","system_id":"levelo_inurba_marseille","lat":43.29026,"lon":5.38629,"is_reserved":false,"is_disabled":false,"rental_uris":{"android":"levelo://app?vid=13e883b6-9cb1-4d46-8ef7-97f5549f3c21","ios":"levelo://app?vid=13e883b6-9cb1-4d46-8ef7-97f5549f3c21"},"vehicle_type_id":"4","last_reported":1730488066,"current_range_meters":38000,"station_id":"ce4bh4p2rcd13ifvqe0g","pricing_plan_id":"cebpf4jnsgd1na2vs0mg"},{"bike_id":"be25dfc1-4897-4ca8-8488-ce42318fff93","system_id":"levelo_inurba_marseille","lat":43.29793,"lon":5.39353,"is_reserved":false,"is_disabled":false,"rental_uris":{"android":"levelo://app?vid=be25dfc1-4897-4ca8-8488-ce42318fff93","ios":"levelo://app?vid=be25dfc1-4897-4ca8-8488-ce42318fff93"},"vehicle_type_id":"4","last_reported":1730488066,"current_range_meters":3200,"station_id":"chh1huq6cuj3fo74tm60","pricing_plan_id":"cebpf4jnsgd1na2vs0mg"},{"bike_id":"16e06767-936c-4bb7-86ad-19d345577c7c","system_id":"levelo_inurba_marseille","lat":43.2845,"lon":5.39202,"is_reserved":false,"is_disabled":false,"rental_uris":{"android":"levelo://app?vid=16e06767-936c-4bb7-86ad-19d345577c7c","ios":"levelo://app?vid=16e06767-936c-4bb7-86ad-19d345577c7c"},"vehicle_type_id":"4","last_reported":1730488066,"current_range_meters":5600,"station_id":"ce4bhoh2rcd13ifvqh5g","pricing_plan_id":"cebpf4jnsgd1na2vs0mg"},