{"last_updated":1738404546,"ttl":60,"version":"2.2","data":{"bikes":[{"bike_id":"5121270c-1c11-4ce0-892b-9a8960db6210","system_id":"levelo_inurba_marseille","lat":43.31746,"lon":5.39011,"is_reserved":false,"is_disabled":false,"rental_uris":{"android":"levelo://app?vid=5121270c-1c11-4ce0-892b-9a8960db6210","ios":"levelo://app?vid=5121270c-1c11-4ce0-892b-9a8960db6210"},"vehicle_type_id":"4","last_reported":1738404546,"current_range_meters":30800,"station_id":"ce4bhqp2rcd13ifvqhng","pricing_plan_id":"cebpf4jnsgd1na2vs0mg"},{"bike_id":"99c8e731-f913-430f-a2bc-32d57a5fab53","system_id":"levelo_inurba_marseille","lat":43.2847,"lon":5.38432,"is_reserved":false,"is_disabled":true,"rental_uris":{"android":"levelo://app?vid=99c8e731-f913-430f-a2bc-32d57a5fab53","ios":"levelo://app?vid=99c8e731-f913-430f-a2bc-32d57a5fab53"},"vehicle_type_id":"4","last_reported":1738404546,"current_range_meters":24800,"station_id":"ce4bh512rcd13ifvqe3g","pricing_plan_id":"cebpf4jnsgd1na2vs0mg"},{"bike_id":"cd248301-8b71-4b72-bb3e-53b4c7fd415e","system_id":"levelo_inurba_marseille","lat":43.27313,"lon":5.39091,"is_reserved":false,"is_disabled":false,"rental_uris":{"android":"levelo://app?vid=cd248301-8b71-4b72-bb3e-53b4c7fd415e","ios":"levelo://app?vid=cd248301-8b71-4b72-bb3e-53b4c7fd415e"},"vehicle_type_id":"4","last_reported":1738404546,"current_range_meters":11600,"station_id":"ce4bhgp2rcd13ifvqfe0","pricing_plan_id":"cebpf4jnsgd1na2vs0mg"},{"bike_id":"50dba4e6-d441-43cb-81b3-18b5b479c80a","system_id":"levelo_inurba_marseille","lat":43.27372,"lon":5.36242,"is_reserved":false,"is_disabled":false,"rental_uris":{"android":"levelo://app?vid=50dba4e6-d441-43cb-81b3-18b5b479c80a","ios":"levelo://app?vid=50dba4e6-d441-43cb-81b3-18b5b479c80a"},"vehicle_type_id":"4","last_reported":1738404546,"current_range_meters":27600,"station_id":"ce4bhbh2rcd13ifvqeo0","pricing_plan_id":"cebpf4jnsgd1na2vs0mg"},{"bike_id":"11a4d244-c59c-4823-b704-9c99e46e7c29","system_id":"levelo_inurba_marseille","lat":43.29293,"lon":5.37462,"is_reserved":false,"is_disabled":false,"rental_uris":{"android":"levelo://app?vid=11a4d244-c59c-4823-b704-9c99e46e7c29","ios":"levelo://app?vid=11a4d244-c59c-4823-b704-9c99e46e7c29"},"vehicle_type_id":"4","last_reported":1738404546,"current_range_meters":38800,"station_id":"ce4bgi12rcd13ifvqb70","pricing_plan_id":"cebpf4jnsgd1na2vs0mg"},{"bike_id":"68ec889f-fbad-4ec7-bbe1-dbda6b88a3f5","system_id":"levelo_inurba_marseille","lat":43.29027,"lon":5.38626,"is_reserved":false,"is_disabled":true,"rental_uris":{"android":"levelo://app?vid=68ec889f-fbad-4ec7-bbe1-dbda6b88a3f5","ios":"levelo://app?vid=68ec889f-fbad-4ec7-bbe1-dbda6b88a3f5"},"vehicle_type_id":"4","last_reported":1738404546,"current_range_meters":30000,"station_id":"ce4bh4p2rcd13ifvqe0g","pricing_plan_id":"cebpf4jnsgd1na2vs0mg"},{"bike_id":"ec8f6058-6100-4152-a231-a6e2b63a93a4","system_id":"levelo_inurba_marseille","lat":43.25833,"lon":5.39441,"is_reserved":false,"is_disabled":false,"rental_uris":{"android":"levelo://app?vid=ec8f6058-6100-4152-a231-a6e2b63a93a4","ios":"levelo://app?vid=ec8f6058-6100-4152-a231-a6e2b63a93a4"},"vehicle_type_id":"4","last_reported":1738404546,"current_range_meters":24400,"station_id":"ce4bhip2rcd13ifvqft0","pricing_plan_id":"cebpf4jnsgd1na2vs0mg"},{"bike_id":"63d84b82-5a68-4c80-93a8-e3483b23225c","system_id":"levelo_inurba_marseille","lat":43.29701,"lon":5.37707,"is_reserved":false,"is_disabled":false,"rental_uris":{"android":"levelo://app?vid=63d84b82-5a68-4c80-93a8-e3483b23225c","ios":"levelo://app?vid=63d84b82-5a68-4c80-93a8-e3483b23225c"},"vehicle_type_id":"4","last_reported":1738404546,"current_range_meters":38800,"station_id":"ce4bgkh2rcd13ifvqbl0","pricing_plan_id":"cebpf4jnsgd1na2vs0mg"},{"bike_id":"775ea6c8-830e-43b4-8783-0f1b578a59f2","system_id":"levelo_inurba_marseille","lat":43.25873,"lon":5.39917,"is_reserved":false,"is_disabled":false,"rental_uris":{"android":"levelo://app?vid=775ea6c8-830e-43b4-8783-0f1b578a59f2","ios":"levelo://app?vid=775ea6c8-830e-43b4-8783-0f1b578a59f2"},"vehicle_type_id":"4","last_reported":1738404546,"current_range_meters":14800,"station_id":"ce4bhl92rcd13ifvqghg","pricing_plan_id":"cebpf4jnsgd1na2vs0mg"},{"bike_id":"ed3b7fbe-dd9d-4bab-8f42-a2405c5dd34c","system_id":"levelo_inurba_marseille","lat":43.26677,"lon":5.38274,"is_reserved":false,"is_disabled":false,"rental_uris":{"android":"levelo://app?vid=ed3b7fbe-dd9d-4bab-8f42-a2405c5dd34c","ios":"levelo://app?vid=ed3b7fbe-dd9d-4bab-8f42-a2405c5dd34c"},"vehicle_type_id":"4","last_reported":1738404546,"current_range_meters":39200,"station_id":"ce4bhg92rcd13ifvqf90","pricing_plan_id":"cebpf4jnsgd1na2vs0mg"},{"bike_id":"9b30898d-4d89-4ff8-83e8-b34dc554358f","system_id":"levelo_inurba_marseille","lat":43.33604,"lon":5.4103,"is_reserved":false,"is_disabled":false,"rental_uris":{"android":"levelo://app?vid=9b30898d-4d89-4ff8-83e8-b34dc554358f","ios":"levelo://app?vid=9b30898d-4d89-4ff8-83e8-b34dc554358f"},"vehicle_type_id":"4","last_reported":1738404546,"current_range_meters":39200,"station_id":"ce4bhqh2rcd13ifvqhmg","pricing_plan_id":"cebpf4jnsgd1na2vs0mg"},{"bike_id":"0ecc64b3-d50a-4d78-ac5b-36c0d0f58ab4","system_id":"levelo_inurba_marseille","lat":43.30978,"lon":5.40117,"is_reserved":false,"is_disabled":false,"rental_uris":{"android":"levelo://app?vid=0ecc64b3-d50a-4d78-ac5b-36c0d0f58ab4","ios":"levelo://app?vid=0ecc64b3-d50a-4d78-ac5b-36c0d0f58ab4"},"vehicle_type_id":"4","last_reported":1738404546,"current_range_meters":38800,"station_id":"","pricing_plan_id":"cebpf4jnsgd1na2vs0mg"},{"bike_id":"2fbb8cae-bc83-4d9f-a595-dbdebd811247","system_id":"levelo_inurba_marseille","lat":43.2792,"lon":5.39582,"is_reserved":false,"is_disabled":false,"rental_uris":{"android":"levelo://app?vid=2fbb8cae-bc83-4d9f-a595-dbdebd811247","ios":"levelo://app?vid=2fbb8cae-bc83-4d9f-a595-dbdebd811247"},"vehicle_type_id":"4","last_reported":1738404546,"current_range_meters":38800,"station_id":"ce4bhf92rcd13ifvqf40","pricing_plan_id":"cebpf4jnsgd1na2vs0mg"},{"bike_id":"364eb652-69b2-4cd0-85cc-79efa41d2c35","system_id":"levelo_inurba_marseille","lat":43.27063,"lon":5.40258,"is_reserved":false,"is_disabled":false,"rental_uris":{"android":"levelo://app?vid=364eb652-69b2-4cd0-85cc-79efa41d2c35","ios":"levelo://app?vid=364eb652-69b2-4cd0-85cc-79efa41d2c35"},"vehicle_type_id":"4","last_reported":1738404546,"current_range_meters":6000,"station_id":"ce4bhk92rcd13ifvqgc0","pricing_plan_id":"cebpf4jnsgd1na2vs0mg"},{"bike_id":"8126c25c-c3a2-4cdd-a2e4-d380d215e724","system_id":"levelo_inurba_marseille","lat":43.26794,"lon":5.40291,"is_reserved":false,"is_disabled":false,"rental_uris":{"android":"levelo://app?vid=8126c25c-c3a2-4cdd-a2e4-d380d215e724","ios":"levelo://app?vid=8126c25c-c3a2-4cdd-a2e4-d380d215e724"},"vehicle_type_id":"4","last_reported":1738404546,"current_range_meters":39200,"station_id":"ce501612rcd8frsf0b60","pricing_plan_id":"cebpf4jnsgd1na2vs0mg"},{"bike_id":"2e717bd1-6f1e-4705-ac56-fd230708337b","system_id":"levelo_inurba_marseille","lat":43.23965,"lon":5.36643,"is_reserved":false,"is_disabled":false,"rental_uris":{"android":"levelo://app?vid=2e717bd1-6f1e-4705-ac56-fd230708337b","ios":"levelo://app?vid=2e717bd1-6f1e-4705-ac56-fd230708337b"},"vehicle_type_id":"4","last_reported":1738404546,"current_range_meters":38800,"station_id":"ce4bhi12rcd13ifvqfp0","pricing_plan_id":"cebpf4jnsgd1na2vs0mg"},{"bike_id":"f40ab664-1961-4eb4-a097-417a4df8d218","system_id":"levelo_inurba_marseille","lat":43.29791,"lon":5.3936,"is_reserved":false,"is_disabled":false,"rental_uris":{"android":"levelo://app?vid=f40ab664-1961-4eb4-a097-417a4df8d218","ios":"levelo://app?vid=f40ab664-1961-4eb4-a097-417a4df8d218"},"vehicle_type_id":"4","last_reported":1738404546,"current_range_meters":38800,"station_id":"chh1huq6cuj3fo74tm60","pricing_plan_id":"cebpf4jnsgd1na2vs0mg"},{"bike_id":"f8284def-f46e-4261-b5b7-65a73beff522","system_id":"levelo_inurba_marseille","lat":43.3359,"lon":5.41008,"is_reserved":false,"is_disabled":false,"rental_uris":{"android":"levelo://app?vid=f8284def-f46e-4261-b5b7-65a73beff522","ios":"levelo://app?vid=f8284def-f46e-4261-b5b7-65a73beff522"},"vehicle_type_id":"4","last_reported":1738404546,"current_range_meters":4400,"station_id":"ce4bhqh2rcd13ifvqhmg","pricing_plan_id":"cebpf4jnsgd1na2vs0mg"},{"bike_id":"b128003f-52ff-4cd6-b985-fdc8dfb8deb5","system_id":"levelo_inurba_marseille","lat":43.3131,"lon":5.40134,"is_reserved":false,"is_disabled":false,"rental_uris":{"android":"levelo://app?vid=b128003f-52ff-4cd6-b985-fdc8dfb8deb5","ios":"levelo://app?vid=b128003f-52ff-4cd6-b985-fdc8dfb8deb5"},"vehicle_type_id":"4","last_reported":1738404546,"current_range_meters":38800,"station_id":"ce4bh092rcd13ifvqd30","pricing_plan_id":"cebpf4jnsgd1na2vs0mg"},{"bike_id":"661644af-f6d5-4e30-b98d-4cca5657f33b","system_id":"levelo_inurba_marseille","lat":43.32096,"lon":5.36802,"is_reserved":false,"is_disabled":false,"rental_uris":{"android":"levelo://app?vid=661644af-f6d5-4e30-b98d-4cca5657f33b","ios":"levelo://app?vid=661644af-f6d5-4e30-b98d-4cca5657f33b"},"vehicle_type_id":"4","last_reported":1738404546,"current_range_meters":6400,"station_id":"ce4bhrh2rcd13ifvqhug","pricing_plan_id":"cebpf4jnsgd1na2vs0mg"},{"bike_id":"1fbf3f20-0930-4b85-8900-561217e5a0eb","system_id":"levelo_inurba_marseille","lat":43.30416,"lon":5.41289,"is_reserved":false,"is_disabled":false,"rental_uris":{"android":"levelo://app?vid=1fbf3f20-0930-4b85-8900-561217e5a0eb","ios":"levelo://app?vid=1fbf3f20-0930-4b85-8900-561217e5a0eb"},"vehicle_type_id":"4","last_reported":1738404546,"current_range_meters":25200,"station_id":"ce4bhop2rcd13ifvqh8g","pricing_plan_id":"cebpf4jnsgd1na2vs0mg"},{"bike_id":"ba03be50-aadf-4a96-a180-b5683b9eecd1","system_id":"levelo_inurba_marseille","lat":43.29969,"lon":5.38496,"is_reserved":false,"is_disabled":false,"rental_uris":{"android":"levelo://app?vid=ba03be50-aadf-4a96-a180-b5683b9eecd1","ios":"levelo://app?vid=ba03be50-aadf-4a96-a180-b5683b9eecd1"},"vehicle_type_id":"4","last_reported":1738404546,"current_range_meters":39200,"station_id":"ce4bgj92rcd13ifvqbd0","pricing_plan_id":"cebpf4jnsgd1na2vs0mg"},{"bike_id":"bc002e6d-b1aa-4707-9b77-4ded29603f1b","system_id":"levelo_inurba_marseille","lat":43.27069,"lon":5.42259,"is_reserved":false,"is_disabled":false,"rental_uris":{"android":"levelo://app?vid=bc002e6d-b1aa-4707-9b77-4ded29603f1b","ios":"levelo://app?vid=bc002e6d-b1aa-4707-9b77-4ded29603f1b"},"vehicle_type_id":"4","last_reported":1738404546,"current_range_meters":25200,"station_id":"ce4bhk92rcd13ifvqgb0","pricing_plan_id":"cebpf4jnsgd1na2vs0mg"},{"bike_id":"8563b0e4-bffd-41d0-93ff-59f1bd9ddfb8","system_id":"levelo_inurba_marseille","lat":43.27971,"lon":5.40996,"is_reserved":false,"is_disabled":false,"rental_uris":{"android":"levelo://app?vid=8563b0e4-bffd-41d0-93ff-59f1bd9ddfb8","ios":"levelo://app?vid=8563b0e4-bffd-41d0-93ff-59f1bd9ddfb8"},"vehicle_type_id":"4","last_reported":1738404546,"current_range_meters":20800,"station_id":"ce4bhnp2rcd13ifvqh0g","pricing_plan_id":"cebpf4jnsgd1na2vs0mg"},{"bike_id":"b53cf432-0e47-4b61-a305-952377a64c88","system_id":"levelo_inurba_marseille","lat":43.30794,"lon":5.38171,"is_reserved":false,"is_disabled":true,"rental_uris":{"android":"levelo://app?vid=b53cf432-0e47-4b61-a305-952377a64c88","ios":"levelo://app?vid=b53cf432-0e47-4b61-a305-952377a64c88"},"vehicle_type_id":"4","last_reported":1738404546,"current_range_meters":0,"station_id":"ce4bgt12rcd13ifvqce0","pricing_plan_id":"cebpf4jnsgd1na2vs0mg"},{"bike_id":"7b3e02c5-0818-4fc4-813c-4a89f3c75475","system_id":"levelo_inurba_marseille","lat":43.27989,"lon":5.40011,"is_reserved":false,"is_disabled":false,"rental_uris":{"android":"levelo://app?vid=7b3e02c5-0818-4fc4-813c-4a89f3c75475","ios":"levelo://app?vid=7b3e02c5-0818-4fc4-813c-4a89f3c75475"},"vehicle_type_id":"4","last_reported":1738404546,"current_range_meters":26800,"station_id":"ce4bho92rcd13ifvqh4g","pricing_plan_id":"cebpf4jnsgd1na2vs0mg"},{"bike_id":"13a71ca0-af90-4e61-a6f2-18a028732efe","system_id":"levelo_inurba_marseille","lat":43.25076,"lon":5.3951,"is_reserved":false,"is_disabled":false,"rental_uris":{"android":"levelo://app?vid=13a71ca0-af90-4e61-a6f2-18a028732efe","ios":"levelo://app?vid=13a71ca0-af90-4e61-a6f2-18a028732efe"},"vehicle_type_id":"4","last_reported":1738404546,"current_range_meters":33600,"station_id":"ce4bhm12rcd13ifvqgkg","pricing_plan_id":"cebpf4jnsgd1na2vs0mg"},{"bike_id":"b3111fc0-fa6a-4a4f-8998-7c16befb8b0d","system_id":"levelo_inurba_marseille","lat":43.28795,"lon":5.39943,"is_reserved":false,"is_disabled":false,"rental_uris":{"android":"levelo://app?vid=b3111fc0-fa6a-4a4f-8998-7c16befb8b0d","ios":"levelo://app?vid=b3111fc0-fa6a-4a4f-8998-7c16befb8b0d"},"vehicle_type_id":"4","last_reported":1738404546,"current_range_meters":26000,"station_id":"","pricing_plan_id":"cebpf4jnsgd1na2vs0mg"},{"bike_id":"5b1bf038-eb5d-4224-ab2e-5308b8a41098","system_id":"levelo_inurba_marseille","lat":43.3414,"lon":5.40906,"is_reserved":false,"is_disabled":false,"rental_uris":{"android":"levelo://app?vid=5b1bf038-eb5d-4224-ab2e-5308b8a41098","ios":"levelo://app?vid=5b1bf038-eb5d-4224-ab2e-5308b8a41098"},"vehicle_type_id":"4","last_reported":1738404546,"current_range_meters":38000,"station_id":"ce4bhqh2rcd13ifvqhlg","pricing_plan_id":"cebpf4jnsgd1na2vs0mg"},{"bike_id":"8784a30a-a330-4b05-89bf-f5db332a6fc3","system_id":"levelo_inurba_marseille","lat":43.28717,"lon":5.37969,"is_reserved":false,"is_disabled":false,"rental_uris":{"android":"levelo://app?vid=8784a30a-a330-4b05-89bf-f5db332a6fc3","ios":"levelo://app?vid=8784a30a-a330-4b05-89bf-f5db332a6fc3"},"vehicle_type_id":"4","last_reported":1738404546,"current_range_meters":36400,"station_id":"ce4bh9p2rcd13ifvqec0","pricing_plan_id":"cebpf4jnsgd1na2vs0mg"},{"bike_id":"b62c15b8-1724-4cf4-addc-7e8eea0a7cb3","system_id":"levelo_inurba_marseille","lat":43.298039,"lon":5.404033,"is_reserved":false,"is_disabled":false,"rental_uris":{"android":"levelo://app?vid=b62c15b8-1724-4cf4-addc-7e8eea0a7cb3","ios":"levelo://app?vid=b62c15b8-1724-4cf4-addc-7e8eea0a7cb3"},"vehicle_type_id":"4","last_reported":1738404546,"current_range_meters":38800,"station_id":"ce4bh112rcd13ifvqd90","pricing_plan_id":"cebpf4jnsgd1na2vs0mg"},{"bike_id":"2695662c-299c-44d1-b484-f50232d31624","system_id":"levelo_inurba_marseille","lat":43.30451,"lon":5.39753,"is_reserved":false,"is_disabled":false,"rental_uris":{"android":"levelo://app?vid=2695662c-299c-44d1-b484-f50232d31624","ios":"levelo://app?vid=2695662c-299c-44d1-b484-f50232d31624"},"vehicle_type_id":"4","last_reported":1738404546,"current_range_meters":38800,"station_id":"ce4bh092rcd13ifvqd20","pricing_plan_id":"cebpf4jnsgd1na2vs0mg"},{"bike_id":"887ee306-41a1-4a22-bc1f-16f99762f5ef","system_id":"levelo_inurba_marseille","lat":43.31535,"lon":5.38017,"is_reserved":false,"is_disabled":false,"rental_uris":{"android":"levelo://app?vid=887ee306-41a1-4a22-bc1f-16f99762f5ef","ios":"levelo://app?vid=887ee306-41a1-4a22-bc1f-16f99762f5ef"},"vehicle_type_id":"4","last_reported":1738404546,"current_range_meters":38800,"station_id":"ce4bhsp2rcd13ifvqi50","pricing_plan_id":"cebpf4jnsgd1na2vs0mg"},{"bike_id":"220d2735-d191-41ef-b0ed-4ceab0735ffa","system_id":"levelo_inurba_marseille","lat":43.29039,"lon":5.39979,"is_reserved":false,"is_disabled":false,"rental_uris":{"android":"levelo://app?vid=220d2735-d191-41ef-b0ed-4ceab0735ffa","ios":"levelo://app?vid=220d2735-d191-41ef-b0ed-4ceab0735ffa"},"vehicle_type_id":"4","last_reported":1738404546,"current_range_meters":34800,"station_id":"ce4bh392rcd13ifvqdm0","pricing_plan_id":"cebpf4jnsgd1na2vs0mg"},{"bike_id":"cc47836a-b908-432f-8e0e-2f793407f141","system_id":"levelo_inurba_marseille","lat":43.22924,"lon":5.35373,"is_reserved":false,"is_disabled":false,"rental_uris":{"android":"levelo://app?vid=cc47836a-b908-432f-8e0e-2f793407f141","ios":"levelo://app?vid=cc47836a-b908-432f-8e0e-2f793407f141"},"vehicle_type_id":"4","last_reported":1738404546,"current_range_meters":6800,"station_id":"cpo3532slgdg3j2ikp40","pricing_plan_id":"cebpf4jnsgd1na2vs0mg"},{"bike_id":"b7b8b73a-0c1c-45e0-b545-54a4098ad50c","system_id":"levelo_inurba_marseille","lat":43.27529,"lon":5.38448,"is_reserved":false,"is_disabled":true,"rental_uris":{"android":"levelo://app?vid=b7b8b73a-0c1c-45e0-b545-54a4098ad50c","ios":"levelo://app?vid=b7b8b73a-0c1c-45e0-b545-54a4098ad50c"},"vehicle_type_id":"4","last_reported":1738404546,"current_range_meters":36400,"station_id":"ce4bhh92rcd13ifvqfi0","pricing_plan_id":"cebpf4jnsgd1na2vs0mg"},{"bike_id":"eccf3e1b-479c-430a-81d9-b77c081460ec","system_id":"levelo_inurba_marseille","lat":43.31697,"lon":5.39137,"is_reserved":false,"is_disabled":true,"rental_uris":{"android":"levelo://app?vid=eccf3e1b-479c-430a-81d9-b77c081460ec","ios":"levelo://app?vid=eccf3e1b-479c-430a-81d9-b77c081460ec"},"vehicle_type_id":"4","last_reported":1738404546,"current_range_meters":16000,"station_id":"ce4bhqp2rcd13ifvqhng","pricing_plan_id":"cebpf4jnsgd1na2vs0mg"},{"bike_id":"d71d72c3-6ab1-418b-a776-4e0c7c5959e7","system_id":"levelo_inurba_marseille","lat":43.25821,"lon":5.39427,"is_reserved":false,"is_disabled":false,"rental_uris":{"android":"levelo://app?vid=d71d72c3-6ab1-418b-a776-4e0c7c5959e7","ios":"levelo://app?vid=d71d72c3-6ab1-418b-a776-4e0c7c5959e7"},"vehicle_type_id":"4","last_reported":1738404546,"current_range_meters":39200,"station_id":"ce4bhip2rcd13ifvqft0","pricing_plan_id":"cebpf4jnsgd1na2vs0mg"},{"bike_id":"30428007-faa1-473b-872e-9ec8995809df","system_id":"levelo_inurba_marseille","lat":43.30518,"lon":5.3654,"is_reserved":false,"is_disabled":false,"rental_uris":{"android":"levelo://app?vid=30428007-faa1-473b-872e-9ec8995809df","ios":"levelo://app?vid=30428007-faa1-473b-872e-9ec8995809df"},"vehicle_type_id":"4","last_reported":1738404546,"current_range_meters":38800,"station_id":"ce4bgs12rcd13ifvqcag","pricing_plan_id":"cebpf4jnsgd1na2vs0mg"},{"bike_id":"0edaa840-e8b0-4f2c-ad98-c123355c590c","system_id":"levelo_inurba_marseille","lat":43.26059,"lon":5.39392,"is_reserved":false,"is_disabled":true,"rental_uris":{"android":"levelo://app?vid=0edaa840-e8b0-4f2c-ad98-c123355c590c","ios":"levelo://app?vid=0edaa840-e8b0-4f2c-ad98-c123355c590c"},"vehicle_type_id":"4","last_reported":1738404546,"current_range_meters":35600,"station_id":"ce4bhh92rcd13ifvqfj0","pricing_plan_id":"cebpf4jnsgd1na2vs0mg"},{"bike_id":"0c8187f5-988a-4457-bbb8-4cf908ac31d3","system_id":"levelo_inurba_marseille","lat":43.25836,"lon":5.39441,"is_reserved":false,"is_disabled":false,"rental_uris":{"android":"levelo://app?vid=0c8187f5-988a-4457-bbb8-4cf908ac31d3","ios":"levelo://app?vid=0c8187f5-988a-4457-bbb8-4cf908ac31d3"},"vehicle_type_id":"4","last_reported":1738404546,"current_range_meters":19200,"station_id":"ce4bhip2rcd13ifvqft0","pricing_plan_id":"cebpf4jnsgd1na2vs0mg"},{"bike_id":"38a465ff-8f6d-48e8-9160-52e370985fc1","system_id":"levelo_inurba_marseille","lat":43.24541,"lon":5.39534,"is_reserved":false,"is_disabled":false,"rental_uris":{"android":"levelo://app?vid=38a465ff-8f6d-48e8-9160-52e370985fc1","ios":"levelo://app?vid=38a465ff-8f6d-48e8-9160-52e370985fc1"},"vehicle_type_id":"4","last_reported":1738404546,"current_range_meters":17600,"station_id":"ce4bhlp2rcd13ifvqgjg","pricing_plan_id":"cebpf4jnsgd1na2vs0mg"},{"bike_id":"57cec528-a10a-490e-b04a-c68241cfcb3d","system_id":"levelo_inurba_marseille","lat":43.29044,"lon":5.39952,"is_reserved":false,"is_disabled":false,"rental_uris":{"android":"levelo://app?vid=57cec528-a10a-490e-b04a-c68241cfcb3d","ios":"levelo://app?vid=57cec528-a10a-490e-b04a-c68241cfcb3d"},"vehicle_type_id":"4","last_reported":1738404546,"current_range_meters":28800,"station_id":"ce4bh392rcd13ifvqdm0","pricing_plan_id":"cebpf4jnsgd1na2vs0mg"},{"bike_id":"7acf2cbf-3c06-4e18-92c7-8cd2a45cc70e","system_id":"levelo_inurba_marseille","lat":43.25122,"lon":5.40319,"is_reserved":false,"is_disabled":false,"rental_uris":{"android":"levelo://app?vid=7acf2cbf-3c06-4e18-92c7-8cd2a45cc70e","ios":"levelo://app?vid=7acf2cbf-3c06-4e18-92c7-8cd2a45cc70e"},"vehicle_type_id":"4","last_reported":1738404546,"current_range_meters":20800,"station_id":"ce4bhlh2rcd13ifvqgig","pricing_plan_id":"cebpf4jnsgd1na2vs0mg"},{"bike_id":"9ecfc8d4-291d-4236-afb2-b6d9f6efb723","system_id":"levelo_inurba_marseille","lat":43.33759,"lon":5.374369,"is_reserved":false,"is_disabled":false,"rental_uris":{"android":"levelo://app?vid=9ecfc8d4-291d-4236-afb2-b6d9f6efb723","ios":"levelo://app?vid=9ecfc8d4-291d-4236-afb2-b6d9f6efb723"},"vehicle_type_id":"4","last_reported":1738404546,"current_range_meters":37600,"station_id":"","pricing_plan_id":"cebpf4jnsgd1na2vs0mg"},{"bike_id":"606053f9-3da2-4594-b4df-8e24b5fa812c","system_id":"levelo_inurba_marseille","lat":43.26932,"lon":5.40289,"is_reserved":false,"is_disabled":false,"rental_uris":{"android":"levelo://app?vid=606053f9-3da2-4594-b4df-8e24b5fa812c","ios":"levelo://app?vid=606053f9-3da2-4594-b4df-8e24b5fa812c"},"vehicle_type_id":"4","last_reported":1738404546,"current_range_meters":36000,"station_id":"cjm6bp8fraef2m0cb0m0","pricing_plan_id":"cebpf4jnsgd1na2vs0mg"},{"bike_id":"386de2ed-79d7-483f-aab9-de7573f3be92","system_id":"levelo_inurba_marseille","lat":43.3154,"lon":5.38031,"is_reserved":false,"is_disabled":false,"rental_uris":{"android":"levelo://app?vid=386de2ed-79d7-483f-aab9-de7573f3be92","ios":"levelo://app?vid=386de2ed-79d7-483f-aab9-de7573f3be92"},"vehicle_type_id":"4","last_reported":1738404546,"current_range_meters":37600,"station_id":"ce4bhsp2rcd13ifvqi50","pricing_plan_id":"cebpf4jnsgd1na2vs0mg"},{"bike_id":"c1dac6bc-1d5f-442d-823d-1945bf1b35b3","system_id":"levelo_inurba_marseille","lat":43.24063,"lon":5.37771,"is_reserved":false,"is_disabled":false,"rental_uris":{"android":"levelo://app?vid=c1dac6bc-1d5f-442d-823d-1945bf1b35b3","ios":"levelo://app?vid=c1dac6bc-1d5f-442d-823d-1945bf1b35b3"},"vehicle_type_id":"4","last_reported":1738404546,"current_range_meters":11200,"station_id":"ce4bhnp2rcd13ifvqgvg","pricing_plan_id":"cebpf4jnsgd1na2vs0mg"},{"bike_id":"5cd5a23a-ab00-4fbc-8a6c-45981dcdea3e","system_id":"levelo_inurba_marseille","lat":43.239611,"lon":5.366389,"is_reserved":false,"is_disabled":false,"rental_uris":{"android":"levelo://app?vid=5cd5a23a-ab00-4fbc-8a6c-45981dcdea3e","ios":"levelo://app?vid=5cd5a23a-ab00-4fbc-8a6c-45981dcdea3e"},"vehicle_type_id":"4","last_reported":1738404546,"current_range_meters":7200,"station_id":"ce4bhi12rcd13ifvqfp0","pricing_plan_id":"cebpf4jnsgd1na2vs0mg"},{"bike_id":"26f0c763-2955-4920-a58a-d28d6a489be6","system_id":"levelo_inurba_marseille","lat":43.3046,"lon":5.37913,"is_reserved":false,"is_disabled":false,"rental_uris":{"android":"levelo://app?vid=26f0c763-2955-4920-a58a-d28d6a489be6","ios":"levelo://app?vid=26f0c763-2955-4920-a58a-d28d6a489be6"},"vehicle_type_id":"4","last_reported":1738404546,"current_range_meters":28800,"station_id":"ce4bgup2rcd13ifvqcn0","pricing_plan_id":"cebpf4jnsgd1na2vs0mg"},{"bike_id":"ccb14f96-c600-4289-9163-893262461446","system_id":"levelo_inurba_marseille","lat":43.30287,"lon":5.37677,"is_reserved":false,"is_disabled":false,"rental_uris":{"android":"levelo://app?vid=ccb14f96-c600-4289-9163-893262461446","ios":"levelo://app?vid=ccb14f96-c600-4289-9163-893262461446"},"vehicle_type_id":"4","last_reported":1738404546,"current_range_meters":38000,"station_id":"ce4bguh2rcd13ifvqcj0","pricing_plan_id":"cebpf4jnsgd1na2vs0mg"},{"bike_id":"095e5291-f842-4478-bc34-3769cd441c0c","system_id":"levelo_inurba_marseille","lat":43.28168,"lon":5.42642,"is_reserved":false,"is_disabled":false,"rental_uris":{"android":"levelo://app?vid=095e5291-f842-4478-bc34-3769cd441c0c","ios":"levelo://app?vid=095e5291-f842-4478-bc34-3769cd441c0c"},"vehicle_type_id":"4","last_reported":1738404546,"current_range_meters":19200,"station_id":"ce4bhnh2rcd13ifvqgug","pricing_plan_id":"cebpf4jnsgd1na2vs0mg"},{"bike_id":"e7da1f7f-20ad-4f98-804e-ac610ec1add9","system_id":"levelo_inurba_marseille","lat":43.29288,"lon":5.36042,"is_reserved":false,"is_disabled":false,"rental_uris":{"android":"levelo://app?vid=e7da1f7f-20ad-4f98-804e-ac610ec1add9","ios":"levelo://app?vid=e7da1f7f-20ad-4f98-804e-ac610ec1add9"},"vehicle_type_id":"4","last_reported":1738404546,"current_range_meters":22400,"station_id":"ce4bhbh2rcd13ifvqeqg","pricing_plan_id":"cebpf4jnsgd1na2vs0mg"},{"bike_id":"9f7cbc3c-6e0b-4442-8c70-64c0b2a1452e","system_id":"levelo_inurba_marseille","lat":43.230576,"lon":5.354949,"is_reserved":false,"is_disabled":false,"rental_uris":{"android":"levelo://app?vid=9f7cbc3c-6e0b-4442-8c70-64c0b2a1452e","ios":"levelo://app?vid=9f7cbc3c-6e0b-4442-8c70-64c0b2a1452e"},"vehicle_type_id":"4","last_reported":1738404546,"current_range_meters":36800,"station_id":"cpo3342slgdg3j2ifvpg","pricing_plan_id":"cebpf4jnsgd1na2vs0mg"},{"bike_id":"c8a3a0ed-dff2-4f3c-87dc-2e6b47b1ad28","system_id":"levelo_inurba_marseille","lat":43.337444,"lon":5.374475,"is_reserved":false,"is_disabled":true,"rental_uris":{"android":"levelo://app?vid=c8a3a0ed-dff2-4f3c-87dc-2e6b47b1ad28","ios":"levelo://app?vid=c8a3a0ed-dff2-4f3c-87dc-2e6b47b1ad28"},"vehicle_type_id":"4","last_reported":1738404546,"current_range_meters":0,"station_id":"","pricing_plan_id":"cebpf4jnsgd1na2vs0mg"},{"bike_id":"f48ca05c-588e-4e6a-a902-937eccb2fa26","system_id":"levelo_inurba_marseille","lat":43.29302,"lon":5.37188,"is_reserved":false,"is_disabled":false,"rental_uris":{"android":"levelo://app?vid=f48ca05c-588e-4e6a-a902-937eccb2fa26","ios":"levelo://app?vid=f48ca05c-588e-4e6a-a902-937eccb2fa26"},"vehicle_type_id":"4","last_reported":1738404546,"current_range_meters":35200,"station_id":"","pricing_plan_id":"cebpf4jnsgd1na2vs0mg"},{"bike_id":"690cc585-528b-4191-a28b-a2ed865541aa","system_id":"levelo_inurba_marseille","lat":43.26921,"lon":5.38921,"is_reserved":false,"is_disabled":false,"rental_uris":{"android":"levelo://app?vid=690cc585-528b-4191-a28b-a2ed865541aa","ios":"levelo://app?vid=690cc585-528b-4191-a28b-a2ed865541aa"},"vehicle_type_id":"4","last_reported":1738404546,"current_range_meters":17600,"station_id":"ce4bhhh2rcd13ifvqfl0","pricing_plan_id":"cebpf4jnsgd1na2vs0mg"},{"bike_id":"b813fe64-8dbc-4195-b584-e56261d93ee7","system_id":"levelo_inurba_marseille","lat":43.27997,"lon":5.41672,"is_reserved":false,"is_disabled":false,"rental_uris":{"android":"levelo://app?vid=b813fe64-8dbc-4195-b584-e56261d93ee7","ios":"levelo://app?vid=b813fe64-8dbc-4195-b584-e56261d93ee7"},"vehicle_type_id":"4","last_reported":1738404546,"current_range_meters":37600,"station_id":"ce4bho12rcd13ifvqh1g","pricing_plan_id":"cebpf4jnsgd1na2vs0mg"},{"bike_id":"caaf94cc-d5a5-4f54-af0c-57a90c24c095","system_id":"levelo_inurba_marseille","lat":43.26676,"lon":5.38268,"is_reserved":false,"is_disabled":false,"rental_uris":{"android":"levelo://app?vid=caaf94cc-d5a5-4f54-af0c-57a90c24c095","ios":"levelo://app?vid=caaf94cc-d5a5-4f54-af0c-57a90c24c095"},"vehicle_type_id":"4","last_reported":1738404546,"current_range_meters":25200,"station_id":"ce4bhg92rcd13ifvqf90","pricing_plan_id":"cebpf4jnsgd1na2vs0mg"},{"bike_id":"49c9271e-6488-43ce-a64d-362891e609ce","system_id":"levelo_inurba_marseille","lat":43.30592,"lon":5.37233,"is_reserved":false,"is_disabled":false,"rental_uris":{"android":"levelo://app?vid=49c9271e-6488-43ce-a64d-362891e609ce","ios":"levelo://app?vid=49c9271e-6488-43ce-a64d-362891e609ce"},"vehicle_type_id":"4","last_reported":1738404546,"current_range_meters":24000,"station_id":"ce4bgqh2rcd13ifvqc4g","pricing_plan_id":"cebpf4jnsgd1na2vs0mg"},{"bike_id":"adda76c1-b3af-4a3a-81d8-931a18a11224","system_id":"levelo_inurba_marseille","lat":43.30145,"lon":5.38117,"is_reserved":false,"is_disabled":false,"rental_uris":{"android":"levelo://app?vid=adda76c1-b3af-4a3a-81d8-931a18a11224","ios":"levelo://app?vid=adda76c1-b3af-4a3a-81d8-931a18a11224"},"vehicle_type_id":"4","last_reported":1738404546,"current_range_meters":33200,"station_id":"ce4bgjp2rcd13ifvqbh0","pricing_plan_id":"cebpf4jnsgd1na2vs0mg"},{"bike_id":"32802d31-82e5-49aa-928e-45336ddb5e58","system_id":"levelo_inurba_marseille","lat":43.25004,"lon":5.3894,"is_reserved":false,"is_disabled":false,"rental_uris":{"android":"levelo://app?vid=32802d31-82e5-49aa-928e-45336ddb5e58","ios":"levelo://app?vid=32802d31-82e5-49aa-928e-45336ddb5e58"},"vehicle_type_id":"4","last_reported":1738404546,"current_range_meters":38800,"station_id":"ce4bhgp2rcd13ifvqfd0","pricing_plan_id":"cebpf4jnsgd1na2vs0mg"},{"bike_id":"d06240a3-8895-42e8-9212-5c068d44e9d2","system_id":"levelo_inurba_marseille","lat":43.28633,"lon":5.35091,"is_reserved":false,"is_disabled":false,"rental_uris":{"android":"levelo://app?vid=d06240a3-8895-42e8-9212-5c068d44e9d2","ios":"levelo://app?vid=d06240a3-8895-42e8-9212-5c068d44e9d2"},"vehicle_type_id":"4","last_reported":1738404546,"current_range_meters":24000,"station_id":"ce4bhch2rcd13ifvqeug","pricing_plan_id":"cebpf4jnsgd1na2vs0mg"},{"bike_id":"040177a9-ca65-4fa4-be02-ee46e8ee4cff","system_id":"levelo_inurba_marseille","lat":43.24377,"lon":5.37073,"is_reserved":false,"is_disabled":false,"rental_uris":{"android":"levelo://app?vid=040177a9-ca65-4fa4-be02-ee46e8ee4cff","ios":"levelo://app?vid=040177a9-ca65-4fa4-be02-ee46e8ee4cff"},"vehicle_type_id":"4","last_reported":1738404546,"current_range_meters":39200,"station_id":"ce4bhhh2rcd13ifvqfk0","pricing_plan_id":"cebpf4jnsgd1na2vs0mg"},{"bike_id":"c6ad9228-2f33-41f3-a929-9e0a226fedef","system_id":"levelo_inurba_marseille","lat":43.24547,"lon":5.3953,"is_reserved":false,"is_disabled":false,"rental_uris":{"android":"levelo://app?vid=c6ad9228-2f33-41f3-a929-9e0a226fedef","ios":"levelo://app?vid=c6ad9228-2f33-41f3-a929-9e0a226fedef"},"vehicle_type_id":"4","last_reported":1738404546,"current_range_meters":38800,"station_id":"ce4bhlp2rcd13ifvqgjg","pricing_plan_id":"cebpf4jnsgd1na2vs0mg"},{"bike_id":"06e40ee8-ee21-4fa9-9bf1-15cf9519c817","system_id":"levelo_inurba_marseille","lat":43.28955,"lon":5.3641,"is_reserved":false,"is_disabled":false,"rental_uris":{"android":"levelo://app?vid=06e40ee8-ee21-4fa9-9bf1-15cf9519c817","ios":"levelo://app?vid=06e40ee8-ee21-4fa9-9bf1-15cf9519c817"},"vehicle_type_id":"4","last_reported":1738404546,"current_range_meters":38000,"station_id":"ce4bhc92rcd13ifvqetg","pricing_plan_id":"cebpf4jnsgd1na2vs0mg"},{"bike_id":"e30ef50d-892f-4fe0-938d-57369caf2166","system_id":"levelo_inurba_marseille","lat":43.22934,"lon":5.3537,"is_reserved":false,"is_disabled":false,"rental_uris":{"android":"levelo://app?vid=e30ef50d-892f-4fe0-938d-57369caf2166","ios":"levelo://app?vid=e30ef50d-892f-4fe0-938d-57369caf2166"},"vehicle_type_id":"4","last_reported":1738404546,"current_range_meters":16000,"station_id":"cpo3532slgdg3j2ikp40","pricing_plan_id":"cebpf4jnsgd1na2vs0mg"},{"bike_id":"2e0b6bc5-45e8-4fe9-bcd1-009b1c57757f","system_id":"levelo_inurba_marseille","lat":43.27953,"lon":5.38711,"is_reserved":false,"is_disabled":false,"rental_uris":{"android":"levelo://app?vid=2e0b6bc5-45e8-4fe9-bcd1-009b1c57757f","ios":"levelo://app?vid=2e0b6bc5-45e8-4fe9-bcd1-009b1c57757f"},"vehicle_type_id":"4","last_reported":1738404546,"current_range_meters":39200,"station_id":"ce4bhg12rcd13ifvqf80","pricing_plan_id":"cebpf4jnsgd1na2vs0mg"},{"bike_id":"9838cc78-2b53-49d3-ae13-82df62c4fd64","system_id":"levelo_inurba_marseille","lat":43.28412,"lon":5.40934,"is_reserved":false,"is_disabled":true,"rental_uris":{"android":"levelo://app?vid=9838cc78-2b53-49d3-ae13-82df62c4fd64","ios":"levelo://app?vid=9838cc78-2b53-49d3-ae13-82df62c4fd64"},"vehicle_type_id":"4","last_reported":1738404546,"current_range_meters":0,"station_id":"","pricing_plan_id":"cebpf4jnsgd1na2vs0mg"},{"bike_id":"0c15d129-0013-4406-bfc7-ea5516c12f82","system_id":"levelo_inurba_marseille","lat":43.28368,"lon":5.38623,"is_reserved":false,"is_disabled":false,"rental_uris":{"android":"levelo://app?vid=0c15d129-0013-4406-bfc7-ea5516c12f82","ios":"levelo://app?vid=0c15d129-0013-4406-bfc7-ea5516c12f82"},"vehicle_type_id":"4","last_reported":1738404546,"current_range_meters":38800,"station_id":"ce4bh492rcd13ifvqdvg","pricing_plan_id":"cebpf4jnsgd1na2vs0mg"},{"bike_id":"dd0bd2d0-8c82-442a-b39b-12d8a90c34c7","system_id":"levelo_inurba_marseille","lat":43.25824,"lon":5.394387,"is_reserved":false,"is_disabled":false,"rental_uris":{"android":"levelo://app?vid=dd0bd2d0-8c82-442a-b39b-12d8a90c34c7","ios":"levelo://app?vid=dd0bd2d0-8c82-442a-b39b-12d8a90c34c7"},"vehicle_type_id":"4","last_reported":1738404546,"current_range_meters":8400,"station_id":"ce4bhip2rcd13ifvqft0","pricing_plan_id":"cebpf4jnsgd1na2vs0mg"},{"bike_id":"cfdc3e36-f1ca-4859-b324-931a3f1626bd","system_id":"levelo_inurba_marseille","lat":43.25568,"lon":5.38246,"is_reserved":false,"is_disabled":false,"rental_uris":{"android":"levelo://app?vid=cfdc3e36-f1ca-4859-b324-931a3f1626bd","ios":"levelo://app?vid=cfdc3e36-f1ca-4859-b324-931a3f1626bd"},"vehicle_type_id":"4","last_reported":1738404546,"current_range_meters":38800,"station_id":"ce4bhih2rcd13ifvqfs0","pricing_plan_id":"cebpf4jnsgd1na2vs0mg"},{"bike_id":"7f476690-f1b5-43de-833f-9dc71e2f79b2","system_id":"levelo_inurba_marseille","lat":43.31717,"lon":5.43709,"is_reserved":false,"is_disabled":false,"rental_uris":{"android":"levelo://app?vid=7f476690-f1b5-43de-833f-9dc71e2f79b2","ios":"levelo://app?vid=7f476690-f1b5-43de-833f-9dc71e2f79b2"},"vehicle_type_id":"4","last_reported":1738404546,"current_range_meters":38800,"station_id":"ce4bhp92rcd13ifvqhcg","pricing_plan_id":"cebpf4jnsgd1na2vs0mg"},{"bike_id":"78b43ac5-e91a-459f-a654-a1d5375a0672","system_id":"levelo_inurba_marseille","lat":43.29884,"lon":5.4369,"is_reserved":false,"is_disabled":false,"rental_uris":{"android":"levelo://app?vid=78b43ac5-e91a-459f-a654-a1d5375a0672","ios":"levelo://app?vid=78b43ac5-e91a-459f-a654-a1d5375a0672"},"vehicle_type_id":"4","last_reported":1738404546,"current_range_meters":9200,"station_id":"ce4bhpp2rcd13ifvqhfg","pricing_plan_id":"cebpf4jnsgd1na2vs0mg"},{"bike_id":"99ada82f-98f9-42c9-be08-39ee133997ac","system_id":"levelo_inurba_marseille","lat":43.28609,"lon":5.35115,"is_reserved":false,"is_disabled":false,"rental_uris":{"android":"levelo://app?vid=99ada82f-98f9-42c9-be08-39ee133997ac","ios":"levelo://app?vid=99ada82f-98f9-42c9-be08-39ee133997ac"},"vehicle_type_id":"4","last_reported":1738404546,"current_range_meters":20400,"station_id":"ce4bhch2rcd13ifvqeug","pricing_plan_id":"cebpf4jnsgd1na2vs0mg"},{"bike_id":"1578e201-14fb-4182-b6c7-4611fdea4258","system_id":"levelo_inurba_marseille","lat":43.30767,"lon":5.37657,"is_reserved":false,"is_disabled":false,"rental_uris":{"android":"levelo://app?vid=1578e201-14fb-4182-b6c7-4611fdea4258","ios":"levelo://app?vid=1578e201-14fb-4182-b6c7-4611fdea4258"},"vehicle_type_id":"4","last_reported":1738404546,"current_range_meters":38800,"station_id":"ce4bgv92rcd13ifvqcq0","pricing_plan_id":"cebpf4jnsgd1na2vs0mg"},{"bike_id":"e36db7bd-314f-4fd3-ada1-10478b463cf0","system_id":"levelo_inurba_marseille","lat":43.279064,"lon":5.380064,"is_reserved":false,"is_disabled":false,"rental_uris":{"android":"levelo://app?vid=e36db7bd-314f-4fd3-ada1-10478b463cf0","ios":"levelo://app?vid=e36db7bd-314f-4fd3-ada1-10478b463cf0"},"vehicle_type_id":"4","last_reported":1738404546,"current_range_meters":37600,"station_id":"ce4bhf92rcd13ifvqf50","pricing_plan_id":"cebpf4jnsgd1na2vs0mg"},{"bike_id":"377fabcd-1e70-4efa-9673-cdf7fd54d8f5","system_id":"levelo_inurba_marseille","lat":43.32286,"lon":5.38269,"is_reserved":false,"is_disabled":false,"rental_uris":{"android":"levelo://app?vid=377fabcd-1e70-4efa-9673-cdf7fd54d8f5","ios":"levelo://app?vid=377fabcd-1e70-4efa-9673-cdf7fd54d8f5"},"vehicle_type_id":"4","last_reported":1738404546,"current_range_meters":24800,"station_id":"ce4bhr12rcd13ifvqhqg","pricing_plan_id":"cebpf4jnsgd1na2vs0mg"},{"bike_id":"853f8e3d-8254-4a78-8b3f-becd4688f427","system_id":"levelo_inurba_marseille","lat":43.25123,"lon":5.40365,"is_reserved":false,"is_disabled":false,"rental_uris":{"android":"levelo://app?vid=853f8e3d-8254-4a78-8b3f-becd4688f427","ios":"levelo://app?vid=853f8e3d-8254-4a78-8b3f-becd4688f427"},"vehicle_type_id":"4","last_reported":1738404546,"current_range_meters":6400,"station_id":"ce4bhlh2rcd13ifvqgig","pricing_plan_id":"cebpf4jnsgd1na2vs0mg"},{"bike_id":"59e98682-9355-45ca-aaa0-29b37b791d30","system_id":"levelo_inurba_marseille","lat":43.29555,"lon":5.4228,"is_reserved":false,"is_disabled":false,"rental_uris":{"android":"levelo://app?vid=59e98682-9355-45ca-aaa0-29b37b791d30","ios":"levelo://app?vid=59e98682-9355-45ca-aaa0-29b37b791d30"},"vehicle_type_id":"4","last_reported":1738404546,"current_range_meters":8000,"station_id":"ce4bhph2rcd13ifvqhdg","pricing_plan_id":"cebpf4jnsgd1na2vs0mg"},{"bike_id":"c14643b9-ff56-44c6-a4b7-4e03687c6372","system_id":"levelo_inurba_marseille","lat":43.25011,"lon":5.38944,"is_reserved":false,"is_disabled":false,"rental_uris":{"android":"levelo://app?vid=c14643b9-ff56-44c6-a4b7-4e03687c6372","ios":"levelo://app?vid=c14643b9-ff56-44c6-a4b7-4e03687c6372"},"vehicle_type_id":"4","last_reported":1738404546,"current_range_meters":24800,"station_id":"ce4bhgp2rcd13ifvqfd0","pricing_plan_id":"cebpf4jnsgd1na2vs0mg"},{"bike_id":"a5536eb2-7c9b-4d87-87fa-195cc64f7ed9","system_id":"levelo_inurba_marseille","lat":43.30858,"lon":5.39679,"is_reserved":false,"is_disabled":false,"rental_uris":{"android":"levelo://app?vid=a5536eb2-7c9b-4d87-87fa-195cc64f7ed9","ios":"levelo://app?vid=a5536eb2-7c9b-4d87-87fa-195cc64f7ed9"},"vehicle_type_id":"4","last_reported":1738404546,"current_range_meters":38800,"station_id":"ce4bh012rcd13ifvqcv0","pricing_plan_id":"cebpf4jnsgd1na2vs0mg"},{"bike_id":"e2c49145-d80d-4c68-8184-02b30e52c755","system_id":"levelo_inurba_marseille","lat":43.30797,"lon":5.43529,"is_reserved":false,"is_disabled":false,"rental_uris":{"android":"levelo://app?vid=e2c49145-d80d-4c68-8184-02b30e52c755","ios":"levelo://app?vid=e2c49145-d80d-4c68-8184-02b30e52c755"},"vehicle_type_id":"4","last_reported":1738404546,"current_range_meters":26000,"station_id":"ce4bhph2rcd13ifvqheg","pricing_plan_id":"cebpf4jnsgd1na2vs0mg"},{"bike_id":"d6b47bfc-0113-463d-bb25-e907a6c4126a","system_id":"levelo_inurba_marseille","lat":43.24069,"lon":5.37755,"is_reserved":false,"is_disabled":false,"rental_uris":{"android":"levelo://app?vid=d6b47bfc-0113-463d-bb25-e907a6c4126a","ios":"levelo://app?vid=d6b47bfc-0113-463d-bb25-e907a6c4126a"},"vehicle_type_id":"4","last_reported":1738404546,"current_range_meters":38800,"station_id":"ce4bhnp2rcd13ifvqgvg","pricing_plan_id":"cebpf4jnsgd1na2vs0mg"},{"bike_id":"d979d8d2-ec65-47af-9229-e4270aab279a","system_id":"levelo_inurba_marseille","lat":43.230654,"lon":5.354906,"is_reserved":false,"is_disabled":false,"rental_uris":{"android":"levelo://app?vid=d979d8d2-ec65-47af-9229-e4270aab279a","ios":"levelo://app?vid=d979d8d2-ec65-47af-9229-e4270aab279a"},"vehicle_type_id":"4","last_reported":1738404546,"current_range_meters":6400,"station_id":"cpo3342slgdg3j2ifvpg","pricing_plan_id":"cebpf4jnsgd1na2vs0mg"},{"bike_id":"1cf31538-5f18-467f-8725-232cdef4f899","system_id":"levelo_inurba_marseille","lat":43.29845,"lon":5.36258,"is_reserved":false,"is_disabled":false,"rental_uris":{"android":"levelo://app?vid=1cf31538-5f18-467f-8725-232cdef4f899","ios":"levelo://app?vid=1cf31538-5f18-467f-8725-232cdef4f899"},"vehicle_type_id":"4","last_reported":1738404546,"current_range_meters":38800,"station_id":"ce4bgpp2rcd13ifvqc3g","pricing_plan_id":"cebpf4jnsgd1na2vs0mg"},{"bike_id":"9b9fa8e9-2d03-4caa-a019-794349c74dfe","system_id":"levelo_inurba_marseille","lat":43.2512,"lon":5.40318,"is_reserved":false,"is_disabled":false,"rental_uris":{"android":"levelo://app?vid=9b9fa8e9-2d03-4caa-a019-794349c74dfe","ios":"levelo://app?vid=9b9fa8e9-2d03-4caa-a019-794349c74dfe"},"vehicle_type_id":"4","last_reported":1738404546,"current_range_meters":21600,"station_id":"ce4bhlh2rcd13ifvqgig","pricing_plan_id":"cebpf4jnsgd1na2vs0mg"},{"bike_id":"15cde79e-a920-43cb-bb3f-1b9cbf6af752","system_id":"levelo_inurba_marseille","lat":43.3055,"lon":5.37272,"is_reserved":false,"is_disabled":false,"rental_uris":{"android":"levelo://app?vid=15cde79e-a920-43cb-bb3f-1b9cbf6af752","ios":"levelo://app?vid=15cde79e-a920-43cb-bb3f-1b9cbf6af752"},"vehicle_type_id":"4","last_reported":1738404546,"current_range_meters":30000,"station_id":"","pricing_plan_id":"cebpf4jnsgd1na2vs0mg"},{"bike_id":"5e247067-8eb1-4b0c-b753-3edbc9392c23","system_id":"levelo_inurba_marseille","lat":43.26785,"lon":5.40278,"is_reserved":false,"is_disabled":false,"rental_uris":{"android":"levelo://app?vid=5e247067-8eb1-4b0c-b753-3edbc9392c23","ios":"levelo://app?vid=5e247067-8eb1-4b0c-b753-3edbc9392c23"},"vehicle_type_id":"4","last_reported":1738404546,"current_range_meters":9200,"station_id":"ce501612rcd8frsf0b60","pricing_plan_id":"cebpf4jnsgd1na2vs0mg"},{"bike_id":"5f54821c-0fbe-49b4-9faa-b664d07c2b1a","system_id":"levelo_inurba_marseille","lat":43.24399,"lon":5.37093,"is_reserved":false,"is_disabled":false,"rental_uris":{"android":"levelo://app?vid=5f54821c-0fbe-49b4-9faa-b664d07c2b1a","ios":"levelo://app?vid=5f54821c-0fbe-49b4-9faa-b664d07c2b1a"},"vehicle_type_id":"4","last_reported":1738404546,"current_range_meters":38800,"station_id":"ce4bhhh2rcd13ifvqfk0","pricing_plan_id":"cebpf4jnsgd1na2vs0mg"},{"bike_id":"6951eebc-7f6d-4e4a-9f3f-5b0ee979e759","system_id":"levelo_inurba_marseille","lat":43.29905,"lon":5.43682,"is_reserved":false,"is_disabled":false,"rental_uris":{"android":"levelo://app?vid=6951eebc-7f6d-4e4a-9f3f-5b0ee979e759","ios":"levelo://app?vid=6951eebc-7f6d-4e4a-9f3f-5b0ee979e759"},"vehicle_type_id":"4","last_reported":1738404546,"current_range_meters":7200,"station_id":"ce4bhpp2rcd13ifvqhfg","pricing_plan_id":"cebpf4jnsgd1na2vs0mg"},{"bike_id":"7d6260ec-6d8c-4d5b-8950-1a493871014c","system_id":"levelo_inurba_marseille","lat":43.29894,"lon":5.43678,"is_reserved":false,"is_disabled":false,"rental_uris":{"android":"levelo://app?vid=7d6260ec-6d8c-4d5b-8950-1a493871014c","ios":"levelo://app?vid=7d6260ec-6d8c-4d5b-8950-1a493871014c"},"vehicle_type_id":"4","last_reported":1738404546,"current_range_meters":27600,"station_id":"ce4bhpp2rcd13ifvqhfg","pricing_plan_id":"cebpf4jnsgd1na2vs0mg"},{"bike_id":"90d8247b-1174-449d-9eb0-b1f3c78024c6","system_id":"levelo_inurba_marseille","lat":43.27972,"lon":5.41667,"is_reserved":false,"is_disabled":false,"rental_uris":{"android":"levelo://app?vid=90d8247b-1174-449d-9eb0-b1f3c78024c6","ios":"levelo://app?vid=90d8247b-1174-449d-9eb0-b1f3c78024c6"},"vehicle_type_id":"4","last_reported":1738404546,"current_range_meters":33200,"station_id":"ce4bho12rcd13ifvqh1g","pricing_plan_id":"cebpf4jnsgd1na2vs0mg"},{"bike_id":"022cd4f7-f0ff-407d-baab-b560a1d769d2","system_id":"levelo_inurba_marseille","lat":43.3058,"lon":5.37209,"is_reserved":false,"is_disabled":false,"rental_uris":{"android":"levelo://app?vid=022cd4f7-f0ff-407d-baab-b560a1d769d2","ios":"levelo://app?vid=022cd4f7-f0ff-407d-baab-b560a1d769d2"},"vehicle_type_id":"4","last_reported":1738404546,"current_range_meters":39200,"station_id":"ce4bgqh2rcd13ifvqc4g","pricing_plan_id":"cebpf4jnsgd1na2vs0mg"},{"bike_id":"f99e91c4-2330-4795-bfe7-3495ca9ba92c","system_id":"levelo_inurba_marseille","lat":43.28943,"lon":5.366335,"is_reserved":false,"is_disabled":true,"rental_uris":{"android":"levelo://app?vid=f99e91c4-2330-4795-bfe7-3495ca9ba92c","ios":"levelo://app?vid=f99e91c4-2330-4795-bfe7-3495ca9ba92c"},"vehicle_type_id":"4","last_reported":1738404546,"current_range_meters":33600,"station_id":"ce4bhap2rcd13ifvqek0","pricing_plan_id":"cebpf4jnsgd1na2vs0mg"},{"bike_id":"682a9e54-ecb8-495c-88d2-a74ee011243f","system_id":"levelo_inurba_marseille","lat":43.24078,"lon":5.37753,"is_reserved":false,"is_disabled":false,"rental_uris":{"android":"levelo://app?vid=682a9e54-ecb8-495c-88d2-a74ee011243f","ios":"levelo://app?vid=682a9e54-ecb8-495c-88d2-a74ee011243f"},"vehicle_type_id":"4","last_reported":1738404546,"current_range_meters":38800,"station_id":"ce4bhnp2rcd13ifvqgvg","pricing_plan_id":"cebpf4jnsgd1na2vs0mg"},{"bike_id":"396d2bf0-6b5f-403b-bacf-9deaab552e51","system_id":"levelo_inurba_marseille","lat":43.23964,"lon":5.36622,"is_reserved":false,"is_disabled":false,"rental_uris":{"android":"levelo://app?vid=396d2bf0-6b5f-403b-bacf-9deaab552e51","ios":"levelo://app?vid=396d2bf0-6b5f-403b-bacf-9deaab552e51"},"vehicle_type_id":"4","last_reported":1738404546,"current_range_meters":9200,"station_id":"ce4bhi12rcd13ifvqfp0","pricing_plan_id":"cebpf4jnsgd1na2vs0mg"},{"bike_id":"d8b1c3f9-ff6e-4179-8423-4ba0d2a2af0e","system_id":"levelo_inurba_marseille","lat":43.33729,"lon":5.39192,"is_reserved":false,"is_disabled":false,"rental_uris":{"android":"levelo://app?vid=d8b1c3f9-ff6e-4179-8423-4ba0d2a2af0e","ios":"levelo://app?vid=d8b1c3f9-ff6e-4179-8423-4ba0d2a2af0e"},"vehicle_type_id":"4","last_reported":1738404546,"current_range_meters":38800,"station_id":"ce4bhr92rcd13ifvqhsg","pricing_plan_id":"cebpf4jnsgd1na2vs0mg"},{"bike_id":"206fc68c-39bf-482d-b1b0-948a6162fce9","system_id":"levelo_inurba_marseille","lat":43.25104,"lon":5.4033,"is_reserved":false,"is_disabled":false,"rental_uris":{"android":"levelo://app?vid=206fc68c-39bf-482d-b1b0-948a6162fce9","ios":"levelo://app?vid=206fc68c-39bf-482d-b1b0-948a6162fce9"},"vehicle_type_id":"4","last_reported":1738404546,"current_range_meters":38800,"station_id":"ce4bhlh2rcd13ifvqgig","pricing_plan_id":"cebpf4jnsgd1na2vs0mg"},{"bike_id":"f95a5ac6-98aa-4d97-9a9e-07f518502317","system_id":"levelo_inurba_marseille","lat":43.29902,"lon":5.38149,"is_reserved":false,"is_disabled":false,"rental_uris":{"android":"levelo://app?vid=f95a5ac6-98aa-4d97-9a9e-07f518502317","ios":"levelo://app?vid=f95a5ac6-98aa-4d97-9a9e-07f518502317"},"vehicle_type_id":"4","last_reported":1738404546,"current_range_meters":29600,"station_id":"ce4bgj12rcd13ifvqbc0","pricing_plan_id":"cebpf4jnsgd1na2vs0mg"},{"bike_id":"23d607b4-9cdd-4843-8952-4da90f95e291","system_id":"levelo_inurba_marseille","lat":43.24173,"lon":5.39727,"is_reserved":false,"is_disabled":false,"rental_uris":{"android":"levelo://app?vid=23d607b4-9cdd-4843-8952-4da90f95e291","ios":"levelo://app?vid=23d607b4-9cdd-4843-8952-4da90f95e291"},"vehicle_type_id":"4","last_reported":1738404546,"current_range_meters":30000,"station_id":"ce4bhn12rcd13ifvqgpg","pricing_plan_id":"cebpf4jnsgd1na2vs0mg"},{"bike_id":"37a316fb-b3fd-47c4-b337-ae3ed2613770","system_id":"levelo_inurba_marseille","lat":43.25864,"lon":5.39921,"is_reserved":false,"is_disabled":false,"rental_uris":{"android":"levelo://app?vid=37a316fb-b3fd-47c4-b337-ae3ed2613770","ios":"levelo://app?vid=37a316fb-b3fd-47c4-b337-ae3ed2613770"},"vehicle_type_id":"4","last_reported":1738404546,"current_range_meters":36400,"station_id":"ce4bhl92rcd13ifvqghg","pricing_plan_id":"cebpf4jnsgd1na2vs0mg"},{"bike_id":"f086b070-9af2-4a12-baa6-4f5148d2f614","system_id":"levelo_inurba_marseille","lat":43.27816,"lon":5.40703,"is_reserved":false,"is_disabled":false,"rental_uris":{"android":"levelo://app?vid=f086b070-9af2-4a12-baa6-4f5148d2f614","ios":"levelo://app?vid=f086b070-9af2-4a12-baa6-4f5148d2f614"},"vehicle_type_id":"4","last_reported":1738404546,"current_range_meters":16000,"station_id":"","pricing_plan_id":"cebpf4jnsgd1na2vs0mg"},{"bike_id":"f1531728-b8ea-45f6-b10e-94dd52db4db3","system_id":"levelo_inurba_marseille","lat":43.313325,"lon":5.397205,"is_reserved":false,"is_disabled":false,"rental_uris":{"android":"levelo://app?vid=f1531728-b8ea-45f6-b10e-94dd52db4db3","ios":"levelo://app?vid=f1531728-b8ea-45f6-b10e-94dd52db4db3"},"vehicle_type_id":"4","last_reported":1738404546,"current_range_meters":37600,"station_id":"ce4bgvp2rcd13ifvqcu0","pricing_plan_id":"cebpf4jnsgd1na2vs0mg"},{"bike_id":"3e8ac81e-fafa-4918-bfdd-b6bf11718524","system_id":"levelo_inurba_marseille","lat":43.28998,"lon":5.35957,"is_reserved":false,"is_disabled":false,"rental_uris":{"android":"levelo://app?vid=3e8ac81e-fafa-4918-bfdd-b6bf11718524","ios":"levelo://app?vid=3e8ac81e-fafa-4918-bfdd-b6bf11718524"},"vehicle_type_id":"4","last_reported":1738404546,"current_range_meters":38800,"station_id":"","pricing_plan_id":"cebpf4jnsgd1na2vs0mg"},{"bike_id":"aaa6e67b-c064-4c8a-a476-dbbc01ae4e95","system_id":"levelo_inurba_marseille","lat":43.31712,"lon":5.43705,"is_reserved":false,"is_disabled":false,"rental_uris":{"android":"levelo://app?vid=aaa6e67b-c064-4c8a-a476-dbbc01ae4e95","ios":"levelo://app?vid=aaa6e67b-c064-4c8a-a476-dbbc01ae4e95"},"vehicle_type_id":"4","last_reported":1738404546,"current_range_meters":14000,"station_id":"ce4bhp92rcd13ifvqhcg","pricing_plan_id":"cebpf4jnsgd1na2vs0mg"},{"bike_id":"2047e938-57e3-4375-958a-69a4e97a2c7d","system_id":"levelo_inurba_marseille","lat":43.23188,"lon":5.39992,"is_reserved":false,"is_disabled":true,"rental_uris":{"android":"levelo://app?vid=2047e938-57e3-4375-958a-69a4e97a2c7d","ios":"levelo://app?vid=2047e938-57e3-4375-958a-69a4e97a2c7d"},"vehicle_type_id":"4","last_reported":1738404546,"current_range_meters":9600,"station_id":"ce4bhn12rcd13ifvqgqg","pricing_plan_id":"cebpf4jnsgd1na2vs0mg"},{"bike_id":"83fe1ee4-a6c1-4e26-9ca1-fc3d3901df23","system_id":"levelo_inurba_marseille","lat":43.23967,"lon":5.36631,"is_reserved":false,"is_disabled":false,"rental_uris":{"android":"levelo://app?vid=83fe1ee4-a6c1-4e26-9ca1-fc3d3901df23","ios":"levelo://app?vid=83fe1ee4-a6c1-4e26-9ca1-fc3d3901df23"},"vehicle_type_id":"4","last_reported":1738404546,"current_range_meters":33600,"station_id":"ce4bhi12rcd13ifvqfp0","pricing_plan_id":"cebpf4jnsgd1na2vs0mg"},{"bike_id":"5dd8e8c0-c04f-43b6-b935-fb3c1ee809cd","system_id":"levelo_inurba_marseille","lat":43.30199,"lon":5.38049,"is_reserved":false,"is_disabled":false,"rental_uris":{"android":"levelo://app?vid=5dd8e8c0-c04f-43b6-b935-fb3c1ee809cd","ios":"levelo://app?vid=5dd8e8c0-c04f-43b6-b935-fb3c1ee809cd"},"vehicle_type_id":"4","last_reported":1738404546,"current_range_meters":39200,"station_id":"ce4bgjp2rcd13ifvqbh0","pricing_plan_id":"cebpf4jnsgd1na2vs0mg"},{"bike_id":"9a5dd714-85fe-466b-a1c2-d9dcf5c309b2","system_id":"levelo_inurba_marseille","lat":43.286156,"lon":5.351001,"is_reserved":false,"is_disabled":false,"rental_uris":{"android":"levelo://app?vid=9a5dd714-85fe-466b-a1c2-d9dcf5c309b2","ios":"levelo://app?vid=9a5dd714-85fe-466b-a1c2-d9dcf5c309b2"},"vehicle_type_id":"4","last_reported":1738404546,"current_range_meters":12000,"station_id":"ce4bhch2rcd13ifvqeug","pricing_plan_id":"cebpf4jnsgd1na2vs0mg"},{"bike_id":"1c5f32a5-3fae-4ceb-8b01-7113aed4134b","system_id":"levelo_inurba_marseille","lat":43.25579,"lon":5.38223,"is_reserved":false,"is_disabled":false,"rental_uris":{"android":"levelo://app?vid=1c5f32a5-3fae-4ceb-8b01-7113aed4134b","ios":"levelo://app?vid=1c5f32a5-3fae-4ceb-8b01-7113aed4134b"},"vehicle_type_id":"4","last_reported":1738404546,"current_range_meters":8400,"station_id":"ce4bhih2rcd13ifvqfs0","pricing_plan_id":"cebpf4jnsgd1na2vs0mg"},{"bike_id":"fa7fe4a9-29d6-4ebf-8f79-2665f37910aa","system_id":"levelo_inurba_marseille","lat":43.28071,"lon":5.39655,"is_reserved":false,"is_disabled":false,"rental_uris":{"android":"levelo://app?vid=fa7fe4a9-29d6-4ebf-8f79-2665f37910aa","ios":"levelo://app?vid=fa7fe4a9-29d6-4ebf-8f79-2665f37910aa"},"vehicle_type_id":"4","last_reported":1738404546,"current_range_meters":19200,"station_id":"ce4bho12rcd13ifvqh2g","pricing_plan_id":"cebpf4jnsgd1na2vs0mg"},{"bike_id":"c17b26cf-71ee-436e-9731-481a1afc80af","system_id":"levelo_inurba_marseille","lat":43.29442,"lon":5.39745,"is_reserved":false,"is_disabled":false,"rental_uris":{"android":"levelo://app?vid=c17b26cf-71ee-436e-9731-481a1afc80af","ios":"levelo://app?vid=c17b26cf-71ee-436e-9731-481a1afc80af"},"vehicle_type_id":"4","last_reported":1738404546,"current_range_meters":30800,"station_id":"ce4bh3h2rcd13ifvqdo0","pricing_plan_id":"cebpf4jnsgd1na2vs0mg"},{"bike_id":"0fc8ef95-5e15-4825-b91c-cf0a986a3e9e","system_id":"levelo_inurba_marseille","lat":43.24174,"lon":5.39717,"is_reserved":false,"is_disabled":false,"rental_uris":{"android":"levelo://app?vid=0fc8ef95-5e15-4825-b91c-cf0a986a3e9e","ios":"levelo://app?vid=0fc8ef95-5e15-4825-b91c-cf0a986a3e9e"},"vehicle_type_id":"4","last_reported":1738404546,"current_range_meters":21600,"station_id":"ce4bhn12rcd13ifvqgpg","pricing_plan_id":"cebpf4jnsgd1na2vs0mg"},{"bike_id":"3a60ebc0-dac7-4b3e-a8c5-4699cca32d17","system_id":"levelo_inurba_marseille","lat":43.30803,"lon":5.43526,"is_reserved":false,"is_disabled":false,"rental_uris":{"android":"levelo://app?vid=3a60ebc0-dac7-4b3e-a8c5-4699cca32d17","ios":"levelo://app?vid=3a60ebc0-dac7-4b3e-a8c5-4699cca32d17"},"vehicle_type_id":"4","last_reported":1738404546,"current_range_meters":35600,"station_id":"ce4bhph2rcd13ifvqheg","pricing_plan_id":"cebpf4jnsgd1na2vs0mg"},{"bike_id":"11b221cb-97e2-4cec-97bf-a0bd25ac5412","system_id":"levelo_inurba_marseille","lat":43.30137,"lon":5.38081,"is_reserved":false,"is_disabled":false,"rental_uris":{"android":"levelo://app?vid=11b221cb-97e2-4cec-97bf-a0bd25ac5412","ios":"levelo://app?vid=11b221cb-97e2-4cec-97bf-a0bd25ac5412"},"vehicle_type_id":"4","last_reported":1738404546,"current_range_meters":7200,"station_id":"ce4bgjp2rcd13ifvqbh0","pricing_plan_id":"cebpf4jnsgd1na2vs0mg"},{"bike_id":"c9bd489c-cfea-4f67-b873-dfb6c5c512d2","system_id":"levelo_inurba_marseille","lat":43.28688,"lon":5.3792,"is_reserved":false,"is_disabled":false,"rental_uris":{"android":"levelo://app?vid=c9bd489c-cfea-4f67-b873-dfb6c5c512d2","ios":"levelo://app?vid=c9bd489c-cfea-4f67-b873-dfb6c5c512d2"},"vehicle_type_id":"4","last_reported":1738404546,"current_range_meters":38800,"station_id":"ce4bh9p2rcd13ifvqec0","pricing_plan_id":"cebpf4jnsgd1na2vs0mg"},{"bike_id":"70e82a0d-1c6a-4738-94eb-3a99d822b05a","system_id":"levelo_inurba_marseille","lat":43.32522,"lon":5.41487,"is_reserved":false,"is_disabled":false,"rental_uris":{"android":"levelo://app?vid=70e82a0d-1c6a-4738-94eb-3a99d822b05a","ios":"levelo://app?vid=70e82a0d-1c6a-4738-94eb-3a99d822b05a"},"vehicle_type_id":"4","last_reported":1738404546,"current_range_meters":10800,"station_id":"ce4bhq12rcd13ifvqhhg","pricing_plan_id":"cebpf4jnsgd1na2vs0mg"},{"bike_id":"0c8d479f-1533-480d-95ac-c1c17898a918","system_id":"levelo_inurba_marseille","lat":43.30164,"lon":5.38087,"is_reserved":false,"is_disabled":false,"rental_uris":{"android":"levelo://app?vid=0c8d479f-1533-480d-95ac-c1c17898a918","ios":"levelo://app?vid=0c8d479f-1533-480d-95ac-c1c17898a918"},"vehicle_type_id":"4","last_reported":1738404546,"current_range_meters":37600,"station_id":"ce4bgjp2rcd13ifvqbh0","pricing_plan_id":"cebpf4jnsgd1na2vs0mg"},{"bike_id":"a4770dca-4bea-43f4-a4c6-1b9fa73fa4d8","system_id":"levelo_inurba_marseille","lat":43.28448,"lon":5.35894,"is_reserved":false,"is_disabled":false,"rental_uris":{"android":"levelo://app?vid=a4770dca-4bea-43f4-a4c6-1b9fa73fa4d8","ios":"levelo://app?vid=a4770dca-4bea-43f4-a4c6-1b9fa73fa4d8"},"vehicle_type_id":"4","last_reported":1738404546,"current_range_meters":38800,"station_id":"ce4bhah2rcd13ifvqei0","pricing_plan_id":"cebpf4jnsgd1na2vs0mg"},{"bike_id":"56b09552-4219-4565-a734-8e0fd6e4802e","system_id":"levelo_inurba_marseille","lat":43.25564,"lon":5.38255,"is_reserved":false,"is_disabled":false,"rental_uris":{"android":"levelo://app?vid=56b09552-4219-4565-a734-8e0fd6e4802e","ios":"levelo://app?vid=56b09552-4219-4565-a734-8e0fd6e4802e"},"vehicle_type_id":"4","last_reported":1738404546,"current_range_meters":19600,"station_id":"ce4bhih2rcd13ifvqfs0","pricing_plan_id":"cebpf4jnsgd1na2vs0mg"},{"bike_id":"5cc7bc2b-f739-4f31-acac-12272565811d","system_id":"levelo_inurba_marseille","lat":43.30883,"lon":5.39625,"is_reserved":false,"is_disabled":false,"rental_uris":{"android":"levelo://app?vid=5cc7bc2b-f739-4f31-acac-12272565811d","ios":"levelo://app?vid=5cc7bc2b-f739-4f31-acac-12272565811d"},"vehicle_type_id":"4","last_reported":1738404546,"current_range_meters":38400,"station_id":"ce4bh012rcd13ifvqcv0","pricing_plan_id":"cebpf4jnsgd1na2vs0mg"},{"bike_id":"362981de-ee9c-4202-9582-1217e540e245","system_id":"levelo_inurba_marseille","lat":43.29829,"lon":5.36334,"is_reserved":false,"is_disabled":false,"rental_uris":{"android":"levelo://app?vid=362981de-ee9c-4202-9582-1217e540e245","ios":"levelo://app?vid=362981de-ee9c-4202-9582-1217e540e245"},"vehicle_type_id":"4","last_reported":1738404546,"current_range_meters":32800,"station_id":"ce4bgpp2rcd13ifvqc3g","pricing_plan_id":"cebpf4jnsgd1na2vs0mg"},{"bike_id":"e76772ad-4d7b-4743-aa72-133535f3d9df","system_id":"levelo_inurba_marseille","lat":43.296239,"lon":5.377045,"is_reserved":false,"is_disabled":true,"rental_uris":{"android":"levelo://app?vid=e76772ad-4d7b-4743-aa72-133535f3d9df","ios":"levelo://app?vid=e76772ad-4d7b-4743-aa72-133535f3d9df"},"vehicle_type_id":"4","last_reported":1738404546,"current_range_meters":0,"station_id":"","pricing_plan_id":"cebpf4jnsgd1na2vs0mg"},{"bike_id":"9aee4606-c150-4ae9-8663-a503bb7126aa","system_id":"levelo_inurba_marseille","lat":43.32357,"lon":5.3891,"is_reserved":false,"is_disabled":false,"rental_uris":{"android":"levelo://app?vid=9aee4606-c150-4ae9-8663-a503bb7126aa","ios":"levelo://app?vid=9aee4606-c150-4ae9-8663-a503bb7126aa"},"vehicle_type_id":"4","last_reported":1738404546,"current_range_meters":25600,"station_id":"ce4bhqp2rcd13ifvqhog","pricing_plan_id":"cebpf4jnsgd1na2vs0mg"},{"bike_id":"ab2c796a-c23b-4a3a-9534-777b873d6a05","system_id":"levelo_inurba_marseille","lat":43.24171,"lon":5.364,"is_reserved":false,"is_disabled":false,"rental_uris":{"android":"levelo://app?vid=ab2c796a-c23b-4a3a-9534-777b873d6a05","ios":"levelo://app?vid=ab2c796a-c23b-4a3a-9534-777b873d6a05"},"vehicle_type_id":"4","last_reported":1738404546,"current_range_meters":33200,"station_id":"cpo36qri1sfpv3e86is0","pricing_plan_id":"cebpf4jnsgd1na2vs0mg"},{"bike_id":"1b857ce7-a20c-4770-9790-7268dce5d355","system_id":"levelo_inurba_marseille","lat":43.284717,"lon":5.384376,"is_reserved":false,"is_disabled":true,"rental_uris":{"android":"levelo://app?vid=1b857ce7-a20c-4770-9790-7268dce5d355","ios":"levelo://app?vid=1b857ce7-a20c-4770-9790-7268dce5d355"},"vehicle_type_id":"4","last_reported":1738404546,"current_range_meters":0,"station_id":"ce4bh512rcd13ifvqe3g","pricing_plan_id":"cebpf4jnsgd1na2vs0mg"},{"bike_id":"eae57000-196c-4680-a249-b7fb2856e321","system_id":"levelo_inurba_marseille","lat":43.2979,"lon":5.39341,"is_reserved":false,"is_disabled":false,"rental_uris":{"android":"levelo://app?vid=eae57000-196c-4680-a249-b7fb2856e321","ios":"levelo://app?vid=eae57000-196c-4680-a249-b7fb2856e321"},"vehicle_type_id":"4","last_reported":1738404546,"current_range_meters":38800,"station_id":"chh1huq6cuj3fo74tm60","pricing_plan_id":"cebpf4jnsgd1na2vs0mg"},{"bike_id":"8963513e-1d8c-44de-bede-6dead9d455fc","system_id":"levelo_inurba_marseille","lat":43.31166,"lon":5.38738,"is_reserved":false,"is_disabled":false,"rental_uris":{"android":"levelo://app?vid=8963513e-1d8c-44de-bede-6dead9d455fc","ios":"levelo://app?vid=8963513e-1d8c-44de-bede-6dead9d455fc"},"vehicle_type_id":"4","last_reported":1738404546,"current_range_meters":38800,"station_id":"ce4bgv12rcd13ifvqcp0","pricing_plan_id":"cebpf4jnsgd1na2vs0mg"},{"bike_id":"58feef8f-17b5-470d-8151-c7a13f0dbe24","system_id":"levelo_inurba_marseille","lat":43.28422,"lon":5.37518,"is_reserved":false,"is_disabled":true,"rental_uris":{"android":"levelo://app?vid=58feef8f-17b5-470d-8151-c7a13f0dbe24","ios":"levelo://app?vid=58feef8f-17b5-470d-8151-c7a13f0dbe24"},"vehicle_type_id":"4","last_reported":1738404546,"current_range_meters":0,"station_id":"ce4bh412rcd13ifvqds0","pricing_plan_id":"cebpf4jnsgd1na2vs0mg"},{"bike_id":"7b1972b5-4724-4ee7-8ef3-3d52a3645f58","system_id":"levelo_inurba_marseille","lat":43.28161,"lon":5.42637,"is_reserved":false,"is_disabled":false,"rental_uris":{"android":"levelo://app?vid=7b1972b5-4724-4ee7-8ef3-3d52a3645f58","ios":"levelo://app?vid=7b1972b5-4724-4ee7-8ef3-3d52a3645f58"},"vehicle_type_id":"4","last_reported":1738404546,"current_range_meters":30800,"station_id":"ce4bhnh2rcd13ifvqgug","pricing_plan_id":"cebpf4jnsgd1na2vs0mg"},{"bike_id":"758c7df1-b289-413f-9578-cb267f266c2c","system_id":"levelo_inurba_marseille","lat":43.28396,"lon":5.37528,"is_reserved":false,"is_disabled":false,"rental_uris":{"android":"levelo://app?vid=758c7df1-b289-413f-9578-cb267f266c2c","ios":"levelo://app?vid=758c7df1-b289-413f-9578-cb267f266c2c"},"vehicle_type_id":"4","last_reported":1738404546,"current_range_meters":28000,"station_id":"ce4bh412rcd13ifvqds0","pricing_plan_id":"cebpf4jnsgd1na2vs0mg"},{"bike_id":"b2c7f7cf-5844-49ba-b617-f34cd234bbdf","system_id":"levelo_inurba_marseille","lat":43.30153,"lon":5.38075,"is_reserved":false,"is_disabled":false,"rental_uris":{"android":"levelo://app?vid=b2c7f7cf-5844-49ba-b617-f34cd234bbdf","ios":"levelo://app?vid=b2c7f7cf-5844-49ba-b617-f34cd234bbdf"},"vehicle_type_id":"4","last_reported":1738404546,"current_range_meters":24800,"station_id":"ce4bgjp2rcd13ifvqbh0","pricing_plan_id":"cebpf4jnsgd1na2vs0mg"},{"bike_id":"65c530b5-2aaa-424b-a792-20fcaf1cc087","system_id":"levelo_inurba_marseille","lat":43.28615,"lon":5.35105,"is_reserved":false,"is_disabled":false,"rental_uris":{"android":"levelo://app?vid=65c530b5-2aaa-424b-a792-20fcaf1cc087","ios":"levelo://app?vid=65c530b5-2aaa-424b-a792-20fcaf1cc087"},"vehicle_type_id":"4","last_reported":1738404546,"current_range_meters":16400,"station_id":"ce4bhch2rcd13ifvqeug","pricing_plan_id":"cebpf4jnsgd1na2vs0mg"},{"bike_id":"1f367278-209d-4e97-8303-f8487ffe1cb2","system_id":"levelo_inurba_marseille","lat":43.2827,"lon":5.35081,"is_reserved":false,"is_disabled":false,"rental_uris":{"android":"levelo://app?vid=1f367278-209d-4e97-8303-f8487ffe1cb2","ios":"levelo://app?vid=1f367278-209d-4e97-8303-f8487ffe1cb2"},"vehicle_type_id":"4","last_reported":1738404546,"current_range_meters":38800,"station_id":"ce4bhbp2rcd13ifvqerg","pricing_plan_id":"cebpf4jnsgd1na2vs0mg"},{"bike_id":"ee9cf7f5-6038-46af-895e-7032745d06a4","system_id":"levelo_inurba_marseille","lat":43.27506,"lon":5.42529,"is_reserved":false,"is_disabled":false,"rental_uris":{"android":"levelo://app?vid=ee9cf7f5-6038-46af-895e-7032745d06a4","ios":"levelo://app?vid=ee9cf7f5-6038-46af-895e-7032745d06a4"},"vehicle_type_id":"4","last_reported":1738404546,"current_range_meters":28400,"station_id":"","pricing_plan_id":"cebpf4jnsgd1na2vs0mg"},{"bike_id":"e1d4a2f1-c484-42e0-9232-e98e59dd1624","system_id":"levelo_inurba_marseille","lat":43.29033,"lon":5.38641,"is_reserved":false,"is_disabled":true,"rental_uris":{"android":"levelo://app?vid=e1d4a2f1-c484-42e0-9232-e98e59dd1624","ios":"levelo://app?vid=e1d4a2f1-c484-42e0-9232-e98e59dd1624"},"vehicle_type_id":"4","last_reported":1738404546,"current_range_meters":37600,"station_id":"ce4bh4p2rcd13ifvqe0g","pricing_plan_id":"cebpf4jnsgd1na2vs0mg"},{"bike_id":"f5192a48-f127-416f-ac25-5dcd6cb43014","system_id":"levelo_inurba_marseille","lat":43.31069,"lon":5.42458,"is_reserved":false,"is_disabled":false,"rental_uris":{"android":"levelo://app?vid=f5192a48-f127-416f-ac25-5dcd6cb43014","ios":"levelo://app?vid=f5192a48-f127-416f-ac25-5dcd6cb43014"},"vehicle_type_id":"4","last_reported":1738404546,"current_range_meters":38000,"station_id":"ce4bhp92rcd13ifvqhag","pricing_plan_id":"cebpf4jnsgd1na2vs0mg"},{"bike_id":"e8e1f7c6-d773-4c38-bfcc-4a6d773355ce","system_id":"levelo_inurba_marseille","lat":43.229386,"lon":5.353843,"is_reserved":false,"is_disabled":false,"rental_uris":{"android":"levelo://app?vid=e8e1f7c6-d773-4c38-bfcc-4a6d773355ce","ios":"levelo://app?vid=e8e1f7c6-d773-4c38-bfcc-4a6d773355ce"},"vehicle_type_id":"4","last_reported":1738404546,"current_range_meters":38800,"station_id":"cpo3532slgdg3j2ikp40","pricing_plan_id":"cebpf4jnsgd1na2vs0mg"},{"bike_id":"10bd0c1b-4113-4b53-b7a9-3c7a990cae19","system_id":"levelo_inurba_marseille","lat":43.30604,"lon":5.3935,"is_reserved":false,"is_disabled":false,"rental_uris":{"android":"levelo://app?vid=10bd0c1b-4113-4b53-b7a9-3c7a990cae19","ios":"levelo://app?vid=10bd0c1b-4113-4b53-b7a9-3c7a990cae19"},"vehicle_type_id":"4","last_reported":1738404546,"current_range_meters":38400,"station_id":"ce4bh0p2rcd13ifvqd80","pricing_plan_id":"cebpf4jnsgd1na2vs0mg"},{"bike_id":"d1f20af9-d8e8-4c26-ac5e-ea5400cda5eb","system_id":"levelo_inurba_marseille","lat":43.29713,"lon":5.377,"is_reserved":false,"is_disabled":false,"rental_uris":{"android":"levelo://app?vid=d1f20af9-d8e8-4c26-ac5e-ea5400cda5eb","ios":"levelo://app?vid=d1f20af9-d8e8-4c26-ac5e-ea5400cda5eb"},"vehicle_type_id":"4","last_reported":1738404546,"current_range_meters":14000,"station_id":"ce4bgkh2rcd13ifvqbl0","pricing_plan_id":"cebpf4jnsgd1na2vs0mg"},{"bike_id":"d0c91751-dc68-40d4-8cca-fe923ac6eb0e","system_id":"levelo_inurba_marseille","lat":43.2795,"lon":5.38721,"is_reserved":false,"is_disabled":false,"rental_uris":{"android":"levelo://app?vid=d0c91751-dc68-40d4-8cca-fe923ac6eb0e","ios":"levelo://app?vid=d0c91751-dc68-40d4-8cca-fe923ac6eb0e"},"vehicle_type_id":"4","last_reported":1738404546,"current_range_meters":38800,"station_id":"ce4bhg12rcd13ifvqf80","pricing_plan_id":"cebpf4jnsgd1na2vs0mg"},{"bike_id":"56dcbbbe-164e-4672-8fea-3957d72881bd","system_id":"levelo_inurba_marseille","lat":43.29546,"lon":5.37526,"is_reserved":false,"is_disabled":true,"rental_uris":{"android":"levelo://app?vid=56dcbbbe-164e-4672-8fea-3957d72881bd","ios":"levelo://app?vid=56dcbbbe-164e-4672-8fea-3957d72881bd"},"vehicle_type_id":"4","last_reported":1738404546,"current_range_meters":30000,"station_id":"ce4bgkp2rcd13ifvqbmg","pricing_plan_id":"cebpf4jnsgd1na2vs0mg"},{"bike_id":"446cfbd8-380d-483d-82ba-61ff47e31d05","system_id":"levelo_inurba_marseille","lat":43.29234,"lon":5.38452,"is_reserved":false,"is_disabled":true,"rental_uris":{"android":"levelo://app?vid=446cfbd8-380d-483d-82ba-61ff47e31d05","ios":"levelo://app?vid=446cfbd8-380d-483d-82ba-61ff47e31d05"},"vehicle_type_id":"4","last_reported":1738404546,"current_range_meters":36000,"station_id":"ce4bh692rcd13ifvqea0","pricing_plan_id":"cebpf4jnsgd1na2vs0mg"},{"bike_id":"4ec76568-f8af-4b06-b651-04fbe6e9efa7","system_id":"levelo_inurba_marseille","lat":43.27997,"lon":5.41677,"is_reserved":false,"is_disabled":false,"rental_uris":{"android":"levelo://app?vid=4ec76568-f8af-4b06-b651-04fbe6e9efa7","ios":"levelo://app?vid=4ec76568-f8af-4b06-b651-04fbe6e9efa7"},"vehicle_type_id":"4","last_reported":1738404546,"current_range_meters":30000,"station_id":"ce4bho12rcd13ifvqh1g","pricing_plan_id":"cebpf4jnsgd1na2vs0mg"},{"bike_id":"3d2ad4eb-c3df-4be8-82a3-1864655479da","system_id":"levelo_inurba_marseille","lat":43.28612,"lon":5.35116,"is_reserved":false,"is_disabled":false,"rental_uris":{"android":"levelo://app?vid=3d2ad4eb-c3df-4be8-82a3-1864655479da","ios":"levelo://app?vid=3d2ad4eb-c3df-4be8-82a3-1864655479da"},"vehicle_type_id":"4","last_reported":1738404546,"current_range_meters":38800,"station_id":"ce4bhch2rcd13ifvqeug","pricing_plan_id":"cebpf4jnsgd1na2vs0mg"},{"bike_id":"a06a794b-bae0-48d7-b9db-073ae5c5a4af","system_id":"levelo_inurba_marseille","lat":43.30416,"lon":5.39761,"is_reserved":false,"is_disabled":false,"rental_uris":{"android":"levelo://app?vid=a06a794b-bae0-48d7-b9db-073ae5c5a4af","ios":"levelo://app?vid=a06a794b-bae0-48d7-b9db-073ae5c5a4af"},"vehicle_type_id":"4","last_reported":1738404546,"current_range_meters":38800,"station_id":"ce4bh092rcd13ifvqd20","pricing_plan_id":"cebpf4jnsgd1na2vs0mg"},{"bike_id":"4ff377d9-ff7b-44da-be42-ee1d29eb144f","system_id":"levelo_inurba_marseille","lat":43.25111,"lon":5.40333,"is_reserved":false,"is_disabled":false,"rental_uris":{"android":"levelo://app?vid=4ff377d9-ff7b-44da-be42-ee1d29eb144f","ios":"levelo://app?vid=4ff377d9-ff7b-44da-be42-ee1d29eb144f"},"vehicle_type_id":"4","last_reported":1738404546,"current_range_meters":25200,"station_id":"ce4bhlh2rcd13ifvqgig","pricing_plan_id":"cebpf4jnsgd1na2vs0mg"},{"bike_id":"614c9bf5-701b-445d-9c61-6364c8957992","system_id":"levelo_inurba_marseille","lat":43.24995,"lon":5.38929,"is_reserved":false,"is_disabled":false,"rental_uris":{"android":"levelo://app?vid=614c9bf5-701b-445d-9c61-6364c8957992","ios":"levelo://app?vid=614c9bf5-701b-445d-9c61-6364c8957992"},"vehicle_type_id":"4","last_reported":1738404546,"current_range_meters":17200,"station_id":"ce4bhgp2rcd13ifvqfd0","pricing_plan_id":"cebpf4jnsgd1na2vs0mg"},{"bike_id":"7095d643-c88c-4380-b0d5-45028aa7507f","system_id":"levelo_inurba_marseille","lat":43.2465,"lon":5.38896,"is_reserved":false,"is_disabled":false,"rental_uris":{"android":"levelo://app?vid=7095d643-c88c-4380-b0d5-45028aa7507f","ios":"levelo://app?vid=7095d643-c88c-4380-b0d5-45028aa7507f"},"vehicle_type_id":"4","last_reported":1738404546,"current_range_meters":23200,"station_id":"ce4bhg12rcd13ifvqf60","pricing_plan_id":"cebpf4jnsgd1na2vs0mg"},{"bike_id":"c6c2d669-6efa-4cf8-b793-5c09e9379cce","system_id":"levelo_inurba_marseille","lat":43.28703,"lon":5.39982,"is_reserved":false,"is_disabled":false,"rental_uris":{"android":"levelo://app?vid=c6c2d669-6efa-4cf8-b793-5c09e9379cce","ios":"levelo://app?vid=c6c2d669-6efa-4cf8-b793-5c09e9379cce"},"vehicle_type_id":"4","last_reported":1738404546,"current_range_meters":26800,"station_id":"ce4bho92rcd13ifvqh3g","pricing_plan_id":"cebpf4jnsgd1na2vs0mg"},{"bike_id":"0a13b4dc-5af9-498e-a6eb-f4bde643bf18","system_id":"levelo_inurba_marseille","lat":43.31329,"lon":5.39706,"is_reserved":false,"is_disabled":false,"rental_uris":{"android":"levelo://app?vid=0a13b4dc-5af9-498e-a6eb-f4bde643bf18","ios":"levelo://app?vid=0a13b4dc-5af9-498e-a6eb-f4bde643bf18"},"vehicle_type_id":"4","last_reported":1738404546,"current_range_meters":24400,"station_id":"ce4bgvp2rcd13ifvqcu0","pricing_plan_id":"cebpf4jnsgd1na2vs0mg"},{"bike_id":"71f34f72-d3b7-46a5-9bd4-1fe057b3152f","system_id":"levelo_inurba_marseille","lat":43.229313,"lon":5.35378,"is_reserved":false,"is_disabled":false,"rental_uris":{"android":"levelo://app?vid=71f34f72-d3b7-46a5-9bd4-1fe057b3152f","ios":"levelo://app?vid=71f34f72-d3b7-46a5-9bd4-1fe057b3152f"},"vehicle_type_id":"4","last_reported":1738404546,"current_range_meters":38800,"station_id":"cpo3532slgdg3j2ikp40","pricing_plan_id":"cebpf4jnsgd1na2vs0mg"},{"bike_id":"ba1b16dd-09e2-4536-8411-babb750bcb3c","system_id":"levelo_inurba_marseille","lat":43.23191,"lon":5.3999,"is_reserved":false,"is_disabled":true,"rental_uris":{"android":"levelo://app?vid=ba1b16dd-09e2-4536-8411-babb750bcb3c","ios":"levelo://app?vid=ba1b16dd-09e2-4536-8411-babb750bcb3c"},"vehicle_type_id":"4","last_reported":1738404546,"current_range_meters":27600,"station_id":"ce4bhn12rcd13ifvqgqg","pricing_plan_id":"cebpf4jnsgd1na2vs0mg"},{"bike_id":"20029bdd-9f9c-4ff9-86e4-5ba6ed30f46a","system_id":"levelo_inurba_marseille","lat":43.23148,"lon":5.43705,"is_reserved":false,"is_disabled":true,"rental_uris":{"android":"levelo://app?vid=20029bdd-9f9c-4ff9-86e4-5ba6ed30f46a","ios":"levelo://app?vid=20029bdd-9f9c-4ff9-86e4-5ba6ed30f46a"},"vehicle_type_id":"4","last_reported":1738404546,"current_range_meters":0,"station_id":"ce4bhmp2rcd13ifvqgog","pricing_plan_id":"cebpf4jnsgd1na2vs0mg"},{"bike_id":"11b674a2-b47a-42e2-91bf-c6e6c2cea6f7","system_id":"levelo_inurba_marseille","lat":43.28725,"lon":5.39982,"is_reserved":false,"is_disabled":false,"rental_uris":{"android":"levelo://app?vid=11b674a2-b47a-42e2-91bf-c6e6c2cea6f7","ios":"levelo://app?vid=11b674a2-b47a-42e2-91bf-c6e6c2cea6f7"},"vehicle_type_id":"4","last_reported":1738404546,"current_range_meters":34800,"station_id":"ce4bho92rcd13ifvqh3g","pricing_plan_id":"cebpf4jnsgd1na2vs0mg"},{"bike_id":"7118d11c-fb23-4ced-9eb9-83d3fb024883","system_id":"levelo_inurba_marseille","lat":43.29221,"lon":5.36061,"is_reserved":false,"is_disabled":false,"rental_uris":{"android":"levelo://app?vid=7118d11c-fb23-4ced-9eb9-83d3fb024883","ios":"levelo://app?vid=7118d11c-fb23-4ced-9eb9-83d3fb024883"},"vehicle_type_id":"4","last_reported":1738404546,"current_range_meters":30000,"station_id":"ce4bhbh2rcd13ifvqeqg","pricing_plan_id":"cebpf4jnsgd1na2vs0mg"},{"bike_id":"678f5edd-1b4b-476c-bbd1-1e851715e509","system_id":"levelo_inurba_marseille","lat":43.2847,"lon":5.35881,"is_reserved":false,"is_disabled":false,"rental_uris":{"android":"levelo://app?vid=678f5edd-1b4b-476c-bbd1-1e851715e509","ios":"levelo://app?vid=678f5edd-1b4b-476c-bbd1-1e851715e509"},"vehicle_type_id":"4","last_reported":1738404546,"current_range_meters":38800,"station_id":"ce4bhah2rcd13ifvqei0","pricing_plan_id":"cebpf4jnsgd1na2vs0mg"},{"bike_id":"0b4194f3-2972-468f-941d-952f79ac6b26","system_id":"levelo_inurba_marseille","lat":43.279114,"lon":5.395864,"is_reserved":false,"is_disabled":true,"rental_uris":{"android":"levelo://app?vid=0b4194f3-2972-468f-941d-952f79ac6b26","ios":"levelo://app?vid=0b4194f3-2972-468f-941d-952f79ac6b26"},"vehicle_type_id":"4","last_reported":1738404546,"current_range_meters":0,"station_id":"ce4bhf92rcd13ifvqf40","pricing_plan_id":"cebpf4jnsgd1na2vs0mg"},{"bike_id":"ffbe2ac5-1135-48e1-a6e0-38cbbdf275c7","system_id":"levelo_inurba_marseille","lat":43.28461,"lon":5.35901,"is_reserved":false,"is_disabled":false,"rental_uris":{"android":"levelo://app?vid=ffbe2ac5-1135-48e1-a6e0-38cbbdf275c7","ios":"levelo://app?vid=ffbe2ac5-1135-48e1-a6e0-38cbbdf275c7"},"vehicle_type_id":"4","last_reported":1738404546,"current_range_meters":38800,"station_id":"ce4bhah2rcd13ifvqei0","pricing_plan_id":"cebpf4jnsgd1na2vs0mg"},{"bike_id":"2318dc1b-f566-4fca-858c-a87103a42706","system_id":"levelo_inurba_marseille","lat":43.24686,"lon":5.3816,"is_reserved":false,"is_disabled":false,"rental_uris":{"android":"levelo://app?vid=2318dc1b-f566-4fca-858c-a87103a42706","ios":"levelo://app?vid=2318dc1b-f566-4fca-858c-a87103a42706"},"vehicle_type_id":"4","last_reported":1738404546,"current_range_meters":38800,"station_id":"ce4bhih2rcd13ifvqfr0","pricing_plan_id":"cebpf4jnsgd1na2vs0mg"},{"bike_id":"4d2fa91d-31d6-4109-9724-1a91084adf8f","system_id":"levelo_inurba_marseille","lat":43.30462,"lon":5.37909,"is_reserved":false,"is_disabled":false,"rental_uris":{"android":"levelo://app?vid=4d2fa91d-31d6-4109-9724-1a91084adf8f","ios":"levelo://app?vid=4d2fa91d-31d6-4109-9724-1a91084adf8f"},"vehicle_type_id":"4","last_reported":1738404546,"current_range_meters":17600,"station_id":"ce4bgup2rcd13ifvqcn0","pricing_plan_id":"cebpf4jnsgd1na2vs0mg"},{"bike_id":"491407c5-a175-44f0-86fc-0f4ccadf82e3","system_id":"levelo_inurba_marseille","lat":43.337444,"lon":5.374475,"is_reserved":false,"is_disabled":true,"rental_uris":{"android":"levelo://app?vid=491407c5-a175-44f0-86fc-0f4ccadf82e3","ios":"levelo://app?vid=491407c5-a175-44f0-86fc-0f4ccadf82e3"},"vehicle_type_id":"4","last_reported":1738404546,"current_range_meters":0,"station_id":"","pricing_plan_id":"cebpf4jnsgd1na2vs0mg"},{"bike_id":"f15b606d-b287-44c9-8e50-29d4fd2445a7","system_id":"levelo_inurba_marseille","lat":43.29795,"lon":5.38114,"is_reserved":false,"is_disabled":false,"rental_uris":{"android":"levelo://app?vid=f15b606d-b287-44c9-8e50-29d4fd2445a7","ios":"levelo://app?vid=f15b606d-b287-44c9-8e50-29d4fd2445a7"},"vehicle_type_id":"4","last_reported":1738404546,"current_range_meters":33200,"station_id":"ce4bgip2rcd13ifvqbb0","pricing_plan_id":"cebpf4jnsgd1na2vs0mg"},{"bike_id":"9190705b-060e-417d-a4c5-813e50d5e77e","system_id":"levelo_inurba_marseille","lat":43.2696,"lon":5.3862,"is_reserved":false,"is_disabled":false,"rental_uris":{"android":"levelo://app?vid=9190705b-060e-417d-a4c5-813e50d5e77e","ios":"levelo://app?vid=9190705b-060e-417d-a4c5-813e50d5e77e"},"vehicle_type_id":"4","last_reported":1738404546,"current_range_meters":35200,"station_id":"ce4bhh92rcd13ifvqfh0","pricing_plan_id":"cebpf4jnsgd1na2vs0mg"},{"bike_id":"e1aa3b6c-0a4b-4fca-bb68-feab18e798c9","system_id":"levelo_inurba_marseille","lat":43.32357,"lon":5.38889,"is_reserved":false,"is_disabled":true,"rental_uris":{"android":"levelo://app?vid=e1aa3b6c-0a4b-4fca-bb68-feab18e798c9","ios":"levelo://app?vid=e1aa3b6c-0a4b-4fca-bb68-feab18e798c9"},"vehicle_type_id":"4","last_reported":1738404546,"current_range_meters":1200,"station_id":"ce4bhqp2rcd13ifvqhog","pricing_plan_id":"cebpf4jnsgd1na2vs0mg"},{"bike_id":"1cce3a2e-ff90-4614-81d0-f5fce2a059e9","system_id":"levelo_inurba_marseille","lat":43.28972,"lon":5.3784,"is_reserved":false,"is_disabled":false,"rental_uris":{"android":"levelo://app?vid=1cce3a2e-ff90-4614-81d0-f5fce2a059e9","ios":"levelo://app?vid=1cce3a2e-ff90-4614-81d0-f5fce2a059e9"},"vehicle_type_id":"4","last_reported":1738404546,"current_range_meters":38800,"station_id":"ce4bh9p2rcd13ifvqed0","pricing_plan_id":"cebpf4jnsgd1na2vs0mg"},{"bike_id":"879b20d5-6edd-4b4a-9c9e-2462eb0da962","system_id":"levelo_inurba_marseille","lat":43.27563,"lon":5.38404,"is_reserved":false,"is_disabled":false,"rental_uris":{"android":"levelo://app?vid=879b20d5-6edd-4b4a-9c9e-2462eb0da962","ios":"levelo://app?vid=879b20d5-6edd-4b4a-9c9e-2462eb0da962"},"vehicle_type_id":"4","last_reported":1738404546,"current_range_meters":37600,"station_id":"ce4bhh92rcd13ifvqfi0","pricing_plan_id":"cebpf4jnsgd1na2vs0mg"},{"bike_id":"95aee25f-5c57-4ea4-ae9b-fd75ffb2acea","system_id":"levelo_inurba_marseille","lat":43.23183,"lon":5.39986,"is_reserved":false,"is_disabled":false,"rental_uris":{"android":"levelo://app?vid=95aee25f-5c57-4ea4-ae9b-fd75ffb2acea","ios":"levelo://app?vid=95aee25f-5c57-4ea4-ae9b-fd75ffb2acea"},"vehicle_type_id":"4","last_reported":1738404546,"current_range_meters":19600,"station_id":"ce4bhn12rcd13ifvqgqg","pricing_plan_id":"cebpf4jnsgd1na2vs0mg"},{"bike_id":"0b439ceb-bbef-470b-b522-3e20f798d948","system_id":"levelo_inurba_marseille","lat":43.290919,"lon":5.381824,"is_reserved":false,"is_disabled":true,"rental_uris":{"android":"levelo://app?vid=0b439ceb-bbef-470b-b522-3e20f798d948","ios":"levelo://app?vid=0b439ceb-bbef-470b-b522-3e20f798d948"},"vehicle_type_id":"4","last_reported":1738404546,"current_range_meters":23200,"station_id":"ce4bh512rcd13ifvqe2g","pricing_plan_id":"cebpf4jnsgd1na2vs0mg"},{"bike_id":"528fe304-774b-4f5e-99b0-3a6df52f7bd5","system_id":"levelo_inurba_marseille","lat":43.26679,"lon":5.38268,"is_reserved":false,"is_disabled":false,"rental_uris":{"android":"levelo://app?vid=528fe304-774b-4f5e-99b0-3a6df52f7bd5","ios":"levelo://app?vid=528fe304-774b-4f5e-99b0-3a6df52f7bd5"},"vehicle_type_id":"4","last_reported":1738404546,"current_range_meters":20800,"station_id":"ce4bhg92rcd13ifvqf90","pricing_plan_id":"cebpf4jnsgd1na2vs0mg"},{"bike_id":"693a29bd-5ac5-4712-a645-e5d8a8553060","system_id":"levelo_inurba_marseille","lat":43.29569,"lon":5.3996,"is_reserved":false,"is_disabled":true,"rental_uris":{"android":"levelo://app?vid=693a29bd-5ac5-4712-a645-e5d8a8553060","ios":"levelo://app?vid=693a29bd-5ac5-4712-a645-e5d8a8553060"},"vehicle_type_id":"4","last_reported":1738404546,"current_range_meters":38800,"station_id":"ce4bh312rcd13ifvqdj0","pricing_plan_id":"cebpf4jnsgd1na2vs0mg"},{"bike_id":"a6b3aaaf-3650-431d-aa8a-145d53de914b","system_id":"levelo_inurba_marseille","lat":43.28859,"lon":5.39294,"is_reserved":false,"is_disabled":false,"rental_uris":{"android":"levelo://app?vid=a6b3aaaf-3650-431d-aa8a-145d53de914b","ios":"levelo://app?vid=a6b3aaaf-3650-431d-aa8a-145d53de914b"},"vehicle_type_id":"4","last_reported":1738404546,"current_range_meters":3600,"station_id":"ce4bh2p2rcd13ifvqdi0","pricing_plan_id":"cebpf4jnsgd1na2vs0mg"},{"bike_id":"f38a9b51-7bc8-4445-89b3-2095fb6b771f","system_id":"levelo_inurba_marseille","lat":43.28689,"lon":5.37383,"is_reserved":false,"is_disabled":true,"rental_uris":{"android":"levelo://app?vid=f38a9b51-7bc8-4445-89b3-2095fb6b771f","ios":"levelo://app?vid=f38a9b51-7bc8-4445-89b3-2095fb6b771f"},"vehicle_type_id":"4","last_reported":1738404546,"current_range_meters":28000,"station_id":"ce4bh3p2rcd13ifvqdq0","pricing_plan_id":"cebpf4jnsgd1na2vs0mg"},{"bike_id":"70408c4a-1110-46ee-b9b5-4ded43bae822","system_id":"levelo_inurba_marseille","lat":43.26499,"lon":5.39568,"is_reserved":false,"is_disabled":false,"rental_uris":{"android":"levelo://app?vid=70408c4a-1110-46ee-b9b5-4ded43bae822","ios":"levelo://app?vid=70408c4a-1110-46ee-b9b5-4ded43bae822"},"vehicle_type_id":"4","last_reported":1738404546,"current_range_meters":38400,"station_id":"ce4bhi12rcd13ifvqfq0","pricing_plan_id":"cebpf4jnsgd1na2vs0mg"},{"bike_id":"fe117411-d9ae-46ad-96d7-1d4828206f4a","system_id":"levelo_inurba_marseille","lat":43.24396,"lon":5.37062,"is_reserved":false,"is_disabled":false,"rental_uris":{"android":"levelo://app?vid=fe117411-d9ae-46ad-96d7-1d4828206f4a","ios":"levelo://app?vid=fe117411-d9ae-46ad-96d7-1d4828206f4a"},"vehicle_type_id":"4","last_reported":1738404546,"current_range_meters":38800,"station_id":"ce4bhhh2rcd13ifvqfk0","pricing_plan_id":"cebpf4jnsgd1na2vs0mg"},{"bike_id":"596db8be-c1ef-4532-968e-3ed361605f2d","system_id":"levelo_inurba_marseille","lat":43.27981,"lon":5.40045,"is_reserved":false,"is_disabled":false,"rental_uris":{"android":"levelo://app?vid=596db8be-c1ef-4532-968e-3ed361605f2d","ios":"levelo://app?vid=596db8be-c1ef-4532-968e-3ed361605f2d"},"vehicle_type_id":"4","last_reported":1738404546,"current_range_meters":38800,"station_id":"ce4bho92rcd13ifvqh4g","pricing_plan_id":"cebpf4jnsgd1na2vs0mg"},{"bike_id":"85604b3f-3a5c-4d9a-8ecd-2a33204681db","system_id":"levelo_inurba_marseille","lat":43.26557,"lon":5.37301,"is_reserved":false,"is_disabled":false,"rental_uris":{"android":"levelo://app?vid=85604b3f-3a5c-4d9a-8ecd-2a33204681db","ios":"levelo://app?vid=85604b3f-3a5c-4d9a-8ecd-2a33204681db"},"vehicle_type_id":"4","last_reported":1738404546,"current_range_meters":38800,"station_id":"ce4bhg12rcd13ifvqf70","pricing_plan_id":"cebpf4jnsgd1na2vs0mg"},{"bike_id":"6725a974-636a-4cad-bf4d-273395199ad4","system_id":"levelo_inurba_marseille","lat":43.33733,"lon":5.3918,"is_reserved":false,"is_disabled":false,"rental_uris":{"android":"levelo://app?vid=6725a974-636a-4cad-bf4d-273395199ad4","ios":"levelo://app?vid=6725a974-636a-4cad-bf4d-273395199ad4"},"vehicle_type_id":"4","last_reported":1738404546,"current_range_meters":18000,"station_id":"ce4bhr92rcd13ifvqhsg","pricing_plan_id":"cebpf4jnsgd1na2vs0mg"},{"bike_id":"8d8545fe-b565-43ee-a059-fa0dcd94d7c0","system_id":"levelo_inurba_marseille","lat":43.23965,"lon":5.36629,"is_reserved":false,"is_disabled":false,"rental_uris":{"android":"levelo://app?vid=8d8545fe-b565-43ee-a059-fa0dcd94d7c0","ios":"levelo://app?vid=8d8545fe-b565-43ee-a059-fa0dcd94d7c0"},"vehicle_type_id":"4","last_reported":1738404546,"current_range_meters":16400,"station_id":"ce4bhi12rcd13ifvqfp0","pricing_plan_id":"cebpf4jnsgd1na2vs0mg"},{"bike_id":"48316449-3088-4ff2-b12b-1855abfe4b0d","system_id":"levelo_inurba_marseille","lat":43.30205,"lon":5.38091,"is_reserved":false,"is_disabled":false,"rental_uris":{"android":"levelo://app?vid=48316449-3088-4ff2-b12b-1855abfe4b0d","ios":"levelo://app?vid=48316449-3088-4ff2-b12b-1855abfe4b0d"},"vehicle_type_id":"4","last_reported":1738404546,"current_range_meters":26800,"station_id":"","pricing_plan_id":"cebpf4jnsgd1na2vs0mg"},{"bike_id":"955105f6-7074-46ac-8510-6eeaf02bd01e","system_id":"levelo_inurba_marseille","lat":43.29866,"lon":5.38159,"is_reserved":false,"is_disabled":false,"rental_uris":{"android":"levelo://app?vid=955105f6-7074-46ac-8510-6eeaf02bd01e","ios":"levelo://app?vid=955105f6-7074-46ac-8510-6eeaf02bd01e"},"vehicle_type_id":"4","last_reported":1738404546,"current_range_meters":38800,"station_id":"ce4bgj12rcd13ifvqbc0","pricing_plan_id":"cebpf4jnsgd1na2vs0mg"},{"bike_id":"631e6727-6d53-443b-9edd-9c3622b7b866","system_id":"levelo_inurba_marseille","lat":43.33594,"lon":5.41096,"is_reserved":false,"is_disabled":false,"rental_uris":{"android":"levelo://app?vid=631e6727-6d53-443b-9edd-9c3622b7b866","ios":"levelo://app?vid=631e6727-6d53-443b-9edd-9c3622b7b866"},"vehicle_type_id":"4","last_reported":1738404546,"current_range_meters":32800,"station_id":"","pricing_plan_id":"cebpf4jnsgd1na2vs0mg"},{"bike_id":"514c2f5a-7564-49c2-b4e5-8195b1295471","system_id":"levelo_inurba_marseille","lat":43.313264,"lon":5.397002,"is_reserved":false,"is_disabled":false,"rental_uris":{"android":"levelo://app?vid=514c2f5a-7564-49c2-b4e5-8195b1295471","ios":"levelo://app?vid=514c2f5a-7564-49c2-b4e5-8195b1295471"},"vehicle_type_id":"4","last_reported":1738404546,"current_range_meters":38800,"station_id":"ce4bgvp2rcd13ifvqcu0","pricing_plan_id":"cebpf4jnsgd1na2vs0mg"},{"bike_id":"a9e57f2a-2e24-4bb9-905f-718f32fa9ec6","system_id":"levelo_inurba_marseille","lat":43.309,"lon":5.39622,"is_reserved":false,"is_disabled":true,"rental_uris":{"android":"levelo://app?vid=a9e57f2a-2e24-4bb9-905f-718f32fa9ec6","ios":"levelo://app?vid=a9e57f2a-2e24-4bb9-905f-718f32fa9ec6"},"vehicle_type_id":"4","last_reported":1738404546,"current_range_meters":2000,"station_id":"ce4bh012rcd13ifvqcv0","pricing_plan_id":"cebpf4jnsgd1na2vs0mg"},{"bike_id":"c18dfbc4-1a70-472d-9e16-b0779d071c2a","system_id":"levelo_inurba_marseille","lat":43.26208,"lon":5.37443,"is_reserved":false,"is_disabled":false,"rental_uris":{"android":"levelo://app?vid=c18dfbc4-1a70-472d-9e16-b0779d071c2a","ios":"levelo://app?vid=c18dfbc4-1a70-472d-9e16-b0779d071c2a"},"vehicle_type_id":"4","last_reported":1738404546,"current_range_meters":38800,"station_id":"ce4bhgp2rcd13ifvqfc0","pricing_plan_id":"cebpf4jnsgd1na2vs0mg"},{"bike_id":"7048a064-9a8a-41f0-895f-7ca5bd1eb5ce","system_id":"levelo_inurba_marseille","lat":43.27997,"lon":5.40022,"is_reserved":false,"is_disabled":false,"rental_uris":{"android":"levelo://app?vid=7048a064-9a8a-41f0-895f-7ca5bd1eb5ce","ios":"levelo://app?vid=7048a064-9a8a-41f0-895f-7ca5bd1eb5ce"},"vehicle_type_id":"4","last_reported":1738404546,"current_range_meters":31200,"station_id":"ce4bho92rcd13ifvqh4g","pricing_plan_id":"cebpf4jnsgd1na2vs0mg"},{"bike_id":"1f4e4183-ba38-4674-b19d-0c758736fe8e","system_id":"levelo_inurba_marseille","lat":43.25088,"lon":5.39489,"is_reserved":false,"is_disabled":false,"rental_uris":{"android":"levelo://app?vid=1f4e4183-ba38-4674-b19d-0c758736fe8e","ios":"levelo://app?vid=1f4e4183-ba38-4674-b19d-0c758736fe8e"},"vehicle_type_id":"4","last_reported":1738404546,"current_range_meters":29600,"station_id":"ce4bhm12rcd13ifvqgkg","pricing_plan_id":"cebpf4jnsgd1na2vs0mg"},{"bike_id":"f0e2fa26-3c79-4312-9f37-8b61ad7fb1e1","system_id":"levelo_inurba_marseille","lat":43.274934,"lon":5.424586,"is_reserved":false,"is_disabled":false,"rental_uris":{"android":"levelo://app?vid=f0e2fa26-3c79-4312-9f37-8b61ad7fb1e1","ios":"levelo://app?vid=f0e2fa26-3c79-4312-9f37-8b61ad7fb1e1"},"vehicle_type_id":"4","last_reported":1738404546,"current_range_meters":27200,"station_id":"ce4bhn92rcd13ifvqgrg","pricing_plan_id":"cebpf4jnsgd1na2vs0mg"},{"bike_id":"ea610006-d7d6-4867-b151-d1448f73a8d7","system_id":"levelo_inurba_marseille","lat":43.313572,"lon":5.38506,"is_reserved":false,"is_disabled":false,"rental_uris":{"android":"levelo://app?vid=ea610006-d7d6-4867-b151-d1448f73a8d7","ios":"levelo://app?vid=ea610006-d7d6-4867-b151-d1448f73a8d7"},"vehicle_type_id":"4","last_reported":1738404546,"current_range_meters":38400,"station_id":"ce4bgt92rcd13ifvqcf0","pricing_plan_id":"cebpf4jnsgd1na2vs0mg"},{"bike_id":"46b43093-b875-4b52-a6ea-76dd9dc96ba1","system_id":"levelo_inurba_marseille","lat":43.30526,"lon":5.36568,"is_reserved":false,"is_disabled":false,"rental_uris":{"android":"levelo://app?vid=46b43093-b875-4b52-a6ea-76dd9dc96ba1","ios":"levelo://app?vid=46b43093-b875-4b52-a6ea-76dd9dc96ba1"},"vehicle_type_id":"4","last_reported":1738404546,"current_range_meters":38800,"station_id":"ce4bgs12rcd13ifvqcag","pricing_plan_id":"cebpf4jnsgd1na2vs0mg"},{"bike_id":"56d6b97f-30a2-4c2a-8be6-a12a9fc19507","system_id":"levelo_inurba_marseille","lat":43.31753,"lon":5.39029,"is_reserved":false,"is_disabled":false,"rental_uris":{"android":"levelo://app?vid=56d6b97f-30a2-4c2a-8be6-a12a9fc19507","ios":"levelo://app?vid=56d6b97f-30a2-4c2a-8be6-a12a9fc19507"},"vehicle_type_id":"4","last_reported":1738404546,"current_range_meters":9600,"station_id":"ce4bhqp2rcd13ifvqhng","pricing_plan_id":"cebpf4jnsgd1na2vs0mg"},{"bike_id":"6a6bec52-0657-4597-9637-e0f99a945c88","system_id":"levelo_inurba_marseille","lat":43.28499,"lon":5.3747,"is_reserved":false,"is_disabled":false,"rental_uris":{"android":"levelo://app?vid=6a6bec52-0657-4597-9637-e0f99a945c88","ios":"levelo://app?vid=6a6bec52-0657-4597-9637-e0f99a945c88"},"vehicle_type_id":"4","last_reported":1738404546,"current_range_meters":24800,"station_id":"","pricing_plan_id":"cebpf4jnsgd1na2vs0mg"},{"bike_id":"a895efa9-50aa-435c-91d1-c119eaf59a54","system_id":"levelo_inurba_marseille","lat":43.26463,"lon":5.39581,"is_reserved":false,"is_disabled":false,"rental_uris":{"android":"levelo://app?vid=a895efa9-50aa-435c-91d1-c119eaf59a54","ios":"levelo://app?vid=a895efa9-50aa-435c-91d1-c119eaf59a54"},"vehicle_type_id":"4","last_reported":1738404546,"current_range_meters":36800,"station_id":"ce4bhi12rcd13ifvqfq0","pricing_plan_id":"cebpf4jnsgd1na2vs0mg"},{"bike_id":"07d3404c-eaff-498c-a8e2-598dc15aab05","system_id":"levelo_inurba_marseille","lat":43.30135,"lon":5.38114,"is_reserved":false,"is_disabled":false,"rental_uris":{"android":"levelo://app?vid=07d3404c-eaff-498c-a8e2-598dc15aab05","ios":"levelo://app?vid=07d3404c-eaff-498c-a8e2-598dc15aab05"},"vehicle_type_id":"4","last_reported":1738404546,"current_range_meters":17200,"station_id":"ce4bgjp2rcd13ifvqbh0","pricing_plan_id":"cebpf4jnsgd1na2vs0mg"},{"bike_id":"40e7ab34-4e72-4965-b2d4-30f965f76085","system_id":"levelo_inurba_marseille","lat":43.25854,"lon":5.3889,"is_reserved":false,"is_disabled":false,"rental_uris":{"android":"levelo://app?vid=40e7ab34-4e72-4965-b2d4-30f965f76085","ios":"levelo://app?vid=40e7ab34-4e72-4965-b2d4-30f965f76085"},"vehicle_type_id":"4","last_reported":1738404546,"current_range_meters":4800,"station_id":"","pricing_plan_id":"cebpf4jnsgd1na2vs0mg"},{"bike_id":"de069505-ec41-4a06-ad6e-c85733153e00","system_id":"levelo_inurba_marseille","lat":43.27307,"lon":5.3909,"is_reserved":false,"is_disabled":false,"rental_uris":{"android":"levelo://app?vid=de069505-ec41-4a06-ad6e-c85733153e00","ios":"levelo://app?vid=de069505-ec41-4a06-ad6e-c85733153e00"},"vehicle_type_id":"4","last_reported":1738404546,"current_range_meters":36000,"station_id":"ce4bhgp2rcd13ifvqfe0","pricing_plan_id":"cebpf4jnsgd1na2vs0mg"},{"bike_id":"845b88ac-6a9d-4212-b870-9e6d8c49f79c","system_id":"levelo_inurba_marseille","lat":43.30589,"lon":5.37243,"is_reserved":false,"is_disabled":false,"rental_uris":{"android":"levelo://app?vid=845b88ac-6a9d-4212-b870-9e6d8c49f79c","ios":"levelo://app?vid=845b88ac-6a9d-4212-b870-9e6d8c49f79c"},"vehicle_type_id":"4","last_reported":1738404546,"current_range_meters":35200,"station_id":"ce4bgqh2rcd13ifvqc4g","pricing_plan_id":"cebpf4jnsgd1na2vs0mg"},{"bike_id":"355f811b-3e6a-4945-85e3-88857d55c0e2","system_id":"levelo_inurba_marseille","lat":43.3023,"lon":5.40047,"is_reserved":false,"is_disabled":false,"rental_uris":{"android":"levelo://app?vid=355f811b-3e6a-4945-85e3-88857d55c0e2","ios":"levelo://app?vid=355f811b-3e6a-4945-85e3-88857d55c0e2"},"vehicle_type_id":"4","last_reported":1738404546,"current_range_meters":38800,"station_id":"ce4bgvh2rcd13ifvqcs0","pricing_plan_id":"cebpf4jnsgd1na2vs0mg"},{"bike_id":"1290ce49-7abd-41d9-9e0b-409d7fc1f9e8","system_id":"levelo_inurba_marseille","lat":43.32658,"lon":5.40997,"is_reserved":false,"is_disabled":false,"rental_uris":{"android":"levelo://app?vid=1290ce49-7abd-41d9-9e0b-409d7fc1f9e8","ios":"levelo://app?vid=1290ce49-7abd-41d9-9e0b-409d7fc1f9e8"},"vehicle_type_id":"4","last_reported":1738404546,"current_range_meters":38000,"station_id":"ce4bhpp2rcd13ifvqhgg","pricing_plan_id":"cebpf4jnsgd1na2vs0mg"},{"bike_id":"2ba186ab-9561-4236-b2e9-3ca08d2e3b34","system_id":"levelo_inurba_marseille","lat":43.29041,"lon":5.39969,"is_reserved":false,"is_disabled":false,"rental_uris":{"android":"levelo://app?vid=2ba186ab-9561-4236-b2e9-3ca08d2e3b34","ios":"levelo://app?vid=2ba186ab-9561-4236-b2e9-3ca08d2e3b34"},"vehicle_type_id":"4","last_reported":1738404546,"current_range_meters":36000,"station_id":"ce4bh392rcd13ifvqdm0","pricing_plan_id":"cebpf4jnsgd1na2vs0mg"},{"bike_id":"1dea0d1d-b5f5-454c-bafa-5ed21154abef","system_id":"levelo_inurba_marseille","lat":43.29723,"lon":5.37704,"is_reserved":false,"is_disabled":false,"rental_uris":{"android":"levelo://app?vid=1dea0d1d-b5f5-454c-bafa-5ed21154abef","ios":"levelo://app?vid=1dea0d1d-b5f5-454c-bafa-5ed21154abef"},"vehicle_type_id":"4","last_reported":1738404546,"current_range_meters":39200,"station_id":"ce4bgkh2rcd13ifvqbl0","pricing_plan_id":"cebpf4jnsgd1na2vs0mg"},{"bike_id":"2a5c4506-aaab-4494-9b8c-276f0d2946d9","system_id":"levelo_inurba_marseille","lat":43.30484,"lon":5.37908,"is_reserved":false,"is_disabled":false,"rental_uris":{"android":"levelo://app?vid=2a5c4506-aaab-4494-9b8c-276f0d2946d9","ios":"levelo://app?vid=2a5c4506-aaab-4494-9b8c-276f0d2946d9"},"vehicle_type_id":"4","last_reported":1738404546,"current_range_meters":30000,"station_id":"ce4bgup2rcd13ifvqcn0","pricing_plan_id":"cebpf4jnsgd1na2vs0mg"},{"bike_id":"32d9a329-7366-4eb8-8d55-73b5c99c70c3","system_id":"levelo_inurba_marseille","lat":43.23202,"lon":5.35519,"is_reserved":false,"is_disabled":false,"rental_uris":{"android":"levelo://app?vid=32d9a329-7366-4eb8-8d55-73b5c99c70c3","ios":"levelo://app?vid=32d9a329-7366-4eb8-8d55-73b5c99c70c3"},"vehicle_type_id":"4","last_reported":1738404546,"current_range_meters":38800,"station_id":"ce4bhu92rcd13ifvqi70","pricing_plan_id":"cebpf4jnsgd1na2vs0mg"},{"bike_id":"84e02a3d-3f7f-46b1-b7f1-97431a8c6cee","system_id":"levelo_inurba_marseille","lat":43.24798,"lon":5.37451,"is_reserved":false,"is_disabled":true,"rental_uris":{"android":"levelo://app?vid=84e02a3d-3f7f-46b1-b7f1-97431a8c6cee","ios":"levelo://app?vid=84e02a3d-3f7f-46b1-b7f1-97431a8c6cee"},"vehicle_type_id":"4","last_reported":1738404546,"current_range_meters":22800,"station_id":"ce4bhgh2rcd13ifvqfb0","pricing_plan_id":"cebpf4jnsgd1na2vs0mg"},{"bike_id":"b2ff94bd-c7b2-48a1-a4da-41c0f81ef36b","system_id":"levelo_inurba_marseille","lat":43.29304,"lon":5.37461,"is_reserved":false,"is_disabled":false,"rental_uris":{"android":"levelo://app?vid=b2ff94bd-c7b2-48a1-a4da-41c0f81ef36b","ios":"levelo://app?vid=b2ff94bd-c7b2-48a1-a4da-41c0f81ef36b"},"vehicle_type_id":"4","last_reported":1738404546,"current_range_meters":4400,"station_id":"ce4bgi12rcd13ifvqb70","pricing_plan_id":"cebpf4jnsgd1na2vs0mg"},{"bike_id":"0a2fd205-d616-4064-aa75-d4d529957d90","system_id":"levelo_inurba_marseille","lat":43.230628,"lon":5.355033,"is_reserved":false,"is_disabled":false,"rental_uris":{"android":"levelo://app?vid=0a2fd205-d616-4064-aa75-d4d529957d90","ios":"levelo://app?vid=0a2fd205-d616-4064-aa75-d4d529957d90"},"vehicle_type_id":"4","last_reported":1738404546,"current_range_meters":16800,"station_id":"cpo3342slgdg3j2ifvpg","pricing_plan_id":"cebpf4jnsgd1na2vs0mg"},{"bike_id":"c3c96498-700e-4786-bba9-66a035e6307c","system_id":"levelo_inurba_marseille","lat":43.31701,"lon":5.37805,"is_reserved":false,"is_disabled":false,"rental_uris":{"android":"levelo://app?vid=c3c96498-700e-4786-bba9-66a035e6307c","ios":"levelo://app?vid=c3c96498-700e-4786-bba9-66a035e6307c"},"vehicle_type_id":"4","last_reported":1738404546,"current_range_meters":38800,"station_id":"ce4bgth2rcd13ifvqch0","pricing_plan_id":"cebpf4jnsgd1na2vs0mg"},{"bike_id":"e7156c3d-0a3f-4b7a-b458-86ea8e20e53c","system_id":"levelo_inurba_marseille","lat":43.28342,"lon":5.38117,"is_reserved":false,"is_disabled":false,"rental_uris":{"android":"levelo://app?vid=e7156c3d-0a3f-4b7a-b458-86ea8e20e53c","ios":"levelo://app?vid=e7156c3d-0a3f-4b7a-b458-86ea8e20e53c"},"vehicle_type_id":"4","last_reported":1738404546,"current_range_meters":38800,"station_id":"ce4bh412rcd13ifvqdr0","pricing_plan_id":"cebpf4jnsgd1na2vs0mg"},{"bike_id":"659dfd1e-2059-4618-abb8-678bbdece2e8","system_id":"levelo_inurba_marseille","lat":43.28422,"lon":5.34994,"is_reserved":false,"is_disabled":false,"rental_uris":{"android":"levelo://app?vid=659dfd1e-2059-4618-abb8-678bbdece2e8","ios":"levelo://app?vid=659dfd1e-2059-4618-abb8-678bbdece2e8"},"vehicle_type_id":"4","last_reported":1738404546,"current_range_meters":10000,"station_id":"ce4bhbh2rcd13ifvqepg","pricing_plan_id":"cebpf4jnsgd1na2vs0mg"},{"bike_id":"09f1127d-0767-4cdd-854a-7858cb70586b","system_id":"levelo_inurba_marseille","lat":43.3014,"lon":5.38081,"is_reserved":false,"is_disabled":false,"rental_uris":{"android":"levelo://app?vid=09f1127d-0767-4cdd-854a-7858cb70586b","ios":"levelo://app?vid=09f1127d-0767-4cdd-854a-7858cb70586b"},"vehicle_type_id":"4","last_reported":1738404546,"current_range_meters":38800,"station_id":"ce4bgjp2rcd13ifvqbh0","pricing_plan_id":"cebpf4jnsgd1na2vs0mg"},{"bike_id":"2f63d585-76e0-47ba-b6c3-d9d3c357101d","system_id":"levelo_inurba_marseille","lat":43.279486,"lon":5.387231,"is_reserved":false,"is_disabled":false,"rental_uris":{"android":"levelo://app?vid=2f63d585-76e0-47ba-b6c3-d9d3c357101d","ios":"levelo://app?vid=2f63d585-76e0-47ba-b6c3-d9d3c357101d"},"vehicle_type_id":"4","last_reported":1738404546,"current_range_meters":39200,"station_id":"ce4bhg12rcd13ifvqf80","pricing_plan_id":"cebpf4jnsgd1na2vs0mg"},{"bike_id":"b0b25c8d-bbfb-4a4d-9bfd-835503e25df9","system_id":"levelo_inurba_marseille","lat":43.29075,"lon":5.35869,"is_reserved":false,"is_disabled":false,"rental_uris":{"android":"levelo://app?vid=b0b25c8d-bbfb-4a4d-9bfd-835503e25df9","ios":"levelo://app?vid=b0b25c8d-bbfb-4a4d-9bfd-835503e25df9"},"vehicle_type_id":"4","last_reported":1738404546,"current_range_meters":30000,"station_id":"ce4bha92rcd13ifvqeg0","pricing_plan_id":"cebpf4jnsgd1na2vs0mg"},{"bike_id":"803e03d8-7d2e-4feb-ac46-774902d16dee","system_id":"levelo_inurba_marseille","lat":43.33759,"lon":5.37451,"is_reserved":false,"is_disabled":true,"rental_uris":{"android":"levelo://app?vid=803e03d8-7d2e-4feb-ac46-774902d16dee","ios":"levelo://app?vid=803e03d8-7d2e-4feb-ac46-774902d16dee"},"vehicle_type_id":"4","last_reported":1738404546,"current_range_meters":33600,"station_id":"","pricing_plan_id":"cebpf4jnsgd1na2vs0mg"},{"bike_id":"751a6904-a495-407a-96bd-84f6d6232ca6","system_id":"levelo_inurba_marseille","lat":43.23931,"lon":5.43841,"is_reserved":false,"is_disabled":true,"rental_uris":{"android":"levelo://app?vid=751a6904-a495-407a-96bd-84f6d6232ca6","ios":"levelo://app?vid=751a6904-a495-407a-96bd-84f6d6232ca6"},"vehicle_type_id":"4","last_reported":1738404546,"current_range_meters":0,"station_id":"","pricing_plan_id":"cebpf4jnsgd1na2vs0mg"},{"bike_id":"787cc70c-db25-42d8-bba7-585654938087","system_id":"levelo_inurba_marseille","lat":43.28474,"lon":5.35005,"is_reserved":false,"is_disabled":false,"rental_uris":{"android":"levelo://app?vid=787cc70c-db25-42d8-bba7-585654938087","ios":"levelo://app?vid=787cc70c-db25-42d8-bba7-585654938087"},"vehicle_type_id":"4","last_reported":1738404546,"current_range_meters":35200,"station_id":"","pricing_plan_id":"cebpf4jnsgd1na2vs0mg"},{"bike_id":"52943122-f429-4f97-afeb-d9105f661096","system_id":"levelo_inurba_marseille","lat":43.30281,"lon":5.40487,"is_reserved":false,"is_disabled":false,"rental_uris":{"android":"levelo://app?vid=52943122-f429-4f97-afeb-d9105f661096","ios":"levelo://app?vid=52943122-f429-4f97-afeb-d9105f661096"},"vehicle_type_id":"4","last_reported":1738404546,"current_range_meters":28400,"station_id":"ce4bh012rcd13ifvqd10","pricing_plan_id":"cebpf4jnsgd1na2vs0mg"},{"bike_id":"eda21f84-4b19-4610-a62b-590cdda194b5","system_id":"levelo_inurba_marseille","lat":43.34114,"lon":5.37577,"is_reserved":false,"is_disabled":false,"rental_uris":{"android":"levelo://app?vid=eda21f84-4b19-4610-a62b-590cdda194b5","ios":"levelo://app?vid=eda21f84-4b19-4610-a62b-590cdda194b5"},"vehicle_type_id":"4","last_reported":1738404546,"current_range_meters":35600,"station_id":"","pricing_plan_id":"cebpf4jnsgd1na2vs0mg"},{"bike_id":"0bf7fee1-61db-4529-9f67-f9b455b0133b","system_id":"levelo_inurba_marseille","lat":43.31133,"lon":5.37756,"is_reserved":false,"is_disabled":false,"rental_uris":{"android":"levelo://app?vid=0bf7fee1-61db-4529-9f67-f9b455b0133b","ios":"levelo://app?vid=0bf7fee1-61db-4529-9f67-f9b455b0133b"},"vehicle_type_id":"4","last_reported":1738404546,"current_range_meters":36800,"station_id":"ce4bgt92rcd13ifvqcg0","pricing_plan_id":"cebpf4jnsgd1na2vs0mg"},{"bike_id":"ae1f1e85-ec64-4dc1-ba5d-4214ac0bbd57","system_id":"levelo_inurba_marseille","lat":43.28605,"lon":5.37082,"is_reserved":false,"is_disabled":true,"rental_uris":{"android":"levelo://app?vid=ae1f1e85-ec64-4dc1-ba5d-4214ac0bbd57","ios":"levelo://app?vid=ae1f1e85-ec64-4dc1-ba5d-4214ac0bbd57"},