{"last_updated":1734390546,"ttl":60,"version":"2.2","data":{"bikes":[{"bike_id":"42c22991-bbb2-4c12-ab0d-47d496460860","system_id":"levelo_inurba_marseille","lat":43.27618,"lon":5.36109,"is_reserved":false,"is_disabled":false,"rental_uris":{"android":"levelo://app?vid=42c22991-bbb2-4c12-ab0d-47d496460860","ios":"levelo://app?vid=42c22991-bbb2-4c12-ab0d-47d496460860"},"vehicle_type_id":"4","last_reported":1734390546,"current_range_meters":16000,"station_id":"ce4bgj92rcd13ifvqbe0","pricing_plan_id":"cebpf4jnsgd1na2vs0mg"},{"bike_id":"3945d924-4864-404c-8dc1-69939c22235c","system_id":"levelo_inurba_marseille","lat":43.32343,"lon":5.40618,"is_reserved":false,"is_disabled":false,"rental_uris":{"android":"levelo://app?vid=3945d924-4864-404c-8dc1-69939c22235c","ios":"levelo://app?vid=3945d924-4864-404c-8dc1-69939c22235c"},"vehicle_type_id":"4","last_reported":1734390546,"current_range_meters":18000,"station_id":"ce4bhq92rcd13ifvqhjg","pricing_plan_id":"cebpf4jnsgd1na2vs0mg"},{"bike_id":"f6454cc5-1690-43a6-92aa-1d6f0da09f29","system_id":"levelo_inurba_marseille","lat":43.31332,"lon":5.39694,"is_reserved":false,"is_disabled":false,"rental_uris":{"android":"levelo://app?vid=f6454cc5-1690-43a6-92aa-1d6f0da09f29","ios":"levelo://app?vid=f6454cc5-1690-43a6-92aa-1d6f0da09f29"},"vehicle_type_id":"4","last_reported":1734390546,"current_range_meters":27200,"station_id":"ce4bgvp2rcd13ifvqcu0","pricing_plan_id":"cebpf4jnsgd1na2vs0mg"},{"bike_id":"60694eb5-3776-4b2a-853c-0bc9979500e3","system_id":"levelo_inurba_marseille","lat":43.28453,"lon":5.35888,"is_reserved":false,"is_disabled":false,"rental_uris":{"android":"levelo://app?vid=60694eb5-3776-4b2a-853c-0bc9979500e3","ios":"levelo://app?vid=60694eb5-3776-4b2a-853c-0bc9979500e3"},"vehicle_type_id":"4","last_reported":1734390546,"current_range_meters":33600,"station_id":"ce4bhah2rcd13ifvqei0","pricing_plan_id":"cebpf4jnsgd1na2vs0mg"},{"bike_id":"2f5d94cd-9442-4cc7-9ddb-7c4903b293c4","system_id":"levelo_inurba_marseille","lat":43.24674,"lon":5.38151,"is_reserved":false,"is_disabled":false,"rental_uris":{"android":"levelo://app?vid=2f5d94cd-9442-4cc7-9ddb-7c4903b293c4","ios":"levelo://app?vid=2f5d94cd-9442-4cc7-9ddb-7c4903b293c4"},"vehicle_type_id":"4","last_reported":1734390546,"current_range_meters":17200,"station_id":"ce4bhih2rcd13ifvqfr0","pricing_plan_id":"cebpf4jnsgd1na2vs0mg"},{"bike_id":"0ef6db4d-529f-4d18-a3e2-fe1b03a2423c","system_id":"levelo_inurba_marseille","lat":43.31489,"lon":5.37298,"is_reserved":false,"is_disabled":false,"rental_uris":{"android":"levelo://app?vid=0ef6db4d-529f-4d18-a3e2-fe1b03a2423c","ios":"levelo://app?vid=0ef6db4d-529f-4d18-a3e2-fe1b03a2423c"},"vehicle_type_id":"4","last_reported":1734390546,"current_range_meters":38800,"station_id":"ce4bgt12rcd13ifvqcd0","pricing_plan_id":"cebpf4jnsgd1na2vs0mg"},{"bike_id":"cfab8bd3-b49b-4939-8a9f-c5672b029bb5","system_id":"levelo_inurba_marseille","lat":43.31315,"lon":5.39712,"is_reserved":false,"is_disabled":false,"rental_uris":{"android":"levelo://app?vid=cfab8bd3-b49b-4939-8a9f-c5672b029bb5","ios":"levelo://app?vid=cfab8bd3-b49b-4939-8a9f-c5672b029bb5"},"vehicle_type_id":"4","last_reported":1734390546,"current_range_meters":37600,"station_id":"ce4bgvp2rcd13ifvqcu0","pricing_plan_id":"cebpf4jnsgd1na2vs0mg"},{"bike_id":"66c2d464-591d-4cf7-a92e-3040a1b49fea","system_id":"levelo_inurba_marseille","lat":43.2868,"lon":5.36351,"is_reserved":false,"is_disabled":false,"rental_uris":{"android":"levelo://app?vid=66c2d464-591d-4cf7-a92e-3040a1b49fea","ios":"levelo://app?vid=66c2d464-591d-4cf7-a92e-3040a1b49fea"},"vehicle_type_id":"4","last_reported":1734390546,"current_range_meters":39200,"station_id":"ce4bhah2rcd13ifvqej0","pricing_plan_id":"cebpf4jnsgd1na2vs0mg"},{"bike_id":"0e5fa3cd-a913-4061-b0b9-e6b5b6a4b26a","system_id":"levelo_inurba_marseille","lat":43.25084,"lon":5.39515,"is_reserved":false,"is_disabled":false,"rental_uris":{"android":"levelo://app?vid=0e5fa3cd-a913-4061-b0b9-e6b5b6a4b26a","ios":"levelo://app?vid=0e5fa3cd-a913-4061-b0b9-e6b5b6a4b26a"},"vehicle_type_id":"4","last_reported":1734390546,"current_range_meters":23200,"station_id":"ce4bhm12rcd13ifvqgkg","pricing_plan_id":"cebpf4jnsgd1na2vs0mg"},{"bike_id":"ed8635a9-8a62-4be7-9d4b-a4dbff1f7c6d","system_id":"levelo_inurba_marseille","lat":43.28558,"lon":5.38046,"is_reserved":false,"is_disabled":true,"rental_uris":{"android":"levelo://app?vid=ed8635a9-8a62-4be7-9d4b-a4dbff1f7c6d","ios":"levelo://app?vid=ed8635a9-8a62-4be7-9d4b-a4dbff1f7c6d"},"vehicle_type_id":"4","last_reported":1734390546,"current_range_meters":22800,"station_id":"","pricing_plan_id":"cebpf4jnsgd1na2vs0mg"},{"bike_id":"79e08014-78be-4b51-8e47-3248ec87023b","system_id":"levelo_inurba_marseille","lat":43.2467,"lon":5.38158,"is_reserved":false,"is_disabled":false,"rental_uris":{"android":"levelo://app?vid=79e08014-78be-4b51-8e47-3248ec87023b","ios":"levelo://app?vid=79e08014-78be-4b51-8e47-3248ec87023b"},"vehicle_type_id":"4","last_reported":1734390546,"current_range_meters":36400,"station_id":"ce4bhih2rcd13ifvqfr0","pricing_plan_id":"cebpf4jnsgd1na2vs0mg"},{"bike_id":"b1141b56-3e7b-49ed-8c3a-fdb8940f3e60","system_id":"levelo_inurba_marseille","lat":43.29995,"lon":5.37715,"is_reserved":false,"is_disabled":true,"rental_uris":{"android":"levelo://app?vid=b1141b56-3e7b-49ed-8c3a-fdb8940f3e60","ios":"levelo://app?vid=b1141b56-3e7b-49ed-8c3a-fdb8940f3e60"},"vehicle_type_id":"4","last_reported":1734390546,"current_range_meters":9200,"station_id":"","pricing_plan_id":"cebpf4jnsgd1na2vs0mg"},{"bike_id":"9803638d-a938-45ea-aef4-b2c366107a44","system_id":"levelo_inurba_marseille","lat":43.27986,"lon":5.40013,"is_reserved":false,"is_disabled":false,"rental_uris":{"android":"levelo://app?vid=9803638d-a938-45ea-aef4-b2c366107a44","ios":"levelo://app?vid=9803638d-a938-45ea-aef4-b2c366107a44"},"vehicle_type_id":"4","last_reported":1734390546,"current_range_meters":36800,"station_id":"ce4bho92rcd13ifvqh4g","pricing_plan_id":"cebpf4jnsgd1na2vs0mg"},{"bike_id":"10086f5f-eb94-421a-8247-01c4a38e23de","system_id":"levelo_inurba_marseille","lat":43.26786,"lon":5.39928,"is_reserved":false,"is_disabled":true,"rental_uris":{"android":"levelo://app?vid=10086f5f-eb94-421a-8247-01c4a38e23de","ios":"levelo://app?vid=10086f5f-eb94-421a-8247-01c4a38e23de"},"vehicle_type_id":"4","last_reported":1734390546,"current_range_meters":0,"station_id":"","pricing_plan_id":"cebpf4jnsgd1na2vs0mg"},{"bike_id":"43080d42-6f82-421a-a638-62cb8c5273ca","system_id":"levelo_inurba_marseille","lat":43.25114,"lon":5.40325,"is_reserved":false,"is_disabled":false,"rental_uris":{"android":"levelo://app?vid=43080d42-6f82-421a-a638-62cb8c5273ca","ios":"levelo://app?vid=43080d42-6f82-421a-a638-62cb8c5273ca"},"vehicle_type_id":"4","last_reported":1734390546,"current_range_meters":39200,"station_id":"ce4bhlh2rcd13ifvqgig","pricing_plan_id":"cebpf4jnsgd1na2vs0mg"},{"bike_id":"19b63edb-b49d-48d7-a32f-d786a72a8236","system_id":"levelo_inurba_marseille","lat":43.28492,"lon":5.35053,"is_reserved":false,"is_disabled":false,"rental_uris":{"android":"levelo://app?vid=19b63edb-b49d-48d7-a32f-d786a72a8236","ios":"levelo://app?vid=19b63edb-b49d-48d7-a32f-d786a72a8236"},"vehicle_type_id":"4","last_reported":1734390546,"current_range_meters":32000,"station_id":"","pricing_plan_id":"cebpf4jnsgd1na2vs0mg"},{"bike_id":"2bcb2020-1157-48f1-aa76-65d8d9a083d0","system_id":"levelo_inurba_marseille","lat":43.30606,"lon":5.37195,"is_reserved":false,"is_disabled":false,"rental_uris":{"android":"levelo://app?vid=2bcb2020-1157-48f1-aa76-65d8d9a083d0","ios":"levelo://app?vid=2bcb2020-1157-48f1-aa76-65d8d9a083d0"},"vehicle_type_id":"4","last_reported":1734390546,"current_range_meters":11200,"station_id":"ce4bgqh2rcd13ifvqc4g","pricing_plan_id":"cebpf4jnsgd1na2vs0mg"},{"bike_id":"6b49ebdf-767b-495c-8b00-273a87320406","system_id":"levelo_inurba_marseille","lat":43.30143,"lon":5.39871,"is_reserved":false,"is_disabled":false,"rental_uris":{"android":"levelo://app?vid=6b49ebdf-767b-495c-8b00-273a87320406","ios":"levelo://app?vid=6b49ebdf-767b-495c-8b00-273a87320406"},"vehicle_type_id":"4","last_reported":1734390546,"current_range_meters":9600,"station_id":"ce4bh0h2rcd13ifvqd40","pricing_plan_id":"cebpf4jnsgd1na2vs0mg"},{"bike_id":"82bfb1cc-5635-4d47-bc8e-b9ff0bb37081","system_id":"levelo_inurba_marseille","lat":43.30794,"lon":5.38168,"is_reserved":false,"is_disabled":false,"rental_uris":{"android":"levelo://app?vid=82bfb1cc-5635-4d47-bc8e-b9ff0bb37081","ios":"levelo://app?vid=82bfb1cc-5635-4d47-bc8e-b9ff0bb37081"},"vehicle_type_id":"4","last_reported":1734390546,"current_range_meters":36400,"station_id":"ce4bgt12rcd13ifvqce0","pricing_plan_id":"cebpf4jnsgd1na2vs0mg"},{"bike_id":"0942ec52-e4c2-4259-b7e5-1369cb3cb0e8","system_id":"levelo_inurba_marseille","lat":43.31705,"lon":5.37755,"is_reserved":false,"is_disabled":false,"rental_uris":{"android":"levelo://app?vid=0942ec52-e4c2-4259-b7e5-1369cb3cb0e8","ios":"levelo://app?vid=0942ec52-e4c2-4259-b7e5-1369cb3cb0e8"},"vehicle_type_id":"4","last_reported":1734390546,"current_range_meters":38800,"station_id":"ce4bgth2rcd13ifvqch0","pricing_plan_id":"cebpf4jnsgd1na2vs0mg"},{"bike_id":"6e68a8b1-0e13-427b-839f-d0db81a56eee","system_id":"levelo_inurba_marseille","lat":43.28923,"lon":5.36397,"is_reserved":false,"is_disabled":false,"rental_uris":{"android":"levelo://app?vid=6e68a8b1-0e13-427b-839f-d0db81a56eee","ios":"levelo://app?vid=6e68a8b1-0e13-427b-839f-d0db81a56eee"},"vehicle_type_id":"4","last_reported":1734390546,"current_range_meters":27600,"station_id":"ce4bhc92rcd13ifvqetg","pricing_plan_id":"cebpf4jnsgd1na2vs0mg"},{"bike_id":"e452912e-43c8-4a44-afb6-a0cd08b90653","system_id":"levelo_inurba_marseille","lat":43.28839,"lon":5.39322,"is_reserved":false,"is_disabled":false,"rental_uris":{"android":"levelo://app?vid=e452912e-43c8-4a44-afb6-a0cd08b90653","ios":"levelo://app?vid=e452912e-43c8-4a44-afb6-a0cd08b90653"},"vehicle_type_id":"4","last_reported":1734390546,"current_range_meters":36800,"station_id":"ce4bh2p2rcd13ifvqdi0","pricing_plan_id":"cebpf4jnsgd1na2vs0mg"},{"bike_id":"491b5c18-99d4-4072-a89f-caaafeb4b981","system_id":"levelo_inurba_marseille","lat":43.30226,"lon":5.40055,"is_reserved":false,"is_disabled":false,"rental_uris":{"android":"levelo://app?vid=491b5c18-99d4-4072-a89f-caaafeb4b981","ios":"levelo://app?vid=491b5c18-99d4-4072-a89f-caaafeb4b981"},"vehicle_type_id":"4","last_reported":1734390546,"current_range_meters":19600,"station_id":"","pricing_plan_id":"cebpf4jnsgd1na2vs0mg"},{"bike_id":"6cb9fe89-432b-437b-8ac2-83ad2cda73a0","system_id":"levelo_inurba_marseille","lat":43.29258,"lon":5.40917,"is_reserved":false,"is_disabled":true,"rental_uris":{"android":"levelo://app?vid=6cb9fe89-432b-437b-8ac2-83ad2cda73a0","ios":"levelo://app?vid=6cb9fe89-432b-437b-8ac2-83ad2cda73a0"},"vehicle_type_id":"4","last_reported":1734390546,"current_range_meters":37600,"station_id":"ce4bh192rcd13ifvqdc0","pricing_plan_id":"cebpf4jnsgd1na2vs0mg"},{"bike_id":"ec6fd560-80ad-469b-8d2b-c65539592be7","system_id":"levelo_inurba_marseille","lat":43.27424,"lon":5.39418,"is_reserved":false,"is_disabled":false,"rental_uris":{"android":"levelo://app?vid=ec6fd560-80ad-469b-8d2b-c65539592be7","ios":"levelo://app?vid=ec6fd560-80ad-469b-8d2b-c65539592be7"},"vehicle_type_id":"4","last_reported":1734390546,"current_range_meters":30400,"station_id":"ce4bhdp2rcd13ifvqf20","pricing_plan_id":"cebpf4jnsgd1na2vs0mg"},{"bike_id":"b98cd8cf-b3b3-4f57-8006-8fb738ec896b","system_id":"levelo_inurba_marseille","lat":43.31726,"lon":5.42392,"is_reserved":false,"is_disabled":false,"rental_uris":{"android":"levelo://app?vid=b98cd8cf-b3b3-4f57-8006-8fb738ec896b","ios":"levelo://app?vid=b98cd8cf-b3b3-4f57-8006-8fb738ec896b"},"vehicle_type_id":"4","last_reported":1734390546,"current_range_meters":34800,"station_id":"ce4bhp92rcd13ifvqhbg","pricing_plan_id":"cebpf4jnsgd1na2vs0mg"},{"bike_id":"407426e2-5473-4726-8fbf-7659838178e2","system_id":"levelo_inurba_marseille","lat":43.27488,"lon":5.42453,"is_reserved":false,"is_disabled":false,"rental_uris":{"android":"levelo://app?vid=407426e2-5473-4726-8fbf-7659838178e2","ios":"levelo://app?vid=407426e2-5473-4726-8fbf-7659838178e2"},"vehicle_type_id":"4","last_reported":1734390546,"current_range_meters":28400,"station_id":"ce4bhn92rcd13ifvqgrg","pricing_plan_id":"cebpf4jnsgd1na2vs0mg"},{"bike_id":"e6029fb1-ca48-4fee-ba7d-8ee528661eb7","system_id":"levelo_inurba_marseille","lat":43.26496,"lon":5.39538,"is_reserved":false,"is_disabled":false,"rental_uris":{"android":"levelo://app?vid=e6029fb1-ca48-4fee-ba7d-8ee528661eb7","ios":"levelo://app?vid=e6029fb1-ca48-4fee-ba7d-8ee528661eb7"},"vehicle_type_id":"4","last_reported":1734390546,"current_range_meters":32800,"station_id":"ce4bhi12rcd13ifvqfq0","pricing_plan_id":"cebpf4jnsgd1na2vs0mg"},{"bike_id":"3210868a-ae7c-446f-9222-fef482512f15","system_id":"levelo_inurba_marseille","lat":43.241791,"lon":5.39706,"is_reserved":false,"is_disabled":false,"rental_uris":{"android":"levelo://app?vid=3210868a-ae7c-446f-9222-fef482512f15","ios":"levelo://app?vid=3210868a-ae7c-446f-9222-fef482512f15"},"vehicle_type_id":"4","last_reported":1734390546,"current_range_meters":27200,"station_id":"ce4bhn12rcd13ifvqgpg","pricing_plan_id":"cebpf4jnsgd1na2vs0mg"},{"bike_id":"08860759-a12d-4523-91fe-6df91f670ec4","system_id":"levelo_inurba_marseille","lat":43.303134,"lon":5.391976,"is_reserved":false,"is_disabled":false,"rental_uris":{"android":"levelo://app?vid=08860759-a12d-4523-91fe-6df91f670ec4","ios":"levelo://app?vid=08860759-a12d-4523-91fe-6df91f670ec4"},"vehicle_type_id":"4","last_reported":1734390546,"current_range_meters":25200,"station_id":"ce4bgkh2rcd13ifvqbk0","pricing_plan_id":"cebpf4jnsgd1na2vs0mg"},{"bike_id":"df8d9f60-67d3-4227-99b7-48c256f5c206","system_id":"levelo_inurba_marseille","lat":43.31714,"lon":5.37743,"is_reserved":false,"is_disabled":false,"rental_uris":{"android":"levelo://app?vid=df8d9f60-67d3-4227-99b7-48c256f5c206","ios":"levelo://app?vid=df8d9f60-67d3-4227-99b7-48c256f5c206"},"vehicle_type_id":"4","last_reported":1734390546,"current_range_meters":38800,"station_id":"ce4bgth2rcd13ifvqch0","pricing_plan_id":"cebpf4jnsgd1na2vs0mg"},{"bike_id":"a716bf4a-483b-4082-8d5e-a159c3e6bcca","system_id":"levelo_inurba_marseille","lat":43.29983,"lon":5.41312,"is_reserved":false,"is_disabled":true,"rental_uris":{"android":"levelo://app?vid=a716bf4a-483b-4082-8d5e-a159c3e6bcca","ios":"levelo://app?vid=a716bf4a-483b-4082-8d5e-a159c3e6bcca"},"vehicle_type_id":"4","last_reported":1734390546,"current_range_meters":32800,"station_id":"ce4bhp12rcd13ifvqh9g","pricing_plan_id":"cebpf4jnsgd1na2vs0mg"},{"bike_id":"3d267de2-ee4b-437e-ae53-7fc94a4768ee","system_id":"levelo_inurba_marseille","lat":43.28421,"lon":5.37519,"is_reserved":false,"is_disabled":false,"rental_uris":{"android":"levelo://app?vid=3d267de2-ee4b-437e-ae53-7fc94a4768ee","ios":"levelo://app?vid=3d267de2-ee4b-437e-ae53-7fc94a4768ee"},"vehicle_type_id":"4","last_reported":1734390546,"current_range_meters":8400,"station_id":"ce4bh412rcd13ifvqds0","pricing_plan_id":"cebpf4jnsgd1na2vs0mg"},{"bike_id":"75979f35-52fb-4ff9-aef4-c293842957ed","system_id":"levelo_inurba_marseille","lat":43.32533,"lon":5.41458,"is_reserved":false,"is_disabled":true,"rental_uris":{"android":"levelo://app?vid=75979f35-52fb-4ff9-aef4-c293842957ed","ios":"levelo://app?vid=75979f35-52fb-4ff9-aef4-c293842957ed"},"vehicle_type_id":"4","last_reported":1734390546,"current_range_meters":36000,"station_id":"ce4bhq12rcd13ifvqhhg","pricing_plan_id":"cebpf4jnsgd1na2vs0mg"},{"bike_id":"434843cf-9364-4dd4-8d3c-6f995f6c8fa3","system_id":"levelo_inurba_marseille","lat":43.23055,"lon":5.35491,"is_reserved":false,"is_disabled":false,"rental_uris":{"android":"levelo://app?vid=434843cf-9364-4dd4-8d3c-6f995f6c8fa3","ios":"levelo://app?vid=434843cf-9364-4dd4-8d3c-6f995f6c8fa3"},"vehicle_type_id":"4","last_reported":1734390546,"current_range_meters":26800,"station_id":"cpo3342slgdg3j2ifvpg","pricing_plan_id":"cebpf4jnsgd1na2vs0mg"},{"bike_id":"01dd261f-922b-4db8-a73b-009ae8f8ee61","system_id":"levelo_inurba_marseille","lat":43.30785,"lon":5.37955,"is_reserved":false,"is_disabled":false,"rental_uris":{"android":"levelo://app?vid=01dd261f-922b-4db8-a73b-009ae8f8ee61","ios":"levelo://app?vid=01dd261f-922b-4db8-a73b-009ae8f8ee61"},"vehicle_type_id":"4","last_reported":1734390546,"current_range_meters":10800,"station_id":"","pricing_plan_id":"cebpf4jnsgd1na2vs0mg"},{"bike_id":"ba98bdce-aee7-48db-921f-e5b23de6229a","system_id":"levelo_inurba_marseille","lat":43.33791,"lon":5.42098,"is_reserved":false,"is_disabled":true,"rental_uris":{"android":"levelo://app?vid=ba98bdce-aee7-48db-921f-e5b23de6229a","ios":"levelo://app?vid=ba98bdce-aee7-48db-921f-e5b23de6229a"},"vehicle_type_id":"4","last_reported":1734390546,"current_range_meters":0,"station_id":"","pricing_plan_id":"cebpf4jnsgd1na2vs0mg"},{"bike_id":"9cfc09f0-d43f-48e4-babe-f93a6fdf0d20","system_id":"levelo_inurba_marseille","lat":43.29176,"lon":5.35795,"is_reserved":false,"is_disabled":false,"rental_uris":{"android":"levelo://app?vid=9cfc09f0-d43f-48e4-babe-f93a6fdf0d20","ios":"levelo://app?vid=9cfc09f0-d43f-48e4-babe-f93a6fdf0d20"},"vehicle_type_id":"4","last_reported":1734390546,"current_range_meters":12000,"station_id":"ce4bhb12rcd13ifvqel0","pricing_plan_id":"cebpf4jnsgd1na2vs0mg"},{"bike_id":"4a362138-7fa3-4e22-886c-fe544747f1fc","system_id":"levelo_inurba_marseille","lat":43.28945,"lon":5.36404,"is_reserved":false,"is_disabled":false,"rental_uris":{"android":"levelo://app?vid=4a362138-7fa3-4e22-886c-fe544747f1fc","ios":"levelo://app?vid=4a362138-7fa3-4e22-886c-fe544747f1fc"},"vehicle_type_id":"4","last_reported":1734390546,"current_range_meters":26000,"station_id":"ce4bhc92rcd13ifvqetg","pricing_plan_id":"cebpf4jnsgd1na2vs0mg"},{"bike_id":"9a1338f2-16a3-4644-85a6-79582cb358ee","system_id":"levelo_inurba_marseille","lat":43.31391,"lon":5.38534,"is_reserved":false,"is_disabled":false,"rental_uris":{"android":"levelo://app?vid=9a1338f2-16a3-4644-85a6-79582cb358ee","ios":"levelo://app?vid=9a1338f2-16a3-4644-85a6-79582cb358ee"},"vehicle_type_id":"4","last_reported":1734390546,"current_range_meters":10000,"station_id":"","pricing_plan_id":"cebpf4jnsgd1na2vs0mg"},{"bike_id":"003d4e3a-a4f7-4446-a02e-430813fd1656","system_id":"levelo_inurba_marseille","lat":43.29198,"lon":5.39327,"is_reserved":false,"is_disabled":false,"rental_uris":{"android":"levelo://app?vid=003d4e3a-a4f7-4446-a02e-430813fd1656","ios":"levelo://app?vid=003d4e3a-a4f7-4446-a02e-430813fd1656"},"vehicle_type_id":"4","last_reported":1734390546,"current_range_meters":32000,"station_id":"ce4bh192rcd13ifvqdd0","pricing_plan_id":"cebpf4jnsgd1na2vs0mg"},{"bike_id":"e9e7807d-fbf4-40c3-a707-f9babe7d56c2","system_id":"levelo_inurba_marseille","lat":43.28602,"lon":5.37054,"is_reserved":false,"is_disabled":true,"rental_uris":{"android":"levelo://app?vid=e9e7807d-fbf4-40c3-a707-f9babe7d56c2","ios":"levelo://app?vid=e9e7807d-fbf4-40c3-a707-f9babe7d56c2"},"vehicle_type_id":"4","last_reported":1734390546,"current_range_meters":0,"station_id":"","pricing_plan_id":"cebpf4jnsgd1na2vs0mg"},{"bike_id":"8275f4eb-07eb-44a4-8bd8-4036a333488d","system_id":"levelo_inurba_marseille","lat":43.25118,"lon":5.40309,"is_reserved":false,"is_disabled":false,"rental_uris":{"android":"levelo://app?vid=8275f4eb-07eb-44a4-8bd8-4036a333488d","ios":"levelo://app?vid=8275f4eb-07eb-44a4-8bd8-4036a333488d"},"vehicle_type_id":"4","last_reported":1734390546,"current_range_meters":36400,"station_id":"ce4bhlh2rcd13ifvqgig","pricing_plan_id":"cebpf4jnsgd1na2vs0mg"},{"bike_id":"c3e06171-606e-48df-8fdf-8daebe9ad97f","system_id":"levelo_inurba_marseille","lat":43.23189,"lon":5.39993,"is_reserved":false,"is_disabled":false,"rental_uris":{"android":"levelo://app?vid=c3e06171-606e-48df-8fdf-8daebe9ad97f","ios":"levelo://app?vid=c3e06171-606e-48df-8fdf-8daebe9ad97f"},"vehicle_type_id":"4","last_reported":1734390546,"current_range_meters":38800,"station_id":"ce4bhn12rcd13ifvqgqg","pricing_plan_id":"cebpf4jnsgd1na2vs0mg"},{"bike_id":"84601d09-4ee3-4394-a87e-3fd8f891be01","system_id":"levelo_inurba_marseille","lat":43.29277,"lon":5.36847,"is_reserved":false,"is_disabled":false,"rental_uris":{"android":"levelo://app?vid=84601d09-4ee3-4394-a87e-3fd8f891be01","ios":"levelo://app?vid=84601d09-4ee3-4394-a87e-3fd8f891be01"},"vehicle_type_id":"4","last_reported":1734390546,"current_range_meters":36400,"station_id":"ce4bhbp2rcd13ifvqesg","pricing_plan_id":"cebpf4jnsgd1na2vs0mg"},{"bike_id":"b7625952-ef10-4751-9177-c009333534c9","system_id":"levelo_inurba_marseille","lat":43.28928,"lon":5.38403,"is_reserved":false,"is_disabled":false,"rental_uris":{"android":"levelo://app?vid=b7625952-ef10-4751-9177-c009333534c9","ios":"levelo://app?vid=b7625952-ef10-4751-9177-c009333534c9"},"vehicle_type_id":"4","last_reported":1734390546,"current_range_meters":38400,"station_id":"ce4bh612rcd13ifvqe6g","pricing_plan_id":"cebpf4jnsgd1na2vs0mg"},{"bike_id":"87ee05a6-7bf0-4b2d-98c3-db5d2162d893","system_id":"levelo_inurba_marseille","lat":43.29983,"lon":5.37174,"is_reserved":false,"is_disabled":false,"rental_uris":{"android":"levelo://app?vid=87ee05a6-7bf0-4b2d-98c3-db5d2162d893","ios":"levelo://app?vid=87ee05a6-7bf0-4b2d-98c3-db5d2162d893"},"vehicle_type_id":"4","last_reported":1734390546,"current_range_meters":38400,"station_id":"ce4bgr92rcd13ifvqc7g","pricing_plan_id":"cebpf4jnsgd1na2vs0mg"},{"bike_id":"e8649dca-63cd-44d1-8d73-065270fb8001","system_id":"levelo_inurba_marseille","lat":43.30143,"lon":5.39885,"is_reserved":false,"is_disabled":false,"rental_uris":{"android":"levelo://app?vid=e8649dca-63cd-44d1-8d73-065270fb8001","ios":"levelo://app?vid=e8649dca-63cd-44d1-8d73-065270fb8001"},"vehicle_type_id":"4","last_reported":1734390546,"current_range_meters":28000,"station_id":"ce4bh0h2rcd13ifvqd40","pricing_plan_id":"cebpf4jnsgd1na2vs0mg"},{"bike_id":"c0b753ba-4d49-4251-94d6-22c21097403a","system_id":"levelo_inurba_marseille","lat":43.29894,"lon":5.43668,"is_reserved":false,"is_disabled":false,"rental_uris":{"android":"levelo://app?vid=c0b753ba-4d49-4251-94d6-22c21097403a","ios":"levelo://app?vid=c0b753ba-4d49-4251-94d6-22c21097403a"},"vehicle_type_id":"4","last_reported":1734390546,"current_range_meters":19200,"station_id":"ce4bhpp2rcd13ifvqhfg","pricing_plan_id":"cebpf4jnsgd1na2vs0mg"},{"bike_id":"f90a56d8-6b58-4667-b1e0-9be9da1c9d3e","system_id":"levelo_inurba_marseille","lat":43.28923,"lon":5.37879,"is_reserved":false,"is_disabled":true,"rental_uris":{"android":"levelo://app?vid=f90a56d8-6b58-4667-b1e0-9be9da1c9d3e","ios":"levelo://app?vid=f90a56d8-6b58-4667-b1e0-9be9da1c9d3e"},"vehicle_type_id":"4","last_reported":1734390546,"current_range_meters":30400,"station_id":"","pricing_plan_id":"cebpf4jnsgd1na2vs0mg"},{"bike_id":"06a23c1a-d42a-4e1c-b1b4-ee94afa8cf99","system_id":"levelo_inurba_marseille","lat":43.28932,"lon":5.364,"is_reserved":false,"is_disabled":false,"rental_uris":{"android":"levelo://app?vid=06a23c1a-d42a-4e1c-b1b4-ee94afa8cf99","ios":"levelo://app?vid=06a23c1a-d42a-4e1c-b1b4-ee94afa8cf99"},"vehicle_type_id":"4","last_reported":1734390546,"current_range_meters":25600,"station_id":"ce4bhc92rcd13ifvqetg","pricing_plan_id":"cebpf4jnsgd1na2vs0mg"},{"bike_id":"8ef12a25-9a5e-447a-9534-b5c2aefc7fba","system_id":"levelo_inurba_marseille","lat":43.29775,"lon":5.39325,"is_reserved":false,"is_disabled":false,"rental_uris":{"android":"levelo://app?vid=8ef12a25-9a5e-447a-9534-b5c2aefc7fba","ios":"levelo://app?vid=8ef12a25-9a5e-447a-9534-b5c2aefc7fba"},"vehicle_type_id":"4","last_reported":1734390546,"current_range_meters":22800,"station_id":"chh1huq6cuj3fo74tm60","pricing_plan_id":"cebpf4jnsgd1na2vs0mg"},{"bike_id":"c84b2943-d429-4852-8ae2-0b7dc34368c8","system_id":"levelo_inurba_marseille","lat":43.31886,"lon":5.40723,"is_reserved":false,"is_disabled":false,"rental_uris":{"android":"levelo://app?vid=c84b2943-d429-4852-8ae2-0b7dc34368c8","ios":"levelo://app?vid=c84b2943-d429-4852-8ae2-0b7dc34368c8"},"vehicle_type_id":"4","last_reported":1734390546,"current_range_meters":38400,"station_id":"ce4bhq12rcd13ifvqhig","pricing_plan_id":"cebpf4jnsgd1na2vs0mg"},{"bike_id":"0c281ba5-3f42-4962-a4d8-5f995bbb41ad","system_id":"levelo_inurba_marseille","lat":43.29006,"lon":5.35613,"is_reserved":false,"is_disabled":false,"rental_uris":{"android":"levelo://app?vid=0c281ba5-3f42-4962-a4d8-5f995bbb41ad","ios":"levelo://app?vid=0c281ba5-3f42-4962-a4d8-5f995bbb41ad"},"vehicle_type_id":"4","last_reported":1734390546,"current_range_meters":38800,"station_id":"ce4bhb92rcd13ifvqen0","pricing_plan_id":"cebpf4jnsgd1na2vs0mg"},{"bike_id":"e2fa2199-d3dd-47c3-8996-03d11144708e","system_id":"levelo_inurba_marseille","lat":43.33016,"lon":5.39041,"is_reserved":false,"is_disabled":false,"rental_uris":{"android":"levelo://app?vid=e2fa2199-d3dd-47c3-8996-03d11144708e","ios":"levelo://app?vid=e2fa2199-d3dd-47c3-8996-03d11144708e"},"vehicle_type_id":"4","last_reported":1734390546,"current_range_meters":38800,"station_id":"ce4bhr92rcd13ifvqhrg","pricing_plan_id":"cebpf4jnsgd1na2vs0mg"},{"bike_id":"cc236266-b4a4-4242-9542-29d54f50c8e0","system_id":"levelo_inurba_marseille","lat":43.31173,"lon":5.38714,"is_reserved":false,"is_disabled":false,"rental_uris":{"android":"levelo://app?vid=cc236266-b4a4-4242-9542-29d54f50c8e0","ios":"levelo://app?vid=cc236266-b4a4-4242-9542-29d54f50c8e0"},"vehicle_type_id":"4","last_reported":1734390546,"current_range_meters":36400,"station_id":"ce4bgv12rcd13ifvqcp0","pricing_plan_id":"cebpf4jnsgd1na2vs0mg"},{"bike_id":"d9e49cd9-d4b5-4ef4-98f8-834de6126cc0","system_id":"levelo_inurba_marseille","lat":43.28279,"lon":5.35075,"is_reserved":false,"is_disabled":false,"rental_uris":{"android":"levelo://app?vid=d9e49cd9-d4b5-4ef4-98f8-834de6126cc0","ios":"levelo://app?vid=d9e49cd9-d4b5-4ef4-98f8-834de6126cc0"},"vehicle_type_id":"4","last_reported":1734390546,"current_range_meters":38000,"station_id":"ce4bhbp2rcd13ifvqerg","pricing_plan_id":"cebpf4jnsgd1na2vs0mg"},{"bike_id":"c3123191-8af3-4905-b6f5-28cd8730b742","system_id":"levelo_inurba_marseille","lat":43.31313,"lon":5.39695,"is_reserved":false,"is_disabled":false,"rental_uris":{"android":"levelo://app?vid=c3123191-8af3-4905-b6f5-28cd8730b742","ios":"levelo://app?vid=c3123191-8af3-4905-b6f5-28cd8730b742"},"vehicle_type_id":"4","last_reported":1734390546,"current_range_meters":32000,"station_id":"ce4bgvp2rcd13ifvqcu0","pricing_plan_id":"cebpf4jnsgd1na2vs0mg"},{"bike_id":"0854f93a-27ef-4312-bd8f-be30bba0059f","system_id":"levelo_inurba_marseille","lat":43.286156,"lon":5.351055,"is_reserved":false,"is_disabled":true,"rental_uris":{"android":"levelo://app?vid=0854f93a-27ef-4312-bd8f-be30bba0059f","ios":"levelo://app?vid=0854f93a-27ef-4312-bd8f-be30bba0059f"},"vehicle_type_id":"4","last_reported":1734390546,"current_range_meters":26800,"station_id":"","pricing_plan_id":"cebpf4jnsgd1na2vs0mg"},{"bike_id":"1d94fcbf-d626-434e-b8ab-055af36da271","system_id":"levelo_inurba_marseille","lat":43.306023,"lon":5.39348,"is_reserved":false,"is_disabled":false,"rental_uris":{"android":"levelo://app?vid=1d94fcbf-d626-434e-b8ab-055af36da271","ios":"levelo://app?vid=1d94fcbf-d626-434e-b8ab-055af36da271"},"vehicle_type_id":"4","last_reported":1734390546,"current_range_meters":38800,"station_id":"ce4bh0p2rcd13ifvqd80","pricing_plan_id":"cebpf4jnsgd1na2vs0mg"},{"bike_id":"b89cace3-fd84-4fd5-b7d4-63c8d0b748f3","system_id":"levelo_inurba_marseille","lat":43.301343,"lon":5.398726,"is_reserved":false,"is_disabled":false,"rental_uris":{"android":"levelo://app?vid=b89cace3-fd84-4fd5-b7d4-63c8d0b748f3","ios":"levelo://app?vid=b89cace3-fd84-4fd5-b7d4-63c8d0b748f3"},"vehicle_type_id":"4","last_reported":1734390546,"current_range_meters":37600,"station_id":"ce4bh0h2rcd13ifvqd40","pricing_plan_id":"cebpf4jnsgd1na2vs0mg"},{"bike_id":"c4270ea9-5ce6-4111-8dc1-8ae345013bb1","system_id":"levelo_inurba_marseille","lat":43.27191,"lon":5.40991,"is_reserved":false,"is_disabled":false,"rental_uris":{"android":"levelo://app?vid=c4270ea9-5ce6-4111-8dc1-8ae345013bb1","ios":"levelo://app?vid=c4270ea9-5ce6-4111-8dc1-8ae345013bb1"},"vehicle_type_id":"4","last_reported":1734390546,"current_range_meters":14000,"station_id":"ce4bhl12rcd13ifvqgf0","pricing_plan_id":"cebpf4jnsgd1na2vs0mg"},{"bike_id":"c0a0c9e6-d71d-42e0-9b1f-2849721da8f4","system_id":"levelo_inurba_marseille","lat":43.27176,"lon":5.4098,"is_reserved":false,"is_disabled":false,"rental_uris":{"android":"levelo://app?vid=c0a0c9e6-d71d-42e0-9b1f-2849721da8f4","ios":"levelo://app?vid=c0a0c9e6-d71d-42e0-9b1f-2849721da8f4"},"vehicle_type_id":"4","last_reported":1734390546,"current_range_meters":22800,"station_id":"ce4bhl12rcd13ifvqgf0","pricing_plan_id":"cebpf4jnsgd1na2vs0mg"},{"bike_id":"4307528f-73ef-4ebb-ab88-bcab69796fe2","system_id":"levelo_inurba_marseille","lat":43.3059,"lon":5.39359,"is_reserved":false,"is_disabled":false,"rental_uris":{"android":"levelo://app?vid=4307528f-73ef-4ebb-ab88-bcab69796fe2","ios":"levelo://app?vid=4307528f-73ef-4ebb-ab88-bcab69796fe2"},"vehicle_type_id":"4","last_reported":1734390546,"current_range_meters":14000,"station_id":"ce4bh0p2rcd13ifvqd80","pricing_plan_id":"cebpf4jnsgd1na2vs0mg"},{"bike_id":"d9f638ef-8ccb-454e-adae-4e085f7e7956","system_id":"levelo_inurba_marseille","lat":43.24391,"lon":5.37045,"is_reserved":false,"is_disabled":false,"rental_uris":{"android":"levelo://app?vid=d9f638ef-8ccb-454e-adae-4e085f7e7956","ios":"levelo://app?vid=d9f638ef-8ccb-454e-adae-4e085f7e7956"},"vehicle_type_id":"4","last_reported":1734390546,"current_range_meters":38800,"station_id":"ce4bhhh2rcd13ifvqfk0","pricing_plan_id":"cebpf4jnsgd1na2vs0mg"},{"bike_id":"02ed7963-1b3c-490b-b642-5174fddf349b","system_id":"levelo_inurba_marseille","lat":43.29274,"lon":5.40114,"is_reserved":false,"is_disabled":false,"rental_uris":{"android":"levelo://app?vid=02ed7963-1b3c-490b-b642-5174fddf349b","ios":"levelo://app?vid=02ed7963-1b3c-490b-b642-5174fddf349b"},"vehicle_type_id":"4","last_reported":1734390546,"current_range_meters":36000,"station_id":"ce4bh312rcd13ifvqdk0","pricing_plan_id":"cebpf4jnsgd1na2vs0mg"},{"bike_id":"209bd16c-28da-4aaf-91b3-949cf5d910d0","system_id":"levelo_inurba_marseille","lat":43.29248,"lon":5.38436,"is_reserved":false,"is_disabled":true,"rental_uris":{"android":"levelo://app?vid=209bd16c-28da-4aaf-91b3-949cf5d910d0","ios":"levelo://app?vid=209bd16c-28da-4aaf-91b3-949cf5d910d0"},"vehicle_type_id":"4","last_reported":1734390546,"current_range_meters":22800,"station_id":"ce4bh692rcd13ifvqea0","pricing_plan_id":"cebpf4jnsgd1na2vs0mg"},{"bike_id":"14270be7-87cd-4bad-92bc-7f49cbd5cacd","system_id":"levelo_inurba_marseille","lat":43.28161,"lon":5.42632,"is_reserved":false,"is_disabled":false,"rental_uris":{"android":"levelo://app?vid=14270be7-87cd-4bad-92bc-7f49cbd5cacd","ios":"levelo://app?vid=14270be7-87cd-4bad-92bc-7f49cbd5cacd"},"vehicle_type_id":"4","last_reported":1734390546,"current_range_meters":12000,"station_id":"ce4bhnh2rcd13ifvqgug","pricing_plan_id":"cebpf4jnsgd1na2vs0mg"},{"bike_id":"acc86a9f-ea78-4fa8-87b2-5129bf3c527f","system_id":"levelo_inurba_marseille","lat":43.27996,"lon":5.41666,"is_reserved":false,"is_disabled":false,"rental_uris":{"android":"levelo://app?vid=acc86a9f-ea78-4fa8-87b2-5129bf3c527f","ios":"levelo://app?vid=acc86a9f-ea78-4fa8-87b2-5129bf3c527f"},"vehicle_type_id":"4","last_reported":1734390546,"current_range_meters":28000,"station_id":"ce4bho12rcd13ifvqh1g","pricing_plan_id":"cebpf4jnsgd1na2vs0mg"},{"bike_id":"7b70bd7c-233a-4d42-9c2b-cff9df18c3b2","system_id":"levelo_inurba_marseille","lat":43.29276,"lon":5.40127,"is_reserved":false,"is_disabled":false,"rental_uris":{"android":"levelo://app?vid=7b70bd7c-233a-4d42-9c2b-cff9df18c3b2","ios":"levelo://app?vid=7b70bd7c-233a-4d42-9c2b-cff9df18c3b2"},"vehicle_type_id":"4","last_reported":1734390546,"current_range_meters":25200,"station_id":"ce4bh312rcd13ifvqdk0","pricing_plan_id":"cebpf4jnsgd1na2vs0mg"},{"bike_id":"9deef00e-810f-42c9-a63d-00fba51c2b82","system_id":"levelo_inurba_marseille","lat":43.3361,"lon":5.41029,"is_reserved":false,"is_disabled":false,"rental_uris":{"android":"levelo://app?vid=9deef00e-810f-42c9-a63d-00fba51c2b82","ios":"levelo://app?vid=9deef00e-810f-42c9-a63d-00fba51c2b82"},"vehicle_type_id":"4","last_reported":1734390546,"current_range_meters":38400,"station_id":"ce4bhqh2rcd13ifvqhmg","pricing_plan_id":"cebpf4jnsgd1na2vs0mg"},{"bike_id":"9595ff7a-ff62-488c-b31c-ab18b0cf92a2","system_id":"levelo_inurba_marseille","lat":43.23964,"lon":5.36627,"is_reserved":false,"is_disabled":false,"rental_uris":{"android":"levelo://app?vid=9595ff7a-ff62-488c-b31c-ab18b0cf92a2","ios":"levelo://app?vid=9595ff7a-ff62-488c-b31c-ab18b0cf92a2"},"vehicle_type_id":"4","last_reported":1734390546,"current_range_meters":38800,"station_id":"ce4bhi12rcd13ifvqfp0","pricing_plan_id":"cebpf4jnsgd1na2vs0mg"},{"bike_id":"edfc5974-6af2-446f-a977-e2e3dcbf18ca","system_id":"levelo_inurba_marseille","lat":43.31231,"lon":5.36856,"is_reserved":false,"is_disabled":false,"rental_uris":{"android":"levelo://app?vid=edfc5974-6af2-446f-a977-e2e3dcbf18ca","ios":"levelo://app?vid=edfc5974-6af2-446f-a977-e2e3dcbf18ca"},"vehicle_type_id":"4","last_reported":1734390546,"current_range_meters":37600,"station_id":"ce4bgl92rcd13ifvqbq0","pricing_plan_id":"cebpf4jnsgd1na2vs0mg"},{"bike_id":"3fb6596b-b720-4e37-88d1-377c7a736425","system_id":"levelo_inurba_marseille","lat":43.23196,"lon":5.35557,"is_reserved":false,"is_disabled":false,"rental_uris":{"android":"levelo://app?vid=3fb6596b-b720-4e37-88d1-377c7a736425","ios":"levelo://app?vid=3fb6596b-b720-4e37-88d1-377c7a736425"},"vehicle_type_id":"4","last_reported":1734390546,"current_range_meters":39200,"station_id":"ce4bhu92rcd13ifvqi70","pricing_plan_id":"cebpf4jnsgd1na2vs0mg"},{"bike_id":"8914bb17-7251-4066-b905-d58eaff8838d","system_id":"levelo_inurba_marseille","lat":43.27177,"lon":5.40994,"is_reserved":false,"is_disabled":false,"rental_uris":{"android":"levelo://app?vid=8914bb17-7251-4066-b905-d58eaff8838d","ios":"levelo://app?vid=8914bb17-7251-4066-b905-d58eaff8838d"},"vehicle_type_id":"4","last_reported":1734390546,"current_range_meters":28000,"station_id":"ce4bhl12rcd13ifvqgf0","pricing_plan_id":"cebpf4jnsgd1na2vs0mg"},{"bike_id":"8ee62417-ba9c-4b61-84a5-5bd7e2cbee2e","system_id":"levelo_inurba_marseille","lat":43.337444,"lon":5.374475,"is_reserved":false,"is_disabled":true,"rental_uris":{"android":"levelo://app?vid=8ee62417-ba9c-4b61-84a5-5bd7e2cbee2e","ios":"levelo://app?vid=8ee62417-ba9c-4b61-84a5-5bd7e2cbee2e"},"vehicle_type_id":"4","last_reported":1734390546,"current_range_meters":0,"station_id":"","pricing_plan_id":"cebpf4jnsgd1na2vs0mg"},{"bike_id":"20c4d571-f9f9-426e-8c0f-9955d737fd82","system_id":"levelo_inurba_marseille","lat":43.26802,"lon":5.40259,"is_reserved":false,"is_disabled":false,"rental_uris":{"android":"levelo://app?vid=20c4d571-f9f9-426e-8c0f-9955d737fd82","ios":"levelo://app?vid=20c4d571-f9f9-426e-8c0f-9955d737fd82"},"vehicle_type_id":"4","last_reported":1734390546,"current_range_meters":12400,"station_id":"ce501612rcd8frsf0b60","pricing_plan_id":"cebpf4jnsgd1na2vs0mg"},{"bike_id":"d2294c64-af77-450b-b299-fc06315dbf1a","system_id":"levelo_inurba_marseille","lat":43.29308,"lon":5.37184,"is_reserved":false,"is_disabled":true,"rental_uris":{"android":"levelo://app?vid=d2294c64-af77-450b-b299-fc06315dbf1a","ios":"levelo://app?vid=d2294c64-af77-450b-b299-fc06315dbf1a"},"vehicle_type_id":"4","last_reported":1734390546,"current_range_meters":20800,"station_id":"ce4bgh92rcd13ifvqb40","pricing_plan_id":"cebpf4jnsgd1na2vs0mg"},{"bike_id":"efc57f04-4351-4676-97a0-14c3c2859977","system_id":"levelo_inurba_marseille","lat":43.295853,"lon":5.36745,"is_reserved":false,"is_disabled":false,"rental_uris":{"android":"levelo://app?vid=efc57f04-4351-4676-97a0-14c3c2859977","ios":"levelo://app?vid=efc57f04-4351-4676-97a0-14c3c2859977"},"vehicle_type_id":"4","last_reported":1734390546,"current_range_meters":38800,"station_id":"ce4bgph2rcd13ifvqc2g","pricing_plan_id":"cebpf4jnsgd1na2vs0mg"},{"bike_id":"056177a6-f3a6-40fa-80e0-574bf5840c95","system_id":"levelo_inurba_marseille","lat":43.28341,"lon":5.38631,"is_reserved":false,"is_disabled":true,"rental_uris":{"android":"levelo://app?vid=056177a6-f3a6-40fa-80e0-574bf5840c95","ios":"levelo://app?vid=056177a6-f3a6-40fa-80e0-574bf5840c95"},"vehicle_type_id":"4","last_reported":1734390546,"current_range_meters":28400,"station_id":"ce4bh492rcd13ifvqdvg","pricing_plan_id":"cebpf4jnsgd1na2vs0mg"},{"bike_id":"2a03e7a9-e623-43fe-99c0-8c16e6af2b40","system_id":"levelo_inurba_marseille","lat":43.269861,"lon":5.398674,"is_reserved":false,"is_disabled":false,"rental_uris":{"android":"levelo://app?vid=2a03e7a9-e623-43fe-99c0-8c16e6af2b40","ios":"levelo://app?vid=2a03e7a9-e623-43fe-99c0-8c16e6af2b40"},"vehicle_type_id":"4","last_reported":1734390546,"current_range_meters":14400,"station_id":"","pricing_plan_id":"cebpf4jnsgd1na2vs0mg"},{"bike_id":"32d1df07-0c63-4e6c-87ad-7c97c2cbc8ce","system_id":"levelo_inurba_marseille","lat":43.30886,"lon":5.39646,"is_reserved":false,"is_disabled":false,"rental_uris":{"android":"levelo://app?vid=32d1df07-0c63-4e6c-87ad-7c97c2cbc8ce","ios":"levelo://app?vid=32d1df07-0c63-4e6c-87ad-7c97c2cbc8ce"},"vehicle_type_id":"4","last_reported":1734390546,"current_range_meters":18800,"station_id":"ce4bh012rcd13ifvqcv0","pricing_plan_id":"cebpf4jnsgd1na2vs0mg"},{"bike_id":"b10d48f1-c7ec-4c0f-a97b-b71c2f6a750b","system_id":"levelo_inurba_marseille","lat":43.28934,"lon":5.36387,"is_reserved":false,"is_disabled":false,"rental_uris":{"android":"levelo://app?vid=b10d48f1-c7ec-4c0f-a97b-b71c2f6a750b","ios":"levelo://app?vid=b10d48f1-c7ec-4c0f-a97b-b71c2f6a750b"},"vehicle_type_id":"4","last_reported":1734390546,"current_range_meters":30000,"station_id":"ce4bhc92rcd13ifvqetg","pricing_plan_id":"cebpf4jnsgd1na2vs0mg"},{"bike_id":"0e009e2b-5946-4a59-bf02-ae4910d6465b","system_id":"levelo_inurba_marseille","lat":43.29552,"lon":5.42282,"is_reserved":false,"is_disabled":false,"rental_uris":{"android":"levelo://app?vid=0e009e2b-5946-4a59-bf02-ae4910d6465b","ios":"levelo://app?vid=0e009e2b-5946-4a59-bf02-ae4910d6465b"},"vehicle_type_id":"4","last_reported":1734390546,"current_range_meters":8800,"station_id":"ce4bhph2rcd13ifvqhdg","pricing_plan_id":"cebpf4jnsgd1na2vs0mg"},{"bike_id":"d82023e7-5914-44f9-8b97-0992779a3467","system_id":"levelo_inurba_marseille","lat":43.24542,"lon":5.39523,"is_reserved":false,"is_disabled":false,"rental_uris":{"android":"levelo://app?vid=d82023e7-5914-44f9-8b97-0992779a3467","ios":"levelo://app?vid=d82023e7-5914-44f9-8b97-0992779a3467"},"vehicle_type_id":"4","last_reported":1734390546,"current_range_meters":39200,"station_id":"ce4bhlp2rcd13ifvqgjg","pricing_plan_id":"cebpf4jnsgd1na2vs0mg"},{"bike_id":"0e2e421d-cab6-4bab-ab43-0de2daec6dd5","system_id":"levelo_inurba_marseille","lat":43.278805,"lon":5.388003,"is_reserved":false,"is_disabled":true,"rental_uris":{"android":"levelo://app?vid=0e2e421d-cab6-4bab-ab43-0de2daec6dd5","ios":"levelo://app?vid=0e2e421d-cab6-4bab-ab43-0de2daec6dd5"},"vehicle_type_id":"4","last_reported":1734390546,"current_range_meters":0,"station_id":"","pricing_plan_id":"cebpf4jnsgd1na2vs0mg"},{"bike_id":"bf85f0b9-c86c-43a7-bfe7-23af3028a90a","system_id":"levelo_inurba_marseille","lat":43.25585,"lon":5.38233,"is_reserved":false,"is_disabled":false,"rental_uris":{"android":"levelo://app?vid=bf85f0b9-c86c-43a7-bfe7-23af3028a90a","ios":"levelo://app?vid=bf85f0b9-c86c-43a7-bfe7-23af3028a90a"},"vehicle_type_id":"4","last_reported":1734390546,"current_range_meters":38800,"station_id":"ce4bhih2rcd13ifvqfs0","pricing_plan_id":"cebpf4jnsgd1na2vs0mg"},{"bike_id":"25c0c336-834d-421d-b66d-e51c42a0ba97","system_id":"levelo_inurba_marseille","lat":43.30721,"lon":5.368215,"is_reserved":false,"is_disabled":false,"rental_uris":{"android":"levelo://app?vid=25c0c336-834d-421d-b66d-e51c42a0ba97","ios":"levelo://app?vid=25c0c336-834d-421d-b66d-e51c42a0ba97"},"vehicle_type_id":"4","last_reported":1734390546,"current_range_meters":22000,"station_id":"","pricing_plan_id":"cebpf4jnsgd1na2vs0mg"},{"bike_id":"048041f3-0a08-4bb3-967a-efe1acd6593e","system_id":"levelo_inurba_marseille","lat":43.255,"lon":5.3764,"is_reserved":false,"is_disabled":false,"rental_uris":{"android":"levelo://app?vid=048041f3-0a08-4bb3-967a-efe1acd6593e","ios":"levelo://app?vid=048041f3-0a08-4bb3-967a-efe1acd6593e"},"vehicle_type_id":"4","last_reported":1734390546,"current_range_meters":38400,"station_id":"ce4bhh12rcd13ifvqff0","pricing_plan_id":"cebpf4jnsgd1na2vs0mg"},{"bike_id":"5e10a06f-6d61-4ebb-9345-c784442507a3","system_id":"levelo_inurba_marseille","lat":43.32471,"lon":5.36567,"is_reserved":false,"is_disabled":true,"rental_uris":{"android":"levelo://app?vid=5e10a06f-6d61-4ebb-9345-c784442507a3","ios":"levelo://app?vid=5e10a06f-6d61-4ebb-9345-c784442507a3"},"vehicle_type_id":"4","last_reported":1734390546,"current_range_meters":33200,"station_id":"ce4bhs12rcd13ifvqhvg","pricing_plan_id":"cebpf4jnsgd1na2vs0mg"},{"bike_id":"1469fe98-071b-47c8-a80a-3e20f248b4b8","system_id":"levelo_inurba_marseille","lat":43.28104,"lon":5.37873,"is_reserved":false,"is_disabled":false,"rental_uris":{"android":"levelo://app?vid=1469fe98-071b-47c8-a80a-3e20f248b4b8","ios":"levelo://app?vid=1469fe98-071b-47c8-a80a-3e20f248b4b8"},"vehicle_type_id":"4","last_reported":1734390546,"current_range_meters":38800,"station_id":"ce4bha12rcd13ifvqee0","pricing_plan_id":"cebpf4jnsgd1na2vs0mg"},{"bike_id":"54a85025-694f-47a0-8f8f-7005fb77c937","system_id":"levelo_inurba_marseille","lat":43.28082,"lon":5.39648,"is_reserved":false,"is_disabled":false,"rental_uris":{"android":"levelo://app?vid=54a85025-694f-47a0-8f8f-7005fb77c937","ios":"levelo://app?vid=54a85025-694f-47a0-8f8f-7005fb77c937"},"vehicle_type_id":"4","last_reported":1734390546,"current_range_meters":37600,"station_id":"ce4bho12rcd13ifvqh2g","pricing_plan_id":"cebpf4jnsgd1na2vs0mg"},{"bike_id":"d91e2578-e2ed-4931-9142-db3aa779df9b","system_id":"levelo_inurba_marseille","lat":43.27836,"lon":5.39195,"is_reserved":false,"is_disabled":false,"rental_uris":{"android":"levelo://app?vid=d91e2578-e2ed-4931-9142-db3aa779df9b","ios":"levelo://app?vid=d91e2578-e2ed-4931-9142-db3aa779df9b"},"vehicle_type_id":"4","last_reported":1734390546,"current_range_meters":25200,"station_id":"ce4bhjp2rcd13ifvqga0","pricing_plan_id":"cebpf4jnsgd1na2vs0mg"},{"bike_id":"584b569e-7298-4afe-b48b-612c38273697","system_id":"levelo_inurba_marseille","lat":43.31071,"lon":5.3835,"is_reserved":false,"is_disabled":true,"rental_uris":{"android":"levelo://app?vid=584b569e-7298-4afe-b48b-612c38273697","ios":"levelo://app?vid=584b569e-7298-4afe-b48b-612c38273697"},"vehicle_type_id":"4","last_reported":1734390546,"current_range_meters":0,"station_id":"ce4bgv92rcd13ifvqcr0","pricing_plan_id":"cebpf4jnsgd1na2vs0mg"},{"bike_id":"6fcca420-7b9a-4500-9580-675e569a2a96","system_id":"levelo_inurba_marseille","lat":43.26562,"lon":5.37273,"is_reserved":false,"is_disabled":false,"rental_uris":{"android":"levelo://app?vid=6fcca420-7b9a-4500-9580-675e569a2a96","ios":"levelo://app?vid=6fcca420-7b9a-4500-9580-675e569a2a96"},"vehicle_type_id":"4","last_reported":1734390546,"current_range_meters":25200,"station_id":"ce4bhg12rcd13ifvqf70","pricing_plan_id":"cebpf4jnsgd1na2vs0mg"},{"bike_id":"120abb77-5811-4e7b-9581-8e972edf37fd","system_id":"levelo_inurba_marseille","lat":43.29787,"lon":5.37111,"is_reserved":false,"is_disabled":true,"rental_uris":{"android":"levelo://app?vid=120abb77-5811-4e7b-9581-8e972edf37fd","ios":"levelo://app?vid=120abb77-5811-4e7b-9581-8e972edf37fd"},"vehicle_type_id":"4","last_reported":1734390546,"current_range_meters":38800,"station_id":"ce4bgop2rcd13ifvqc1g","pricing_plan_id":"cebpf4jnsgd1na2vs0mg"},{"bike_id":"11600c38-dc3d-4aea-88bc-c214298d70f1","system_id":"levelo_inurba_marseille","lat":43.28467,"lon":5.35895,"is_reserved":false,"is_disabled":false,"rental_uris":{"android":"levelo://app?vid=11600c38-dc3d-4aea-88bc-c214298d70f1","ios":"levelo://app?vid=11600c38-dc3d-4aea-88bc-c214298d70f1"},"vehicle_type_id":"4","last_reported":1734390546,"current_range_meters":37600,"station_id":"ce4bhah2rcd13ifvqei0","pricing_plan_id":"cebpf4jnsgd1na2vs0mg"},{"bike_id":"2b15d063-7a3f-4ab1-9a96-79820bd042f5","system_id":"levelo_inurba_marseille","lat":43.30197,"lon":5.39996,"is_reserved":false,"is_disabled":true,"rental_uris":{"android":"levelo://app?vid=2b15d063-7a3f-4ab1-9a96-79820bd042f5","ios":"levelo://app?vid=2b15d063-7a3f-4ab1-9a96-79820bd042f5"},"vehicle_type_id":"4","last_reported":1734390546,"current_range_meters":19200,"station_id":"","pricing_plan_id":"cebpf4jnsgd1na2vs0mg"},{"bike_id":"bfe5e067-4070-40f8-8cac-6448828a3f77","system_id":"levelo_inurba_marseille","lat":43.29912,"lon":5.39723,"is_reserved":false,"is_disabled":false,"rental_uris":{"android":"levelo://app?vid=bfe5e067-4070-40f8-8cac-6448828a3f77","ios":"levelo://app?vid=bfe5e067-4070-40f8-8cac-6448828a3f77"},"vehicle_type_id":"4","last_reported":1734390546,"current_range_meters":39200,"station_id":"ce4bh0h2rcd13ifvqd50","pricing_plan_id":"cebpf4jnsgd1na2vs0mg"},{"bike_id":"a8e8da64-46d2-4140-a717-5860e695aab7","system_id":"levelo_inurba_marseille","lat":43.28354,"lon":5.38103,"is_reserved":false,"is_disabled":false,"rental_uris":{"android":"levelo://app?vid=a8e8da64-46d2-4140-a717-5860e695aab7","ios":"levelo://app?vid=a8e8da64-46d2-4140-a717-5860e695aab7"},"vehicle_type_id":"4","last_reported":1734390546,"current_range_meters":39200,"station_id":"ce4bh412rcd13ifvqdr0","pricing_plan_id":"cebpf4jnsgd1na2vs0mg"},{"bike_id":"54c11d0c-45a0-42d8-8ca0-d10a61cb44e5","system_id":"levelo_inurba_marseille","lat":43.26545,"lon":5.37279,"is_reserved":false,"is_disabled":false,"rental_uris":{"android":"levelo://app?vid=54c11d0c-45a0-42d8-8ca0-d10a61cb44e5","ios":"levelo://app?vid=54c11d0c-45a0-42d8-8ca0-d10a61cb44e5"},"vehicle_type_id":"4","last_reported":1734390546,"current_range_meters":31200,"station_id":"ce4bhg12rcd13ifvqf70","pricing_plan_id":"cebpf4jnsgd1na2vs0mg"},{"bike_id":"f242655b-7364-45a2-a306-4028b49a3316","system_id":"levelo_inurba_marseille","lat":43.25503,"lon":5.3765,"is_reserved":false,"is_disabled":false,"rental_uris":{"android":"levelo://app?vid=f242655b-7364-45a2-a306-4028b49a3316","ios":"levelo://app?vid=f242655b-7364-45a2-a306-4028b49a3316"},"vehicle_type_id":"4","last_reported":1734390546,"current_range_meters":37600,"station_id":"ce4bhh12rcd13ifvqff0","pricing_plan_id":"cebpf4jnsgd1na2vs0mg"},{"bike_id":"2b0d00ea-e18e-4e2b-9087-38d7d88e3458","system_id":"levelo_inurba_marseille","lat":43.28939,"lon":5.36393,"is_reserved":false,"is_disabled":false,"rental_uris":{"android":"levelo://app?vid=2b0d00ea-e18e-4e2b-9087-38d7d88e3458","ios":"levelo://app?vid=2b0d00ea-e18e-4e2b-9087-38d7d88e3458"},"vehicle_type_id":"4","last_reported":1734390546,"current_range_meters":38400,"station_id":"ce4bhc92rcd13ifvqetg","pricing_plan_id":"cebpf4jnsgd1na2vs0mg"},{"bike_id":"8c7e2759-1761-4283-8484-bda9243b869e","system_id":"levelo_inurba_marseille","lat":43.32487,"lon":5.3656,"is_reserved":false,"is_disabled":false,"rental_uris":{"android":"levelo://app?vid=8c7e2759-1761-4283-8484-bda9243b869e","ios":"levelo://app?vid=8c7e2759-1761-4283-8484-bda9243b869e"},"vehicle_type_id":"4","last_reported":1734390546,"current_range_meters":36000,"station_id":"ce4bhs12rcd13ifvqhvg","pricing_plan_id":"cebpf4jnsgd1na2vs0mg"},{"bike_id":"5e68685b-5a26-4a2c-81cf-c3ecf4f3378f","system_id":"levelo_inurba_marseille","lat":43.28457,"lon":5.35877,"is_reserved":false,"is_disabled":false,"rental_uris":{"android":"levelo://app?vid=5e68685b-5a26-4a2c-81cf-c3ecf4f3378f","ios":"levelo://app?vid=5e68685b-5a26-4a2c-81cf-c3ecf4f3378f"},"vehicle_type_id":"4","last_reported":1734390546,"current_range_meters":32800,"station_id":"ce4bhah2rcd13ifvqei0","pricing_plan_id":"cebpf4jnsgd1na2vs0mg"},{"bike_id":"57dd0c1d-c442-4111-819c-722da721fac4","system_id":"levelo_inurba_marseille","lat":43.29876,"lon":5.38902,"is_reserved":false,"is_disabled":false,"rental_uris":{"android":"levelo://app?vid=57dd0c1d-c442-4111-819c-722da721fac4","ios":"levelo://app?vid=57dd0c1d-c442-4111-819c-722da721fac4"},"vehicle_type_id":"4","last_reported":1734390546,"current_range_meters":38000,"station_id":"ce4bh392rcd13ifvqdl0","pricing_plan_id":"cebpf4jnsgd1na2vs0mg"},{"bike_id":"75381ebb-7f9a-4c94-ac36-241bce803fb3","system_id":"levelo_inurba_marseille","lat":43.29575,"lon":5.39979,"is_reserved":false,"is_disabled":false,"rental_uris":{"android":"levelo://app?vid=75381ebb-7f9a-4c94-ac36-241bce803fb3","ios":"levelo://app?vid=75381ebb-7f9a-4c94-ac36-241bce803fb3"},"vehicle_type_id":"4","last_reported":1734390546,"current_range_meters":29600,"station_id":"ce4bh312rcd13ifvqdj0","pricing_plan_id":"cebpf4jnsgd1na2vs0mg"},{"bike_id":"d600d5f9-a3e6-4b94-ba8f-df9f8ed10059","system_id":"levelo_inurba_marseille","lat":43.24545,"lon":5.39521,"is_reserved":false,"is_disabled":false,"rental_uris":{"android":"levelo://app?vid=d600d5f9-a3e6-4b94-ba8f-df9f8ed10059","ios":"levelo://app?vid=d600d5f9-a3e6-4b94-ba8f-df9f8ed10059"},"vehicle_type_id":"4","last_reported":1734390546,"current_range_meters":14400,"station_id":"ce4bhlp2rcd13ifvqgjg","pricing_plan_id":"cebpf4jnsgd1na2vs0mg"},{"bike_id":"6bcea96b-2fd2-4aa6-b10c-d89cef8832d2","system_id":"levelo_inurba_marseille","lat":43.29251,"lon":5.40906,"is_reserved":false,"is_disabled":false,"rental_uris":{"android":"levelo://app?vid=6bcea96b-2fd2-4aa6-b10c-d89cef8832d2","ios":"levelo://app?vid=6bcea96b-2fd2-4aa6-b10c-d89cef8832d2"},"vehicle_type_id":"4","last_reported":1734390546,"current_range_meters":38400,"station_id":"ce4bh192rcd13ifvqdc0","pricing_plan_id":"cebpf4jnsgd1na2vs0mg"},{"bike_id":"d56b8641-06e1-4323-9a69-75ab328d3cd1","system_id":"levelo_inurba_marseille","lat":43.23188,"lon":5.39977,"is_reserved":false,"is_disabled":false,"rental_uris":{"android":"levelo://app?vid=d56b8641-06e1-4323-9a69-75ab328d3cd1","ios":"levelo://app?vid=d56b8641-06e1-4323-9a69-75ab328d3cd1"},"vehicle_type_id":"4","last_reported":1734390546,"current_range_meters":38800,"station_id":"ce4bhn12rcd13ifvqgqg","pricing_plan_id":"cebpf4jnsgd1na2vs0mg"},{"bike_id":"76ec3642-6b04-4fa3-81b8-996f867e214d","system_id":"levelo_inurba_marseille","lat":43.24168,"lon":5.3968,"is_reserved":false,"is_disabled":true,"rental_uris":{"android":"levelo://app?vid=76ec3642-6b04-4fa3-81b8-996f867e214d","ios":"levelo://app?vid=76ec3642-6b04-4fa3-81b8-996f867e214d"},"vehicle_type_id":"4","last_reported":1734390546,"current_range_meters":16000,"station_id":"ce4bhn12rcd13ifvqgpg","pricing_plan_id":"cebpf4jnsgd1na2vs0mg"},{"bike_id":"b086f938-3dea-4025-a3c6-185d7dca2dfd","system_id":"levelo_inurba_marseille","lat":43.29625,"lon":5.37711,"is_reserved":false,"is_disabled":true,"rental_uris":{"android":"levelo://app?vid=b086f938-3dea-4025-a3c6-185d7dca2dfd","ios":"levelo://app?vid=b086f938-3dea-4025-a3c6-185d7dca2dfd"},"vehicle_type_id":"4","last_reported":1734390546,"current_range_meters":0,"station_id":"ce4bgi92rcd13ifvqb90","pricing_plan_id":"cebpf4jnsgd1na2vs0mg"},{"bike_id":"79f3ae0d-6333-4e50-b3b7-522f8072751f","system_id":"levelo_inurba_marseille","lat":43.33607,"lon":5.41026,"is_reserved":false,"is_disabled":false,"rental_uris":{"android":"levelo://app?vid=79f3ae0d-6333-4e50-b3b7-522f8072751f","ios":"levelo://app?vid=79f3ae0d-6333-4e50-b3b7-522f8072751f"},"vehicle_type_id":"4","last_reported":1734390546,"current_range_meters":28000,"station_id":"ce4bhqh2rcd13ifvqhmg","pricing_plan_id":"cebpf4jnsgd1na2vs0mg"},{"bike_id":"ac9d3cf6-aaeb-482e-8ebb-d3183ed5b44c","system_id":"levelo_inurba_marseille","lat":43.3177,"lon":5.39008,"is_reserved":false,"is_disabled":false,"rental_uris":{"android":"levelo://app?vid=ac9d3cf6-aaeb-482e-8ebb-d3183ed5b44c","ios":"levelo://app?vid=ac9d3cf6-aaeb-482e-8ebb-d3183ed5b44c"},"vehicle_type_id":"4","last_reported":1734390546,"current_range_meters":23200,"station_id":"ce4bhqp2rcd13ifvqhng","pricing_plan_id":"cebpf4jnsgd1na2vs0mg"},{"bike_id":"d97fe5f2-9491-4c9e-bede-890204658da0","system_id":"levelo_inurba_marseille","lat":43.2845,"lon":5.35879,"is_reserved":false,"is_disabled":false,"rental_uris":{"android":"levelo://app?vid=d97fe5f2-9491-4c9e-bede-890204658da0","ios":"levelo://app?vid=d97fe5f2-9491-4c9e-bede-890204658da0"},"vehicle_type_id":"4","last_reported":1734390546,"current_range_meters":38400,"station_id":"ce4bhah2rcd13ifvqei0","pricing_plan_id":"cebpf4jnsgd1na2vs0mg"},{"bike_id":"b38afd42-c0ab-4d89-bb51-653c55809745","system_id":"levelo_inurba_marseille","lat":43.31321,"lon":5.39684,"is_reserved":false,"is_disabled":false,"rental_uris":{"android":"levelo://app?vid=b38afd42-c0ab-4d89-bb51-653c55809745","ios":"levelo://app?vid=b38afd42-c0ab-4d89-bb51-653c55809745"},"vehicle_type_id":"4","last_reported":1734390546,"current_range_meters":39200,"station_id":"ce4bgvp2rcd13ifvqcu0","pricing_plan_id":"cebpf4jnsgd1na2vs0mg"},{"bike_id":"c23cd138-2a8f-4687-846c-ea5d55e0bd33","system_id":"levelo_inurba_marseille","lat":43.30122,"lon":5.39854,"is_reserved":false,"is_disabled":false,"rental_uris":{"android":"levelo://app?vid=c23cd138-2a8f-4687-846c-ea5d55e0bd33","ios":"levelo://app?vid=c23cd138-2a8f-4687-846c-ea5d55e0bd33"},"vehicle_type_id":"4","last_reported":1734390546,"current_range_meters":38800,"station_id":"ce4bh0h2rcd13ifvqd40","pricing_plan_id":"cebpf4jnsgd1na2vs0mg"},{"bike_id":"689314f8-8b91-45a3-a724-ebaceb481789","system_id":"levelo_inurba_marseille","lat":43.28408,"lon":5.37513,"is_reserved":false,"is_disabled":false,"rental_uris":{"android":"levelo://app?vid=689314f8-8b91-45a3-a724-ebaceb481789","ios":"levelo://app?vid=689314f8-8b91-45a3-a724-ebaceb481789"},"vehicle_type_id":"4","last_reported":1734390546,"current_range_meters":22800,"station_id":"ce4bh412rcd13ifvqds0","pricing_plan_id":"cebpf4jnsgd1na2vs0mg"},{"bike_id":"6b2019df-57c6-4717-bb28-99523c4cbdf8","system_id":"levelo_inurba_marseille","lat":43.29528,"lon":5.39017,"is_reserved":false,"is_disabled":true,"rental_uris":{"android":"levelo://app?vid=6b2019df-57c6-4717-bb28-99523c4cbdf8","ios":"levelo://app?vid=6b2019df-57c6-4717-bb28-99523c4cbdf8"},"vehicle_type_id":"4","last_reported":1734390546,"current_range_meters":8000,"station_id":"ce4bh3p2rcd13ifvqdp0","pricing_plan_id":"cebpf4jnsgd1na2vs0mg"},{"bike_id":"e6d61402-c937-4e29-8dec-b52b2a0c0925","system_id":"levelo_inurba_marseille","lat":43.28568,"lon":5.39485,"is_reserved":false,"is_disabled":false,"rental_uris":{"android":"levelo://app?vid=e6d61402-c937-4e29-8dec-b52b2a0c0925","ios":"levelo://app?vid=e6d61402-c937-4e29-8dec-b52b2a0c0925"},"vehicle_type_id":"4","last_reported":1734390546,"current_range_meters":38800,"station_id":"ce4bh292rcd13ifvqdg0","pricing_plan_id":"cebpf4jnsgd1na2vs0mg"},{"bike_id":"e065b5be-c5e3-43d4-a354-7a691953a7d3","system_id":"levelo_inurba_marseille","lat":43.28937,"lon":5.39625,"is_reserved":false,"is_disabled":false,"rental_uris":{"android":"levelo://app?vid=e065b5be-c5e3-43d4-a354-7a691953a7d3","ios":"levelo://app?vid=e065b5be-c5e3-43d4-a354-7a691953a7d3"},"vehicle_type_id":"4","last_reported":1734390546,"current_range_meters":38800,"station_id":"ce4bh3h2rcd13ifvqdn0","pricing_plan_id":"cebpf4jnsgd1na2vs0mg"},{"bike_id":"4375d76a-dfa4-4b4b-b81c-b45a1fb8d4ca","system_id":"levelo_inurba_marseille","lat":43.28944,"lon":5.364,"is_reserved":false,"is_disabled":false,"rental_uris":{"android":"levelo://app?vid=4375d76a-dfa4-4b4b-b81c-b45a1fb8d4ca","ios":"levelo://app?vid=4375d76a-dfa4-4b4b-b81c-b45a1fb8d4ca"},"vehicle_type_id":"4","last_reported":1734390546,"current_range_meters":36400,"station_id":"ce4bhc92rcd13ifvqetg","pricing_plan_id":"cebpf4jnsgd1na2vs0mg"},{"bike_id":"0ff63b43-e762-4853-8e57-8ec84f36bda7","system_id":"levelo_inurba_marseille","lat":43.3117,"lon":5.38702,"is_reserved":false,"is_disabled":false,"rental_uris":{"android":"levelo://app?vid=0ff63b43-e762-4853-8e57-8ec84f36bda7","ios":"levelo://app?vid=0ff63b43-e762-4853-8e57-8ec84f36bda7"},"vehicle_type_id":"4","last_reported":1734390546,"current_range_meters":33200,"station_id":"ce4bgv12rcd13ifvqcp0","pricing_plan_id":"cebpf4jnsgd1na2vs0mg"},{"bike_id":"3adf56f7-e398-4f39-9aed-d791bf6ebdd6","system_id":"levelo_inurba_marseille","lat":43.26493,"lon":5.39534,"is_reserved":false,"is_disabled":false,"rental_uris":{"android":"levelo://app?vid=3adf56f7-e398-4f39-9aed-d791bf6ebdd6","ios":"levelo://app?vid=3adf56f7-e398-4f39-9aed-d791bf6ebdd6"},"vehicle_type_id":"4","last_reported":1734390546,"current_range_meters":12400,"station_id":"ce4bhi12rcd13ifvqfq0","pricing_plan_id":"cebpf4jnsgd1na2vs0mg"},{"bike_id":"730a6134-88d8-47e4-be24-a87eaceaba81","system_id":"levelo_inurba_marseille","lat":43.27917,"lon":5.39557,"is_reserved":false,"is_disabled":false,"rental_uris":{"android":"levelo://app?vid=730a6134-88d8-47e4-be24-a87eaceaba81","ios":"levelo://app?vid=730a6134-88d8-47e4-be24-a87eaceaba81"},"vehicle_type_id":"4","last_reported":1734390546,"current_range_meters":38800,"station_id":"ce4bhf92rcd13ifvqf40","pricing_plan_id":"cebpf4jnsgd1na2vs0mg"},{"bike_id":"5b0cdc9a-aa12-4c24-86b8-81ee92b220ac","system_id":"levelo_inurba_marseille","lat":43.29214,"lon":5.38001,"is_reserved":false,"is_disabled":false,"rental_uris":{"android":"levelo://app?vid=5b0cdc9a-aa12-4c24-86b8-81ee92b220ac","ios":"levelo://app?vid=5b0cdc9a-aa12-4c24-86b8-81ee92b220ac"},"vehicle_type_id":"4","last_reported":1734390546,"current_range_meters":36400,"station_id":"","pricing_plan_id":"cebpf4jnsgd1na2vs0mg"},{"bike_id":"bb1c0ef0-184d-4b17-9016-88e561b3d27b","system_id":"levelo_inurba_marseille","lat":43.28615,"lon":5.35099,"is_reserved":false,"is_disabled":true,"rental_uris":{"android":"levelo://app?vid=bb1c0ef0-184d-4b17-9016-88e561b3d27b","ios":"levelo://app?vid=bb1c0ef0-184d-4b17-9016-88e561b3d27b"},"vehicle_type_id":"4","last_reported":1734390546,"current_range_meters":25200,"station_id":"ce4bhch2rcd13ifvqeug","pricing_plan_id":"cebpf4jnsgd1na2vs0mg"},{"bike_id":"63e53b98-acea-4a22-8d02-003944a706e6","system_id":"levelo_inurba_marseille","lat":43.25703,"lon":5.41107,"is_reserved":false,"is_disabled":false,"rental_uris":{"android":"levelo://app?vid=63e53b98-acea-4a22-8d02-003944a706e6","ios":"levelo://app?vid=63e53b98-acea-4a22-8d02-003944a706e6"},"vehicle_type_id":"4","last_reported":1734390546,"current_range_meters":37600,"station_id":"ce4bhkp2rcd13ifvqgd0","pricing_plan_id":"cebpf4jnsgd1na2vs0mg"},{"bike_id":"7464f61b-492b-4f2c-b3c0-c83417d5a111","system_id":"levelo_inurba_marseille","lat":43.31172,"lon":5.38714,"is_reserved":false,"is_disabled":false,"rental_uris":{"android":"levelo://app?vid=7464f61b-492b-4f2c-b3c0-c83417d5a111","ios":"levelo://app?vid=7464f61b-492b-4f2c-b3c0-c83417d5a111"},"vehicle_type_id":"4","last_reported":1734390546,"current_range_meters":10800,"station_id":"ce4bgv12rcd13ifvqcp0","pricing_plan_id":"cebpf4jnsgd1na2vs0mg"},{"bike_id":"44861a73-1a94-4497-ad37-285de7daa1ae","system_id":"levelo_inurba_marseille","lat":43.28041,"lon":5.3694,"is_reserved":false,"is_disabled":false,"rental_uris":{"android":"levelo://app?vid=44861a73-1a94-4497-ad37-285de7daa1ae","ios":"levelo://app?vid=44861a73-1a94-4497-ad37-285de7daa1ae"},"vehicle_type_id":"4","last_reported":1734390546,"current_range_meters":38800,"station_id":"ce4bha12rcd13ifvqef0","pricing_plan_id":"cebpf4jnsgd1na2vs0mg"},{"bike_id":"c5595fd0-fc8e-462b-8984-5c1c92ed35f5","system_id":"levelo_inurba_marseille","lat":43.29553,"lon":5.42288,"is_reserved":false,"is_disabled":true,"rental_uris":{"android":"levelo://app?vid=c5595fd0-fc8e-462b-8984-5c1c92ed35f5","ios":"levelo://app?vid=c5595fd0-fc8e-462b-8984-5c1c92ed35f5"},"vehicle_type_id":"4","last_reported":1734390546,"current_range_meters":0,"station_id":"ce4bhph2rcd13ifvqhdg","pricing_plan_id":"cebpf4jnsgd1na2vs0mg"},{"bike_id":"d17068e4-bff5-4619-b1b5-acf62ffb0fb1","system_id":"levelo_inurba_marseille","lat":43.28859,"lon":5.35858,"is_reserved":false,"is_disabled":false,"rental_uris":{"android":"levelo://app?vid=d17068e4-bff5-4619-b1b5-acf62ffb0fb1","ios":"levelo://app?vid=d17068e4-bff5-4619-b1b5-acf62ffb0fb1"},"vehicle_type_id":"4","last_reported":1734390546,"current_range_meters":30400,"station_id":"ce4bhb12rcd13ifvqem0","pricing_plan_id":"cebpf4jnsgd1na2vs0mg"},{"bike_id":"ebaa68e4-3d1b-47af-9a69-6f7f2246f6e7","system_id":"levelo_inurba_marseille","lat":43.24673,"lon":5.38168,"is_reserved":false,"is_disabled":true,"rental_uris":{"android":"levelo://app?vid=ebaa68e4-3d1b-47af-9a69-6f7f2246f6e7","ios":"levelo://app?vid=ebaa68e4-3d1b-47af-9a69-6f7f2246f6e7"},"vehicle_type_id":"4","last_reported":1734390546,"current_range_meters":38800,"station_id":"ce4bhih2rcd13ifvqfr0","pricing_plan_id":"cebpf4jnsgd1na2vs0mg"},{"bike_id":"16ff838f-1cdb-4ddb-b5eb-dde2105d633a","system_id":"levelo_inurba_marseille","lat":43.26544,"lon":5.37279,"is_reserved":false,"is_disabled":false,"rental_uris":{"android":"levelo://app?vid=16ff838f-1cdb-4ddb-b5eb-dde2105d633a","ios":"levelo://app?vid=16ff838f-1cdb-4ddb-b5eb-dde2105d633a"},"vehicle_type_id":"4","last_reported":1734390546,"current_range_meters":28400,"station_id":"ce4bhg12rcd13ifvqf70","pricing_plan_id":"cebpf4jnsgd1na2vs0mg"},{"bike_id":"1273d0ea-868c-4b40-af39-d859d3abf9f5","system_id":"levelo_inurba_marseille","lat":43.24415,"lon":5.37033,"is_reserved":false,"is_disabled":false,"rental_uris":{"android":"levelo://app?vid=1273d0ea-868c-4b40-af39-d859d3abf9f5","ios":"levelo://app?vid=1273d0ea-868c-4b40-af39-d859d3abf9f5"},"vehicle_type_id":"4","last_reported":1734390546,"current_range_meters":38800,"station_id":"ce4bhhh2rcd13ifvqfk0","pricing_plan_id":"cebpf4jnsgd1na2vs0mg"},{"bike_id":"ed15a02e-1f11-4fab-be7c-ed27688f620c","system_id":"levelo_inurba_marseille","lat":43.31169,"lon":5.38714,"is_reserved":false,"is_disabled":false,"rental_uris":{"android":"levelo://app?vid=ed15a02e-1f11-4fab-be7c-ed27688f620c","ios":"levelo://app?vid=ed15a02e-1f11-4fab-be7c-ed27688f620c"},"vehicle_type_id":"4","last_reported":1734390546,"current_range_meters":22800,"station_id":"ce4bgv12rcd13ifvqcp0","pricing_plan_id":"cebpf4jnsgd1na2vs0mg"},{"bike_id":"8e7c3683-99a9-4188-89c4-858575c3d04c","system_id":"levelo_inurba_marseille","lat":43.27659,"lon":5.38922,"is_reserved":false,"is_disabled":true,"rental_uris":{"android":"levelo://app?vid=8e7c3683-99a9-4188-89c4-858575c3d04c","ios":"levelo://app?vid=8e7c3683-99a9-4188-89c4-858575c3d04c"},"vehicle_type_id":"4","last_reported":1734390546,"current_range_meters":33200,"station_id":"ce4bhi12rcd13ifvqfo0","pricing_plan_id":"cebpf4jnsgd1na2vs0mg"},{"bike_id":"7ffc1633-914a-4eb6-9724-b5bdd8050b1e","system_id":"levelo_inurba_marseille","lat":43.30907,"lon":5.36843,"is_reserved":false,"is_disabled":false,"rental_uris":{"android":"levelo://app?vid=7ffc1633-914a-4eb6-9724-b5bdd8050b1e","ios":"levelo://app?vid=7ffc1633-914a-4eb6-9724-b5bdd8050b1e"},"vehicle_type_id":"4","last_reported":1734390546,"current_range_meters":25200,"station_id":"ce4bgn92rcd13ifvqbvg","pricing_plan_id":"cebpf4jnsgd1na2vs0mg"},{"bike_id":"b2a6d57f-5052-4d3c-9a8b-5166108f0a2a","system_id":"levelo_inurba_marseille","lat":43.25867,"lon":5.39903,"is_reserved":false,"is_disabled":false,"rental_uris":{"android":"levelo://app?vid=b2a6d57f-5052-4d3c-9a8b-5166108f0a2a","ios":"levelo://app?vid=b2a6d57f-5052-4d3c-9a8b-5166108f0a2a"},"vehicle_type_id":"4","last_reported":1734390546,"current_range_meters":37600,"station_id":"ce4bhl92rcd13ifvqghg","pricing_plan_id":"cebpf4jnsgd1na2vs0mg"},{"bike_id":"4577e3e8-7ec6-4361-8738-81257af38076","system_id":"levelo_inurba_marseille","lat":43.28419,"lon":5.34988,"is_reserved":false,"is_disabled":false,"rental_uris":{"android":"levelo://app?vid=4577e3e8-7ec6-4361-8738-81257af38076","ios":"levelo://app?vid=4577e3e8-7ec6-4361-8738-81257af38076"},"vehicle_type_id":"4","last_reported":1734390546,"current_range_meters":38400,"station_id":"ce4bhbh2rcd13ifvqepg","pricing_plan_id":"cebpf4jnsgd1na2vs0mg"},{"bike_id":"add9ba96-7459-451c-8e6d-baaa8033dc3a","system_id":"levelo_inurba_marseille","lat":43.29787,"lon":5.39333,"is_reserved":false,"is_disabled":false,"rental_uris":{"android":"levelo://app?vid=add9ba96-7459-451c-8e6d-baaa8033dc3a","ios":"levelo://app?vid=add9ba96-7459-451c-8e6d-baaa8033dc3a"},"vehicle_type_id":"4","last_reported":1734390546,"current_range_meters":35600,"station_id":"chh1huq6cuj3fo74tm60","pricing_plan_id":"cebpf4jnsgd1na2vs0mg"},{"bike_id":"aed794a0-7229-469a-a13b-e3b6912de584","system_id":"levelo_inurba_marseille","lat":43.31172,"lon":5.3871,"is_reserved":false,"is_disabled":false,"rental_uris":{"android":"levelo://app?vid=aed794a0-7229-469a-a13b-e3b6912de584","ios":"levelo://app?vid=aed794a0-7229-469a-a13b-e3b6912de584"},"vehicle_type_id":"4","last_reported":1734390546,"current_range_meters":27200,"station_id":"ce4bgv12rcd13ifvqcp0","pricing_plan_id":"cebpf4jnsgd1na2vs0mg"},{"bike_id":"df3c5b33-0731-4d28-883c-1a4af4ad0ec4","system_id":"levelo_inurba_marseille","lat":43.26211,"lon":5.37444,"is_reserved":false,"is_disabled":false,"rental_uris":{"android":"levelo://app?vid=df3c5b33-0731-4d28-883c-1a4af4ad0ec4","ios":"levelo://app?vid=df3c5b33-0731-4d28-883c-1a4af4ad0ec4"},"vehicle_type_id":"4","last_reported":1734390546,"current_range_meters":23200,"station_id":"ce4bhgp2rcd13ifvqfc0","pricing_plan_id":"cebpf4jnsgd1na2vs0mg"},{"bike_id":"fce89ad1-8179-44ba-bc08-912eb64808ee","system_id":"levelo_inurba_marseille","lat":43.28069,"lon":5.39546,"is_reserved":false,"is_disabled":false,"rental_uris":{"android":"levelo://app?vid=fce89ad1-8179-44ba-bc08-912eb64808ee","ios":"levelo://app?vid=fce89ad1-8179-44ba-bc08-912eb64808ee"},"vehicle_type_id":"4","last_reported":1734390546,"current_range_meters":39200,"station_id":"ce4bho12rcd13ifvqh2g","pricing_plan_id":"cebpf4jnsgd1na2vs0mg"},{"bike_id":"d866e701-7bee-4d60-b865-75d9d70ca9ec","system_id":"levelo_inurba_marseille","lat":43.28949,"lon":5.36631,"is_reserved":false,"is_disabled":false,"rental_uris":{"android":"levelo://app?vid=d866e701-7bee-4d60-b865-75d9d70ca9ec","ios":"levelo://app?vid=d866e701-7bee-4d60-b865-75d9d70ca9ec"},"vehicle_type_id":"4","last_reported":1734390546,"current_range_meters":38800,"station_id":"ce4bhap2rcd13ifvqek0","pricing_plan_id":"cebpf4jnsgd1na2vs0mg"},{"bike_id":"634d2e71-146f-4227-9767-7f1beb597766","system_id":"levelo_inurba_marseille","lat":43.29321,"lon":5.41164,"is_reserved":false,"is_disabled":true,"rental_uris":{"android":"levelo://app?vid=634d2e71-146f-4227-9767-7f1beb597766","ios":"levelo://app?vid=634d2e71-146f-4227-9767-7f1beb597766"},"vehicle_type_id":"4","last_reported":1734390546,"current_range_meters":0,"station_id":"","pricing_plan_id":"cebpf4jnsgd1na2vs0mg"},{"bike_id":"22cdc9c4-7a19-4a8e-bb87-e0f99073fc60","system_id":"levelo_inurba_marseille","lat":43.27936,"lon":5.41035,"is_reserved":false,"is_disabled":false,"rental_uris":{"android":"levelo://app?vid=22cdc9c4-7a19-4a8e-bb87-e0f99073fc60","ios":"levelo://app?vid=22cdc9c4-7a19-4a8e-bb87-e0f99073fc60"},"vehicle_type_id":"4","last_reported":1734390546,"current_range_meters":22400,"station_id":"ce4bhnp2rcd13ifvqh0g","pricing_plan_id":"cebpf4jnsgd1na2vs0mg"},{"bike_id":"cbd46a1e-a30c-4edf-bd43-7bd67d2d18c8","system_id":"levelo_inurba_marseille","lat":43.28925,"lon":5.36387,"is_reserved":false,"is_disabled":false,"rental_uris":{"android":"levelo://app?vid=cbd46a1e-a30c-4edf-bd43-7bd67d2d18c8","ios":"levelo://app?vid=cbd46a1e-a30c-4edf-bd43-7bd67d2d18c8"},"vehicle_type_id":"4","last_reported":1734390546,"current_range_meters":39200,"station_id":"ce4bhc92rcd13ifvqetg","pricing_plan_id":"cebpf4jnsgd1na2vs0mg"},{"bike_id":"6afe920d-4000-429a-84e5-416689c1fee2","system_id":"levelo_inurba_marseille","lat":43.2886,"lon":5.3586,"is_reserved":false,"is_disabled":false,"rental_uris":{"android":"levelo://app?vid=6afe920d-4000-429a-84e5-416689c1fee2","ios":"levelo://app?vid=6afe920d-4000-429a-84e5-416689c1fee2"},"vehicle_type_id":"4","last_reported":1734390546,"current_range_meters":38800,"station_id":"ce4bhb12rcd13ifvqem0","pricing_plan_id":"cebpf4jnsgd1na2vs0mg"},{"bike_id":"e14b8748-e4dd-4eba-9e7f-1675e71e7a55","system_id":"levelo_inurba_marseille","lat":43.2681,"lon":5.40269,"is_reserved":false,"is_disabled":false,"rental_uris":{"android":"levelo://app?vid=e14b8748-e4dd-4eba-9e7f-1675e71e7a55","ios":"levelo://app?vid=e14b8748-e4dd-4eba-9e7f-1675e71e7a55"},"vehicle_type_id":"4","last_reported":1734390546,"current_range_meters":39200,"station_id":"ce501612rcd8frsf0b60","pricing_plan_id":"cebpf4jnsgd1na2vs0mg"},{"bike_id":"9f319d58-4e1f-4982-b409-b9dae2c131f9","system_id":"levelo_inurba_marseille","lat":43.2906,"lon":5.35907,"is_reserved":false,"is_disabled":false,"rental_uris":{"android":"levelo://app?vid=9f319d58-4e1f-4982-b409-b9dae2c131f9","ios":"levelo://app?vid=9f319d58-4e1f-4982-b409-b9dae2c131f9"},"vehicle_type_id":"4","last_reported":1734390546,"current_range_meters":38400,"station_id":"ce4bha92rcd13ifvqeg0","pricing_plan_id":"cebpf4jnsgd1na2vs0mg"},{"bike_id":"51d84435-6690-4d85-963e-bbaae1721698","system_id":"levelo_inurba_marseille","lat":43.289332,"lon":5.363923,"is_reserved":false,"is_disabled":false,"rental_uris":{"android":"levelo://app?vid=51d84435-6690-4d85-963e-bbaae1721698","ios":"levelo://app?vid=51d84435-6690-4d85-963e-bbaae1721698"},"vehicle_type_id":"4","last_reported":1734390546,"current_range_meters":39200,"station_id":"ce4bhc92rcd13ifvqetg","pricing_plan_id":"cebpf4jnsgd1na2vs0mg"},{"bike_id":"03156a43-27f1-4d88-b75f-6e81fc09e3fc","system_id":"levelo_inurba_marseille","lat":43.31889,"lon":5.40727,"is_reserved":false,"is_disabled":false,"rental_uris":{"android":"levelo://app?vid=03156a43-27f1-4d88-b75f-6e81fc09e3fc","ios":"levelo://app?vid=03156a43-27f1-4d88-b75f-6e81fc09e3fc"},"vehicle_type_id":"4","last_reported":1734390546,"current_range_meters":30400,"station_id":"ce4bhq12rcd13ifvqhig","pricing_plan_id":"cebpf4jnsgd1na2vs0mg"},{"bike_id":"95cb1a12-3d24-4b7c-8cc9-a0c3e83a05b3","system_id":"levelo_inurba_marseille","lat":43.29193,"lon":5.35805,"is_reserved":false,"is_disabled":false,"rental_uris":{"android":"levelo://app?vid=95cb1a12-3d24-4b7c-8cc9-a0c3e83a05b3","ios":"levelo://app?vid=95cb1a12-3d24-4b7c-8cc9-a0c3e83a05b3"},"vehicle_type_id":"4","last_reported":1734390546,"current_range_meters":38800,"station_id":"ce4bhb12rcd13ifvqel0","pricing_plan_id":"cebpf4jnsgd1na2vs0mg"},{"bike_id":"17fd1c3b-23af-4fb5-9435-033e2a988571","system_id":"levelo_inurba_marseille","lat":43.30973,"lon":5.40112,"is_reserved":false,"is_disabled":true,"rental_uris":{"android":"levelo://app?vid=17fd1c3b-23af-4fb5-9435-033e2a988571","ios":"levelo://app?vid=17fd1c3b-23af-4fb5-9435-033e2a988571"},"vehicle_type_id":"4","last_reported":1734390546,"current_range_meters":36400,"station_id":"ce4bgvp2rcd13ifvqct0","pricing_plan_id":"cebpf4jnsgd1na2vs0mg"},{"bike_id":"f6d66852-84b9-4297-b01c-1e15e526bdcb","system_id":"levelo_inurba_marseille","lat":43.30197,"lon":5.39472,"is_reserved":false,"is_disabled":false,"rental_uris":{"android":"levelo://app?vid=f6d66852-84b9-4297-b01c-1e15e526bdcb","ios":"levelo://app?vid=f6d66852-84b9-4297-b01c-1e15e526bdcb"},"vehicle_type_id":"4","last_reported":1734390546,"current_range_meters":38800,"station_id":"ce4bh0p2rcd13ifvqd70","pricing_plan_id":"cebpf4jnsgd1na2vs0mg"},{"bike_id":"56f645d0-d459-4a27-ba9a-c72d2ef792b2","system_id":"levelo_inurba_marseille","lat":43.28456,"lon":5.35876,"is_reserved":false,"is_disabled":false,"rental_uris":{"android":"levelo://app?vid=56f645d0-d459-4a27-ba9a-c72d2ef792b2","ios":"levelo://app?vid=56f645d0-d459-4a27-ba9a-c72d2ef792b2"},"vehicle_type_id":"4","last_reported":1734390546,"current_range_meters":36400,"station_id":"ce4bhah2rcd13ifvqei0","pricing_plan_id":"cebpf4jnsgd1na2vs0mg"},{"bike_id":"6e48c8fa-29c4-4053-86d1-e9699061339b","system_id":"levelo_inurba_marseille","lat":43.28701,"lon":5.37386,"is_reserved":false,"is_disabled":false,"rental_uris":{"android":"levelo://app?vid=6e48c8fa-29c4-4053-86d1-e9699061339b","ios":"levelo://app?vid=6e48c8fa-29c4-4053-86d1-e9699061339b"},"vehicle_type_id":"4","last_reported":1734390546,"current_range_meters":27600,"station_id":"ce4bh3p2rcd13ifvqdq0","pricing_plan_id":"cebpf4jnsgd1na2vs0mg"},{"bike_id":"d7c1cf73-5ea5-4c2f-a402-88978e03c60a","system_id":"levelo_inurba_marseille","lat":43.29472,"lon":5.3623,"is_reserved":false,"is_disabled":false,"rental_uris":{"android":"levelo://app?vid=d7c1cf73-5ea5-4c2f-a402-88978e03c60a","ios":"levelo://app?vid=d7c1cf73-5ea5-4c2f-a402-88978e03c60a"},"vehicle_type_id":"4","last_reported":1734390546,"current_range_meters":6400,"station_id":"","pricing_plan_id":"cebpf4jnsgd1na2vs0mg"},{"bike_id":"26ef2c06-f6a1-44da-a156-f1644ab22047","system_id":"levelo_inurba_marseille","lat":43.33613,"lon":5.41034,"is_reserved":false,"is_disabled":false,"rental_uris":{"android":"levelo://app?vid=26ef2c06-f6a1-44da-a156-f1644ab22047","ios":"levelo://app?vid=26ef2c06-f6a1-44da-a156-f1644ab22047"},"vehicle_type_id":"4","last_reported":1734390546,"current_range_meters":38800,"station_id":"ce4bhqh2rcd13ifvqhmg","pricing_plan_id":"cebpf4jnsgd1na2vs0mg"},{"bike_id":"82711b20-7bed-4fec-a4b5-4945e51505d9","system_id":"levelo_inurba_marseille","lat":43.30792,"lon":5.4351,"is_reserved":false,"is_disabled":false,"rental_uris":{"android":"levelo://app?vid=82711b20-7bed-4fec-a4b5-4945e51505d9","ios":"levelo://app?vid=82711b20-7bed-4fec-a4b5-4945e51505d9"},"vehicle_type_id":"4","last_reported":1734390546,"current_range_meters":39200,"station_id":"ce4bhph2rcd13ifvqheg","pricing_plan_id":"cebpf4jnsgd1na2vs0mg"},{"bike_id":"d68a8bfe-a1fe-43aa-94f3-8bfaa3478d06","system_id":"levelo_inurba_marseille","lat":43.26551,"lon":5.37283,"is_reserved":false,"is_disabled":false,"rental_uris":{"android":"levelo://app?vid=d68a8bfe-a1fe-43aa-94f3-8bfaa3478d06","ios":"levelo://app?vid=d68a8bfe-a1fe-43aa-94f3-8bfaa3478d06"},"vehicle_type_id":"4","last_reported":1734390546,"current_range_meters":38800,"station_id":"ce4bhg12rcd13ifvqf70","pricing_plan_id":"cebpf4jnsgd1na2vs0mg"},{"bike_id":"74148a3d-e1ce-4bc3-a657-bb402326ef32","system_id":"levelo_inurba_marseille","lat":43.28281,"lon":5.3508,"is_reserved":false,"is_disabled":false,"rental_uris":{"android":"levelo://app?vid=74148a3d-e1ce-4bc3-a657-bb402326ef32","ios":"levelo://app?vid=74148a3d-e1ce-4bc3-a657-bb402326ef32"},"vehicle_type_id":"4","last_reported":1734390546,"current_range_meters":12800,"station_id":"ce4bhbp2rcd13ifvqerg","pricing_plan_id":"cebpf4jnsgd1na2vs0mg"},{"bike_id":"a9ee572d-0cf7-47b8-bdc5-4119b02817e1","system_id":"levelo_inurba_marseille","lat":43.299645,"lon":5.384883,"is_reserved":false,"is_disabled":true,"rental_uris":{"android":"levelo://app?vid=a9ee572d-0cf7-47b8-bdc5-4119b02817e1","ios":"levelo://app?vid=a9ee572d-0cf7-47b8-bdc5-4119b02817e1"},"vehicle_type_id":"4","last_reported":1734390546,"current_range_meters":1600,"station_id":"ce4bghh2rcd13ifvqb60","pricing_plan_id":"cebpf4jnsgd1na2vs0mg"},{"bike_id":"e53b9f40-7cbe-4478-bd2b-78685be42b06","system_id":"levelo_inurba_marseille","lat":43.28709,"lon":5.37387,"is_reserved":false,"is_disabled":false,"rental_uris":{"android":"levelo://app?vid=e53b9f40-7cbe-4478-bd2b-78685be42b06","ios":"levelo://app?vid=e53b9f40-7cbe-4478-bd2b-78685be42b06"},"vehicle_type_id":"4","last_reported":1734390546,"current_range_meters":26000,"station_id":"ce4bh3p2rcd13ifvqdq0","pricing_plan_id":"cebpf4jnsgd1na2vs0mg"},{"bike_id":"55f80f81-ad6e-4bc9-b366-50507bc87bcd","system_id":"levelo_inurba_marseille","lat":43.32336,"lon":5.40612,"is_reserved":false,"is_disabled":true,"rental_uris":{"android":"levelo://app?vid=55f80f81-ad6e-4bc9-b366-50507bc87bcd","ios":"levelo://app?vid=55f80f81-ad6e-4bc9-b366-50507bc87bcd"},"vehicle_type_id":"4","last_reported":1734390546,"current_range_meters":2000,"station_id":"ce4bhq92rcd13ifvqhjg","pricing_plan_id":"cebpf4jnsgd1na2vs0mg"},{"bike_id":"ddefe9f2-23b4-4062-a0ac-7c8a96367f14","system_id":"levelo_inurba_marseille","lat":43.29196,"lon":5.35793,"is_reserved":false,"is_disabled":false,"rental_uris":{"android":"levelo://app?vid=ddefe9f2-23b4-4062-a0ac-7c8a96367f14","ios":"levelo://app?vid=ddefe9f2-23b4-4062-a0ac-7c8a96367f14"},"vehicle_type_id":"4","last_reported":1734390546,"current_range_meters":38800,"station_id":"ce4bhb12rcd13ifvqel0","pricing_plan_id":"cebpf4jnsgd1na2vs0mg"},{"bike_id":"984425b6-d437-4539-8c45-78b211a29814","system_id":"levelo_inurba_marseille","lat":43.29302,"lon":5.37174,"is_reserved":false,"is_disabled":false,"rental_uris":{"android":"levelo://app?vid=984425b6-d437-4539-8c45-78b211a29814","ios":"levelo://app?vid=984425b6-d437-4539-8c45-78b211a29814"},"vehicle_type_id":"4","last_reported":1734390546,"current_range_meters":36800,"station_id":"ce4bgh92rcd13ifvqb40","pricing_plan_id":"cebpf4jnsgd1na2vs0mg"},{"bike_id":"e76a1b6d-7052-4ff1-948e-2b8006ff4fd9","system_id":"levelo_inurba_marseille","lat":43.29692,"lon":5.3659,"is_reserved":false,"is_disabled":false,"rental_uris":{"android":"levelo://app?vid=e76a1b6d-7052-4ff1-948e-2b8006ff4fd9","ios":"levelo://app?vid=e76a1b6d-7052-4ff1-948e-2b8006ff4fd9"},"vehicle_type_id":"4","last_reported":1734390546,"current_range_meters":38000,"station_id":"ce4bgn12rcd13ifvqbt0","pricing_plan_id":"cebpf4jnsgd1na2vs0mg"},{"bike_id":"60e9ff38-efcb-428e-8e74-cd94fa0bd389","system_id":"levelo_inurba_marseille","lat":43.31685,"lon":5.3776,"is_reserved":false,"is_disabled":false,"rental_uris":{"android":"levelo://app?vid=60e9ff38-efcb-428e-8e74-cd94fa0bd389","ios":"levelo://app?vid=60e9ff38-efcb-428e-8e74-cd94fa0bd389"},"vehicle_type_id":"4","last_reported":1734390546,"current_range_meters":32800,"station_id":"ce4bgth2rcd13ifvqch0","pricing_plan_id":"cebpf4jnsgd1na2vs0mg"},{"bike_id":"fd86ba01-89b3-4141-ae5f-a12dec22cb24","system_id":"levelo_inurba_marseille","lat":43.28406,"lon":5.3751,"is_reserved":false,"is_disabled":false,"rental_uris":{"android":"levelo://app?vid=fd86ba01-89b3-4141-ae5f-a12dec22cb24","ios":"levelo://app?vid=fd86ba01-89b3-4141-ae5f-a12dec22cb24"},"vehicle_type_id":"4","last_reported":1734390546,"current_range_meters":28800,"station_id":"ce4bh412rcd13ifvqds0","pricing_plan_id":"cebpf4jnsgd1na2vs0mg"},{"bike_id":"5f2be17f-083e-494f-a7a1-4802346cfcb9","system_id":"levelo_inurba_marseille","lat":43.28564,"lon":5.39495,"is_reserved":false,"is_disabled":true,"rental_uris":{"android":"levelo://app?vid=5f2be17f-083e-494f-a7a1-4802346cfcb9","ios":"levelo://app?vid=5f2be17f-083e-494f-a7a1-4802346cfcb9"},"vehicle_type_id":"4","last_reported":1734390546,"current_range_meters":25600,"station_id":"ce4bh292rcd13ifvqdg0","pricing_plan_id":"cebpf4jnsgd1na2vs0mg"},{"bike_id":"d705ef2b-d72b-417f-b321-d9710b5a9281","system_id":"levelo_inurba_marseille","lat":43.24653,"lon":5.38888,"is_reserved":false,"is_disabled":false,"rental_uris":{"android":"levelo://app?vid=d705ef2b-d72b-417f-b321-d9710b5a9281","ios":"levelo://app?vid=d705ef2b-d72b-417f-b321-d9710b5a9281"},"vehicle_type_id":"4","last_reported":1734390546,"current_range_meters":14000,"station_id":"ce4bhg12rcd13ifvqf60","pricing_plan_id":"cebpf4jnsgd1na2vs0mg"},{"bike_id":"d3e29b4b-4386-4f03-a1dd-c7c9a11c63cb","system_id":"levelo_inurba_marseille","lat":43.26031,"lon":5.39386,"is_reserved":false,"is_disabled":false,"rental_uris":{"android":"levelo://app?vid=d3e29b4b-4386-4f03-a1dd-c7c9a11c63cb","ios":"levelo://app?vid=d3e29b4b-4386-4f03-a1dd-c7c9a11c63cb"},"vehicle_type_id":"4","last_reported":1734390546,"current_range_meters":11200,"station_id":"ce4bhh92rcd13ifvqfj0","pricing_plan_id":"cebpf4jnsgd1na2vs0mg"},{"bike_id":"c569cb87-3117-4e1f-800d-ba1a26ff1c49","system_id":"levelo_inurba_marseille","lat":43.308,"lon":5.3815,"is_reserved":false,"is_disabled":false,"rental_uris":{"android":"levelo://app?vid=c569cb87-3117-4e1f-800d-ba1a26ff1c49","ios":"levelo://app?vid=c569cb87-3117-4e1f-800d-ba1a26ff1c49"},"vehicle_type_id":"4","last_reported":1734390546,"current_range_meters":38000,"station_id":"ce4bgt12rcd13ifvqce0","pricing_plan_id":"cebpf4jnsgd1na2vs0mg"},{"bike_id":"b080cd93-ae1d-416c-aff0-33280d88921a","system_id":"levelo_inurba_marseille","lat":43.26487,"lon":5.39545,"is_reserved":false,"is_disabled":false,"rental_uris":{"android":"levelo://app?vid=b080cd93-ae1d-416c-aff0-33280d88921a","ios":"levelo://app?vid=b080cd93-ae1d-416c-aff0-33280d88921a"},"vehicle_type_id":"4","last_reported":1734390546,"current_range_meters":33600,"station_id":"ce4bhi12rcd13ifvqfq0","pricing_plan_id":"cebpf4jnsgd1na2vs0mg"},{"bike_id":"318aa57b-1568-4ffc-a05f-60313d3eca7d","system_id":"levelo_inurba_marseille","lat":43.308005,"lon":5.4352,"is_reserved":false,"is_disabled":false,"rental_uris":{"android":"levelo://app?vid=318aa57b-1568-4ffc-a05f-60313d3eca7d","ios":"levelo://app?vid=318aa57b-1568-4ffc-a05f-60313d3eca7d"},"vehicle_type_id":"4","last_reported":1734390546,"current_range_meters":39200,"station_id":"ce4bhph2rcd13ifvqheg","pricing_plan_id":"cebpf4jnsgd1na2vs0mg"},{"bike_id":"12a12330-20ea-42cb-85c0-6792b9c51ff2","system_id":"levelo_inurba_marseille","lat":43.255,"lon":5.3765,"is_reserved":false,"is_disabled":false,"rental_uris":{"android":"levelo://app?vid=12a12330-20ea-42cb-85c0-6792b9c51ff2","ios":"levelo://app?vid=12a12330-20ea-42cb-85c0-6792b9c51ff2"},"vehicle_type_id":"4","last_reported":1734390546,"current_range_meters":39200,"station_id":"ce4bhh12rcd13ifvqff0","pricing_plan_id":"cebpf4jnsgd1na2vs0mg"},{"bike_id":"586ce07a-15e4-4f19-a803-224f9d280bb7","system_id":"levelo_inurba_marseille","lat":43.243937,"lon":5.370556,"is_reserved":false,"is_disabled":false,"rental_uris":{"android":"levelo://app?vid=586ce07a-15e4-4f19-a803-224f9d280bb7","ios":"levelo://app?vid=586ce07a-15e4-4f19-a803-224f9d280bb7"},"vehicle_type_id":"4","last_reported":1734390546,"current_range_meters":38800,"station_id":"ce4bhhh2rcd13ifvqfk0","pricing_plan_id":"cebpf4jnsgd1na2vs0mg"},{"bike_id":"048ede08-1dd8-40d1-8404-3b85f61fc0d5","system_id":"levelo_inurba_marseille","lat":43.29555,"lon":5.42266,"is_reserved":false,"is_disabled":false,"rental_uris":{"android":"levelo://app?vid=048ede08-1dd8-40d1-8404-3b85f61fc0d5","ios":"levelo://app?vid=048ede08-1dd8-40d1-8404-3b85f61fc0d5"},"vehicle_type_id":"4","last_reported":1734390546,"current_range_meters":37600,"station_id":"ce4bhph2rcd13ifvqhdg","pricing_plan_id":"cebpf4jnsgd1na2vs0mg"},{"bike_id":"84876f57-9228-4c29-8dc5-7725e669d6fb","system_id":"levelo_inurba_marseille","lat":43.31333,"lon":5.39717,"is_reserved":false,"is_disabled":false,"rental_uris":{"android":"levelo://app?vid=84876f57-9228-4c29-8dc5-7725e669d6fb","ios":"levelo://app?vid=84876f57-9228-4c29-8dc5-7725e669d6fb"},"vehicle_type_id":"4","last_reported":1734390546,"current_range_meters":25200,"station_id":"ce4bgvp2rcd13ifvqcu0","pricing_plan_id":"cebpf4jnsgd1na2vs0mg"},{"bike_id":"f82edaaa-c4d6-43f7-92bd-e4d1b2dbf31e","system_id":"levelo_inurba_marseille","lat":43.26495,"lon":5.39536,"is_reserved":false,"is_disabled":false,"rental_uris":{"android":"levelo://app?vid=f82edaaa-c4d6-43f7-92bd-e4d1b2dbf31e","ios":"levelo://app?vid=f82edaaa-c4d6-43f7-92bd-e4d1b2dbf31e"},"vehicle_type_id":"4","last_reported":1734390546,"current_range_meters":38800,"station_id":"ce4bhi12rcd13ifvqfq0","pricing_plan_id":"cebpf4jnsgd1na2vs0mg"},{"bike_id":"614c767d-7b29-4e0b-89b0-cc369471cc85","system_id":"levelo_inurba_marseille","lat":43.2894,"lon":5.36404,"is_reserved":false,"is_disabled":false,"rental_uris":{"android":"levelo://app?vid=614c767d-7b29-4e0b-89b0-cc369471cc85","ios":"levelo://app?vid=614c767d-7b29-4e0b-89b0-cc369471cc85"},"vehicle_type_id":"4","last_reported":1734390546,"current_range_meters":34800,"station_id":"ce4bhc92rcd13ifvqetg","pricing_plan_id":"cebpf4jnsgd1na2vs0mg"},{"bike_id":"a3ae6ee4-d060-4597-a716-f8c3846f7f84","system_id":"levelo_inurba_marseille","lat":43.28281,"lon":5.35073,"is_reserved":false,"is_disabled":false,"rental_uris":{"android":"levelo://app?vid=a3ae6ee4-d060-4597-a716-f8c3846f7f84","ios":"levelo://app?vid=a3ae6ee4-d060-4597-a716-f8c3846f7f84"},"vehicle_type_id":"4","last_reported":1734390546,"current_range_meters":38000,"station_id":"ce4bhbp2rcd13ifvqerg","pricing_plan_id":"cebpf4jnsgd1na2vs0mg"},{"bike_id":"a5572d10-2ba6-48e2-9296-3c77d287a8b0","system_id":"levelo_inurba_marseille","lat":43.31329,"lon":5.39689,"is_reserved":false,"is_disabled":false,"rental_uris":{"android":"levelo://app?vid=a5572d10-2ba6-48e2-9296-3c77d287a8b0","ios":"levelo://app?vid=a5572d10-2ba6-48e2-9296-3c77d287a8b0"},"vehicle_type_id":"4","last_reported":1734390546,"current_range_meters":38800,"station_id":"ce4bgvp2rcd13ifvqcu0","pricing_plan_id":"cebpf4jnsgd1na2vs0mg"},{"bike_id":"c9b6ceb3-3fe8-4b5f-93cf-b2e0f99bf1b7","system_id":"levelo_inurba_marseille","lat":43.33023,"lon":5.39037,"is_reserved":false,"is_disabled":false,"rental_uris":{"android":"levelo://app?vid=c9b6ceb3-3fe8-4b5f-93cf-b2e0f99bf1b7","ios":"levelo://app?vid=c9b6ceb3-3fe8-4b5f-93cf-b2e0f99bf1b7"},"vehicle_type_id":"4","last_reported":1734390546,"current_range_meters":32400,"station_id":"ce4bhr92rcd13ifvqhrg","pricing_plan_id":"cebpf4jnsgd1na2vs0mg"},{"bike_id":"a939b72a-eb93-48d5-93d2-5b5defdd7d63","system_id":"levelo_inurba_marseille","lat":43.2454,"lon":5.39523,"is_reserved":false,"is_disabled":false,"rental_uris":{"android":"levelo://app?vid=a939b72a-eb93-48d5-93d2-5b5defdd7d63","ios":"levelo://app?vid=a939b72a-eb93-48d5-93d2-5b5defdd7d63"},"vehicle_type_id":"4","last_reported":1734390546,"current_range_meters":11200,"station_id":"ce4bhlp2rcd13ifvqgjg","pricing_plan_id":"cebpf4jnsgd1na2vs0mg"},{"bike_id":"f3379db6-4ea4-44b7-bec9-c44fb1a483c8","system_id":"levelo_inurba_marseille","lat":43.24171,"lon":5.39723,"is_reserved":false,"is_disabled":false,"rental_uris":{"android":"levelo://app?vid=f3379db6-4ea4-44b7-bec9-c44fb1a483c8","ios":"levelo://app?vid=f3379db6-4ea4-44b7-bec9-c44fb1a483c8"},"vehicle_type_id":"4","last_reported":1734390546,"current_range_meters":27600,"station_id":"ce4bhn12rcd13ifvqgpg","pricing_plan_id":"cebpf4jnsgd1na2vs0mg"},{"bike_id":"53e42023-e252-4b7f-a9eb-a99e355c181f","system_id":"levelo_inurba_marseille","lat":43.28733,"lon":5.36088,"is_reserved":false,"is_disabled":false,"rental_uris":{"android":"levelo://app?vid=53e42023-e252-4b7f-a9eb-a99e355c181f","ios":"levelo://app?vid=53e42023-e252-4b7f-a9eb-a99e355c181f"},"vehicle_type_id":"4","last_reported":1734390546,"current_range_meters":34800,"station_id":"cki0cbj6b192h4jlfktg","pricing_plan_id":"cebpf4jnsgd1na2vs0mg"},{"bike_id":"a423dfc8-22d7-4651-975b-8e8614ee351b","system_id":"levelo_inurba_marseille","lat":43.30802,"lon":5.40003,"is_reserved":false,"is_disabled":true,"rental_uris":{"android":"levelo://app?vid=a423dfc8-22d7-4651-975b-8e8614ee351b","ios":"levelo://app?vid=a423dfc8-22d7-4651-975b-8e8614ee351b"},"vehicle_type_id":"4","last_reported":1734390546,"current_range_meters":0,"station_id":"","pricing_plan_id":"cebpf4jnsgd1na2vs0mg"},{"bike_id":"93c5eb91-3fba-4bf2-b5c1-03c9a75bad92","system_id":"levelo_inurba_marseille","lat":43.25073,"lon":5.39511,"is_reserved":false,"is_disabled":false,"rental_uris":{"android":"levelo://app?vid=93c5eb91-3fba-4bf2-b5c1-03c9a75bad92","ios":"levelo://app?vid=93c5eb91-3fba-4bf2-b5c1-03c9a75bad92"},"vehicle_type_id":"4","last_reported":1734390546,"current_range_meters":8800,"station_id":"ce4bhm12rcd13ifvqgkg","pricing_plan_id":"cebpf4jnsgd1na2vs0mg"},{"bike_id":"29bd05a7-e842-4c38-854b-b018c11c5eca","system_id":"levelo_inurba_marseille","lat":43.2926,"lon":5.38444,"is_reserved":false,"is_disabled":false,"rental_uris":{"android":"levelo://app?vid=29bd05a7-e842-4c38-854b-b018c11c5eca","ios":"levelo://app?vid=29bd05a7-e842-4c38-854b-b018c11c5eca"},"vehicle_type_id":"4","last_reported":1734390546,"current_range_meters":34800,"station_id":"ce4bh692rcd13ifvqea0","pricing_plan_id":"cebpf4jnsgd1na2vs0mg"},{"bike_id":"764dd124-8b6c-4e2e-8283-a78f598ae4cd","system_id":"levelo_inurba_marseille","lat":43.31323,"lon":5.39689,"is_reserved":false,"is_disabled":false,"rental_uris":{"android":"levelo://app?vid=764dd124-8b6c-4e2e-8283-a78f598ae4cd","ios":"levelo://app?vid=764dd124-8b6c-4e2e-8283-a78f598ae4cd"},"vehicle_type_id":"4","last_reported":1734390546,"current_range_meters":38800,"station_id":"ce4bgvp2rcd13ifvqcu0","pricing_plan_id":"cebpf4jnsgd1na2vs0mg"},{"bike_id":"8f16ed72-f3d6-49c7-b3ae-8758bc247503","system_id":"levelo_inurba_marseille","lat":43.2905,"lon":5.35904,"is_reserved":false,"is_disabled":false,"rental_uris":{"android":"levelo://app?vid=8f16ed72-f3d6-49c7-b3ae-8758bc247503","ios":"levelo://app?vid=8f16ed72-f3d6-49c7-b3ae-8758bc247503"},"vehicle_type_id":"4","last_reported":1734390546,"current_range_meters":38400,"station_id":"ce4bha92rcd13ifvqeg0","pricing_plan_id":"cebpf4jnsgd1na2vs0mg"},{"bike_id":"bda38b21-c7e5-4cf3-a915-d2dc62c0831e","system_id":"levelo_inurba_marseille","lat":43.31773,"lon":5.39007,"is_reserved":false,"is_disabled":false,"rental_uris":{"android":"levelo://app?vid=bda38b21-c7e5-4cf3-a915-d2dc62c0831e","ios":"levelo://app?vid=bda38b21-c7e5-4cf3-a915-d2dc62c0831e"},"vehicle_type_id":"4","last_reported":1734390546,"current_range_meters":19600,"station_id":"ce4bhqp2rcd13ifvqhng","pricing_plan_id":"cebpf4jnsgd1na2vs0mg"},{"bike_id":"169c23d3-816f-4fb1-b1f6-6a28c3c0935c","system_id":"levelo_inurba_marseille","lat":43.30774,"lon":5.37651,"is_reserved":false,"is_disabled":false,"rental_uris":{"android":"levelo://app?vid=169c23d3-816f-4fb1-b1f6-6a28c3c0935c","ios":"levelo://app?vid=169c23d3-816f-4fb1-b1f6-6a28c3c0935c"},"vehicle_type_id":"4","last_reported":1734390546,"current_range_meters":37600,"station_id":"ce4bgv92rcd13ifvqcq0","pricing_plan_id":"cebpf4jnsgd1na2vs0mg"},{"bike_id":"32bcd328-f7f5-4900-8d76-f3d18c79595c","system_id":"levelo_inurba_marseille","lat":43.24808,"lon":5.37454,"is_reserved":false,"is_disabled":false,"rental_uris":{"android":"levelo://app?vid=32bcd328-f7f5-4900-8d76-f3d18c79595c","ios":"levelo://app?vid=32bcd328-f7f5-4900-8d76-f3d18c79595c"},"vehicle_type_id":"4","last_reported":1734390546,"current_range_meters":38000,"station_id":"ce4bhgh2rcd13ifvqfb0","pricing_plan_id":"cebpf4jnsgd1na2vs0mg"},{"bike_id":"ad3e51cb-df7c-4ce4-b243-f609a121c657","system_id":"levelo_inurba_marseille","lat":43.24169,"lon":5.36389,"is_reserved":false,"is_disabled":false,"rental_uris":{"android":"levelo://app?vid=ad3e51cb-df7c-4ce4-b243-f609a121c657","ios":"levelo://app?vid=ad3e51cb-df7c-4ce4-b243-f609a121c657"},"vehicle_type_id":"4","last_reported":1734390546,"current_range_meters":19600,"station_id":"cpo36qri1sfpv3e86is0","pricing_plan_id":"cebpf4jnsgd1na2vs0mg"},{"bike_id":"04f407fc-ef13-49b8-9f7a-4d7c6eda5f9f","system_id":"levelo_inurba_marseille","lat":43.30789,"lon":5.381496,"is_reserved":false,"is_disabled":false,"rental_uris":{"android":"levelo://app?vid=04f407fc-ef13-49b8-9f7a-4d7c6eda5f9f","ios":"levelo://app?vid=04f407fc-ef13-49b8-9f7a-4d7c6eda5f9f"},"vehicle_type_id":"4","last_reported":1734390546,"current_range_meters":39200,"station_id":"ce4bgt12rcd13ifvqce0","pricing_plan_id":"cebpf4jnsgd1na2vs0mg"},{"bike_id":"6c2f8196-548c-49d5-bcb1-35ab07679de5","system_id":"levelo_inurba_marseille","lat":43.31755,"lon":5.39012,"is_reserved":false,"is_disabled":false,"rental_uris":{"android":"levelo://app?vid=6c2f8196-548c-49d5-bcb1-35ab07679de5","ios":"levelo://app?vid=6c2f8196-548c-49d5-bcb1-35ab07679de5"},"vehicle_type_id":"4","last_reported":1734390546,"current_range_meters":34000,"station_id":"ce4bhqp2rcd13ifvqhng","pricing_plan_id":"cebpf4jnsgd1na2vs0mg"},{"bike_id":"c59837dc-8d74-4db1-b183-a5034d718c43","system_id":"levelo_inurba_marseille","lat":43.2587,"lon":5.39886,"is_reserved":false,"is_disabled":false,"rental_uris":{"android":"levelo://app?vid=c59837dc-8d74-4db1-b183-a5034d718c43","ios":"levelo://app?vid=c59837dc-8d74-4db1-b183-a5034d718c43"},"vehicle_type_id":"4","last_reported":1734390546,"current_range_meters":38800,"station_id":"ce4bhl92rcd13ifvqghg","pricing_plan_id":"cebpf4jnsgd1na2vs0mg"},{"bike_id":"6fb001bd-cbfc-4b33-8fbb-908a2824bf04","system_id":"levelo_inurba_marseille","lat":43.25858,"lon":5.39884,"is_reserved":false,"is_disabled":false,"rental_uris":{"android":"levelo://app?vid=6fb001bd-cbfc-4b33-8fbb-908a2824bf04","ios":"levelo://app?vid=6fb001bd-cbfc-4b33-8fbb-908a2824bf04"},"vehicle_type_id":"4","last_reported":1734390546,"current_range_meters":38800,"station_id":"ce4bhl92rcd13ifvqghg","pricing_plan_id":"cebpf4jnsgd1na2vs0mg"},{"bike_id":"c6b0656c-31fe-4a90-9789-c87a1b0ab57b","system_id":"levelo_inurba_marseille","lat":43.24553,"lon":5.39496,"is_reserved":false,"is_disabled":false,"rental_uris":{"android":"levelo://app?vid=c6b0656c-31fe-4a90-9789-c87a1b0ab57b","ios":"levelo://app?vid=c6b0656c-31fe-4a90-9789-c87a1b0ab57b"},"vehicle_type_id":"4","last_reported":1734390546,"current_range_meters":17600,"station_id":"ce4bhlp2rcd13ifvqgjg","pricing_plan_id":"cebpf4jnsgd1na2vs0mg"},{"bike_id":"feec68f8-7e7f-4d17-8aa9-3bb28707fff0","system_id":"levelo_inurba_marseille","lat":43.28344,"lon":5.38098,"is_reserved":false,"is_disabled":false,"rental_uris":{"android":"levelo://app?vid=feec68f8-7e7f-4d17-8aa9-3bb28707fff0","ios":"levelo://app?vid=feec68f8-7e7f-4d17-8aa9-3bb28707fff0"},"vehicle_type_id":"4","last_reported":1734390546,"current_range_meters":38800,"station_id":"ce4bh412rcd13ifvqdr0","pricing_plan_id":"cebpf4jnsgd1na2vs0mg"},{"bike_id":"81391304-b451-4119-80ac-f61ef4862eb2","system_id":"levelo_inurba_marseille","lat":43.337444,"lon":5.374475,"is_reserved":false,"is_disabled":true,"rental_uris":{"android":"levelo://app?vid=81391304-b451-4119-80ac-f61ef4862eb2","ios":"levelo://app?vid=81391304-b451-4119-80ac-f61ef4862eb2"},"vehicle_type_id":"4","last_reported":1734390546,"current_range_meters":0,"station_id":"","pricing_plan_id":"cebpf4jnsgd1na2vs0mg"},{"bike_id":"ed8e8bd1-fd85-4eb2-9bd0-55619e432958","system_id":"levelo_inurba_marseille","lat":43.30883,"lon":5.39642,"is_reserved":false,"is_disabled":false,"rental_uris":{"android":"levelo://app?vid=ed8e8bd1-fd85-4eb2-9bd0-55619e432958","ios":"levelo://app?vid=ed8e8bd1-fd85-4eb2-9bd0-55619e432958"},"vehicle_type_id":"4","last_reported":1734390546,"current_range_meters":12400,"station_id":"ce4bh012rcd13ifvqcv0","pricing_plan_id":"cebpf4jnsgd1na2vs0mg"},{"bike_id":"66343f16-c96a-493e-b903-7c265d82cce1","system_id":"levelo_inurba_marseille","lat":43.32466,"lon":5.36576,"is_reserved":false,"is_disabled":false,"rental_uris":{"android":"levelo://app?vid=66343f16-c96a-493e-b903-7c265d82cce1","ios":"levelo://app?vid=66343f16-c96a-493e-b903-7c265d82cce1"},"vehicle_type_id":"4","last_reported":1734390546,"current_range_meters":28000,"station_id":"ce4bhs12rcd13ifvqhvg","pricing_plan_id":"cebpf4jnsgd1na2vs0mg"},{"bike_id":"15f71a9f-864d-48de-9d20-f621cbff105e","system_id":"levelo_inurba_marseille","lat":43.26807,"lon":5.40253,"is_reserved":false,"is_disabled":false,"rental_uris":{"android":"levelo://app?vid=15f71a9f-864d-48de-9d20-f621cbff105e","ios":"levelo://app?vid=15f71a9f-864d-48de-9d20-f621cbff105e"},"vehicle_type_id":"4","last_reported":1734390546,"current_range_meters":38000,"station_id":"ce501612rcd8frsf0b60","pricing_plan_id":"cebpf4jnsgd1na2vs0mg"},{"bike_id":"a89c4f7f-abf4-49c0-923e-2be5de68ecf7","system_id":"levelo_inurba_marseille","lat":43.28677,"lon":5.38652,"is_reserved":false,"is_disabled":false,"rental_uris":{"android":"levelo://app?vid=a89c4f7f-abf4-49c0-923e-2be5de68ecf7","ios":"levelo://app?vid=a89c4f7f-abf4-49c0-923e-2be5de68ecf7"},"vehicle_type_id":"4","last_reported":1734390546,"current_range_meters":30000,"station_id":"ce4bh492rcd13ifvqdug","pricing_plan_id":"cebpf4jnsgd1na2vs0mg"},{"bike_id":"d5accae4-0b7f-4603-8070-ad403bf2e0fe","system_id":"levelo_inurba_marseille","lat":43.28864,"lon":5.35858,"is_reserved":false,"is_disabled":false,"rental_uris":{"android":"levelo://app?vid=d5accae4-0b7f-4603-8070-ad403bf2e0fe","ios":"levelo://app?vid=d5accae4-0b7f-4603-8070-ad403bf2e0fe"},"vehicle_type_id":"4","last_reported":1734390546,"current_range_meters":34800,"station_id":"ce4bhb12rcd13ifvqem0","pricing_plan_id":"cebpf4jnsgd1na2vs0mg"},{"bike_id":"11f05fe5-e450-4aa1-bdaa-c4445fc827c3","system_id":"levelo_inurba_marseille","lat":43.27808,"lon":5.40695,"is_reserved":false,"is_disabled":false,"rental_uris":{"android":"levelo://app?vid=11f05fe5-e450-4aa1-bdaa-c4445fc827c3","ios":"levelo://app?vid=11f05fe5-e450-4aa1-bdaa-c4445fc827c3"},"vehicle_type_id":"4","last_reported":1734390546,"current_range_meters":24800,"station_id":"ce4bhnh2rcd13ifvqgtg","pricing_plan_id":"cebpf4jnsgd1na2vs0mg"},{"bike_id":"8c92f62c-a171-43fa-a0c9-1ec039481665","system_id":"levelo_inurba_marseille","lat":43.29002,"lon":5.3561,"is_reserved":false,"is_disabled":false,"rental_uris":{"android":"levelo://app?vid=8c92f62c-a171-43fa-a0c9-1ec039481665","ios":"levelo://app?vid=8c92f62c-a171-43fa-a0c9-1ec039481665"},"vehicle_type_id":"4","last_reported":1734390546,"current_range_meters":38800,"station_id":"ce4bhb92rcd13ifvqen0","pricing_plan_id":"cebpf4jnsgd1na2vs0mg"},{"bike_id":"29f246a6-bf44-455d-b9d7-de191a6777e4","system_id":"levelo_inurba_marseille","lat":43.29209,"lon":5.36022,"is_reserved":false,"is_disabled":true,"rental_uris":{"android":"levelo://app?vid=29f246a6-bf44-455d-b9d7-de191a6777e4","ios":"levelo://app?vid=29f246a6-bf44-455d-b9d7-de191a6777e4"},"vehicle_type_id":"4","last_reported":1734390546,"current_range_meters":400,"station_id":"ce4bhbh2rcd13ifvqeqg","pricing_plan_id":"cebpf4jnsgd1na2vs0mg"},{"bike_id":"9e8afa4d-c208-40c0-805a-620a5080516c","system_id":"levelo_inurba_marseille","lat":43.28569,"lon":5.39492,"is_reserved":false,"is_disabled":false,"rental_uris":{"android":"levelo://app?vid=9e8afa4d-c208-40c0-805a-620a5080516c","ios":"levelo://app?vid=9e8afa4d-c208-40c0-805a-620a5080516c"},"vehicle_type_id":"4","last_reported":1734390546,"current_range_meters":25600,"station_id":"ce4bh292rcd13ifvqdg0","pricing_plan_id":"cebpf4jnsgd1na2vs0mg"},{"bike_id":"1a769f71-3e5c-4c8e-a890-b756e5e1f753","system_id":"levelo_inurba_marseille","lat":43.29816,"lon":5.40399,"is_reserved":false,"is_disabled":false,"rental_uris":{"android":"levelo://app?vid=1a769f71-3e5c-4c8e-a890-b756e5e1f753","ios":"levelo://app?vid=1a769f71-3e5c-4c8e-a890-b756e5e1f753"},"vehicle_type_id":"4","last_reported":1734390546,"current_range_meters":31200,"station_id":"ce4bh112rcd13ifvqd90","pricing_plan_id":"cebpf4jnsgd1na2vs0mg"},{"bike_id":"04fa4d3c-1095-44c1-a3c9-59a4ee2ce33c","system_id":"levelo_inurba_marseille","lat":43.29552,"lon":5.42281,"is_reserved":false,"is_disabled":false,"rental_uris":{"android":"levelo://app?vid=04fa4d3c-1095-44c1-a3c9-59a4ee2ce33c","ios":"levelo://app?vid=04fa4d3c-1095-44c1-a3c9-59a4ee2ce33c"},"vehicle_type_id":"4","last_reported":1734390546,"current_range_meters":34800,"station_id":"ce4bhph2rcd13ifvqhdg","pricing_plan_id":"cebpf4jnsgd1na2vs0mg"},{"bike_id":"6d508ea7-1740-47db-a8c4-e7c1f75d5945","system_id":"levelo_inurba_marseille","lat":43.26949,"lon":5.3863,"is_reserved":false,"is_disabled":true,"rental_uris":{"android":"levelo://app?vid=6d508ea7-1740-47db-a8c4-e7c1f75d5945","ios":"levelo://app?vid=6d508ea7-1740-47db-a8c4-e7c1f75d5945"},"vehicle_type_id":"4","last_reported":1734390546,"current_range_meters":0,"station_id":"ce4bhh92rcd13ifvqfh0","pricing_plan_id":"cebpf4jnsgd1na2vs0mg"},{"bike_id":"477d2549-b022-4827-9d7e-c01d93ff35ae","system_id":"levelo_inurba_marseille","lat":43.27816,"lon":5.4071,"is_reserved":false,"is_disabled":false,"rental_uris":{"android":"levelo://app?vid=477d2549-b022-4827-9d7e-c01d93ff35ae","ios":"levelo://app?vid=477d2549-b022-4827-9d7e-c01d93ff35ae"},"vehicle_type_id":"4","last_reported":1734390546,"current_range_meters":24000,"station_id":"ce4bhnh2rcd13ifvqgtg","pricing_plan_id":"cebpf4jnsgd1na2vs0mg"},{"bike_id":"3f27d279-1803-4c81-af7b-bbf551f71008","system_id":"levelo_inurba_marseille","lat":43.26677,"lon":5.38262,"is_reserved":false,"is_disabled":false,"rental_uris":{"android":"levelo://app?vid=3f27d279-1803-4c81-af7b-bbf551f71008","ios":"levelo://app?vid=3f27d279-1803-4c81-af7b-bbf551f71008"},"vehicle_type_id":"4","last_reported":1734390546,"current_range_meters":38000,"station_id":"ce4bhg92rcd13ifvqf90","pricing_plan_id":"cebpf4jnsgd1na2vs0mg"},{"bike_id":"9a508c0a-03e1-471b-baae-e95cb8cae00f","system_id":"levelo_inurba_marseille","lat":43.29101,"lon":5.40261,"is_reserved":false,"is_disabled":false,"rental_uris":{"android":"levelo://app?vid=9a508c0a-03e1-471b-baae-e95cb8cae00f","ios":"levelo://app?vid=9a508c0a-03e1-471b-baae-e95cb8cae00f"},