{"last_updated":1765969876,"ttl":60,"version":"2.2","data":{"bikes":[{"bike_id":"0f3cc95a-e76b-4d68-a1b7-dc07a280336f","system_id":"levelo_inurba_marseille","lat":43.337444,"lon":5.374475,"is_reserved":false,"is_disabled":false,"rental_uris":{"android":"levelo://app?vid=0f3cc95a-e76b-4d68-a1b7-dc07a280336f","ios":"levelo://app?vid=0f3cc95a-e76b-4d68-a1b7-dc07a280336f"},"vehicle_type_id":"4","last_reported":1765969877,"current_range_meters":0,"station_id":"","pricing_plan_id":"cebpf4jnsgd1na2vs0mg"},{"bike_id":"9546d5b8-2fdf-496f-821d-ce7763849fd4","system_id":"levelo_inurba_marseille","lat":43.337444,"lon":5.374475,"is_reserved":false,"is_disabled":false,"rental_uris":{"android":"levelo://app?vid=9546d5b8-2fdf-496f-821d-ce7763849fd4","ios":"levelo://app?vid=9546d5b8-2fdf-496f-821d-ce7763849fd4"},"vehicle_type_id":"4","last_reported":1765969877,"current_range_meters":0,"station_id":"","pricing_plan_id":"cebpf4jnsgd1na2vs0mg"},{"bike_id":"0dd0820b-8098-4492-b3d6-693fe4c49ff5","system_id":"levelo_inurba_marseille","lat":43.337444,"lon":5.374475,"is_reserved":false,"is_disabled":false,"rental_uris":{"android":"levelo://app?vid=0dd0820b-8098-4492-b3d6-693fe4c49ff5","ios":"levelo://app?vid=0dd0820b-8098-4492-b3d6-693fe4c49ff5"},"vehicle_type_id":"4","last_reported":1765969877,"current_range_meters":0,"station_id":"","pricing_plan_id":"cebpf4jnsgd1na2vs0mg"},{"bike_id":"b72042e2-ef81-4ffe-a8ce-6cca34e74f67","system_id":"levelo_inurba_marseille","lat":43.337444,"lon":5.374475,"is_reserved":false,"is_disabled":false,"rental_uris":{"android":"levelo://app?vid=b72042e2-ef81-4ffe-a8ce-6cca34e74f67","ios":"levelo://app?vid=b72042e2-ef81-4ffe-a8ce-6cca34e74f67"},"vehicle_type_id":"4","last_reported":1765969877,"current_range_meters":0,"station_id":"","pricing_plan_id":"cebpf4jnsgd1na2vs0mg"},{"bike_id":"fd905d4f-b55b-4d47-a37e-1c50218e97f2","system_id":"levelo_inurba_marseille","lat":43.337444,"lon":5.374475,"is_reserved":false,"is_disabled":false,"rental_uris":{"android":"levelo://app?vid=fd905d4f-b55b-4d47-a37e-1c50218e97f2","ios":"levelo://app?vid=fd905d4f-b55b-4d47-a37e-1c50218e97f2"},"vehicle_type_id":"4","last_reported":1765969877,"current_range_meters":0,"station_id":"","pricing_plan_id":"cebpf4jnsgd1na2vs0mg"},{"bike_id":"8c46ddd2-1683-4248-8390-aa1f64088d54","system_id":"levelo_inurba_marseille","lat":43.337444,"lon":5.374475,"is_reserved":false,"is_disabled":false,"rental_uris":{"android":"levelo://app?vid=8c46ddd2-1683-4248-8390-aa1f64088d54","ios":"levelo://app?vid=8c46ddd2-1683-4248-8390-aa1f64088d54"},"vehicle_type_id":"4","last_reported":1765969877,"current_range_meters":0,"station_id":"","pricing_plan_id":"cebpf4jnsgd1na2vs0mg"},{"bike_id":"3a3887b8-fe73-48c9-aaa5-bb4eac1a4c30","system_id":"levelo_inurba_marseille","lat":43.337444,"lon":5.374475,"is_reserved":false,"is_disabled":false,"rental_uris":{"android":"levelo://app?vid=3a3887b8-fe73-48c9-aaa5-bb4eac1a4c30","ios":"levelo://app?vid=3a3887b8-fe73-48c9-aaa5-bb4eac1a4c30"},"vehicle_type_id":"4","last_reported":1765969877,"current_range_meters":0,"station_id":"","pricing_plan_id":"cebpf4jnsgd1na2vs0mg"},{"bike_id":"bc7513c6-013d-41cb-92a4-b6fe817369a5","system_id":"levelo_inurba_marseille","lat":43.337444,"lon":5.374475,"is_reserved":false,"is_disabled":false,"rental_uris":{"android":"levelo://app?vid=bc7513c6-013d-41cb-92a4-b6fe817369a5","ios":"levelo://app?vid=bc7513c6-013d-41cb-92a4-b6fe817369a5"},"vehicle_type_id":"4","last_reported":1765969877,"current_range_meters":0,"station_id":"","pricing_plan_id":"cebpf4jnsgd1na2vs0mg"},{"bike_id":"fe081859-53ce-4bcb-b52e-39e4390a6baa","system_id":"levelo_inurba_marseille","lat":43.337444,"lon":5.374475,"is_reserved":false,"is_disabled":false,"rental_uris":{"android":"levelo://app?vid=fe081859-53ce-4bcb-b52e-39e4390a6baa","ios":"levelo://app?vid=fe081859-53ce-4bcb-b52e-39e4390a6baa"},"vehicle_type_id":"4","last_reported":1765969877,"current_range_meters":0,"station_id":"","pricing_plan_id":"cebpf4jnsgd1na2vs0mg"},{"bike_id":"1a936ebd-3089-48df-9e06-3b361bfd2c99","system_id":"levelo_inurba_marseille","lat":43.337444,"lon":5.374475,"is_reserved":false,"is_disabled":false,"rental_uris":{"android":"levelo://app?vid=1a936ebd-3089-48df-9e06-3b361bfd2c99","ios":"levelo://app?vid=1a936ebd-3089-48df-9e06-3b361bfd2c99"},"vehicle_type_id":"4","last_reported":1765969877,"current_range_meters":0,"station_id":"","pricing_plan_id":"cebpf4jnsgd1na2vs0mg"},{"bike_id":"ea8098b9-0d50-4a14-a60b-cf24388d94f9","system_id":"levelo_inurba_marseille","lat":43.337444,"lon":5.374475,"is_reserved":false,"is_disabled":false,"rental_uris":{"android":"levelo://app?vid=ea8098b9-0d50-4a14-a60b-cf24388d94f9","ios":"levelo://app?vid=ea8098b9-0d50-4a14-a60b-cf24388d94f9"},"vehicle_type_id":"4","last_reported":1765969877,"current_range_meters":0,"station_id":"","pricing_plan_id":"cebpf4jnsgd1na2vs0mg"},{"bike_id":"695105f8-6a7f-488e-8d3c-962a9f043918","system_id":"levelo_inurba_marseille","lat":43.337444,"lon":5.374475,"is_reserved":false,"is_disabled":false,"rental_uris":{"android":"levelo://app?vid=695105f8-6a7f-488e-8d3c-962a9f043918","ios":"levelo://app?vid=695105f8-6a7f-488e-8d3c-962a9f043918"},"vehicle_type_id":"4","last_reported":1765969877,"current_range_meters":0,"station_id":"","pricing_plan_id":"cebpf4jnsgd1na2vs0mg"},{"bike_id":"3dc80901-237e-4812-9bbb-60628c388160","system_id":"levelo_inurba_marseille","lat":43.337444,"lon":5.374475,"is_reserved":false,"is_disabled":false,"rental_uris":{"android":"levelo://app?vid=3dc80901-237e-4812-9bbb-60628c388160","ios":"levelo://app?vid=3dc80901-237e-4812-9bbb-60628c388160"},"vehicle_type_id":"4","last_reported":1765969877,"current_range_meters":0,"station_id":"","pricing_plan_id":"cebpf4jnsgd1na2vs0mg"},{"bike_id":"acff4e1f-7da0-4027-aa85-7f3594d6f0e8","system_id":"levelo_inurba_marseille","lat":43.337444,"lon":5.374475,"is_reserved":false,"is_disabled":false,"rental_uris":{"android":"levelo://app?vid=acff4e1f-7da0-4027-aa85-7f3594d6f0e8","ios":"levelo://app?vid=acff4e1f-7da0-4027-aa85-7f3594d6f0e8"},"vehicle_type_id":"4","last_reported":1765969877,"current_range_meters":0,"station_id":"","pricing_plan_id":"cebpf4jnsgd1na2vs0mg"},{"bike_id":"3575b79a-78fa-401b-91a7-b0172c89201c","system_id":"levelo_inurba_marseille","lat":43.337444,"lon":5.374475,"is_reserved":false,"is_disabled":false,"rental_uris":{"android":"levelo://app?vid=3575b79a-78fa-401b-91a7-b0172c89201c","ios":"levelo://app?vid=3575b79a-78fa-401b-91a7-b0172c89201c"},"vehicle_type_id":"4","last_reported":1765969877,"current_range_meters":0,"station_id":"","pricing_plan_id":"cebpf4jnsgd1na2vs0mg"},{"bike_id":"57b06d01-a33f-476a-b6d4-44b1aac912bd","system_id":"levelo_inurba_marseille","lat":43.337444,"lon":5.374475,"is_reserved":false,"is_disabled":false,"rental_uris":{"android":"levelo://app?vid=57b06d01-a33f-476a-b6d4-44b1aac912bd","ios":"levelo://app?vid=57b06d01-a33f-476a-b6d4-44b1aac912bd"},"vehicle_type_id":"4","last_reported":1765969877,"current_range_meters":0,"station_id":"","pricing_plan_id":"cebpf4jnsgd1na2vs0mg"},{"bike_id":"fbd5f854-c473-435b-8e32-6001de254b84","system_id":"levelo_inurba_marseille","lat":43.337444,"lon":5.374475,"is_reserved":false,"is_disabled":false,"rental_uris":{"android":"levelo://app?vid=fbd5f854-c473-435b-8e32-6001de254b84","ios":"levelo://app?vid=fbd5f854-c473-435b-8e32-6001de254b84"},"vehicle_type_id":"4","last_reported":1765969877,"current_range_meters":0,"station_id":"","pricing_plan_id":"cebpf4jnsgd1na2vs0mg"},{"bike_id":"7b86b746-c185-490b-8242-f5b7e35cd60b","system_id":"levelo_inurba_marseille","lat":43.337444,"lon":5.374475,"is_reserved":false,"is_disabled":false,"rental_uris":{"android":"levelo://app?vid=7b86b746-c185-490b-8242-f5b7e35cd60b","ios":"levelo://app?vid=7b86b746-c185-490b-8242-f5b7e35cd60b"},"vehicle_type_id":"4","last_reported":1765969877,"current_range_meters":0,"station_id":"","pricing_plan_id":"cebpf4jnsgd1na2vs0mg"},{"bike_id":"6e526977-bb40-4432-9a97-0929e5006cd8","system_id":"levelo_inurba_marseille","lat":43.337444,"lon":5.374475,"is_reserved":false,"is_disabled":false,"rental_uris":{"android":"levelo://app?vid=6e526977-bb40-4432-9a97-0929e5006cd8","ios":"levelo://app?vid=6e526977-bb40-4432-9a97-0929e5006cd8"},"vehicle_type_id":"4","last_reported":1765969877,"current_range_meters":0,"station_id":"","pricing_plan_id":"cebpf4jnsgd1na2vs0mg"},{"bike_id":"29581df9-3342-49cc-9011-7326103cdbee","system_id":"levelo_inurba_marseille","lat":43.337444,"lon":5.374475,"is_reserved":false,"is_disabled":false,"rental_uris":{"android":"levelo://app?vid=29581df9-3342-49cc-9011-7326103cdbee","ios":"levelo://app?vid=29581df9-3342-49cc-9011-7326103cdbee"},"vehicle_type_id":"4","last_reported":1765969877,"current_range_meters":0,"station_id":"","pricing_plan_id":"cebpf4jnsgd1na2vs0mg"},{"bike_id":"0a07d333-8401-479e-a4ad-1807f9d5bdc8","system_id":"levelo_inurba_marseille","lat":43.337444,"lon":5.374475,"is_reserved":false,"is_disabled":false,"rental_uris":{"android":"levelo://app?vid=0a07d333-8401-479e-a4ad-1807f9d5bdc8","ios":"levelo://app?vid=0a07d333-8401-479e-a4ad-1807f9d5bdc8"},"vehicle_type_id":"4","last_reported":1765969877,"current_range_meters":0,"station_id":"","pricing_plan_id":"cebpf4jnsgd1na2vs0mg"},{"bike_id":"14322d8a-67f6-439c-bcb4-372883135eab","system_id":"levelo_inurba_marseille","lat":43.337444,"lon":5.374475,"is_reserved":false,"is_disabled":false,"rental_uris":{"android":"levelo://app?vid=14322d8a-67f6-439c-bcb4-372883135eab","ios":"levelo://app?vid=14322d8a-67f6-439c-bcb4-372883135eab"},"vehicle_type_id":"4","last_reported":1765969877,"current_range_meters":0,"station_id":"","pricing_plan_id":"cebpf4jnsgd1na2vs0mg"},{"bike_id":"2676db2a-b5ca-4c59-9b64-be1e7000c350","system_id":"levelo_inurba_marseille","lat":43.337444,"lon":5.374475,"is_reserved":false,"is_disabled":false,"rental_uris":{"android":"levelo://app?vid=2676db2a-b5ca-4c59-9b64-be1e7000c350","ios":"levelo://app?vid=2676db2a-b5ca-4c59-9b64-be1e7000c350"},"vehicle_type_id":"4","last_reported":1765969877,"current_range_meters":0,"station_id":"","pricing_plan_id":"cebpf4jnsgd1na2vs0mg"},{"bike_id":"aa05c83d-dbf9-4a3e-988e-a9563e1d750b","system_id":"levelo_inurba_marseille","lat":43.337444,"lon":5.374475,"is_reserved":false,"is_disabled":false,"rental_uris":{"android":"levelo://app?vid=aa05c83d-dbf9-4a3e-988e-a9563e1d750b","ios":"levelo://app?vid=aa05c83d-dbf9-4a3e-988e-a9563e1d750b"},"vehicle_type_id":"4","last_reported":1765969877,"current_range_meters":0,"station_id":"","pricing_plan_id":"cebpf4jnsgd1na2vs0mg"},{"bike_id":"6b2e21a2-f371-4445-bf15-f812071a77a5","system_id":"levelo_inurba_marseille","lat":43.337444,"lon":5.374475,"is_reserved":false,"is_disabled":false,"rental_uris":{"android":"levelo://app?vid=6b2e21a2-f371-4445-bf15-f812071a77a5","ios":"levelo://app?vid=6b2e21a2-f371-4445-bf15-f812071a77a5"},"vehicle_type_id":"4","last_reported":1765969877,"current_range_meters":0,"station_id":"","pricing_plan_id":"cebpf4jnsgd1na2vs0mg"},{"bike_id":"cf610a85-7084-4166-8078-11783ee0a6fc","system_id":"levelo_inurba_marseille","lat":43.337444,"lon":5.374475,"is_reserved":false,"is_disabled":false,"rental_uris":{"android":"levelo://app?vid=cf610a85-7084-4166-8078-11783ee0a6fc","ios":"levelo://app?vid=cf610a85-7084-4166-8078-11783ee0a6fc"},"vehicle_type_id":"4","last_reported":1765969877,"current_range_meters":0,"station_id":"","pricing_plan_id":"cebpf4jnsgd1na2vs0mg"},{"bike_id":"eeaef50f-0b39-4ab4-8d30-b0b238ab27ce","system_id":"levelo_inurba_marseille","lat":43.337444,"lon":5.374475,"is_reserved":false,"is_disabled":false,"rental_uris":{"android":"levelo://app?vid=eeaef50f-0b39-4ab4-8d30-b0b238ab27ce","ios":"levelo://app?vid=eeaef50f-0b39-4ab4-8d30-b0b238ab27ce"},"vehicle_type_id":"4","last_reported":1765969877,"current_range_meters":0,"station_id":"","pricing_plan_id":"cebpf4jnsgd1na2vs0mg"},{"bike_id":"5e41f1be-1499-4beb-acb2-2d06f424198f","system_id":"levelo_inurba_marseille","lat":43.337444,"lon":5.374475,"is_reserved":false,"is_disabled":false,"rental_uris":{"android":"levelo://app?vid=5e41f1be-1499-4beb-acb2-2d06f424198f","ios":"levelo://app?vid=5e41f1be-1499-4beb-acb2-2d06f424198f"},"vehicle_type_id":"4","last_reported":1765969877,"current_range_meters":0,"station_id":"","pricing_plan_id":"cebpf4jnsgd1na2vs0mg"},{"bike_id":"0b7b279c-eae7-480b-90ce-9a6ffacb2c7d","system_id":"levelo_inurba_marseille","lat":43.337444,"lon":5.374475,"is_reserved":false,"is_disabled":false,"rental_uris":{"android":"levelo://app?vid=0b7b279c-eae7-480b-90ce-9a6ffacb2c7d","ios":"levelo://app?vid=0b7b279c-eae7-480b-90ce-9a6ffacb2c7d"},"vehicle_type_id":"4","last_reported":1765969877,"current_range_meters":0,"station_id":"","pricing_plan_id":"cebpf4jnsgd1na2vs0mg"},{"bike_id":"7a4de459-53d4-4987-9e65-b43f63f5583d","system_id":"levelo_inurba_marseille","lat":43.337444,"lon":5.374475,"is_reserved":false,"is_disabled":false,"rental_uris":{"android":"levelo://app?vid=7a4de459-53d4-4987-9e65-b43f63f5583d","ios":"levelo://app?vid=7a4de459-53d4-4987-9e65-b43f63f5583d"},"vehicle_type_id":"4","last_reported":1765969877,"current_range_meters":0,"station_id":"","pricing_plan_id":"cebpf4jnsgd1na2vs0mg"},{"bike_id":"7b772cd4-ede2-43cc-9fa4-dec9ec9a0e7a","system_id":"levelo_inurba_marseille","lat":43.337444,"lon":5.374475,"is_reserved":false,"is_disabled":false,"rental_uris":{"android":"levelo://app?vid=7b772cd4-ede2-43cc-9fa4-dec9ec9a0e7a","ios":"levelo://app?vid=7b772cd4-ede2-43cc-9fa4-dec9ec9a0e7a"},"vehicle_type_id":"4","last_reported":1765969877,"current_range_meters":0,"station_id":"","pricing_plan_id":"cebpf4jnsgd1na2vs0mg"},{"bike_id":"9ba4a474-b2bf-4e80-9d0d-77bb3e4a825a","system_id":"levelo_inurba_marseille","lat":43.337444,"lon":5.374475,"is_reserved":false,"is_disabled":false,"rental_uris":{"android":"levelo://app?vid=9ba4a474-b2bf-4e80-9d0d-77bb3e4a825a","ios":"levelo://app?vid=9ba4a474-b2bf-4e80-9d0d-77bb3e4a825a"},"vehicle_type_id":"4","last_reported":1765969877,"current_range_meters":0,"station_id":"","pricing_plan_id":"cebpf4jnsgd1na2vs0mg"},{"bike_id":"92a62d17-5740-4144-948e-8194da33f79a","system_id":"levelo_inurba_marseille","lat":43.337444,"lon":5.374475,"is_reserved":false,"is_disabled":false,"rental_uris":{"android":"levelo://app?vid=92a62d17-5740-4144-948e-8194da33f79a","ios":"levelo://app?vid=92a62d17-5740-4144-948e-8194da33f79a"},"vehicle_type_id":"4","last_reported":1765969877,"current_range_meters":0,"station_id":"","pricing_plan_id":"cebpf4jnsgd1na2vs0mg"},{"bike_id":"80ef0a5f-7ec6-41b1-8e91-24254e6dba3d","system_id":"levelo_inurba_marseille","lat":43.337444,"lon":5.374475,"is_reserved":false,"is_disabled":false,"rental_uris":{"android":"levelo://app?vid=80ef0a5f-7ec6-41b1-8e91-24254e6dba3d","ios":"levelo://app?vid=80ef0a5f-7ec6-41b1-8e91-24254e6dba3d"},"vehicle_type_id":"4","last_reported":1765969877,"current_range_meters":0,"station_id":"","pricing_plan_id":"cebpf4jnsgd1na2vs0mg"},{"bike_id":"82cc75f3-b595-4a45-ade2-d55205875aa2","system_id":"levelo_inurba_marseille","lat":43.337444,"lon":5.374475,"is_reserved":false,"is_disabled":false,"rental_uris":{"android":"levelo://app?vid=82cc75f3-b595-4a45-ade2-d55205875aa2","ios":"levelo://app?vid=82cc75f3-b595-4a45-ade2-d55205875aa2"},"vehicle_type_id":"4","last_reported":1765969877,"current_range_meters":0,"station_id":"","pricing_plan_id":"cebpf4jnsgd1na2vs0mg"},{"bike_id":"314c2fc0-76a4-4f72-937b-1f55b1091998","system_id":"levelo_inurba_marseille","lat":43.27829,"lon":5.39208,"is_reserved":false,"is_disabled":false,"rental_uris":{"android":"levelo://app?vid=314c2fc0-76a4-4f72-937b-1f55b1091998","ios":"levelo://app?vid=314c2fc0-76a4-4f72-937b-1f55b1091998"},"vehicle_type_id":"4","last_reported":1765969877,"current_range_meters":2800,"station_id":"ce4bhjp2rcd13ifvqga0","pricing_plan_id":"cebpf4jnsgd1na2vs0mg"},{"bike_id":"abda6a4b-b921-4a0d-921a-c65256a60a0a","system_id":"levelo_inurba_marseille","lat":43.261888,"lon":5.374484,"is_reserved":false,"is_disabled":true,"rental_uris":{"android":"levelo://app?vid=abda6a4b-b921-4a0d-921a-c65256a60a0a","ios":"levelo://app?vid=abda6a4b-b921-4a0d-921a-c65256a60a0a"},"vehicle_type_id":"4","last_reported":1765969877,"current_range_meters":2800,"station_id":"ce4bhgp2rcd13ifvqfc0","pricing_plan_id":"cebpf4jnsgd1na2vs0mg"},{"bike_id":"c5c70cb0-0b3e-455c-a758-ee04c97818b2","system_id":"levelo_inurba_marseille","lat":43.29093,"lon":5.38146,"is_reserved":false,"is_disabled":false,"rental_uris":{"android":"levelo://app?vid=c5c70cb0-0b3e-455c-a758-ee04c97818b2","ios":"levelo://app?vid=c5c70cb0-0b3e-455c-a758-ee04c97818b2"},"vehicle_type_id":"4","last_reported":1765969877,"current_range_meters":2800,"station_id":"ce4bh512rcd13ifvqe2g","pricing_plan_id":"cebpf4jnsgd1na2vs0mg"},{"bike_id":"bee5f29c-17ec-4d6a-b731-2c856acb548f","system_id":"levelo_inurba_marseille","lat":43.337538,"lon":5.374581,"is_reserved":false,"is_disabled":false,"rental_uris":{"android":"levelo://app?vid=bee5f29c-17ec-4d6a-b731-2c856acb548f","ios":"levelo://app?vid=bee5f29c-17ec-4d6a-b731-2c856acb548f"},"vehicle_type_id":"4","last_reported":1765969877,"current_range_meters":2800,"station_id":"","pricing_plan_id":"cebpf4jnsgd1na2vs0mg"},{"bike_id":"1a7fa844-051e-4bbd-9518-95fe010d57f1","system_id":"levelo_inurba_marseille","lat":43.2845,"lon":5.39896,"is_reserved":false,"is_disabled":false,"rental_uris":{"android":"levelo://app?vid=1a7fa844-051e-4bbd-9518-95fe010d57f1","ios":"levelo://app?vid=1a7fa844-051e-4bbd-9518-95fe010d57f1"},"vehicle_type_id":"4","last_reported":1765969877,"current_range_meters":2800,"station_id":"","pricing_plan_id":"cebpf4jnsgd1na2vs0mg"},{"bike_id":"2dfe03a3-dfeb-4e78-969a-1b53c4fb0155","system_id":"levelo_inurba_marseille","lat":43.31168,"lon":5.38724,"is_reserved":false,"is_disabled":false,"rental_uris":{"android":"levelo://app?vid=2dfe03a3-dfeb-4e78-969a-1b53c4fb0155","ios":"levelo://app?vid=2dfe03a3-dfeb-4e78-969a-1b53c4fb0155"},"vehicle_type_id":"4","last_reported":1765969877,"current_range_meters":2800,"station_id":"ce4bgv12rcd13ifvqcp0","pricing_plan_id":"cebpf4jnsgd1na2vs0mg"},{"bike_id":"0d04367a-2738-41fb-8bc5-77b89893b507","system_id":"levelo_inurba_marseille","lat":43.21193,"lon":5.35078,"is_reserved":false,"is_disabled":false,"rental_uris":{"android":"levelo://app?vid=0d04367a-2738-41fb-8bc5-77b89893b507","ios":"levelo://app?vid=0d04367a-2738-41fb-8bc5-77b89893b507"},"vehicle_type_id":"4","last_reported":1765969877,"current_range_meters":2800,"station_id":"","pricing_plan_id":"cebpf4jnsgd1na2vs0mg"},{"bike_id":"d3eb1a28-60f7-4eab-a9be-915a03b25c99","system_id":"levelo_inurba_marseille","lat":43.337444,"lon":5.374475,"is_reserved":false,"is_disabled":false,"rental_uris":{"android":"levelo://app?vid=d3eb1a28-60f7-4eab-a9be-915a03b25c99","ios":"levelo://app?vid=d3eb1a28-60f7-4eab-a9be-915a03b25c99"},"vehicle_type_id":"4","last_reported":1765969877,"current_range_meters":2800,"station_id":"","pricing_plan_id":"cebpf4jnsgd1na2vs0mg"},{"bike_id":"9366b54d-3d5e-4e2f-a20d-49d0ce57f0ef","system_id":"levelo_inurba_marseille","lat":43.310833,"lon":5.424412,"is_reserved":false,"is_disabled":false,"rental_uris":{"android":"levelo://app?vid=9366b54d-3d5e-4e2f-a20d-49d0ce57f0ef","ios":"levelo://app?vid=9366b54d-3d5e-4e2f-a20d-49d0ce57f0ef"},"vehicle_type_id":"4","last_reported":1765969877,"current_range_meters":3200,"station_id":"ce4bhp92rcd13ifvqhag","pricing_plan_id":"cebpf4jnsgd1na2vs0mg"},{"bike_id":"70c1675e-c886-4d5e-b814-c9d52a2cb113","system_id":"levelo_inurba_marseille","lat":43.32494,"lon":5.38301,"is_reserved":false,"is_disabled":false,"rental_uris":{"android":"levelo://app?vid=70c1675e-c886-4d5e-b814-c9d52a2cb113","ios":"levelo://app?vid=70c1675e-c886-4d5e-b814-c9d52a2cb113"},"vehicle_type_id":"4","last_reported":1765969877,"current_range_meters":3200,"station_id":"st_d4asgbiv49dc73anf9m0","pricing_plan_id":"cebpf4jnsgd1na2vs0mg"},{"bike_id":"4d57a8a5-99ec-4ac2-b6fd-822e88d2baca","system_id":"levelo_inurba_marseille","lat":43.29299,"lon":5.37463,"is_reserved":false,"is_disabled":false,"rental_uris":{"android":"levelo://app?vid=4d57a8a5-99ec-4ac2-b6fd-822e88d2baca","ios":"levelo://app?vid=4d57a8a5-99ec-4ac2-b6fd-822e88d2baca"},"vehicle_type_id":"4","last_reported":1765969877,"current_range_meters":3200,"station_id":"ce4bgi12rcd13ifvqb70","pricing_plan_id":"cebpf4jnsgd1na2vs0mg"},{"bike_id":"58fe3c41-c31c-418f-8b03-ed2ed0f7c8fd","system_id":"levelo_inurba_marseille","lat":43.301171,"lon":5.365225,"is_reserved":false,"is_disabled":false,"rental_uris":{"android":"levelo://app?vid=58fe3c41-c31c-418f-8b03-ed2ed0f7c8fd","ios":"levelo://app?vid=58fe3c41-c31c-418f-8b03-ed2ed0f7c8fd"},"vehicle_type_id":"4","last_reported":1765969877,"current_range_meters":3600,"station_id":"","pricing_plan_id":"cebpf4jnsgd1na2vs0mg"},{"bike_id":"45a564a9-4ba8-424c-8236-35cac9a77a99","system_id":"levelo_inurba_marseille","lat":43.287066,"lon":5.373676,"is_reserved":false,"is_disabled":false,"rental_uris":{"android":"levelo://app?vid=45a564a9-4ba8-424c-8236-35cac9a77a99","ios":"levelo://app?vid=45a564a9-4ba8-424c-8236-35cac9a77a99"},"vehicle_type_id":"4","last_reported":1765969877,"current_range_meters":3600,"station_id":"ce4bh3p2rcd13ifvqdq0","pricing_plan_id":"cebpf4jnsgd1na2vs0mg"},{"bike_id":"0c2c5140-af06-486a-a322-d624aecbcc21","system_id":"levelo_inurba_marseille","lat":43.24537,"lon":5.40007,"is_reserved":false,"is_disabled":false,"rental_uris":{"android":"levelo://app?vid=0c2c5140-af06-486a-a322-d624aecbcc21","ios":"levelo://app?vid=0c2c5140-af06-486a-a322-d624aecbcc21"},"vehicle_type_id":"4","last_reported":1765969877,"current_range_meters":4000,"station_id":"","pricing_plan_id":"cebpf4jnsgd1na2vs0mg"},{"bike_id":"3464140a-fa4d-4baa-a277-f0b733016dfb","system_id":"levelo_inurba_marseille","lat":43.316035,"lon":5.379218,"is_reserved":false,"is_disabled":false,"rental_uris":{"android":"levelo://app?vid=3464140a-fa4d-4baa-a277-f0b733016dfb","ios":"levelo://app?vid=3464140a-fa4d-4baa-a277-f0b733016dfb"},"vehicle_type_id":"4","last_reported":1765969877,"current_range_meters":4000,"station_id":"","pricing_plan_id":"cebpf4jnsgd1na2vs0mg"},{"bike_id":"8ca96dd8-7028-4be9-95ce-05af3ddc3b3a","system_id":"levelo_inurba_marseille","lat":43.278809,"lon":5.381482,"is_reserved":false,"is_disabled":false,"rental_uris":{"android":"levelo://app?vid=8ca96dd8-7028-4be9-95ce-05af3ddc3b3a","ios":"levelo://app?vid=8ca96dd8-7028-4be9-95ce-05af3ddc3b3a"},"vehicle_type_id":"4","last_reported":1765969877,"current_range_meters":4000,"station_id":"ce4bhf92rcd13ifvqf50","pricing_plan_id":"cebpf4jnsgd1na2vs0mg"},{"bike_id":"d6808b6f-5df2-4878-a1e8-910e03305a8b","system_id":"levelo_inurba_marseille","lat":43.29089,"lon":5.38121,"is_reserved":false,"is_disabled":false,"rental_uris":{"android":"levelo://app?vid=d6808b6f-5df2-4878-a1e8-910e03305a8b","ios":"levelo://app?vid=d6808b6f-5df2-4878-a1e8-910e03305a8b"},"vehicle_type_id":"4","last_reported":1765969877,"current_range_meters":4400,"station_id":"","pricing_plan_id":"cebpf4jnsgd1na2vs0mg"},{"bike_id":"7e169a52-eb16-4d25-ac1b-ace43e16988c","system_id":"levelo_inurba_marseille","lat":43.27805,"lon":5.40729,"is_reserved":false,"is_disabled":false,"rental_uris":{"android":"levelo://app?vid=7e169a52-eb16-4d25-ac1b-ace43e16988c","ios":"levelo://app?vid=7e169a52-eb16-4d25-ac1b-ace43e16988c"},"vehicle_type_id":"4","last_reported":1765969877,"current_range_meters":4400,"station_id":"ce4bhnh2rcd13ifvqgtg","pricing_plan_id":"cebpf4jnsgd1na2vs0mg"},{"bike_id":"586fefa0-3adb-41a7-a0c1-7b682aa2019b","system_id":"levelo_inurba_marseille","lat":43.28405,"lon":5.37517,"is_reserved":false,"is_disabled":false,"rental_uris":{"android":"levelo://app?vid=586fefa0-3adb-41a7-a0c1-7b682aa2019b","ios":"levelo://app?vid=586fefa0-3adb-41a7-a0c1-7b682aa2019b"},"vehicle_type_id":"4","last_reported":1765969877,"current_range_meters":4400,"station_id":"ce4bh412rcd13ifvqds0","pricing_plan_id":"cebpf4jnsgd1na2vs0mg"},{"bike_id":"3ca60de7-a1f7-4000-9cbe-4bf96a1cfcde","system_id":"levelo_inurba_marseille","lat":43.262115,"lon":5.374405,"is_reserved":false,"is_disabled":false,"rental_uris":{"android":"levelo://app?vid=3ca60de7-a1f7-4000-9cbe-4bf96a1cfcde","ios":"levelo://app?vid=3ca60de7-a1f7-4000-9cbe-4bf96a1cfcde"},"vehicle_type_id":"4","last_reported":1765969877,"current_range_meters":4400,"station_id":"ce4bhgp2rcd13ifvqfc0","pricing_plan_id":"cebpf4jnsgd1na2vs0mg"},{"bike_id":"36174dc6-a5da-43ac-a75f-626e86317912","system_id":"levelo_inurba_marseille","lat":43.30406,"lon":5.41301,"is_reserved":false,"is_disabled":false,"rental_uris":{"android":"levelo://app?vid=36174dc6-a5da-43ac-a75f-626e86317912","ios":"levelo://app?vid=36174dc6-a5da-43ac-a75f-626e86317912"},"vehicle_type_id":"4","last_reported":1765969877,"current_range_meters":4400,"station_id":"ce4bhop2rcd13ifvqh8g","pricing_plan_id":"cebpf4jnsgd1na2vs0mg"},{"bike_id":"6807e152-cfab-49d6-a3a9-455365a767e5","system_id":"levelo_inurba_marseille","lat":43.29294,"lon":5.37469,"is_reserved":false,"is_disabled":false,"rental_uris":{"android":"levelo://app?vid=6807e152-cfab-49d6-a3a9-455365a767e5","ios":"levelo://app?vid=6807e152-cfab-49d6-a3a9-455365a767e5"},"vehicle_type_id":"4","last_reported":1765969877,"current_range_meters":4800,"station_id":"ce4bgi12rcd13ifvqb70","pricing_plan_id":"cebpf4jnsgd1na2vs0mg"},{"bike_id":"fcb06deb-87eb-41fa-a2bc-9a13e946738e","system_id":"levelo_inurba_marseille","lat":43.21751,"lon":5.34602,"is_reserved":false,"is_disabled":false,"rental_uris":{"android":"levelo://app?vid=fcb06deb-87eb-41fa-a2bc-9a13e946738e","ios":"levelo://app?vid=fcb06deb-87eb-41fa-a2bc-9a13e946738e"},"vehicle_type_id":"4","last_reported":1765969877,"current_range_meters":4800,"station_id":"st_cvj6r9ubvosntc0bgbag","pricing_plan_id":"cebpf4jnsgd1na2vs0mg"},{"bike_id":"b7a04762-46ac-4c04-93f8-fd0c64af14a3","system_id":"levelo_inurba_marseille","lat":43.21188,"lon":5.35075,"is_reserved":false,"is_disabled":false,"rental_uris":{"android":"levelo://app?vid=b7a04762-46ac-4c04-93f8-fd0c64af14a3","ios":"levelo://app?vid=b7a04762-46ac-4c04-93f8-fd0c64af14a3"},"vehicle_type_id":"4","last_reported":1765969877,"current_range_meters":5600,"station_id":"st_cvj6sg6p6f1abm77japg","pricing_plan_id":"cebpf4jnsgd1na2vs0mg"},{"bike_id":"3e0f4bae-09ea-42f4-b644-a123cd496943","system_id":"levelo_inurba_marseille","lat":43.29572,"lon":5.37508,"is_reserved":false,"is_disabled":false,"rental_uris":{"android":"levelo://app?vid=3e0f4bae-09ea-42f4-b644-a123cd496943","ios":"levelo://app?vid=3e0f4bae-09ea-42f4-b644-a123cd496943"},"vehicle_type_id":"4","last_reported":1765969877,"current_range_meters":5600,"station_id":"ce4bgh92rcd13ifvqb50","pricing_plan_id":"cebpf4jnsgd1na2vs0mg"},{"bike_id":"839283dc-c429-42b1-b212-4fb965e57dfd","system_id":"levelo_inurba_marseille","lat":43.28472,"lon":5.358964,"is_reserved":false,"is_disabled":false,"rental_uris":{"android":"levelo://app?vid=839283dc-c429-42b1-b212-4fb965e57dfd","ios":"levelo://app?vid=839283dc-c429-42b1-b212-4fb965e57dfd"},"vehicle_type_id":"4","last_reported":1765969877,"current_range_meters":5600,"station_id":"ce4bhah2rcd13ifvqei0","pricing_plan_id":"cebpf4jnsgd1na2vs0mg"},{"bike_id":"47c4327d-781a-404b-9ff3-433a193edaeb","system_id":"levelo_inurba_marseille","lat":43.30945,"lon":5.39039,"is_reserved":false,"is_disabled":false,"rental_uris":{"android":"levelo://app?vid=47c4327d-781a-404b-9ff3-433a193edaeb","ios":"levelo://app?vid=47c4327d-781a-404b-9ff3-433a193edaeb"},"vehicle_type_id":"4","last_reported":1765969877,"current_range_meters":6000,"station_id":"ce4bgup2rcd13ifvqco0","pricing_plan_id":"cebpf4jnsgd1na2vs0mg"},{"bike_id":"6e9232bf-cff6-4076-9c1f-c5d494501757","system_id":"levelo_inurba_marseille","lat":43.302875,"lon":5.377029,"is_reserved":false,"is_disabled":false,"rental_uris":{"android":"levelo://app?vid=6e9232bf-cff6-4076-9c1f-c5d494501757","ios":"levelo://app?vid=6e9232bf-cff6-4076-9c1f-c5d494501757"},"vehicle_type_id":"4","last_reported":1765969877,"current_range_meters":6000,"station_id":"ce4bguh2rcd13ifvqcj0","pricing_plan_id":"cebpf4jnsgd1na2vs0mg"},{"bike_id":"c2acd36a-0c71-41d9-89d7-35ccb2abf7a1","system_id":"levelo_inurba_marseille","lat":43.30528,"lon":5.38423,"is_reserved":false,"is_disabled":true,"rental_uris":{"android":"levelo://app?vid=c2acd36a-0c71-41d9-89d7-35ccb2abf7a1","ios":"levelo://app?vid=c2acd36a-0c71-41d9-89d7-35ccb2abf7a1"},"vehicle_type_id":"4","last_reported":1765969877,"current_range_meters":6000,"station_id":"ce4bgg92rcd13ifvqb30","pricing_plan_id":"cebpf4jnsgd1na2vs0mg"},{"bike_id":"7cf274c4-e9aa-4f6b-be84-e9c7675f01f0","system_id":"levelo_inurba_marseille","lat":43.297104,"lon":5.376987,"is_reserved":false,"is_disabled":true,"rental_uris":{"android":"levelo://app?vid=7cf274c4-e9aa-4f6b-be84-e9c7675f01f0","ios":"levelo://app?vid=7cf274c4-e9aa-4f6b-be84-e9c7675f01f0"},"vehicle_type_id":"4","last_reported":1765969877,"current_range_meters":6000,"station_id":"","pricing_plan_id":"cebpf4jnsgd1na2vs0mg"},{"bike_id":"ec38b80b-f7f6-4c54-ad11-a6b4bb427e4b","system_id":"levelo_inurba_marseille","lat":43.26963,"lon":5.38614,"is_reserved":false,"is_disabled":false,"rental_uris":{"android":"levelo://app?vid=ec38b80b-f7f6-4c54-ad11-a6b4bb427e4b","ios":"levelo://app?vid=ec38b80b-f7f6-4c54-ad11-a6b4bb427e4b"},"vehicle_type_id":"4","last_reported":1765969877,"current_range_meters":6800,"station_id":"ce4bhh92rcd13ifvqfh0","pricing_plan_id":"cebpf4jnsgd1na2vs0mg"},{"bike_id":"f66d1cf0-6e9c-41c4-9f34-e5d7a6b4ffee","system_id":"levelo_inurba_marseille","lat":43.26229,"lon":5.40452,"is_reserved":false,"is_disabled":false,"rental_uris":{"android":"levelo://app?vid=f66d1cf0-6e9c-41c4-9f34-e5d7a6b4ffee","ios":"levelo://app?vid=f66d1cf0-6e9c-41c4-9f34-e5d7a6b4ffee"},"vehicle_type_id":"4","last_reported":1765969877,"current_range_meters":6800,"station_id":"ce4bhmh2rcd13ifvqgmg","pricing_plan_id":"cebpf4jnsgd1na2vs0mg"},{"bike_id":"343fe7d0-3d78-4db3-9459-a24be8980043","system_id":"levelo_inurba_marseille","lat":43.294,"lon":5.38393,"is_reserved":false,"is_disabled":false,"rental_uris":{"android":"levelo://app?vid=343fe7d0-3d78-4db3-9459-a24be8980043","ios":"levelo://app?vid=343fe7d0-3d78-4db3-9459-a24be8980043"},"vehicle_type_id":"4","last_reported":1765969877,"current_range_meters":6800,"station_id":"","pricing_plan_id":"cebpf4jnsgd1na2vs0mg"},{"bike_id":"62319f52-bb5a-47c6-bf63-d8b31ecb59b3","system_id":"levelo_inurba_marseille","lat":43.2645,"lon":5.37364,"is_reserved":false,"is_disabled":false,"rental_uris":{"android":"levelo://app?vid=62319f52-bb5a-47c6-bf63-d8b31ecb59b3","ios":"levelo://app?vid=62319f52-bb5a-47c6-bf63-d8b31ecb59b3"},"vehicle_type_id":"4","last_reported":1765969877,"current_range_meters":7200,"station_id":"","pricing_plan_id":"cebpf4jnsgd1na2vs0mg"},{"bike_id":"e95826ef-97ce-444b-990e-16b680e5ce63","system_id":"levelo_inurba_marseille","lat":43.23065,"lon":5.35497,"is_reserved":false,"is_disabled":false,"rental_uris":{"android":"levelo://app?vid=e95826ef-97ce-444b-990e-16b680e5ce63","ios":"levelo://app?vid=e95826ef-97ce-444b-990e-16b680e5ce63"},"vehicle_type_id":"4","last_reported":1765969877,"current_range_meters":7200,"station_id":"cpo3342slgdg3j2ifvpg","pricing_plan_id":"cebpf4jnsgd1na2vs0mg"},{"bike_id":"f9ba0bc8-1678-4550-8ab9-06ec3e215e8d","system_id":"levelo_inurba_marseille","lat":43.337444,"lon":5.374475,"is_reserved":false,"is_disabled":false,"rental_uris":{"android":"levelo://app?vid=f9ba0bc8-1678-4550-8ab9-06ec3e215e8d","ios":"levelo://app?vid=f9ba0bc8-1678-4550-8ab9-06ec3e215e8d"},"vehicle_type_id":"4","last_reported":1765969877,"current_range_meters":7200,"station_id":"","pricing_plan_id":"cebpf4jnsgd1na2vs0mg"},{"bike_id":"168944bc-143d-4235-a87c-58523f4f4dd7","system_id":"levelo_inurba_marseille","lat":43.296347,"lon":5.380819,"is_reserved":false,"is_disabled":true,"rental_uris":{"android":"levelo://app?vid=168944bc-143d-4235-a87c-58523f4f4dd7","ios":"levelo://app?vid=168944bc-143d-4235-a87c-58523f4f4dd7"},"vehicle_type_id":"4","last_reported":1765969877,"current_range_meters":7200,"station_id":"ce4bgl12rcd13ifvqbo0","pricing_plan_id":"cebpf4jnsgd1na2vs0mg"},{"bike_id":"77e0d0eb-6af8-474d-83a5-2b5e4ff0d935","system_id":"levelo_inurba_marseille","lat":43.246213,"lon":5.431529,"is_reserved":false,"is_disabled":true,"rental_uris":{"android":"levelo://app?vid=77e0d0eb-6af8-474d-83a5-2b5e4ff0d935","ios":"levelo://app?vid=77e0d0eb-6af8-474d-83a5-2b5e4ff0d935"},"vehicle_type_id":"4","last_reported":1765969877,"current_range_meters":7200,"station_id":"st_d2m6c4gdas8pm72e190g","pricing_plan_id":"cebpf4jnsgd1na2vs0mg"},{"bike_id":"c0169118-793d-4f58-83a7-1547c18869c0","system_id":"levelo_inurba_marseille","lat":43.2733,"lon":5.39092,"is_reserved":false,"is_disabled":true,"rental_uris":{"android":"levelo://app?vid=c0169118-793d-4f58-83a7-1547c18869c0","ios":"levelo://app?vid=c0169118-793d-4f58-83a7-1547c18869c0"},"vehicle_type_id":"4","last_reported":1765969877,"current_range_meters":7200,"station_id":"ce4bhgp2rcd13ifvqfe0","pricing_plan_id":"cebpf4jnsgd1na2vs0mg"},{"bike_id":"b5de3dc8-191d-41f1-a993-dd1eca7db6fc","system_id":"levelo_inurba_marseille","lat":43.31033,"lon":5.39348,"is_reserved":false,"is_disabled":false,"rental_uris":{"android":"levelo://app?vid=b5de3dc8-191d-41f1-a993-dd1eca7db6fc","ios":"levelo://app?vid=b5de3dc8-191d-41f1-a993-dd1eca7db6fc"},"vehicle_type_id":"4","last_reported":1765969877,"current_range_meters":7200,"station_id":"","pricing_plan_id":"cebpf4jnsgd1na2vs0mg"},{"bike_id":"222fad57-5c38-4a97-9036-489c0d741fbd","system_id":"levelo_inurba_marseille","lat":43.30546,"lon":5.36558,"is_reserved":false,"is_disabled":false,"rental_uris":{"android":"levelo://app?vid=222fad57-5c38-4a97-9036-489c0d741fbd","ios":"levelo://app?vid=222fad57-5c38-4a97-9036-489c0d741fbd"},"vehicle_type_id":"4","last_reported":1765969877,"current_range_meters":7200,"station_id":"ce4bgs12rcd13ifvqcag","pricing_plan_id":"cebpf4jnsgd1na2vs0mg"},{"bike_id":"67be8c3b-4400-403c-b56e-31f2a51931e7","system_id":"levelo_inurba_marseille","lat":43.23195,"lon":5.35552,"is_reserved":false,"is_disabled":true,"rental_uris":{"android":"levelo://app?vid=67be8c3b-4400-403c-b56e-31f2a51931e7","ios":"levelo://app?vid=67be8c3b-4400-403c-b56e-31f2a51931e7"},"vehicle_type_id":"4","last_reported":1765969877,"current_range_meters":8000,"station_id":"ce4bhu92rcd13ifvqi70","pricing_plan_id":"cebpf4jnsgd1na2vs0mg"},{"bike_id":"d0c81cd9-bcb1-46de-85cc-999523e8d872","system_id":"levelo_inurba_marseille","lat":43.3043,"lon":5.37144,"is_reserved":false,"is_disabled":false,"rental_uris":{"android":"levelo://app?vid=d0c81cd9-bcb1-46de-85cc-999523e8d872","ios":"levelo://app?vid=d0c81cd9-bcb1-46de-85cc-999523e8d872"},"vehicle_type_id":"4","last_reported":1765969877,"current_range_meters":8000,"station_id":"","pricing_plan_id":"cebpf4jnsgd1na2vs0mg"},{"bike_id":"860586bd-84d4-43ba-af58-7f526b0205ca","system_id":"levelo_inurba_marseille","lat":43.314305,"lon":5.374153,"is_reserved":false,"is_disabled":false,"rental_uris":{"android":"levelo://app?vid=860586bd-84d4-43ba-af58-7f526b0205ca","ios":"levelo://app?vid=860586bd-84d4-43ba-af58-7f526b0205ca"},"vehicle_type_id":"4","last_reported":1765969877,"current_range_meters":8000,"station_id":"","pricing_plan_id":"cebpf4jnsgd1na2vs0mg"},{"bike_id":"929cf538-0f17-44b1-998a-c48280fa525c","system_id":"levelo_inurba_marseille","lat":43.27485,"lon":5.42442,"is_reserved":false,"is_disabled":true,"rental_uris":{"android":"levelo://app?vid=929cf538-0f17-44b1-998a-c48280fa525c","ios":"levelo://app?vid=929cf538-0f17-44b1-998a-c48280fa525c"},"vehicle_type_id":"4","last_reported":1765969877,"current_range_meters":8000,"station_id":"ce4bhn92rcd13ifvqgrg","pricing_plan_id":"cebpf4jnsgd1na2vs0mg"},{"bike_id":"b85e7c1d-8d2c-4b07-83c8-c5272ce33ca0","system_id":"levelo_inurba_marseille","lat":43.27807,"lon":5.40778,"is_reserved":false,"is_disabled":true,"rental_uris":{"android":"levelo://app?vid=b85e7c1d-8d2c-4b07-83c8-c5272ce33ca0","ios":"levelo://app?vid=b85e7c1d-8d2c-4b07-83c8-c5272ce33ca0"},"vehicle_type_id":"4","last_reported":1765969877,"current_range_meters":8000,"station_id":"ce4bhnh2rcd13ifvqgtg","pricing_plan_id":"cebpf4jnsgd1na2vs0mg"},{"bike_id":"d676ab86-ec24-4315-afc4-72837de4f6a8","system_id":"levelo_inurba_marseille","lat":43.30543,"lon":5.36559,"is_reserved":false,"is_disabled":false,"rental_uris":{"android":"levelo://app?vid=d676ab86-ec24-4315-afc4-72837de4f6a8","ios":"levelo://app?vid=d676ab86-ec24-4315-afc4-72837de4f6a8"},"vehicle_type_id":"4","last_reported":1765969877,"current_range_meters":8000,"station_id":"ce4bgs12rcd13ifvqcag","pricing_plan_id":"cebpf4jnsgd1na2vs0mg"},{"bike_id":"dc3a8abc-8f8a-45da-98cb-8d044487deca","system_id":"levelo_inurba_marseille","lat":43.2978,"lon":5.37102,"is_reserved":false,"is_disabled":false,"rental_uris":{"android":"levelo://app?vid=dc3a8abc-8f8a-45da-98cb-8d044487deca","ios":"levelo://app?vid=dc3a8abc-8f8a-45da-98cb-8d044487deca"},"vehicle_type_id":"4","last_reported":1765969877,"current_range_meters":8000,"station_id":"ce4bgop2rcd13ifvqc1g","pricing_plan_id":"cebpf4jnsgd1na2vs0mg"},{"bike_id":"b64ec36a-6a1b-4c83-b333-b5be40749b40","system_id":"levelo_inurba_marseille","lat":43.26767,"lon":5.39423,"is_reserved":false,"is_disabled":false,"rental_uris":{"android":"levelo://app?vid=b64ec36a-6a1b-4c83-b333-b5be40749b40","ios":"levelo://app?vid=b64ec36a-6a1b-4c83-b333-b5be40749b40"},"vehicle_type_id":"4","last_reported":1765969877,"current_range_meters":8400,"station_id":"ce4bhh12rcd13ifvqfg0","pricing_plan_id":"cebpf4jnsgd1na2vs0mg"},{"bike_id":"b2d0bee3-8553-4527-a831-d1e903999f00","system_id":"levelo_inurba_marseille","lat":43.316791,"lon":5.375612,"is_reserved":false,"is_disabled":false,"rental_uris":{"android":"levelo://app?vid=b2d0bee3-8553-4527-a831-d1e903999f00","ios":"levelo://app?vid=b2d0bee3-8553-4527-a831-d1e903999f00"},"vehicle_type_id":"4","last_reported":1765969877,"current_range_meters":8400,"station_id":"","pricing_plan_id":"cebpf4jnsgd1na2vs0mg"},{"bike_id":"572fd032-f62a-46e0-ab46-89098c0755dc","system_id":"levelo_inurba_marseille","lat":43.29788,"lon":5.38095,"is_reserved":false,"is_disabled":true,"rental_uris":{"android":"levelo://app?vid=572fd032-f62a-46e0-ab46-89098c0755dc","ios":"levelo://app?vid=572fd032-f62a-46e0-ab46-89098c0755dc"},"vehicle_type_id":"4","last_reported":1765969877,"current_range_meters":8400,"station_id":"ce4bgip2rcd13ifvqbb0","pricing_plan_id":"cebpf4jnsgd1na2vs0mg"},{"bike_id":"ab4ef196-e8fa-4fab-81e9-8ad3ad4973f7","system_id":"levelo_inurba_marseille","lat":43.27065,"lon":5.42284,"is_reserved":false,"is_disabled":true,"rental_uris":{"android":"levelo://app?vid=ab4ef196-e8fa-4fab-81e9-8ad3ad4973f7","ios":"levelo://app?vid=ab4ef196-e8fa-4fab-81e9-8ad3ad4973f7"},"vehicle_type_id":"4","last_reported":1765969877,"current_range_meters":8400,"station_id":"ce4bhk92rcd13ifvqgb0","pricing_plan_id":"cebpf4jnsgd1na2vs0mg"},{"bike_id":"f5c06492-8ff7-4eb9-a21d-99dd280e7db4","system_id":"levelo_inurba_marseille","lat":43.29813,"lon":5.44052,"is_reserved":false,"is_disabled":false,"rental_uris":{"android":"levelo://app?vid=f5c06492-8ff7-4eb9-a21d-99dd280e7db4","ios":"levelo://app?vid=f5c06492-8ff7-4eb9-a21d-99dd280e7db4"},"vehicle_type_id":"4","last_reported":1765969877,"current_range_meters":8400,"station_id":"st_d3jp68qikq2c7381ktn0","pricing_plan_id":"cebpf4jnsgd1na2vs0mg"},{"bike_id":"c9e6665f-b026-43de-af69-64ad30f60e50","system_id":"levelo_inurba_marseille","lat":43.24655,"lon":5.38159,"is_reserved":false,"is_disabled":false,"rental_uris":{"android":"levelo://app?vid=c9e6665f-b026-43de-af69-64ad30f60e50","ios":"levelo://app?vid=c9e6665f-b026-43de-af69-64ad30f60e50"},"vehicle_type_id":"4","last_reported":1765969877,"current_range_meters":8400,"station_id":"ce4bhih2rcd13ifvqfr0","pricing_plan_id":"cebpf4jnsgd1na2vs0mg"},{"bike_id":"2cd9312c-4ea4-464a-b003-d9661cb2263e","system_id":"levelo_inurba_marseille","lat":43.309436,"lon":5.390386,"is_reserved":false,"is_disabled":false,"rental_uris":{"android":"levelo://app?vid=2cd9312c-4ea4-464a-b003-d9661cb2263e","ios":"levelo://app?vid=2cd9312c-4ea4-464a-b003-d9661cb2263e"},"vehicle_type_id":"4","last_reported":1765969877,"current_range_meters":8400,"station_id":"ce4bgup2rcd13ifvqco0","pricing_plan_id":"cebpf4jnsgd1na2vs0mg"},{"bike_id":"7b9bd5de-20ee-492a-91cc-3964972326b2","system_id":"levelo_inurba_marseille","lat":43.29486,"lon":5.38301,"is_reserved":false,"is_disabled":false,"rental_uris":{"android":"levelo://app?vid=7b9bd5de-20ee-492a-91cc-3964972326b2","ios":"levelo://app?vid=7b9bd5de-20ee-492a-91cc-3964972326b2"},"vehicle_type_id":"4","last_reported":1765969877,"current_range_meters":8400,"station_id":"","pricing_plan_id":"cebpf4jnsgd1na2vs0mg"},{"bike_id":"92b47ad1-962b-47ef-8f01-a02cee29fc89","system_id":"levelo_inurba_marseille","lat":43.238159,"lon":5.367564,"is_reserved":false,"is_disabled":false,"rental_uris":{"android":"levelo://app?vid=92b47ad1-962b-47ef-8f01-a02cee29fc89","ios":"levelo://app?vid=92b47ad1-962b-47ef-8f01-a02cee29fc89"},"vehicle_type_id":"4","last_reported":1765969877,"current_range_meters":8400,"station_id":"","pricing_plan_id":"cebpf4jnsgd1na2vs0mg"},{"bike_id":"71eb1a16-88e0-457c-a111-7bb97e3f4d31","system_id":"levelo_inurba_marseille","lat":43.28533,"lon":5.440999,"is_reserved":false,"is_disabled":false,"rental_uris":{"android":"levelo://app?vid=71eb1a16-88e0-457c-a111-7bb97e3f4d31","ios":"levelo://app?vid=71eb1a16-88e0-457c-a111-7bb97e3f4d31"},"vehicle_type_id":"4","last_reported":1765969877,"current_range_meters":8800,"station_id":"st_d3j3df2ikq2c7380ej80","pricing_plan_id":"cebpf4jnsgd1na2vs0mg"},{"bike_id":"0c5cdd37-74ba-4bec-ad3f-111028faf8e2","system_id":"levelo_inurba_marseille","lat":43.2972,"lon":5.37683,"is_reserved":false,"is_disabled":false,"rental_uris":{"android":"levelo://app?vid=0c5cdd37-74ba-4bec-ad3f-111028faf8e2","ios":"levelo://app?vid=0c5cdd37-74ba-4bec-ad3f-111028faf8e2"},"vehicle_type_id":"4","last_reported":1765969877,"current_range_meters":8800,"station_id":"ce4bgkh2rcd13ifvqbl0","pricing_plan_id":"cebpf4jnsgd1na2vs0mg"},{"bike_id":"7eaed911-52ff-45ed-b3ff-cd17f37407d1","system_id":"levelo_inurba_marseille","lat":43.28233,"lon":5.349056,"is_reserved":false,"is_disabled":false,"rental_uris":{"android":"levelo://app?vid=7eaed911-52ff-45ed-b3ff-cd17f37407d1","ios":"levelo://app?vid=7eaed911-52ff-45ed-b3ff-cd17f37407d1"},"vehicle_type_id":"4","last_reported":1765969877,"current_range_meters":8800,"station_id":"","pricing_plan_id":"cebpf4jnsgd1na2vs0mg"},{"bike_id":"17941308-d1b2-4923-b83f-cd6b60634fd9","system_id":"levelo_inurba_marseille","lat":43.304613,"lon":5.379071,"is_reserved":false,"is_disabled":false,"rental_uris":{"android":"levelo://app?vid=17941308-d1b2-4923-b83f-cd6b60634fd9","ios":"levelo://app?vid=17941308-d1b2-4923-b83f-cd6b60634fd9"},"vehicle_type_id":"4","last_reported":1765969877,"current_range_meters":8800,"station_id":"ce4bgup2rcd13ifvqcn0","pricing_plan_id":"cebpf4jnsgd1na2vs0mg"},{"bike_id":"54f8fe26-ad2a-40ba-8e6d-e7235d52405d","system_id":"levelo_inurba_marseille","lat":43.25336,"lon":5.42115,"is_reserved":false,"is_disabled":true,"rental_uris":{"android":"levelo://app?vid=54f8fe26-ad2a-40ba-8e6d-e7235d52405d","ios":"levelo://app?vid=54f8fe26-ad2a-40ba-8e6d-e7235d52405d"},"vehicle_type_id":"4","last_reported":1765969877,"current_range_meters":9200,"station_id":"st_d2m65c5bi1j21697t3ng","pricing_plan_id":"cebpf4jnsgd1na2vs0mg"},{"bike_id":"4d48063d-7043-48ed-9926-f9fbf99121d3","system_id":"levelo_inurba_marseille","lat":43.31176,"lon":5.36879,"is_reserved":false,"is_disabled":false,"rental_uris":{"android":"levelo://app?vid=4d48063d-7043-48ed-9926-f9fbf99121d3","ios":"levelo://app?vid=4d48063d-7043-48ed-9926-f9fbf99121d3"},"vehicle_type_id":"4","last_reported":1765969877,"current_range_meters":9200,"station_id":"","pricing_plan_id":"cebpf4jnsgd1na2vs0mg"},{"bike_id":"d5bc7859-01b8-47c6-9da5-420eae417ab9","system_id":"levelo_inurba_marseille","lat":43.24621,"lon":5.43156,"is_reserved":false,"is_disabled":false,"rental_uris":{"android":"levelo://app?vid=d5bc7859-01b8-47c6-9da5-420eae417ab9","ios":"levelo://app?vid=d5bc7859-01b8-47c6-9da5-420eae417ab9"},"vehicle_type_id":"4","last_reported":1765969877,"current_range_meters":9200,"station_id":"st_d2m6c4gdas8pm72e190g","pricing_plan_id":"cebpf4jnsgd1na2vs0mg"},{"bike_id":"79774207-e718-4713-aff9-e4ed58b624c9","system_id":"levelo_inurba_marseille","lat":43.3012,"lon":5.37424,"is_reserved":false,"is_disabled":false,"rental_uris":{"android":"levelo://app?vid=79774207-e718-4713-aff9-e4ed58b624c9","ios":"levelo://app?vid=79774207-e718-4713-aff9-e4ed58b624c9"},"vehicle_type_id":"4","last_reported":1765969877,"current_range_meters":9200,"station_id":"ce4bgs92rcd13ifvqcc0","pricing_plan_id":"cebpf4jnsgd1na2vs0mg"},{"bike_id":"36ca5b20-ca80-4cb2-bcd1-60ad71c55028","system_id":"levelo_inurba_marseille","lat":43.26661,"lon":5.38263,"is_reserved":false,"is_disabled":false,"rental_uris":{"android":"levelo://app?vid=36ca5b20-ca80-4cb2-bcd1-60ad71c55028","ios":"levelo://app?vid=36ca5b20-ca80-4cb2-bcd1-60ad71c55028"},"vehicle_type_id":"4","last_reported":1765969877,"current_range_meters":9200,"station_id":"ce4bhg92rcd13ifvqf90","pricing_plan_id":"cebpf4jnsgd1na2vs0mg"},{"bike_id":"1702352c-5706-4812-bf2d-5c80d9acb39a","system_id":"levelo_inurba_marseille","lat":43.33606,"lon":5.41038,"is_reserved":false,"is_disabled":false,"rental_uris":{"android":"levelo://app?vid=1702352c-5706-4812-bf2d-5c80d9acb39a","ios":"levelo://app?vid=1702352c-5706-4812-bf2d-5c80d9acb39a"},"vehicle_type_id":"4","last_reported":1765969877,"current_range_meters":9200,"station_id":"ce4bhqh2rcd13ifvqhmg","pricing_plan_id":"cebpf4jnsgd1na2vs0mg"},{"bike_id":"19467a3c-41ef-4d77-a898-8de8e17f989d","system_id":"levelo_inurba_marseille","lat":43.211908,"lon":5.35073,"is_reserved":false,"is_disabled":false,"rental_uris":{"android":"levelo://app?vid=19467a3c-41ef-4d77-a898-8de8e17f989d","ios":"levelo://app?vid=19467a3c-41ef-4d77-a898-8de8e17f989d"},"vehicle_type_id":"4","last_reported":1765969877,"current_range_meters":9200,"station_id":"st_cvj6sg6p6f1abm77japg","pricing_plan_id":"cebpf4jnsgd1na2vs0mg"},{"bike_id":"021d186c-e4d7-44d2-8954-999ce19e0205","system_id":"levelo_inurba_marseille","lat":43.29567,"lon":5.37526,"is_reserved":false,"is_disabled":false,"rental_uris":{"android":"levelo://app?vid=021d186c-e4d7-44d2-8954-999ce19e0205","ios":"levelo://app?vid=021d186c-e4d7-44d2-8954-999ce19e0205"},"vehicle_type_id":"4","last_reported":1765969877,"current_range_meters":9600,"station_id":"ce4bgh92rcd13ifvqb50","pricing_plan_id":"cebpf4jnsgd1na2vs0mg"},{"bike_id":"3e6bceb8-8ee1-45cf-b8d6-ed113307ff35","system_id":"levelo_inurba_marseille","lat":43.28152,"lon":5.42645,"is_reserved":false,"is_disabled":false,"rental_uris":{"android":"levelo://app?vid=3e6bceb8-8ee1-45cf-b8d6-ed113307ff35","ios":"levelo://app?vid=3e6bceb8-8ee1-45cf-b8d6-ed113307ff35"},"vehicle_type_id":"4","last_reported":1765969877,"current_range_meters":9600,"station_id":"ce4bhnh2rcd13ifvqgug","pricing_plan_id":"cebpf4jnsgd1na2vs0mg"},{"bike_id":"bc130e77-5ee7-45e0-bf54-5b08f01e2c73","system_id":"levelo_inurba_marseille","lat":43.255733,"lon":5.382229,"is_reserved":false,"is_disabled":false,"rental_uris":{"android":"levelo://app?vid=bc130e77-5ee7-45e0-bf54-5b08f01e2c73","ios":"levelo://app?vid=bc130e77-5ee7-45e0-bf54-5b08f01e2c73"},"vehicle_type_id":"4","last_reported":1765969877,"current_range_meters":9600,"station_id":"","pricing_plan_id":"cebpf4jnsgd1na2vs0mg"},{"bike_id":"89f5a425-6334-463b-8fab-6805660c96eb","system_id":"levelo_inurba_marseille","lat":43.31285,"lon":5.36831,"is_reserved":false,"is_disabled":false,"rental_uris":{"android":"levelo://app?vid=89f5a425-6334-463b-8fab-6805660c96eb","ios":"levelo://app?vid=89f5a425-6334-463b-8fab-6805660c96eb"},"vehicle_type_id":"4","last_reported":1765969877,"current_range_meters":9600,"station_id":"","pricing_plan_id":"cebpf4jnsgd1na2vs0mg"},{"bike_id":"ad5077e7-adfd-4460-ab6e-dc27206627c9","system_id":"levelo_inurba_marseille","lat":43.237821,"lon":5.366309,"is_reserved":false,"is_disabled":false,"rental_uris":{"android":"levelo://app?vid=ad5077e7-adfd-4460-ab6e-dc27206627c9","ios":"levelo://app?vid=ad5077e7-adfd-4460-ab6e-dc27206627c9"},"vehicle_type_id":"4","last_reported":1765969877,"current_range_meters":9600,"station_id":"st_d3nk18o9ro0c73en2l3g","pricing_plan_id":"cebpf4jnsgd1na2vs0mg"},{"bike_id":"15c757bc-97dd-4fce-b499-42d9f825680b","system_id":"levelo_inurba_marseille","lat":43.30066,"lon":5.43149,"is_reserved":false,"is_disabled":false,"rental_uris":{"android":"levelo://app?vid=15c757bc-97dd-4fce-b499-42d9f825680b","ios":"levelo://app?vid=15c757bc-97dd-4fce-b499-42d9f825680b"},"vehicle_type_id":"4","last_reported":1765969877,"current_range_meters":9600,"station_id":"st_d3js3co5814s73ftftug","pricing_plan_id":"cebpf4jnsgd1na2vs0mg"},{"bike_id":"a5f8dd73-c520-4a93-9306-16c5578d9eb3","system_id":"levelo_inurba_marseille","lat":43.27661,"lon":5.38896,"is_reserved":false,"is_disabled":false,"rental_uris":{"android":"levelo://app?vid=a5f8dd73-c520-4a93-9306-16c5578d9eb3","ios":"levelo://app?vid=a5f8dd73-c520-4a93-9306-16c5578d9eb3"},"vehicle_type_id":"4","last_reported":1765969877,"current_range_meters":9600,"station_id":"ce4bhi12rcd13ifvqfo0","pricing_plan_id":"cebpf4jnsgd1na2vs0mg"},{"bike_id":"cf734f94-b262-4ffc-9fc0-92fd033e5774","system_id":"levelo_inurba_marseille","lat":43.30138,"lon":5.37418,"is_reserved":false,"is_disabled":false,"rental_uris":{"android":"levelo://app?vid=cf734f94-b262-4ffc-9fc0-92fd033e5774","ios":"levelo://app?vid=cf734f94-b262-4ffc-9fc0-92fd033e5774"},"vehicle_type_id":"4","last_reported":1765969877,"current_range_meters":9600,"station_id":"ce4bgs92rcd13ifvqcc0","pricing_plan_id":"cebpf4jnsgd1na2vs0mg"},{"bike_id":"6b2073a2-5df3-44d3-9b01-4b8173586f34","system_id":"levelo_inurba_marseille","lat":43.26366,"lon":5.41083,"is_reserved":false,"is_disabled":false,"rental_uris":{"android":"levelo://app?vid=6b2073a2-5df3-44d3-9b01-4b8173586f34","ios":"levelo://app?vid=6b2073a2-5df3-44d3-9b01-4b8173586f34"},"vehicle_type_id":"4","last_reported":1765969877,"current_range_meters":10000,"station_id":"st_d4e5ca6na9uc73bfl5fg","pricing_plan_id":"cebpf4jnsgd1na2vs0mg"},{"bike_id":"bdec3b25-1ef1-4f5b-bb7c-5dba5dbc125f","system_id":"levelo_inurba_marseille","lat":43.319394,"lon":5.372859,"is_reserved":false,"is_disabled":false,"rental_uris":{"android":"levelo://app?vid=bdec3b25-1ef1-4f5b-bb7c-5dba5dbc125f","ios":"levelo://app?vid=bdec3b25-1ef1-4f5b-bb7c-5dba5dbc125f"},"vehicle_type_id":"4","last_reported":1765969877,"current_range_meters":10000,"station_id":"","pricing_plan_id":"cebpf4jnsgd1na2vs0mg"},{"bike_id":"5cde72fc-6b41-4764-bcbf-9fc9dff4199e","system_id":"levelo_inurba_marseille","lat":43.337538,"lon":5.374581,"is_reserved":false,"is_disabled":false,"rental_uris":{"android":"levelo://app?vid=5cde72fc-6b41-4764-bcbf-9fc9dff4199e","ios":"levelo://app?vid=5cde72fc-6b41-4764-bcbf-9fc9dff4199e"},"vehicle_type_id":"4","last_reported":1765969877,"current_range_meters":10000,"station_id":"","pricing_plan_id":"cebpf4jnsgd1na2vs0mg"},{"bike_id":"cb5fb5c4-3bd8-4960-9377-b1a41b4ca74b","system_id":"levelo_inurba_marseille","lat":43.23142,"lon":5.43709,"is_reserved":false,"is_disabled":true,"rental_uris":{"android":"levelo://app?vid=cb5fb5c4-3bd8-4960-9377-b1a41b4ca74b","ios":"levelo://app?vid=cb5fb5c4-3bd8-4960-9377-b1a41b4ca74b"},"vehicle_type_id":"4","last_reported":1765969877,"current_range_meters":10000,"station_id":"ce4bhmp2rcd13ifvqgog","pricing_plan_id":"cebpf4jnsgd1na2vs0mg"},{"bike_id":"43669ed1-ea05-4546-a1b2-93a8cbe95d89","system_id":"levelo_inurba_marseille","lat":43.2997,"lon":5.38487,"is_reserved":false,"is_disabled":false,"rental_uris":{"android":"levelo://app?vid=43669ed1-ea05-4546-a1b2-93a8cbe95d89","ios":"levelo://app?vid=43669ed1-ea05-4546-a1b2-93a8cbe95d89"},"vehicle_type_id":"4","last_reported":1765969877,"current_range_meters":10000,"station_id":"ce4bgj92rcd13ifvqbd0","pricing_plan_id":"cebpf4jnsgd1na2vs0mg"},{"bike_id":"6a26ef33-8204-4bf8-bbbb-122b1a4410f3","system_id":"levelo_inurba_marseille","lat":43.27308,"lon":5.41043,"is_reserved":false,"is_disabled":false,"rental_uris":{"android":"levelo://app?vid=6a26ef33-8204-4bf8-bbbb-122b1a4410f3","ios":"levelo://app?vid=6a26ef33-8204-4bf8-bbbb-122b1a4410f3"},"vehicle_type_id":"4","last_reported":1765969877,"current_range_meters":10000,"station_id":"","pricing_plan_id":"cebpf4jnsgd1na2vs0mg"},{"bike_id":"4c0adb54-e09e-48f3-baae-3a20f0af4e72","system_id":"levelo_inurba_marseille","lat":43.33573,"lon":5.41037,"is_reserved":false,"is_disabled":false,"rental_uris":{"android":"levelo://app?vid=4c0adb54-e09e-48f3-baae-3a20f0af4e72","ios":"levelo://app?vid=4c0adb54-e09e-48f3-baae-3a20f0af4e72"},"vehicle_type_id":"4","last_reported":1765969877,"current_range_meters":10000,"station_id":"ce4bhqh2rcd13ifvqhmg","pricing_plan_id":"cebpf4jnsgd1na2vs0mg"},{"bike_id":"fcb7265f-af18-4037-8b23-1066b4cf8b35","system_id":"levelo_inurba_marseille","lat":43.30544,"lon":5.36538,"is_reserved":false,"is_disabled":false,"rental_uris":{"android":"levelo://app?vid=fcb7265f-af18-4037-8b23-1066b4cf8b35","ios":"levelo://app?vid=fcb7265f-af18-4037-8b23-1066b4cf8b35"},"vehicle_type_id":"4","last_reported":1765969877,"current_range_meters":10000,"station_id":"ce4bgs12rcd13ifvqcag","pricing_plan_id":"cebpf4jnsgd1na2vs0mg"},{"bike_id":"ce4f78ce-191c-4147-9cd8-b18111113313","system_id":"levelo_inurba_marseille","lat":43.312193,"lon":5.368591,"is_reserved":false,"is_disabled":false,"rental_uris":{"android":"levelo://app?vid=ce4f78ce-191c-4147-9cd8-b18111113313","ios":"levelo://app?vid=ce4f78ce-191c-4147-9cd8-b18111113313"},"vehicle_type_id":"4","last_reported":1765969877,"current_range_meters":10000,"station_id":"ce4bgl92rcd13ifvqbq0","pricing_plan_id":"cebpf4jnsgd1na2vs0mg"},{"bike_id":"889b5538-5518-43d3-98c5-0df486ced8da","system_id":"levelo_inurba_marseille","lat":43.29379,"lon":5.37871,"is_reserved":false,"is_disabled":true,"rental_uris":{"android":"levelo://app?vid=889b5538-5518-43d3-98c5-0df486ced8da","ios":"levelo://app?vid=889b5538-5518-43d3-98c5-0df486ced8da"},"vehicle_type_id":"4","last_reported":1765969877,"current_range_meters":10800,"station_id":"ce4bgjh2rcd13ifvqbf0","pricing_plan_id":"cebpf4jnsgd1na2vs0mg"},{"bike_id":"e7818b76-58e8-4719-aa25-2f3ba9bf12f1","system_id":"levelo_inurba_marseille","lat":43.33606,"lon":5.41032,"is_reserved":false,"is_disabled":false,"rental_uris":{"android":"levelo://app?vid=e7818b76-58e8-4719-aa25-2f3ba9bf12f1","ios":"levelo://app?vid=e7818b76-58e8-4719-aa25-2f3ba9bf12f1"},"vehicle_type_id":"4","last_reported":1765969877,"current_range_meters":10800,"station_id":"ce4bhqh2rcd13ifvqhmg","pricing_plan_id":"cebpf4jnsgd1na2vs0mg"},{"bike_id":"8a45a56c-93d7-40d2-8c37-3ef4db3b7fd5","system_id":"levelo_inurba_marseille","lat":43.29443,"lon":5.39765,"is_reserved":false,"is_disabled":true,"rental_uris":{"android":"levelo://app?vid=8a45a56c-93d7-40d2-8c37-3ef4db3b7fd5","ios":"levelo://app?vid=8a45a56c-93d7-40d2-8c37-3ef4db3b7fd5"},"vehicle_type_id":"4","last_reported":1765969877,"current_range_meters":10800,"station_id":"ce4bh3h2rcd13ifvqdo0","pricing_plan_id":"cebpf4jnsgd1na2vs0mg"},{"bike_id":"23c77aab-e0a6-42f5-b7a1-3bd6707fe7ea","system_id":"levelo_inurba_marseille","lat":43.305535,"lon":5.365586,"is_reserved":false,"is_disabled":false,"rental_uris":{"android":"levelo://app?vid=23c77aab-e0a6-42f5-b7a1-3bd6707fe7ea","ios":"levelo://app?vid=23c77aab-e0a6-42f5-b7a1-3bd6707fe7ea"},"vehicle_type_id":"4","last_reported":1765969877,"current_range_meters":10800,"station_id":"","pricing_plan_id":"cebpf4jnsgd1na2vs0mg"},{"bike_id":"af2eb47c-0fb5-49f7-aa1f-f458aa68ba7f","system_id":"levelo_inurba_marseille","lat":43.282648,"lon":5.35062,"is_reserved":false,"is_disabled":false,"rental_uris":{"android":"levelo://app?vid=af2eb47c-0fb5-49f7-aa1f-f458aa68ba7f","ios":"levelo://app?vid=af2eb47c-0fb5-49f7-aa1f-f458aa68ba7f"},"vehicle_type_id":"4","last_reported":1765969877,"current_range_meters":10800,"station_id":"ce4bhbp2rcd13ifvqerg","pricing_plan_id":"cebpf4jnsgd1na2vs0mg"},{"bike_id":"03d77e42-9077-44b7-a023-b18e6472f707","system_id":"levelo_inurba_marseille","lat":43.21189,"lon":5.35079,"is_reserved":false,"is_disabled":false,"rental_uris":{"android":"levelo://app?vid=03d77e42-9077-44b7-a023-b18e6472f707","ios":"levelo://app?vid=03d77e42-9077-44b7-a023-b18e6472f707"},"vehicle_type_id":"4","last_reported":1765969877,"current_range_meters":10800,"station_id":"st_cvj6sg6p6f1abm77japg","pricing_plan_id":"cebpf4jnsgd1na2vs0mg"},{"bike_id":"a6a2b2eb-9fac-4a15-8bbe-853cd503e49d","system_id":"levelo_inurba_marseille","lat":43.31709,"lon":5.43708,"is_reserved":false,"is_disabled":false,"rental_uris":{"android":"levelo://app?vid=a6a2b2eb-9fac-4a15-8bbe-853cd503e49d","ios":"levelo://app?vid=a6a2b2eb-9fac-4a15-8bbe-853cd503e49d"},"vehicle_type_id":"4","last_reported":1765969877,"current_range_meters":10800,"station_id":"ce4bhp92rcd13ifvqhcg","pricing_plan_id":"cebpf4jnsgd1na2vs0mg"},{"bike_id":"fcddb508-236d-428b-9038-c3ba4ac2e194","system_id":"levelo_inurba_marseille","lat":43.317344,"lon":5.37644,"is_reserved":false,"is_disabled":false,"rental_uris":{"android":"levelo://app?vid=fcddb508-236d-428b-9038-c3ba4ac2e194","ios":"levelo://app?vid=fcddb508-236d-428b-9038-c3ba4ac2e194"},"vehicle_type_id":"4","last_reported":1765969877,"current_range_meters":11200,"station_id":"","pricing_plan_id":"cebpf4jnsgd1na2vs0mg"},{"bike_id":"83ae917c-7fe4-47bf-a2eb-2d59c3f51a7e","system_id":"levelo_inurba_marseille","lat":43.265576,"lon":5.372854,"is_reserved":false,"is_disabled":false,"rental_uris":{"android":"levelo://app?vid=83ae917c-7fe4-47bf-a2eb-2d59c3f51a7e","ios":"levelo://app?vid=83ae917c-7fe4-47bf-a2eb-2d59c3f51a7e"},"vehicle_type_id":"4","last_reported":1765969877,"current_range_meters":11200,"station_id":"ce4bhih2rcd13ifvqfr0","pricing_plan_id":"cebpf4jnsgd1na2vs0mg"},{"bike_id":"c979a21f-bcaf-4c34-8e28-1104d1a2a623","system_id":"levelo_inurba_marseille","lat":43.32498,"lon":5.38301,"is_reserved":false,"is_disabled":false,"rental_uris":{"android":"levelo://app?vid=c979a21f-bcaf-4c34-8e28-1104d1a2a623","ios":"levelo://app?vid=c979a21f-bcaf-4c34-8e28-1104d1a2a623"},"vehicle_type_id":"4","last_reported":1765969877,"current_range_meters":11200,"station_id":"st_d4asgbiv49dc73anf9m0","pricing_plan_id":"cebpf4jnsgd1na2vs0mg"},{"bike_id":"2767f57f-39fa-4688-8cd5-1803c9b01059","system_id":"levelo_inurba_marseille","lat":43.28144,"lon":5.42636,"is_reserved":false,"is_disabled":false,"rental_uris":{"android":"levelo://app?vid=2767f57f-39fa-4688-8cd5-1803c9b01059","ios":"levelo://app?vid=2767f57f-39fa-4688-8cd5-1803c9b01059"},"vehicle_type_id":"4","last_reported":1765969877,"current_range_meters":11200,"station_id":"ce4bhnh2rcd13ifvqgug","pricing_plan_id":"cebpf4jnsgd1na2vs0mg"},{"bike_id":"5c770126-be0f-4320-9b77-8c906c744b81","system_id":"levelo_inurba_marseille","lat":43.26776,"lon":5.39398,"is_reserved":false,"is_disabled":false,"rental_uris":{"android":"levelo://app?vid=5c770126-be0f-4320-9b77-8c906c744b81","ios":"levelo://app?vid=5c770126-be0f-4320-9b77-8c906c744b81"},"vehicle_type_id":"4","last_reported":1765969877,"current_range_meters":11200,"station_id":"ce4bhh12rcd13ifvqfg0","pricing_plan_id":"cebpf4jnsgd1na2vs0mg"},{"bike_id":"5819d311-891e-4625-8419-798b0a87d4fe","system_id":"levelo_inurba_marseille","lat":43.24385,"lon":5.37053,"is_reserved":false,"is_disabled":false,"rental_uris":{"android":"levelo://app?vid=5819d311-891e-4625-8419-798b0a87d4fe","ios":"levelo://app?vid=5819d311-891e-4625-8419-798b0a87d4fe"},"vehicle_type_id":"4","last_reported":1765969877,"current_range_meters":11200,"station_id":"ce4bhhh2rcd13ifvqfk0","pricing_plan_id":"cebpf4jnsgd1na2vs0mg"},{"bike_id":"e83afe53-3337-4912-ab64-57122f432691","system_id":"levelo_inurba_marseille","lat":43.24394,"lon":5.37069,"is_reserved":false,"is_disabled":false,"rental_uris":{"android":"levelo://app?vid=e83afe53-3337-4912-ab64-57122f432691","ios":"levelo://app?vid=e83afe53-3337-4912-ab64-57122f432691"},"vehicle_type_id":"4","last_reported":1765969877,"current_range_meters":11200,"station_id":"ce4bhhh2rcd13ifvqfk0","pricing_plan_id":"cebpf4jnsgd1na2vs0mg"},{"bike_id":"68a49bec-68cb-4a5a-a61d-1d00087445d7","system_id":"levelo_inurba_marseille","lat":43.28385,"lon":5.34995,"is_reserved":false,"is_disabled":false,"rental_uris":{"android":"levelo://app?vid=68a49bec-68cb-4a5a-a61d-1d00087445d7","ios":"levelo://app?vid=68a49bec-68cb-4a5a-a61d-1d00087445d7"},"vehicle_type_id":"4","last_reported":1765969877,"current_range_meters":11600,"station_id":"ce4bhbh2rcd13ifvqepg","pricing_plan_id":"cebpf4jnsgd1na2vs0mg"},{"bike_id":"2a06acbd-ead5-4352-b15b-b94ed28d6d2e","system_id":"levelo_inurba_marseille","lat":43.33767,"lon":5.37454,"is_reserved":false,"is_disabled":false,"rental_uris":{"android":"levelo://app?vid=2a06acbd-ead5-4352-b15b-b94ed28d6d2e","ios":"levelo://app?vid=2a06acbd-ead5-4352-b15b-b94ed28d6d2e"},"vehicle_type_id":"4","last_reported":1765969877,"current_range_meters":11600,"station_id":"","pricing_plan_id":"cebpf4jnsgd1na2vs0mg"},{"bike_id":"0f28b80e-ee7f-47f3-9eea-fe09714ef2c4","system_id":"levelo_inurba_marseille","lat":43.337538,"lon":5.374581,"is_reserved":false,"is_disabled":false,"rental_uris":{"android":"levelo://app?vid=0f28b80e-ee7f-47f3-9eea-fe09714ef2c4","ios":"levelo://app?vid=0f28b80e-ee7f-47f3-9eea-fe09714ef2c4"},"vehicle_type_id":"4","last_reported":1765969877,"current_range_meters":11600,"station_id":"","pricing_plan_id":"cebpf4jnsgd1na2vs0mg"},{"bike_id":"9f2f990e-a17c-4f6c-a4a5-29e0700c6330","system_id":"levelo_inurba_marseille","lat":43.30543,"lon":5.36717,"is_reserved":false,"is_disabled":false,"rental_uris":{"android":"levelo://app?vid=9f2f990e-a17c-4f6c-a4a5-29e0700c6330","ios":"levelo://app?vid=9f2f990e-a17c-4f6c-a4a5-29e0700c6330"},"vehicle_type_id":"4","last_reported":1765969877,"current_range_meters":11600,"station_id":"ce4bgrp2rcd13ifvqc9g","pricing_plan_id":"cebpf4jnsgd1na2vs0mg"},{"bike_id":"40153267-46e1-4ff3-b83e-d46301ea8576","system_id":"levelo_inurba_marseille","lat":43.29884,"lon":5.39747,"is_reserved":false,"is_disabled":false,"rental_uris":{"android":"levelo://app?vid=40153267-46e1-4ff3-b83e-d46301ea8576","ios":"levelo://app?vid=40153267-46e1-4ff3-b83e-d46301ea8576"},"vehicle_type_id":"4","last_reported":1765969877,"current_range_meters":11600,"station_id":"ce4bh0h2rcd13ifvqd50","pricing_plan_id":"cebpf4jnsgd1na2vs0mg"},{"bike_id":"1f825f20-8f06-4ed8-8eb4-0e4a8ab8b02f","system_id":"levelo_inurba_marseille","lat":43.30539,"lon":5.38417,"is_reserved":false,"is_disabled":true,"rental_uris":{"android":"levelo://app?vid=1f825f20-8f06-4ed8-8eb4-0e4a8ab8b02f","ios":"levelo://app?vid=1f825f20-8f06-4ed8-8eb4-0e4a8ab8b02f"},"vehicle_type_id":"4","last_reported":1765969877,"current_range_meters":11600,"station_id":"ce4bgg92rcd13ifvqb30","pricing_plan_id":"cebpf4jnsgd1na2vs0mg"},{"bike_id":"7470f7ec-7c1d-489b-a8f1-7507a064b9c8","system_id":"levelo_inurba_marseille","lat":43.284781,"lon":5.48389,"is_reserved":false,"is_disabled":false,"rental_uris":{"android":"levelo://app?vid=7470f7ec-7c1d-489b-a8f1-7507a064b9c8","ios":"levelo://app?vid=7470f7ec-7c1d-489b-a8f1-7507a064b9c8"},"vehicle_type_id":"4","last_reported":1765969877,"current_range_meters":12000,"station_id":"st_d3svhcjqgbts73a3dn0g","pricing_plan_id":"cebpf4jnsgd1na2vs0mg"},{"bike_id":"4651291d-dd37-44b8-91ca-f4fe7c9a4167","system_id":"levelo_inurba_marseille","lat":43.288737,"lon":5.425204,"is_reserved":false,"is_disabled":false,"rental_uris":{"android":"levelo://app?vid=4651291d-dd37-44b8-91ca-f4fe7c9a4167","ios":"levelo://app?vid=4651291d-dd37-44b8-91ca-f4fe7c9a4167"},"vehicle_type_id":"4","last_reported":1765969877,"current_range_meters":12000,"station_id":"st_d3b462108ojc7389ooeg","pricing_plan_id":"cebpf4jnsgd1na2vs0mg"},{"bike_id":"65fa0266-c642-4f7e-9943-7e25c06fef3c","system_id":"levelo_inurba_marseille","lat":43.30488,"lon":5.37904,"is_reserved":false,"is_disabled":false,"rental_uris":{"android":"levelo://app?vid=65fa0266-c642-4f7e-9943-7e25c06fef3c","ios":"levelo://app?vid=65fa0266-c642-4f7e-9943-7e25c06fef3c"},"vehicle_type_id":"4","last_reported":1765969877,"current_range_meters":12000,"station_id":"ce4bgup2rcd13ifvqcn0","pricing_plan_id":"cebpf4jnsgd1na2vs0mg"},{"bike_id":"6e071e61-9d6e-4a02-8914-eba8c7f9027d","system_id":"levelo_inurba_marseille","lat":43.284702,"lon":5.384307,"is_reserved":false,"is_disabled":false,"rental_uris":{"android":"levelo://app?vid=6e071e61-9d6e-4a02-8914-eba8c7f9027d","ios":"levelo://app?vid=6e071e61-9d6e-4a02-8914-eba8c7f9027d"},"vehicle_type_id":"4","last_reported":1765969877,"current_range_meters":12000,"station_id":"ce4bh512rcd13ifvqe3g","pricing_plan_id":"cebpf4jnsgd1na2vs0mg"},{"bike_id":"bc2a9f34-eb4c-4326-8288-2a761dd948c9","system_id":"levelo_inurba_marseille","lat":43.29006,"lon":5.35615,"is_reserved":false,"is_disabled":false,"rental_uris":{"android":"levelo://app?vid=bc2a9f34-eb4c-4326-8288-2a761dd948c9","ios":"levelo://app?vid=bc2a9f34-eb4c-4326-8288-2a761dd948c9"},"vehicle_type_id":"4","last_reported":1765969877,"current_range_meters":12000,"station_id":"ce4bhb92rcd13ifvqen0","pricing_plan_id":"cebpf4jnsgd1na2vs0mg"},{"bike_id":"e52f4ad0-f100-40eb-810c-c2bfb55704c4","system_id":"levelo_inurba_marseille","lat":43.321131,"lon":5.367616,"is_reserved":false,"is_disabled":false,"rental_uris":{"android":"levelo://app?vid=e52f4ad0-f100-40eb-810c-c2bfb55704c4","ios":"levelo://app?vid=e52f4ad0-f100-40eb-810c-c2bfb55704c4"},"vehicle_type_id":"4","last_reported":1765969877,"current_range_meters":12400,"station_id":"ce4bhrh2rcd13ifvqhug","pricing_plan_id":"cebpf4jnsgd1na2vs0mg"},{"bike_id":"cc24a40e-63a3-4e7f-9499-581caf9da95e","system_id":"levelo_inurba_marseille","lat":43.2861,"lon":5.35104,"is_reserved":false,"is_disabled":false,"rental_uris":{"android":"levelo://app?vid=cc24a40e-63a3-4e7f-9499-581caf9da95e","ios":"levelo://app?vid=cc24a40e-63a3-4e7f-9499-581caf9da95e"},"vehicle_type_id":"4","last_reported":1765969877,"current_range_meters":12400,"station_id":"ce4bhch2rcd13ifvqeug","pricing_plan_id":"cebpf4jnsgd1na2vs0mg"},{"bike_id":"6eaf6cc4-b10f-435b-a4c3-93e897f6c344","system_id":"levelo_inurba_marseille","lat":43.29807,"lon":5.4407,"is_reserved":false,"is_disabled":false,"rental_uris":{"android":"levelo://app?vid=6eaf6cc4-b10f-435b-a4c3-93e897f6c344","ios":"levelo://app?vid=6eaf6cc4-b10f-435b-a4c3-93e897f6c344"},"vehicle_type_id":"4","last_reported":1765969877,"current_range_meters":12800,"station_id":"st_d3jp68qikq2c7381ktn0","pricing_plan_id":"cebpf4jnsgd1na2vs0mg"},{"bike_id":"2432f99d-27f2-42ef-b3e6-f7e71f39a4f6","system_id":"levelo_inurba_marseille","lat":43.30114,"lon":5.36854,"is_reserved":false,"is_disabled":false,"rental_uris":{"android":"levelo://app?vid=2432f99d-27f2-42ef-b3e6-f7e71f39a4f6","ios":"levelo://app?vid=2432f99d-27f2-42ef-b3e6-f7e71f39a4f6"},"vehicle_type_id":"4","last_reported":1765969877,"current_range_meters":12800,"station_id":"","pricing_plan_id":"cebpf4jnsgd1na2vs0mg"},{"bike_id":"cae1478d-1268-4134-aa1e-c58d3eaf9d38","system_id":"levelo_inurba_marseille","lat":43.31915,"lon":5.4007,"is_reserved":false,"is_disabled":false,"rental_uris":{"android":"levelo://app?vid=cae1478d-1268-4134-aa1e-c58d3eaf9d38","ios":"levelo://app?vid=cae1478d-1268-4134-aa1e-c58d3eaf9d38"},"vehicle_type_id":"4","last_reported":1765969877,"current_range_meters":13600,"station_id":"","pricing_plan_id":"cebpf4jnsgd1na2vs0mg"},{"bike_id":"166dc5b2-2985-4311-897c-8acae1beacc2","system_id":"levelo_inurba_marseille","lat":43.3169,"lon":5.40474,"is_reserved":false,"is_disabled":false,"rental_uris":{"android":"levelo://app?vid=166dc5b2-2985-4311-897c-8acae1beacc2","ios":"levelo://app?vid=166dc5b2-2985-4311-897c-8acae1beacc2"},"vehicle_type_id":"4","last_reported":1765969877,"current_range_meters":13600,"station_id":"ce4bh012rcd13ifvqd00","pricing_plan_id":"cebpf4jnsgd1na2vs0mg"},{"bike_id":"0af4ee19-ad6f-42c6-b8c7-7743633e69ba","system_id":"levelo_inurba_marseille","lat":43.26675,"lon":5.38267,"is_reserved":false,"is_disabled":false,"rental_uris":{"android":"levelo://app?vid=0af4ee19-ad6f-42c6-b8c7-7743633e69ba","ios":"levelo://app?vid=0af4ee19-ad6f-42c6-b8c7-7743633e69ba"},"vehicle_type_id":"4","last_reported":1765969877,"current_range_meters":13600,"station_id":"ce4bhg92rcd13ifvqf90","pricing_plan_id":"cebpf4jnsgd1na2vs0mg"},{"bike_id":"540065f4-b9cc-492a-8ee2-e6cfe606f95e","system_id":"levelo_inurba_marseille","lat":43.33723,"lon":5.3748,"is_reserved":false,"is_disabled":false,"rental_uris":{"android":"levelo://app?vid=540065f4-b9cc-492a-8ee2-e6cfe606f95e","ios":"levelo://app?vid=540065f4-b9cc-492a-8ee2-e6cfe606f95e"},"vehicle_type_id":"4","last_reported":1765969877,"current_range_meters":13600,"station_id":"","pricing_plan_id":"cebpf4jnsgd1na2vs0mg"},{"bike_id":"6eb6c71a-338c-4517-a667-c3a57bcd2f80","system_id":"levelo_inurba_marseille","lat":43.264981,"lon":5.395411,"is_reserved":false,"is_disabled":false,"rental_uris":{"android":"levelo://app?vid=6eb6c71a-338c-4517-a667-c3a57bcd2f80","ios":"levelo://app?vid=6eb6c71a-338c-4517-a667-c3a57bcd2f80"},"vehicle_type_id":"4","last_reported":1765969877,"current_range_meters":13600,"station_id":"ce4bhi12rcd13ifvqfq0","pricing_plan_id":"cebpf4jnsgd1na2vs0mg"},{"bike_id":"0917b6d6-7025-49d8-b40a-e9bc03c75580","system_id":"levelo_inurba_marseille","lat":43.30285,"lon":5.37698,"is_reserved":false,"is_disabled":false,"rental_uris":{"android":"levelo://app?vid=0917b6d6-7025-49d8-b40a-e9bc03c75580","ios":"levelo://app?vid=0917b6d6-7025-49d8-b40a-e9bc03c75580"},"vehicle_type_id":"4","last_reported":1765969877,"current_range_meters":13600,"station_id":"ce4bguh2rcd13ifvqcj0","pricing_plan_id":"cebpf4jnsgd1na2vs0mg"},{"bike_id":"d1464135-ab7e-45e7-9454-ed9b224df88e","system_id":"levelo_inurba_marseille","lat":43.30147,"lon":5.38081,"is_reserved":false,"is_disabled":false,"rental_uris":{"android":"levelo://app?vid=d1464135-ab7e-45e7-9454-ed9b224df88e","ios":"levelo://app?vid=d1464135-ab7e-45e7-9454-ed9b224df88e"},"vehicle_type_id":"4","last_reported":1765969877,"current_range_meters":13600,"station_id":"ce4bgjp2rcd13ifvqbh0","pricing_plan_id":"cebpf4jnsgd1na2vs0mg"},{"bike_id":"72393a95-42a5-49b8-b7d7-bab87b9932e6","system_id":"levelo_inurba_marseille","lat":43.31464,"lon":5.45366,"is_reserved":false,"is_disabled":false,"rental_uris":{"android":"levelo://app?vid=72393a95-42a5-49b8-b7d7-bab87b9932e6","ios":"levelo://app?vid=72393a95-42a5-49b8-b7d7-bab87b9932e6"},"vehicle_type_id":"4","last_reported":1765969877,"current_range_meters":13600,"station_id":"","pricing_plan_id":"cebpf4jnsgd1na2vs0mg"},{"bike_id":"3abe0285-d755-443b-9694-eb8b26ac2c6e","system_id":"levelo_inurba_marseille","lat":43.31207,"lon":5.36869,"is_reserved":false,"is_disabled":false,"rental_uris":{"android":"levelo://app?vid=3abe0285-d755-443b-9694-eb8b26ac2c6e","ios":"levelo://app?vid=3abe0285-d755-443b-9694-eb8b26ac2c6e"},"vehicle_type_id":"4","last_reported":1765969877,"current_range_meters":14000,"station_id":"ce4bgl92rcd13ifvqbq0","pricing_plan_id":"cebpf4jnsgd1na2vs0mg"},{"bike_id":"fe8b4597-b860-43e8-b7a3-80a16126a1b9","system_id":"levelo_inurba_marseille","lat":43.31356,"lon":5.36698,"is_reserved":false,"is_disabled":false,"rental_uris":{"android":"levelo://app?vid=fe8b4597-b860-43e8-b7a3-80a16126a1b9","ios":"levelo://app?vid=fe8b4597-b860-43e8-b7a3-80a16126a1b9"},"vehicle_type_id":"4","last_reported":1765969877,"current_range_meters":14400,"station_id":"ce4bgr92rcd13ifvqc6g","pricing_plan_id":"cebpf4jnsgd1na2vs0mg"},{"bike_id":"e539de40-cc85-4550-81f1-cc76c8b5ff7d","system_id":"levelo_inurba_marseille","lat":43.32091,"lon":5.36823,"is_reserved":false,"is_disabled":false,"rental_uris":{"android":"levelo://app?vid=e539de40-cc85-4550-81f1-cc76c8b5ff7d","ios":"levelo://app?vid=e539de40-cc85-4550-81f1-cc76c8b5ff7d"},"vehicle_type_id":"4","last_reported":1765969877,"current_range_meters":14400,"station_id":"ce4bhrh2rcd13ifvqhug","pricing_plan_id":"cebpf4jnsgd1na2vs0mg"},{"bike_id":"eea538cb-a33c-4d44-b728-d965ec2c0585","system_id":"levelo_inurba_marseille","lat":43.2498,"lon":5.38936,"is_reserved":false,"is_disabled":false,"rental_uris":{"android":"levelo://app?vid=eea538cb-a33c-4d44-b728-d965ec2c0585","ios":"levelo://app?vid=eea538cb-a33c-4d44-b728-d965ec2c0585"},"vehicle_type_id":"4","last_reported":1765969877,"current_range_meters":14400,"station_id":"ce4bhgp2rcd13ifvqfd0","pricing_plan_id":"cebpf4jnsgd1na2vs0mg"},{"bike_id":"65b84533-8741-46b9-bb0d-285d5fc69333","system_id":"levelo_inurba_marseille","lat":43.29738,"lon":5.37689,"is_reserved":false,"is_disabled":false,"rental_uris":{"android":"levelo://app?vid=65b84533-8741-46b9-bb0d-285d5fc69333","ios":"levelo://app?vid=65b84533-8741-46b9-bb0d-285d5fc69333"},"vehicle_type_id":"4","last_reported":1765969877,"current_range_meters":14400,"station_id":"ce4bgkh2rcd13ifvqbl0","pricing_plan_id":"cebpf4jnsgd1na2vs0mg"},{"bike_id":"0eaebf46-1bd1-4aaf-b805-fb25a3bcd61e","system_id":"levelo_inurba_marseille","lat":43.29811,"lon":5.44063,"is_reserved":false,"is_disabled":false,"rental_uris":{"android":"levelo://app?vid=0eaebf46-1bd1-4aaf-b805-fb25a3bcd61e","ios":"levelo://app?vid=0eaebf46-1bd1-4aaf-b805-fb25a3bcd61e"},"vehicle_type_id":"4","last_reported":1765969877,"current_range_meters":14400,"station_id":"st_d3jp68qikq2c7381ktn0","pricing_plan_id":"cebpf4jnsgd1na2vs0mg"},{"bike_id":"babcbf2f-3149-4397-bed0-fc9fb158d7ef","system_id":"levelo_inurba_marseille","lat":43.2781,"lon":5.40721,"is_reserved":false,"is_disabled":true,"rental_uris":{"android":"levelo://app?vid=babcbf2f-3149-4397-bed0-fc9fb158d7ef","ios":"levelo://app?vid=babcbf2f-3149-4397-bed0-fc9fb158d7ef"},"vehicle_type_id":"4","last_reported":1765969877,"current_range_meters":14400,"station_id":"ce4bhnh2rcd13ifvqgtg","pricing_plan_id":"cebpf4jnsgd1na2vs0mg"},{"bike_id":"2ab38362-024b-4170-8845-f37ff2703bc4","system_id":"levelo_inurba_marseille","lat":43.30544,"lon":5.36689,"is_reserved":false,"is_disabled":false,"rental_uris":{"android":"levelo://app?vid=2ab38362-024b-4170-8845-f37ff2703bc4","ios":"levelo://app?vid=2ab38362-024b-4170-8845-f37ff2703bc4"},"vehicle_type_id":"4","last_reported":1765969877,"current_range_meters":14400,"station_id":"ce4bgrp2rcd13ifvqc9g","pricing_plan_id":"cebpf4jnsgd1na2vs0mg"},{"bike_id":"577e8dfa-855d-43ff-8683-4513a6d95873","system_id":"levelo_inurba_marseille","lat":43.24064,"lon":5.37744,"is_reserved":false,"is_disabled":false,"rental_uris":{"android":"levelo://app?vid=577e8dfa-855d-43ff-8683-4513a6d95873","ios":"levelo://app?vid=577e8dfa-855d-43ff-8683-4513a6d95873"},"vehicle_type_id":"4","last_reported":1765969877,"current_range_meters":14400,"station_id":"ce4bhnp2rcd13ifvqgvg","pricing_plan_id":"cebpf4jnsgd1na2vs0mg"},{"bike_id":"c42cb838-06e1-489e-9fd0-0c3e226398cb","system_id":"levelo_inurba_marseille","lat":43.22566,"lon":5.41647,"is_reserved":false,"is_disabled":false,"rental_uris":{"android":"levelo://app?vid=c42cb838-06e1-489e-9fd0-0c3e226398cb","ios":"levelo://app?vid=c42cb838-06e1-489e-9fd0-0c3e226398cb"},"vehicle_type_id":"4","last_reported":1765969877,"current_range_meters":14400,"station_id":"st_d2o4gvlbi1j2169b742g","pricing_plan_id":"cebpf4jnsgd1na2vs0mg"},{"bike_id":"026e8651-2767-4fc0-b1c3-2f40b04d4561","system_id":"levelo_inurba_marseille","lat":43.2848,"lon":5.48403,"is_reserved":false,"is_disabled":false,"rental_uris":{"android":"levelo://app?vid=026e8651-2767-4fc0-b1c3-2f40b04d4561","ios":"levelo://app?vid=026e8651-2767-4fc0-b1c3-2f40b04d4561"},"vehicle_type_id":"4","last_reported":1765969877,"current_range_meters":14800,"station_id":"st_d3svhcjqgbts73a3dn0g","pricing_plan_id":"cebpf4jnsgd1na2vs0mg"},{"bike_id":"777eaf8b-0ace-4b46-88c2-93e45ac37dcb","system_id":"levelo_inurba_marseille","lat":43.29525,"lon":5.38531,"is_reserved":false,"is_disabled":false,"rental_uris":{"android":"levelo://app?vid=777eaf8b-0ace-4b46-88c2-93e45ac37dcb","ios":"levelo://app?vid=777eaf8b-0ace-4b46-88c2-93e45ac37dcb"},"vehicle_type_id":"4","last_reported":1765969877,"current_range_meters":14800,"station_id":"ce4bgih2rcd13ifvqba0","pricing_plan_id":"cebpf4jnsgd1na2vs0mg"},{"bike_id":"f71a1f1b-61c3-4937-b8ae-ba9d31ea3cd4","system_id":"levelo_inurba_marseille","lat":43.3121,"lon":5.36586,"is_reserved":false,"is_disabled":false,"rental_uris":{"android":"levelo://app?vid=f71a1f1b-61c3-4937-b8ae-ba9d31ea3cd4","ios":"levelo://app?vid=f71a1f1b-61c3-4937-b8ae-ba9d31ea3cd4"},"vehicle_type_id":"4","last_reported":1765969877,"current_range_meters":14800,"station_id":"","pricing_plan_id":"cebpf4jnsgd1na2vs0mg"},{"bike_id":"fa6f92d2-8437-4f8d-b03f-3c3f142f8390","system_id":"levelo_inurba_marseille","lat":43.28394,"lon":5.387482,"is_reserved":false,"is_disabled":false,"rental_uris":{"android":"levelo://app?vid=fa6f92d2-8437-4f8d-b03f-3c3f142f8390","ios":"levelo://app?vid=fa6f92d2-8437-4f8d-b03f-3c3f142f8390"},"vehicle_type_id":"4","last_reported":1765969877,"current_range_meters":14800,"station_id":"","pricing_plan_id":"cebpf4jnsgd1na2vs0mg"},{"bike_id":"fedcd8c6-9dd1-49f7-a439-c3d118a3a7ba","system_id":"levelo_inurba_marseille","lat":43.32121,"lon":5.36857,"is_reserved":false,"is_disabled":false,"rental_uris":{"android":"levelo://app?vid=fedcd8c6-9dd1-49f7-a439-c3d118a3a7ba","ios":"levelo://app?vid=fedcd8c6-9dd1-49f7-a439-c3d118a3a7ba"},"vehicle_type_id":"4","last_reported":1765969877,"current_range_meters":14800,"station_id":"","pricing_plan_id":"cebpf4jnsgd1na2vs0mg"},{"bike_id":"1229dd0c-cd94-4b46-af8f-e1c364f379f7","system_id":"levelo_inurba_marseille","lat":43.231542,"lon":5.437035,"is_reserved":false,"is_disabled":true,"rental_uris":{"android":"levelo://app?vid=1229dd0c-cd94-4b46-af8f-e1c364f379f7","ios":"levelo://app?vid=1229dd0c-cd94-4b46-af8f-e1c364f379f7"},"vehicle_type_id":"4","last_reported":1765969877,"current_range_meters":14800,"station_id":"ce4bhmp2rcd13ifvqgog","pricing_plan_id":"cebpf4jnsgd1na2vs0mg"},{"bike_id":"8d483768-adea-4cdf-aef8-e32bc413d2f4","system_id":"levelo_inurba_marseille","lat":43.313679,"lon":5.36695,"is_reserved":false,"is_disabled":false,"rental_uris":{"android":"levelo://app?vid=8d483768-adea-4cdf-aef8-e32bc413d2f4","ios":"levelo://app?vid=8d483768-adea-4cdf-aef8-e32bc413d2f4"},"vehicle_type_id":"4","last_reported":1765969877,"current_range_meters":14800,"station_id":"ce4bgr92rcd13ifvqc6g","pricing_plan_id":"cebpf4jnsgd1na2vs0mg"},{"bike_id":"3f85392e-7751-4fbe-9206-afff2b3033e2","system_id":"levelo_inurba_marseille","lat":43.30363,"lon":5.42486,"is_reserved":false,"is_disabled":false,"rental_uris":{"android":"levelo://app?vid=3f85392e-7751-4fbe-9206-afff2b3033e2","ios":"levelo://app?vid=3f85392e-7751-4fbe-9206-afff2b3033e2"},"vehicle_type_id":"4","last_reported":1765969877,"current_range_meters":14800,"station_id":"ce4bhoh2rcd13ifvqh6g","pricing_plan_id":"cebpf4jnsgd1na2vs0mg"},{"bike_id":"54ea2d04-5231-40a9-9bdf-f30a2ff63c5f","system_id":"levelo_inurba_marseille","lat":43.255807,"lon":5.382296,"is_reserved":false,"is_disabled":true,"rental_uris":{"android":"levelo://app?vid=54ea2d04-5231-40a9-9bdf-f30a2ff63c5f","ios":"levelo://app?vid=54ea2d04-5231-40a9-9bdf-f30a2ff63c5f"},"vehicle_type_id":"4","last_reported":1765969877,"current_range_meters":15200,"station_id":"ce4bhih2rcd13ifvqfs0","pricing_plan_id":"cebpf4jnsgd1na2vs0mg"},{"bike_id":"aface346-60e6-4fa2-a11f-a5adf45ae220","system_id":"levelo_inurba_marseille","lat":43.24808,"lon":5.37463,"is_reserved":false,"is_disabled":false,"rental_uris":{"android":"levelo://app?vid=aface346-60e6-4fa2-a11f-a5adf45ae220","ios":"levelo://app?vid=aface346-60e6-4fa2-a11f-a5adf45ae220"},"vehicle_type_id":"4","last_reported":1765969877,"current_range_meters":15200,"station_id":"ce4bhgh2rcd13ifvqfb0","pricing_plan_id":"cebpf4jnsgd1na2vs0mg"},{"bike_id":"d38f4a9b-bfba-4ee5-9495-d2aaab66cd82","system_id":"levelo_inurba_marseille","lat":43.33756,"lon":5.37444,"is_reserved":false,"is_disabled":false,"rental_uris":{"android":"levelo://app?vid=d38f4a9b-bfba-4ee5-9495-d2aaab66cd82","ios":"levelo://app?vid=d38f4a9b-bfba-4ee5-9495-d2aaab66cd82"},"vehicle_type_id":"4","last_reported":1765969877,"current_range_meters":15200,"station_id":"","pricing_plan_id":"cebpf4jnsgd1na2vs0mg"},{"bike_id":"439d1316-ea08-4f8b-abda-b5c430996ffc","system_id":"levelo_inurba_marseille","lat":43.31429,"lon":5.38763,"is_reserved":false,"is_disabled":false,"rental_uris":{"android":"levelo://app?vid=439d1316-ea08-4f8b-abda-b5c430996ffc","ios":"levelo://app?vid=439d1316-ea08-4f8b-abda-b5c430996ffc"},"vehicle_type_id":"4","last_reported":1765969877,"current_range_meters":15200,"station_id":"ce4bhqp2rcd13ifvqhog","pricing_plan_id":"cebpf4jnsgd1na2vs0mg"},{"bike_id":"5dbbaf71-5bf4-4b66-9f4a-70eee407faa1","system_id":"levelo_inurba_marseille","lat":43.273271,"lon":5.390823,"is_reserved":false,"is_disabled":false,"rental_uris":{"android":"levelo://app?vid=5dbbaf71-5bf4-4b66-9f4a-70eee407faa1","ios":"levelo://app?vid=5dbbaf71-5bf4-4b66-9f4a-70eee407faa1"},"vehicle_type_id":"4","last_reported":1765969877,"current_range_meters":15200,"station_id":"ce4bhgp2rcd13ifvqfe0","pricing_plan_id":"cebpf4jnsgd1na2vs0mg"},{"bike_id":"46300de1-2118-46f4-bf10-bd61a7328e2b","system_id":"levelo_inurba_marseille","lat":43.26676,"lon":5.39614,"is_reserved":false,"is_disabled":false,"rental_uris":{"android":"levelo://app?vid=46300de1-2118-46f4-bf10-bd61a7328e2b","ios":"levelo://app?vid=46300de1-2118-46f4-bf10-bd61a7328e2b"},"vehicle_type_id":"4","last_reported":1765969877,"current_range_meters":15200,"station_id":"","pricing_plan_id":"cebpf4jnsgd1na2vs0mg"},{"bike_id":"57bf9f67-9522-40c4-82f0-435099d363f7","system_id":"levelo_inurba_marseille","lat":43.323636,"lon":5.367516,"is_reserved":false,"is_disabled":false,"rental_uris":{"android":"levelo://app?vid=57bf9f67-9522-40c4-82f0-435099d363f7","ios":"levelo://app?vid=57bf9f67-9522-40c4-82f0-435099d363f7"},"vehicle_type_id":"4","last_reported":1765969877,"current_range_meters":15200,"station_id":"ce4bhsh2rcd13ifvqi2g","pricing_plan_id":"cebpf4jnsgd1na2vs0mg"},{"bike_id":"38d66c43-4ebd-4d4a-9b0f-fcb1404bb6e8","system_id":"levelo_inurba_marseille","lat":43.255857,"lon":5.381097,"is_reserved":false,"is_disabled":false,"rental_uris":{"android":"levelo://app?vid=38d66c43-4ebd-4d4a-9b0f-fcb1404bb6e8","ios":"levelo://app?vid=38d66c43-4ebd-4d4a-9b0f-fcb1404bb6e8"},"vehicle_type_id":"4","last_reported":1765969877,"current_range_meters":15200,"station_id":"ce4bhih2rcd13ifvqfs0","pricing_plan_id":"cebpf4jnsgd1na2vs0mg"},{"bike_id":"d8f07d1b-53a5-403f-ab47-71b960091a07","system_id":"levelo_inurba_marseille","lat":43.33527,"lon":5.37476,"is_reserved":false,"is_disabled":false,"rental_uris":{"android":"levelo://app?vid=d8f07d1b-53a5-403f-ab47-71b960091a07","ios":"levelo://app?vid=d8f07d1b-53a5-403f-ab47-71b960091a07"},"vehicle_type_id":"4","last_reported":1765969877,"current_range_meters":15200,"station_id":"st_d46tts09ee8s73dlu43g","pricing_plan_id":"cebpf4jnsgd1na2vs0mg"},{"bike_id":"1c5dead3-188b-41b2-9359-9797d9a1af54","system_id":"levelo_inurba_marseille","lat":43.24382,"lon":5.37035,"is_reserved":false,"is_disabled":false,"rental_uris":{"android":"levelo://app?vid=1c5dead3-188b-41b2-9359-9797d9a1af54","ios":"levelo://app?vid=1c5dead3-188b-41b2-9359-9797d9a1af54"},"vehicle_type_id":"4","last_reported":1765969877,"current_range_meters":15200,"station_id":"ce4bhhh2rcd13ifvqfk0","pricing_plan_id":"cebpf4jnsgd1na2vs0mg"},{"bike_id":"ddb979ed-b28e-434f-a173-cf8e45cf006a","system_id":"levelo_inurba_marseille","lat":43.29028,"lon":5.38143,"is_reserved":false,"is_disabled":false,"rental_uris":{"android":"levelo://app?vid=ddb979ed-b28e-434f-a173-cf8e45cf006a","ios":"levelo://app?vid=ddb979ed-b28e-434f-a173-cf8e45cf006a"},"vehicle_type_id":"4","last_reported":1765969877,"current_range_meters":16000,"station_id":"ce4bh4p2rcd13ifvqe1g","pricing_plan_id":"cebpf4jnsgd1na2vs0mg"},{"bike_id":"b08416a9-4fd4-4f0f-a9cd-cf796054033c","system_id":"levelo_inurba_marseille","lat":43.29549,"lon":5.38181,"is_reserved":false,"is_disabled":false,"rental_uris":{"android":"levelo://app?vid=b08416a9-4fd4-4f0f-a9cd-cf796054033c","ios":"levelo://app?vid=b08416a9-4fd4-4f0f-a9cd-cf796054033c"},"vehicle_type_id":"4","last_reported":1765969877,"current_range_meters":16000,"station_id":"","pricing_plan_id":"cebpf4jnsgd1na2vs0mg"},{"bike_id":"d1320e02-f6a9-47d8-91b1-1bffe6f942ed","system_id":"levelo_inurba_marseille","lat":43.26946,"lon":5.3863,"is_reserved":false,"is_disabled":false,"rental_uris":{"android":"levelo://app?vid=d1320e02-f6a9-47d8-91b1-1bffe6f942ed","ios":"levelo://app?vid=d1320e02-f6a9-47d8-91b1-1bffe6f942ed"},"vehicle_type_id":"4","last_reported":1765969877,"current_range_meters":16000,"station_id":"ce4bhh92rcd13ifvqfh0","pricing_plan_id":"cebpf4jnsgd1na2vs0mg"},{"bike_id":"590d7443-f2a7-4117-8cb1-5c6fb20333f7","system_id":"levelo_inurba_marseille","lat":43.284199,"lon":5.349889,"is_reserved":false,"is_disabled":false,"rental_uris":{"android":"levelo://app?vid=590d7443-f2a7-4117-8cb1-5c6fb20333f7","ios":"levelo://app?vid=590d7443-f2a7-4117-8cb1-5c6fb20333f7"},"vehicle_type_id":"4","last_reported":1765969877,"current_range_meters":16000,"station_id":"ce4bhbh2rcd13ifvqepg","pricing_plan_id":"cebpf4jnsgd1na2vs0mg"},{"bike_id":"1c95725e-3387-4178-8e93-14ed4bba63f2","system_id":"levelo_inurba_marseille","lat":43.27491,"lon":5.42462,"is_reserved":false,"is_disabled":true,"rental_uris":{"android":"levelo://app?vid=1c95725e-3387-4178-8e93-14ed4bba63f2","ios":"levelo://app?vid=1c95725e-3387-4178-8e93-14ed4bba63f2"},"vehicle_type_id":"4","last_reported":1765969877,"current_range_meters":16000,"station_id":"","pricing_plan_id":"cebpf4jnsgd1na2vs0mg"},{"bike_id":"ead11a55-f4b0-44f1-9f1d-5981fe3c4e4a","system_id":"levelo_inurba_marseille","lat":43.25116,"lon":5.40345,"is_reserved":false,"is_disabled":true,"rental_uris":{"android":"levelo://app?vid=ead11a55-f4b0-44f1-9f1d-5981fe3c4e4a","ios":"levelo://app?vid=ead11a55-f4b0-44f1-9f1d-5981fe3c4e4a"},"vehicle_type_id":"4","last_reported":1765969877,"current_range_meters":16000,"station_id":"ce4bhlh2rcd13ifvqgig","pricing_plan_id":"cebpf4jnsgd1na2vs0mg"},{"bike_id":"e9d5c8fd-011f-4aa0-b95a-a78c8e676e23","system_id":"levelo_inurba_marseille","lat":43.33601,"lon":5.41031,"is_reserved":false,"is_disabled":false,"rental_uris":{"android":"levelo://app?vid=e9d5c8fd-011f-4aa0-b95a-a78c8e676e23","ios":"levelo://app?vid=e9d5c8fd-011f-4aa0-b95a-a78c8e676e23"},"vehicle_type_id":"4","last_reported":1765969877,"current_range_meters":16000,"station_id":"ce4bhqh2rcd13ifvqhmg","pricing_plan_id":"cebpf4jnsgd1na2vs0mg"},{"bike_id":"7ff51734-7635-4e26-ba98-c2660f473ff2","system_id":"levelo_inurba_marseille","lat":43.230567,"lon":5.354851,"is_reserved":false,"is_disabled":false,"rental_uris":{"android":"levelo://app?vid=7ff51734-7635-4e26-ba98-c2660f473ff2","ios":"levelo://app?vid=7ff51734-7635-4e26-ba98-c2660f473ff2"},"vehicle_type_id":"4","last_reported":1765969877,"current_range_meters":16000,"station_id":"cpo3342slgdg3j2ifvpg","pricing_plan_id":"cebpf4jnsgd1na2vs0mg"},{"bike_id":"a2fe9bea-c83b-4540-9993-b21511028686","system_id":"levelo_inurba_marseille","lat":43.33749,"lon":5.37487,"is_reserved":false,"is_disabled":false,"rental_uris":{"android":"levelo://app?vid=a2fe9bea-c83b-4540-9993-b21511028686","ios":"levelo://app?vid=a2fe9bea-c83b-4540-9993-b21511028686"},"vehicle_type_id":"4","last_reported":1765969877,"current_range_meters":16000,"station_id":"","pricing_plan_id":"cebpf4jnsgd1na2vs0mg"},{"bike_id":"ad558faf-9861-432b-98a5-c0d2a8d4db94","system_id":"levelo_inurba_marseille","lat":43.24174,"lon":5.36407,"is_reserved":false,"is_disabled":false,"rental_uris":{"android":"levelo://app?vid=ad558faf-9861-432b-98a5-c0d2a8d4db94","ios":"levelo://app?vid=ad558faf-9861-432b-98a5-c0d2a8d4db94"},"vehicle_type_id":"4","last_reported":1765969877,"current_range_meters":16000,"station_id":"cpo36qri1sfpv3e86is0","pricing_plan_id":"cebpf4jnsgd1na2vs0mg"},{"bike_id":"cc874ed7-7bbb-4b4d-ad64-560c08e801d3","system_id":"levelo_inurba_marseille","lat":43.29843,"lon":5.36274,"is_reserved":false,"is_disabled":false,"rental_uris":{"android":"levelo://app?vid=cc874ed7-7bbb-4b4d-ad64-560c08e801d3","ios":"levelo://app?vid=cc874ed7-7bbb-4b4d-ad64-560c08e801d3"},"vehicle_type_id":"4","last_reported":1765969877,"current_range_meters":16000,"station_id":"ce4bgpp2rcd13ifvqc3g","pricing_plan_id":"cebpf4jnsgd1na2vs0mg"},{"bike_id":"7107df84-5908-4fce-a897-c004c6e0490e","system_id":"levelo_inurba_marseille","lat":43.337662,"lon":5.374326,"is_reserved":false,"is_disabled":false,"rental_uris":{"android":"levelo://app?vid=7107df84-5908-4fce-a897-c004c6e0490e","ios":"levelo://app?vid=7107df84-5908-4fce-a897-c004c6e0490e"},"vehicle_type_id":"4","last_reported":1765969877,"current_range_meters":16400,"station_id":"","pricing_plan_id":"cebpf4jnsgd1na2vs0mg"},{"bike_id":"45b2e68f-e929-4ac0-b62b-830ec3a36c60","system_id":"levelo_inurba_marseille","lat":43.23786,"lon":5.3663,"is_reserved":false,"is_disabled":false,"rental_uris":{"android":"levelo://app?vid=45b2e68f-e929-4ac0-b62b-830ec3a36c60","ios":"levelo://app?vid=45b2e68f-e929-4ac0-b62b-830ec3a36c60"},"vehicle_type_id":"4","last_reported":1765969877,"current_range_meters":16400,"station_id":"st_d3nk18o9ro0c73en2l3g","pricing_plan_id":"cebpf4jnsgd1na2vs0mg"},{"bike_id":"c58295ce-4bdd-4fe7-8447-640493b542d5","system_id":"levelo_inurba_marseille","lat":43.24069,"lon":5.37764,"is_reserved":false,"is_disabled":false,"rental_uris":{"android":"levelo://app?vid=c58295ce-4bdd-4fe7-8447-640493b542d5","ios":"levelo://app?vid=c58295ce-4bdd-4fe7-8447-640493b542d5"},"vehicle_type_id":"4","last_reported":1765969877,"current_range_meters":16400,"station_id":"ce4bhnp2rcd13ifvqgvg","pricing_plan_id":"cebpf4jnsgd1na2vs0mg"},{"bike_id":"8e52e43c-68b2-455e-8b73-b546c0f32271","system_id":"levelo_inurba_marseille","lat":43.29037,"lon":5.40058,"is_reserved":false,"is_disabled":false,"rental_uris":{"android":"levelo://app?vid=8e52e43c-68b2-455e-8b73-b546c0f32271","ios":"levelo://app?vid=8e52e43c-68b2-455e-8b73-b546c0f32271"},"vehicle_type_id":"4","last_reported":1765969877,"current_range_meters":16400,"station_id":"","pricing_plan_id":"cebpf4jnsgd1na2vs0mg"},{"bike_id":"22380548-2abc-4cb8-a445-3c96124eb61e","system_id":"levelo_inurba_marseille","lat":43.290069,"lon":5.367479,"is_reserved":false,"is_disabled":false,"rental_uris":{"android":"levelo://app?vid=22380548-2abc-4cb8-a445-3c96124eb61e","ios":"levelo://app?vid=22380548-2abc-4cb8-a445-3c96124eb61e"},"vehicle_type_id":"4","last_reported":1765969877,"current_range_meters":16400,"station_id":"ce4bhap2rcd13ifvqek0","pricing_plan_id":"cebpf4jnsgd1na2vs0mg"},{"bike_id":"00ba10be-1328-4ca6-b450-df4120e2744a","system_id":"levelo_inurba_marseille","lat":43.281523,"lon":5.426348,"is_reserved":false,"is_disabled":true,"rental_uris":{"android":"levelo://app?vid=00ba10be-1328-4ca6-b450-df4120e2744a","ios":"levelo://app?vid=00ba10be-1328-4ca6-b450-df4120e2744a"},"vehicle_type_id":"4","last_reported":1765969877,"current_range_meters":16400,"station_id":"ce4bhnh2rcd13ifvqgug","pricing_plan_id":"cebpf4jnsgd1na2vs0mg"},{"bike_id":"83002d44-bcdd-435e-af29-d1491a80c086","system_id":"levelo_inurba_marseille","lat":43.31211,"lon":5.36844,"is_reserved":false,"is_disabled":false,"rental_uris":{"android":"levelo://app?vid=83002d44-bcdd-435e-af29-d1491a80c086","ios":"levelo://app?vid=83002d44-bcdd-435e-af29-d1491a80c086"},"vehicle_type_id":"4","last_reported":1765969877,"current_range_meters":16400,"station_id":"ce4bgl92rcd13ifvqbq0","pricing_plan_id":"cebpf4jnsgd1na2vs0mg"},{"bike_id":"3d001abe-8580-4d14-8f59-8226549b385c","system_id":"levelo_inurba_marseille","lat":43.30371,"lon":5.42481,"is_reserved":false,"is_disabled":false,"rental_uris":{"android":"levelo://app?vid=3d001abe-8580-4d14-8f59-8226549b385c","ios":"levelo://app?vid=3d001abe-8580-4d14-8f59-8226549b385c"},"vehicle_type_id":"4","last_reported":1765969877,"current_range_meters":16400,"station_id":"ce4bhoh2rcd13ifvqh6g","pricing_plan_id":"cebpf4jnsgd1na2vs0mg"},{"bike_id":"256d1279-3b37-4713-ab52-9157679f2a8e","system_id":"levelo_inurba_marseille","lat":43.29589,"lon":5.38097,"is_reserved":false,"is_disabled":false,"rental_uris":{"android":"levelo://app?vid=256d1279-3b37-4713-ab52-9157679f2a8e","ios":"levelo://app?vid=256d1279-3b37-4713-ab52-9157679f2a8e"},"vehicle_type_id":"4","last_reported":1765969877,"current_range_meters":16400,"station_id":"ce4bgl12rcd13ifvqbo0","pricing_plan_id":"cebpf4jnsgd1na2vs0mg"},{"bike_id":"7cb2a649-2dac-4e10-8918-385215c3e233","system_id":"levelo_inurba_marseille","lat":43.28756,"lon":5.38404,"is_reserved":false,"is_disabled":false,"rental_uris":{"android":"levelo://app?vid=7cb2a649-2dac-4e10-8918-385215c3e233","ios":"levelo://app?vid=7cb2a649-2dac-4e10-8918-385215c3e233"},"vehicle_type_id":"4","last_reported":1765969877,"current_range_meters":16400,"station_id":"","pricing_plan_id":"cebpf4jnsgd1na2vs0mg"},{"bike_id":"41226266-e8e5-4cba-a3ec-97fec638172f","system_id":"levelo_inurba_marseille","lat":43.26368,"lon":5.41059,"is_reserved":false,"is_disabled":false,"rental_uris":{"android":"levelo://app?vid=41226266-e8e5-4cba-a3ec-97fec638172f","ios":"levelo://app?vid=41226266-e8e5-4cba-a3ec-97fec638172f"},"vehicle_type_id":"4","last_reported":1765969877,"current_range_meters":16400,"station_id":"st_d4e5ca6na9uc73bfl5fg","pricing_plan_id":"cebpf4jnsgd1na2vs0mg"},{"bike_id":"87496e3c-5ded-4b6b-a05a-cc43f718587e","system_id":"levelo_inurba_marseille","lat":43.24389,"lon":5.37051,"is_reserved":false,"is_disabled":false,"rental_uris":{"android":"levelo://app?vid=87496e3c-5ded-4b6b-a05a-cc43f718587e","ios":"levelo://app?vid=87496e3c-5ded-4b6b-a05a-cc43f718587e"},"vehicle_type_id":"4","last_reported":1765969877,"current_range_meters":16400,"station_id":"ce4bhhh2rcd13ifvqfk0","pricing_plan_id":"cebpf4jnsgd1na2vs0mg"},{"bike_id":"11ff9e87-6b6f-4f5a-a786-789002e8cd89","system_id":"levelo_inurba_marseille","lat":43.29158,"lon":5.38553,"is_reserved":false,"is_disabled":false,"rental_uris":{"android":"levelo://app?vid=11ff9e87-6b6f-4f5a-a786-789002e8cd89","ios":"levelo://app?vid=11ff9e87-6b6f-4f5a-a786-789002e8cd89"},"vehicle_type_id":"4","last_reported":1765969877,"current_range_meters":16400,"station_id":"","pricing_plan_id":"cebpf4jnsgd1na2vs0mg"},{"bike_id":"528c30e7-5142-469d-831d-cf996c6e2440","system_id":"levelo_inurba_marseille","lat":43.25504,"lon":5.37655,"is_reserved":false,"is_disabled":false,"rental_uris":{"android":"levelo://app?vid=528c30e7-5142-469d-831d-cf996c6e2440","ios":"levelo://app?vid=528c30e7-5142-469d-831d-cf996c6e2440"},"vehicle_type_id":"4","last_reported":1765969877,"current_range_meters":16400,"station_id":"ce4bhh12rcd13ifvqff0","pricing_plan_id":"cebpf4jnsgd1na2vs0mg"},{"bike_id":"fe538b04-a970-474b-b402-a1d5d51ec5eb","system_id":"levelo_inurba_marseille","lat":43.309404,"lon":5.390312,"is_reserved":false,"is_disabled":false,"rental_uris":{"android":"levelo://app?vid=fe538b04-a970-474b-b402-a1d5d51ec5eb","ios":"levelo://app?vid=fe538b04-a970-474b-b402-a1d5d51ec5eb"},"vehicle_type_id":"4","last_reported":1765969877,"current_range_meters":16400,"station_id":"","pricing_plan_id":"cebpf4jnsgd1na2vs0mg"},{"bike_id":"36499f43-f644-4c49-b34c-04be9cba1368","system_id":"levelo_inurba_marseille","lat":43.273329,"lon":5.390769,"is_reserved":false,"is_disabled":false,"rental_uris":{"android":"levelo://app?vid=36499f43-f644-4c49-b34c-04be9cba1368","ios":"levelo://app?vid=36499f43-f644-4c49-b34c-04be9cba1368"},"vehicle_type_id":"4","last_reported":1765969877,"current_range_meters":16800,"station_id":"ce4bhgp2rcd13ifvqfe0","pricing_plan_id":"cebpf4jnsgd1na2vs0mg"},{"bike_id":"a4959a46-2d13-4336-ac72-126929cbe007","system_id":"levelo_inurba_marseille","lat":43.2923,"lon":5.36083,"is_reserved":false,"is_disabled":false,"rental_uris":{"android":"levelo://app?vid=a4959a46-2d13-4336-ac72-126929cbe007","ios":"levelo://app?vid=a4959a46-2d13-4336-ac72-126929cbe007"},"vehicle_type_id":"4","last_reported":1765969877,"current_range_meters":16800,"station_id":"ce4bhbh2rcd13ifvqeqg","pricing_plan_id":"cebpf4jnsgd1na2vs0mg"},{"bike_id":"ad2591ab-034d-4905-bd0f-0f39035a56bb","system_id":"levelo_inurba_marseille","lat":43.24066,"lon":5.37771,"is_reserved":false,"is_disabled":false,"rental_uris":{"android":"levelo://app?vid=ad2591ab-034d-4905-bd0f-0f39035a56bb","ios":"levelo://app?vid=ad2591ab-034d-4905-bd0f-0f39035a56bb"},"vehicle_type_id":"4","last_reported":1765969877,"current_range_meters":16800,"station_id":"ce4bhnp2rcd13ifvqgvg","pricing_plan_id":"cebpf4jnsgd1na2vs0mg"},{"bike_id":"6fcebd1a-d429-41f6-b96d-ab07a87d0ccd","system_id":"levelo_inurba_marseille","lat":43.2836,"lon":5.38643,"is_reserved":false,"is_disabled":false,"rental_uris":{"android":"levelo://app?vid=6fcebd1a-d429-41f6-b96d-ab07a87d0ccd","ios":"levelo://app?vid=6fcebd1a-d429-41f6-b96d-ab07a87d0ccd"},"vehicle_type_id":"4","last_reported":1765969877,"current_range_meters":16800,"station_id":"ce4bh492rcd13ifvqdvg","pricing_plan_id":"cebpf4jnsgd1na2vs0mg"},{"bike_id":"e812cc05-ea36-459e-853c-5cc7acb33df0","system_id":"levelo_inurba_marseille","lat":43.23197,"lon":5.39993,"is_reserved":false,"is_disabled":true,"rental_uris":{"android":"levelo://app?vid=e812cc05-ea36-459e-853c-5cc7acb33df0","ios":"levelo://app?vid=e812cc05-ea36-459e-853c-5cc7acb33df0"},"vehicle_type_id":"4","last_reported":1765969877,"current_range_meters":16800,"station_id":"ce4bhn12rcd13ifvqgqg","pricing_plan_id":"cebpf4jnsgd1na2vs0mg"},{"bike_id":"48cfb043-f005-44ec-b97c-ee2be2ee2d36","system_id":"levelo_inurba_marseille","lat":43.26406,"lon":5.39229,"is_reserved":false,"is_disabled":false,"rental_uris":{"android":"levelo://app?vid=48cfb043-f005-44ec-b97c-ee2be2ee2d36","ios":"levelo://app?vid=48cfb043-f005-44ec-b97c-ee2be2ee2d36"},"vehicle_type_id":"4","last_reported":1765969877,"current_range_meters":16800,"station_id":"","pricing_plan_id":"cebpf4jnsgd1na2vs0mg"},{"bike_id":"c54027b3-4a98-42e1-bb9e-855b2f21e4b8","system_id":"levelo_inurba_marseille","lat":43.28676,"lon":5.38672,"is_reserved":false,"is_disabled":false,"rental_uris":{"android":"levelo://app?vid=c54027b3-4a98-42e1-bb9e-855b2f21e4b8","ios":"levelo://app?vid=c54027b3-4a98-42e1-bb9e-855b2f21e4b8"},"vehicle_type_id":"4","last_reported":1765969877,"current_range_meters":16800,"station_id":"ce4bh492rcd13ifvqdug","pricing_plan_id":"cebpf4jnsgd1na2vs0mg"},{"bike_id":"4135a0aa-5a1c-4e4f-bd6e-3fff37e53119","system_id":"levelo_inurba_marseille","lat":43.217524,"lon":5.345978,"is_reserved":false,"is_disabled":true,"rental_uris":{"android":"levelo://app?vid=4135a0aa-5a1c-4e4f-bd6e-3fff37e53119","ios":"levelo://app?vid=4135a0aa-5a1c-4e4f-bd6e-3fff37e53119"},"vehicle_type_id":"4","last_reported":1765969877,"current_range_meters":16800,"station_id":"st_cvj6r9ubvosntc0bgbag","pricing_plan_id":"cebpf4jnsgd1na2vs0mg"},{"bike_id":"e3d38446-fbf8-4e70-b44e-91b1730ed136","system_id":"levelo_inurba_marseille","lat":43.25575,"lon":5.3823,"is_reserved":false,"is_disabled":false,"rental_uris":{"android":"levelo://app?vid=e3d38446-fbf8-4e70-b44e-91b1730ed136","ios":"levelo://app?vid=e3d38446-fbf8-4e70-b44e-91b1730ed136"},"vehicle_type_id":"4","last_reported":1765969877,"current_range_meters":16800,"station_id":"ce4bhih2rcd13ifvqfs0","pricing_plan_id":"cebpf4jnsgd1na2vs0mg"},{"bike_id":"a16581f5-bbd7-45c3-afb2-1b6754c75256","system_id":"levelo_inurba_marseille","lat":43.24074,"lon":5.3776,"is_reserved":false,"is_disabled":false,"rental_uris":{"android":"levelo://app?vid=a16581f5-bbd7-45c3-afb2-1b6754c75256","ios":"levelo://app?vid=a16581f5-bbd7-45c3-afb2-1b6754c75256"},"vehicle_type_id":"4","last_reported":1765969877,"current_range_meters":16800,"station_id":"ce4bhnp2rcd13ifvqgvg","pricing_plan_id":"cebpf4jnsgd1na2vs0mg"},{"bike_id":"8d8ccf9f-70c2-4c56-9a18-65973f785d21","system_id":"levelo_inurba_marseille","lat":43.305416,"lon":5.384249,"is_reserved":false,"is_disabled":false,"rental_uris":{"android":"levelo://app?vid=8d8ccf9f-70c2-4c56-9a18-65973f785d21","ios":"levelo://app?vid=8d8ccf9f-70c2-4c56-9a18-65973f785d21"},"vehicle_type_id":"4","last_reported":1765969877,"current_range_meters":16800,"station_id":"ce4bgg92rcd13ifvqb30","pricing_plan_id":"cebpf4jnsgd1na2vs0mg"},