{"last_updated":1718820555,"ttl":30,"version":"2.2","data":{"bikes":[{"bike_id":"86892d31-716a-451c-922e-eddf958c441a","system_id":"levelo_inurba_marseille","lat":43.312271,"lon":5.368973,"is_reserved":false,"is_disabled":false,"rental_uris":{"android":"levelo://app?vid=86892d31-716a-451c-922e-eddf958c441a","ios":"levelo://app?vid=86892d31-716a-451c-922e-eddf958c441a"},"vehicle_type_id":"4","last_reported":1718820555,"current_range_meters":0,"station_id":"ce4bhih2rcd13ifvqfs0","pricing_plan_id":"cebpf4jnsgd1na2vs0mg"},{"bike_id":"dbd88168-8b57-4ac3-a925-8e8fbf55036a","system_id":"levelo_inurba_marseille","lat":43.314811,"lon":5.373103,"is_reserved":false,"is_disabled":false,"rental_uris":{"android":"levelo://app?vid=dbd88168-8b57-4ac3-a925-8e8fbf55036a","ios":"levelo://app?vid=dbd88168-8b57-4ac3-a925-8e8fbf55036a"},"vehicle_type_id":"4","last_reported":1718820555,"current_range_meters":21600,"station_id":"ce4bgt12rcd13ifvqcd0","pricing_plan_id":"cebpf4jnsgd1na2vs0mg"},{"bike_id":"2c4ab990-bf85-4539-81a0-6a5e6c486afc","system_id":"levelo_inurba_marseille","lat":43.31471,"lon":5.3737,"is_reserved":false,"is_disabled":false,"rental_uris":{"android":"levelo://app?vid=2c4ab990-bf85-4539-81a0-6a5e6c486afc","ios":"levelo://app?vid=2c4ab990-bf85-4539-81a0-6a5e6c486afc"},"vehicle_type_id":"4","last_reported":1718820555,"current_range_meters":1600,"station_id":"","pricing_plan_id":"cebpf4jnsgd1na2vs0mg"},{"bike_id":"ea522238-cf72-4dfd-a440-7864739ecba0","system_id":"levelo_inurba_marseille","lat":43.309034,"lon":5.371783,"is_reserved":false,"is_disabled":false,"rental_uris":{"android":"levelo://app?vid=ea522238-cf72-4dfd-a440-7864739ecba0","ios":"levelo://app?vid=ea522238-cf72-4dfd-a440-7864739ecba0"},"vehicle_type_id":"4","last_reported":1718820555,"current_range_meters":4800,"station_id":"ce4bguh2rcd13ifvqckg","pricing_plan_id":"cebpf4jnsgd1na2vs0mg"},{"bike_id":"71cb65b2-81db-4ed0-8068-994299efd4b3","system_id":"levelo_inurba_marseille","lat":43.3059,"lon":5.36578,"is_reserved":false,"is_disabled":false,"rental_uris":{"android":"levelo://app?vid=71cb65b2-81db-4ed0-8068-994299efd4b3","ios":"levelo://app?vid=71cb65b2-81db-4ed0-8068-994299efd4b3"},"vehicle_type_id":"4","last_reported":1718820555,"current_range_meters":28400,"station_id":"ce4bgs12rcd13ifvqcag","pricing_plan_id":"cebpf4jnsgd1na2vs0mg"},{"bike_id":"8e532604-f8c0-4312-8d5b-8ec6827336f4","system_id":"levelo_inurba_marseille","lat":43.30584,"lon":5.3657,"is_reserved":false,"is_disabled":false,"rental_uris":{"android":"levelo://app?vid=8e532604-f8c0-4312-8d5b-8ec6827336f4","ios":"levelo://app?vid=8e532604-f8c0-4312-8d5b-8ec6827336f4"},"vehicle_type_id":"4","last_reported":1718820555,"current_range_meters":30400,"station_id":"ce4bgs12rcd13ifvqcag","pricing_plan_id":"cebpf4jnsgd1na2vs0mg"},{"bike_id":"808d759f-a7f8-40cb-a8af-69bc1f795454","system_id":"levelo_inurba_marseille","lat":43.30556,"lon":5.365597,"is_reserved":false,"is_disabled":false,"rental_uris":{"android":"levelo://app?vid=808d759f-a7f8-40cb-a8af-69bc1f795454","ios":"levelo://app?vid=808d759f-a7f8-40cb-a8af-69bc1f795454"},"vehicle_type_id":"4","last_reported":1718820555,"current_range_meters":12000,"station_id":"ce4bgs12rcd13ifvqcag","pricing_plan_id":"cebpf4jnsgd1na2vs0mg"},{"bike_id":"db8aba37-9f9d-4ee8-895d-28b57411bf57","system_id":"levelo_inurba_marseille","lat":43.30545,"lon":5.3666,"is_reserved":false,"is_disabled":false,"rental_uris":{"android":"levelo://app?vid=db8aba37-9f9d-4ee8-895d-28b57411bf57","ios":"levelo://app?vid=db8aba37-9f9d-4ee8-895d-28b57411bf57"},"vehicle_type_id":"4","last_reported":1718820555,"current_range_meters":18400,"station_id":"","pricing_plan_id":"cebpf4jnsgd1na2vs0mg"},{"bike_id":"5ec70f75-efc5-4487-af3c-73f4d85c4c69","system_id":"levelo_inurba_marseille","lat":43.305714,"lon":5.365633,"is_reserved":false,"is_disabled":false,"rental_uris":{"android":"levelo://app?vid=5ec70f75-efc5-4487-af3c-73f4d85c4c69","ios":"levelo://app?vid=5ec70f75-efc5-4487-af3c-73f4d85c4c69"},"vehicle_type_id":"4","last_reported":1718820555,"current_range_meters":9200,"station_id":"ce4bgs12rcd13ifvqcag","pricing_plan_id":"cebpf4jnsgd1na2vs0mg"},{"bike_id":"40bed86d-41a5-4677-8dd6-1692dc799893","system_id":"levelo_inurba_marseille","lat":43.305306,"lon":5.366301,"is_reserved":false,"is_disabled":false,"rental_uris":{"android":"levelo://app?vid=40bed86d-41a5-4677-8dd6-1692dc799893","ios":"levelo://app?vid=40bed86d-41a5-4677-8dd6-1692dc799893"},"vehicle_type_id":"4","last_reported":1718820555,"current_range_meters":31200,"station_id":"","pricing_plan_id":"cebpf4jnsgd1na2vs0mg"},{"bike_id":"6fc4c284-fea3-4ba6-89fc-2a139b784eb1","system_id":"levelo_inurba_marseille","lat":43.311191,"lon":5.377714,"is_reserved":false,"is_disabled":false,"rental_uris":{"android":"levelo://app?vid=6fc4c284-fea3-4ba6-89fc-2a139b784eb1","ios":"levelo://app?vid=6fc4c284-fea3-4ba6-89fc-2a139b784eb1"},"vehicle_type_id":"4","last_reported":1718820555,"current_range_meters":0,"station_id":"ce4bgt92rcd13ifvqcg0","pricing_plan_id":"cebpf4jnsgd1na2vs0mg"},{"bike_id":"c6d41284-74c4-4f83-87cc-484ac0795d48","system_id":"levelo_inurba_marseille","lat":43.307945,"lon":5.376487,"is_reserved":false,"is_disabled":false,"rental_uris":{"android":"levelo://app?vid=c6d41284-74c4-4f83-87cc-484ac0795d48","ios":"levelo://app?vid=c6d41284-74c4-4f83-87cc-484ac0795d48"},"vehicle_type_id":"4","last_reported":1718820555,"current_range_meters":6400,"station_id":"ce4bgv92rcd13ifvqcq0","pricing_plan_id":"cebpf4jnsgd1na2vs0mg"},{"bike_id":"900242e4-77cb-4929-a6e9-4b3f7644f324","system_id":"levelo_inurba_marseille","lat":43.307945,"lon":5.376487,"is_reserved":false,"is_disabled":false,"rental_uris":{"android":"levelo://app?vid=900242e4-77cb-4929-a6e9-4b3f7644f324","ios":"levelo://app?vid=900242e4-77cb-4929-a6e9-4b3f7644f324"},"vehicle_type_id":"4","last_reported":1718820555,"current_range_meters":15600,"station_id":"ce4bgv92rcd13ifvqcq0","pricing_plan_id":"cebpf4jnsgd1na2vs0mg"},{"bike_id":"a3a47cca-d878-4c2a-92d2-01b6353cf826","system_id":"levelo_inurba_marseille","lat":43.317075,"lon":5.377367,"is_reserved":false,"is_disabled":false,"rental_uris":{"android":"levelo://app?vid=a3a47cca-d878-4c2a-92d2-01b6353cf826","ios":"levelo://app?vid=a3a47cca-d878-4c2a-92d2-01b6353cf826"},"vehicle_type_id":"4","last_reported":1718820555,"current_range_meters":5600,"station_id":"ce4bgth2rcd13ifvqch0","pricing_plan_id":"cebpf4jnsgd1na2vs0mg"},{"bike_id":"6f262149-de85-4360-9a83-5c5023968b4c","system_id":"levelo_inurba_marseille","lat":43.317075,"lon":5.377367,"is_reserved":false,"is_disabled":false,"rental_uris":{"android":"levelo://app?vid=6f262149-de85-4360-9a83-5c5023968b4c","ios":"levelo://app?vid=6f262149-de85-4360-9a83-5c5023968b4c"},"vehicle_type_id":"4","last_reported":1718820555,"current_range_meters":5600,"station_id":"ce4bgth2rcd13ifvqch0","pricing_plan_id":"cebpf4jnsgd1na2vs0mg"},{"bike_id":"9fe98a3b-50bf-42e6-b0cc-379a801f43d3","system_id":"levelo_inurba_marseille","lat":43.317075,"lon":5.377367,"is_reserved":false,"is_disabled":false,"rental_uris":{"android":"levelo://app?vid=9fe98a3b-50bf-42e6-b0cc-379a801f43d3","ios":"levelo://app?vid=9fe98a3b-50bf-42e6-b0cc-379a801f43d3"},"vehicle_type_id":"4","last_reported":1718820555,"current_range_meters":24000,"station_id":"ce4bgth2rcd13ifvqch0","pricing_plan_id":"cebpf4jnsgd1na2vs0mg"},{"bike_id":"cb22e57b-145b-482b-b24d-1fbce4aeafc2","system_id":"levelo_inurba_marseille","lat":43.319485,"lon":5.37631,"is_reserved":false,"is_disabled":false,"rental_uris":{"android":"levelo://app?vid=cb22e57b-145b-482b-b24d-1fbce4aeafc2","ios":"levelo://app?vid=cb22e57b-145b-482b-b24d-1fbce4aeafc2"},"vehicle_type_id":"4","last_reported":1718820555,"current_range_meters":3600,"station_id":"","pricing_plan_id":"cebpf4jnsgd1na2vs0mg"},{"bike_id":"58f63895-9269-4d5e-a8aa-2a339b84768a","system_id":"levelo_inurba_marseille","lat":43.315289,"lon":5.380349,"is_reserved":false,"is_disabled":false,"rental_uris":{"android":"levelo://app?vid=58f63895-9269-4d5e-a8aa-2a339b84768a","ios":"levelo://app?vid=58f63895-9269-4d5e-a8aa-2a339b84768a"},"vehicle_type_id":"4","last_reported":1718820555,"current_range_meters":26800,"station_id":"ce4bhsp2rcd13ifvqi50","pricing_plan_id":"cebpf4jnsgd1na2vs0mg"},{"bike_id":"cadb1562-784c-4a14-b9e9-118153cfa517","system_id":"levelo_inurba_marseille","lat":43.315289,"lon":5.380349,"is_reserved":false,"is_disabled":false,"rental_uris":{"android":"levelo://app?vid=cadb1562-784c-4a14-b9e9-118153cfa517","ios":"levelo://app?vid=cadb1562-784c-4a14-b9e9-118153cfa517"},"vehicle_type_id":"4","last_reported":1718820555,"current_range_meters":29200,"station_id":"ce4bhsp2rcd13ifvqi50","pricing_plan_id":"cebpf4jnsgd1na2vs0mg"},{"bike_id":"9312f15d-d5c6-4b52-8c81-c55bb0d43772","system_id":"levelo_inurba_marseille","lat":43.315289,"lon":5.380349,"is_reserved":false,"is_disabled":false,"rental_uris":{"android":"levelo://app?vid=9312f15d-d5c6-4b52-8c81-c55bb0d43772","ios":"levelo://app?vid=9312f15d-d5c6-4b52-8c81-c55bb0d43772"},"vehicle_type_id":"4","last_reported":1718820555,"current_range_meters":22000,"station_id":"ce4bhsp2rcd13ifvqi50","pricing_plan_id":"cebpf4jnsgd1na2vs0mg"},{"bike_id":"5055995c-e00c-48ea-b5d8-2b713dd79a0e","system_id":"levelo_inurba_marseille","lat":43.301939,"lon":5.366286,"is_reserved":false,"is_disabled":false,"rental_uris":{"android":"levelo://app?vid=5055995c-e00c-48ea-b5d8-2b713dd79a0e","ios":"levelo://app?vid=5055995c-e00c-48ea-b5d8-2b713dd79a0e"},"vehicle_type_id":"4","last_reported":1718820555,"current_range_meters":20400,"station_id":"ce4bgrh2rcd13ifvqc8g","pricing_plan_id":"cebpf4jnsgd1na2vs0mg"},{"bike_id":"cb756a21-ebc9-4fe0-84db-762d04b6858f","system_id":"levelo_inurba_marseille","lat":43.301939,"lon":5.366286,"is_reserved":false,"is_disabled":false,"rental_uris":{"android":"levelo://app?vid=cb756a21-ebc9-4fe0-84db-762d04b6858f","ios":"levelo://app?vid=cb756a21-ebc9-4fe0-84db-762d04b6858f"},"vehicle_type_id":"4","last_reported":1718820555,"current_range_meters":6400,"station_id":"ce4bgrh2rcd13ifvqc8g","pricing_plan_id":"cebpf4jnsgd1na2vs0mg"},{"bike_id":"ce5d6462-0649-4840-b014-8b8ba2dcecb6","system_id":"levelo_inurba_marseille","lat":43.301939,"lon":5.366286,"is_reserved":false,"is_disabled":false,"rental_uris":{"android":"levelo://app?vid=ce5d6462-0649-4840-b014-8b8ba2dcecb6","ios":"levelo://app?vid=ce5d6462-0649-4840-b014-8b8ba2dcecb6"},"vehicle_type_id":"4","last_reported":1718820555,"current_range_meters":4000,"station_id":"ce4bgrh2rcd13ifvqc8g","pricing_plan_id":"cebpf4jnsgd1na2vs0mg"},{"bike_id":"ad745856-4798-4118-b7af-c7f74e29dc71","system_id":"levelo_inurba_marseille","lat":43.308012,"lon":5.381511,"is_reserved":false,"is_disabled":false,"rental_uris":{"android":"levelo://app?vid=ad745856-4798-4118-b7af-c7f74e29dc71","ios":"levelo://app?vid=ad745856-4798-4118-b7af-c7f74e29dc71"},"vehicle_type_id":"4","last_reported":1718820555,"current_range_meters":31200,"station_id":"ce4bgt12rcd13ifvqce0","pricing_plan_id":"cebpf4jnsgd1na2vs0mg"},{"bike_id":"5d0c5114-7541-40f3-8666-d964660a26f0","system_id":"levelo_inurba_marseille","lat":43.308012,"lon":5.381511,"is_reserved":false,"is_disabled":false,"rental_uris":{"android":"levelo://app?vid=5d0c5114-7541-40f3-8666-d964660a26f0","ios":"levelo://app?vid=5d0c5114-7541-40f3-8666-d964660a26f0"},"vehicle_type_id":"4","last_reported":1718820555,"current_range_meters":20400,"station_id":"ce4bgt12rcd13ifvqce0","pricing_plan_id":"cebpf4jnsgd1na2vs0mg"},{"bike_id":"8a994938-352b-48cb-be8e-fe3e73023073","system_id":"levelo_inurba_marseille","lat":43.304606,"lon":5.379026,"is_reserved":false,"is_disabled":false,"rental_uris":{"android":"levelo://app?vid=8a994938-352b-48cb-be8e-fe3e73023073","ios":"levelo://app?vid=8a994938-352b-48cb-be8e-fe3e73023073"},"vehicle_type_id":"4","last_reported":1718820555,"current_range_meters":4000,"station_id":"ce4bgup2rcd13ifvqcn0","pricing_plan_id":"cebpf4jnsgd1na2vs0mg"},{"bike_id":"96dbd3f2-b8bc-47af-bef8-08c2b611cf9e","system_id":"levelo_inurba_marseille","lat":43.324771,"lon":5.36557,"is_reserved":false,"is_disabled":false,"rental_uris":{"android":"levelo://app?vid=96dbd3f2-b8bc-47af-bef8-08c2b611cf9e","ios":"levelo://app?vid=96dbd3f2-b8bc-47af-bef8-08c2b611cf9e"},"vehicle_type_id":"4","last_reported":1718820555,"current_range_meters":8000,"station_id":"ce4bhs12rcd13ifvqhvg","pricing_plan_id":"cebpf4jnsgd1na2vs0mg"},{"bike_id":"098ad56a-0bb9-479d-addb-e77a830149a6","system_id":"levelo_inurba_marseille","lat":43.310804,"lon":5.38359,"is_reserved":false,"is_disabled":false,"rental_uris":{"android":"levelo://app?vid=098ad56a-0bb9-479d-addb-e77a830149a6","ios":"levelo://app?vid=098ad56a-0bb9-479d-addb-e77a830149a6"},"vehicle_type_id":"4","last_reported":1718820555,"current_range_meters":0,"station_id":"ce4bgv92rcd13ifvqcr0","pricing_plan_id":"cebpf4jnsgd1na2vs0mg"},{"bike_id":"7d5de36b-a4f3-4910-9ab3-a990b15631aa","system_id":"levelo_inurba_marseille","lat":43.302784,"lon":5.377158,"is_reserved":false,"is_disabled":false,"rental_uris":{"android":"levelo://app?vid=7d5de36b-a4f3-4910-9ab3-a990b15631aa","ios":"levelo://app?vid=7d5de36b-a4f3-4910-9ab3-a990b15631aa"},"vehicle_type_id":"4","last_reported":1718820555,"current_range_meters":17200,"station_id":"ce4bguh2rcd13ifvqcj0","pricing_plan_id":"cebpf4jnsgd1na2vs0mg"},{"bike_id":"08940b84-5501-47ac-892c-e3e757e37ce0","system_id":"levelo_inurba_marseille","lat":43.30033,"lon":5.36673,"is_reserved":false,"is_disabled":false,"rental_uris":{"android":"levelo://app?vid=08940b84-5501-47ac-892c-e3e757e37ce0","ios":"levelo://app?vid=08940b84-5501-47ac-892c-e3e757e37ce0"},"vehicle_type_id":"4","last_reported":1718820555,"current_range_meters":24000,"station_id":"","pricing_plan_id":"cebpf4jnsgd1na2vs0mg"},{"bike_id":"5fe157f5-a7cd-4357-b7ff-a67d7242886f","system_id":"levelo_inurba_marseille","lat":43.301429,"lon":5.37413,"is_reserved":false,"is_disabled":false,"rental_uris":{"android":"levelo://app?vid=5fe157f5-a7cd-4357-b7ff-a67d7242886f","ios":"levelo://app?vid=5fe157f5-a7cd-4357-b7ff-a67d7242886f"},"vehicle_type_id":"4","last_reported":1718820555,"current_range_meters":9200,"station_id":"ce4bgs92rcd13ifvqcc0","pricing_plan_id":"cebpf4jnsgd1na2vs0mg"},{"bike_id":"9ca7514b-f9d6-4734-9d3f-56527ffb94e0","system_id":"levelo_inurba_marseille","lat":43.31986,"lon":5.3816,"is_reserved":false,"is_disabled":false,"rental_uris":{"android":"levelo://app?vid=9ca7514b-f9d6-4734-9d3f-56527ffb94e0","ios":"levelo://app?vid=9ca7514b-f9d6-4734-9d3f-56527ffb94e0"},"vehicle_type_id":"4","last_reported":1718820555,"current_range_meters":0,"station_id":"ce4bhr12rcd13ifvqhpg","pricing_plan_id":"cebpf4jnsgd1na2vs0mg"},{"bike_id":"9fbac87a-652a-4def-868e-246f052cb14e","system_id":"levelo_inurba_marseille","lat":43.3199,"lon":5.38161,"is_reserved":false,"is_disabled":false,"rental_uris":{"android":"levelo://app?vid=9fbac87a-652a-4def-868e-246f052cb14e","ios":"levelo://app?vid=9fbac87a-652a-4def-868e-246f052cb14e"},"vehicle_type_id":"4","last_reported":1718820555,"current_range_meters":28800,"station_id":"ce4bhr12rcd13ifvqhpg","pricing_plan_id":"cebpf4jnsgd1na2vs0mg"},{"bike_id":"8072d9ee-966a-4320-9045-b5e21c2718c8","system_id":"levelo_inurba_marseille","lat":43.31997,"lon":5.38162,"is_reserved":false,"is_disabled":false,"rental_uris":{"android":"levelo://app?vid=8072d9ee-966a-4320-9045-b5e21c2718c8","ios":"levelo://app?vid=8072d9ee-966a-4320-9045-b5e21c2718c8"},"vehicle_type_id":"4","last_reported":1718820555,"current_range_meters":800,"station_id":"ce4bhr12rcd13ifvqhpg","pricing_plan_id":"cebpf4jnsgd1na2vs0mg"},{"bike_id":"a0fb88ef-c475-4719-b0c1-cb0601658ba2","system_id":"levelo_inurba_marseille","lat":43.32002,"lon":5.38165,"is_reserved":false,"is_disabled":false,"rental_uris":{"android":"levelo://app?vid=a0fb88ef-c475-4719-b0c1-cb0601658ba2","ios":"levelo://app?vid=a0fb88ef-c475-4719-b0c1-cb0601658ba2"},"vehicle_type_id":"4","last_reported":1718820555,"current_range_meters":22000,"station_id":"ce4bhr12rcd13ifvqhpg","pricing_plan_id":"cebpf4jnsgd1na2vs0mg"},{"bike_id":"0cf7d8ad-d6aa-4e0c-9963-e9f33ef9c0e7","system_id":"levelo_inurba_marseille","lat":43.31356,"lon":5.3849,"is_reserved":false,"is_disabled":false,"rental_uris":{"android":"levelo://app?vid=0cf7d8ad-d6aa-4e0c-9963-e9f33ef9c0e7","ios":"levelo://app?vid=0cf7d8ad-d6aa-4e0c-9963-e9f33ef9c0e7"},"vehicle_type_id":"4","last_reported":1718820555,"current_range_meters":21200,"station_id":"ce4bgt92rcd13ifvqcf0","pricing_plan_id":"cebpf4jnsgd1na2vs0mg"},{"bike_id":"4c64decd-846c-456d-8d30-f894cf38e42e","system_id":"levelo_inurba_marseille","lat":43.313571,"lon":5.384829,"is_reserved":false,"is_disabled":false,"rental_uris":{"android":"levelo://app?vid=4c64decd-846c-456d-8d30-f894cf38e42e","ios":"levelo://app?vid=4c64decd-846c-456d-8d30-f894cf38e42e"},"vehicle_type_id":"4","last_reported":1718820555,"current_range_meters":4000,"station_id":"ce4bgt92rcd13ifvqcf0","pricing_plan_id":"cebpf4jnsgd1na2vs0mg"},{"bike_id":"a079d634-4cbc-47d3-a54d-9d7f6c4698d0","system_id":"levelo_inurba_marseille","lat":43.313571,"lon":5.384829,"is_reserved":false,"is_disabled":false,"rental_uris":{"android":"levelo://app?vid=a079d634-4cbc-47d3-a54d-9d7f6c4698d0","ios":"levelo://app?vid=a079d634-4cbc-47d3-a54d-9d7f6c4698d0"},"vehicle_type_id":"4","last_reported":1718820555,"current_range_meters":14400,"station_id":"ce4bgt92rcd13ifvqcf0","pricing_plan_id":"cebpf4jnsgd1na2vs0mg"},{"bike_id":"24ae4b4d-f337-46af-8d1d-a3ae6e27c494","system_id":"levelo_inurba_marseille","lat":43.313571,"lon":5.384829,"is_reserved":false,"is_disabled":false,"rental_uris":{"android":"levelo://app?vid=24ae4b4d-f337-46af-8d1d-a3ae6e27c494","ios":"levelo://app?vid=24ae4b4d-f337-46af-8d1d-a3ae6e27c494"},"vehicle_type_id":"4","last_reported":1718820555,"current_range_meters":8000,"station_id":"ce4bgt92rcd13ifvqcf0","pricing_plan_id":"cebpf4jnsgd1na2vs0mg"},{"bike_id":"b6641f42-7409-420d-9e56-f47f06555ae5","system_id":"levelo_inurba_marseille","lat":43.299222,"lon":5.365554,"is_reserved":false,"is_disabled":false,"rental_uris":{"android":"levelo://app?vid=b6641f42-7409-420d-9e56-f47f06555ae5","ios":"levelo://app?vid=b6641f42-7409-420d-9e56-f47f06555ae5"},"vehicle_type_id":"4","last_reported":1718820555,"current_range_meters":2000,"station_id":"ce4bgm92rcd13ifvqbr0","pricing_plan_id":"cebpf4jnsgd1na2vs0mg"},{"bike_id":"ffa7c437-7cde-4b4e-87f4-fc17c34bf33e","system_id":"levelo_inurba_marseille","lat":43.299724,"lon":5.371829,"is_reserved":false,"is_disabled":false,"rental_uris":{"android":"levelo://app?vid=ffa7c437-7cde-4b4e-87f4-fc17c34bf33e","ios":"levelo://app?vid=ffa7c437-7cde-4b4e-87f4-fc17c34bf33e"},"vehicle_type_id":"4","last_reported":1718820555,"current_range_meters":0,"station_id":"ce4bgr92rcd13ifvqc7g","pricing_plan_id":"cebpf4jnsgd1na2vs0mg"},{"bike_id":"b3976736-0bf8-4592-b95f-43c883c7e21a","system_id":"levelo_inurba_marseille","lat":43.299724,"lon":5.371829,"is_reserved":false,"is_disabled":false,"rental_uris":{"android":"levelo://app?vid=b3976736-0bf8-4592-b95f-43c883c7e21a","ios":"levelo://app?vid=b3976736-0bf8-4592-b95f-43c883c7e21a"},"vehicle_type_id":"4","last_reported":1718820555,"current_range_meters":28000,"station_id":"ce4bgr92rcd13ifvqc7g","pricing_plan_id":"cebpf4jnsgd1na2vs0mg"},{"bike_id":"b3cba7ca-c187-481f-af0a-031b4964134b","system_id":"levelo_inurba_marseille","lat":43.299724,"lon":5.371829,"is_reserved":false,"is_disabled":false,"rental_uris":{"android":"levelo://app?vid=b3cba7ca-c187-481f-af0a-031b4964134b","ios":"levelo://app?vid=b3cba7ca-c187-481f-af0a-031b4964134b"},"vehicle_type_id":"4","last_reported":1718820555,"current_range_meters":6400,"station_id":"ce4bgr92rcd13ifvqc7g","pricing_plan_id":"cebpf4jnsgd1na2vs0mg"},{"bike_id":"8894877d-1d0e-46b7-b58f-9af605c99275","system_id":"levelo_inurba_marseille","lat":43.31199,"lon":5.38667,"is_reserved":false,"is_disabled":false,"rental_uris":{"android":"levelo://app?vid=8894877d-1d0e-46b7-b58f-9af605c99275","ios":"levelo://app?vid=8894877d-1d0e-46b7-b58f-9af605c99275"},"vehicle_type_id":"4","last_reported":1718820555,"current_range_meters":1600,"station_id":"","pricing_plan_id":"cebpf4jnsgd1na2vs0mg"},{"bike_id":"1de1f64b-1563-421b-b360-06aa8b0d2afa","system_id":"levelo_inurba_marseille","lat":43.30015,"lon":5.37713,"is_reserved":false,"is_disabled":false,"rental_uris":{"android":"levelo://app?vid=1de1f64b-1563-421b-b360-06aa8b0d2afa","ios":"levelo://app?vid=1de1f64b-1563-421b-b360-06aa8b0d2afa"},"vehicle_type_id":"4","last_reported":1718820555,"current_range_meters":1200,"station_id":"","pricing_plan_id":"cebpf4jnsgd1na2vs0mg"},{"bike_id":"3d4c32cd-a640-4740-9b25-4da8d1456b3b","system_id":"levelo_inurba_marseille","lat":43.311697,"lon":5.387157,"is_reserved":false,"is_disabled":false,"rental_uris":{"android":"levelo://app?vid=3d4c32cd-a640-4740-9b25-4da8d1456b3b","ios":"levelo://app?vid=3d4c32cd-a640-4740-9b25-4da8d1456b3b"},"vehicle_type_id":"4","last_reported":1718820555,"current_range_meters":400,"station_id":"ce4bgv12rcd13ifvqcp0","pricing_plan_id":"cebpf4jnsgd1na2vs0mg"},{"bike_id":"8f462bf3-5fdf-452e-93a5-cb829a98ec7e","system_id":"levelo_inurba_marseille","lat":43.311722,"lon":5.387247,"is_reserved":false,"is_disabled":false,"rental_uris":{"android":"levelo://app?vid=8f462bf3-5fdf-452e-93a5-cb829a98ec7e","ios":"levelo://app?vid=8f462bf3-5fdf-452e-93a5-cb829a98ec7e"},"vehicle_type_id":"4","last_reported":1718820555,"current_range_meters":3200,"station_id":"ce4bgv12rcd13ifvqcp0","pricing_plan_id":"cebpf4jnsgd1na2vs0mg"},{"bike_id":"5b7f5688-39bd-4d3f-bcbf-6030949803e3","system_id":"levelo_inurba_marseille","lat":43.311722,"lon":5.387247,"is_reserved":false,"is_disabled":false,"rental_uris":{"android":"levelo://app?vid=5b7f5688-39bd-4d3f-bcbf-6030949803e3","ios":"levelo://app?vid=5b7f5688-39bd-4d3f-bcbf-6030949803e3"},"vehicle_type_id":"4","last_reported":1718820555,"current_range_meters":2800,"station_id":"ce4bgv12rcd13ifvqcp0","pricing_plan_id":"cebpf4jnsgd1na2vs0mg"},{"bike_id":"08e3bdcb-eb57-45f9-9710-6e2c3e9b076e","system_id":"levelo_inurba_marseille","lat":43.31173,"lon":5.3872,"is_reserved":false,"is_disabled":false,"rental_uris":{"android":"levelo://app?vid=08e3bdcb-eb57-45f9-9710-6e2c3e9b076e","ios":"levelo://app?vid=08e3bdcb-eb57-45f9-9710-6e2c3e9b076e"},"vehicle_type_id":"4","last_reported":1718820555,"current_range_meters":31200,"station_id":"ce4bgv12rcd13ifvqcp0","pricing_plan_id":"cebpf4jnsgd1na2vs0mg"},{"bike_id":"224763df-46d8-4e7e-a01a-05322b698e2b","system_id":"levelo_inurba_marseille","lat":43.311722,"lon":5.387247,"is_reserved":false,"is_disabled":false,"rental_uris":{"android":"levelo://app?vid=224763df-46d8-4e7e-a01a-05322b698e2b","ios":"levelo://app?vid=224763df-46d8-4e7e-a01a-05322b698e2b"},"vehicle_type_id":"4","last_reported":1718820555,"current_range_meters":26400,"station_id":"ce4bgv12rcd13ifvqcp0","pricing_plan_id":"cebpf4jnsgd1na2vs0mg"},{"bike_id":"f4eb916b-5eec-4997-a667-e2f69b49511b","system_id":"levelo_inurba_marseille","lat":43.297774,"lon":5.370875,"is_reserved":false,"is_disabled":false,"rental_uris":{"android":"levelo://app?vid=f4eb916b-5eec-4997-a667-e2f69b49511b","ios":"levelo://app?vid=f4eb916b-5eec-4997-a667-e2f69b49511b"},"vehicle_type_id":"4","last_reported":1718820555,"current_range_meters":19600,"station_id":"ce4bgop2rcd13ifvqc1g","pricing_plan_id":"cebpf4jnsgd1na2vs0mg"},{"bike_id":"aa8b0892-cb5e-4ee9-a09b-3485d7a8c528","system_id":"levelo_inurba_marseille","lat":43.297794,"lon":5.370888,"is_reserved":false,"is_disabled":false,"rental_uris":{"android":"levelo://app?vid=aa8b0892-cb5e-4ee9-a09b-3485d7a8c528","ios":"levelo://app?vid=aa8b0892-cb5e-4ee9-a09b-3485d7a8c528"},"vehicle_type_id":"4","last_reported":1718820555,"current_range_meters":9200,"station_id":"ce4bgop2rcd13ifvqc1g","pricing_plan_id":"cebpf4jnsgd1na2vs0mg"},{"bike_id":"e301fcc2-11ee-49d4-b890-9893c22e61a2","system_id":"levelo_inurba_marseille","lat":43.297794,"lon":5.370888,"is_reserved":false,"is_disabled":false,"rental_uris":{"android":"levelo://app?vid=e301fcc2-11ee-49d4-b890-9893c22e61a2","ios":"levelo://app?vid=e301fcc2-11ee-49d4-b890-9893c22e61a2"},"vehicle_type_id":"4","last_reported":1718820555,"current_range_meters":19200,"station_id":"ce4bgop2rcd13ifvqc1g","pricing_plan_id":"cebpf4jnsgd1na2vs0mg"},{"bike_id":"bcab1b1f-ffc4-469f-868e-1fe6d2324551","system_id":"levelo_inurba_marseille","lat":43.297774,"lon":5.370875,"is_reserved":false,"is_disabled":false,"rental_uris":{"android":"levelo://app?vid=bcab1b1f-ffc4-469f-868e-1fe6d2324551","ios":"levelo://app?vid=bcab1b1f-ffc4-469f-868e-1fe6d2324551"},"vehicle_type_id":"4","last_reported":1718820555,"current_range_meters":5600,"station_id":"ce4bgop2rcd13ifvqc1g","pricing_plan_id":"cebpf4jnsgd1na2vs0mg"},{"bike_id":"f9511179-10c0-4b25-9495-909ee966754a","system_id":"levelo_inurba_marseille","lat":43.322872,"lon":5.382756,"is_reserved":false,"is_disabled":false,"rental_uris":{"android":"levelo://app?vid=f9511179-10c0-4b25-9495-909ee966754a","ios":"levelo://app?vid=f9511179-10c0-4b25-9495-909ee966754a"},"vehicle_type_id":"4","last_reported":1718820555,"current_range_meters":24800,"station_id":"ce4bhr12rcd13ifvqhqg","pricing_plan_id":"cebpf4jnsgd1na2vs0mg"},{"bike_id":"00e64183-1088-412b-b7c0-212bcf7a59b5","system_id":"levelo_inurba_marseille","lat":43.297163,"lon":5.365866,"is_reserved":false,"is_disabled":false,"rental_uris":{"android":"levelo://app?vid=00e64183-1088-412b-b7c0-212bcf7a59b5","ios":"levelo://app?vid=00e64183-1088-412b-b7c0-212bcf7a59b5"},"vehicle_type_id":"4","last_reported":1718820555,"current_range_meters":12000,"station_id":"ce4bgn12rcd13ifvqbt0","pricing_plan_id":"cebpf4jnsgd1na2vs0mg"},{"bike_id":"7ccb8584-78e2-4fcc-a4aa-be193a69e07a","system_id":"levelo_inurba_marseille","lat":43.29708,"lon":5.36611,"is_reserved":false,"is_disabled":false,"rental_uris":{"android":"levelo://app?vid=7ccb8584-78e2-4fcc-a4aa-be193a69e07a","ios":"levelo://app?vid=7ccb8584-78e2-4fcc-a4aa-be193a69e07a"},"vehicle_type_id":"4","last_reported":1718820555,"current_range_meters":5200,"station_id":"ce4bgn12rcd13ifvqbt0","pricing_plan_id":"cebpf4jnsgd1na2vs0mg"},{"bike_id":"b85caf4d-d1f2-4a11-8e1c-dec3eea40e8e","system_id":"levelo_inurba_marseille","lat":43.297163,"lon":5.365866,"is_reserved":false,"is_disabled":false,"rental_uris":{"android":"levelo://app?vid=b85caf4d-d1f2-4a11-8e1c-dec3eea40e8e","ios":"levelo://app?vid=b85caf4d-d1f2-4a11-8e1c-dec3eea40e8e"},"vehicle_type_id":"4","last_reported":1718820555,"current_range_meters":6800,"station_id":"ce4bgn12rcd13ifvqbt0","pricing_plan_id":"cebpf4jnsgd1na2vs0mg"},{"bike_id":"781e6200-d773-4a45-9ff7-14e12185b01c","system_id":"levelo_inurba_marseille","lat":43.298713,"lon":5.376677,"is_reserved":false,"is_disabled":false,"rental_uris":{"android":"levelo://app?vid=781e6200-d773-4a45-9ff7-14e12185b01c","ios":"levelo://app?vid=781e6200-d773-4a45-9ff7-14e12185b01c"},"vehicle_type_id":"4","last_reported":1718820555,"current_range_meters":19600,"station_id":"","pricing_plan_id":"cebpf4jnsgd1na2vs0mg"},{"bike_id":"2a42502e-4a26-4730-a36d-a07ad7c25a95","system_id":"levelo_inurba_marseille","lat":43.31829,"lon":5.38749,"is_reserved":false,"is_disabled":false,"rental_uris":{"android":"levelo://app?vid=2a42502e-4a26-4730-a36d-a07ad7c25a95","ios":"levelo://app?vid=2a42502e-4a26-4730-a36d-a07ad7c25a95"},"vehicle_type_id":"4","last_reported":1718820555,"current_range_meters":5600,"station_id":"","pricing_plan_id":"cebpf4jnsgd1na2vs0mg"},{"bike_id":"c96c3e45-1d7f-46c2-b393-b835685e7e31","system_id":"levelo_inurba_marseille","lat":43.327876,"lon":5.359869,"is_reserved":false,"is_disabled":false,"rental_uris":{"android":"levelo://app?vid=c96c3e45-1d7f-46c2-b393-b835685e7e31","ios":"levelo://app?vid=c96c3e45-1d7f-46c2-b393-b835685e7e31"},"vehicle_type_id":"4","last_reported":1718820555,"current_range_meters":21600,"station_id":"","pricing_plan_id":"cebpf4jnsgd1na2vs0mg"},{"bike_id":"53d9c022-0e6e-4f76-84b9-93958f162191","system_id":"levelo_inurba_marseille","lat":43.315781,"lon":5.389476,"is_reserved":false,"is_disabled":false,"rental_uris":{"android":"levelo://app?vid=53d9c022-0e6e-4f76-84b9-93958f162191","ios":"levelo://app?vid=53d9c022-0e6e-4f76-84b9-93958f162191"},"vehicle_type_id":"4","last_reported":1718820555,"current_range_meters":10000,"station_id":"","pricing_plan_id":"cebpf4jnsgd1na2vs0mg"},{"bike_id":"a430574f-3a16-4347-9b80-28d21d766809","system_id":"levelo_inurba_marseille","lat":43.296935,"lon":5.376544,"is_reserved":false,"is_disabled":false,"rental_uris":{"android":"levelo://app?vid=a430574f-3a16-4347-9b80-28d21d766809","ios":"levelo://app?vid=a430574f-3a16-4347-9b80-28d21d766809"},"vehicle_type_id":"4","last_reported":1718820555,"current_range_meters":6400,"station_id":"ce4bgkh2rcd13ifvqbl0","pricing_plan_id":"cebpf4jnsgd1na2vs0mg"},{"bike_id":"ccfc714a-a330-4fbb-9fea-002dcd502f54","system_id":"levelo_inurba_marseille","lat":43.299083,"lon":5.381387,"is_reserved":false,"is_disabled":false,"rental_uris":{"android":"levelo://app?vid=ccfc714a-a330-4fbb-9fea-002dcd502f54","ios":"levelo://app?vid=ccfc714a-a330-4fbb-9fea-002dcd502f54"},"vehicle_type_id":"4","last_reported":1718820555,"current_range_meters":15600,"station_id":"ce4bgj12rcd13ifvqbc0","pricing_plan_id":"cebpf4jnsgd1na2vs0mg"},{"bike_id":"31117630-a1bd-42ab-86dc-63f5f736904f","system_id":"levelo_inurba_marseille","lat":43.296921,"lon":5.376579,"is_reserved":false,"is_disabled":false,"rental_uris":{"android":"levelo://app?vid=31117630-a1bd-42ab-86dc-63f5f736904f","ios":"levelo://app?vid=31117630-a1bd-42ab-86dc-63f5f736904f"},"vehicle_type_id":"4","last_reported":1718820555,"current_range_meters":22400,"station_id":"ce4bgkh2rcd13ifvqbl0","pricing_plan_id":"cebpf4jnsgd1na2vs0mg"},{"bike_id":"205d9818-b063-4426-ad2a-ff67af65de9b","system_id":"levelo_inurba_marseille","lat":43.30954,"lon":5.39042,"is_reserved":false,"is_disabled":false,"rental_uris":{"android":"levelo://app?vid=205d9818-b063-4426-ad2a-ff67af65de9b","ios":"levelo://app?vid=205d9818-b063-4426-ad2a-ff67af65de9b"},"vehicle_type_id":"4","last_reported":1718820555,"current_range_meters":2000,"station_id":"ce4bgup2rcd13ifvqco0","pricing_plan_id":"cebpf4jnsgd1na2vs0mg"},{"bike_id":"8bf16060-c6e9-44cb-b4ae-99ad09ddfdc1","system_id":"levelo_inurba_marseille","lat":43.30957,"lon":5.39048,"is_reserved":false,"is_disabled":false,"rental_uris":{"android":"levelo://app?vid=8bf16060-c6e9-44cb-b4ae-99ad09ddfdc1","ios":"levelo://app?vid=8bf16060-c6e9-44cb-b4ae-99ad09ddfdc1"},"vehicle_type_id":"4","last_reported":1718820555,"current_range_meters":0,"station_id":"ce4bgup2rcd13ifvqco0","pricing_plan_id":"cebpf4jnsgd1na2vs0mg"},{"bike_id":"c80f37b5-bc34-4ed4-8951-76108d71e7a2","system_id":"levelo_inurba_marseille","lat":43.317557,"lon":5.390173,"is_reserved":false,"is_disabled":false,"rental_uris":{"android":"levelo://app?vid=c80f37b5-bc34-4ed4-8951-76108d71e7a2","ios":"levelo://app?vid=c80f37b5-bc34-4ed4-8951-76108d71e7a2"},"vehicle_type_id":"4","last_reported":1718820555,"current_range_meters":28800,"station_id":"ce4bhqp2rcd13ifvqhng","pricing_plan_id":"cebpf4jnsgd1na2vs0mg"},{"bike_id":"f9f37b1f-d114-43fd-8dc9-373198a5e976","system_id":"levelo_inurba_marseille","lat":43.317557,"lon":5.390173,"is_reserved":false,"is_disabled":false,"rental_uris":{"android":"levelo://app?vid=f9f37b1f-d114-43fd-8dc9-373198a5e976","ios":"levelo://app?vid=f9f37b1f-d114-43fd-8dc9-373198a5e976"},"vehicle_type_id":"4","last_reported":1718820555,"current_range_meters":20800,"station_id":"ce4bhqp2rcd13ifvqhng","pricing_plan_id":"cebpf4jnsgd1na2vs0mg"},{"bike_id":"3c6560c0-0b9e-462b-a300-be9e18690a41","system_id":"levelo_inurba_marseille","lat":43.317557,"lon":5.390173,"is_reserved":false,"is_disabled":false,"rental_uris":{"android":"levelo://app?vid=3c6560c0-0b9e-462b-a300-be9e18690a41","ios":"levelo://app?vid=3c6560c0-0b9e-462b-a300-be9e18690a41"},"vehicle_type_id":"4","last_reported":1718820555,"current_range_meters":28800,"station_id":"ce4bhqp2rcd13ifvqhng","pricing_plan_id":"cebpf4jnsgd1na2vs0mg"},{"bike_id":"4c1523fd-e6a9-4e31-919d-418f3377047d","system_id":"levelo_inurba_marseille","lat":43.317557,"lon":5.390173,"is_reserved":false,"is_disabled":false,"rental_uris":{"android":"levelo://app?vid=4c1523fd-e6a9-4e31-919d-418f3377047d","ios":"levelo://app?vid=4c1523fd-e6a9-4e31-919d-418f3377047d"},"vehicle_type_id":"4","last_reported":1718820555,"current_range_meters":17200,"station_id":"ce4bhqp2rcd13ifvqhng","pricing_plan_id":"cebpf4jnsgd1na2vs0mg"},{"bike_id":"03364395-d5aa-4708-b295-4b5f637419c8","system_id":"levelo_inurba_marseille","lat":43.317557,"lon":5.390173,"is_reserved":false,"is_disabled":false,"rental_uris":{"android":"levelo://app?vid=03364395-d5aa-4708-b295-4b5f637419c8","ios":"levelo://app?vid=03364395-d5aa-4708-b295-4b5f637419c8"},"vehicle_type_id":"4","last_reported":1718820555,"current_range_meters":6400,"station_id":"ce4bhqp2rcd13ifvqhng","pricing_plan_id":"cebpf4jnsgd1na2vs0mg"},{"bike_id":"93475e83-fc67-4427-8684-803c6a20b724","system_id":"levelo_inurba_marseille","lat":43.298005,"lon":5.381241,"is_reserved":false,"is_disabled":false,"rental_uris":{"android":"levelo://app?vid=93475e83-fc67-4427-8684-803c6a20b724","ios":"levelo://app?vid=93475e83-fc67-4427-8684-803c6a20b724"},"vehicle_type_id":"4","last_reported":1718820555,"current_range_meters":31200,"station_id":"ce4bgih2rcd13ifvqba0","pricing_plan_id":"cebpf4jnsgd1na2vs0mg"},{"bike_id":"29ed9f8b-0f5d-4fba-8fe6-96de88b3e5a4","system_id":"levelo_inurba_marseille","lat":43.295748,"lon":5.37522,"is_reserved":false,"is_disabled":false,"rental_uris":{"android":"levelo://app?vid=29ed9f8b-0f5d-4fba-8fe6-96de88b3e5a4","ios":"levelo://app?vid=29ed9f8b-0f5d-4fba-8fe6-96de88b3e5a4"},"vehicle_type_id":"4","last_reported":1718820555,"current_range_meters":0,"station_id":"ce4bgh92rcd13ifvqb50","pricing_plan_id":"cebpf4jnsgd1na2vs0mg"},{"bike_id":"e29b09fe-e8b0-4084-be86-73179b924d86","system_id":"levelo_inurba_marseille","lat":43.295748,"lon":5.37522,"is_reserved":false,"is_disabled":false,"rental_uris":{"android":"levelo://app?vid=e29b09fe-e8b0-4084-be86-73179b924d86","ios":"levelo://app?vid=e29b09fe-e8b0-4084-be86-73179b924d86"},"vehicle_type_id":"4","last_reported":1718820555,"current_range_meters":0,"station_id":"ce4bgh92rcd13ifvqb50","pricing_plan_id":"cebpf4jnsgd1na2vs0mg"},{"bike_id":"491642a3-b67d-444f-a215-389d9d7912d5","system_id":"levelo_inurba_marseille","lat":43.295748,"lon":5.37522,"is_reserved":false,"is_disabled":false,"rental_uris":{"android":"levelo://app?vid=491642a3-b67d-444f-a215-389d9d7912d5","ios":"levelo://app?vid=491642a3-b67d-444f-a215-389d9d7912d5"},"vehicle_type_id":"4","last_reported":1718820555,"current_range_meters":31200,"station_id":"ce4bgh92rcd13ifvqb50","pricing_plan_id":"cebpf4jnsgd1na2vs0mg"},{"bike_id":"d3ff2005-419b-44f5-a328-60be5dceb669","system_id":"levelo_inurba_marseille","lat":43.299707,"lon":5.384859,"is_reserved":false,"is_disabled":false,"rental_uris":{"android":"levelo://app?vid=d3ff2005-419b-44f5-a328-60be5dceb669","ios":"levelo://app?vid=d3ff2005-419b-44f5-a328-60be5dceb669"},"vehicle_type_id":"4","last_reported":1718820555,"current_range_meters":28800,"station_id":"ce4bgj92rcd13ifvqbd0","pricing_plan_id":"cebpf4jnsgd1na2vs0mg"},{"bike_id":"e779aa3f-2c03-4a84-903f-84b205a87b33","system_id":"levelo_inurba_marseille","lat":43.295279,"lon":5.375048,"is_reserved":false,"is_disabled":false,"rental_uris":{"android":"levelo://app?vid=e779aa3f-2c03-4a84-903f-84b205a87b33","ios":"levelo://app?vid=e779aa3f-2c03-4a84-903f-84b205a87b33"},"vehicle_type_id":"4","last_reported":1718820555,"current_range_meters":3600,"station_id":"ce4bgkp2rcd13ifvqbmg","pricing_plan_id":"cebpf4jnsgd1na2vs0mg"},{"bike_id":"bb348437-9be4-4f25-9d55-2306bb0c7638","system_id":"levelo_inurba_marseille","lat":43.299707,"lon":5.384859,"is_reserved":false,"is_disabled":false,"rental_uris":{"android":"levelo://app?vid=bb348437-9be4-4f25-9d55-2306bb0c7638","ios":"levelo://app?vid=bb348437-9be4-4f25-9d55-2306bb0c7638"},"vehicle_type_id":"4","last_reported":1718820555,"current_range_meters":30800,"station_id":"ce4bgj92rcd13ifvqbd0","pricing_plan_id":"cebpf4jnsgd1na2vs0mg"},{"bike_id":"16dc04eb-d76e-4e99-8581-4c1539845bab","system_id":"levelo_inurba_marseille","lat":43.29974,"lon":5.38491,"is_reserved":false,"is_disabled":false,"rental_uris":{"android":"levelo://app?vid=16dc04eb-d76e-4e99-8581-4c1539845bab","ios":"levelo://app?vid=16dc04eb-d76e-4e99-8581-4c1539845bab"},"vehicle_type_id":"4","last_reported":1718820555,"current_range_meters":400,"station_id":"ce4bgj92rcd13ifvqbd0","pricing_plan_id":"cebpf4jnsgd1na2vs0mg"},{"bike_id":"c957f0ec-7c92-4f0e-b264-5e67e84a7467","system_id":"levelo_inurba_marseille","lat":43.32367,"lon":5.388836,"is_reserved":false,"is_disabled":false,"rental_uris":{"android":"levelo://app?vid=c957f0ec-7c92-4f0e-b264-5e67e84a7467","ios":"levelo://app?vid=c957f0ec-7c92-4f0e-b264-5e67e84a7467"},"vehicle_type_id":"4","last_reported":1718820555,"current_range_meters":14400,"station_id":"ce4bhqp2rcd13ifvqhog","pricing_plan_id":"cebpf4jnsgd1na2vs0mg"},{"bike_id":"fcefc568-f424-4bda-82af-4f5a9ad8ad7d","system_id":"levelo_inurba_marseille","lat":43.32367,"lon":5.388836,"is_reserved":false,"is_disabled":false,"rental_uris":{"android":"levelo://app?vid=fcefc568-f424-4bda-82af-4f5a9ad8ad7d","ios":"levelo://app?vid=fcefc568-f424-4bda-82af-4f5a9ad8ad7d"},"vehicle_type_id":"4","last_reported":1718820555,"current_range_meters":7200,"station_id":"ce4bhqp2rcd13ifvqhog","pricing_plan_id":"cebpf4jnsgd1na2vs0mg"},{"bike_id":"8ca1f103-e552-4da8-9973-d8995ec5f1c0","system_id":"levelo_inurba_marseille","lat":43.29602,"lon":5.381084,"is_reserved":false,"is_disabled":false,"rental_uris":{"android":"levelo://app?vid=8ca1f103-e552-4da8-9973-d8995ec5f1c0","ios":"levelo://app?vid=8ca1f103-e552-4da8-9973-d8995ec5f1c0"},"vehicle_type_id":"4","last_reported":1718820555,"current_range_meters":18800,"station_id":"ce4bgl12rcd13ifvqbo0","pricing_plan_id":"cebpf4jnsgd1na2vs0mg"},{"bike_id":"8d2154bd-31fd-428d-89a0-5e0ef145e4d3","system_id":"levelo_inurba_marseille","lat":43.29602,"lon":5.381084,"is_reserved":false,"is_disabled":false,"rental_uris":{"android":"levelo://app?vid=8d2154bd-31fd-428d-89a0-5e0ef145e4d3","ios":"levelo://app?vid=8d2154bd-31fd-428d-89a0-5e0ef145e4d3"},"vehicle_type_id":"4","last_reported":1718820555,"current_range_meters":1200,"station_id":"ce4bgl12rcd13ifvqbo0","pricing_plan_id":"cebpf4jnsgd1na2vs0mg"},{"bike_id":"9549f1b6-2f84-4806-8cf6-9212d0354441","system_id":"levelo_inurba_marseille","lat":43.292749,"lon":5.368402,"is_reserved":false,"is_disabled":false,"rental_uris":{"android":"levelo://app?vid=9549f1b6-2f84-4806-8cf6-9212d0354441","ios":"levelo://app?vid=9549f1b6-2f84-4806-8cf6-9212d0354441"},"vehicle_type_id":"4","last_reported":1718820555,"current_range_meters":0,"station_id":"ce4bhbp2rcd13ifvqesg","pricing_plan_id":"cebpf4jnsgd1na2vs0mg"},{"bike_id":"a4fb0497-3519-49d2-b5fc-f6d117a9b16c","system_id":"levelo_inurba_marseille","lat":43.292749,"lon":5.368402,"is_reserved":false,"is_disabled":false,"rental_uris":{"android":"levelo://app?vid=a4fb0497-3519-49d2-b5fc-f6d117a9b16c","ios":"levelo://app?vid=a4fb0497-3519-49d2-b5fc-f6d117a9b16c"},"vehicle_type_id":"4","last_reported":1718820555,"current_range_meters":6400,"station_id":"ce4bhbp2rcd13ifvqesg","pricing_plan_id":"cebpf4jnsgd1na2vs0mg"},{"bike_id":"d7e84965-9032-497f-8fe7-f0c7c5431874","system_id":"levelo_inurba_marseille","lat":43.292749,"lon":5.368402,"is_reserved":false,"is_disabled":false,"rental_uris":{"android":"levelo://app?vid=d7e84965-9032-497f-8fe7-f0c7c5431874","ios":"levelo://app?vid=d7e84965-9032-497f-8fe7-f0c7c5431874"},"vehicle_type_id":"4","last_reported":1718820555,"current_range_meters":0,"station_id":"ce4bhbp2rcd13ifvqesg","pricing_plan_id":"cebpf4jnsgd1na2vs0mg"},{"bike_id":"b831790a-2735-42f9-a250-99a1c28307f8","system_id":"levelo_inurba_marseille","lat":43.29278,"lon":5.36844,"is_reserved":false,"is_disabled":false,"rental_uris":{"android":"levelo://app?vid=b831790a-2735-42f9-a250-99a1c28307f8","ios":"levelo://app?vid=b831790a-2735-42f9-a250-99a1c28307f8"},"vehicle_type_id":"4","last_reported":1718820555,"current_range_meters":0,"station_id":"ce4bhbp2rcd13ifvqesg","pricing_plan_id":"cebpf4jnsgd1na2vs0mg"},{"bike_id":"0228e046-1d64-4ba8-9726-b9b19cc3edb4","system_id":"levelo_inurba_marseille","lat":43.292749,"lon":5.368402,"is_reserved":false,"is_disabled":false,"rental_uris":{"android":"levelo://app?vid=0228e046-1d64-4ba8-9726-b9b19cc3edb4","ios":"levelo://app?vid=0228e046-1d64-4ba8-9726-b9b19cc3edb4"},"vehicle_type_id":"4","last_reported":1718820555,"current_range_meters":0,"station_id":"ce4bhbp2rcd13ifvqesg","pricing_plan_id":"cebpf4jnsgd1na2vs0mg"},{"bike_id":"019b81c2-1f77-4c42-ae8d-8b353dee5693","system_id":"levelo_inurba_marseille","lat":43.30592,"lon":5.39348,"is_reserved":false,"is_disabled":false,"rental_uris":{"android":"levelo://app?vid=019b81c2-1f77-4c42-ae8d-8b353dee5693","ios":"levelo://app?vid=019b81c2-1f77-4c42-ae8d-8b353dee5693"},"vehicle_type_id":"4","last_reported":1718820555,"current_range_meters":31200,"station_id":"ce4bh0p2rcd13ifvqd80","pricing_plan_id":"cebpf4jnsgd1na2vs0mg"},{"bike_id":"fde9cdc5-07f4-4c7e-9b5b-12c4ceca8281","system_id":"levelo_inurba_marseille","lat":43.30599,"lon":5.39357,"is_reserved":false,"is_disabled":false,"rental_uris":{"android":"levelo://app?vid=fde9cdc5-07f4-4c7e-9b5b-12c4ceca8281","ios":"levelo://app?vid=fde9cdc5-07f4-4c7e-9b5b-12c4ceca8281"},"vehicle_type_id":"4","last_reported":1718820555,"current_range_meters":30400,"station_id":"ce4bh0p2rcd13ifvqd80","pricing_plan_id":"cebpf4jnsgd1na2vs0mg"},{"bike_id":"9d56f953-7ff2-49d6-ab3d-4060b657b68a","system_id":"levelo_inurba_marseille","lat":43.30595,"lon":5.3936,"is_reserved":false,"is_disabled":false,"rental_uris":{"android":"levelo://app?vid=9d56f953-7ff2-49d6-ab3d-4060b657b68a","ios":"levelo://app?vid=9d56f953-7ff2-49d6-ab3d-4060b657b68a"},"vehicle_type_id":"4","last_reported":1718820555,"current_range_meters":29600,"station_id":"ce4bh0p2rcd13ifvqd80","pricing_plan_id":"cebpf4jnsgd1na2vs0mg"},{"bike_id":"7ca71b04-f15d-4f34-a152-3a926240a7dc","system_id":"levelo_inurba_marseille","lat":43.302992,"lon":5.392136,"is_reserved":false,"is_disabled":false,"rental_uris":{"android":"levelo://app?vid=7ca71b04-f15d-4f34-a152-3a926240a7dc","ios":"levelo://app?vid=7ca71b04-f15d-4f34-a152-3a926240a7dc"},"vehicle_type_id":"4","last_reported":1718820555,"current_range_meters":26400,"station_id":"ce4bgkh2rcd13ifvqbk0","pricing_plan_id":"cebpf4jnsgd1na2vs0mg"},{"bike_id":"6881d682-a81e-405d-9543-2f02bd2c7b93","system_id":"levelo_inurba_marseille","lat":43.2936,"lon":5.37835,"is_reserved":false,"is_disabled":false,"rental_uris":{"android":"levelo://app?vid=6881d682-a81e-405d-9543-2f02bd2c7b93","ios":"levelo://app?vid=6881d682-a81e-405d-9543-2f02bd2c7b93"},"vehicle_type_id":"4","last_reported":1718820555,"current_range_meters":0,"station_id":"ce4bgjh2rcd13ifvqbf0","pricing_plan_id":"cebpf4jnsgd1na2vs0mg"},{"bike_id":"a9b321a8-a92d-430b-8345-e33389658f9f","system_id":"levelo_inurba_marseille","lat":43.30085,"lon":5.390856,"is_reserved":false,"is_disabled":false,"rental_uris":{"android":"levelo://app?vid=a9b321a8-a92d-430b-8345-e33389658f9f","ios":"levelo://app?vid=a9b321a8-a92d-430b-8345-e33389658f9f"},"vehicle_type_id":"4","last_reported":1718820555,"current_range_meters":31200,"station_id":"ce4bh192rcd13ifvqdb0","pricing_plan_id":"cebpf4jnsgd1na2vs0mg"},{"bike_id":"0beadbe2-ec7b-4eb6-9ff4-d9d23120324c","system_id":"levelo_inurba_marseille","lat":43.30085,"lon":5.390856,"is_reserved":false,"is_disabled":false,"rental_uris":{"android":"levelo://app?vid=0beadbe2-ec7b-4eb6-9ff4-d9d23120324c","ios":"levelo://app?vid=0beadbe2-ec7b-4eb6-9ff4-d9d23120324c"},"vehicle_type_id":"4","last_reported":1718820555,"current_range_meters":29600,"station_id":"ce4bh192rcd13ifvqdb0","pricing_plan_id":"cebpf4jnsgd1na2vs0mg"},{"bike_id":"984f66c6-f8bb-47ca-8f78-572d3f1df1d0","system_id":"levelo_inurba_marseille","lat":43.30085,"lon":5.390856,"is_reserved":false,"is_disabled":false,"rental_uris":{"android":"levelo://app?vid=984f66c6-f8bb-47ca-8f78-572d3f1df1d0","ios":"levelo://app?vid=984f66c6-f8bb-47ca-8f78-572d3f1df1d0"},"vehicle_type_id":"4","last_reported":1718820555,"current_range_meters":21600,"station_id":"ce4bh192rcd13ifvqdb0","pricing_plan_id":"cebpf4jnsgd1na2vs0mg"},{"bike_id":"4ec7f8f4-c166-4bd3-8669-9cfab0a26daf","system_id":"levelo_inurba_marseille","lat":43.298764,"lon":5.388973,"is_reserved":false,"is_disabled":false,"rental_uris":{"android":"levelo://app?vid=4ec7f8f4-c166-4bd3-8669-9cfab0a26daf","ios":"levelo://app?vid=4ec7f8f4-c166-4bd3-8669-9cfab0a26daf"},"vehicle_type_id":"4","last_reported":1718820555,"current_range_meters":22000,"station_id":"ce4bh392rcd13ifvqdl0","pricing_plan_id":"cebpf4jnsgd1na2vs0mg"},{"bike_id":"4a113933-c800-401b-aeeb-aa0824f65182","system_id":"levelo_inurba_marseille","lat":43.30085,"lon":5.390856,"is_reserved":false,"is_disabled":false,"rental_uris":{"android":"levelo://app?vid=4a113933-c800-401b-aeeb-aa0824f65182","ios":"levelo://app?vid=4a113933-c800-401b-aeeb-aa0824f65182"},"vehicle_type_id":"4","last_reported":1718820555,"current_range_meters":30000,"station_id":"ce4bh192rcd13ifvqdb0","pricing_plan_id":"cebpf4jnsgd1na2vs0mg"},{"bike_id":"a662c242-2dcb-4248-8b58-99ef67a567e8","system_id":"levelo_inurba_marseille","lat":43.291675,"lon":5.371583,"is_reserved":false,"is_disabled":false,"rental_uris":{"android":"levelo://app?vid=a662c242-2dcb-4248-8b58-99ef67a567e8","ios":"levelo://app?vid=a662c242-2dcb-4248-8b58-99ef67a567e8"},"vehicle_type_id":"4","last_reported":1718820555,"current_range_meters":13200,"station_id":"ce4bha92rcd13ifvqeh0","pricing_plan_id":"cebpf4jnsgd1na2vs0mg"},{"bike_id":"14adb8c4-ad86-4a49-a093-c8507e0833f7","system_id":"levelo_inurba_marseille","lat":43.291675,"lon":5.371583,"is_reserved":false,"is_disabled":false,"rental_uris":{"android":"levelo://app?vid=14adb8c4-ad86-4a49-a093-c8507e0833f7","ios":"levelo://app?vid=14adb8c4-ad86-4a49-a093-c8507e0833f7"},"vehicle_type_id":"4","last_reported":1718820555,"current_range_meters":4800,"station_id":"ce4bha92rcd13ifvqeh0","pricing_plan_id":"cebpf4jnsgd1na2vs0mg"},{"bike_id":"a3ce6da0-d3dd-459a-98b3-2b7d8e3eb0ec","system_id":"levelo_inurba_marseille","lat":43.292005,"lon":5.357875,"is_reserved":false,"is_disabled":false,"rental_uris":{"android":"levelo://app?vid=a3ce6da0-d3dd-459a-98b3-2b7d8e3eb0ec","ios":"levelo://app?vid=a3ce6da0-d3dd-459a-98b3-2b7d8e3eb0ec"},"vehicle_type_id":"4","last_reported":1718820555,"current_range_meters":6400,"station_id":"ce4bhb12rcd13ifvqel0","pricing_plan_id":"cebpf4jnsgd1na2vs0mg"},{"bike_id":"2a990f26-f9fe-4bec-bed3-0905a30fb49d","system_id":"levelo_inurba_marseille","lat":43.292005,"lon":5.357875,"is_reserved":false,"is_disabled":false,"rental_uris":{"android":"levelo://app?vid=2a990f26-f9fe-4bec-bed3-0905a30fb49d","ios":"levelo://app?vid=2a990f26-f9fe-4bec-bed3-0905a30fb49d"},"vehicle_type_id":"4","last_reported":1718820555,"current_range_meters":21600,"station_id":"ce4bhb12rcd13ifvqel0","pricing_plan_id":"cebpf4jnsgd1na2vs0mg"},{"bike_id":"8e319ffd-3238-4804-83dc-e64521ca175d","system_id":"levelo_inurba_marseille","lat":43.291994,"lon":5.357886,"is_reserved":false,"is_disabled":false,"rental_uris":{"android":"levelo://app?vid=8e319ffd-3238-4804-83dc-e64521ca175d","ios":"levelo://app?vid=8e319ffd-3238-4804-83dc-e64521ca175d"},"vehicle_type_id":"4","last_reported":1718820555,"current_range_meters":7200,"station_id":"ce4bhb12rcd13ifvqel0","pricing_plan_id":"cebpf4jnsgd1na2vs0mg"},{"bike_id":"800a4c1a-da10-44d4-a830-9915d988ba5e","system_id":"levelo_inurba_marseille","lat":43.292005,"lon":5.357875,"is_reserved":false,"is_disabled":false,"rental_uris":{"android":"levelo://app?vid=800a4c1a-da10-44d4-a830-9915d988ba5e","ios":"levelo://app?vid=800a4c1a-da10-44d4-a830-9915d988ba5e"},"vehicle_type_id":"4","last_reported":1718820555,"current_range_meters":14400,"station_id":"ce4bhb12rcd13ifvqel0","pricing_plan_id":"cebpf4jnsgd1na2vs0mg"},{"bike_id":"232eb6ea-571a-46e8-a740-229ce3817b4c","system_id":"levelo_inurba_marseille","lat":43.291994,"lon":5.357886,"is_reserved":false,"is_disabled":false,"rental_uris":{"android":"levelo://app?vid=232eb6ea-571a-46e8-a740-229ce3817b4c","ios":"levelo://app?vid=232eb6ea-571a-46e8-a740-229ce3817b4c"},"vehicle_type_id":"4","last_reported":1718820555,"current_range_meters":0,"station_id":"ce4bhb12rcd13ifvqel0","pricing_plan_id":"cebpf4jnsgd1na2vs0mg"},{"bike_id":"90c38eb4-ce23-42a5-b78d-ad99e8bd77b7","system_id":"levelo_inurba_marseille","lat":43.291994,"lon":5.357886,"is_reserved":false,"is_disabled":false,"rental_uris":{"android":"levelo://app?vid=90c38eb4-ce23-42a5-b78d-ad99e8bd77b7","ios":"levelo://app?vid=90c38eb4-ce23-42a5-b78d-ad99e8bd77b7"},"vehicle_type_id":"4","last_reported":1718820555,"current_range_meters":2400,"station_id":"ce4bhb12rcd13ifvqel0","pricing_plan_id":"cebpf4jnsgd1na2vs0mg"},{"bike_id":"8518667a-56f9-444b-924e-0b72a16d4b20","system_id":"levelo_inurba_marseille","lat":43.30887,"lon":5.39639,"is_reserved":false,"is_disabled":false,"rental_uris":{"android":"levelo://app?vid=8518667a-56f9-444b-924e-0b72a16d4b20","ios":"levelo://app?vid=8518667a-56f9-444b-924e-0b72a16d4b20"},"vehicle_type_id":"4","last_reported":1718820555,"current_range_meters":0,"station_id":"ce4bh012rcd13ifvqcv0","pricing_plan_id":"cebpf4jnsgd1na2vs0mg"},{"bike_id":"c6017ae2-4202-4a5e-ba20-3f8ba7088363","system_id":"levelo_inurba_marseille","lat":43.313291,"lon":5.396838,"is_reserved":false,"is_disabled":false,"rental_uris":{"android":"levelo://app?vid=c6017ae2-4202-4a5e-ba20-3f8ba7088363","ios":"levelo://app?vid=c6017ae2-4202-4a5e-ba20-3f8ba7088363"},"vehicle_type_id":"4","last_reported":1718820555,"current_range_meters":15200,"station_id":"ce4bgvp2rcd13ifvqcu0","pricing_plan_id":"cebpf4jnsgd1na2vs0mg"},{"bike_id":"ca0f150d-740f-49dc-aee2-30de7219f10a","system_id":"levelo_inurba_marseille","lat":43.291994,"lon":5.357886,"is_reserved":false,"is_disabled":false,"rental_uris":{"android":"levelo://app?vid=ca0f150d-740f-49dc-aee2-30de7219f10a","ios":"levelo://app?vid=ca0f150d-740f-49dc-aee2-30de7219f10a"},"vehicle_type_id":"4","last_reported":1718820555,"current_range_meters":14000,"station_id":"ce4bhb12rcd13ifvqel0","pricing_plan_id":"cebpf4jnsgd1na2vs0mg"},{"bike_id":"6706279e-1384-4122-a965-20c32596fd66","system_id":"levelo_inurba_marseille","lat":43.309038,"lon":5.396546,"is_reserved":false,"is_disabled":false,"rental_uris":{"android":"levelo://app?vid=6706279e-1384-4122-a965-20c32596fd66","ios":"levelo://app?vid=6706279e-1384-4122-a965-20c32596fd66"},"vehicle_type_id":"4","last_reported":1718820555,"current_range_meters":0,"station_id":"ce4bh012rcd13ifvqcv0","pricing_plan_id":"cebpf4jnsgd1na2vs0mg"},{"bike_id":"d865a2be-16a3-4464-96f5-753cadff76b8","system_id":"levelo_inurba_marseille","lat":43.31331,"lon":5.39694,"is_reserved":false,"is_disabled":false,"rental_uris":{"android":"levelo://app?vid=d865a2be-16a3-4464-96f5-753cadff76b8","ios":"levelo://app?vid=d865a2be-16a3-4464-96f5-753cadff76b8"},"vehicle_type_id":"4","last_reported":1718820555,"current_range_meters":0,"station_id":"ce4bgvp2rcd13ifvqcu0","pricing_plan_id":"cebpf4jnsgd1na2vs0mg"},{"bike_id":"e324cbdf-d88c-411a-809d-90b97ed9bbeb","system_id":"levelo_inurba_marseille","lat":43.302992,"lon":5.392136,"is_reserved":false,"is_disabled":false,"rental_uris":{"android":"levelo://app?vid=e324cbdf-d88c-411a-809d-90b97ed9bbeb","ios":"levelo://app?vid=e324cbdf-d88c-411a-809d-90b97ed9bbeb"},"vehicle_type_id":"4","last_reported":1718820555,"current_range_meters":7200,"station_id":"ce4bgkh2rcd13ifvqbk0","pricing_plan_id":"cebpf4jnsgd1na2vs0mg"},{"bike_id":"c7beba68-cd29-4b56-ad4d-2d2bbaa89b3a","system_id":"levelo_inurba_marseille","lat":43.31325,"lon":5.39699,"is_reserved":false,"is_disabled":false,"rental_uris":{"android":"levelo://app?vid=c7beba68-cd29-4b56-ad4d-2d2bbaa89b3a","ios":"levelo://app?vid=c7beba68-cd29-4b56-ad4d-2d2bbaa89b3a"},"vehicle_type_id":"4","last_reported":1718820555,"current_range_meters":0,"station_id":"ce4bgvp2rcd13ifvqcu0","pricing_plan_id":"cebpf4jnsgd1na2vs0mg"},{"bike_id":"91b8adad-f9a2-4b3c-b1d6-0687fdd15b25","system_id":"levelo_inurba_marseille","lat":43.30887,"lon":5.39658,"is_reserved":false,"is_disabled":false,"rental_uris":{"android":"levelo://app?vid=91b8adad-f9a2-4b3c-b1d6-0687fdd15b25","ios":"levelo://app?vid=91b8adad-f9a2-4b3c-b1d6-0687fdd15b25"},"vehicle_type_id":"4","last_reported":1718820555,"current_range_meters":0,"station_id":"ce4bh012rcd13ifvqcv0","pricing_plan_id":"cebpf4jnsgd1na2vs0mg"},{"bike_id":"019d1408-d26d-45a0-b971-6eeef968630f","system_id":"levelo_inurba_marseille","lat":43.29529,"lon":5.385581,"is_reserved":false,"is_disabled":false,"rental_uris":{"android":"levelo://app?vid=019d1408-d26d-45a0-b971-6eeef968630f","ios":"levelo://app?vid=019d1408-d26d-45a0-b971-6eeef968630f"},"vehicle_type_id":"4","last_reported":1718820555,"current_range_meters":16400,"station_id":"ce4bgih2rcd13ifvqba0","pricing_plan_id":"cebpf4jnsgd1na2vs0mg"},{"bike_id":"b468bae1-5311-46ad-bbe0-0b52b90abb38","system_id":"levelo_inurba_marseille","lat":43.29537,"lon":5.38542,"is_reserved":false,"is_disabled":false,"rental_uris":{"android":"levelo://app?vid=b468bae1-5311-46ad-bbe0-0b52b90abb38","ios":"levelo://app?vid=b468bae1-5311-46ad-bbe0-0b52b90abb38"},"vehicle_type_id":"4","last_reported":1718820555,"current_range_meters":17200,"station_id":"ce4bgih2rcd13ifvqba0","pricing_plan_id":"cebpf4jnsgd1na2vs0mg"},{"bike_id":"c1430802-ce01-461a-9f9c-da8ef1e85e92","system_id":"levelo_inurba_marseille","lat":43.309038,"lon":5.396546,"is_reserved":false,"is_disabled":false,"rental_uris":{"android":"levelo://app?vid=c1430802-ce01-461a-9f9c-da8ef1e85e92","ios":"levelo://app?vid=c1430802-ce01-461a-9f9c-da8ef1e85e92"},"vehicle_type_id":"4","last_reported":1718820555,"current_range_meters":0,"station_id":"ce4bh012rcd13ifvqcv0","pricing_plan_id":"cebpf4jnsgd1na2vs0mg"},{"bike_id":"9a27c1cc-0014-4c9e-a60f-c7a5c5cd0937","system_id":"levelo_inurba_marseille","lat":43.29529,"lon":5.385581,"is_reserved":false,"is_disabled":false,"rental_uris":{"android":"levelo://app?vid=9a27c1cc-0014-4c9e-a60f-c7a5c5cd0937","ios":"levelo://app?vid=9a27c1cc-0014-4c9e-a60f-c7a5c5cd0937"},"vehicle_type_id":"4","last_reported":1718820555,"current_range_meters":28000,"station_id":"ce4bgih2rcd13ifvqba0","pricing_plan_id":"cebpf4jnsgd1na2vs0mg"},{"bike_id":"51728fac-5b79-4dbe-b624-03820c737519","system_id":"levelo_inurba_marseille","lat":43.29529,"lon":5.385581,"is_reserved":false,"is_disabled":false,"rental_uris":{"android":"levelo://app?vid=51728fac-5b79-4dbe-b624-03820c737519","ios":"levelo://app?vid=51728fac-5b79-4dbe-b624-03820c737519"},"vehicle_type_id":"4","last_reported":1718820555,"current_range_meters":30000,"station_id":"ce4bgih2rcd13ifvqba0","pricing_plan_id":"cebpf4jnsgd1na2vs0mg"},{"bike_id":"4604d467-d54c-4938-9fff-ccd49d636278","system_id":"levelo_inurba_marseille","lat":43.29536,"lon":5.38546,"is_reserved":false,"is_disabled":false,"rental_uris":{"android":"levelo://app?vid=4604d467-d54c-4938-9fff-ccd49d636278","ios":"levelo://app?vid=4604d467-d54c-4938-9fff-ccd49d636278"},"vehicle_type_id":"4","last_reported":1718820555,"current_range_meters":24000,"station_id":"ce4bgih2rcd13ifvqba0","pricing_plan_id":"cebpf4jnsgd1na2vs0mg"},{"bike_id":"3cffe338-df41-4aa6-9112-22c2c40711ca","system_id":"levelo_inurba_marseille","lat":43.29529,"lon":5.385581,"is_reserved":false,"is_disabled":false,"rental_uris":{"android":"levelo://app?vid=3cffe338-df41-4aa6-9112-22c2c40711ca","ios":"levelo://app?vid=3cffe338-df41-4aa6-9112-22c2c40711ca"},"vehicle_type_id":"4","last_reported":1718820555,"current_range_meters":24800,"station_id":"ce4bgih2rcd13ifvqba0","pricing_plan_id":"cebpf4jnsgd1na2vs0mg"},{"bike_id":"a644b785-b7ca-418b-bf42-ea39551dc420","system_id":"levelo_inurba_marseille","lat":43.29529,"lon":5.385581,"is_reserved":false,"is_disabled":false,"rental_uris":{"android":"levelo://app?vid=a644b785-b7ca-418b-bf42-ea39551dc420","ios":"levelo://app?vid=a644b785-b7ca-418b-bf42-ea39551dc420"},"vehicle_type_id":"4","last_reported":1718820555,"current_range_meters":6400,"station_id":"ce4bgih2rcd13ifvqba0","pricing_plan_id":"cebpf4jnsgd1na2vs0mg"},{"bike_id":"f211d9ed-7a07-4789-939a-a8316bff51f3","system_id":"levelo_inurba_marseille","lat":43.29529,"lon":5.385581,"is_reserved":false,"is_disabled":false,"rental_uris":{"android":"levelo://app?vid=f211d9ed-7a07-4789-939a-a8316bff51f3","ios":"levelo://app?vid=f211d9ed-7a07-4789-939a-a8316bff51f3"},"vehicle_type_id":"4","last_reported":1718820555,"current_range_meters":20800,"station_id":"ce4bgih2rcd13ifvqba0","pricing_plan_id":"cebpf4jnsgd1na2vs0mg"},{"bike_id":"4ec23cf3-ae3f-4e32-af2e-066a66dee501","system_id":"levelo_inurba_marseille","lat":43.29529,"lon":5.385581,"is_reserved":false,"is_disabled":false,"rental_uris":{"android":"levelo://app?vid=4ec23cf3-ae3f-4e32-af2e-066a66dee501","ios":"levelo://app?vid=4ec23cf3-ae3f-4e32-af2e-066a66dee501"},"vehicle_type_id":"4","last_reported":1718820555,"current_range_meters":2400,"station_id":"ce4bgih2rcd13ifvqba0","pricing_plan_id":"cebpf4jnsgd1na2vs0mg"},{"bike_id":"830ab2c2-e383-4ef3-b88c-f4b35868bb0f","system_id":"levelo_inurba_marseille","lat":43.29529,"lon":5.385581,"is_reserved":false,"is_disabled":false,"rental_uris":{"android":"levelo://app?vid=830ab2c2-e383-4ef3-b88c-f4b35868bb0f","ios":"levelo://app?vid=830ab2c2-e383-4ef3-b88c-f4b35868bb0f"},"vehicle_type_id":"4","last_reported":1718820555,"current_range_meters":0,"station_id":"ce4bgih2rcd13ifvqba0","pricing_plan_id":"cebpf4jnsgd1na2vs0mg"},{"bike_id":"6ed7c517-92ca-46eb-976e-b3627ab6119f","system_id":"levelo_inurba_marseille","lat":43.29529,"lon":5.385581,"is_reserved":false,"is_disabled":false,"rental_uris":{"android":"levelo://app?vid=6ed7c517-92ca-46eb-976e-b3627ab6119f","ios":"levelo://app?vid=6ed7c517-92ca-46eb-976e-b3627ab6119f"},"vehicle_type_id":"4","last_reported":1718820555,"current_range_meters":31600,"station_id":"ce4bgih2rcd13ifvqba0","pricing_plan_id":"cebpf4jnsgd1na2vs0mg"},{"bike_id":"e6f97e9f-c4e3-43ad-9ccc-295850a21d19","system_id":"levelo_inurba_marseille","lat":43.29529,"lon":5.38553,"is_reserved":false,"is_disabled":false,"rental_uris":{"android":"levelo://app?vid=e6f97e9f-c4e3-43ad-9ccc-295850a21d19","ios":"levelo://app?vid=e6f97e9f-c4e3-43ad-9ccc-295850a21d19"},"vehicle_type_id":"4","last_reported":1718820555,"current_range_meters":24800,"station_id":"ce4bgih2rcd13ifvqba0","pricing_plan_id":"cebpf4jnsgd1na2vs0mg"},{"bike_id":"95819c6c-d981-4b96-9463-8c80eea896bd","system_id":"levelo_inurba_marseille","lat":43.29064,"lon":5.37154,"is_reserved":false,"is_disabled":false,"rental_uris":{"android":"levelo://app?vid=95819c6c-d981-4b96-9463-8c80eea896bd","ios":"levelo://app?vid=95819c6c-d981-4b96-9463-8c80eea896bd"},"vehicle_type_id":"4","last_reported":1718820555,"current_range_meters":31200,"station_id":"ce4bh5p2rcd13ifvqe4g","pricing_plan_id":"cebpf4jnsgd1na2vs0mg"},{"bike_id":"40ccdfd9-16a1-4364-9c69-a9b2306f6992","system_id":"levelo_inurba_marseille","lat":43.302008,"lon":5.394694,"is_reserved":false,"is_disabled":false,"rental_uris":{"android":"levelo://app?vid=40ccdfd9-16a1-4364-9c69-a9b2306f6992","ios":"levelo://app?vid=40ccdfd9-16a1-4364-9c69-a9b2306f6992"},"vehicle_type_id":"4","last_reported":1718820555,"current_range_meters":11200,"station_id":"ce4bh0p2rcd13ifvqd70","pricing_plan_id":"cebpf4jnsgd1na2vs0mg"},{"bike_id":"d404cb90-b8ae-49ea-b0bd-154a23eae542","system_id":"levelo_inurba_marseille","lat":43.302008,"lon":5.394694,"is_reserved":false,"is_disabled":false,"rental_uris":{"android":"levelo://app?vid=d404cb90-b8ae-49ea-b0bd-154a23eae542","ios":"levelo://app?vid=d404cb90-b8ae-49ea-b0bd-154a23eae542"},"vehicle_type_id":"4","last_reported":1718820555,"current_range_meters":8400,"station_id":"ce4bh0p2rcd13ifvqd70","pricing_plan_id":"cebpf4jnsgd1na2vs0mg"},{"bike_id":"a8276395-9cde-4d54-9d92-afc63d8d4cee","system_id":"levelo_inurba_marseille","lat":43.302008,"lon":5.394694,"is_reserved":false,"is_disabled":false,"rental_uris":{"android":"levelo://app?vid=a8276395-9cde-4d54-9d92-afc63d8d4cee","ios":"levelo://app?vid=a8276395-9cde-4d54-9d92-afc63d8d4cee"},"vehicle_type_id":"4","last_reported":1718820555,"current_range_meters":23600,"station_id":"ce4bh0p2rcd13ifvqd70","pricing_plan_id":"cebpf4jnsgd1na2vs0mg"},{"bike_id":"0d897cf0-2f82-4fed-b8e5-9d50474e4547","system_id":"levelo_inurba_marseille","lat":43.302008,"lon":5.394694,"is_reserved":false,"is_disabled":false,"rental_uris":{"android":"levelo://app?vid=0d897cf0-2f82-4fed-b8e5-9d50474e4547","ios":"levelo://app?vid=0d897cf0-2f82-4fed-b8e5-9d50474e4547"},"vehicle_type_id":"4","last_reported":1718820555,"current_range_meters":14000,"station_id":"ce4bh0p2rcd13ifvqd70","pricing_plan_id":"cebpf4jnsgd1na2vs0mg"},{"bike_id":"ff221131-1a53-4ee1-9482-1e749a6bfd3f","system_id":"levelo_inurba_marseille","lat":43.290624,"lon":5.359245,"is_reserved":false,"is_disabled":false,"rental_uris":{"android":"levelo://app?vid=ff221131-1a53-4ee1-9482-1e749a6bfd3f","ios":"levelo://app?vid=ff221131-1a53-4ee1-9482-1e749a6bfd3f"},"vehicle_type_id":"4","last_reported":1718820555,"current_range_meters":15600,"station_id":"ce4bha92rcd13ifvqeg0","pricing_plan_id":"cebpf4jnsgd1na2vs0mg"},{"bike_id":"bdfadbe4-9818-4668-a579-d4453dd99d7c","system_id":"levelo_inurba_marseille","lat":43.29423,"lon":5.38615,"is_reserved":false,"is_disabled":false,"rental_uris":{"android":"levelo://app?vid=bdfadbe4-9818-4668-a579-d4453dd99d7c","ios":"levelo://app?vid=bdfadbe4-9818-4668-a579-d4453dd99d7c"},"vehicle_type_id":"4","last_reported":1718820555,"current_range_meters":12400,"station_id":"ce4bh2h2rcd13ifvqdh0","pricing_plan_id":"cebpf4jnsgd1na2vs0mg"},{"bike_id":"a28acead-4ba9-4c99-9fec-c006270dacc8","system_id":"levelo_inurba_marseille","lat":43.29423,"lon":5.3862,"is_reserved":false,"is_disabled":false,"rental_uris":{"android":"levelo://app?vid=a28acead-4ba9-4c99-9fec-c006270dacc8","ios":"levelo://app?vid=a28acead-4ba9-4c99-9fec-c006270dacc8"},"vehicle_type_id":"4","last_reported":1718820555,"current_range_meters":3600,"station_id":"ce4bh2h2rcd13ifvqdh0","pricing_plan_id":"cebpf4jnsgd1na2vs0mg"},{"bike_id":"680b24f2-f3b9-4437-be32-cee8a25e86ed","system_id":"levelo_inurba_marseille","lat":43.29421,"lon":5.38618,"is_reserved":false,"is_disabled":false,"rental_uris":{"android":"levelo://app?vid=680b24f2-f3b9-4437-be32-cee8a25e86ed","ios":"levelo://app?vid=680b24f2-f3b9-4437-be32-cee8a25e86ed"},"vehicle_type_id":"4","last_reported":1718820555,"current_range_meters":11600,"station_id":"ce4bh2h2rcd13ifvqdh0","pricing_plan_id":"cebpf4jnsgd1na2vs0mg"},{"bike_id":"e374d3e6-18a3-47cb-9ea1-1bfef9885bd7","system_id":"levelo_inurba_marseille","lat":43.294206,"lon":5.386174,"is_reserved":false,"is_disabled":false,"rental_uris":{"android":"levelo://app?vid=e374d3e6-18a3-47cb-9ea1-1bfef9885bd7","ios":"levelo://app?vid=e374d3e6-18a3-47cb-9ea1-1bfef9885bd7"},"vehicle_type_id":"4","last_reported":1718820555,"current_range_meters":2400,"station_id":"ce4bh2h2rcd13ifvqdh0","pricing_plan_id":"cebpf4jnsgd1na2vs0mg"},{"bike_id":"7dddc0ef-b062-4a73-a4ed-1d528bc7202a","system_id":"levelo_inurba_marseille","lat":43.29421,"lon":5.38619,"is_reserved":false,"is_disabled":false,"rental_uris":{"android":"levelo://app?vid=7dddc0ef-b062-4a73-a4ed-1d528bc7202a","ios":"levelo://app?vid=7dddc0ef-b062-4a73-a4ed-1d528bc7202a"},"vehicle_type_id":"4","last_reported":1718820555,"current_range_meters":16800,"station_id":"ce4bh2h2rcd13ifvqdh0","pricing_plan_id":"cebpf4jnsgd1na2vs0mg"},{"bike_id":"7571d7d4-0881-4f3e-81b6-957a50dd9805","system_id":"levelo_inurba_marseille","lat":43.29422,"lon":5.38621,"is_reserved":false,"is_disabled":false,"rental_uris":{"android":"levelo://app?vid=7571d7d4-0881-4f3e-81b6-957a50dd9805","ios":"levelo://app?vid=7571d7d4-0881-4f3e-81b6-957a50dd9805"},"vehicle_type_id":"4","last_reported":1718820555,"current_range_meters":9600,"station_id":"ce4bh2h2rcd13ifvqdh0","pricing_plan_id":"cebpf4jnsgd1na2vs0mg"},{"bike_id":"43e005a6-ab6e-48ad-a362-7d56b5c78464","system_id":"levelo_inurba_marseille","lat":43.29421,"lon":5.38622,"is_reserved":false,"is_disabled":false,"rental_uris":{"android":"levelo://app?vid=43e005a6-ab6e-48ad-a362-7d56b5c78464","ios":"levelo://app?vid=43e005a6-ab6e-48ad-a362-7d56b5c78464"},"vehicle_type_id":"4","last_reported":1718820555,"current_range_meters":18400,"station_id":"ce4bh2h2rcd13ifvqdh0","pricing_plan_id":"cebpf4jnsgd1na2vs0mg"},{"bike_id":"cea33c47-7c97-4a6f-ab51-6a157731c1f3","system_id":"levelo_inurba_marseille","lat":43.29418,"lon":5.38618,"is_reserved":false,"is_disabled":false,"rental_uris":{"android":"levelo://app?vid=cea33c47-7c97-4a6f-ab51-6a157731c1f3","ios":"levelo://app?vid=cea33c47-7c97-4a6f-ab51-6a157731c1f3"},"vehicle_type_id":"4","last_reported":1718820555,"current_range_meters":14400,"station_id":"ce4bh2h2rcd13ifvqdh0","pricing_plan_id":"cebpf4jnsgd1na2vs0mg"},{"bike_id":"2ad60282-eb6b-4270-801f-ce5292e42fa3","system_id":"levelo_inurba_marseille","lat":43.29421,"lon":5.38624,"is_reserved":false,"is_disabled":false,"rental_uris":{"android":"levelo://app?vid=2ad60282-eb6b-4270-801f-ce5292e42fa3","ios":"levelo://app?vid=2ad60282-eb6b-4270-801f-ce5292e42fa3"},"vehicle_type_id":"4","last_reported":1718820555,"current_range_meters":22800,"station_id":"ce4bh2h2rcd13ifvqdh0","pricing_plan_id":"cebpf4jnsgd1na2vs0mg"},{"bike_id":"1a8189f6-626e-4833-abc0-db31724b5e90","system_id":"levelo_inurba_marseille","lat":43.29421,"lon":5.38626,"is_reserved":false,"is_disabled":false,"rental_uris":{"android":"levelo://app?vid=1a8189f6-626e-4833-abc0-db31724b5e90","ios":"levelo://app?vid=1a8189f6-626e-4833-abc0-db31724b5e90"},"vehicle_type_id":"4","last_reported":1718820555,"current_range_meters":20000,"station_id":"ce4bh2h2rcd13ifvqdh0","pricing_plan_id":"cebpf4jnsgd1na2vs0mg"},{"bike_id":"af39dbcc-5760-4613-ab3c-acbcd4d9ab9e","system_id":"levelo_inurba_marseille","lat":43.29421,"lon":5.38627,"is_reserved":false,"is_disabled":false,"rental_uris":{"android":"levelo://app?vid=af39dbcc-5760-4613-ab3c-acbcd4d9ab9e","ios":"levelo://app?vid=af39dbcc-5760-4613-ab3c-acbcd4d9ab9e"},"vehicle_type_id":"4","last_reported":1718820555,"current_range_meters":15200,"station_id":"ce4bh2h2rcd13ifvqdh0","pricing_plan_id":"cebpf4jnsgd1na2vs0mg"},{"bike_id":"3b2ecff5-6f4e-40c0-8920-af44fb8d1e09","system_id":"levelo_inurba_marseille","lat":43.289184,"lon":5.366408,"is_reserved":false,"is_disabled":false,"rental_uris":{"android":"levelo://app?vid=3b2ecff5-6f4e-40c0-8920-af44fb8d1e09","ios":"levelo://app?vid=3b2ecff5-6f4e-40c0-8920-af44fb8d1e09"},"vehicle_type_id":"4","last_reported":1718820555,"current_range_meters":4800,"station_id":"ce4bhap2rcd13ifvqek0","pricing_plan_id":"cebpf4jnsgd1na2vs0mg"},{"bike_id":"826d5529-cd39-4bdb-940f-a3d3e78bf05d","system_id":"levelo_inurba_marseille","lat":43.2942,"lon":5.38627,"is_reserved":false,"is_disabled":false,"rental_uris":{"android":"levelo://app?vid=826d5529-cd39-4bdb-940f-a3d3e78bf05d","ios":"levelo://app?vid=826d5529-cd39-4bdb-940f-a3d3e78bf05d"},"vehicle_type_id":"4","last_reported":1718820555,"current_range_meters":21200,"station_id":"ce4bh2h2rcd13ifvqdh0","pricing_plan_id":"cebpf4jnsgd1na2vs0mg"},{"bike_id":"45627719-9519-4971-bf4e-2bc8579abefc","system_id":"levelo_inurba_marseille","lat":43.29417,"lon":5.38623,"is_reserved":false,"is_disabled":false,"rental_uris":{"android":"levelo://app?vid=45627719-9519-4971-bf4e-2bc8579abefc","ios":"levelo://app?vid=45627719-9519-4971-bf4e-2bc8579abefc"},"vehicle_type_id":"4","last_reported":1718820555,"current_range_meters":30800,"station_id":"ce4bh2h2rcd13ifvqdh0","pricing_plan_id":"cebpf4jnsgd1na2vs0mg"},{"bike_id":"d7288744-d9e2-4993-97b3-ab55e347557b","system_id":"levelo_inurba_marseille","lat":43.294181,"lon":5.386252,"is_reserved":false,"is_disabled":false,"rental_uris":{"android":"levelo://app?vid=d7288744-d9e2-4993-97b3-ab55e347557b","ios":"levelo://app?vid=d7288744-d9e2-4993-97b3-ab55e347557b"},"vehicle_type_id":"4","last_reported":1718820555,"current_range_meters":27200,"station_id":"ce4bh2h2rcd13ifvqdh0","pricing_plan_id":"cebpf4jnsgd1na2vs0mg"},{"bike_id":"46e01bd4-5ab9-42f5-ad94-2894a2c34a7c","system_id":"levelo_inurba_marseille","lat":43.294153,"lon":5.386305,"is_reserved":false,"is_disabled":false,"rental_uris":{"android":"levelo://app?vid=46e01bd4-5ab9-42f5-ad94-2894a2c34a7c","ios":"levelo://app?vid=46e01bd4-5ab9-42f5-ad94-2894a2c34a7c"},"vehicle_type_id":"4","last_reported":1718820555,"current_range_meters":30400,"station_id":"ce4bh2h2rcd13ifvqdh0","pricing_plan_id":"cebpf4jnsgd1na2vs0mg"},{"bike_id":"491ecfe8-bbdd-41ed-a17d-5cf0b3086022","system_id":"levelo_inurba_marseille","lat":43.294162,"lon":5.386292,"is_reserved":false,"is_disabled":false,"rental_uris":{"android":"levelo://app?vid=491ecfe8-bbdd-41ed-a17d-5cf0b3086022","ios":"levelo://app?vid=491ecfe8-bbdd-41ed-a17d-5cf0b3086022"},"vehicle_type_id":"4","last_reported":1718820555,"current_range_meters":14800,"station_id":"ce4bh2h2rcd13ifvqdh0","pricing_plan_id":"cebpf4jnsgd1na2vs0mg"},{"bike_id":"4aafe5fe-68a2-4966-8dbf-63d2da2de2b5","system_id":"levelo_inurba_marseille","lat":43.29419,"lon":5.38628,"is_reserved":false,"is_disabled":false,"rental_uris":{"android":"levelo://app?vid=4aafe5fe-68a2-4966-8dbf-63d2da2de2b5","ios":"levelo://app?vid=4aafe5fe-68a2-4966-8dbf-63d2da2de2b5"},"vehicle_type_id":"4","last_reported":1718820555,"current_range_meters":8400,"station_id":"ce4bh2h2rcd13ifvqdh0","pricing_plan_id":"cebpf4jnsgd1na2vs0mg"},{"bike_id":"6d63883e-b84e-4c66-a311-7e1f04c5c828","system_id":"levelo_inurba_marseille","lat":43.2942,"lon":5.38631,"is_reserved":false,"is_disabled":false,"rental_uris":{"android":"levelo://app?vid=6d63883e-b84e-4c66-a311-7e1f04c5c828","ios":"levelo://app?vid=6d63883e-b84e-4c66-a311-7e1f04c5c828"},"vehicle_type_id":"4","last_reported":1718820555,"current_range_meters":4800,"station_id":"ce4bh2h2rcd13ifvqdh0","pricing_plan_id":"cebpf4jnsgd1na2vs0mg"},{"bike_id":"5dbe0dd5-5bbe-4247-8d88-5fa4aebdc552","system_id":"levelo_inurba_marseille","lat":43.29415,"lon":5.38622,"is_reserved":false,"is_disabled":false,"rental_uris":{"android":"levelo://app?vid=5dbe0dd5-5bbe-4247-8d88-5fa4aebdc552","ios":"levelo://app?vid=5dbe0dd5-5bbe-4247-8d88-5fa4aebdc552"},"vehicle_type_id":"4","last_reported":1718820555,"current_range_meters":1200,"station_id":"ce4bh2h2rcd13ifvqdh0","pricing_plan_id":"cebpf4jnsgd1na2vs0mg"},{"bike_id":"605a522c-5577-4a0d-9a18-d376bd7a4a91","system_id":"levelo_inurba_marseille","lat":43.29416,"lon":5.38624,"is_reserved":false,"is_disabled":false,"rental_uris":{"android":"levelo://app?vid=605a522c-5577-4a0d-9a18-d376bd7a4a91","ios":"levelo://app?vid=605a522c-5577-4a0d-9a18-d376bd7a4a91"},"vehicle_type_id":"4","last_reported":1718820555,"current_range_meters":0,"station_id":"ce4bh2h2rcd13ifvqdh0","pricing_plan_id":"cebpf4jnsgd1na2vs0mg"},{"bike_id":"c405bc05-84a8-4f28-90b0-f7fab6205915","system_id":"levelo_inurba_marseille","lat":43.29417,"lon":5.38628,"is_reserved":false,"is_disabled":false,"rental_uris":{"android":"levelo://app?vid=c405bc05-84a8-4f28-90b0-f7fab6205915","ios":"levelo://app?vid=c405bc05-84a8-4f28-90b0-f7fab6205915"},"vehicle_type_id":"4","last_reported":1718820555,"current_range_meters":24000,"station_id":"ce4bh2h2rcd13ifvqdh0","pricing_plan_id":"cebpf4jnsgd1na2vs0mg"},{"bike_id":"bfdc898f-3d28-4765-a9ed-e8f9196e0047","system_id":"levelo_inurba_marseille","lat":43.29417,"lon":5.38628,"is_reserved":false,"is_disabled":false,"rental_uris":{"android":"levelo://app?vid=bfdc898f-3d28-4765-a9ed-e8f9196e0047","ios":"levelo://app?vid=bfdc898f-3d28-4765-a9ed-e8f9196e0047"},"vehicle_type_id":"4","last_reported":1718820555,"current_range_meters":4400,"station_id":"ce4bh2h2rcd13ifvqdh0","pricing_plan_id":"cebpf4jnsgd1na2vs0mg"},{"bike_id":"8f1711aa-dfa6-49a6-b144-b5e2c7c3689f","system_id":"levelo_inurba_marseille","lat":43.29414,"lon":5.38623,"is_reserved":false,"is_disabled":false,"rental_uris":{"android":"levelo://app?vid=8f1711aa-dfa6-49a6-b144-b5e2c7c3689f","ios":"levelo://app?vid=8f1711aa-dfa6-49a6-b144-b5e2c7c3689f"},"vehicle_type_id":"4","last_reported":1718820555,"current_range_meters":5200,"station_id":"ce4bh2h2rcd13ifvqdh0","pricing_plan_id":"cebpf4jnsgd1na2vs0mg"},{"bike_id":"443ed780-a498-4d21-9543-8916083ba2e6","system_id":"levelo_inurba_marseille","lat":43.289184,"lon":5.366408,"is_reserved":false,"is_disabled":false,"rental_uris":{"android":"levelo://app?vid=443ed780-a498-4d21-9543-8916083ba2e6","ios":"levelo://app?vid=443ed780-a498-4d21-9543-8916083ba2e6"},"vehicle_type_id":"4","last_reported":1718820555,"current_range_meters":29200,"station_id":"ce4bhap2rcd13ifvqek0","pricing_plan_id":"cebpf4jnsgd1na2vs0mg"},{"bike_id":"130f1c0d-f54c-4e2f-98cf-c05ae24c83f4","system_id":"levelo_inurba_marseille","lat":43.29418,"lon":5.38632,"is_reserved":false,"is_disabled":false,"rental_uris":{"android":"levelo://app?vid=130f1c0d-f54c-4e2f-98cf-c05ae24c83f4","ios":"levelo://app?vid=130f1c0d-f54c-4e2f-98cf-c05ae24c83f4"},"vehicle_type_id":"4","last_reported":1718820555,"current_range_meters":20800,"station_id":"ce4bh2h2rcd13ifvqdh0","pricing_plan_id":"cebpf4jnsgd1na2vs0mg"},{"bike_id":"7282daec-6782-49d4-93e8-7101222df9ea","system_id":"levelo_inurba_marseille","lat":43.29416,"lon":5.38629,"is_reserved":false,"is_disabled":false,"rental_uris":{"android":"levelo://app?vid=7282daec-6782-49d4-93e8-7101222df9ea","ios":"levelo://app?vid=7282daec-6782-49d4-93e8-7101222df9ea"},"vehicle_type_id":"4","last_reported":1718820555,"current_range_meters":24800,"station_id":"ce4bh2h2rcd13ifvqdh0","pricing_plan_id":"cebpf4jnsgd1na2vs0mg"},{"bike_id":"beef2980-af13-4983-9b32-a811d3e0cdea","system_id":"levelo_inurba_marseille","lat":43.29416,"lon":5.38631,"is_reserved":false,"is_disabled":false,"rental_uris":{"android":"levelo://app?vid=beef2980-af13-4983-9b32-a811d3e0cdea","ios":"levelo://app?vid=beef2980-af13-4983-9b32-a811d3e0cdea"},"vehicle_type_id":"4","last_reported":1718820555,"current_range_meters":3200,"station_id":"ce4bh2h2rcd13ifvqdh0","pricing_plan_id":"cebpf4jnsgd1na2vs0mg"},{"bike_id":"38d95018-f4b8-42e7-8016-da60b762c2f8","system_id":"levelo_inurba_marseille","lat":43.29417,"lon":5.38633,"is_reserved":false,"is_disabled":false,"rental_uris":{"android":"levelo://app?vid=38d95018-f4b8-42e7-8016-da60b762c2f8","ios":"levelo://app?vid=38d95018-f4b8-42e7-8016-da60b762c2f8"},"vehicle_type_id":"4","last_reported":1718820555,"current_range_meters":24800,"station_id":"ce4bh2h2rcd13ifvqdh0","pricing_plan_id":"cebpf4jnsgd1na2vs0mg"},{"bike_id":"3239ff12-2faa-4e03-b4e6-0fe0e5c8530b","system_id":"levelo_inurba_marseille","lat":43.29413,"lon":5.38628,"is_reserved":false,"is_disabled":false,"rental_uris":{"android":"levelo://app?vid=3239ff12-2faa-4e03-b4e6-0fe0e5c8530b","ios":"levelo://app?vid=3239ff12-2faa-4e03-b4e6-0fe0e5c8530b"},"vehicle_type_id":"4","last_reported":1718820555,"current_range_meters":30000,"station_id":"ce4bh2h2rcd13ifvqdh0","pricing_plan_id":"cebpf4jnsgd1na2vs0mg"},{"bike_id":"a3f867ee-5b08-4345-8760-7ad361314edb","system_id":"levelo_inurba_marseille","lat":43.289184,"lon":5.366408,"is_reserved":false,"is_disabled":false,"rental_uris":{"android":"levelo://app?vid=a3f867ee-5b08-4345-8760-7ad361314edb","ios":"levelo://app?vid=a3f867ee-5b08-4345-8760-7ad361314edb"},"vehicle_type_id":"4","last_reported":1718820555,"current_range_meters":5600,"station_id":"ce4bhap2rcd13ifvqek0","pricing_plan_id":"cebpf4jnsgd1na2vs0mg"},{"bike_id":"6d49d4e7-f1fb-4cb4-a5a2-960398db450f","system_id":"levelo_inurba_marseille","lat":43.289184,"lon":5.366408,"is_reserved":false,"is_disabled":false,"rental_uris":{"android":"levelo://app?vid=6d49d4e7-f1fb-4cb4-a5a2-960398db450f","ios":"levelo://app?vid=6d49d4e7-f1fb-4cb4-a5a2-960398db450f"},"vehicle_type_id":"4","last_reported":1718820555,"current_range_meters":15600,"station_id":"ce4bhap2rcd13ifvqek0","pricing_plan_id":"cebpf4jnsgd1na2vs0mg"},{"bike_id":"2d99ace4-9647-4ee0-9755-a5bd47c48487","system_id":"levelo_inurba_marseille","lat":43.294162,"lon":5.386292,"is_reserved":false,"is_disabled":false,"rental_uris":{"android":"levelo://app?vid=2d99ace4-9647-4ee0-9755-a5bd47c48487","ios":"levelo://app?vid=2d99ace4-9647-4ee0-9755-a5bd47c48487"},"vehicle_type_id":"4","last_reported":1718820555,"current_range_meters":400,"station_id":"ce4bh2h2rcd13ifvqdh0","pricing_plan_id":"cebpf4jnsgd1na2vs0mg"},{"bike_id":"f8323f6d-8fd1-4bc1-b7fa-a9092261197b","system_id":"levelo_inurba_marseille","lat":43.294113,"lon":5.386297,"is_reserved":false,"is_disabled":false,"rental_uris":{"android":"levelo://app?vid=f8323f6d-8fd1-4bc1-b7fa-a9092261197b","ios":"levelo://app?vid=f8323f6d-8fd1-4bc1-b7fa-a9092261197b"},"vehicle_type_id":"4","last_reported":1718820555,"current_range_meters":31200,"station_id":"ce4bh2h2rcd13ifvqdh0","pricing_plan_id":"cebpf4jnsgd1na2vs0mg"},{"bike_id":"c35337e2-5e70-4dba-9489-ced5bdf912c9","system_id":"levelo_inurba_marseille","lat":43.289468,"lon":5.363719,"is_reserved":false,"is_disabled":false,"rental_uris":{"android":"levelo://app?vid=c35337e2-5e70-4dba-9489-ced5bdf912c9","ios":"levelo://app?vid=c35337e2-5e70-4dba-9489-ced5bdf912c9"},"vehicle_type_id":"4","last_reported":1718820555,"current_range_meters":6800,"station_id":"ce4bhc92rcd13ifvqetg","pricing_plan_id":"cebpf4jnsgd1na2vs0mg"},{"bike_id":"718ebdc7-eb96-4c6f-a999-ff460e10c173","system_id":"levelo_inurba_marseille","lat":43.28934,"lon":5.36637,"is_reserved":false,"is_disabled":false,"rental_uris":{"android":"levelo://app?vid=718ebdc7-eb96-4c6f-a999-ff460e10c173","ios":"levelo://app?vid=718ebdc7-eb96-4c6f-a999-ff460e10c173"},"vehicle_type_id":"4","last_reported":1718820555,"current_range_meters":23200,"station_id":"ce4bhap2rcd13ifvqek0","pricing_plan_id":"cebpf4jnsgd1na2vs0mg"},{"bike_id":"b8239ba3-f3e6-4af1-9237-724c05950c14","system_id":"levelo_inurba_marseille","lat":43.28932,"lon":5.36632,"is_reserved":false,"is_disabled":false,"rental_uris":{"android":"levelo://app?vid=b8239ba3-f3e6-4af1-9237-724c05950c14","ios":"levelo://app?vid=b8239ba3-f3e6-4af1-9237-724c05950c14"},"vehicle_type_id":"4","last_reported":1718820555,"current_range_meters":31200,"station_id":"ce4bhap2rcd13ifvqek0","pricing_plan_id":"cebpf4jnsgd1na2vs0mg"},{"bike_id":"58393028-e8d4-4e06-b6ce-06c07ba3b70a","system_id":"levelo_inurba_marseille","lat":43.304274,"lon":5.397513,"is_reserved":false,"is_disabled":false,"rental_uris":{"android":"levelo://app?vid=58393028-e8d4-4e06-b6ce-06c07ba3b70a","ios":"levelo://app?vid=58393028-e8d4-4e06-b6ce-06c07ba3b70a"},"vehicle_type_id":"4","last_reported":1718820555,"current_range_meters":21200,"station_id":"ce4bh092rcd13ifvqd20","pricing_plan_id":"cebpf4jnsgd1na2vs0mg"},{"bike_id":"a5e9291d-0275-4b7b-af0f-5f1e9f771464","system_id":"levelo_inurba_marseille","lat":43.292642,"lon":5.384254,"is_reserved":false,"is_disabled":false,"rental_uris":{"android":"levelo://app?vid=a5e9291d-0275-4b7b-af0f-5f1e9f771464","ios":"levelo://app?vid=a5e9291d-0275-4b7b-af0f-5f1e9f771464"},"vehicle_type_id":"4","last_reported":1718820555,"current_range_meters":30400,"station_id":"ce4bh692rcd13ifvqea0","pricing_plan_id":"cebpf4jnsgd1na2vs0mg"},{"bike_id":"beafc50f-64cb-49a2-9ca8-5b7f70100e83","system_id":"levelo_inurba_marseille","lat":43.292644,"lon":5.384257,"is_reserved":false,"is_disabled":false,"rental_uris":{"android":"levelo://app?vid=beafc50f-64cb-49a2-9ca8-5b7f70100e83","ios":"levelo://app?vid=beafc50f-64cb-49a2-9ca8-5b7f70100e83"},"vehicle_type_id":"4","last_reported":1718820555,"current_range_meters":17600,"station_id":"ce4bh692rcd13ifvqea0","pricing_plan_id":"cebpf4jnsgd1na2vs0mg"},{"bike_id":"6393fe2b-8c92-4eb1-ae57-c55adaab241c","system_id":"levelo_inurba_marseille","lat":43.29263,"lon":5.38451,"is_reserved":false,"is_disabled":false,"rental_uris":{"android":"levelo://app?vid=6393fe2b-8c92-4eb1-ae57-c55adaab241c","ios":"levelo://app?vid=6393fe2b-8c92-4eb1-ae57-c55adaab241c"},"vehicle_type_id":"4","last_reported":1718820555,"current_range_meters":28400,"station_id":"ce4bh692rcd13ifvqea0","pricing_plan_id":"cebpf4jnsgd1na2vs0mg"},{"bike_id":"c0440a93-2b0d-46f7-8c40-e2c21e34a2e6","system_id":"levelo_inurba_marseille","lat":43.292642,"lon":5.384254,"is_reserved":false,"is_disabled":false,"rental_uris":{"android":"levelo://app?vid=c0440a93-2b0d-46f7-8c40-e2c21e34a2e6","ios":"levelo://app?vid=c0440a93-2b0d-46f7-8c40-e2c21e34a2e6"},"vehicle_type_id":"4","last_reported":1718820555,"current_range_meters":10000,"station_id":"ce4bh692rcd13ifvqea0","pricing_plan_id":"cebpf4jnsgd1na2vs0mg"},{"bike_id":"b179bb44-e13f-4966-98cd-1cd6549d5880","system_id":"levelo_inurba_marseille","lat":43.29258,"lon":5.38452,"is_reserved":false,"is_disabled":false,"rental_uris":{"android":"levelo://app?vid=b179bb44-e13f-4966-98cd-1cd6549d5880","ios":"levelo://app?vid=b179bb44-e13f-4966-98cd-1cd6549d5880"},"vehicle_type_id":"4","last_reported":1718820555,"current_range_meters":22800,"station_id":"ce4bh692rcd13ifvqea0","pricing_plan_id":"cebpf4jnsgd1na2vs0mg"},{"bike_id":"3833ccd7-5508-4e28-90bb-e4437806e5e7","system_id":"levelo_inurba_marseille","lat":43.290104,"lon":5.356111,"is_reserved":false,"is_disabled":false,"rental_uris":{"android":"levelo://app?vid=3833ccd7-5508-4e28-90bb-e4437806e5e7","ios":"levelo://app?vid=3833ccd7-5508-4e28-90bb-e4437806e5e7"},"vehicle_type_id":"4","last_reported":1718820555,"current_range_meters":14800,"station_id":"ce4bhb92rcd13ifvqen0","pricing_plan_id":"cebpf4jnsgd1na2vs0mg"},{"bike_id":"c0b70047-b334-42e7-a838-a7d55f158979","system_id":"levelo_inurba_marseille","lat":43.290104,"lon":5.356111,"is_reserved":false,"is_disabled":false,"rental_uris":{"android":"levelo://app?vid=c0b70047-b334-42e7-a838-a7d55f158979","ios":"levelo://app?vid=c0b70047-b334-42e7-a838-a7d55f158979"},"vehicle_type_id":"4","last_reported":1718820555,"current_range_meters":15200,"station_id":"ce4bhb92rcd13ifvqen0","pricing_plan_id":"cebpf4jnsgd1na2vs0mg"},{"bike_id":"cbf9b3f6-6c04-4d65-af35-97a30f69bb42","system_id":"levelo_inurba_marseille","lat":43.290104,"lon":5.356111,"is_reserved":false,"is_disabled":false,"rental_uris":{"android":"levelo://app?vid=cbf9b3f6-6c04-4d65-af35-97a30f69bb42","ios":"levelo://app?vid=cbf9b3f6-6c04-4d65-af35-97a30f69bb42"},"vehicle_type_id":"4","last_reported":1718820555,"current_range_meters":31200,"station_id":"ce4bhb92rcd13ifvqen0","pricing_plan_id":"cebpf4jnsgd1na2vs0mg"},{"bike_id":"3a5511e6-26ea-4ac4-9a40-19df5beaa8e5","system_id":"levelo_inurba_marseille","lat":43.290103,"lon":5.356114,"is_reserved":false,"is_disabled":false,"rental_uris":{"android":"levelo://app?vid=3a5511e6-26ea-4ac4-9a40-19df5beaa8e5","ios":"levelo://app?vid=3a5511e6-26ea-4ac4-9a40-19df5beaa8e5"},"vehicle_type_id":"4","last_reported":1718820555,"current_range_meters":24000,"station_id":"ce4bhb92rcd13ifvqen0","pricing_plan_id":"cebpf4jnsgd1na2vs0mg"},{"bike_id":"2e00428a-479c-4d20-9d29-6ace8daa0419","system_id":"levelo_inurba_marseille","lat":43.28956,"lon":5.37578,"is_reserved":false,"is_disabled":false,"rental_uris":{"android":"levelo://app?vid=2e00428a-479c-4d20-9d29-6ace8daa0419","ios":"levelo://app?vid=2e00428a-479c-4d20-9d29-6ace8daa0419"},"vehicle_type_id":"4","last_reported":1718820555,"current_range_meters":17600,"station_id":"","pricing_plan_id":"cebpf4jnsgd1na2vs0mg"},{"bike_id":"4e4ba37f-fba6-4b36-b71e-d16faef5c048","system_id":"levelo_inurba_marseille","lat":43.290995,"lon":5.381361,"is_reserved":false,"is_disabled":false,"rental_uris":{"android":"levelo://app?vid=4e4ba37f-fba6-4b36-b71e-d16faef5c048","ios":"levelo://app?vid=4e4ba37f-fba6-4b36-b71e-d16faef5c048"},"vehicle_type_id":"4","last_reported":1718820555,"current_range_meters":26000,"station_id":"ce4bh512rcd13ifvqe2g","pricing_plan_id":"cebpf4jnsgd1na2vs0mg"},{"bike_id":"84f5a47a-c54f-4857-98d5-f415f26c419a","system_id":"levelo_inurba_marseille","lat":43.295169,"lon":5.390426,"is_reserved":false,"is_disabled":false,"rental_uris":{"android":"levelo://app?vid=84f5a47a-c54f-4857-98d5-f415f26c419a","ios":"levelo://app?vid=84f5a47a-c54f-4857-98d5-f415f26c419a"},"vehicle_type_id":"4","last_reported":1718820555,"current_range_meters":5600,"station_id":"ce4bh3p2rcd13ifvqdp0","pricing_plan_id":"cebpf4jnsgd1na2vs0mg"},{"bike_id":"40b5c357-1293-43af-9d53-209fa7f7d77a","system_id":"levelo_inurba_marseille","lat":43.33025,"lon":5.39015,"is_reserved":false,"is_disabled":false,"rental_uris":{"android":"levelo://app?vid=40b5c357-1293-43af-9d53-209fa7f7d77a","ios":"levelo://app?vid=40b5c357-1293-43af-9d53-209fa7f7d77a"},"vehicle_type_id":"4","last_reported":1718820555,"current_range_meters":10800,"station_id":"ce4bhr92rcd13ifvqhrg","pricing_plan_id":"cebpf4jnsgd1na2vs0mg"},{"bike_id":"1a34af7d-0519-40cf-9364-2124b0f56c79","system_id":"levelo_inurba_marseille","lat":43.295169,"lon":5.390426,"is_reserved":false,"is_disabled":false,"rental_uris":{"android":"levelo://app?vid=1a34af7d-0519-40cf-9364-2124b0f56c79","ios":"levelo://app?vid=1a34af7d-0519-40cf-9364-2124b0f56c79"},"vehicle_type_id":"4","last_reported":1718820555,"current_range_meters":21200,"station_id":"ce4bh3p2rcd13ifvqdp0","pricing_plan_id":"cebpf4jnsgd1na2vs0mg"},{"bike_id":"aa50a5d6-8683-4885-9570-0bc584f597b3","system_id":"levelo_inurba_marseille","lat":43.295169,"lon":5.390426,"is_reserved":false,"is_disabled":false,"rental_uris":{"android":"levelo://app?vid=aa50a5d6-8683-4885-9570-0bc584f597b3","ios":"levelo://app?vid=aa50a5d6-8683-4885-9570-0bc584f597b3"},"vehicle_type_id":"4","last_reported":1718820555,"current_range_meters":25600,"station_id":"ce4bh3p2rcd13ifvqdp0","pricing_plan_id":"cebpf4jnsgd1na2vs0mg"},{"bike_id":"1dec29a7-f540-45ca-9785-497b07fc6a23","system_id":"levelo_inurba_marseille","lat":43.330197,"lon":5.390403,"is_reserved":false,"is_disabled":false,"rental_uris":{"android":"levelo://app?vid=1dec29a7-f540-45ca-9785-497b07fc6a23","ios":"levelo://app?vid=1dec29a7-f540-45ca-9785-497b07fc6a23"},"vehicle_type_id":"4","last_reported":1718820555,"current_range_meters":13200,"station_id":"ce4bhr92rcd13ifvqhrg","pricing_plan_id":"cebpf4jnsgd1na2vs0mg"},{"bike_id":"b08d92e6-0c9b-4b72-a312-523108e4837b","system_id":"levelo_inurba_marseille","lat":43.330442,"lon":5.389148,"is_reserved":false,"is_disabled":false,"rental_uris":{"android":"levelo://app?vid=b08d92e6-0c9b-4b72-a312-523108e4837b","ios":"levelo://app?vid=b08d92e6-0c9b-4b72-a312-523108e4837b"},"vehicle_type_id":"4","last_reported":1718820555,"current_range_meters":0,"station_id":"ce4bhr92rcd13ifvqhrg","pricing_plan_id":"cebpf4jnsgd1na2vs0mg"},{"bike_id":"ed04d622-8337-4550-bc5f-4c126703962d","system_id":"levelo_inurba_marseille","lat":43.33027,"lon":5.3904,"is_reserved":false,"is_disabled":false,"rental_uris":{"android":"levelo://app?vid=ed04d622-8337-4550-bc5f-4c126703962d","ios":"levelo://app?vid=ed04d622-8337-4550-bc5f-4c126703962d"},"vehicle_type_id":"4","last_reported":1718820555,"current_range_meters":18800,"station_id":"ce4bhr92rcd13ifvqhrg","pricing_plan_id":"cebpf4jnsgd1na2vs0mg"},{"bike_id":"bbe483d8-b80f-456a-9714-88def33b0130","system_id":"levelo_inurba_marseille","lat":43.295169,"lon":5.390426,"is_reserved":false,"is_disabled":false,"rental_uris":{"android":"levelo://app?vid=bbe483d8-b80f-456a-9714-88def33b0130","ios":"levelo://app?vid=bbe483d8-b80f-456a-9714-88def33b0130"},"vehicle_type_id":"4","last_reported":1718820555,"current_range_meters":1200,"station_id":"ce4bh3p2rcd13ifvqdp0","pricing_plan_id":"cebpf4jnsgd1na2vs0mg"},{"bike_id":"26d9a0a7-f19b-4118-903c-a097c4c8ff64","system_id":"levelo_inurba_marseille","lat":43.330442,"lon":5.389148,"is_reserved":false,"is_disabled":false,"rental_uris":{"android":"levelo://app?vid=26d9a0a7-f19b-4118-903c-a097c4c8ff64","ios":"levelo://app?vid=26d9a0a7-f19b-4118-903c-a097c4c8ff64"},"vehicle_type_id":"4","last_reported":1718820555,"current_range_meters":0,"station_id":"ce4bhr92rcd13ifvqhrg","pricing_plan_id":"cebpf4jnsgd1na2vs0mg"},{"bike_id":"d5e0db58-38f9-494a-b1e6-9c8564a2e1ba","system_id":"levelo_inurba_marseille","lat":43.33024,"lon":5.39046,"is_reserved":false,"is_disabled":false,"rental_uris":{"android":"levelo://app?vid=d5e0db58-38f9-494a-b1e6-9c8564a2e1ba","ios":"levelo://app?vid=d5e0db58-38f9-494a-b1e6-9c8564a2e1ba"},"vehicle_type_id":"4","last_reported":1718820555,"current_range_meters":7200,"station_id":"ce4bhr92rcd13ifvqhrg","pricing_plan_id":"cebpf4jnsgd1na2vs0mg"},{"bike_id":"36c3d32f-d771-483f-88a4-fbcaec5320fc","system_id":"levelo_inurba_marseille","lat":43.295169,"lon":5.390426,"is_reserved":false,"is_disabled":false,"rental_uris":{"android":"levelo://app?vid=36c3d32f-d771-483f-88a4-fbcaec5320fc","ios":"levelo://app?vid=36c3d32f-d771-483f-88a4-fbcaec5320fc"},"vehicle_type_id":"4","last_reported":1718820555,"current_range_meters":14000,"station_id":"ce4bh3p2rcd13ifvqdp0","pricing_plan_id":"cebpf4jnsgd1na2vs0mg"},{"bike_id":"88d412b1-cd8d-49f2-9c1f-0662bae8ff40","system_id":"levelo_inurba_marseille","lat":43.33028,"lon":5.39045,"is_reserved":false,"is_disabled":false,"rental_uris":{"android":"levelo://app?vid=88d412b1-cd8d-49f2-9c1f-0662bae8ff40","ios":"levelo://app?vid=88d412b1-cd8d-49f2-9c1f-0662bae8ff40"},"vehicle_type_id":"4","last_reported":1718820555,"current_range_meters":7200,"station_id":"ce4bhr92rcd13ifvqhrg","pricing_plan_id":"cebpf4jnsgd1na2vs0mg"},{"bike_id":"2ef3dfe7-ee0e-4adb-9a0e-f9f2100efdcd","system_id":"levelo_inurba_marseille","lat":43.2901,"lon":5.381269,"is_reserved":false,"is_disabled":false,"rental_uris":{"android":"levelo://app?vid=2ef3dfe7-ee0e-4adb-9a0e-f9f2100efdcd","ios":"levelo://app?vid=2ef3dfe7-ee0e-4adb-9a0e-f9f2100efdcd"},"vehicle_type_id":"4","last_reported":1718820555,"current_range_meters":31200,"station_id":"ce4bh4p2rcd13ifvqe1g","pricing_plan_id":"cebpf4jnsgd1na2vs0mg"},{"bike_id":"c8977de4-d274-4452-bd43-ef95a4178b6b","system_id":"levelo_inurba_marseille","lat":43.28856,"lon":5.358371,"is_reserved":false,"is_disabled":false,"rental_uris":{"android":"levelo://app?vid=c8977de4-d274-4452-bd43-ef95a4178b6b","ios":"levelo://app?vid=c8977de4-d274-4452-bd43-ef95a4178b6b"},"vehicle_type_id":"4","last_reported":1718820555,"current_range_meters":28000,"station_id":"ce4bhb12rcd13ifvqem0","pricing_plan_id":"cebpf4jnsgd1na2vs0mg"},{"bike_id":"3a3c8270-59ff-427f-8a0c-8c0186d46e8e","system_id":"levelo_inurba_marseille","lat":43.28856,"lon":5.358371,"is_reserved":false,"is_disabled":false,"rental_uris":{"android":"levelo://app?vid=3a3c8270-59ff-427f-8a0c-8c0186d46e8e","ios":"levelo://app?vid=3a3c8270-59ff-427f-8a0c-8c0186d46e8e"},"vehicle_type_id":"4","last_reported":1718820555,"current_range_meters":30400,"station_id":"ce4bhb12rcd13ifvqem0","pricing_plan_id":"cebpf4jnsgd1na2vs0mg"},{"bike_id":"12e3b8a5-2c24-41f0-a73f-db9376624a3b","system_id":"levelo_inurba_marseille","lat":43.28856,"lon":5.358371,"is_reserved":false,"is_disabled":false,"rental_uris":{"android":"levelo://app?vid=12e3b8a5-2c24-41f0-a73f-db9376624a3b","ios":"levelo://app?vid=12e3b8a5-2c24-41f0-a73f-db9376624a3b"},"vehicle_type_id":"4","last_reported":1718820555,"current_range_meters":13600,"station_id":"ce4bhb12rcd13ifvqem0","pricing_plan_id":"cebpf4jnsgd1na2vs0mg"},{"bike_id":"e238d24c-409e-4ddf-be85-90374f47c6fd","system_id":"levelo_inurba_marseille","lat":43.28856,"lon":5.358371,"is_reserved":false,"is_disabled":false,"rental_uris":{"android":"levelo://app?vid=e238d24c-409e-4ddf-be85-90374f47c6fd","ios":"levelo://app?vid=e238d24c-409e-4ddf-be85-90374f47c6fd"},"vehicle_type_id":"4","last_reported":1718820555,"current_range_meters":3200,"station_id":"ce4bhb12rcd13ifvqem0","pricing_plan_id":"cebpf4jnsgd1na2vs0mg"},{"bike_id":"09dc05ba-ef50-48a5-a295-ba587f534023","system_id":"levelo_inurba_marseille","lat":43.33125,"lon":5.390363,"is_reserved":false,"is_disabled":false,"rental_uris":{"android":"levelo://app?vid=09dc05ba-ef50-48a5-a295-ba587f534023","ios":"levelo://app?vid=09dc05ba-ef50-48a5-a295-ba587f534023"},"vehicle_type_id":"4","last_reported":1718820555,"current_range_meters":0,"station_id":"","pricing_plan_id":"cebpf4jnsgd1na2vs0mg"},{"bike_id":"057a9597-01b7-43b1-b044-f3c163347197","system_id":"levelo_inurba_marseille","lat":43.312609,"lon":5.401662,"is_reserved":false,"is_disabled":false,"rental_uris":{"android":"levelo://app?vid=057a9597-01b7-43b1-b044-f3c163347197","ios":"levelo://app?vid=057a9597-01b7-43b1-b044-f3c163347197"},"vehicle_type_id":"4","last_reported":1718820555,"current_range_meters":10800,"station_id":"ce4bh092rcd13ifvqd30","pricing_plan_id":"cebpf4jnsgd1na2vs0mg"},{"bike_id":"ccaadefe-7ca6-41f4-8f1c-6bb318c51a9b","system_id":"levelo_inurba_marseille","lat":43.33105,"lon":5.390745,"is_reserved":false,"is_disabled":false,"rental_uris":{"android":"levelo://app?vid=ccaadefe-7ca6-41f4-8f1c-6bb318c51a9b","ios":"levelo://app?vid=ccaadefe-7ca6-41f4-8f1c-6bb318c51a9b"},"vehicle_type_id":"4","last_reported":1718820555,"current_range_meters":13600,"station_id":"","pricing_plan_id":"cebpf4jnsgd1na2vs0mg"},{"bike_id":"9bf35c70-1d7b-454a-8558-56fd54fe912a","system_id":"levelo_inurba_marseille","lat":43.337456,"lon":5.374322,"is_reserved":false,"is_disabled":false,"rental_uris":{"android":"levelo://app?vid=9bf35c70-1d7b-454a-8558-56fd54fe912a","ios":"levelo://app?vid=9bf35c70-1d7b-454a-8558-56fd54fe912a"},"vehicle_type_id":"4","last_reported":1718820555,"current_range_meters":30000,"station_id":"","pricing_plan_id":"cebpf4jnsgd1na2vs0mg"},{"bike_id":"85b4ff99-6b56-4ab3-979a-8393397fc08a","system_id":"levelo_inurba_marseille","lat":43.312609,"lon":5.401662,"is_reserved":false,"is_disabled":false,"rental_uris":{"android":"levelo://app?vid=85b4ff99-6b56-4ab3-979a-8393397fc08a","ios":"levelo://app?vid=85b4ff99-6b56-4ab3-979a-8393397fc08a"},"vehicle_type_id":"4","last_reported":1718820555,"current_range_meters":5200,"station_id":"ce4bh092rcd13ifvqd30","pricing_plan_id":"cebpf4jnsgd1na2vs0mg"},{"bike_id":"fe15a1cb-98aa-48e1-9192-d6e3446deb13","system_id":"levelo_inurba_marseille","lat":43.312609,"lon":5.401662,"is_reserved":false,"is_disabled":false,"rental_uris":{"android":"levelo://app?vid=fe15a1cb-98aa-48e1-9192-d6e3446deb13","ios":"levelo://app?vid=fe15a1cb-98aa-48e1-9192-d6e3446deb13"},"vehicle_type_id":"4","last_reported":1718820555,"current_range_meters":23200,"station_id":"ce4bh092rcd13ifvqd30","pricing_plan_id":"cebpf4jnsgd1na2vs0mg"},{"bike_id":"a9c819dd-f7a1-4f6f-a13c-04210137f8b7","system_id":"levelo_inurba_marseille","lat":43.337458,"lon":5.374576,"is_reserved":false,"is_disabled":false,"rental_uris":{"android":"levelo://app?vid=a9c819dd-f7a1-4f6f-a13c-04210137f8b7","ios":"levelo://app?vid=a9c819dd-f7a1-4f6f-a13c-04210137f8b7"},"vehicle_type_id":"4","last_reported":1718820555,"current_range_meters":30000,"station_id":"","pricing_plan_id":"cebpf4jnsgd1na2vs0mg"},{"bike_id":"12626641-c338-454e-8c62-2fe37a42a5ad","system_id":"levelo_inurba_marseille","lat":43.312609,"lon":5.401662,"is_reserved":false,"is_disabled":false,"rental_uris":{"android":"levelo://app?vid=12626641-c338-454e-8c62-2fe37a42a5ad","ios":"levelo://app?vid=12626641-c338-454e-8c62-2fe37a42a5ad"},"vehicle_type_id":"4","last_reported":1718820555,"current_range_meters":18800,"station_id":"ce4bh092rcd13ifvqd30","pricing_plan_id":"cebpf4jnsgd1na2vs0mg"},{"bike_id":"1b8cc503-8ff5-4cf5-84a6-6e9764d1e9ea","system_id":"levelo_inurba_marseille","lat":43.33748,"lon":5.374542,"is_reserved":false,"is_disabled":false,"rental_uris":{"android":"levelo://app?vid=1b8cc503-8ff5-4cf5-84a6-6e9764d1e9ea","ios":"levelo://app?vid=1b8cc503-8ff5-4cf5-84a6-6e9764d1e9ea"},"vehicle_type_id":"4","last_reported":1718820555,"current_range_meters":29600,"station_id":"","pricing_plan_id":"cebpf4jnsgd1na2vs0mg"},{"bike_id":"b00862e3-63e0-47f6-a501-d5ee798c9ee7","system_id":"levelo_inurba_marseille","lat":43.306412,"lon":5.401035,"is_reserved":false,"is_disabled":false,"rental_uris":{"android":"levelo://app?vid=b00862e3-63e0-47f6-a501-d5ee798c9ee7","ios":"levelo://app?vid=b00862e3-63e0-47f6-a501-d5ee798c9ee7"},"vehicle_type_id":"4","last_reported":1718820555,"current_range_meters":10400,"station_id":"ce4bh112rcd13ifvqda0","pricing_plan_id":"cebpf4jnsgd1na2vs0mg"},{"bike_id":"784f41f1-0978-4faa-9e20-1f6b86733882","system_id":"levelo_inurba_marseille","lat":43.309371,"lon":5.401449,"is_reserved":false,"is_disabled":false,"rental_uris":{"android":"levelo://app?vid=784f41f1-0978-4faa-9e20-1f6b86733882","ios":"levelo://app?vid=784f41f1-0978-4faa-9e20-1f6b86733882"},"vehicle_type_id":"4","last_reported":1718820555,"current_range_meters":15200,"station_id":"ce4bgvp2rcd13ifvqct0","pricing_plan_id":"cebpf4jnsgd1na2vs0mg"},{"bike_id":"d6bd5c17-79c3-4320-aff6-df550af64103","system_id":"levelo_inurba_marseille","lat":43.30929,"lon":5.40149,"is_reserved":false,"is_disabled":false,"rental_uris":{"android":"levelo://app?vid=d6bd5c17-79c3-4320-aff6-df550af64103","ios":"levelo://app?vid=d6bd5c17-79c3-4320-aff6-df550af64103"},"vehicle_type_id":"4","last_reported":1718820555,"current_range_meters":22800,"station_id":"ce4bgvp2rcd13ifvqct0","pricing_plan_id":"cebpf4jnsgd1na2vs0mg"},{"bike_id":"8c1de8e5-9c0a-4294-b897-a090f94cb491","system_id":"levelo_inurba_marseille","lat":43.306412,"lon":5.401035,"is_reserved":false,"is_disabled":false,"rental_uris":{"android":"levelo://app?vid=8c1de8e5-9c0a-4294-b897-a090f94cb491","ios":"levelo://app?vid=8c1de8e5-9c0a-4294-b897-a090f94cb491"},"vehicle_type_id":"4","last_reported":1718820555,"current_range_meters":27600,"station_id":"ce4bh112rcd13ifvqda0","pricing_plan_id":"cebpf4jnsgd1na2vs0mg"},{"bike_id":"528e863e-c178-4514-8f3e-52dbeb378a68","system_id":"levelo_inurba_marseille","lat":43.306412,"lon":5.401035,"is_reserved":false,"is_disabled":false,"rental_uris":{"android":"levelo://app?vid=528e863e-c178-4514-8f3e-52dbeb378a68","ios":"levelo://app?vid=528e863e-c178-4514-8f3e-52dbeb378a68"},"vehicle_type_id":"4","last_reported":1718820555,"current_range_meters":6000,"station_id":"ce4bh112rcd13ifvqda0","pricing_plan_id":"cebpf4jnsgd1na2vs0mg"},{"bike_id":"83385317-8e06-480a-b7fa-39a4def42753","system_id":"levelo_inurba_marseille","lat":43.33761,"lon":5.37474,"is_reserved":false,"is_disabled":false,"rental_uris":{"android":"levelo://app?vid=83385317-8e06-480a-b7fa-39a4def42753","ios":"levelo://app?vid=83385317-8e06-480a-b7fa-39a4def42753"},"vehicle_type_id":"4","last_reported":1718820555,"current_range_meters":30800,"station_id":"","pricing_plan_id":"cebpf4jnsgd1na2vs0mg"},{"bike_id":"901262eb-c125-4e21-8ee2-2868854c6045","system_id":"levelo_inurba_marseille","lat":43.3014,"lon":5.398385,"is_reserved":false,"is_disabled":false,"rental_uris":{"android":"levelo://app?vid=901262eb-c125-4e21-8ee2-2868854c6045","ios":"levelo://app?vid=901262eb-c125-4e21-8ee2-2868854c6045"},"vehicle_type_id":"4","last_reported":1718820555,"current_range_meters":9600,"station_id":"ce4bh0h2rcd13ifvqd40","pricing_plan_id":"cebpf4jnsgd1na2vs0mg"},{"bike_id":"0518b6ee-0fd3-43cd-a3f8-878113b2f1fa","system_id":"levelo_inurba_marseille","lat":43.301117,"lon":5.398795,"is_reserved":false,"is_disabled":false,"rental_uris":{"android":"levelo://app?vid=0518b6ee-0fd3-43cd-a3f8-878113b2f1fa","ios":"levelo://app?vid=0518b6ee-0fd3-43cd-a3f8-878113b2f1fa"},"vehicle_type_id":"4","last_reported":1718820555,"current_range_meters":20000,"station_id":"ce4bh0h2rcd13ifvqd40","pricing_plan_id":"cebpf4jnsgd1na2vs0mg"},{"bike_id":"a13b544d-4ba6-48c7-8a8b-ebfa22354819","system_id":"levelo_inurba_marseille","lat":43.301117,"lon":5.398795,"is_reserved":false,"is_disabled":false,"rental_uris":{"android":"levelo://app?vid=a13b544d-4ba6-48c7-8a8b-ebfa22354819","ios":"levelo://app?vid=a13b544d-4ba6-48c7-8a8b-ebfa22354819"},"vehicle_type_id":"4","last_reported":1718820555,"current_range_meters":11600,"station_id":"ce4bh0h2rcd13ifvqd40","pricing_plan_id":"cebpf4jnsgd1na2vs0mg"},{"bike_id":"9365cf4d-90a8-4138-968b-d9388d839b47","system_id":"levelo_inurba_marseille","lat":43.301117,"lon":5.398795,"is_reserved":false,"is_disabled":false,"rental_uris":{"android":"levelo://app?vid=9365cf4d-90a8-4138-968b-d9388d839b47","ios":"levelo://app?vid=9365cf4d-90a8-4138-968b-d9388d839b47"},"vehicle_type_id":"4","last_reported":1718820555,"current_range_meters":31200,"station_id":"ce4bh0h2rcd13ifvqd40","pricing_plan_id":"cebpf4jnsgd1na2vs0mg"},