{"last_updated":1749788335,"ttl":60,"version":"2.2","data":{"bikes":[{"bike_id":"b31f0139-170f-4194-984f-4386218a1e9d","system_id":"levelo_inurba_marseille","lat":43.33771,"lon":5.37424,"is_reserved":false,"is_disabled":true,"rental_uris":{"android":"levelo://app?vid=b31f0139-170f-4194-984f-4386218a1e9d","ios":"levelo://app?vid=b31f0139-170f-4194-984f-4386218a1e9d"},"vehicle_type_id":"4","last_reported":1749788335,"current_range_meters":0,"station_id":"","pricing_plan_id":"cebpf4jnsgd1na2vs0mg"},{"bike_id":"1acfb620-cad7-48c0-8901-d7a5b74a5b65","system_id":"levelo_inurba_marseille","lat":43.33751,"lon":5.37456,"is_reserved":false,"is_disabled":false,"rental_uris":{"android":"levelo://app?vid=1acfb620-cad7-48c0-8901-d7a5b74a5b65","ios":"levelo://app?vid=1acfb620-cad7-48c0-8901-d7a5b74a5b65"},"vehicle_type_id":"4","last_reported":1749788335,"current_range_meters":5600,"station_id":"","pricing_plan_id":"cebpf4jnsgd1na2vs0mg"},{"bike_id":"bf89d78c-eb96-40d5-beb0-f402ef102cc1","system_id":"levelo_inurba_marseille","lat":43.337444,"lon":5.374475,"is_reserved":false,"is_disabled":true,"rental_uris":{"android":"levelo://app?vid=bf89d78c-eb96-40d5-beb0-f402ef102cc1","ios":"levelo://app?vid=bf89d78c-eb96-40d5-beb0-f402ef102cc1"},"vehicle_type_id":"4","last_reported":1749788335,"current_range_meters":0,"station_id":"","pricing_plan_id":"cebpf4jnsgd1na2vs0mg"},{"bike_id":"7c6a9c32-3bbe-4d4c-8294-1969d0688a87","system_id":"levelo_inurba_marseille","lat":43.28466,"lon":5.42084,"is_reserved":false,"is_disabled":true,"rental_uris":{"android":"levelo://app?vid=7c6a9c32-3bbe-4d4c-8294-1969d0688a87","ios":"levelo://app?vid=7c6a9c32-3bbe-4d4c-8294-1969d0688a87"},"vehicle_type_id":"4","last_reported":1749788335,"current_range_meters":0,"station_id":"","pricing_plan_id":"cebpf4jnsgd1na2vs0mg"},{"bike_id":"66b1cbfb-c132-4ef4-922c-0beab9b5a350","system_id":"levelo_inurba_marseille","lat":43.29756,"lon":5.46011,"is_reserved":false,"is_disabled":true,"rental_uris":{"android":"levelo://app?vid=66b1cbfb-c132-4ef4-922c-0beab9b5a350","ios":"levelo://app?vid=66b1cbfb-c132-4ef4-922c-0beab9b5a350"},"vehicle_type_id":"4","last_reported":1749788335,"current_range_meters":0,"station_id":"","pricing_plan_id":"cebpf4jnsgd1na2vs0mg"},{"bike_id":"492f4bbd-1190-4ef2-b66a-479ffe91b09b","system_id":"levelo_inurba_marseille","lat":43.337444,"lon":5.374475,"is_reserved":false,"is_disabled":true,"rental_uris":{"android":"levelo://app?vid=492f4bbd-1190-4ef2-b66a-479ffe91b09b","ios":"levelo://app?vid=492f4bbd-1190-4ef2-b66a-479ffe91b09b"},"vehicle_type_id":"4","last_reported":1749788335,"current_range_meters":0,"station_id":"","pricing_plan_id":"cebpf4jnsgd1na2vs0mg"},{"bike_id":"a9b6bf99-4070-4437-bb20-72962ae30b90","system_id":"levelo_inurba_marseille","lat":43.27479,"lon":5.36389,"is_reserved":false,"is_disabled":true,"rental_uris":{"android":"levelo://app?vid=a9b6bf99-4070-4437-bb20-72962ae30b90","ios":"levelo://app?vid=a9b6bf99-4070-4437-bb20-72962ae30b90"},"vehicle_type_id":"4","last_reported":1749788335,"current_range_meters":0,"station_id":"","pricing_plan_id":"cebpf4jnsgd1na2vs0mg"},{"bike_id":"cab2f8b0-de75-412a-befa-34e459367db6","system_id":"levelo_inurba_marseille","lat":43.29975,"lon":5.38491,"is_reserved":false,"is_disabled":true,"rental_uris":{"android":"levelo://app?vid=cab2f8b0-de75-412a-befa-34e459367db6","ios":"levelo://app?vid=cab2f8b0-de75-412a-befa-34e459367db6"},"vehicle_type_id":"4","last_reported":1749788335,"current_range_meters":0,"station_id":"ce4bgj92rcd13ifvqbd0","pricing_plan_id":"cebpf4jnsgd1na2vs0mg"},{"bike_id":"a6059978-6375-44f1-965f-99de05c08aaf","system_id":"levelo_inurba_marseille","lat":43.30354,"lon":5.41887,"is_reserved":false,"is_disabled":true,"rental_uris":{"android":"levelo://app?vid=a6059978-6375-44f1-965f-99de05c08aaf","ios":"levelo://app?vid=a6059978-6375-44f1-965f-99de05c08aaf"},"vehicle_type_id":"4","last_reported":1749788335,"current_range_meters":0,"station_id":"ce4bhop2rcd13ifvqh7g","pricing_plan_id":"cebpf4jnsgd1na2vs0mg"},{"bike_id":"5077581b-cebb-46fc-ba69-4fa8272d4810","system_id":"levelo_inurba_marseille","lat":43.21376,"lon":5.3552,"is_reserved":false,"is_disabled":true,"rental_uris":{"android":"levelo://app?vid=5077581b-cebb-46fc-ba69-4fa8272d4810","ios":"levelo://app?vid=5077581b-cebb-46fc-ba69-4fa8272d4810"},"vehicle_type_id":"4","last_reported":1749788335,"current_range_meters":1200,"station_id":"","pricing_plan_id":"cebpf4jnsgd1na2vs0mg"},{"bike_id":"543ae042-548d-459c-9bf9-84a2ef008637","system_id":"levelo_inurba_marseille","lat":43.28921,"lon":5.36584,"is_reserved":false,"is_disabled":false,"rental_uris":{"android":"levelo://app?vid=543ae042-548d-459c-9bf9-84a2ef008637","ios":"levelo://app?vid=543ae042-548d-459c-9bf9-84a2ef008637"},"vehicle_type_id":"4","last_reported":1749788335,"current_range_meters":2800,"station_id":"ce4bhap2rcd13ifvqek0","pricing_plan_id":"cebpf4jnsgd1na2vs0mg"},{"bike_id":"5c219ba0-bd6f-4ec1-8199-9fc28d07f25c","system_id":"levelo_inurba_marseille","lat":43.32305,"lon":5.44683,"is_reserved":false,"is_disabled":false,"rental_uris":{"android":"levelo://app?vid=5c219ba0-bd6f-4ec1-8199-9fc28d07f25c","ios":"levelo://app?vid=5c219ba0-bd6f-4ec1-8199-9fc28d07f25c"},"vehicle_type_id":"4","last_reported":1749788335,"current_range_meters":3200,"station_id":"","pricing_plan_id":"cebpf4jnsgd1na2vs0mg"},{"bike_id":"7bf93c05-c569-4707-aed9-b4f4171a097e","system_id":"levelo_inurba_marseille","lat":43.30268,"lon":5.37715,"is_reserved":false,"is_disabled":false,"rental_uris":{"android":"levelo://app?vid=7bf93c05-c569-4707-aed9-b4f4171a097e","ios":"levelo://app?vid=7bf93c05-c569-4707-aed9-b4f4171a097e"},"vehicle_type_id":"4","last_reported":1749788335,"current_range_meters":3200,"station_id":"ce4bguh2rcd13ifvqcj0","pricing_plan_id":"cebpf4jnsgd1na2vs0mg"},{"bike_id":"66314ca9-30a7-4c0a-8507-6f89f4c9b4e1","system_id":"levelo_inurba_marseille","lat":43.26178,"lon":5.37051,"is_reserved":false,"is_disabled":false,"rental_uris":{"android":"levelo://app?vid=66314ca9-30a7-4c0a-8507-6f89f4c9b4e1","ios":"levelo://app?vid=66314ca9-30a7-4c0a-8507-6f89f4c9b4e1"},"vehicle_type_id":"4","last_reported":1749788335,"current_range_meters":3600,"station_id":"","pricing_plan_id":"cebpf4jnsgd1na2vs0mg"},{"bike_id":"48d34ad3-2644-46dd-82a0-47e5ff24cebe","system_id":"levelo_inurba_marseille","lat":43.30467,"lon":5.38924,"is_reserved":false,"is_disabled":false,"rental_uris":{"android":"levelo://app?vid=48d34ad3-2644-46dd-82a0-47e5ff24cebe","ios":"levelo://app?vid=48d34ad3-2644-46dd-82a0-47e5ff24cebe"},"vehicle_type_id":"4","last_reported":1749788335,"current_range_meters":4000,"station_id":"ce4bgk12rcd13ifvqbi0","pricing_plan_id":"cebpf4jnsgd1na2vs0mg"},{"bike_id":"8e108a83-e2bf-43e0-9b41-3765b051abd1","system_id":"levelo_inurba_marseille","lat":43.28043,"lon":5.34982,"is_reserved":false,"is_disabled":false,"rental_uris":{"android":"levelo://app?vid=8e108a83-e2bf-43e0-9b41-3765b051abd1","ios":"levelo://app?vid=8e108a83-e2bf-43e0-9b41-3765b051abd1"},"vehicle_type_id":"4","last_reported":1749788335,"current_range_meters":4400,"station_id":"","pricing_plan_id":"cebpf4jnsgd1na2vs0mg"},{"bike_id":"ee6a438e-f524-42d9-b0dd-f762df2189e9","system_id":"levelo_inurba_marseille","lat":43.30247,"lon":5.40059,"is_reserved":false,"is_disabled":false,"rental_uris":{"android":"levelo://app?vid=ee6a438e-f524-42d9-b0dd-f762df2189e9","ios":"levelo://app?vid=ee6a438e-f524-42d9-b0dd-f762df2189e9"},"vehicle_type_id":"4","last_reported":1749788335,"current_range_meters":4800,"station_id":"ce4bgvh2rcd13ifvqcs0","pricing_plan_id":"cebpf4jnsgd1na2vs0mg"},{"bike_id":"2591baac-ec70-4676-9c62-770b3db610e4","system_id":"levelo_inurba_marseille","lat":43.292813,"lon":5.401255,"is_reserved":false,"is_disabled":false,"rental_uris":{"android":"levelo://app?vid=2591baac-ec70-4676-9c62-770b3db610e4","ios":"levelo://app?vid=2591baac-ec70-4676-9c62-770b3db610e4"},"vehicle_type_id":"4","last_reported":1749788335,"current_range_meters":4800,"station_id":"ce4bh312rcd13ifvqdk0","pricing_plan_id":"cebpf4jnsgd1na2vs0mg"},{"bike_id":"e5ff82fd-cc37-4e1f-aade-050998fb0f61","system_id":"levelo_inurba_marseille","lat":43.26239,"lon":5.37137,"is_reserved":false,"is_disabled":false,"rental_uris":{"android":"levelo://app?vid=e5ff82fd-cc37-4e1f-aade-050998fb0f61","ios":"levelo://app?vid=e5ff82fd-cc37-4e1f-aade-050998fb0f61"},"vehicle_type_id":"4","last_reported":1749788335,"current_range_meters":6800,"station_id":"","pricing_plan_id":"cebpf4jnsgd1na2vs0mg"},{"bike_id":"61cfafb7-32d2-461a-8e85-fc58262e45e7","system_id":"levelo_inurba_marseille","lat":43.30801,"lon":5.381555,"is_reserved":false,"is_disabled":false,"rental_uris":{"android":"levelo://app?vid=61cfafb7-32d2-461a-8e85-fc58262e45e7","ios":"levelo://app?vid=61cfafb7-32d2-461a-8e85-fc58262e45e7"},"vehicle_type_id":"4","last_reported":1749788335,"current_range_meters":6800,"station_id":"ce4bgt12rcd13ifvqce0","pricing_plan_id":"cebpf4jnsgd1na2vs0mg"},{"bike_id":"c2c7556d-f2ac-4306-af14-b3a7bd5c0cbf","system_id":"levelo_inurba_marseille","lat":43.29788,"lon":5.39356,"is_reserved":false,"is_disabled":false,"rental_uris":{"android":"levelo://app?vid=c2c7556d-f2ac-4306-af14-b3a7bd5c0cbf","ios":"levelo://app?vid=c2c7556d-f2ac-4306-af14-b3a7bd5c0cbf"},"vehicle_type_id":"4","last_reported":1749788335,"current_range_meters":6800,"station_id":"chh1huq6cuj3fo74tm60","pricing_plan_id":"cebpf4jnsgd1na2vs0mg"},{"bike_id":"308cbf69-b866-4a48-b377-e4f7d5e7c70b","system_id":"levelo_inurba_marseille","lat":43.32943,"lon":5.39018,"is_reserved":false,"is_disabled":false,"rental_uris":{"android":"levelo://app?vid=308cbf69-b866-4a48-b377-e4f7d5e7c70b","ios":"levelo://app?vid=308cbf69-b866-4a48-b377-e4f7d5e7c70b"},"vehicle_type_id":"4","last_reported":1749788335,"current_range_meters":7200,"station_id":"","pricing_plan_id":"cebpf4jnsgd1na2vs0mg"},{"bike_id":"705386f5-9969-4a3b-b9a3-e3a29281ebb7","system_id":"levelo_inurba_marseille","lat":43.313365,"lon":5.397153,"is_reserved":false,"is_disabled":false,"rental_uris":{"android":"levelo://app?vid=705386f5-9969-4a3b-b9a3-e3a29281ebb7","ios":"levelo://app?vid=705386f5-9969-4a3b-b9a3-e3a29281ebb7"},"vehicle_type_id":"4","last_reported":1749788335,"current_range_meters":7200,"station_id":"ce4bgvp2rcd13ifvqcu0","pricing_plan_id":"cebpf4jnsgd1na2vs0mg"},{"bike_id":"f679762a-9df9-4153-bf9c-21761c28005c","system_id":"levelo_inurba_marseille","lat":43.28659,"lon":5.36345,"is_reserved":false,"is_disabled":false,"rental_uris":{"android":"levelo://app?vid=f679762a-9df9-4153-bf9c-21761c28005c","ios":"levelo://app?vid=f679762a-9df9-4153-bf9c-21761c28005c"},"vehicle_type_id":"4","last_reported":1749788335,"current_range_meters":7200,"station_id":"ce4bhah2rcd13ifvqej0","pricing_plan_id":"cebpf4jnsgd1na2vs0mg"},{"bike_id":"a2421370-e442-436f-a98a-844d44299694","system_id":"levelo_inurba_marseille","lat":43.323645,"lon":5.36761,"is_reserved":false,"is_disabled":false,"rental_uris":{"android":"levelo://app?vid=a2421370-e442-436f-a98a-844d44299694","ios":"levelo://app?vid=a2421370-e442-436f-a98a-844d44299694"},"vehicle_type_id":"4","last_reported":1749788335,"current_range_meters":8000,"station_id":"ce4bhsh2rcd13ifvqi2g","pricing_plan_id":"cebpf4jnsgd1na2vs0mg"},{"bike_id":"1b5906ac-4179-4d78-9a18-68361a2e9125","system_id":"levelo_inurba_marseille","lat":43.303,"lon":5.39205,"is_reserved":false,"is_disabled":false,"rental_uris":{"android":"levelo://app?vid=1b5906ac-4179-4d78-9a18-68361a2e9125","ios":"levelo://app?vid=1b5906ac-4179-4d78-9a18-68361a2e9125"},"vehicle_type_id":"4","last_reported":1749788335,"current_range_meters":8400,"station_id":"ce4bgkh2rcd13ifvqbk0","pricing_plan_id":"cebpf4jnsgd1na2vs0mg"},{"bike_id":"126ef016-ac91-4ce5-a668-ac7ef0b33b75","system_id":"levelo_inurba_marseille","lat":43.310625,"lon":5.38345,"is_reserved":false,"is_disabled":false,"rental_uris":{"android":"levelo://app?vid=126ef016-ac91-4ce5-a668-ac7ef0b33b75","ios":"levelo://app?vid=126ef016-ac91-4ce5-a668-ac7ef0b33b75"},"vehicle_type_id":"4","last_reported":1749788335,"current_range_meters":8400,"station_id":"ce4bgv92rcd13ifvqcr0","pricing_plan_id":"cebpf4jnsgd1na2vs0mg"},{"bike_id":"dbacae93-7c1c-48ec-9494-91113ef4f93b","system_id":"levelo_inurba_marseille","lat":43.284302,"lon":5.392005,"is_reserved":false,"is_disabled":false,"rental_uris":{"android":"levelo://app?vid=dbacae93-7c1c-48ec-9494-91113ef4f93b","ios":"levelo://app?vid=dbacae93-7c1c-48ec-9494-91113ef4f93b"},"vehicle_type_id":"4","last_reported":1749788335,"current_range_meters":8400,"station_id":"ce4bhoh2rcd13ifvqh5g","pricing_plan_id":"cebpf4jnsgd1na2vs0mg"},{"bike_id":"0bf873ca-d47f-4417-99f4-dd9c873561a2","system_id":"levelo_inurba_marseille","lat":43.32332,"lon":5.40623,"is_reserved":false,"is_disabled":false,"rental_uris":{"android":"levelo://app?vid=0bf873ca-d47f-4417-99f4-dd9c873561a2","ios":"levelo://app?vid=0bf873ca-d47f-4417-99f4-dd9c873561a2"},"vehicle_type_id":"4","last_reported":1749788335,"current_range_meters":8400,"station_id":"ce4bhq92rcd13ifvqhjg","pricing_plan_id":"cebpf4jnsgd1na2vs0mg"},{"bike_id":"538be204-294c-44d3-be2e-ddd41840eef1","system_id":"levelo_inurba_marseille","lat":43.21731,"lon":5.34643,"is_reserved":false,"is_disabled":false,"rental_uris":{"android":"levelo://app?vid=538be204-294c-44d3-be2e-ddd41840eef1","ios":"levelo://app?vid=538be204-294c-44d3-be2e-ddd41840eef1"},"vehicle_type_id":"4","last_reported":1749788335,"current_range_meters":8400,"station_id":"st_cvj6r9ubvosntc0bgbag","pricing_plan_id":"cebpf4jnsgd1na2vs0mg"},{"bike_id":"a25b84b4-c252-4eda-97fb-1a1f22303c5d","system_id":"levelo_inurba_marseille","lat":43.31389,"lon":5.37417,"is_reserved":false,"is_disabled":false,"rental_uris":{"android":"levelo://app?vid=a25b84b4-c252-4eda-97fb-1a1f22303c5d","ios":"levelo://app?vid=a25b84b4-c252-4eda-97fb-1a1f22303c5d"},"vehicle_type_id":"4","last_reported":1749788335,"current_range_meters":8800,"station_id":"","pricing_plan_id":"cebpf4jnsgd1na2vs0mg"},{"bike_id":"eea5db5f-842e-4495-9546-9bd19ab0f3d6","system_id":"levelo_inurba_marseille","lat":43.30473,"lon":5.37901,"is_reserved":false,"is_disabled":false,"rental_uris":{"android":"levelo://app?vid=eea5db5f-842e-4495-9546-9bd19ab0f3d6","ios":"levelo://app?vid=eea5db5f-842e-4495-9546-9bd19ab0f3d6"},"vehicle_type_id":"4","last_reported":1749788335,"current_range_meters":8800,"station_id":"ce4bgup2rcd13ifvqcn0","pricing_plan_id":"cebpf4jnsgd1na2vs0mg"},{"bike_id":"0d4c93e6-1a7d-4067-89b9-9e2ad3b0eb56","system_id":"levelo_inurba_marseille","lat":43.306545,"lon":5.400756,"is_reserved":false,"is_disabled":false,"rental_uris":{"android":"levelo://app?vid=0d4c93e6-1a7d-4067-89b9-9e2ad3b0eb56","ios":"levelo://app?vid=0d4c93e6-1a7d-4067-89b9-9e2ad3b0eb56"},"vehicle_type_id":"4","last_reported":1749788335,"current_range_meters":8800,"station_id":"ce4bh112rcd13ifvqda0","pricing_plan_id":"cebpf4jnsgd1na2vs0mg"},{"bike_id":"b36c65e7-ba97-416d-89bc-cd0f7bdea08b","system_id":"levelo_inurba_marseille","lat":43.32064,"lon":5.41551,"is_reserved":false,"is_disabled":false,"rental_uris":{"android":"levelo://app?vid=b36c65e7-ba97-416d-89bc-cd0f7bdea08b","ios":"levelo://app?vid=b36c65e7-ba97-416d-89bc-cd0f7bdea08b"},"vehicle_type_id":"4","last_reported":1749788335,"current_range_meters":8800,"station_id":"ce4bhq92rcd13ifvqhkg","pricing_plan_id":"cebpf4jnsgd1na2vs0mg"},{"bike_id":"cb6f83ab-4af9-4cd2-a0eb-352b5ff446b3","system_id":"levelo_inurba_marseille","lat":43.31539,"lon":5.37892,"is_reserved":false,"is_disabled":false,"rental_uris":{"android":"levelo://app?vid=cb6f83ab-4af9-4cd2-a0eb-352b5ff446b3","ios":"levelo://app?vid=cb6f83ab-4af9-4cd2-a0eb-352b5ff446b3"},"vehicle_type_id":"4","last_reported":1749788335,"current_range_meters":9200,"station_id":"","pricing_plan_id":"cebpf4jnsgd1na2vs0mg"},{"bike_id":"3bdb47fe-0f4d-4e36-bfdb-2d2509b0a553","system_id":"levelo_inurba_marseille","lat":43.25088,"lon":5.37888,"is_reserved":false,"is_disabled":false,"rental_uris":{"android":"levelo://app?vid=3bdb47fe-0f4d-4e36-bfdb-2d2509b0a553","ios":"levelo://app?vid=3bdb47fe-0f4d-4e36-bfdb-2d2509b0a553"},"vehicle_type_id":"4","last_reported":1749788335,"current_range_meters":9200,"station_id":"","pricing_plan_id":"cebpf4jnsgd1na2vs0mg"},{"bike_id":"501fe5cc-ec9f-4031-8e12-9c9a87dfd25d","system_id":"levelo_inurba_marseille","lat":43.31785,"lon":5.40603,"is_reserved":false,"is_disabled":false,"rental_uris":{"android":"levelo://app?vid=501fe5cc-ec9f-4031-8e12-9c9a87dfd25d","ios":"levelo://app?vid=501fe5cc-ec9f-4031-8e12-9c9a87dfd25d"},"vehicle_type_id":"4","last_reported":1749788335,"current_range_meters":9200,"station_id":"","pricing_plan_id":"cebpf4jnsgd1na2vs0mg"},{"bike_id":"da82380f-8e2c-440f-90fb-64731fe3788f","system_id":"levelo_inurba_marseille","lat":43.30438,"lon":5.39749,"is_reserved":false,"is_disabled":false,"rental_uris":{"android":"levelo://app?vid=da82380f-8e2c-440f-90fb-64731fe3788f","ios":"levelo://app?vid=da82380f-8e2c-440f-90fb-64731fe3788f"},"vehicle_type_id":"4","last_reported":1749788335,"current_range_meters":9200,"station_id":"ce4bh092rcd13ifvqd20","pricing_plan_id":"cebpf4jnsgd1na2vs0mg"},{"bike_id":"5d9854c2-0900-43ec-a119-94a110b42f04","system_id":"levelo_inurba_marseille","lat":43.306502,"lon":5.400708,"is_reserved":false,"is_disabled":false,"rental_uris":{"android":"levelo://app?vid=5d9854c2-0900-43ec-a119-94a110b42f04","ios":"levelo://app?vid=5d9854c2-0900-43ec-a119-94a110b42f04"},"vehicle_type_id":"4","last_reported":1749788335,"current_range_meters":9200,"station_id":"ce4bh112rcd13ifvqda0","pricing_plan_id":"cebpf4jnsgd1na2vs0mg"},{"bike_id":"d69be9e8-dd7e-4f72-9987-a9a9f616c36d","system_id":"levelo_inurba_marseille","lat":43.30668,"lon":5.40061,"is_reserved":false,"is_disabled":false,"rental_uris":{"android":"levelo://app?vid=d69be9e8-dd7e-4f72-9987-a9a9f616c36d","ios":"levelo://app?vid=d69be9e8-dd7e-4f72-9987-a9a9f616c36d"},"vehicle_type_id":"4","last_reported":1749788335,"current_range_meters":9200,"station_id":"ce4bh112rcd13ifvqda0","pricing_plan_id":"cebpf4jnsgd1na2vs0mg"},{"bike_id":"16a626c5-296a-41c1-a170-b56013b565d9","system_id":"levelo_inurba_marseille","lat":43.288548,"lon":5.393098,"is_reserved":false,"is_disabled":false,"rental_uris":{"android":"levelo://app?vid=16a626c5-296a-41c1-a170-b56013b565d9","ios":"levelo://app?vid=16a626c5-296a-41c1-a170-b56013b565d9"},"vehicle_type_id":"4","last_reported":1749788335,"current_range_meters":9200,"station_id":"ce4bh2p2rcd13ifvqdi0","pricing_plan_id":"cebpf4jnsgd1na2vs0mg"},{"bike_id":"9edcbadb-2c4e-4c92-97fe-ba65fbdd316b","system_id":"levelo_inurba_marseille","lat":43.3166,"lon":5.37784,"is_reserved":false,"is_disabled":false,"rental_uris":{"android":"levelo://app?vid=9edcbadb-2c4e-4c92-97fe-ba65fbdd316b","ios":"levelo://app?vid=9edcbadb-2c4e-4c92-97fe-ba65fbdd316b"},"vehicle_type_id":"4","last_reported":1749788335,"current_range_meters":9600,"station_id":"","pricing_plan_id":"cebpf4jnsgd1na2vs0mg"},{"bike_id":"085e827d-2900-440a-9453-7e29eb4fffea","system_id":"levelo_inurba_marseille","lat":43.31729,"lon":5.37763,"is_reserved":false,"is_disabled":false,"rental_uris":{"android":"levelo://app?vid=085e827d-2900-440a-9453-7e29eb4fffea","ios":"levelo://app?vid=085e827d-2900-440a-9453-7e29eb4fffea"},"vehicle_type_id":"4","last_reported":1749788335,"current_range_meters":9600,"station_id":"ce4bgth2rcd13ifvqch0","pricing_plan_id":"cebpf4jnsgd1na2vs0mg"},{"bike_id":"597c666f-4378-4a71-9c90-8751d9ef7f5c","system_id":"levelo_inurba_marseille","lat":43.30784,"lon":5.37649,"is_reserved":false,"is_disabled":false,"rental_uris":{"android":"levelo://app?vid=597c666f-4378-4a71-9c90-8751d9ef7f5c","ios":"levelo://app?vid=597c666f-4378-4a71-9c90-8751d9ef7f5c"},"vehicle_type_id":"4","last_reported":1749788335,"current_range_meters":9600,"station_id":"ce4bgv92rcd13ifvqcq0","pricing_plan_id":"cebpf4jnsgd1na2vs0mg"},{"bike_id":"7db892a7-47b2-4df3-86a0-1a095197db95","system_id":"levelo_inurba_marseille","lat":43.317,"lon":5.40462,"is_reserved":false,"is_disabled":false,"rental_uris":{"android":"levelo://app?vid=7db892a7-47b2-4df3-86a0-1a095197db95","ios":"levelo://app?vid=7db892a7-47b2-4df3-86a0-1a095197db95"},"vehicle_type_id":"4","last_reported":1749788335,"current_range_meters":9600,"station_id":"ce4bh012rcd13ifvqd00","pricing_plan_id":"cebpf4jnsgd1na2vs0mg"},{"bike_id":"040bd027-fa7d-42c9-807f-e534b24621e0","system_id":"levelo_inurba_marseille","lat":43.32354,"lon":5.40623,"is_reserved":false,"is_disabled":false,"rental_uris":{"android":"levelo://app?vid=040bd027-fa7d-42c9-807f-e534b24621e0","ios":"levelo://app?vid=040bd027-fa7d-42c9-807f-e534b24621e0"},"vehicle_type_id":"4","last_reported":1749788335,"current_range_meters":9600,"station_id":"ce4bhq92rcd13ifvqhjg","pricing_plan_id":"cebpf4jnsgd1na2vs0mg"},{"bike_id":"97421c04-2630-4fc1-9da9-b17d88602c5f","system_id":"levelo_inurba_marseille","lat":43.337687,"lon":5.37437,"is_reserved":false,"is_disabled":false,"rental_uris":{"android":"levelo://app?vid=97421c04-2630-4fc1-9da9-b17d88602c5f","ios":"levelo://app?vid=97421c04-2630-4fc1-9da9-b17d88602c5f"},"vehicle_type_id":"4","last_reported":1749788335,"current_range_meters":10000,"station_id":"","pricing_plan_id":"cebpf4jnsgd1na2vs0mg"},{"bike_id":"8d60347d-541c-40fb-90ca-203bf6bd520a","system_id":"levelo_inurba_marseille","lat":43.271255,"lon":5.363997,"is_reserved":false,"is_disabled":false,"rental_uris":{"android":"levelo://app?vid=8d60347d-541c-40fb-90ca-203bf6bd520a","ios":"levelo://app?vid=8d60347d-541c-40fb-90ca-203bf6bd520a"},"vehicle_type_id":"4","last_reported":1749788335,"current_range_meters":10000,"station_id":"","pricing_plan_id":"cebpf4jnsgd1na2vs0mg"},{"bike_id":"154b9039-353b-425e-b937-04fad9a5ea26","system_id":"levelo_inurba_marseille","lat":43.30803,"lon":5.38166,"is_reserved":false,"is_disabled":false,"rental_uris":{"android":"levelo://app?vid=154b9039-353b-425e-b937-04fad9a5ea26","ios":"levelo://app?vid=154b9039-353b-425e-b937-04fad9a5ea26"},"vehicle_type_id":"4","last_reported":1749788335,"current_range_meters":10000,"station_id":"ce4bgt12rcd13ifvqce0","pricing_plan_id":"cebpf4jnsgd1na2vs0mg"},{"bike_id":"94ba6f4b-428d-4ab6-ab1a-43165113acc6","system_id":"levelo_inurba_marseille","lat":43.3109,"lon":5.37783,"is_reserved":false,"is_disabled":false,"rental_uris":{"android":"levelo://app?vid=94ba6f4b-428d-4ab6-ab1a-43165113acc6","ios":"levelo://app?vid=94ba6f4b-428d-4ab6-ab1a-43165113acc6"},"vehicle_type_id":"4","last_reported":1749788335,"current_range_meters":10000,"station_id":"ce4bgt92rcd13ifvqcg0","pricing_plan_id":"cebpf4jnsgd1na2vs0mg"},{"bike_id":"f34615ee-03fc-4116-9b42-0deffd89ec08","system_id":"levelo_inurba_marseille","lat":43.30306,"lon":5.40418,"is_reserved":false,"is_disabled":false,"rental_uris":{"android":"levelo://app?vid=f34615ee-03fc-4116-9b42-0deffd89ec08","ios":"levelo://app?vid=f34615ee-03fc-4116-9b42-0deffd89ec08"},"vehicle_type_id":"4","last_reported":1749788335,"current_range_meters":10000,"station_id":"ce4bh012rcd13ifvqd10","pricing_plan_id":"cebpf4jnsgd1na2vs0mg"},{"bike_id":"db290275-4e2a-4a78-988a-4985a4429640","system_id":"levelo_inurba_marseille","lat":43.2841,"lon":5.37542,"is_reserved":false,"is_disabled":false,"rental_uris":{"android":"levelo://app?vid=db290275-4e2a-4a78-988a-4985a4429640","ios":"levelo://app?vid=db290275-4e2a-4a78-988a-4985a4429640"},"vehicle_type_id":"4","last_reported":1749788335,"current_range_meters":10000,"station_id":"ce4bh412rcd13ifvqds0","pricing_plan_id":"cebpf4jnsgd1na2vs0mg"},{"bike_id":"09196044-e1a1-49cd-8c49-a1bc152d0070","system_id":"levelo_inurba_marseille","lat":43.27206,"lon":5.39178,"is_reserved":false,"is_disabled":false,"rental_uris":{"android":"levelo://app?vid=09196044-e1a1-49cd-8c49-a1bc152d0070","ios":"levelo://app?vid=09196044-e1a1-49cd-8c49-a1bc152d0070"},"vehicle_type_id":"4","last_reported":1749788335,"current_range_meters":10000,"station_id":"ce4bhhp2rcd13ifvqfm0","pricing_plan_id":"cebpf4jnsgd1na2vs0mg"},{"bike_id":"bc3e4e06-e7b1-40b5-bf1c-917e117d7bd4","system_id":"levelo_inurba_marseille","lat":43.323441,"lon":5.406325,"is_reserved":false,"is_disabled":false,"rental_uris":{"android":"levelo://app?vid=bc3e4e06-e7b1-40b5-bf1c-917e117d7bd4","ios":"levelo://app?vid=bc3e4e06-e7b1-40b5-bf1c-917e117d7bd4"},"vehicle_type_id":"4","last_reported":1749788335,"current_range_meters":10000,"station_id":"ce4bhq92rcd13ifvqhjg","pricing_plan_id":"cebpf4jnsgd1na2vs0mg"},{"bike_id":"8d077453-18da-4e23-9305-ee493a72b0b4","system_id":"levelo_inurba_marseille","lat":43.34148,"lon":5.40911,"is_reserved":false,"is_disabled":false,"rental_uris":{"android":"levelo://app?vid=8d077453-18da-4e23-9305-ee493a72b0b4","ios":"levelo://app?vid=8d077453-18da-4e23-9305-ee493a72b0b4"},"vehicle_type_id":"4","last_reported":1749788335,"current_range_meters":10000,"station_id":"ce4bhqh2rcd13ifvqhlg","pricing_plan_id":"cebpf4jnsgd1na2vs0mg"},{"bike_id":"1268e070-f02d-4537-93df-0bfd5c4daa05","system_id":"levelo_inurba_marseille","lat":43.32696,"lon":5.37646,"is_reserved":false,"is_disabled":false,"rental_uris":{"android":"levelo://app?vid=1268e070-f02d-4537-93df-0bfd5c4daa05","ios":"levelo://app?vid=1268e070-f02d-4537-93df-0bfd5c4daa05"},"vehicle_type_id":"4","last_reported":1749788335,"current_range_meters":10800,"station_id":"","pricing_plan_id":"cebpf4jnsgd1na2vs0mg"},{"bike_id":"812a7d1f-fdb4-4f0d-83d5-abeb697c7fd2","system_id":"levelo_inurba_marseille","lat":43.308801,"lon":5.396428,"is_reserved":false,"is_disabled":false,"rental_uris":{"android":"levelo://app?vid=812a7d1f-fdb4-4f0d-83d5-abeb697c7fd2","ios":"levelo://app?vid=812a7d1f-fdb4-4f0d-83d5-abeb697c7fd2"},"vehicle_type_id":"4","last_reported":1749788335,"current_range_meters":10800,"station_id":"ce4bh012rcd13ifvqcv0","pricing_plan_id":"cebpf4jnsgd1na2vs0mg"},{"bike_id":"2217805c-cdfc-4b1d-b13a-2ac337c290b1","system_id":"levelo_inurba_marseille","lat":43.29245,"lon":5.40939,"is_reserved":false,"is_disabled":false,"rental_uris":{"android":"levelo://app?vid=2217805c-cdfc-4b1d-b13a-2ac337c290b1","ios":"levelo://app?vid=2217805c-cdfc-4b1d-b13a-2ac337c290b1"},"vehicle_type_id":"4","last_reported":1749788335,"current_range_meters":10800,"station_id":"ce4bh192rcd13ifvqdc0","pricing_plan_id":"cebpf4jnsgd1na2vs0mg"},{"bike_id":"e2e27818-bf4a-4e1a-8cb4-28f487746ad8","system_id":"levelo_inurba_marseille","lat":43.28341,"lon":5.38103,"is_reserved":false,"is_disabled":false,"rental_uris":{"android":"levelo://app?vid=e2e27818-bf4a-4e1a-8cb4-28f487746ad8","ios":"levelo://app?vid=e2e27818-bf4a-4e1a-8cb4-28f487746ad8"},"vehicle_type_id":"4","last_reported":1749788335,"current_range_meters":10800,"station_id":"ce4bh412rcd13ifvqdr0","pricing_plan_id":"cebpf4jnsgd1na2vs0mg"},{"bike_id":"6e464720-93b0-4699-80fe-881649eb71cd","system_id":"levelo_inurba_marseille","lat":43.23253,"lon":5.35585,"is_reserved":false,"is_disabled":false,"rental_uris":{"android":"levelo://app?vid=6e464720-93b0-4699-80fe-881649eb71cd","ios":"levelo://app?vid=6e464720-93b0-4699-80fe-881649eb71cd"},"vehicle_type_id":"4","last_reported":1749788335,"current_range_meters":11200,"station_id":"","pricing_plan_id":"cebpf4jnsgd1na2vs0mg"},{"bike_id":"d2820fed-6c49-4831-a8dc-002ea8e59f8c","system_id":"levelo_inurba_marseille","lat":43.25117,"lon":5.40313,"is_reserved":false,"is_disabled":false,"rental_uris":{"android":"levelo://app?vid=d2820fed-6c49-4831-a8dc-002ea8e59f8c","ios":"levelo://app?vid=d2820fed-6c49-4831-a8dc-002ea8e59f8c"},"vehicle_type_id":"4","last_reported":1749788335,"current_range_meters":11200,"station_id":"ce4bhlh2rcd13ifvqgig","pricing_plan_id":"cebpf4jnsgd1na2vs0mg"},{"bike_id":"abd0d78f-a5d4-4339-93f7-6b3fc51d77c5","system_id":"levelo_inurba_marseille","lat":43.36626,"lon":5.35554,"is_reserved":false,"is_disabled":false,"rental_uris":{"android":"levelo://app?vid=abd0d78f-a5d4-4339-93f7-6b3fc51d77c5","ios":"levelo://app?vid=abd0d78f-a5d4-4339-93f7-6b3fc51d77c5"},"vehicle_type_id":"4","last_reported":1749788335,"current_range_meters":11600,"station_id":"","pricing_plan_id":"cebpf4jnsgd1na2vs0mg"},{"bike_id":"063eff84-b62e-4128-85ed-5896eed2f5f4","system_id":"levelo_inurba_marseille","lat":43.31262,"lon":5.3749,"is_reserved":false,"is_disabled":false,"rental_uris":{"android":"levelo://app?vid=063eff84-b62e-4128-85ed-5896eed2f5f4","ios":"levelo://app?vid=063eff84-b62e-4128-85ed-5896eed2f5f4"},"vehicle_type_id":"4","last_reported":1749788335,"current_range_meters":11600,"station_id":"","pricing_plan_id":"cebpf4jnsgd1na2vs0mg"},{"bike_id":"efef7ea9-dfe7-4a71-9a42-eb2cee9bc37e","system_id":"levelo_inurba_marseille","lat":43.31208,"lon":5.37211,"is_reserved":false,"is_disabled":false,"rental_uris":{"android":"levelo://app?vid=efef7ea9-dfe7-4a71-9a42-eb2cee9bc37e","ios":"levelo://app?vid=efef7ea9-dfe7-4a71-9a42-eb2cee9bc37e"},"vehicle_type_id":"4","last_reported":1749788335,"current_range_meters":11600,"station_id":"","pricing_plan_id":"cebpf4jnsgd1na2vs0mg"},{"bike_id":"e5ef7447-82af-477b-846f-d44631249354","system_id":"levelo_inurba_marseille","lat":43.32492,"lon":5.38831,"is_reserved":false,"is_disabled":false,"rental_uris":{"android":"levelo://app?vid=e5ef7447-82af-477b-846f-d44631249354","ios":"levelo://app?vid=e5ef7447-82af-477b-846f-d44631249354"},"vehicle_type_id":"4","last_reported":1749788335,"current_range_meters":11600,"station_id":"","pricing_plan_id":"cebpf4jnsgd1na2vs0mg"},{"bike_id":"62c0da7f-aff9-4ffa-86b8-6966d8f0e555","system_id":"levelo_inurba_marseille","lat":43.21199,"lon":5.35066,"is_reserved":false,"is_disabled":false,"rental_uris":{"android":"levelo://app?vid=62c0da7f-aff9-4ffa-86b8-6966d8f0e555","ios":"levelo://app?vid=62c0da7f-aff9-4ffa-86b8-6966d8f0e555"},"vehicle_type_id":"4","last_reported":1749788335,"current_range_meters":11600,"station_id":"st_cvj6sg6p6f1abm77japg","pricing_plan_id":"cebpf4jnsgd1na2vs0mg"},{"bike_id":"cac16850-0e6d-465a-bbca-79973376e09f","system_id":"levelo_inurba_marseille","lat":43.27544,"lon":5.39006,"is_reserved":false,"is_disabled":false,"rental_uris":{"android":"levelo://app?vid=cac16850-0e6d-465a-bbca-79973376e09f","ios":"levelo://app?vid=cac16850-0e6d-465a-bbca-79973376e09f"},"vehicle_type_id":"4","last_reported":1749788335,"current_range_meters":12000,"station_id":"","pricing_plan_id":"cebpf4jnsgd1na2vs0mg"},{"bike_id":"19c1457b-bd57-4678-9bba-1ab733b8ee97","system_id":"levelo_inurba_marseille","lat":43.31054,"lon":5.37798,"is_reserved":false,"is_disabled":false,"rental_uris":{"android":"levelo://app?vid=19c1457b-bd57-4678-9bba-1ab733b8ee97","ios":"levelo://app?vid=19c1457b-bd57-4678-9bba-1ab733b8ee97"},"vehicle_type_id":"4","last_reported":1749788335,"current_range_meters":12000,"station_id":"ce4bgt92rcd13ifvqcg0","pricing_plan_id":"cebpf4jnsgd1na2vs0mg"},{"bike_id":"3fe50ebb-7407-4c5c-803b-1cd761668abb","system_id":"levelo_inurba_marseille","lat":43.22933,"lon":5.35367,"is_reserved":false,"is_disabled":false,"rental_uris":{"android":"levelo://app?vid=3fe50ebb-7407-4c5c-803b-1cd761668abb","ios":"levelo://app?vid=3fe50ebb-7407-4c5c-803b-1cd761668abb"},"vehicle_type_id":"4","last_reported":1749788335,"current_range_meters":12000,"station_id":"cpo3532slgdg3j2ikp40","pricing_plan_id":"cebpf4jnsgd1na2vs0mg"},{"bike_id":"78e4331f-c67f-4812-a1cf-4af0acc5e2d6","system_id":"levelo_inurba_marseille","lat":43.323623,"lon":5.367389,"is_reserved":false,"is_disabled":false,"rental_uris":{"android":"levelo://app?vid=78e4331f-c67f-4812-a1cf-4af0acc5e2d6","ios":"levelo://app?vid=78e4331f-c67f-4812-a1cf-4af0acc5e2d6"},"vehicle_type_id":"4","last_reported":1749788335,"current_range_meters":12400,"station_id":"ce4bhsh2rcd13ifvqi2g","pricing_plan_id":"cebpf4jnsgd1na2vs0mg"},{"bike_id":"cd53e204-0085-4ec9-8375-52308dbeea84","system_id":"levelo_inurba_marseille","lat":43.297855,"lon":5.393526,"is_reserved":false,"is_disabled":false,"rental_uris":{"android":"levelo://app?vid=cd53e204-0085-4ec9-8375-52308dbeea84","ios":"levelo://app?vid=cd53e204-0085-4ec9-8375-52308dbeea84"},"vehicle_type_id":"4","last_reported":1749788335,"current_range_meters":12400,"station_id":"chh1huq6cuj3fo74tm60","pricing_plan_id":"cebpf4jnsgd1na2vs0mg"},{"bike_id":"e0b035df-615f-4bab-9596-39da68e53fd2","system_id":"levelo_inurba_marseille","lat":43.261879,"lon":5.420726,"is_reserved":false,"is_disabled":false,"rental_uris":{"android":"levelo://app?vid=e0b035df-615f-4bab-9596-39da68e53fd2","ios":"levelo://app?vid=e0b035df-615f-4bab-9596-39da68e53fd2"},"vehicle_type_id":"4","last_reported":1749788335,"current_range_meters":12800,"station_id":"","pricing_plan_id":"cebpf4jnsgd1na2vs0mg"},{"bike_id":"2e1c7177-03ca-4238-ae87-aa45449f6415","system_id":"levelo_inurba_marseille","lat":43.31331,"lon":5.3971,"is_reserved":false,"is_disabled":false,"rental_uris":{"android":"levelo://app?vid=2e1c7177-03ca-4238-ae87-aa45449f6415","ios":"levelo://app?vid=2e1c7177-03ca-4238-ae87-aa45449f6415"},"vehicle_type_id":"4","last_reported":1749788335,"current_range_meters":12800,"station_id":"ce4bgvp2rcd13ifvqcu0","pricing_plan_id":"cebpf4jnsgd1na2vs0mg"},{"bike_id":"5b1c5214-637f-48d1-bc6d-f1fa81d9a462","system_id":"levelo_inurba_marseille","lat":43.28717,"lon":5.37922,"is_reserved":false,"is_disabled":false,"rental_uris":{"android":"levelo://app?vid=5b1c5214-637f-48d1-bc6d-f1fa81d9a462","ios":"levelo://app?vid=5b1c5214-637f-48d1-bc6d-f1fa81d9a462"},"vehicle_type_id":"4","last_reported":1749788335,"current_range_meters":12800,"station_id":"ce4bh9p2rcd13ifvqec0","pricing_plan_id":"cebpf4jnsgd1na2vs0mg"},{"bike_id":"41902e46-3363-402b-89a9-77321257c96b","system_id":"levelo_inurba_marseille","lat":43.323589,"lon":5.36737,"is_reserved":false,"is_disabled":false,"rental_uris":{"android":"levelo://app?vid=41902e46-3363-402b-89a9-77321257c96b","ios":"levelo://app?vid=41902e46-3363-402b-89a9-77321257c96b"},"vehicle_type_id":"4","last_reported":1749788335,"current_range_meters":12800,"station_id":"ce4bhsh2rcd13ifvqi2g","pricing_plan_id":"cebpf4jnsgd1na2vs0mg"},{"bike_id":"3722f342-aa71-4289-bd8c-743207dc1c4b","system_id":"levelo_inurba_marseille","lat":43.306411,"lon":5.400837,"is_reserved":false,"is_disabled":false,"rental_uris":{"android":"levelo://app?vid=3722f342-aa71-4289-bd8c-743207dc1c4b","ios":"levelo://app?vid=3722f342-aa71-4289-bd8c-743207dc1c4b"},"vehicle_type_id":"4","last_reported":1749788335,"current_range_meters":13600,"station_id":"ce4bh112rcd13ifvqda0","pricing_plan_id":"cebpf4jnsgd1na2vs0mg"},{"bike_id":"36c13eb4-085c-4a8a-933d-c0384dc35fa9","system_id":"levelo_inurba_marseille","lat":43.28113,"lon":5.3785,"is_reserved":false,"is_disabled":false,"rental_uris":{"android":"levelo://app?vid=36c13eb4-085c-4a8a-933d-c0384dc35fa9","ios":"levelo://app?vid=36c13eb4-085c-4a8a-933d-c0384dc35fa9"},"vehicle_type_id":"4","last_reported":1749788335,"current_range_meters":13600,"station_id":"ce4bha12rcd13ifvqee0","pricing_plan_id":"cebpf4jnsgd1na2vs0mg"},{"bike_id":"b0cbaa95-ecc8-43b0-bfa0-1555833902b0","system_id":"levelo_inurba_marseille","lat":43.279215,"lon":5.395867,"is_reserved":false,"is_disabled":false,"rental_uris":{"android":"levelo://app?vid=b0cbaa95-ecc8-43b0-bfa0-1555833902b0","ios":"levelo://app?vid=b0cbaa95-ecc8-43b0-bfa0-1555833902b0"},"vehicle_type_id":"4","last_reported":1749788335,"current_range_meters":13600,"station_id":"ce4bhf92rcd13ifvqf40","pricing_plan_id":"cebpf4jnsgd1na2vs0mg"},{"bike_id":"566c7291-85cb-414c-ace7-f588a8181d84","system_id":"levelo_inurba_marseille","lat":43.240727,"lon":5.377664,"is_reserved":false,"is_disabled":false,"rental_uris":{"android":"levelo://app?vid=566c7291-85cb-414c-ace7-f588a8181d84","ios":"levelo://app?vid=566c7291-85cb-414c-ace7-f588a8181d84"},"vehicle_type_id":"4","last_reported":1749788335,"current_range_meters":13600,"station_id":"ce4bhnp2rcd13ifvqgvg","pricing_plan_id":"cebpf4jnsgd1na2vs0mg"},{"bike_id":"346f3f80-6b15-4406-b905-bb78596f5bac","system_id":"levelo_inurba_marseille","lat":43.32367,"lon":5.36734,"is_reserved":false,"is_disabled":false,"rental_uris":{"android":"levelo://app?vid=346f3f80-6b15-4406-b905-bb78596f5bac","ios":"levelo://app?vid=346f3f80-6b15-4406-b905-bb78596f5bac"},"vehicle_type_id":"4","last_reported":1749788335,"current_range_meters":13600,"station_id":"ce4bhsh2rcd13ifvqi2g","pricing_plan_id":"cebpf4jnsgd1na2vs0mg"},{"bike_id":"23b86d84-fc22-4186-bc2c-564a4b60cc24","system_id":"levelo_inurba_marseille","lat":43.307958,"lon":5.381632,"is_reserved":false,"is_disabled":false,"rental_uris":{"android":"levelo://app?vid=23b86d84-fc22-4186-bc2c-564a4b60cc24","ios":"levelo://app?vid=23b86d84-fc22-4186-bc2c-564a4b60cc24"},"vehicle_type_id":"4","last_reported":1749788335,"current_range_meters":14000,"station_id":"ce4bgt12rcd13ifvqce0","pricing_plan_id":"cebpf4jnsgd1na2vs0mg"},{"bike_id":"dfe86e4d-732f-444a-affa-bc91e3d641f2","system_id":"levelo_inurba_marseille","lat":43.317156,"lon":5.404451,"is_reserved":false,"is_disabled":false,"rental_uris":{"android":"levelo://app?vid=dfe86e4d-732f-444a-affa-bc91e3d641f2","ios":"levelo://app?vid=dfe86e4d-732f-444a-affa-bc91e3d641f2"},"vehicle_type_id":"4","last_reported":1749788335,"current_range_meters":14000,"station_id":"ce4bh012rcd13ifvqd00","pricing_plan_id":"cebpf4jnsgd1na2vs0mg"},{"bike_id":"86a74366-7430-4a45-b68d-4269c3442e84","system_id":"levelo_inurba_marseille","lat":43.24176,"lon":5.36396,"is_reserved":false,"is_disabled":false,"rental_uris":{"android":"levelo://app?vid=86a74366-7430-4a45-b68d-4269c3442e84","ios":"levelo://app?vid=86a74366-7430-4a45-b68d-4269c3442e84"},"vehicle_type_id":"4","last_reported":1749788335,"current_range_meters":14400,"station_id":"cpo36qri1sfpv3e86is0","pricing_plan_id":"cebpf4jnsgd1na2vs0mg"},{"bike_id":"37a64c8b-230f-4d36-94de-7db209419664","system_id":"levelo_inurba_marseille","lat":43.292855,"lon":5.401348,"is_reserved":false,"is_disabled":false,"rental_uris":{"android":"levelo://app?vid=37a64c8b-230f-4d36-94de-7db209419664","ios":"levelo://app?vid=37a64c8b-230f-4d36-94de-7db209419664"},"vehicle_type_id":"4","last_reported":1749788335,"current_range_meters":14800,"station_id":"ce4bh312rcd13ifvqdk0","pricing_plan_id":"cebpf4jnsgd1na2vs0mg"},{"bike_id":"0e8c2439-a6f4-4f6d-b1ff-bf30801cd276","system_id":"levelo_inurba_marseille","lat":43.295046,"lon":5.389959,"is_reserved":false,"is_disabled":false,"rental_uris":{"android":"levelo://app?vid=0e8c2439-a6f4-4f6d-b1ff-bf30801cd276","ios":"levelo://app?vid=0e8c2439-a6f4-4f6d-b1ff-bf30801cd276"},"vehicle_type_id":"4","last_reported":1749788335,"current_range_meters":14800,"station_id":"ce4bh3p2rcd13ifvqdp0","pricing_plan_id":"cebpf4jnsgd1na2vs0mg"},{"bike_id":"bfd92d33-1ccc-4a02-bc1c-8b3e943d6a3d","system_id":"levelo_inurba_marseille","lat":43.24391,"lon":5.37058,"is_reserved":false,"is_disabled":false,"rental_uris":{"android":"levelo://app?vid=bfd92d33-1ccc-4a02-bc1c-8b3e943d6a3d","ios":"levelo://app?vid=bfd92d33-1ccc-4a02-bc1c-8b3e943d6a3d"},"vehicle_type_id":"4","last_reported":1749788335,"current_range_meters":14800,"station_id":"ce4bhhh2rcd13ifvqfk0","pricing_plan_id":"cebpf4jnsgd1na2vs0mg"},{"bike_id":"336eaeee-8a8c-40f5-846b-1868fb428592","system_id":"levelo_inurba_marseille","lat":43.29795,"lon":5.39371,"is_reserved":false,"is_disabled":false,"rental_uris":{"android":"levelo://app?vid=336eaeee-8a8c-40f5-846b-1868fb428592","ios":"levelo://app?vid=336eaeee-8a8c-40f5-846b-1868fb428592"},"vehicle_type_id":"4","last_reported":1749788335,"current_range_meters":14800,"station_id":"chh1huq6cuj3fo74tm60","pricing_plan_id":"cebpf4jnsgd1na2vs0mg"},{"bike_id":"713f94e3-c67e-4836-bdd5-cfe7bb1b1281","system_id":"levelo_inurba_marseille","lat":43.22503,"lon":5.34779,"is_reserved":false,"is_disabled":false,"rental_uris":{"android":"levelo://app?vid=713f94e3-c67e-4836-bdd5-cfe7bb1b1281","ios":"levelo://app?vid=713f94e3-c67e-4836-bdd5-cfe7bb1b1281"},"vehicle_type_id":"4","last_reported":1749788335,"current_range_meters":14800,"station_id":"st_cvj5dfep6f1abm77gieg","pricing_plan_id":"cebpf4jnsgd1na2vs0mg"},{"bike_id":"6facbc0d-f1b5-4dc3-86d4-5c1204834925","system_id":"levelo_inurba_marseille","lat":43.28063,"lon":5.34798,"is_reserved":false,"is_disabled":false,"rental_uris":{"android":"levelo://app?vid=6facbc0d-f1b5-4dc3-86d4-5c1204834925","ios":"levelo://app?vid=6facbc0d-f1b5-4dc3-86d4-5c1204834925"},"vehicle_type_id":"4","last_reported":1749788335,"current_range_meters":15200,"station_id":"","pricing_plan_id":"cebpf4jnsgd1na2vs0mg"},{"bike_id":"6510dc17-bbcb-4ad1-8a65-5e8e81beee38","system_id":"levelo_inurba_marseille","lat":43.30661,"lon":5.40068,"is_reserved":false,"is_disabled":false,"rental_uris":{"android":"levelo://app?vid=6510dc17-bbcb-4ad1-8a65-5e8e81beee38","ios":"levelo://app?vid=6510dc17-bbcb-4ad1-8a65-5e8e81beee38"},"vehicle_type_id":"4","last_reported":1749788335,"current_range_meters":15200,"station_id":"ce4bh112rcd13ifvqda0","pricing_plan_id":"cebpf4jnsgd1na2vs0mg"},{"bike_id":"bb449bc9-3be3-4f49-b3ed-5f9f9bbc2210","system_id":"levelo_inurba_marseille","lat":43.28663,"lon":5.36359,"is_reserved":false,"is_disabled":false,"rental_uris":{"android":"levelo://app?vid=bb449bc9-3be3-4f49-b3ed-5f9f9bbc2210","ios":"levelo://app?vid=bb449bc9-3be3-4f49-b3ed-5f9f9bbc2210"},"vehicle_type_id":"4","last_reported":1749788335,"current_range_meters":15200,"station_id":"ce4bhah2rcd13ifvqej0","pricing_plan_id":"cebpf4jnsgd1na2vs0mg"},{"bike_id":"bf66c96d-df06-4ebe-8329-62061438131c","system_id":"levelo_inurba_marseille","lat":43.24083,"lon":5.37744,"is_reserved":false,"is_disabled":false,"rental_uris":{"android":"levelo://app?vid=bf66c96d-df06-4ebe-8329-62061438131c","ios":"levelo://app?vid=bf66c96d-df06-4ebe-8329-62061438131c"},"vehicle_type_id":"4","last_reported":1749788335,"current_range_meters":15200,"station_id":"ce4bhnp2rcd13ifvqgvg","pricing_plan_id":"cebpf4jnsgd1na2vs0mg"},{"bike_id":"3073188d-082e-46e4-8436-3c3817f82cfc","system_id":"levelo_inurba_marseille","lat":43.30676,"lon":5.40094,"is_reserved":false,"is_disabled":false,"rental_uris":{"android":"levelo://app?vid=3073188d-082e-46e4-8436-3c3817f82cfc","ios":"levelo://app?vid=3073188d-082e-46e4-8436-3c3817f82cfc"},"vehicle_type_id":"4","last_reported":1749788335,"current_range_meters":16000,"station_id":"ce4bh112rcd13ifvqda0","pricing_plan_id":"cebpf4jnsgd1na2vs0mg"},{"bike_id":"2d23dfe1-5f12-4e4f-8e76-bd1c56460f0e","system_id":"levelo_inurba_marseille","lat":43.28741,"lon":5.3793,"is_reserved":false,"is_disabled":false,"rental_uris":{"android":"levelo://app?vid=2d23dfe1-5f12-4e4f-8e76-bd1c56460f0e","ios":"levelo://app?vid=2d23dfe1-5f12-4e4f-8e76-bd1c56460f0e"},"vehicle_type_id":"4","last_reported":1749788335,"current_range_meters":16000,"station_id":"ce4bh9p2rcd13ifvqec0","pricing_plan_id":"cebpf4jnsgd1na2vs0mg"},{"bike_id":"6e0ccf8f-d780-40e0-ab18-e5487aa53a33","system_id":"levelo_inurba_marseille","lat":43.25868,"lon":5.39898,"is_reserved":false,"is_disabled":false,"rental_uris":{"android":"levelo://app?vid=6e0ccf8f-d780-40e0-ab18-e5487aa53a33","ios":"levelo://app?vid=6e0ccf8f-d780-40e0-ab18-e5487aa53a33"},"vehicle_type_id":"4","last_reported":1749788335,"current_range_meters":16000,"station_id":"ce4bhl92rcd13ifvqghg","pricing_plan_id":"cebpf4jnsgd1na2vs0mg"},{"bike_id":"b9744627-1737-453c-b7ed-c1681c0ddfbb","system_id":"levelo_inurba_marseille","lat":43.274981,"lon":5.42466,"is_reserved":false,"is_disabled":false,"rental_uris":{"android":"levelo://app?vid=b9744627-1737-453c-b7ed-c1681c0ddfbb","ios":"levelo://app?vid=b9744627-1737-453c-b7ed-c1681c0ddfbb"},"vehicle_type_id":"4","last_reported":1749788335,"current_range_meters":16000,"station_id":"ce4bhn92rcd13ifvqgrg","pricing_plan_id":"cebpf4jnsgd1na2vs0mg"},{"bike_id":"3fa003b0-8d8e-4a24-ac50-07e4065c8034","system_id":"levelo_inurba_marseille","lat":43.28016,"lon":5.39997,"is_reserved":false,"is_disabled":false,"rental_uris":{"android":"levelo://app?vid=3fa003b0-8d8e-4a24-ac50-07e4065c8034","ios":"levelo://app?vid=3fa003b0-8d8e-4a24-ac50-07e4065c8034"},"vehicle_type_id":"4","last_reported":1749788335,"current_range_meters":16000,"station_id":"ce4bho92rcd13ifvqh4g","pricing_plan_id":"cebpf4jnsgd1na2vs0mg"},{"bike_id":"296ad8e3-1d54-4c6b-a038-ecda312af01c","system_id":"levelo_inurba_marseille","lat":43.33605,"lon":5.40984,"is_reserved":false,"is_disabled":false,"rental_uris":{"android":"levelo://app?vid=296ad8e3-1d54-4c6b-a038-ecda312af01c","ios":"levelo://app?vid=296ad8e3-1d54-4c6b-a038-ecda312af01c"},"vehicle_type_id":"4","last_reported":1749788335,"current_range_meters":16000,"station_id":"ce4bhqh2rcd13ifvqhmg","pricing_plan_id":"cebpf4jnsgd1na2vs0mg"},{"bike_id":"326cc913-bdbc-48c2-9a88-414846f09512","system_id":"levelo_inurba_marseille","lat":43.3234,"lon":5.36716,"is_reserved":false,"is_disabled":false,"rental_uris":{"android":"levelo://app?vid=326cc913-bdbc-48c2-9a88-414846f09512","ios":"levelo://app?vid=326cc913-bdbc-48c2-9a88-414846f09512"},"vehicle_type_id":"4","last_reported":1749788335,"current_range_meters":16000,"station_id":"ce4bhsh2rcd13ifvqi2g","pricing_plan_id":"cebpf4jnsgd1na2vs0mg"},{"bike_id":"27b3db84-0737-42f1-9f98-7f5cb27a1b2a","system_id":"levelo_inurba_marseille","lat":43.30728,"lon":5.42453,"is_reserved":false,"is_disabled":false,"rental_uris":{"android":"levelo://app?vid=27b3db84-0737-42f1-9f98-7f5cb27a1b2a","ios":"levelo://app?vid=27b3db84-0737-42f1-9f98-7f5cb27a1b2a"},"vehicle_type_id":"4","last_reported":1749788335,"current_range_meters":16000,"station_id":"st_cvj6ca6bvosntc0bfgr0","pricing_plan_id":"cebpf4jnsgd1na2vs0mg"},{"bike_id":"075c05ec-b3c9-44c3-b57f-1083abf2ca61","system_id":"levelo_inurba_marseille","lat":43.27127,"lon":5.42616,"is_reserved":false,"is_disabled":false,"rental_uris":{"android":"levelo://app?vid=075c05ec-b3c9-44c3-b57f-1083abf2ca61","ios":"levelo://app?vid=075c05ec-b3c9-44c3-b57f-1083abf2ca61"},"vehicle_type_id":"4","last_reported":1749788335,"current_range_meters":16400,"station_id":"","pricing_plan_id":"cebpf4jnsgd1na2vs0mg"},{"bike_id":"a36711cf-a474-46e8-b69c-75294d5984eb","system_id":"levelo_inurba_marseille","lat":43.29299,"lon":5.3715,"is_reserved":false,"is_disabled":false,"rental_uris":{"android":"levelo://app?vid=a36711cf-a474-46e8-b69c-75294d5984eb","ios":"levelo://app?vid=a36711cf-a474-46e8-b69c-75294d5984eb"},"vehicle_type_id":"4","last_reported":1749788335,"current_range_meters":16400,"station_id":"ce4bgh92rcd13ifvqb40","pricing_plan_id":"cebpf4jnsgd1na2vs0mg"},{"bike_id":"9de563e8-4d36-4091-b327-157f36dfceaf","system_id":"levelo_inurba_marseille","lat":43.30887,"lon":5.39673,"is_reserved":false,"is_disabled":false,"rental_uris":{"android":"levelo://app?vid=9de563e8-4d36-4091-b327-157f36dfceaf","ios":"levelo://app?vid=9de563e8-4d36-4091-b327-157f36dfceaf"},"vehicle_type_id":"4","last_reported":1749788335,"current_range_meters":16400,"station_id":"ce4bh012rcd13ifvqcv0","pricing_plan_id":"cebpf4jnsgd1na2vs0mg"},{"bike_id":"9a6c1fc1-1585-4ad2-b792-d665c8f43479","system_id":"levelo_inurba_marseille","lat":43.30413,"lon":5.39757,"is_reserved":false,"is_disabled":false,"rental_uris":{"android":"levelo://app?vid=9a6c1fc1-1585-4ad2-b792-d665c8f43479","ios":"levelo://app?vid=9a6c1fc1-1585-4ad2-b792-d665c8f43479"},"vehicle_type_id":"4","last_reported":1749788335,"current_range_meters":16400,"station_id":"ce4bh092rcd13ifvqd20","pricing_plan_id":"cebpf4jnsgd1na2vs0mg"},{"bike_id":"48fa8fac-c0a7-4454-bddf-6013ba9b1315","system_id":"levelo_inurba_marseille","lat":43.29234,"lon":5.40906,"is_reserved":false,"is_disabled":false,"rental_uris":{"android":"levelo://app?vid=48fa8fac-c0a7-4454-bddf-6013ba9b1315","ios":"levelo://app?vid=48fa8fac-c0a7-4454-bddf-6013ba9b1315"},"vehicle_type_id":"4","last_reported":1749788335,"current_range_meters":16400,"station_id":"ce4bh192rcd13ifvqdc0","pricing_plan_id":"cebpf4jnsgd1na2vs0mg"},{"bike_id":"5ba0f9b3-f6c6-4bda-a7ab-ab85af58d547","system_id":"levelo_inurba_marseille","lat":43.25136,"lon":5.40336,"is_reserved":false,"is_disabled":false,"rental_uris":{"android":"levelo://app?vid=5ba0f9b3-f6c6-4bda-a7ab-ab85af58d547","ios":"levelo://app?vid=5ba0f9b3-f6c6-4bda-a7ab-ab85af58d547"},"vehicle_type_id":"4","last_reported":1749788335,"current_range_meters":16400,"station_id":"ce4bhlh2rcd13ifvqgig","pricing_plan_id":"cebpf4jnsgd1na2vs0mg"},{"bike_id":"4ce39e9e-a802-4e2c-9de8-6aba38e9f017","system_id":"levelo_inurba_marseille","lat":43.24077,"lon":5.37755,"is_reserved":false,"is_disabled":false,"rental_uris":{"android":"levelo://app?vid=4ce39e9e-a802-4e2c-9de8-6aba38e9f017","ios":"levelo://app?vid=4ce39e9e-a802-4e2c-9de8-6aba38e9f017"},"vehicle_type_id":"4","last_reported":1749788335,"current_range_meters":16400,"station_id":"ce4bhnp2rcd13ifvqgvg","pricing_plan_id":"cebpf4jnsgd1na2vs0mg"},{"bike_id":"c0bd4251-d527-48a7-9378-e4e80c1c274f","system_id":"levelo_inurba_marseille","lat":43.31878,"lon":5.37406,"is_reserved":false,"is_disabled":false,"rental_uris":{"android":"levelo://app?vid=c0bd4251-d527-48a7-9378-e4e80c1c274f","ios":"levelo://app?vid=c0bd4251-d527-48a7-9378-e4e80c1c274f"},"vehicle_type_id":"4","last_reported":1749788335,"current_range_meters":16800,"station_id":"","pricing_plan_id":"cebpf4jnsgd1na2vs0mg"},{"bike_id":"79b02157-22d0-45f0-abe8-3645606d86d5","system_id":"levelo_inurba_marseille","lat":43.30475,"lon":5.37904,"is_reserved":false,"is_disabled":false,"rental_uris":{"android":"levelo://app?vid=79b02157-22d0-45f0-abe8-3645606d86d5","ios":"levelo://app?vid=79b02157-22d0-45f0-abe8-3645606d86d5"},"vehicle_type_id":"4","last_reported":1749788335,"current_range_meters":16800,"station_id":"ce4bgup2rcd13ifvqcn0","pricing_plan_id":"cebpf4jnsgd1na2vs0mg"},{"bike_id":"aa95b471-8256-4955-8b0c-b9b2e1b2e466","system_id":"levelo_inurba_marseille","lat":43.31075,"lon":5.38353,"is_reserved":false,"is_disabled":false,"rental_uris":{"android":"levelo://app?vid=aa95b471-8256-4955-8b0c-b9b2e1b2e466","ios":"levelo://app?vid=aa95b471-8256-4955-8b0c-b9b2e1b2e466"},"vehicle_type_id":"4","last_reported":1749788335,"current_range_meters":16800,"station_id":"ce4bgv92rcd13ifvqcr0","pricing_plan_id":"cebpf4jnsgd1na2vs0mg"},{"bike_id":"f8e539a2-3d55-4433-9bee-076742b9bc88","system_id":"levelo_inurba_marseille","lat":43.30566,"lon":5.39333,"is_reserved":false,"is_disabled":false,"rental_uris":{"android":"levelo://app?vid=f8e539a2-3d55-4433-9bee-076742b9bc88","ios":"levelo://app?vid=f8e539a2-3d55-4433-9bee-076742b9bc88"},"vehicle_type_id":"4","last_reported":1749788335,"current_range_meters":16800,"station_id":"ce4bh0p2rcd13ifvqd80","pricing_plan_id":"cebpf4jnsgd1na2vs0mg"},{"bike_id":"df162176-6528-4988-b2b6-b94dcfa277c1","system_id":"levelo_inurba_marseille","lat":43.29063,"lon":5.3996,"is_reserved":false,"is_disabled":false,"rental_uris":{"android":"levelo://app?vid=df162176-6528-4988-b2b6-b94dcfa277c1","ios":"levelo://app?vid=df162176-6528-4988-b2b6-b94dcfa277c1"},"vehicle_type_id":"4","last_reported":1749788335,"current_range_meters":16800,"station_id":"ce4bh392rcd13ifvqdm0","pricing_plan_id":"cebpf4jnsgd1na2vs0mg"},{"bike_id":"86dc398f-680e-48f1-97b1-49cbd1ed69a4","system_id":"levelo_inurba_marseille","lat":43.30805,"lon":5.4353,"is_reserved":false,"is_disabled":false,"rental_uris":{"android":"levelo://app?vid=86dc398f-680e-48f1-97b1-49cbd1ed69a4","ios":"levelo://app?vid=86dc398f-680e-48f1-97b1-49cbd1ed69a4"},"vehicle_type_id":"4","last_reported":1749788335,"current_range_meters":16800,"station_id":"ce4bhph2rcd13ifvqheg","pricing_plan_id":"cebpf4jnsgd1na2vs0mg"},{"bike_id":"09ec4267-66b8-4c3d-a5a3-55e65164d948","system_id":"levelo_inurba_marseille","lat":43.31537,"lon":5.38027,"is_reserved":false,"is_disabled":false,"rental_uris":{"android":"levelo://app?vid=09ec4267-66b8-4c3d-a5a3-55e65164d948","ios":"levelo://app?vid=09ec4267-66b8-4c3d-a5a3-55e65164d948"},"vehicle_type_id":"4","last_reported":1749788335,"current_range_meters":16800,"station_id":"ce4bhsp2rcd13ifvqi50","pricing_plan_id":"cebpf4jnsgd1na2vs0mg"},{"bike_id":"3a11c5a8-e636-4a8e-97c5-5f95a0b7cfbb","system_id":"levelo_inurba_marseille","lat":43.33319,"lon":5.39654,"is_reserved":false,"is_disabled":false,"rental_uris":{"android":"levelo://app?vid=3a11c5a8-e636-4a8e-97c5-5f95a0b7cfbb","ios":"levelo://app?vid=3a11c5a8-e636-4a8e-97c5-5f95a0b7cfbb"},"vehicle_type_id":"4","last_reported":1749788335,"current_range_meters":17200,"station_id":"","pricing_plan_id":"cebpf4jnsgd1na2vs0mg"},{"bike_id":"3b2851dc-cdc3-4c74-bb7a-6b50ea5674bc","system_id":"levelo_inurba_marseille","lat":43.31164,"lon":5.3801,"is_reserved":false,"is_disabled":false,"rental_uris":{"android":"levelo://app?vid=3b2851dc-cdc3-4c74-bb7a-6b50ea5674bc","ios":"levelo://app?vid=3b2851dc-cdc3-4c74-bb7a-6b50ea5674bc"},"vehicle_type_id":"4","last_reported":1749788335,"current_range_meters":17200,"station_id":"","pricing_plan_id":"cebpf4jnsgd1na2vs0mg"},{"bike_id":"7835a476-bf82-41b7-87e3-950cf4d733b9","system_id":"levelo_inurba_marseille","lat":43.280766,"lon":5.356726,"is_reserved":false,"is_disabled":false,"rental_uris":{"android":"levelo://app?vid=7835a476-bf82-41b7-87e3-950cf4d733b9","ios":"levelo://app?vid=7835a476-bf82-41b7-87e3-950cf4d733b9"},"vehicle_type_id":"4","last_reported":1749788335,"current_range_meters":17200,"station_id":"","pricing_plan_id":"cebpf4jnsgd1na2vs0mg"},{"bike_id":"fa097bec-ac91-4c72-8c98-ebbb2366f8c7","system_id":"levelo_inurba_marseille","lat":43.28896,"lon":5.391093,"is_reserved":false,"is_disabled":false,"rental_uris":{"android":"levelo://app?vid=fa097bec-ac91-4c72-8c98-ebbb2366f8c7","ios":"levelo://app?vid=fa097bec-ac91-4c72-8c98-ebbb2366f8c7"},"vehicle_type_id":"4","last_reported":1749788335,"current_range_meters":17200,"station_id":"","pricing_plan_id":"cebpf4jnsgd1na2vs0mg"},{"bike_id":"b2ecced1-8301-4b1f-8242-a41191643fd9","system_id":"levelo_inurba_marseille","lat":43.30166,"lon":5.38096,"is_reserved":false,"is_disabled":false,"rental_uris":{"android":"levelo://app?vid=b2ecced1-8301-4b1f-8242-a41191643fd9","ios":"levelo://app?vid=b2ecced1-8301-4b1f-8242-a41191643fd9"},"vehicle_type_id":"4","last_reported":1749788335,"current_range_meters":17200,"station_id":"ce4bgjp2rcd13ifvqbh0","pricing_plan_id":"cebpf4jnsgd1na2vs0mg"},{"bike_id":"ba6c5edf-885d-4798-aae9-89f10e5739a8","system_id":"levelo_inurba_marseille","lat":43.314876,"lon":5.373047,"is_reserved":false,"is_disabled":false,"rental_uris":{"android":"levelo://app?vid=ba6c5edf-885d-4798-aae9-89f10e5739a8","ios":"levelo://app?vid=ba6c5edf-885d-4798-aae9-89f10e5739a8"},"vehicle_type_id":"4","last_reported":1749788335,"current_range_meters":17200,"station_id":"ce4bgt12rcd13ifvqcd0","pricing_plan_id":"cebpf4jnsgd1na2vs0mg"},{"bike_id":"4c7ac668-6fae-4c3d-800c-94976d66ec27","system_id":"levelo_inurba_marseille","lat":43.30926,"lon":5.401559,"is_reserved":false,"is_disabled":false,"rental_uris":{"android":"levelo://app?vid=4c7ac668-6fae-4c3d-800c-94976d66ec27","ios":"levelo://app?vid=4c7ac668-6fae-4c3d-800c-94976d66ec27"},"vehicle_type_id":"4","last_reported":1749788335,"current_range_meters":17200,"station_id":"ce4bgvp2rcd13ifvqct0","pricing_plan_id":"cebpf4jnsgd1na2vs0mg"},{"bike_id":"157b35cb-6502-446a-ad1b-2d3e3fd5d186","system_id":"levelo_inurba_marseille","lat":43.288493,"lon":5.393176,"is_reserved":false,"is_disabled":false,"rental_uris":{"android":"levelo://app?vid=157b35cb-6502-446a-ad1b-2d3e3fd5d186","ios":"levelo://app?vid=157b35cb-6502-446a-ad1b-2d3e3fd5d186"},"vehicle_type_id":"4","last_reported":1749788335,"current_range_meters":17200,"station_id":"ce4bh2p2rcd13ifvqdi0","pricing_plan_id":"cebpf4jnsgd1na2vs0mg"},{"bike_id":"7f75d443-775f-49d4-b2f9-be67d84e1039","system_id":"levelo_inurba_marseille","lat":43.25875,"lon":5.39906,"is_reserved":false,"is_disabled":false,"rental_uris":{"android":"levelo://app?vid=7f75d443-775f-49d4-b2f9-be67d84e1039","ios":"levelo://app?vid=7f75d443-775f-49d4-b2f9-be67d84e1039"},"vehicle_type_id":"4","last_reported":1749788335,"current_range_meters":17200,"station_id":"ce4bhl92rcd13ifvqghg","pricing_plan_id":"cebpf4jnsgd1na2vs0mg"},{"bike_id":"2d9eb491-ef60-4c87-8fa5-c0a977f848da","system_id":"levelo_inurba_marseille","lat":43.212117,"lon":5.350663,"is_reserved":false,"is_disabled":false,"rental_uris":{"android":"levelo://app?vid=2d9eb491-ef60-4c87-8fa5-c0a977f848da","ios":"levelo://app?vid=2d9eb491-ef60-4c87-8fa5-c0a977f848da"},"vehicle_type_id":"4","last_reported":1749788335,"current_range_meters":17200,"station_id":"st_cvj6sg6p6f1abm77japg","pricing_plan_id":"cebpf4jnsgd1na2vs0mg"},{"bike_id":"8f8ee08b-c0ab-483a-9e45-90d3bed63edb","system_id":"levelo_inurba_marseille","lat":43.31313,"lon":5.39705,"is_reserved":false,"is_disabled":false,"rental_uris":{"android":"levelo://app?vid=8f8ee08b-c0ab-483a-9e45-90d3bed63edb","ios":"levelo://app?vid=8f8ee08b-c0ab-483a-9e45-90d3bed63edb"},"vehicle_type_id":"4","last_reported":1749788335,"current_range_meters":17600,"station_id":"ce4bgvp2rcd13ifvqcu0","pricing_plan_id":"cebpf4jnsgd1na2vs0mg"},{"bike_id":"3077771c-b168-4124-9500-2723010396c0","system_id":"levelo_inurba_marseille","lat":43.30898,"lon":5.39626,"is_reserved":false,"is_disabled":false,"rental_uris":{"android":"levelo://app?vid=3077771c-b168-4124-9500-2723010396c0","ios":"levelo://app?vid=3077771c-b168-4124-9500-2723010396c0"},"vehicle_type_id":"4","last_reported":1749788335,"current_range_meters":17600,"station_id":"ce4bh012rcd13ifvqcv0","pricing_plan_id":"cebpf4jnsgd1na2vs0mg"},{"bike_id":"1dee667a-eada-49b2-a569-e67631b504a4","system_id":"levelo_inurba_marseille","lat":43.287408,"lon":5.389281,"is_reserved":false,"is_disabled":false,"rental_uris":{"android":"levelo://app?vid=1dee667a-eada-49b2-a569-e67631b504a4","ios":"levelo://app?vid=1dee667a-eada-49b2-a569-e67631b504a4"},"vehicle_type_id":"4","last_reported":1749788335,"current_range_meters":17600,"station_id":"ce4bh4p2rcd13ifvqe0g","pricing_plan_id":"cebpf4jnsgd1na2vs0mg"},{"bike_id":"3a5a7fe8-c444-4552-bd4c-fb79ba9ab4ff","system_id":"levelo_inurba_marseille","lat":43.24661,"lon":5.38186,"is_reserved":false,"is_disabled":false,"rental_uris":{"android":"levelo://app?vid=3a5a7fe8-c444-4552-bd4c-fb79ba9ab4ff","ios":"levelo://app?vid=3a5a7fe8-c444-4552-bd4c-fb79ba9ab4ff"},"vehicle_type_id":"4","last_reported":1749788335,"current_range_meters":17600,"station_id":"ce4bhih2rcd13ifvqfr0","pricing_plan_id":"cebpf4jnsgd1na2vs0mg"},{"bike_id":"a6faf63a-d7fa-4f1a-bece-6fcd31a2d496","system_id":"levelo_inurba_marseille","lat":43.24009,"lon":5.37791,"is_reserved":false,"is_disabled":false,"rental_uris":{"android":"levelo://app?vid=a6faf63a-d7fa-4f1a-bece-6fcd31a2d496","ios":"levelo://app?vid=a6faf63a-d7fa-4f1a-bece-6fcd31a2d496"},"vehicle_type_id":"4","last_reported":1749788335,"current_range_meters":17600,"station_id":"ce4bhnp2rcd13ifvqgvg","pricing_plan_id":"cebpf4jnsgd1na2vs0mg"},{"bike_id":"370797df-7a54-4279-83d7-5eca14579627","system_id":"levelo_inurba_marseille","lat":43.304,"lon":5.4248,"is_reserved":false,"is_disabled":false,"rental_uris":{"android":"levelo://app?vid=370797df-7a54-4279-83d7-5eca14579627","ios":"levelo://app?vid=370797df-7a54-4279-83d7-5eca14579627"},"vehicle_type_id":"4","last_reported":1749788335,"current_range_meters":17600,"station_id":"ce4bhoh2rcd13ifvqh6g","pricing_plan_id":"cebpf4jnsgd1na2vs0mg"},{"bike_id":"c6c38e3c-8bc6-4973-96fe-75d10e8751f4","system_id":"levelo_inurba_marseille","lat":43.303718,"lon":5.424908,"is_reserved":false,"is_disabled":false,"rental_uris":{"android":"levelo://app?vid=c6c38e3c-8bc6-4973-96fe-75d10e8751f4","ios":"levelo://app?vid=c6c38e3c-8bc6-4973-96fe-75d10e8751f4"},"vehicle_type_id":"4","last_reported":1749788335,"current_range_meters":17600,"station_id":"ce4bhoh2rcd13ifvqh6g","pricing_plan_id":"cebpf4jnsgd1na2vs0mg"},{"bike_id":"2a580a26-d80d-449e-806f-9387192f9cb0","system_id":"levelo_inurba_marseille","lat":43.274951,"lon":5.424573,"is_reserved":false,"is_disabled":false,"rental_uris":{"android":"levelo://app?vid=2a580a26-d80d-449e-806f-9387192f9cb0","ios":"levelo://app?vid=2a580a26-d80d-449e-806f-9387192f9cb0"},"vehicle_type_id":"4","last_reported":1749788335,"current_range_meters":18000,"station_id":"","pricing_plan_id":"cebpf4jnsgd1na2vs0mg"},{"bike_id":"e8639d85-2d2a-429d-bcfe-f3a304f2fccb","system_id":"levelo_inurba_marseille","lat":43.33743,"lon":5.37465,"is_reserved":false,"is_disabled":false,"rental_uris":{"android":"levelo://app?vid=e8639d85-2d2a-429d-bcfe-f3a304f2fccb","ios":"levelo://app?vid=e8639d85-2d2a-429d-bcfe-f3a304f2fccb"},"vehicle_type_id":"4","last_reported":1749788335,"current_range_meters":18000,"station_id":"","pricing_plan_id":"cebpf4jnsgd1na2vs0mg"},{"bike_id":"a3d8ed61-ad96-4794-9377-3745ebafc863","system_id":"levelo_inurba_marseille","lat":43.29104,"lon":5.38067,"is_reserved":false,"is_disabled":false,"rental_uris":{"android":"levelo://app?vid=a3d8ed61-ad96-4794-9377-3745ebafc863","ios":"levelo://app?vid=a3d8ed61-ad96-4794-9377-3745ebafc863"},"vehicle_type_id":"4","last_reported":1749788335,"current_range_meters":18000,"station_id":"","pricing_plan_id":"cebpf4jnsgd1na2vs0mg"},{"bike_id":"9c88a4ba-6de3-41ad-a919-a9d8de1230ea","system_id":"levelo_inurba_marseille","lat":43.24808,"lon":5.37459,"is_reserved":false,"is_disabled":false,"rental_uris":{"android":"levelo://app?vid=9c88a4ba-6de3-41ad-a919-a9d8de1230ea","ios":"levelo://app?vid=9c88a4ba-6de3-41ad-a919-a9d8de1230ea"},"vehicle_type_id":"4","last_reported":1749788335,"current_range_meters":18000,"station_id":"ce4bhgh2rcd13ifvqfb0","pricing_plan_id":"cebpf4jnsgd1na2vs0mg"},{"bike_id":"8f831077-cb20-4c40-8a3b-06c2e84e8201","system_id":"levelo_inurba_marseille","lat":43.295496,"lon":5.422928,"is_reserved":false,"is_disabled":false,"rental_uris":{"android":"levelo://app?vid=8f831077-cb20-4c40-8a3b-06c2e84e8201","ios":"levelo://app?vid=8f831077-cb20-4c40-8a3b-06c2e84e8201"},"vehicle_type_id":"4","last_reported":1749788335,"current_range_meters":18000,"station_id":"ce4bhph2rcd13ifvqhdg","pricing_plan_id":"cebpf4jnsgd1na2vs0mg"},{"bike_id":"f3ec16b2-8afd-4ecb-8d58-15a6a90ff603","system_id":"levelo_inurba_marseille","lat":43.32354,"lon":5.36755,"is_reserved":false,"is_disabled":false,"rental_uris":{"android":"levelo://app?vid=f3ec16b2-8afd-4ecb-8d58-15a6a90ff603","ios":"levelo://app?vid=f3ec16b2-8afd-4ecb-8d58-15a6a90ff603"},"vehicle_type_id":"4","last_reported":1749788335,"current_range_meters":18000,"station_id":"ce4bhsh2rcd13ifvqi2g","pricing_plan_id":"cebpf4jnsgd1na2vs0mg"},{"bike_id":"a172b0cf-62c4-4c52-a818-ce564350df02","system_id":"levelo_inurba_marseille","lat":43.21184,"lon":5.35079,"is_reserved":false,"is_disabled":false,"rental_uris":{"android":"levelo://app?vid=a172b0cf-62c4-4c52-a818-ce564350df02","ios":"levelo://app?vid=a172b0cf-62c4-4c52-a818-ce564350df02"},"vehicle_type_id":"4","last_reported":1749788335,"current_range_meters":18000,"station_id":"st_cvj6sg6p6f1abm77japg","pricing_plan_id":"cebpf4jnsgd1na2vs0mg"},{"bike_id":"2ab31527-f915-4286-b3a0-0beafd2cdd50","system_id":"levelo_inurba_marseille","lat":43.29935,"lon":5.37018,"is_reserved":false,"is_disabled":false,"rental_uris":{"android":"levelo://app?vid=2ab31527-f915-4286-b3a0-0beafd2cdd50","ios":"levelo://app?vid=2ab31527-f915-4286-b3a0-0beafd2cdd50"},"vehicle_type_id":"4","last_reported":1749788335,"current_range_meters":18800,"station_id":"","pricing_plan_id":"cebpf4jnsgd1na2vs0mg"},{"bike_id":"288172b5-e918-4134-90ac-2eda8110933a","system_id":"levelo_inurba_marseille","lat":43.28459,"lon":5.35893,"is_reserved":false,"is_disabled":false,"rental_uris":{"android":"levelo://app?vid=288172b5-e918-4134-90ac-2eda8110933a","ios":"levelo://app?vid=288172b5-e918-4134-90ac-2eda8110933a"},"vehicle_type_id":"4","last_reported":1749788335,"current_range_meters":18800,"station_id":"ce4bhah2rcd13ifvqei0","pricing_plan_id":"cebpf4jnsgd1na2vs0mg"},{"bike_id":"e31e0c99-23f9-46bd-b620-34ac067d508b","system_id":"levelo_inurba_marseille","lat":43.265644,"lon":5.39014,"is_reserved":false,"is_disabled":false,"rental_uris":{"android":"levelo://app?vid=e31e0c99-23f9-46bd-b620-34ac067d508b","ios":"levelo://app?vid=e31e0c99-23f9-46bd-b620-34ac067d508b"},"vehicle_type_id":"4","last_reported":1749788335,"current_range_meters":18800,"station_id":"ce4bhe12rcd13ifvqf30","pricing_plan_id":"cebpf4jnsgd1na2vs0mg"},{"bike_id":"790e53ba-b234-4725-944a-6355eb10589a","system_id":"levelo_inurba_marseille","lat":43.28456,"lon":5.39187,"is_reserved":false,"is_disabled":false,"rental_uris":{"android":"levelo://app?vid=790e53ba-b234-4725-944a-6355eb10589a","ios":"levelo://app?vid=790e53ba-b234-4725-944a-6355eb10589a"},"vehicle_type_id":"4","last_reported":1749788335,"current_range_meters":18800,"station_id":"ce4bhoh2rcd13ifvqh5g","pricing_plan_id":"cebpf4jnsgd1na2vs0mg"},{"bike_id":"5f84cd5c-7517-45ed-a7ff-a9ca4a856d39","system_id":"levelo_inurba_marseille","lat":43.323527,"lon":5.406273,"is_reserved":false,"is_disabled":false,"rental_uris":{"android":"levelo://app?vid=5f84cd5c-7517-45ed-a7ff-a9ca4a856d39","ios":"levelo://app?vid=5f84cd5c-7517-45ed-a7ff-a9ca4a856d39"},"vehicle_type_id":"4","last_reported":1749788335,"current_range_meters":18800,"station_id":"ce4bhq92rcd13ifvqhjg","pricing_plan_id":"cebpf4jnsgd1na2vs0mg"},{"bike_id":"033f15e1-5ed0-4098-a7ec-2a49aba179ae","system_id":"levelo_inurba_marseille","lat":43.285105,"lon":5.353499,"is_reserved":false,"is_disabled":false,"rental_uris":{"android":"levelo://app?vid=033f15e1-5ed0-4098-a7ec-2a49aba179ae","ios":"levelo://app?vid=033f15e1-5ed0-4098-a7ec-2a49aba179ae"},"vehicle_type_id":"4","last_reported":1749788335,"current_range_meters":19600,"station_id":"","pricing_plan_id":"cebpf4jnsgd1na2vs0mg"},{"bike_id":"68e99e54-d8c6-48d3-8810-64ac76c71abe","system_id":"levelo_inurba_marseille","lat":43.29237,"lon":5.3748,"is_reserved":false,"is_disabled":false,"rental_uris":{"android":"levelo://app?vid=68e99e54-d8c6-48d3-8810-64ac76c71abe","ios":"levelo://app?vid=68e99e54-d8c6-48d3-8810-64ac76c71abe"},"vehicle_type_id":"4","last_reported":1749788335,"current_range_meters":19600,"station_id":"","pricing_plan_id":"cebpf4jnsgd1na2vs0mg"},{"bike_id":"a3803622-9556-44e2-90de-31269ebbf606","system_id":"levelo_inurba_marseille","lat":43.30431,"lon":5.38898,"is_reserved":false,"is_disabled":false,"rental_uris":{"android":"levelo://app?vid=a3803622-9556-44e2-90de-31269ebbf606","ios":"levelo://app?vid=a3803622-9556-44e2-90de-31269ebbf606"},"vehicle_type_id":"4","last_reported":1749788335,"current_range_meters":19600,"station_id":"ce4bgk12rcd13ifvqbi0","pricing_plan_id":"cebpf4jnsgd1na2vs0mg"},{"bike_id":"bb93ecd5-e52e-45aa-813a-6e88623fbe1b","system_id":"levelo_inurba_marseille","lat":43.27318,"lon":5.39074,"is_reserved":false,"is_disabled":false,"rental_uris":{"android":"levelo://app?vid=bb93ecd5-e52e-45aa-813a-6e88623fbe1b","ios":"levelo://app?vid=bb93ecd5-e52e-45aa-813a-6e88623fbe1b"},"vehicle_type_id":"4","last_reported":1749788335,"current_range_meters":19600,"station_id":"ce4bhgp2rcd13ifvqfe0","pricing_plan_id":"cebpf4jnsgd1na2vs0mg"},{"bike_id":"c1a4f854-1c91-4ab8-b85a-c931a4acb4e7","system_id":"levelo_inurba_marseille","lat":43.31025,"lon":5.39356,"is_reserved":false,"is_disabled":false,"rental_uris":{"android":"levelo://app?vid=c1a4f854-1c91-4ab8-b85a-c931a4acb4e7","ios":"levelo://app?vid=c1a4f854-1c91-4ab8-b85a-c931a4acb4e7"},"vehicle_type_id":"4","last_reported":1749788335,"current_range_meters":20000,"station_id":"","pricing_plan_id":"cebpf4jnsgd1na2vs0mg"},{"bike_id":"90c7f7a5-537c-4708-aa43-303c0fdc585e","system_id":"levelo_inurba_marseille","lat":43.295152,"lon":5.390507,"is_reserved":false,"is_disabled":false,"rental_uris":{"android":"levelo://app?vid=90c7f7a5-537c-4708-aa43-303c0fdc585e","ios":"levelo://app?vid=90c7f7a5-537c-4708-aa43-303c0fdc585e"},"vehicle_type_id":"4","last_reported":1749788335,"current_range_meters":20000,"station_id":"ce4bh3p2rcd13ifvqdp0","pricing_plan_id":"cebpf4jnsgd1na2vs0mg"},{"bike_id":"763839c2-3be8-45a7-a8b4-d361135f83f7","system_id":"levelo_inurba_marseille","lat":43.283459,"lon":5.381075,"is_reserved":false,"is_disabled":false,"rental_uris":{"android":"levelo://app?vid=763839c2-3be8-45a7-a8b4-d361135f83f7","ios":"levelo://app?vid=763839c2-3be8-45a7-a8b4-d361135f83f7"},"vehicle_type_id":"4","last_reported":1749788335,"current_range_meters":20000,"station_id":"ce4bh412rcd13ifvqdr0","pricing_plan_id":"cebpf4jnsgd1na2vs0mg"},{"bike_id":"075ad5b3-1645-4567-8339-eb3b8886e4c4","system_id":"levelo_inurba_marseille","lat":43.28665,"lon":5.36344,"is_reserved":false,"is_disabled":false,"rental_uris":{"android":"levelo://app?vid=075ad5b3-1645-4567-8339-eb3b8886e4c4","ios":"levelo://app?vid=075ad5b3-1645-4567-8339-eb3b8886e4c4"},"vehicle_type_id":"4","last_reported":1749788335,"current_range_meters":20000,"station_id":"ce4bhah2rcd13ifvqej0","pricing_plan_id":"cebpf4jnsgd1na2vs0mg"},{"bike_id":"c3c5e2ae-f869-49fd-9524-cf505693e6b5","system_id":"levelo_inurba_marseille","lat":43.274947,"lon":5.424592,"is_reserved":false,"is_disabled":false,"rental_uris":{"android":"levelo://app?vid=c3c5e2ae-f869-49fd-9524-cf505693e6b5","ios":"levelo://app?vid=c3c5e2ae-f869-49fd-9524-cf505693e6b5"},"vehicle_type_id":"4","last_reported":1749788335,"current_range_meters":20000,"station_id":"ce4bhn92rcd13ifvqgrg","pricing_plan_id":"cebpf4jnsgd1na2vs0mg"},{"bike_id":"ed4d4d61-a8c0-43f7-ba65-bc830f94dbe9","system_id":"levelo_inurba_marseille","lat":43.24085,"lon":5.37751,"is_reserved":false,"is_disabled":false,"rental_uris":{"android":"levelo://app?vid=ed4d4d61-a8c0-43f7-ba65-bc830f94dbe9","ios":"levelo://app?vid=ed4d4d61-a8c0-43f7-ba65-bc830f94dbe9"},"vehicle_type_id":"4","last_reported":1749788335,"current_range_meters":20000,"station_id":"ce4bhnp2rcd13ifvqgvg","pricing_plan_id":"cebpf4jnsgd1na2vs0mg"},{"bike_id":"1bb47bc4-ac4c-4fbc-a363-58471cffd209","system_id":"levelo_inurba_marseille","lat":43.34157,"lon":5.409,"is_reserved":false,"is_disabled":false,"rental_uris":{"android":"levelo://app?vid=1bb47bc4-ac4c-4fbc-a363-58471cffd209","ios":"levelo://app?vid=1bb47bc4-ac4c-4fbc-a363-58471cffd209"},"vehicle_type_id":"4","last_reported":1749788335,"current_range_meters":20000,"station_id":"ce4bhqh2rcd13ifvqhlg","pricing_plan_id":"cebpf4jnsgd1na2vs0mg"},{"bike_id":"ccb9975b-34a8-47da-b755-e17344ae18d3","system_id":"levelo_inurba_marseille","lat":43.23192,"lon":5.35554,"is_reserved":false,"is_disabled":false,"rental_uris":{"android":"levelo://app?vid=ccb9975b-34a8-47da-b755-e17344ae18d3","ios":"levelo://app?vid=ccb9975b-34a8-47da-b755-e17344ae18d3"},"vehicle_type_id":"4","last_reported":1749788335,"current_range_meters":20000,"station_id":"ce4bhu92rcd13ifvqi70","pricing_plan_id":"cebpf4jnsgd1na2vs0mg"},{"bike_id":"c8446c6b-b0c7-4c52-bb72-de9ec52c8f43","system_id":"levelo_inurba_marseille","lat":43.287468,"lon":5.361843,"is_reserved":false,"is_disabled":false,"rental_uris":{"android":"levelo://app?vid=c8446c6b-b0c7-4c52-bb72-de9ec52c8f43","ios":"levelo://app?vid=c8446c6b-b0c7-4c52-bb72-de9ec52c8f43"},"vehicle_type_id":"4","last_reported":1749788335,"current_range_meters":20400,"station_id":"","pricing_plan_id":"cebpf4jnsgd1na2vs0mg"},{"bike_id":"eb50f5d6-dd90-4d0a-a8d9-9e73b61e2838","system_id":"levelo_inurba_marseille","lat":43.312266,"lon":5.368685,"is_reserved":false,"is_disabled":false,"rental_uris":{"android":"levelo://app?vid=eb50f5d6-dd90-4d0a-a8d9-9e73b61e2838","ios":"levelo://app?vid=eb50f5d6-dd90-4d0a-a8d9-9e73b61e2838"},"vehicle_type_id":"4","last_reported":1749788335,"current_range_meters":20400,"station_id":"ce4bgl92rcd13ifvqbq0","pricing_plan_id":"cebpf4jnsgd1na2vs0mg"},{"bike_id":"3a697e13-9cf3-40bd-bb3d-3e3b6e8b31ac","system_id":"levelo_inurba_marseille","lat":43.28588,"lon":5.39482,"is_reserved":false,"is_disabled":false,"rental_uris":{"android":"levelo://app?vid=3a697e13-9cf3-40bd-bb3d-3e3b6e8b31ac","ios":"levelo://app?vid=3a697e13-9cf3-40bd-bb3d-3e3b6e8b31ac"},"vehicle_type_id":"4","last_reported":1749788335,"current_range_meters":20400,"station_id":"ce4bh292rcd13ifvqdg0","pricing_plan_id":"cebpf4jnsgd1na2vs0mg"},{"bike_id":"e2f42be7-7370-4150-963e-d5f731dafe1e","system_id":"levelo_inurba_marseille","lat":43.251084,"lon":5.403241,"is_reserved":false,"is_disabled":false,"rental_uris":{"android":"levelo://app?vid=e2f42be7-7370-4150-963e-d5f731dafe1e","ios":"levelo://app?vid=e2f42be7-7370-4150-963e-d5f731dafe1e"},"vehicle_type_id":"4","last_reported":1749788335,"current_range_meters":20400,"station_id":"ce4bhlh2rcd13ifvqgig","pricing_plan_id":"cebpf4jnsgd1na2vs0mg"},{"bike_id":"3f7ba403-0c40-4699-b73a-a91a135adabd","system_id":"levelo_inurba_marseille","lat":43.3414,"lon":5.409,"is_reserved":false,"is_disabled":false,"rental_uris":{"android":"levelo://app?vid=3f7ba403-0c40-4699-b73a-a91a135adabd","ios":"levelo://app?vid=3f7ba403-0c40-4699-b73a-a91a135adabd"},"vehicle_type_id":"4","last_reported":1749788335,"current_range_meters":20400,"station_id":"ce4bhqh2rcd13ifvqhlg","pricing_plan_id":"cebpf4jnsgd1na2vs0mg"},{"bike_id":"d0e0617d-5016-40ba-b4c5-1a83d3add731","system_id":"levelo_inurba_marseille","lat":43.32367,"lon":5.36744,"is_reserved":false,"is_disabled":false,"rental_uris":{"android":"levelo://app?vid=d0e0617d-5016-40ba-b4c5-1a83d3add731","ios":"levelo://app?vid=d0e0617d-5016-40ba-b4c5-1a83d3add731"},"vehicle_type_id":"4","last_reported":1749788335,"current_range_meters":20400,"station_id":"ce4bhsh2rcd13ifvqi2g","pricing_plan_id":"cebpf4jnsgd1na2vs0mg"},{"bike_id":"ab397cef-f29c-445d-ac29-b4089dce55fc","system_id":"levelo_inurba_marseille","lat":43.2996,"lon":5.38654,"is_reserved":false,"is_disabled":false,"rental_uris":{"android":"levelo://app?vid=ab397cef-f29c-445d-ac29-b4089dce55fc","ios":"levelo://app?vid=ab397cef-f29c-445d-ac29-b4089dce55fc"},"vehicle_type_id":"4","last_reported":1749788335,"current_range_meters":20800,"station_id":"","pricing_plan_id":"cebpf4jnsgd1na2vs0mg"},{"bike_id":"ca973dbd-a24d-43b2-99a7-8ae92453bba7","system_id":"levelo_inurba_marseille","lat":43.28332,"lon":5.3811,"is_reserved":false,"is_disabled":false,"rental_uris":{"android":"levelo://app?vid=ca973dbd-a24d-43b2-99a7-8ae92453bba7","ios":"levelo://app?vid=ca973dbd-a24d-43b2-99a7-8ae92453bba7"},"vehicle_type_id":"4","last_reported":1749788335,"current_range_meters":20800,"station_id":"ce4bh412rcd13ifvqdr0","pricing_plan_id":"cebpf4jnsgd1na2vs0mg"},{"bike_id":"3c50d737-1c05-4bc7-b2f8-4d7f8d67d6de","system_id":"levelo_inurba_marseille","lat":43.24663,"lon":5.38912,"is_reserved":false,"is_disabled":false,"rental_uris":{"android":"levelo://app?vid=3c50d737-1c05-4bc7-b2f8-4d7f8d67d6de","ios":"levelo://app?vid=3c50d737-1c05-4bc7-b2f8-4d7f8d67d6de"},"vehicle_type_id":"4","last_reported":1749788335,"current_range_meters":20800,"station_id":"ce4bhg12rcd13ifvqf60","pricing_plan_id":"cebpf4jnsgd1na2vs0mg"},{"bike_id":"8659ec5d-772a-45a5-b2ae-fecc1af65ebe","system_id":"levelo_inurba_marseille","lat":43.308846,"lon":5.396379,"is_reserved":false,"is_disabled":false,"rental_uris":{"android":"levelo://app?vid=8659ec5d-772a-45a5-b2ae-fecc1af65ebe","ios":"levelo://app?vid=8659ec5d-772a-45a5-b2ae-fecc1af65ebe"},"vehicle_type_id":"4","last_reported":1749788335,"current_range_meters":21600,"station_id":"ce4bh012rcd13ifvqcv0","pricing_plan_id":"cebpf4jnsgd1na2vs0mg"},{"bike_id":"b542b81f-4a1a-4ba9-8f74-e02266d8c139","system_id":"levelo_inurba_marseille","lat":43.265549,"lon":5.390441,"is_reserved":false,"is_disabled":false,"rental_uris":{"android":"levelo://app?vid=b542b81f-4a1a-4ba9-8f74-e02266d8c139","ios":"levelo://app?vid=b542b81f-4a1a-4ba9-8f74-e02266d8c139"},"vehicle_type_id":"4","last_reported":1749788335,"current_range_meters":21600,"station_id":"ce4bhe12rcd13ifvqf30","pricing_plan_id":"cebpf4jnsgd1na2vs0mg"},{"bike_id":"e4d5cdd3-c2cc-456e-8dbd-36436ec4a7d0","system_id":"levelo_inurba_marseille","lat":43.24636,"lon":5.38871,"is_reserved":false,"is_disabled":false,"rental_uris":{"android":"levelo://app?vid=e4d5cdd3-c2cc-456e-8dbd-36436ec4a7d0","ios":"levelo://app?vid=e4d5cdd3-c2cc-456e-8dbd-36436ec4a7d0"},"vehicle_type_id":"4","last_reported":1749788335,"current_range_meters":21600,"station_id":"ce4bhg12rcd13ifvqf60","pricing_plan_id":"cebpf4jnsgd1na2vs0mg"},{"bike_id":"d2f8ae65-c36f-4021-a5b9-d5bf21e2be9c","system_id":"levelo_inurba_marseille","lat":43.246824,"lon":5.381591,"is_reserved":false,"is_disabled":false,"rental_uris":{"android":"levelo://app?vid=d2f8ae65-c36f-4021-a5b9-d5bf21e2be9c","ios":"levelo://app?vid=d2f8ae65-c36f-4021-a5b9-d5bf21e2be9c"},"vehicle_type_id":"4","last_reported":1749788335,"current_range_meters":21600,"station_id":"ce4bhih2rcd13ifvqfr0","pricing_plan_id":"cebpf4jnsgd1na2vs0mg"},{"bike_id":"24c5126c-d115-4f06-86e3-078bd8fb03df","system_id":"levelo_inurba_marseille","lat":43.2978,"lon":5.39347,"is_reserved":false,"is_disabled":false,"rental_uris":{"android":"levelo://app?vid=24c5126c-d115-4f06-86e3-078bd8fb03df","ios":"levelo://app?vid=24c5126c-d115-4f06-86e3-078bd8fb03df"},"vehicle_type_id":"4","last_reported":1749788335,"current_range_meters":21600,"station_id":"chh1huq6cuj3fo74tm60","pricing_plan_id":"cebpf4jnsgd1na2vs0mg"},{"bike_id":"c85758cb-e111-45b8-a9f1-bb71dcbad014","system_id":"levelo_inurba_marseille","lat":43.30911,"lon":5.36841,"is_reserved":false,"is_disabled":false,"rental_uris":{"android":"levelo://app?vid=c85758cb-e111-45b8-a9f1-bb71dcbad014","ios":"levelo://app?vid=c85758cb-e111-45b8-a9f1-bb71dcbad014"},"vehicle_type_id":"4","last_reported":1749788335,"current_range_meters":22000,"station_id":"ce4bgn92rcd13ifvqbvg","pricing_plan_id":"cebpf4jnsgd1na2vs0mg"},{"bike_id":"c82f75f2-635c-40da-9f67-77d82cb74c97","system_id":"levelo_inurba_marseille","lat":43.21195,"lon":5.35075,"is_reserved":false,"is_disabled":false,"rental_uris":{"android":"levelo://app?vid=c82f75f2-635c-40da-9f67-77d82cb74c97","ios":"levelo://app?vid=c82f75f2-635c-40da-9f67-77d82cb74c97"},"vehicle_type_id":"4","last_reported":1749788335,"current_range_meters":22400,"station_id":"","pricing_plan_id":"cebpf4jnsgd1na2vs0mg"},{"bike_id":"679d881d-2dfe-4ec2-babb-8b09d0832382","system_id":"levelo_inurba_marseille","lat":43.32808,"lon":5.39152,"is_reserved":false,"is_disabled":false,"rental_uris":{"android":"levelo://app?vid=679d881d-2dfe-4ec2-babb-8b09d0832382","ios":"levelo://app?vid=679d881d-2dfe-4ec2-babb-8b09d0832382"},"vehicle_type_id":"4","last_reported":1749788335,"current_range_meters":22400,"station_id":"","pricing_plan_id":"cebpf4jnsgd1na2vs0mg"},{"bike_id":"8e677c3e-cc67-459f-ab3b-6ab15246b62f","system_id":"levelo_inurba_marseille","lat":43.28946,"lon":5.39652,"is_reserved":false,"is_disabled":false,"rental_uris":{"android":"levelo://app?vid=8e677c3e-cc67-459f-ab3b-6ab15246b62f","ios":"levelo://app?vid=8e677c3e-cc67-459f-ab3b-6ab15246b62f"},"vehicle_type_id":"4","last_reported":1749788335,"current_range_meters":22400,"station_id":"ce4bh3h2rcd13ifvqdn0","pricing_plan_id":"cebpf4jnsgd1na2vs0mg"},{"bike_id":"6c3d223d-6696-48ce-9732-db8068ec83b2","system_id":"levelo_inurba_marseille","lat":43.281014,"lon":5.3784,"is_reserved":false,"is_disabled":false,"rental_uris":{"android":"levelo://app?vid=6c3d223d-6696-48ce-9732-db8068ec83b2","ios":"levelo://app?vid=6c3d223d-6696-48ce-9732-db8068ec83b2"},"vehicle_type_id":"4","last_reported":1749788335,"current_range_meters":22400,"station_id":"ce4bha12rcd13ifvqee0","pricing_plan_id":"cebpf4jnsgd1na2vs0mg"},{"bike_id":"85be1f2f-4119-4d3b-81ae-fbe2564630b6","system_id":"levelo_inurba_marseille","lat":43.30294,"lon":5.39201,"is_reserved":false,"is_disabled":false,"rental_uris":{"android":"levelo://app?vid=85be1f2f-4119-4d3b-81ae-fbe2564630b6","ios":"levelo://app?vid=85be1f2f-4119-4d3b-81ae-fbe2564630b6"},"vehicle_type_id":"4","last_reported":1749788335,"current_range_meters":22800,"station_id":"ce4bgkh2rcd13ifvqbk0","pricing_plan_id":"cebpf4jnsgd1na2vs0mg"},{"bike_id":"50bbc1f1-e1c5-40c2-982b-bfccb888d533","system_id":"levelo_inurba_marseille","lat":43.30767,"lon":5.38176,"is_reserved":false,"is_disabled":false,"rental_uris":{"android":"levelo://app?vid=50bbc1f1-e1c5-40c2-982b-bfccb888d533","ios":"levelo://app?vid=50bbc1f1-e1c5-40c2-982b-bfccb888d533"},"vehicle_type_id":"4","last_reported":1749788335,"current_range_meters":22800,"station_id":"ce4bgt12rcd13ifvqce0","pricing_plan_id":"cebpf4jnsgd1na2vs0mg"},{"bike_id":"064cc326-3958-4f3a-b58c-cea44cd579b9","system_id":"levelo_inurba_marseille","lat":43.301334,"lon":5.398949,"is_reserved":false,"is_disabled":false,"rental_uris":{"android":"levelo://app?vid=064cc326-3958-4f3a-b58c-cea44cd579b9","ios":"levelo://app?vid=064cc326-3958-4f3a-b58c-cea44cd579b9"},"vehicle_type_id":"4","last_reported":1749788335,"current_range_meters":22800,"station_id":"ce4bh0h2rcd13ifvqd40","pricing_plan_id":"cebpf4jnsgd1na2vs0mg"},{"bike_id":"039aa8db-bc0f-4c6a-9d01-e66fc6ff4a74","system_id":"levelo_inurba_marseille","lat":43.29253,"lon":5.40882,"is_reserved":false,"is_disabled":false,"rental_uris":{"android":"levelo://app?vid=039aa8db-bc0f-4c6a-9d01-e66fc6ff4a74","ios":"levelo://app?vid=039aa8db-bc0f-4c6a-9d01-e66fc6ff4a74"},"vehicle_type_id":"4","last_reported":1749788335,"current_range_meters":22800,"station_id":"ce4bh192rcd13ifvqdc0","pricing_plan_id":"cebpf4jnsgd1na2vs0mg"},{"bike_id":"f6956982-51ef-487d-84d8-c35fcfe4aae1","system_id":"levelo_inurba_marseille","lat":43.292529,"lon":5.409114,"is_reserved":false,"is_disabled":false,"rental_uris":{"android":"levelo://app?vid=f6956982-51ef-487d-84d8-c35fcfe4aae1","ios":"levelo://app?vid=f6956982-51ef-487d-84d8-c35fcfe4aae1"},"vehicle_type_id":"4","last_reported":1749788335,"current_range_meters":22800,"station_id":"ce4bh192rcd13ifvqdc0","pricing_plan_id":"cebpf4jnsgd1na2vs0mg"},{"bike_id":"a25dc60d-50b9-4238-8060-7b6c239818e8","system_id":"levelo_inurba_marseille","lat":43.285691,"lon":5.394976,"is_reserved":false,"is_disabled":false,"rental_uris":{"android":"levelo://app?vid=a25dc60d-50b9-4238-8060-7b6c239818e8","ios":"levelo://app?vid=a25dc60d-50b9-4238-8060-7b6c239818e8"},"vehicle_type_id":"4","last_reported":1749788335,"current_range_meters":22800,"station_id":"ce4bh292rcd13ifvqdg0","pricing_plan_id":"cebpf4jnsgd1na2vs0mg"},{"bike_id":"98ffe3a9-246a-4b78-8ed7-84659b150747","system_id":"levelo_inurba_marseille","lat":43.29288,"lon":5.40145,"is_reserved":false,"is_disabled":false,"rental_uris":{"android":"levelo://app?vid=98ffe3a9-246a-4b78-8ed7-84659b150747","ios":"levelo://app?vid=98ffe3a9-246a-4b78-8ed7-84659b150747"},"vehicle_type_id":"4","last_reported":1749788335,"current_range_meters":22800,"station_id":"ce4bh312rcd13ifvqdk0","pricing_plan_id":"cebpf4jnsgd1na2vs0mg"},{"bike_id":"b4585b3d-e7fe-4b85-8481-4d268bf17ab9","system_id":"levelo_inurba_marseille","lat":43.284324,"lon":5.391893,"is_reserved":false,"is_disabled":false,"rental_uris":{"android":"levelo://app?vid=b4585b3d-e7fe-4b85-8481-4d268bf17ab9","ios":"levelo://app?vid=b4585b3d-e7fe-4b85-8481-4d268bf17ab9"},"vehicle_type_id":"4","last_reported":1749788335,"current_range_meters":22800,"station_id":"ce4bhoh2rcd13ifvqh5g","pricing_plan_id":"cebpf4jnsgd1na2vs0mg"},{"bike_id":"951a52f5-9a0b-4cd5-882e-f38ef98f010a","system_id":"levelo_inurba_marseille","lat":43.30372,"lon":5.41871,"is_reserved":false,"is_disabled":false,"rental_uris":{"android":"levelo://app?vid=951a52f5-9a0b-4cd5-882e-f38ef98f010a","ios":"levelo://app?vid=951a52f5-9a0b-4cd5-882e-f38ef98f010a"},"vehicle_type_id":"4","last_reported":1749788335,"current_range_meters":22800,"station_id":"ce4bhop2rcd13ifvqh7g","pricing_plan_id":"cebpf4jnsgd1na2vs0mg"},{"bike_id":"482830ed-e8ca-42e7-a1dc-ee5c4ef3bb58","system_id":"levelo_inurba_marseille","lat":43.21751,"lon":5.34611,"is_reserved":false,"is_disabled":false,"rental_uris":{"android":"levelo://app?vid=482830ed-e8ca-42e7-a1dc-ee5c4ef3bb58","ios":"levelo://app?vid=482830ed-e8ca-42e7-a1dc-ee5c4ef3bb58"},"vehicle_type_id":"4","last_reported":1749788335,"current_range_meters":22800,"station_id":"st_cvj6r9ubvosntc0bgbag","pricing_plan_id":"cebpf4jnsgd1na2vs0mg"},{"bike_id":"f2c9af96-1c1f-4ce9-b7e8-1282fcb6fec2","system_id":"levelo_inurba_marseille","lat":43.24368,"lon":5.4114,"is_reserved":false,"is_disabled":false,"rental_uris":{"android":"levelo://app?vid=f2c9af96-1c1f-4ce9-b7e8-1282fcb6fec2","ios":"levelo://app?vid=f2c9af96-1c1f-4ce9-b7e8-1282fcb6fec2"},"vehicle_type_id":"4","last_reported":1749788335,"current_range_meters":23200,"station_id":"","pricing_plan_id":"cebpf4jnsgd1na2vs0mg"},{"bike_id":"d81ebef1-def3-4b3b-8a2c-e915262efa10","system_id":"levelo_inurba_marseille","lat":43.328675,"lon":5.391642,"is_reserved":false,"is_disabled":false,"rental_uris":{"android":"levelo://app?vid=d81ebef1-def3-4b3b-8a2c-e915262efa10","ios":"levelo://app?vid=d81ebef1-def3-4b3b-8a2c-e915262efa10"},"vehicle_type_id":"4","last_reported":1749788335,"current_range_meters":23200,"station_id":"","pricing_plan_id":"cebpf4jnsgd1na2vs0mg"},{"bike_id":"3abbfb5f-27f0-4793-bec3-cf4898e19121","system_id":"levelo_inurba_marseille","lat":43.28936,"lon":5.36438,"is_reserved":false,"is_disabled":false,"rental_uris":{"android":"levelo://app?vid=3abbfb5f-27f0-4793-bec3-cf4898e19121","ios":"levelo://app?vid=3abbfb5f-27f0-4793-bec3-cf4898e19121"},"vehicle_type_id":"4","last_reported":1749788335,"current_range_meters":23200,"station_id":"","pricing_plan_id":"cebpf4jnsgd1na2vs0mg"},{"bike_id":"c81dd4ce-6b41-4eee-ad6e-48cd382edc3a","system_id":"levelo_inurba_marseille","lat":43.30192,"lon":5.39502,"is_reserved":false,"is_disabled":false,"rental_uris":{"android":"levelo://app?vid=c81dd4ce-6b41-4eee-ad6e-48cd382edc3a","ios":"levelo://app?vid=c81dd4ce-6b41-4eee-ad6e-48cd382edc3a"},"vehicle_type_id":"4","last_reported":1749788335,"current_range_meters":23200,"station_id":"ce4bh0p2rcd13ifvqd70","pricing_plan_id":"cebpf4jnsgd1na2vs0mg"},{"bike_id":"b342092b-3d11-4a92-be16-7ee3fef55973","system_id":"levelo_inurba_marseille","lat":43.30665,"lon":5.40062,"is_reserved":false,"is_disabled":false,"rental_uris":{"android":"levelo://app?vid=b342092b-3d11-4a92-be16-7ee3fef55973","ios":"levelo://app?vid=b342092b-3d11-4a92-be16-7ee3fef55973"},"vehicle_type_id":"4","last_reported":1749788335,"current_range_meters":23200,"station_id":"ce4bh112rcd13ifvqda0","pricing_plan_id":"cebpf4jnsgd1na2vs0mg"},{"bike_id":"9657cbc6-92a6-46eb-8524-a1202c5063b8","system_id":"levelo_inurba_marseille","lat":43.28568,"lon":5.3952,"is_reserved":false,"is_disabled":false,"rental_uris":{"android":"levelo://app?vid=9657cbc6-92a6-46eb-8524-a1202c5063b8","ios":"levelo://app?vid=9657cbc6-92a6-46eb-8524-a1202c5063b8"},"vehicle_type_id":"4","last_reported":1749788335,"current_range_meters":23200,"station_id":"ce4bh292rcd13ifvqdg0","pricing_plan_id":"cebpf4jnsgd1na2vs0mg"},{"bike_id":"fe3649a7-f8d0-4ca6-8c78-e2f919c039df","system_id":"levelo_inurba_marseille","lat":43.2893,"lon":5.36403,"is_reserved":false,"is_disabled":false,"rental_uris":{"android":"levelo://app?vid=fe3649a7-f8d0-4ca6-8c78-e2f919c039df","ios":"levelo://app?vid=fe3649a7-f8d0-4ca6-8c78-e2f919c039df"},"vehicle_type_id":"4","last_reported":1749788335,"current_range_meters":23200,"station_id":"ce4bhc92rcd13ifvqetg","pricing_plan_id":"cebpf4jnsgd1na2vs0mg"},{"bike_id":"a04ff33d-d28b-4609-ab41-345a0cc69752","system_id":"levelo_inurba_marseille","lat":43.257234,"lon":5.411134,"is_reserved":false,"is_disabled":false,"rental_uris":{"android":"levelo://app?vid=a04ff33d-d28b-4609-ab41-345a0cc69752","ios":"levelo://app?vid=a04ff33d-d28b-4609-ab41-345a0cc69752"},"vehicle_type_id":"4","last_reported":1749788335,"current_range_meters":23200,"station_id":"ce4bhkp2rcd13ifvqgd0","pricing_plan_id":"cebpf4jnsgd1na2vs0mg"},{"bike_id":"4d7f9890-f85e-4357-b3f7-9a08515e2136","system_id":"levelo_inurba_marseille","lat":43.31749,"lon":5.39029,"is_reserved":false,"is_disabled":false,"rental_uris":{"android":"levelo://app?vid=4d7f9890-f85e-4357-b3f7-9a08515e2136","ios":"levelo://app?vid=4d7f9890-f85e-4357-b3f7-9a08515e2136"},"vehicle_type_id":"4","last_reported":1749788335,"current_range_meters":23200,"station_id":"ce4bhqp2rcd13ifvqhng","pricing_plan_id":"cebpf4jnsgd1na2vs0mg"},{"bike_id":"b7de2daa-196c-4111-9244-8dff16c1dcca","system_id":"levelo_inurba_marseille","lat":43.320665,"lon":5.367577,"is_reserved":false,"is_disabled":false,"rental_uris":{"android":"levelo://app?vid=b7de2daa-196c-4111-9244-8dff16c1dcca","ios":"levelo://app?vid=b7de2daa-196c-4111-9244-8dff16c1dcca"},"vehicle_type_id":"4","last_reported":1749788335,"current_range_meters":23200,"station_id":"ce4bhrh2rcd13ifvqhug","pricing_plan_id":"cebpf4jnsgd1na2vs0mg"},{"bike_id":"2e9d2a29-3a8b-4cc2-b9d5-138614a8517d","system_id":"levelo_inurba_marseille","lat":43.2924,"lon":5.40042,"is_reserved":false,"is_disabled":false,"rental_uris":{"android":"levelo://app?vid=2e9d2a29-3a8b-4cc2-b9d5-138614a8517d","ios":"levelo://app?vid=2e9d2a29-3a8b-4cc2-b9d5-138614a8517d"},"vehicle_type_id":"4","last_reported":1749788335,"current_range_meters":24000,"station_id":"","pricing_plan_id":"cebpf4jnsgd1na2vs0mg"},{"bike_id":"697e72cf-4f7f-4320-adbf-039584efd5c7","system_id":"levelo_inurba_marseille","lat":43.309259,"lon":5.401428,"is_reserved":false,"is_disabled":false,"rental_uris":{"android":"levelo://app?vid=697e72cf-4f7f-4320-adbf-039584efd5c7","ios":"levelo://app?vid=697e72cf-4f7f-4320-adbf-039584efd5c7"},"vehicle_type_id":"4","last_reported":1749788335,"current_range_meters":24000,"station_id":"ce4bgvp2rcd13ifvqct0","pricing_plan_id":"cebpf4jnsgd1na2vs0mg"},{"bike_id":"a7926a2c-4e68-4317-9e51-9f6579a14a3c","system_id":"levelo_inurba_marseille","lat":43.26548,"lon":5.3903,"is_reserved":false,"is_disabled":false,"rental_uris":{"android":"levelo://app?vid=a7926a2c-4e68-4317-9e51-9f6579a14a3c","ios":"levelo://app?vid=a7926a2c-4e68-4317-9e51-9f6579a14a3c"},"vehicle_type_id":"4","last_reported":1749788335,"current_range_meters":24000,"station_id":"ce4bhe12rcd13ifvqf30","pricing_plan_id":"cebpf4jnsgd1na2vs0mg"},{"bike_id":"c8a9ad5a-56e9-4162-a17d-cb3c2ed4b67b","system_id":"levelo_inurba_marseille","lat":43.323557,"lon":5.367561,"is_reserved":false,"is_disabled":false,"rental_uris":{"android":"levelo://app?vid=c8a9ad5a-56e9-4162-a17d-cb3c2ed4b67b","ios":"levelo://app?vid=c8a9ad5a-56e9-4162-a17d-cb3c2ed4b67b"},"vehicle_type_id":"4","last_reported":1749788335,"current_range_meters":24000,"station_id":"ce4bhsh2rcd13ifvqi2g","pricing_plan_id":"cebpf4jnsgd1na2vs0mg"},{"bike_id":"adf922de-663c-4083-a2cd-54f15f3b5ec7","system_id":"levelo_inurba_marseille","lat":43.28907,"lon":5.36422,"is_reserved":false,"is_disabled":false,"rental_uris":{"android":"levelo://app?vid=adf922de-663c-4083-a2cd-54f15f3b5ec7","ios":"levelo://app?vid=adf922de-663c-4083-a2cd-54f15f3b5ec7"},"vehicle_type_id":"4","last_reported":1749788335,"current_range_meters":24400,"station_id":"","pricing_plan_id":"cebpf4jnsgd1na2vs0mg"},{"bike_id":"acea3142-13e3-4647-9a15-f5521beebc55","system_id":"levelo_inurba_marseille","lat":43.246539,"lon":5.389044,"is_reserved":false,"is_disabled":false,"rental_uris":{"android":"levelo://app?vid=acea3142-13e3-4647-9a15-f5521beebc55","ios":"levelo://app?vid=acea3142-13e3-4647-9a15-f5521beebc55"},"vehicle_type_id":"4","last_reported":1749788335,"current_range_meters":24400,"station_id":"ce4bhg12rcd13ifvqf60","pricing_plan_id":"cebpf4jnsgd1na2vs0mg"},{"bike_id":"67d4735d-a812-4e55-90bc-5641f4e35931","system_id":"levelo_inurba_marseille","lat":43.21183,"lon":5.35153,"is_reserved":false,"is_disabled":false,"rental_uris":{"android":"levelo://app?vid=67d4735d-a812-4e55-90bc-5641f4e35931","ios":"levelo://app?vid=67d4735d-a812-4e55-90bc-5641f4e35931"},"vehicle_type_id":"4","last_reported":1749788335,"current_range_meters":24800,"station_id":"","pricing_plan_id":"cebpf4jnsgd1na2vs0mg"},{"bike_id":"0b5d5f6a-4a12-4aad-9104-c1e9eb6ecd34","system_id":"levelo_inurba_marseille","lat":43.29187,"lon":5.40951,"is_reserved":false,"is_disabled":false,"rental_uris":{"android":"levelo://app?vid=0b5d5f6a-4a12-4aad-9104-c1e9eb6ecd34","ios":"levelo://app?vid=0b5d5f6a-4a12-4aad-9104-c1e9eb6ecd34"},"vehicle_type_id":"4","last_reported":1749788335,"current_range_meters":24800,"station_id":"","pricing_plan_id":"cebpf4jnsgd1na2vs0mg"},{"bike_id":"4c3af8d8-dbd7-4842-a31d-3650d78b98e8","system_id":"levelo_inurba_marseille","lat":43.313633,"lon":5.385099,"is_reserved":false,"is_disabled":false,"rental_uris":{"android":"levelo://app?vid=4c3af8d8-dbd7-4842-a31d-3650d78b98e8","ios":"levelo://app?vid=4c3af8d8-dbd7-4842-a31d-3650d78b98e8"},"vehicle_type_id":"4","last_reported":1749788335,"current_range_meters":24800,"station_id":"ce4bgt92rcd13ifvqcf0","pricing_plan_id":"cebpf4jnsgd1na2vs0mg"},{"bike_id":"e9c8d2af-cd20-418d-97cd-15dbd4f68a90","system_id":"levelo_inurba_marseille","lat":43.30944,"lon":5.40139,"is_reserved":false,"is_disabled":false,"rental_uris":{"android":"levelo://app?vid=e9c8d2af-cd20-418d-97cd-15dbd4f68a90","ios":"levelo://app?vid=e9c8d2af-cd20-418d-97cd-15dbd4f68a90"},"vehicle_type_id":"4","last_reported":1749788335,"current_range_meters":24800,"station_id":"ce4bgvp2rcd13ifvqct0","pricing_plan_id":"cebpf4jnsgd1na2vs0mg"},{"bike_id":"3d1e201c-b4b7-44c1-ac8a-b67501ab51b8","system_id":"levelo_inurba_marseille","lat":43.29221,"lon":5.40925,"is_reserved":false,"is_disabled":false,"rental_uris":{"android":"levelo://app?vid=3d1e201c-b4b7-44c1-ac8a-b67501ab51b8","ios":"levelo://app?vid=3d1e201c-b4b7-44c1-ac8a-b67501ab51b8"},"vehicle_type_id":"4","last_reported":1749788335,"current_range_meters":24800,"station_id":"ce4bh192rcd13ifvqdc0","pricing_plan_id":"cebpf4jnsgd1na2vs0mg"},{"bike_id":"7393a304-4ad2-4c18-b1b4-460d91f90e6d","system_id":"levelo_inurba_marseille","lat":43.281007,"lon":5.378478,"is_reserved":false,"is_disabled":false,"rental_uris":{"android":"levelo://app?vid=7393a304-4ad2-4c18-b1b4-460d91f90e6d","ios":"levelo://app?vid=7393a304-4ad2-4c18-b1b4-460d91f90e6d"},"vehicle_type_id":"4","last_reported":1749788335,"current_range_meters":24800,"station_id":"ce4bha12rcd13ifvqee0","pricing_plan_id":"cebpf4jnsgd1na2vs0mg"},{"bike_id":"bc3fcb55-bf4c-422e-9f7c-c229756dd205","system_id":"levelo_inurba_marseille","lat":43.323571,"lon":5.367471,"is_reserved":false,"is_disabled":false,"rental_uris":{"android":"levelo://app?vid=bc3fcb55-bf4c-422e-9f7c-c229756dd205","ios":"levelo://app?vid=bc3fcb55-bf4c-422e-9f7c-c229756dd205"},"vehicle_type_id":"4","last_reported":1749788335,"current_range_meters":24800,"station_id":"ce4bhsh2rcd13ifvqi2g","pricing_plan_id":"cebpf4jnsgd1na2vs0mg"},{"bike_id":"f29a7746-f752-482c-a5d1-5218b286d5de","system_id":"levelo_inurba_marseille","lat":43.31987,"lon":5.38741,"is_reserved":false,"is_disabled":false,"rental_uris":{"android":"levelo://app?vid=f29a7746-f752-482c-a5d1-5218b286d5de","ios":"levelo://app?vid=f29a7746-f752-482c-a5d1-5218b286d5de"},"vehicle_type_id":"4","last_reported":1749788335,"current_range_meters":25200,"station_id":"","pricing_plan_id":"cebpf4jnsgd1na2vs0mg"},{"bike_id":"9ccad29e-18fa-442d-90ba-33ec93d96aa3","system_id":"levelo_inurba_marseille","lat":43.29275,"lon":5.40118,"is_reserved":false,"is_disabled":false,"rental_uris":{"android":"levelo://app?vid=9ccad29e-18fa-442d-90ba-33ec93d96aa3","ios":"levelo://app?vid=9ccad29e-18fa-442d-90ba-33ec93d96aa3"},"vehicle_type_id":"4","last_reported":1749788335,"current_range_meters":25200,"station_id":"ce4bh312rcd13ifvqdk0","pricing_plan_id":"cebpf4jnsgd1na2vs0mg"},{"bike_id":"9368cf9a-fc25-475d-94cb-f0a49e025ca4","system_id":"levelo_inurba_marseille","lat":43.2846,"lon":5.35888,"is_reserved":false,"is_disabled":false,"rental_uris":{"android":"levelo://app?vid=9368cf9a-fc25-475d-94cb-f0a49e025ca4","ios":"levelo://app?vid=9368cf9a-fc25-475d-94cb-f0a49e025ca4"},"vehicle_type_id":"4","last_reported":1749788335,"current_range_meters":25200,"station_id":"ce4bhah2rcd13ifvqei0","pricing_plan_id":"cebpf4jnsgd1na2vs0mg"},{"bike_id":"7823edb3-6df1-4da3-8c3d-83d1bdb86b02","system_id":"levelo_inurba_marseille","lat":43.231845,"lon":5.399954,"is_reserved":false,"is_disabled":false,"rental_uris":{"android":"levelo://app?vid=7823edb3-6df1-4da3-8c3d-83d1bdb86b02","ios":"levelo://app?vid=7823edb3-6df1-4da3-8c3d-83d1bdb86b02"},"vehicle_type_id":"4","last_reported":1749788335,"current_range_meters":25200,"station_id":"ce4bhn12rcd13ifvqgqg","pricing_plan_id":"cebpf4jnsgd1na2vs0mg"},{"bike_id":"95a61399-e683-4177-9d8f-09d3161b1d6c","system_id":"levelo_inurba_marseille","lat":43.309245,"lon":5.401464,"is_reserved":false,"is_disabled":false,"rental_uris":{"android":"levelo://app?vid=95a61399-e683-4177-9d8f-09d3161b1d6c","ios":"levelo://app?vid=95a61399-e683-4177-9d8f-09d3161b1d6c"},"vehicle_type_id":"4","last_reported":1749788335,"current_range_meters":25600,"station_id":"ce4bgvp2rcd13ifvqct0","pricing_plan_id":"cebpf4jnsgd1na2vs0mg"},{"bike_id":"b6a4ebb2-36e0-4e5c-a76c-23edc48629e3","system_id":"levelo_inurba_marseille","lat":43.305726,"lon":5.399334,"is_reserved":false,"is_disabled":false,"rental_uris":{"android":"levelo://app?vid=b6a4ebb2-36e0-4e5c-a76c-23edc48629e3","ios":"levelo://app?vid=b6a4ebb2-36e0-4e5c-a76c-23edc48629e3"},"vehicle_type_id":"4","last_reported":1749788335,"current_range_meters":25600,"station_id":"ce4bgvp2rcd13ifvqct0","pricing_plan_id":"cebpf4jnsgd1na2vs0mg"},{"bike_id":"83d604b3-6c0d-45c4-9527-564c02ae8d14","system_id":"levelo_inurba_marseille","lat":43.30901,"lon":5.39639,"is_reserved":false,"is_disabled":false,"rental_uris":{"android":"levelo://app?vid=83d604b3-6c0d-45c4-9527-564c02ae8d14","ios":"levelo://app?vid=83d604b3-6c0d-45c4-9527-564c02ae8d14"},"vehicle_type_id":"4","last_reported":1749788335,"current_range_meters":25600,"station_id":"ce4bh012rcd13ifvqcv0","pricing_plan_id":"cebpf4jnsgd1na2vs0mg"},{"bike_id":"ef9b86f7-1d45-4937-9cb1-469def0af271","system_id":"levelo_inurba_marseille","lat":43.30206,"lon":5.39472,"is_reserved":false,"is_disabled":false,"rental_uris":{"android":"levelo://app?vid=ef9b86f7-1d45-4937-9cb1-469def0af271","ios":"levelo://app?vid=ef9b86f7-1d45-4937-9cb1-469def0af271"},"vehicle_type_id":"4","last_reported":1749788335,"current_range_meters":25600,"station_id":"ce4bh0p2rcd13ifvqd70","pricing_plan_id":"cebpf4jnsgd1na2vs0mg"},{"bike_id":"fd11a35f-227e-4c28-b021-f34775b6e270","system_id":"levelo_inurba_marseille","lat":43.29801,"lon":5.40408,"is_reserved":false,"is_disabled":false,"rental_uris":{"android":"levelo://app?vid=fd11a35f-227e-4c28-b021-f34775b6e270","ios":"levelo://app?vid=fd11a35f-227e-4c28-b021-f34775b6e270"},"vehicle_type_id":"4","last_reported":1749788335,"current_range_meters":25600,"station_id":"ce4bh112rcd13ifvqd90","pricing_plan_id":"cebpf4jnsgd1na2vs0mg"},{"bike_id":"8336881f-547f-4039-a4d9-c809484bbe81","system_id":"levelo_inurba_marseille","lat":43.27055,"lon":5.40264,"is_reserved":false,"is_disabled":false,"rental_uris":{"android":"levelo://app?vid=8336881f-547f-4039-a4d9-c809484bbe81","ios":"levelo://app?vid=8336881f-547f-4039-a4d9-c809484bbe81"},"vehicle_type_id":"4","last_reported":1749788335,"current_range_meters":25600,"station_id":"ce4bhk92rcd13ifvqgc0","pricing_plan_id":"cebpf4jnsgd1na2vs0mg"},{"bike_id":"4a13d3b4-3ebe-4200-9cde-0fff503b2bbd","system_id":"levelo_inurba_marseille","lat":43.258646,"lon":5.398971,"is_reserved":false,"is_disabled":false,"rental_uris":{"android":"levelo://app?vid=4a13d3b4-3ebe-4200-9cde-0fff503b2bbd","ios":"levelo://app?vid=4a13d3b4-3ebe-4200-9cde-0fff503b2bbd"},"vehicle_type_id":"4","last_reported":1749788335,"current_range_meters":25600,"station_id":"ce4bhl92rcd13ifvqghg","pricing_plan_id":"cebpf4jnsgd1na2vs0mg"},{"bike_id":"4fbf2829-caee-425c-8ab2-401224e9ac74","system_id":"levelo_inurba_marseille","lat":43.2624,"lon":5.40432,"is_reserved":false,"is_disabled":false,"rental_uris":{"android":"levelo://app?vid=4fbf2829-caee-425c-8ab2-401224e9ac74","ios":"levelo://app?vid=4fbf2829-caee-425c-8ab2-401224e9ac74"},"vehicle_type_id":"4","last_reported":1749788335,"current_range_meters":25600,"station_id":"ce4bhmh2rcd13ifvqgmg","pricing_plan_id":"cebpf4jnsgd1na2vs0mg"},{"bike_id":"6d522f52-f455-4c74-ab15-8114a0a106d7","system_id":"levelo_inurba_marseille","lat":43.313633,"lon":5.385024,"is_reserved":false,"is_disabled":false,"rental_uris":{"android":"levelo://app?vid=6d522f52-f455-4c74-ab15-8114a0a106d7","ios":"levelo://app?vid=6d522f52-f455-4c74-ab15-8114a0a106d7"},"vehicle_type_id":"4","last_reported":1749788335,"current_range_meters":26000,"station_id":"ce4bgt92rcd13ifvqcf0","pricing_plan_id":"cebpf4jnsgd1na2vs0mg"},{"bike_id":"685506aa-7687-492d-a3ba-42b089876117","system_id":"levelo_inurba_marseille","lat":43.308856,"lon":5.396481,"is_reserved":false,"is_disabled":false,"rental_uris":{"android":"levelo://app?vid=685506aa-7687-492d-a3ba-42b089876117","ios":"levelo://app?vid=685506aa-7687-492d-a3ba-42b089876117"},