{"last_updated":1702818451,"ttl":30,"version":"2.2","data":{"bikes":[{"bike_id":"4e69901f-a731-47ea-a03b-42b9a548cee2","system_id":"levelo_inurba_marseille","lat":43.309076,"lon":5.368465,"is_reserved":false,"is_disabled":false,"rental_uris":{"android":"levelo://app?vid=4e69901f-a731-47ea-a03b-42b9a548cee2","ios":"levelo://app?vid=4e69901f-a731-47ea-a03b-42b9a548cee2"},"vehicle_type_id":"4","last_reported":1702818451,"current_range_meters":27200,"station_id":"ce4bgn92rcd13ifvqbvg","pricing_plan_id":"free"},{"bike_id":"70b87470-2b83-4cad-bc71-1464d54916bf","system_id":"levelo_inurba_marseille","lat":43.3148,"lon":5.37308,"is_reserved":false,"is_disabled":false,"rental_uris":{"android":"levelo://app?vid=70b87470-2b83-4cad-bc71-1464d54916bf","ios":"levelo://app?vid=70b87470-2b83-4cad-bc71-1464d54916bf"},"vehicle_type_id":"4","last_reported":1702818451,"current_range_meters":18800,"station_id":"ce4bgt12rcd13ifvqcd0","pricing_plan_id":"free"},{"bike_id":"3f8b821f-e430-4a35-bf14-f8b6e777ea11","system_id":"levelo_inurba_marseille","lat":43.313939,"lon":5.375306,"is_reserved":false,"is_disabled":false,"rental_uris":{"android":"levelo://app?vid=3f8b821f-e430-4a35-bf14-f8b6e777ea11","ios":"levelo://app?vid=3f8b821f-e430-4a35-bf14-f8b6e777ea11"},"vehicle_type_id":"4","last_reported":1702818451,"current_range_meters":0,"station_id":"","pricing_plan_id":"free"},{"bike_id":"848a72a4-6e55-4bd8-9ba0-88dde2707e87","system_id":"levelo_inurba_marseille","lat":43.30545,"lon":5.36558,"is_reserved":false,"is_disabled":false,"rental_uris":{"android":"levelo://app?vid=848a72a4-6e55-4bd8-9ba0-88dde2707e87","ios":"levelo://app?vid=848a72a4-6e55-4bd8-9ba0-88dde2707e87"},"vehicle_type_id":"4","last_reported":1702818451,"current_range_meters":1600,"station_id":"ce4bgs12rcd13ifvqcag","pricing_plan_id":"free"},{"bike_id":"e7715dbc-ad54-4c11-a25f-b999e23b2f67","system_id":"levelo_inurba_marseille","lat":43.30544,"lon":5.36543,"is_reserved":false,"is_disabled":false,"rental_uris":{"android":"levelo://app?vid=e7715dbc-ad54-4c11-a25f-b999e23b2f67","ios":"levelo://app?vid=e7715dbc-ad54-4c11-a25f-b999e23b2f67"},"vehicle_type_id":"4","last_reported":1702818451,"current_range_meters":19200,"station_id":"ce4bgs12rcd13ifvqcag","pricing_plan_id":"free"},{"bike_id":"f3a85b0b-e247-43b4-844d-001021dd715d","system_id":"levelo_inurba_marseille","lat":43.305706,"lon":5.365654,"is_reserved":false,"is_disabled":false,"rental_uris":{"android":"levelo://app?vid=f3a85b0b-e247-43b4-844d-001021dd715d","ios":"levelo://app?vid=f3a85b0b-e247-43b4-844d-001021dd715d"},"vehicle_type_id":"4","last_reported":1702818451,"current_range_meters":400,"station_id":"ce4bgs12rcd13ifvqcag","pricing_plan_id":"free"},{"bike_id":"955e4ab2-16e5-44e8-a986-a2f50ff96c06","system_id":"levelo_inurba_marseille","lat":43.305382,"lon":5.365389,"is_reserved":false,"is_disabled":false,"rental_uris":{"android":"levelo://app?vid=955e4ab2-16e5-44e8-a986-a2f50ff96c06","ios":"levelo://app?vid=955e4ab2-16e5-44e8-a986-a2f50ff96c06"},"vehicle_type_id":"4","last_reported":1702818451,"current_range_meters":11600,"station_id":"","pricing_plan_id":"free"},{"bike_id":"996422e0-0f4f-4a95-8168-28282f942783","system_id":"levelo_inurba_marseille","lat":43.305706,"lon":5.365654,"is_reserved":false,"is_disabled":false,"rental_uris":{"android":"levelo://app?vid=996422e0-0f4f-4a95-8168-28282f942783","ios":"levelo://app?vid=996422e0-0f4f-4a95-8168-28282f942783"},"vehicle_type_id":"4","last_reported":1702818451,"current_range_meters":28800,"station_id":"ce4bgs12rcd13ifvqcag","pricing_plan_id":"free"},{"bike_id":"650b39d9-bcce-444b-ac74-159f06c25aff","system_id":"levelo_inurba_marseille","lat":43.305706,"lon":5.365654,"is_reserved":false,"is_disabled":false,"rental_uris":{"android":"levelo://app?vid=650b39d9-bcce-444b-ac74-159f06c25aff","ios":"levelo://app?vid=650b39d9-bcce-444b-ac74-159f06c25aff"},"vehicle_type_id":"4","last_reported":1702818451,"current_range_meters":9200,"station_id":"ce4bgs12rcd13ifvqcag","pricing_plan_id":"free"},{"bike_id":"c0ed2464-5430-43ac-9b88-187c5a35632b","system_id":"levelo_inurba_marseille","lat":43.305368,"lon":5.367343,"is_reserved":false,"is_disabled":false,"rental_uris":{"android":"levelo://app?vid=c0ed2464-5430-43ac-9b88-187c5a35632b","ios":"levelo://app?vid=c0ed2464-5430-43ac-9b88-187c5a35632b"},"vehicle_type_id":"4","last_reported":1702818451,"current_range_meters":6400,"station_id":"ce4bgrp2rcd13ifvqc9g","pricing_plan_id":"free"},{"bike_id":"9dab3c2a-ee97-4b06-b711-8c0653971aa1","system_id":"levelo_inurba_marseille","lat":43.317075,"lon":5.377367,"is_reserved":false,"is_disabled":false,"rental_uris":{"android":"levelo://app?vid=9dab3c2a-ee97-4b06-b711-8c0653971aa1","ios":"levelo://app?vid=9dab3c2a-ee97-4b06-b711-8c0653971aa1"},"vehicle_type_id":"4","last_reported":1702818451,"current_range_meters":30000,"station_id":"ce4bgth2rcd13ifvqch0","pricing_plan_id":"free"},{"bike_id":"88f7ea2a-62f7-4a88-9e9d-900940b4d7e5","system_id":"levelo_inurba_marseille","lat":43.324771,"lon":5.36557,"is_reserved":false,"is_disabled":false,"rental_uris":{"android":"levelo://app?vid=88f7ea2a-62f7-4a88-9e9d-900940b4d7e5","ios":"levelo://app?vid=88f7ea2a-62f7-4a88-9e9d-900940b4d7e5"},"vehicle_type_id":"4","last_reported":1702818451,"current_range_meters":28800,"station_id":"ce4bhs12rcd13ifvqhvg","pricing_plan_id":"free"},{"bike_id":"cb269842-24eb-4ae3-ba6d-e7992618c7d9","system_id":"levelo_inurba_marseille","lat":43.30143,"lon":5.37413,"is_reserved":false,"is_disabled":false,"rental_uris":{"android":"levelo://app?vid=cb269842-24eb-4ae3-ba6d-e7992618c7d9","ios":"levelo://app?vid=cb269842-24eb-4ae3-ba6d-e7992618c7d9"},"vehicle_type_id":"4","last_reported":1702818451,"current_range_meters":17600,"station_id":"ce4bgs92rcd13ifvqcc0","pricing_plan_id":"free"},{"bike_id":"40647d9f-c8a2-4601-bd4d-9838d992bf33","system_id":"levelo_inurba_marseille","lat":43.301429,"lon":5.37413,"is_reserved":false,"is_disabled":false,"rental_uris":{"android":"levelo://app?vid=40647d9f-c8a2-4601-bd4d-9838d992bf33","ios":"levelo://app?vid=40647d9f-c8a2-4601-bd4d-9838d992bf33"},"vehicle_type_id":"4","last_reported":1702818451,"current_range_meters":31200,"station_id":"ce4bgs92rcd13ifvqcc0","pricing_plan_id":"free"},{"bike_id":"dd62cb3a-3f08-44cf-8561-0c89ff17ac35","system_id":"levelo_inurba_marseille","lat":43.313621,"lon":5.384735,"is_reserved":false,"is_disabled":false,"rental_uris":{"android":"levelo://app?vid=dd62cb3a-3f08-44cf-8561-0c89ff17ac35","ios":"levelo://app?vid=dd62cb3a-3f08-44cf-8561-0c89ff17ac35"},"vehicle_type_id":"4","last_reported":1702818451,"current_range_meters":16800,"station_id":"ce4bgt92rcd13ifvqcf0","pricing_plan_id":"free"},{"bike_id":"2d6f4b71-1451-43d7-8d2b-da50b9b2fa06","system_id":"levelo_inurba_marseille","lat":43.29933,"lon":5.36557,"is_reserved":false,"is_disabled":false,"rental_uris":{"android":"levelo://app?vid=2d6f4b71-1451-43d7-8d2b-da50b9b2fa06","ios":"levelo://app?vid=2d6f4b71-1451-43d7-8d2b-da50b9b2fa06"},"vehicle_type_id":"4","last_reported":1702818451,"current_range_meters":24800,"station_id":"ce4bgm92rcd13ifvqbr0","pricing_plan_id":"free"},{"bike_id":"7040d934-75a1-4191-b8e4-74e0a6667847","system_id":"levelo_inurba_marseille","lat":43.299724,"lon":5.371829,"is_reserved":false,"is_disabled":false,"rental_uris":{"android":"levelo://app?vid=7040d934-75a1-4191-b8e4-74e0a6667847","ios":"levelo://app?vid=7040d934-75a1-4191-b8e4-74e0a6667847"},"vehicle_type_id":"4","last_reported":1702818451,"current_range_meters":26000,"station_id":"ce4bgr92rcd13ifvqc7g","pricing_plan_id":"free"},{"bike_id":"f6b39348-9601-48ed-8fde-9a57ad4b1f75","system_id":"levelo_inurba_marseille","lat":43.29855,"lon":5.36288,"is_reserved":false,"is_disabled":false,"rental_uris":{"android":"levelo://app?vid=f6b39348-9601-48ed-8fde-9a57ad4b1f75","ios":"levelo://app?vid=f6b39348-9601-48ed-8fde-9a57ad4b1f75"},"vehicle_type_id":"4","last_reported":1702818451,"current_range_meters":28400,"station_id":"ce4bgpp2rcd13ifvqc3g","pricing_plan_id":"free"},{"bike_id":"819cb438-2e9c-4e0b-902b-5e19ef554d5c","system_id":"levelo_inurba_marseille","lat":43.30553,"lon":5.38423,"is_reserved":false,"is_disabled":false,"rental_uris":{"android":"levelo://app?vid=819cb438-2e9c-4e0b-902b-5e19ef554d5c","ios":"levelo://app?vid=819cb438-2e9c-4e0b-902b-5e19ef554d5c"},"vehicle_type_id":"4","last_reported":1702818451,"current_range_meters":11600,"station_id":"ce4bgg92rcd13ifvqb30","pricing_plan_id":"free"},{"bike_id":"c4e77394-aef9-4077-b745-e99148625344","system_id":"levelo_inurba_marseille","lat":43.32733,"lon":5.36707,"is_reserved":false,"is_disabled":false,"rental_uris":{"android":"levelo://app?vid=c4e77394-aef9-4077-b745-e99148625344","ios":"levelo://app?vid=c4e77394-aef9-4077-b745-e99148625344"},"vehicle_type_id":"4","last_reported":1702818451,"current_range_meters":18800,"station_id":"","pricing_plan_id":"free"},{"bike_id":"f0d4e4d4-81f4-450d-a34e-bd1612497eb8","system_id":"levelo_inurba_marseille","lat":43.299243,"lon":5.374807,"is_reserved":false,"is_disabled":false,"rental_uris":{"android":"levelo://app?vid=f0d4e4d4-81f4-450d-a34e-bd1612497eb8","ios":"levelo://app?vid=f0d4e4d4-81f4-450d-a34e-bd1612497eb8"},"vehicle_type_id":"4","last_reported":1702818451,"current_range_meters":30000,"station_id":"ce4bgjh2rcd13ifvqbg0","pricing_plan_id":"free"},{"bike_id":"6132e363-6fc3-45e3-87bf-fc40337a0436","system_id":"levelo_inurba_marseille","lat":43.322872,"lon":5.382756,"is_reserved":false,"is_disabled":false,"rental_uris":{"android":"levelo://app?vid=6132e363-6fc3-45e3-87bf-fc40337a0436","ios":"levelo://app?vid=6132e363-6fc3-45e3-87bf-fc40337a0436"},"vehicle_type_id":"4","last_reported":1702818451,"current_range_meters":29200,"station_id":"ce4bhr12rcd13ifvqhqg","pricing_plan_id":"free"},{"bike_id":"d552ebbe-3535-4233-b783-27841fdde344","system_id":"levelo_inurba_marseille","lat":43.32823,"lon":5.3667,"is_reserved":false,"is_disabled":false,"rental_uris":{"android":"levelo://app?vid=d552ebbe-3535-4233-b783-27841fdde344","ios":"levelo://app?vid=d552ebbe-3535-4233-b783-27841fdde344"},"vehicle_type_id":"4","last_reported":1702818451,"current_range_meters":30800,"station_id":"ce4bhs92rcd13ifvqi0g","pricing_plan_id":"free"},{"bike_id":"f1491da4-2f54-4445-8640-37b7b5e9b0bd","system_id":"levelo_inurba_marseille","lat":43.32829,"lon":5.36676,"is_reserved":false,"is_disabled":false,"rental_uris":{"android":"levelo://app?vid=f1491da4-2f54-4445-8640-37b7b5e9b0bd","ios":"levelo://app?vid=f1491da4-2f54-4445-8640-37b7b5e9b0bd"},"vehicle_type_id":"4","last_reported":1702818451,"current_range_meters":29600,"station_id":"ce4bhs92rcd13ifvqi0g","pricing_plan_id":"free"},{"bike_id":"f23a2580-db37-4275-b92e-1ed5c0a4ece4","system_id":"levelo_inurba_marseille","lat":43.3283,"lon":5.36691,"is_reserved":false,"is_disabled":false,"rental_uris":{"android":"levelo://app?vid=f23a2580-db37-4275-b92e-1ed5c0a4ece4","ios":"levelo://app?vid=f23a2580-db37-4275-b92e-1ed5c0a4ece4"},"vehicle_type_id":"4","last_reported":1702818451,"current_range_meters":14400,"station_id":"ce4bhs92rcd13ifvqi0g","pricing_plan_id":"free"},{"bike_id":"e6338912-842e-4062-8f0a-b42e3ff31b4e","system_id":"levelo_inurba_marseille","lat":43.297163,"lon":5.365866,"is_reserved":false,"is_disabled":false,"rental_uris":{"android":"levelo://app?vid=e6338912-842e-4062-8f0a-b42e3ff31b4e","ios":"levelo://app?vid=e6338912-842e-4062-8f0a-b42e3ff31b4e"},"vehicle_type_id":"4","last_reported":1702818451,"current_range_meters":31200,"station_id":"ce4bgn12rcd13ifvqbt0","pricing_plan_id":"free"},{"bike_id":"257e2c60-5deb-4d9a-9e2e-c2fc09067537","system_id":"levelo_inurba_marseille","lat":43.328343,"lon":5.36674,"is_reserved":false,"is_disabled":false,"rental_uris":{"android":"levelo://app?vid=257e2c60-5deb-4d9a-9e2e-c2fc09067537","ios":"levelo://app?vid=257e2c60-5deb-4d9a-9e2e-c2fc09067537"},"vehicle_type_id":"4","last_reported":1702818451,"current_range_meters":14800,"station_id":"ce4bhs92rcd13ifvqi0g","pricing_plan_id":"free"},{"bike_id":"f62ed35d-f72c-48e1-8aa1-ec37f9c09b0d","system_id":"levelo_inurba_marseille","lat":43.29573,"lon":5.367355,"is_reserved":false,"is_disabled":false,"rental_uris":{"android":"levelo://app?vid=f62ed35d-f72c-48e1-8aa1-ec37f9c09b0d","ios":"levelo://app?vid=f62ed35d-f72c-48e1-8aa1-ec37f9c09b0d"},"vehicle_type_id":"4","last_reported":1702818451,"current_range_meters":28400,"station_id":"ce4bgph2rcd13ifvqc2g","pricing_plan_id":"free"},{"bike_id":"e3bc7823-daa6-4da0-a2e9-cdebb0ce022e","system_id":"levelo_inurba_marseille","lat":43.296129,"lon":5.370777,"is_reserved":false,"is_disabled":false,"rental_uris":{"android":"levelo://app?vid=e3bc7823-daa6-4da0-a2e9-cdebb0ce022e","ios":"levelo://app?vid=e3bc7823-daa6-4da0-a2e9-cdebb0ce022e"},"vehicle_type_id":"4","last_reported":1702818451,"current_range_meters":20800,"station_id":"ce4bgnh2rcd13ifvqc0g","pricing_plan_id":"free"},{"bike_id":"0aa56e62-437d-48ef-b6a8-24d497e3755f","system_id":"levelo_inurba_marseille","lat":43.296129,"lon":5.370777,"is_reserved":false,"is_disabled":false,"rental_uris":{"android":"levelo://app?vid=0aa56e62-437d-48ef-b6a8-24d497e3755f","ios":"levelo://app?vid=0aa56e62-437d-48ef-b6a8-24d497e3755f"},"vehicle_type_id":"4","last_reported":1702818451,"current_range_meters":13200,"station_id":"ce4bgnh2rcd13ifvqc0g","pricing_plan_id":"free"},{"bike_id":"2e4327a4-5c68-42c9-a75e-2a5f9b2ba77b","system_id":"levelo_inurba_marseille","lat":43.317557,"lon":5.390173,"is_reserved":false,"is_disabled":false,"rental_uris":{"android":"levelo://app?vid=2e4327a4-5c68-42c9-a75e-2a5f9b2ba77b","ios":"levelo://app?vid=2e4327a4-5c68-42c9-a75e-2a5f9b2ba77b"},"vehicle_type_id":"4","last_reported":1702818451,"current_range_meters":31200,"station_id":"ce4bhqp2rcd13ifvqhng","pricing_plan_id":"free"},{"bike_id":"96338063-d4e8-4677-8586-b8cae53848d0","system_id":"levelo_inurba_marseille","lat":43.317557,"lon":5.390173,"is_reserved":false,"is_disabled":false,"rental_uris":{"android":"levelo://app?vid=96338063-d4e8-4677-8586-b8cae53848d0","ios":"levelo://app?vid=96338063-d4e8-4677-8586-b8cae53848d0"},"vehicle_type_id":"4","last_reported":1702818451,"current_range_meters":30000,"station_id":"ce4bhqp2rcd13ifvqhng","pricing_plan_id":"free"},{"bike_id":"668278d5-fd65-4d95-8d32-ef2280501078","system_id":"levelo_inurba_marseille","lat":43.317557,"lon":5.390173,"is_reserved":false,"is_disabled":false,"rental_uris":{"android":"levelo://app?vid=668278d5-fd65-4d95-8d32-ef2280501078","ios":"levelo://app?vid=668278d5-fd65-4d95-8d32-ef2280501078"},"vehicle_type_id":"4","last_reported":1702818451,"current_range_meters":30400,"station_id":"ce4bhqp2rcd13ifvqhng","pricing_plan_id":"free"},{"bike_id":"55099a0b-1127-42ee-85a1-4179bc56598f","system_id":"levelo_inurba_marseille","lat":43.295748,"lon":5.37522,"is_reserved":false,"is_disabled":false,"rental_uris":{"android":"levelo://app?vid=55099a0b-1127-42ee-85a1-4179bc56598f","ios":"levelo://app?vid=55099a0b-1127-42ee-85a1-4179bc56598f"},"vehicle_type_id":"4","last_reported":1702818451,"current_range_meters":6000,"station_id":"ce4bgh92rcd13ifvqb50","pricing_plan_id":"free"},{"bike_id":"e4184384-e525-4c79-9ee4-49e1bd7e9a8c","system_id":"levelo_inurba_marseille","lat":43.304274,"lon":5.388873,"is_reserved":false,"is_disabled":false,"rental_uris":{"android":"levelo://app?vid=e4184384-e525-4c79-9ee4-49e1bd7e9a8c","ios":"levelo://app?vid=e4184384-e525-4c79-9ee4-49e1bd7e9a8c"},"vehicle_type_id":"4","last_reported":1702818451,"current_range_meters":1600,"station_id":"ce4bgk12rcd13ifvqbi0","pricing_plan_id":"free"},{"bike_id":"dc7ce044-7ee3-4c2e-84a7-38e8a422d047","system_id":"levelo_inurba_marseille","lat":43.304278,"lon":5.388868,"is_reserved":false,"is_disabled":false,"rental_uris":{"android":"levelo://app?vid=dc7ce044-7ee3-4c2e-84a7-38e8a422d047","ios":"levelo://app?vid=dc7ce044-7ee3-4c2e-84a7-38e8a422d047"},"vehicle_type_id":"4","last_reported":1702818451,"current_range_meters":10800,"station_id":"ce4bgk12rcd13ifvqbi0","pricing_plan_id":"free"},{"bike_id":"da2bf830-8371-4987-8296-d78e324a9b5b","system_id":"levelo_inurba_marseille","lat":43.29654,"lon":5.37967,"is_reserved":false,"is_disabled":false,"rental_uris":{"android":"levelo://app?vid=da2bf830-8371-4987-8296-d78e324a9b5b","ios":"levelo://app?vid=da2bf830-8371-4987-8296-d78e324a9b5b"},"vehicle_type_id":"4","last_reported":1702818451,"current_range_meters":0,"station_id":"","pricing_plan_id":"free"},{"bike_id":"7ff21894-2f32-4658-85e2-91c4f4d495d4","system_id":"levelo_inurba_marseille","lat":43.32363,"lon":5.3888,"is_reserved":false,"is_disabled":false,"rental_uris":{"android":"levelo://app?vid=7ff21894-2f32-4658-85e2-91c4f4d495d4","ios":"levelo://app?vid=7ff21894-2f32-4658-85e2-91c4f4d495d4"},"vehicle_type_id":"4","last_reported":1702818451,"current_range_meters":30800,"station_id":"ce4bhqp2rcd13ifvqhog","pricing_plan_id":"free"},{"bike_id":"0e61604e-ca81-4b78-9d65-8bef1168f25b","system_id":"levelo_inurba_marseille","lat":43.293259,"lon":5.371586,"is_reserved":false,"is_disabled":false,"rental_uris":{"android":"levelo://app?vid=0e61604e-ca81-4b78-9d65-8bef1168f25b","ios":"levelo://app?vid=0e61604e-ca81-4b78-9d65-8bef1168f25b"},"vehicle_type_id":"4","last_reported":1702818451,"current_range_meters":24800,"station_id":"ce4bgh92rcd13ifvqb40","pricing_plan_id":"free"},{"bike_id":"019eb6a2-1033-4f74-905c-564c7c88b8be","system_id":"levelo_inurba_marseille","lat":43.293259,"lon":5.371586,"is_reserved":false,"is_disabled":false,"rental_uris":{"android":"levelo://app?vid=019eb6a2-1033-4f74-905c-564c7c88b8be","ios":"levelo://app?vid=019eb6a2-1033-4f74-905c-564c7c88b8be"},"vehicle_type_id":"4","last_reported":1702818451,"current_range_meters":17600,"station_id":"ce4bgh92rcd13ifvqb40","pricing_plan_id":"free"},{"bike_id":"3ff30fd8-e8f8-4dc1-b29d-9a6bda67cd7f","system_id":"levelo_inurba_marseille","lat":43.2927,"lon":5.36853,"is_reserved":false,"is_disabled":false,"rental_uris":{"android":"levelo://app?vid=3ff30fd8-e8f8-4dc1-b29d-9a6bda67cd7f","ios":"levelo://app?vid=3ff30fd8-e8f8-4dc1-b29d-9a6bda67cd7f"},"vehicle_type_id":"4","last_reported":1702818451,"current_range_meters":4800,"station_id":"ce4bhbp2rcd13ifvqesg","pricing_plan_id":"free"},{"bike_id":"0110dfb9-e503-4bd1-9886-184ec67e0b97","system_id":"levelo_inurba_marseille","lat":43.305994,"lon":5.393687,"is_reserved":false,"is_disabled":false,"rental_uris":{"android":"levelo://app?vid=0110dfb9-e503-4bd1-9886-184ec67e0b97","ios":"levelo://app?vid=0110dfb9-e503-4bd1-9886-184ec67e0b97"},"vehicle_type_id":"4","last_reported":1702818451,"current_range_meters":0,"station_id":"ce4bh0p2rcd13ifvqd80","pricing_plan_id":"free"},{"bike_id":"4eca55f1-4319-4130-b47c-f862f73f9d0f","system_id":"levelo_inurba_marseille","lat":43.30591,"lon":5.39358,"is_reserved":false,"is_disabled":false,"rental_uris":{"android":"levelo://app?vid=4eca55f1-4319-4130-b47c-f862f73f9d0f","ios":"levelo://app?vid=4eca55f1-4319-4130-b47c-f862f73f9d0f"},"vehicle_type_id":"4","last_reported":1702818451,"current_range_meters":24400,"station_id":"ce4bh0p2rcd13ifvqd80","pricing_plan_id":"free"},{"bike_id":"722bb14e-ee0e-43ce-9a45-7a823947edd8","system_id":"levelo_inurba_marseille","lat":43.29362,"lon":5.37846,"is_reserved":false,"is_disabled":false,"rental_uris":{"android":"levelo://app?vid=722bb14e-ee0e-43ce-9a45-7a823947edd8","ios":"levelo://app?vid=722bb14e-ee0e-43ce-9a45-7a823947edd8"},"vehicle_type_id":"4","last_reported":1702818451,"current_range_meters":0,"station_id":"ce4bgjh2rcd13ifvqbf0","pricing_plan_id":"free"},{"bike_id":"52bf2539-f32b-4d38-844c-fb8402b583a8","system_id":"levelo_inurba_marseille","lat":43.29274,"lon":5.37627,"is_reserved":false,"is_disabled":false,"rental_uris":{"android":"levelo://app?vid=52bf2539-f32b-4d38-844c-fb8402b583a8","ios":"levelo://app?vid=52bf2539-f32b-4d38-844c-fb8402b583a8"},"vehicle_type_id":"4","last_reported":1702818451,"current_range_meters":18000,"station_id":"","pricing_plan_id":"free"},{"bike_id":"4944102e-4c60-4e5e-aa45-624b72776c8d","system_id":"levelo_inurba_marseille","lat":43.291994,"lon":5.357886,"is_reserved":false,"is_disabled":false,"rental_uris":{"android":"levelo://app?vid=4944102e-4c60-4e5e-aa45-624b72776c8d","ios":"levelo://app?vid=4944102e-4c60-4e5e-aa45-624b72776c8d"},"vehicle_type_id":"4","last_reported":1702818451,"current_range_meters":23600,"station_id":"ce4bhb12rcd13ifvqel0","pricing_plan_id":"free"},{"bike_id":"94eca779-ed14-44d9-970e-518ed42def9e","system_id":"levelo_inurba_marseille","lat":43.29197,"lon":5.35795,"is_reserved":false,"is_disabled":false,"rental_uris":{"android":"levelo://app?vid=94eca779-ed14-44d9-970e-518ed42def9e","ios":"levelo://app?vid=94eca779-ed14-44d9-970e-518ed42def9e"},"vehicle_type_id":"4","last_reported":1702818451,"current_range_meters":21200,"station_id":"ce4bhb12rcd13ifvqel0","pricing_plan_id":"free"},{"bike_id":"e851d912-72ab-4301-92e1-a4e6c2270e79","system_id":"levelo_inurba_marseille","lat":43.309047,"lon":5.396551,"is_reserved":false,"is_disabled":false,"rental_uris":{"android":"levelo://app?vid=e851d912-72ab-4301-92e1-a4e6c2270e79","ios":"levelo://app?vid=e851d912-72ab-4301-92e1-a4e6c2270e79"},"vehicle_type_id":"4","last_reported":1702818451,"current_range_meters":26400,"station_id":"ce4bh012rcd13ifvqcv0","pricing_plan_id":"free"},{"bike_id":"38e984e0-147a-42ff-a9a2-fd71ac8f5757","system_id":"levelo_inurba_marseille","lat":43.290684,"lon":5.37167,"is_reserved":false,"is_disabled":false,"rental_uris":{"android":"levelo://app?vid=38e984e0-147a-42ff-a9a2-fd71ac8f5757","ios":"levelo://app?vid=38e984e0-147a-42ff-a9a2-fd71ac8f5757"},"vehicle_type_id":"4","last_reported":1702818451,"current_range_meters":26000,"station_id":"","pricing_plan_id":"free"},{"bike_id":"6174b231-16d4-46e7-8c25-1b3a41caef03","system_id":"levelo_inurba_marseille","lat":43.290624,"lon":5.359245,"is_reserved":false,"is_disabled":false,"rental_uris":{"android":"levelo://app?vid=6174b231-16d4-46e7-8c25-1b3a41caef03","ios":"levelo://app?vid=6174b231-16d4-46e7-8c25-1b3a41caef03"},"vehicle_type_id":"4","last_reported":1702818451,"current_range_meters":8400,"station_id":"ce4bha92rcd13ifvqeg0","pricing_plan_id":"free"},{"bike_id":"5bf3f913-387d-46f4-9ac4-6658fdb6bf9d","system_id":"levelo_inurba_marseille","lat":43.290327,"lon":5.375711,"is_reserved":false,"is_disabled":false,"rental_uris":{"android":"levelo://app?vid=5bf3f913-387d-46f4-9ac4-6658fdb6bf9d","ios":"levelo://app?vid=5bf3f913-387d-46f4-9ac4-6658fdb6bf9d"},"vehicle_type_id":"4","last_reported":1702818451,"current_range_meters":400,"station_id":"ce4bh692rcd13ifvqe90","pricing_plan_id":"free"},{"bike_id":"7c59eb27-a78f-496a-9730-ab86f3c09cf5","system_id":"levelo_inurba_marseille","lat":43.294162,"lon":5.386292,"is_reserved":false,"is_disabled":false,"rental_uris":{"android":"levelo://app?vid=7c59eb27-a78f-496a-9730-ab86f3c09cf5","ios":"levelo://app?vid=7c59eb27-a78f-496a-9730-ab86f3c09cf5"},"vehicle_type_id":"4","last_reported":1702818451,"current_range_meters":20000,"station_id":"ce4bh2h2rcd13ifvqdh0","pricing_plan_id":"free"},{"bike_id":"0a3f26d2-e687-403e-82cc-0307221f7dd6","system_id":"levelo_inurba_marseille","lat":43.289184,"lon":5.366408,"is_reserved":false,"is_disabled":false,"rental_uris":{"android":"levelo://app?vid=0a3f26d2-e687-403e-82cc-0307221f7dd6","ios":"levelo://app?vid=0a3f26d2-e687-403e-82cc-0307221f7dd6"},"vehicle_type_id":"4","last_reported":1702818451,"current_range_meters":9200,"station_id":"ce4bhap2rcd13ifvqek0","pricing_plan_id":"free"},{"bike_id":"2abb199e-dea9-4e62-b0e9-66a8687e90c7","system_id":"levelo_inurba_marseille","lat":43.289184,"lon":5.366408,"is_reserved":false,"is_disabled":false,"rental_uris":{"android":"levelo://app?vid=2abb199e-dea9-4e62-b0e9-66a8687e90c7","ios":"levelo://app?vid=2abb199e-dea9-4e62-b0e9-66a8687e90c7"},"vehicle_type_id":"4","last_reported":1702818451,"current_range_meters":27200,"station_id":"ce4bhap2rcd13ifvqek0","pricing_plan_id":"free"},{"bike_id":"9747aaef-bc5a-472c-b5dc-caa5849aa78c","system_id":"levelo_inurba_marseille","lat":43.289184,"lon":5.366408,"is_reserved":false,"is_disabled":false,"rental_uris":{"android":"levelo://app?vid=9747aaef-bc5a-472c-b5dc-caa5849aa78c","ios":"levelo://app?vid=9747aaef-bc5a-472c-b5dc-caa5849aa78c"},"vehicle_type_id":"4","last_reported":1702818451,"current_range_meters":15600,"station_id":"ce4bhap2rcd13ifvqek0","pricing_plan_id":"free"},{"bike_id":"60100ea2-2819-4d44-a79a-6321ebe17905","system_id":"levelo_inurba_marseille","lat":43.290104,"lon":5.356111,"is_reserved":false,"is_disabled":false,"rental_uris":{"android":"levelo://app?vid=60100ea2-2819-4d44-a79a-6321ebe17905","ios":"levelo://app?vid=60100ea2-2819-4d44-a79a-6321ebe17905"},"vehicle_type_id":"4","last_reported":1702818451,"current_range_meters":28000,"station_id":"ce4bhb92rcd13ifvqen0","pricing_plan_id":"free"},{"bike_id":"3e16b51d-dbaa-402b-b252-cffc86327960","system_id":"levelo_inurba_marseille","lat":43.290104,"lon":5.356111,"is_reserved":false,"is_disabled":false,"rental_uris":{"android":"levelo://app?vid=3e16b51d-dbaa-402b-b252-cffc86327960","ios":"levelo://app?vid=3e16b51d-dbaa-402b-b252-cffc86327960"},"vehicle_type_id":"4","last_reported":1702818451,"current_range_meters":10800,"station_id":"ce4bhb92rcd13ifvqen0","pricing_plan_id":"free"},{"bike_id":"e902b428-eeb7-4c74-9f16-cf9b87b152ba","system_id":"levelo_inurba_marseille","lat":43.290104,"lon":5.356111,"is_reserved":false,"is_disabled":false,"rental_uris":{"android":"levelo://app?vid=e902b428-eeb7-4c74-9f16-cf9b87b152ba","ios":"levelo://app?vid=e902b428-eeb7-4c74-9f16-cf9b87b152ba"},"vehicle_type_id":"4","last_reported":1702818451,"current_range_meters":24800,"station_id":"ce4bhb92rcd13ifvqen0","pricing_plan_id":"free"},{"bike_id":"ad0f6538-ba65-40b7-bd35-329a98101cc1","system_id":"levelo_inurba_marseille","lat":43.29014,"lon":5.35521,"is_reserved":false,"is_disabled":false,"rental_uris":{"android":"levelo://app?vid=ad0f6538-ba65-40b7-bd35-329a98101cc1","ios":"levelo://app?vid=ad0f6538-ba65-40b7-bd35-329a98101cc1"},"vehicle_type_id":"4","last_reported":1702818451,"current_range_meters":6800,"station_id":"","pricing_plan_id":"free"},{"bike_id":"acb896e0-2e9e-437c-ae54-1e30b79eeba2","system_id":"levelo_inurba_marseille","lat":43.289741,"lon":5.378306,"is_reserved":false,"is_disabled":false,"rental_uris":{"android":"levelo://app?vid=acb896e0-2e9e-437c-ae54-1e30b79eeba2","ios":"levelo://app?vid=acb896e0-2e9e-437c-ae54-1e30b79eeba2"},"vehicle_type_id":"4","last_reported":1702818451,"current_range_meters":0,"station_id":"ce4bh9p2rcd13ifvqed0","pricing_plan_id":"free"},{"bike_id":"4a654c57-3008-4f1d-add9-c1ca56dbb09e","system_id":"levelo_inurba_marseille","lat":43.28856,"lon":5.358371,"is_reserved":false,"is_disabled":false,"rental_uris":{"android":"levelo://app?vid=4a654c57-3008-4f1d-add9-c1ca56dbb09e","ios":"levelo://app?vid=4a654c57-3008-4f1d-add9-c1ca56dbb09e"},"vehicle_type_id":"4","last_reported":1702818451,"current_range_meters":27600,"station_id":"ce4bhb12rcd13ifvqem0","pricing_plan_id":"free"},{"bike_id":"f0cd831c-cfb9-44c7-9487-103b6df223ca","system_id":"levelo_inurba_marseille","lat":43.337445,"lon":5.374592,"is_reserved":false,"is_disabled":false,"rental_uris":{"android":"levelo://app?vid=f0cd831c-cfb9-44c7-9487-103b6df223ca","ios":"levelo://app?vid=f0cd831c-cfb9-44c7-9487-103b6df223ca"},"vehicle_type_id":"4","last_reported":1702818451,"current_range_meters":25200,"station_id":"","pricing_plan_id":"free"},{"bike_id":"ef80ceab-dc9f-4b6c-8f52-707d5177f481","system_id":"levelo_inurba_marseille","lat":43.33752,"lon":5.37466,"is_reserved":false,"is_disabled":false,"rental_uris":{"android":"levelo://app?vid=ef80ceab-dc9f-4b6c-8f52-707d5177f481","ios":"levelo://app?vid=ef80ceab-dc9f-4b6c-8f52-707d5177f481"},"vehicle_type_id":"4","last_reported":1702818451,"current_range_meters":24800,"station_id":"","pricing_plan_id":"free"},{"bike_id":"d4127a52-9feb-44f7-b110-e5063eb81648","system_id":"levelo_inurba_marseille","lat":43.306412,"lon":5.401035,"is_reserved":false,"is_disabled":false,"rental_uris":{"android":"levelo://app?vid=d4127a52-9feb-44f7-b110-e5063eb81648","ios":"levelo://app?vid=d4127a52-9feb-44f7-b110-e5063eb81648"},"vehicle_type_id":"4","last_reported":1702818451,"current_range_meters":27600,"station_id":"ce4bh112rcd13ifvqda0","pricing_plan_id":"free"},{"bike_id":"74029e47-c92e-4a09-93e2-966e816bf173","system_id":"levelo_inurba_marseille","lat":43.3376,"lon":5.37468,"is_reserved":false,"is_disabled":false,"rental_uris":{"android":"levelo://app?vid=74029e47-c92e-4a09-93e2-966e816bf173","ios":"levelo://app?vid=74029e47-c92e-4a09-93e2-966e816bf173"},"vehicle_type_id":"4","last_reported":1702818451,"current_range_meters":28800,"station_id":"","pricing_plan_id":"free"},{"bike_id":"c2045420-022e-4e47-a9ca-b416c1a9d12b","system_id":"levelo_inurba_marseille","lat":43.28727,"lon":5.36078,"is_reserved":false,"is_disabled":false,"rental_uris":{"android":"levelo://app?vid=c2045420-022e-4e47-a9ca-b416c1a9d12b","ios":"levelo://app?vid=c2045420-022e-4e47-a9ca-b416c1a9d12b"},"vehicle_type_id":"4","last_reported":1702818451,"current_range_meters":9200,"station_id":"cki0cbj6b192h4jlfktg","pricing_plan_id":"free"},{"bike_id":"b15314e6-6078-47b6-99d6-e6bf68abb5eb","system_id":"levelo_inurba_marseille","lat":43.290345,"lon":5.38646,"is_reserved":false,"is_disabled":false,"rental_uris":{"android":"levelo://app?vid=b15314e6-6078-47b6-99d6-e6bf68abb5eb","ios":"levelo://app?vid=b15314e6-6078-47b6-99d6-e6bf68abb5eb"},"vehicle_type_id":"4","last_reported":1702818451,"current_range_meters":28800,"station_id":"ce4bh4p2rcd13ifvqe0g","pricing_plan_id":"free"},{"bike_id":"9e0be834-323a-4ba8-8c9d-d1e2f581dbd8","system_id":"levelo_inurba_marseille","lat":43.286961,"lon":5.373785,"is_reserved":false,"is_disabled":false,"rental_uris":{"android":"levelo://app?vid=9e0be834-323a-4ba8-8c9d-d1e2f581dbd8","ios":"levelo://app?vid=9e0be834-323a-4ba8-8c9d-d1e2f581dbd8"},"vehicle_type_id":"4","last_reported":1702818451,"current_range_meters":30400,"station_id":"ce4bh3p2rcd13ifvqdq0","pricing_plan_id":"free"},{"bike_id":"b2695933-7da7-41d7-951a-a2e6349ffe83","system_id":"levelo_inurba_marseille","lat":43.286039,"lon":5.370679,"is_reserved":false,"is_disabled":false,"rental_uris":{"android":"levelo://app?vid=b2695933-7da7-41d7-951a-a2e6349ffe83","ios":"levelo://app?vid=b2695933-7da7-41d7-951a-a2e6349ffe83"},"vehicle_type_id":"4","last_reported":1702818451,"current_range_meters":23600,"station_id":"ce4bht12rcd13ifvqi60","pricing_plan_id":"free"},{"bike_id":"d1cd8feb-db91-44da-bb66-3f62d0e15132","system_id":"levelo_inurba_marseille","lat":43.28617,"lon":5.35111,"is_reserved":false,"is_disabled":false,"rental_uris":{"android":"levelo://app?vid=d1cd8feb-db91-44da-bb66-3f62d0e15132","ios":"levelo://app?vid=d1cd8feb-db91-44da-bb66-3f62d0e15132"},"vehicle_type_id":"4","last_reported":1702818451,"current_range_meters":30400,"station_id":"ce4bhch2rcd13ifvqeug","pricing_plan_id":"free"},{"bike_id":"dbbcfc5c-cf6c-408e-8923-f6dd32bfe925","system_id":"levelo_inurba_marseille","lat":43.286155,"lon":5.351077,"is_reserved":false,"is_disabled":false,"rental_uris":{"android":"levelo://app?vid=dbbcfc5c-cf6c-408e-8923-f6dd32bfe925","ios":"levelo://app?vid=dbbcfc5c-cf6c-408e-8923-f6dd32bfe925"},"vehicle_type_id":"4","last_reported":1702818451,"current_range_meters":29600,"station_id":"ce4bhch2rcd13ifvqeug","pricing_plan_id":"free"},{"bike_id":"cd8f93e4-72fe-4206-8f7b-f30389dbea56","system_id":"levelo_inurba_marseille","lat":43.286155,"lon":5.351077,"is_reserved":false,"is_disabled":false,"rental_uris":{"android":"levelo://app?vid=cd8f93e4-72fe-4206-8f7b-f30389dbea56","ios":"levelo://app?vid=cd8f93e4-72fe-4206-8f7b-f30389dbea56"},"vehicle_type_id":"4","last_reported":1702818451,"current_range_meters":30000,"station_id":"ce4bhch2rcd13ifvqeug","pricing_plan_id":"free"},{"bike_id":"cc9ffdb4-6974-45b2-a786-ac131d1643a3","system_id":"levelo_inurba_marseille","lat":43.286148,"lon":5.351088,"is_reserved":false,"is_disabled":false,"rental_uris":{"android":"levelo://app?vid=cc9ffdb4-6974-45b2-a786-ac131d1643a3","ios":"levelo://app?vid=cc9ffdb4-6974-45b2-a786-ac131d1643a3"},"vehicle_type_id":"4","last_reported":1702818451,"current_range_meters":25200,"station_id":"","pricing_plan_id":"free"},{"bike_id":"110113df-0204-4e1d-ab2e-16374e5a4d9d","system_id":"levelo_inurba_marseille","lat":43.285848,"lon":5.350787,"is_reserved":false,"is_disabled":false,"rental_uris":{"android":"levelo://app?vid=110113df-0204-4e1d-ab2e-16374e5a4d9d","ios":"levelo://app?vid=110113df-0204-4e1d-ab2e-16374e5a4d9d"},"vehicle_type_id":"4","last_reported":1702818451,"current_range_meters":31200,"station_id":"ce4bhch2rcd13ifvqeug","pricing_plan_id":"free"},{"bike_id":"6f5b8df9-1e67-4481-9355-0d4845c19051","system_id":"levelo_inurba_marseille","lat":43.286148,"lon":5.351078,"is_reserved":false,"is_disabled":false,"rental_uris":{"android":"levelo://app?vid=6f5b8df9-1e67-4481-9355-0d4845c19051","ios":"levelo://app?vid=6f5b8df9-1e67-4481-9355-0d4845c19051"},"vehicle_type_id":"4","last_reported":1702818451,"current_range_meters":30000,"station_id":"","pricing_plan_id":"free"},{"bike_id":"06c53bbb-8e57-4d9e-bb09-eb1dc190f713","system_id":"levelo_inurba_marseille","lat":43.285848,"lon":5.350787,"is_reserved":false,"is_disabled":false,"rental_uris":{"android":"levelo://app?vid=06c53bbb-8e57-4d9e-bb09-eb1dc190f713","ios":"levelo://app?vid=06c53bbb-8e57-4d9e-bb09-eb1dc190f713"},"vehicle_type_id":"4","last_reported":1702818451,"current_range_meters":25200,"station_id":"ce4bhch2rcd13ifvqeug","pricing_plan_id":"free"},{"bike_id":"d746ebdc-31b0-411a-86af-fccb885bb976","system_id":"levelo_inurba_marseille","lat":43.286143,"lon":5.351079,"is_reserved":false,"is_disabled":false,"rental_uris":{"android":"levelo://app?vid=d746ebdc-31b0-411a-86af-fccb885bb976","ios":"levelo://app?vid=d746ebdc-31b0-411a-86af-fccb885bb976"},"vehicle_type_id":"4","last_reported":1702818451,"current_range_meters":25200,"station_id":"","pricing_plan_id":"free"},{"bike_id":"d1234acc-5bed-41eb-be0a-8830a701fa7f","system_id":"levelo_inurba_marseille","lat":43.284217,"lon":5.349697,"is_reserved":false,"is_disabled":false,"rental_uris":{"android":"levelo://app?vid=d1234acc-5bed-41eb-be0a-8830a701fa7f","ios":"levelo://app?vid=d1234acc-5bed-41eb-be0a-8830a701fa7f"},"vehicle_type_id":"4","last_reported":1702818451,"current_range_meters":27200,"station_id":"ce4bhbh2rcd13ifvqepg","pricing_plan_id":"free"},{"bike_id":"2d398135-06d4-464e-8ad2-2b491b180f70","system_id":"levelo_inurba_marseille","lat":43.286144,"lon":5.35106,"is_reserved":false,"is_disabled":false,"rental_uris":{"android":"levelo://app?vid=2d398135-06d4-464e-8ad2-2b491b180f70","ios":"levelo://app?vid=2d398135-06d4-464e-8ad2-2b491b180f70"},"vehicle_type_id":"4","last_reported":1702818451,"current_range_meters":30800,"station_id":"","pricing_plan_id":"free"},{"bike_id":"089e989b-fd56-4d93-a73c-c22eee4a95b8","system_id":"levelo_inurba_marseille","lat":43.286112,"lon":5.35116,"is_reserved":false,"is_disabled":false,"rental_uris":{"android":"levelo://app?vid=089e989b-fd56-4d93-a73c-c22eee4a95b8","ios":"levelo://app?vid=089e989b-fd56-4d93-a73c-c22eee4a95b8"},"vehicle_type_id":"4","last_reported":1702818451,"current_range_meters":29600,"station_id":"","pricing_plan_id":"free"},{"bike_id":"44c570d9-7067-4282-8ca0-85019fc86979","system_id":"levelo_inurba_marseille","lat":43.285848,"lon":5.350787,"is_reserved":false,"is_disabled":false,"rental_uris":{"android":"levelo://app?vid=44c570d9-7067-4282-8ca0-85019fc86979","ios":"levelo://app?vid=44c570d9-7067-4282-8ca0-85019fc86979"},"vehicle_type_id":"4","last_reported":1702818451,"current_range_meters":25200,"station_id":"ce4bhch2rcd13ifvqeug","pricing_plan_id":"free"},{"bike_id":"625be37e-b713-40dd-b0c9-2e2df4712c8b","system_id":"levelo_inurba_marseille","lat":43.286133,"lon":5.351069,"is_reserved":false,"is_disabled":false,"rental_uris":{"android":"levelo://app?vid=625be37e-b713-40dd-b0c9-2e2df4712c8b","ios":"levelo://app?vid=625be37e-b713-40dd-b0c9-2e2df4712c8b"},"vehicle_type_id":"4","last_reported":1702818451,"current_range_meters":25200,"station_id":"ce4bhch2rcd13ifvqeug","pricing_plan_id":"free"},{"bike_id":"a942f512-654d-4777-b0f9-043535f7e17a","system_id":"levelo_inurba_marseille","lat":43.286129,"lon":5.351081,"is_reserved":false,"is_disabled":false,"rental_uris":{"android":"levelo://app?vid=a942f512-654d-4777-b0f9-043535f7e17a","ios":"levelo://app?vid=a942f512-654d-4777-b0f9-043535f7e17a"},"vehicle_type_id":"4","last_reported":1702818451,"current_range_meters":25200,"station_id":"","pricing_plan_id":"free"},{"bike_id":"2116278b-b79b-43b5-bea3-56fc6ffb2ccc","system_id":"levelo_inurba_marseille","lat":43.286119,"lon":5.351068,"is_reserved":false,"is_disabled":false,"rental_uris":{"android":"levelo://app?vid=2116278b-b79b-43b5-bea3-56fc6ffb2ccc","ios":"levelo://app?vid=2116278b-b79b-43b5-bea3-56fc6ffb2ccc"},"vehicle_type_id":"4","last_reported":1702818451,"current_range_meters":25200,"station_id":"ce4bhch2rcd13ifvqeug","pricing_plan_id":"free"},{"bike_id":"8596f2d2-e893-4d52-b9ab-94b0cfa2abb3","system_id":"levelo_inurba_marseille","lat":43.283998,"lon":5.375062,"is_reserved":false,"is_disabled":false,"rental_uris":{"android":"levelo://app?vid=8596f2d2-e893-4d52-b9ab-94b0cfa2abb3","ios":"levelo://app?vid=8596f2d2-e893-4d52-b9ab-94b0cfa2abb3"},"vehicle_type_id":"4","last_reported":1702818451,"current_range_meters":26400,"station_id":"ce4bh412rcd13ifvqds0","pricing_plan_id":"free"},{"bike_id":"2dfa5049-0e1b-4839-b5c3-156910a65dbd","system_id":"levelo_inurba_marseille","lat":43.33157,"lon":5.39807,"is_reserved":false,"is_disabled":false,"rental_uris":{"android":"levelo://app?vid=2dfa5049-0e1b-4839-b5c3-156910a65dbd","ios":"levelo://app?vid=2dfa5049-0e1b-4839-b5c3-156910a65dbd"},"vehicle_type_id":"4","last_reported":1702818451,"current_range_meters":6400,"station_id":"","pricing_plan_id":"free"},{"bike_id":"b1bba2b6-372d-49dd-b13b-1b4d710db23d","system_id":"levelo_inurba_marseille","lat":43.323464,"lon":5.406297,"is_reserved":false,"is_disabled":false,"rental_uris":{"android":"levelo://app?vid=b1bba2b6-372d-49dd-b13b-1b4d710db23d","ios":"levelo://app?vid=b1bba2b6-372d-49dd-b13b-1b4d710db23d"},"vehicle_type_id":"4","last_reported":1702818451,"current_range_meters":31200,"station_id":"ce4bhq92rcd13ifvqhjg","pricing_plan_id":"free"},{"bike_id":"2727c664-bd75-4b2f-b8dd-f20bae895db9","system_id":"levelo_inurba_marseille","lat":43.323464,"lon":5.406297,"is_reserved":false,"is_disabled":false,"rental_uris":{"android":"levelo://app?vid=2727c664-bd75-4b2f-b8dd-f20bae895db9","ios":"levelo://app?vid=2727c664-bd75-4b2f-b8dd-f20bae895db9"},"vehicle_type_id":"4","last_reported":1702818451,"current_range_meters":23200,"station_id":"ce4bhq92rcd13ifvqhjg","pricing_plan_id":"free"},{"bike_id":"a058c530-3944-48a0-a379-670339127efc","system_id":"levelo_inurba_marseille","lat":43.288501,"lon":5.393087,"is_reserved":false,"is_disabled":false,"rental_uris":{"android":"levelo://app?vid=a058c530-3944-48a0-a379-670339127efc","ios":"levelo://app?vid=a058c530-3944-48a0-a379-670339127efc"},"vehicle_type_id":"4","last_reported":1702818451,"current_range_meters":13600,"station_id":"ce4bh2p2rcd13ifvqdi0","pricing_plan_id":"free"},{"bike_id":"186daa9c-bd6a-4bf0-b64c-b9d9682c3ee3","system_id":"levelo_inurba_marseille","lat":43.284219,"lon":5.3497,"is_reserved":false,"is_disabled":false,"rental_uris":{"android":"levelo://app?vid=186daa9c-bd6a-4bf0-b64c-b9d9682c3ee3","ios":"levelo://app?vid=186daa9c-bd6a-4bf0-b64c-b9d9682c3ee3"},"vehicle_type_id":"4","last_reported":1702818451,"current_range_meters":29200,"station_id":"ce4bhbh2rcd13ifvqepg","pricing_plan_id":"free"},{"bike_id":"4942db67-b178-4aa4-8e81-de85c6d7cd17","system_id":"levelo_inurba_marseille","lat":43.284219,"lon":5.3497,"is_reserved":false,"is_disabled":false,"rental_uris":{"android":"levelo://app?vid=4942db67-b178-4aa4-8e81-de85c6d7cd17","ios":"levelo://app?vid=4942db67-b178-4aa4-8e81-de85c6d7cd17"},"vehicle_type_id":"4","last_reported":1702818451,"current_range_meters":27200,"station_id":"ce4bhbh2rcd13ifvqepg","pricing_plan_id":"free"},{"bike_id":"5756fceb-9040-4e6a-bed8-6fec32cc2198","system_id":"levelo_inurba_marseille","lat":43.284217,"lon":5.349697,"is_reserved":false,"is_disabled":false,"rental_uris":{"android":"levelo://app?vid=5756fceb-9040-4e6a-bed8-6fec32cc2198","ios":"levelo://app?vid=5756fceb-9040-4e6a-bed8-6fec32cc2198"},"vehicle_type_id":"4","last_reported":1702818451,"current_range_meters":26000,"station_id":"ce4bhbh2rcd13ifvqepg","pricing_plan_id":"free"},{"bike_id":"8ca954ca-bc21-418b-9186-eb0a4ef5757f","system_id":"levelo_inurba_marseille","lat":43.284217,"lon":5.349697,"is_reserved":false,"is_disabled":false,"rental_uris":{"android":"levelo://app?vid=8ca954ca-bc21-418b-9186-eb0a4ef5757f","ios":"levelo://app?vid=8ca954ca-bc21-418b-9186-eb0a4ef5757f"},"vehicle_type_id":"4","last_reported":1702818451,"current_range_meters":22400,"station_id":"ce4bhbh2rcd13ifvqepg","pricing_plan_id":"free"},{"bike_id":"1f8faa7f-1039-475b-8ab4-100d36561f80","system_id":"levelo_inurba_marseille","lat":43.284217,"lon":5.349697,"is_reserved":false,"is_disabled":false,"rental_uris":{"android":"levelo://app?vid=1f8faa7f-1039-475b-8ab4-100d36561f80","ios":"levelo://app?vid=1f8faa7f-1039-475b-8ab4-100d36561f80"},"vehicle_type_id":"4","last_reported":1702818451,"current_range_meters":22000,"station_id":"ce4bhbh2rcd13ifvqepg","pricing_plan_id":"free"},{"bike_id":"0cbbd46a-85b1-4993-a70b-866d5690f808","system_id":"levelo_inurba_marseille","lat":43.284219,"lon":5.3497,"is_reserved":false,"is_disabled":false,"rental_uris":{"android":"levelo://app?vid=0cbbd46a-85b1-4993-a70b-866d5690f808","ios":"levelo://app?vid=0cbbd46a-85b1-4993-a70b-866d5690f808"},"vehicle_type_id":"4","last_reported":1702818451,"current_range_meters":31200,"station_id":"ce4bhbh2rcd13ifvqepg","pricing_plan_id":"free"},{"bike_id":"c83734ec-f65e-4faa-b9bd-d205da0e9ee9","system_id":"levelo_inurba_marseille","lat":43.28281,"lon":5.35089,"is_reserved":false,"is_disabled":false,"rental_uris":{"android":"levelo://app?vid=c83734ec-f65e-4faa-b9bd-d205da0e9ee9","ios":"levelo://app?vid=c83734ec-f65e-4faa-b9bd-d205da0e9ee9"},"vehicle_type_id":"4","last_reported":1702818451,"current_range_meters":31200,"station_id":"ce4bhbp2rcd13ifvqerg","pricing_plan_id":"free"},{"bike_id":"c0ec3be9-a016-4992-a317-06a258f9ecb8","system_id":"levelo_inurba_marseille","lat":43.28282,"lon":5.3507,"is_reserved":false,"is_disabled":false,"rental_uris":{"android":"levelo://app?vid=c0ec3be9-a016-4992-a317-06a258f9ecb8","ios":"levelo://app?vid=c0ec3be9-a016-4992-a317-06a258f9ecb8"},"vehicle_type_id":"4","last_reported":1702818451,"current_range_meters":31200,"station_id":"ce4bhbp2rcd13ifvqerg","pricing_plan_id":"free"},{"bike_id":"5854b67d-e5de-4501-8ca2-bc2a722d6dd1","system_id":"levelo_inurba_marseille","lat":43.28272,"lon":5.350823,"is_reserved":false,"is_disabled":false,"rental_uris":{"android":"levelo://app?vid=5854b67d-e5de-4501-8ca2-bc2a722d6dd1","ios":"levelo://app?vid=5854b67d-e5de-4501-8ca2-bc2a722d6dd1"},"vehicle_type_id":"4","last_reported":1702818451,"current_range_meters":31200,"station_id":"ce4bhbp2rcd13ifvqerg","pricing_plan_id":"free"},{"bike_id":"7bed120b-9509-455a-8b68-a367263bc11e","system_id":"levelo_inurba_marseille","lat":43.28269,"lon":5.35069,"is_reserved":false,"is_disabled":false,"rental_uris":{"android":"levelo://app?vid=7bed120b-9509-455a-8b68-a367263bc11e","ios":"levelo://app?vid=7bed120b-9509-455a-8b68-a367263bc11e"},"vehicle_type_id":"4","last_reported":1702818451,"current_range_meters":31200,"station_id":"ce4bhbp2rcd13ifvqerg","pricing_plan_id":"free"},{"bike_id":"09d620b2-59f2-4ec4-983b-39e8bec778f4","system_id":"levelo_inurba_marseille","lat":43.282744,"lon":5.350533,"is_reserved":false,"is_disabled":false,"rental_uris":{"android":"levelo://app?vid=09d620b2-59f2-4ec4-983b-39e8bec778f4","ios":"levelo://app?vid=09d620b2-59f2-4ec4-983b-39e8bec778f4"},"vehicle_type_id":"4","last_reported":1702818451,"current_range_meters":29600,"station_id":"ce4bhbp2rcd13ifvqerg","pricing_plan_id":"free"},{"bike_id":"a72d7744-d71c-431f-a9f9-cb362aa72621","system_id":"levelo_inurba_marseille","lat":43.28265,"lon":5.35068,"is_reserved":false,"is_disabled":false,"rental_uris":{"android":"levelo://app?vid=a72d7744-d71c-431f-a9f9-cb362aa72621","ios":"levelo://app?vid=a72d7744-d71c-431f-a9f9-cb362aa72621"},"vehicle_type_id":"4","last_reported":1702818451,"current_range_meters":25200,"station_id":"ce4bhbp2rcd13ifvqerg","pricing_plan_id":"free"},{"bike_id":"0f7408ad-907a-435f-a5a9-c5ff1b8b8162","system_id":"levelo_inurba_marseille","lat":43.28261,"lon":5.35069,"is_reserved":false,"is_disabled":false,"rental_uris":{"android":"levelo://app?vid=0f7408ad-907a-435f-a5a9-c5ff1b8b8162","ios":"levelo://app?vid=0f7408ad-907a-435f-a5a9-c5ff1b8b8162"},"vehicle_type_id":"4","last_reported":1702818451,"current_range_meters":19600,"station_id":"ce4bhbp2rcd13ifvqerg","pricing_plan_id":"free"},{"bike_id":"4f016e43-8949-4088-b082-0c82652b5ab5","system_id":"levelo_inurba_marseille","lat":43.2826,"lon":5.35062,"is_reserved":false,"is_disabled":false,"rental_uris":{"android":"levelo://app?vid=4f016e43-8949-4088-b082-0c82652b5ab5","ios":"levelo://app?vid=4f016e43-8949-4088-b082-0c82652b5ab5"},"vehicle_type_id":"4","last_reported":1702818451,"current_range_meters":13200,"station_id":"ce4bhbp2rcd13ifvqerg","pricing_plan_id":"free"},{"bike_id":"606c52b8-169a-45b3-b817-3036799d50c2","system_id":"levelo_inurba_marseille","lat":43.28256,"lon":5.3507,"is_reserved":false,"is_disabled":false,"rental_uris":{"android":"levelo://app?vid=606c52b8-169a-45b3-b817-3036799d50c2","ios":"levelo://app?vid=606c52b8-169a-45b3-b817-3036799d50c2"},"vehicle_type_id":"4","last_reported":1702818451,"current_range_meters":24000,"station_id":"ce4bhbp2rcd13ifvqerg","pricing_plan_id":"free"},{"bike_id":"385819ba-d7dd-4fc1-ba4a-d2f85481ab77","system_id":"levelo_inurba_marseille","lat":43.32659,"lon":5.40987,"is_reserved":false,"is_disabled":false,"rental_uris":{"android":"levelo://app?vid=385819ba-d7dd-4fc1-ba4a-d2f85481ab77","ios":"levelo://app?vid=385819ba-d7dd-4fc1-ba4a-d2f85481ab77"},"vehicle_type_id":"4","last_reported":1702818451,"current_range_meters":12400,"station_id":"ce4bhpp2rcd13ifvqhgg","pricing_plan_id":"free"},{"bike_id":"62257f14-3c9d-4eca-84fe-2193dd518c01","system_id":"levelo_inurba_marseille","lat":43.32655,"lon":5.40998,"is_reserved":false,"is_disabled":false,"rental_uris":{"android":"levelo://app?vid=62257f14-3c9d-4eca-84fe-2193dd518c01","ios":"levelo://app?vid=62257f14-3c9d-4eca-84fe-2193dd518c01"},"vehicle_type_id":"4","last_reported":1702818451,"current_range_meters":30000,"station_id":"ce4bhpp2rcd13ifvqhgg","pricing_plan_id":"free"},{"bike_id":"80d81025-d175-4985-9bb2-108cb7d8ca99","system_id":"levelo_inurba_marseille","lat":43.287154,"lon":5.399979,"is_reserved":false,"is_disabled":false,"rental_uris":{"android":"levelo://app?vid=80d81025-d175-4985-9bb2-108cb7d8ca99","ios":"levelo://app?vid=80d81025-d175-4985-9bb2-108cb7d8ca99"},"vehicle_type_id":"4","last_reported":1702818451,"current_range_meters":22000,"station_id":"ce4bho92rcd13ifvqh3g","pricing_plan_id":"free"},{"bike_id":"bc6854b1-1c97-475b-94f4-a5fb757841a1","system_id":"levelo_inurba_marseille","lat":43.29964,"lon":5.41321,"is_reserved":false,"is_disabled":false,"rental_uris":{"android":"levelo://app?vid=bc6854b1-1c97-475b-94f4-a5fb757841a1","ios":"levelo://app?vid=bc6854b1-1c97-475b-94f4-a5fb757841a1"},"vehicle_type_id":"4","last_reported":1702818451,"current_range_meters":29600,"station_id":"ce4bhp12rcd13ifvqh9g","pricing_plan_id":"free"},{"bike_id":"3a57e97e-0661-4678-8660-64daa6b84577","system_id":"levelo_inurba_marseille","lat":43.29955,"lon":5.41317,"is_reserved":false,"is_disabled":false,"rental_uris":{"android":"levelo://app?vid=3a57e97e-0661-4678-8660-64daa6b84577","ios":"levelo://app?vid=3a57e97e-0661-4678-8660-64daa6b84577"},"vehicle_type_id":"4","last_reported":1702818451,"current_range_meters":23200,"station_id":"ce4bhp12rcd13ifvqh9g","pricing_plan_id":"free"},{"bike_id":"434f842b-f282-4dd6-b874-29e357570e08","system_id":"levelo_inurba_marseille","lat":43.325243,"lon":5.414326,"is_reserved":false,"is_disabled":false,"rental_uris":{"android":"levelo://app?vid=434f842b-f282-4dd6-b874-29e357570e08","ios":"levelo://app?vid=434f842b-f282-4dd6-b874-29e357570e08"},"vehicle_type_id":"4","last_reported":1702818451,"current_range_meters":26400,"station_id":"ce4bhq12rcd13ifvqhhg","pricing_plan_id":"free"},{"bike_id":"53756c0a-e238-4e7c-98bb-5ec5ac42fc6a","system_id":"levelo_inurba_marseille","lat":43.292571,"lon":5.409107,"is_reserved":false,"is_disabled":false,"rental_uris":{"android":"levelo://app?vid=53756c0a-e238-4e7c-98bb-5ec5ac42fc6a","ios":"levelo://app?vid=53756c0a-e238-4e7c-98bb-5ec5ac42fc6a"},"vehicle_type_id":"4","last_reported":1702818451,"current_range_meters":8400,"station_id":"ce4bh192rcd13ifvqdc0","pricing_plan_id":"free"},{"bike_id":"1ec481cc-c6ac-4834-a324-c6148996f9a2","system_id":"levelo_inurba_marseille","lat":43.280784,"lon":5.396622,"is_reserved":false,"is_disabled":false,"rental_uris":{"android":"levelo://app?vid=1ec481cc-c6ac-4834-a324-c6148996f9a2","ios":"levelo://app?vid=1ec481cc-c6ac-4834-a324-c6148996f9a2"},"vehicle_type_id":"4","last_reported":1702818451,"current_range_meters":18400,"station_id":"ce4bho12rcd13ifvqh2g","pricing_plan_id":"free"},{"bike_id":"f492a511-ce54-47fb-a234-e90fa98e8a54","system_id":"levelo_inurba_marseille","lat":43.278401,"lon":5.392152,"is_reserved":false,"is_disabled":false,"rental_uris":{"android":"levelo://app?vid=f492a511-ce54-47fb-a234-e90fa98e8a54","ios":"levelo://app?vid=f492a511-ce54-47fb-a234-e90fa98e8a54"},"vehicle_type_id":"4","last_reported":1702818451,"current_range_meters":11200,"station_id":"ce4bhjp2rcd13ifvqga0","pricing_plan_id":"free"},{"bike_id":"02087654-3441-4009-af6d-9a61e3ef87b7","system_id":"levelo_inurba_marseille","lat":43.273613,"lon":5.362705,"is_reserved":false,"is_disabled":false,"rental_uris":{"android":"levelo://app?vid=02087654-3441-4009-af6d-9a61e3ef87b7","ios":"levelo://app?vid=02087654-3441-4009-af6d-9a61e3ef87b7"},"vehicle_type_id":"4","last_reported":1702818451,"current_range_meters":24400,"station_id":"ce4bhbh2rcd13ifvqeo0","pricing_plan_id":"free"},{"bike_id":"94be11cc-a992-46d0-acf7-fd472c700948","system_id":"levelo_inurba_marseille","lat":43.336148,"lon":5.410349,"is_reserved":false,"is_disabled":false,"rental_uris":{"android":"levelo://app?vid=94be11cc-a992-46d0-acf7-fd472c700948","ios":"levelo://app?vid=94be11cc-a992-46d0-acf7-fd472c700948"},"vehicle_type_id":"4","last_reported":1702818451,"current_range_meters":31200,"station_id":"ce4bhqh2rcd13ifvqhmg","pricing_plan_id":"free"},{"bike_id":"c8228718-97d4-40a3-af84-3ebdacc25472","system_id":"levelo_inurba_marseille","lat":43.336134,"lon":5.410341,"is_reserved":false,"is_disabled":false,"rental_uris":{"android":"levelo://app?vid=c8228718-97d4-40a3-af84-3ebdacc25472","ios":"levelo://app?vid=c8228718-97d4-40a3-af84-3ebdacc25472"},"vehicle_type_id":"4","last_reported":1702818451,"current_range_meters":31600,"station_id":"ce4bhqh2rcd13ifvqhmg","pricing_plan_id":"free"},{"bike_id":"ea3d35f6-b07e-4308-ae51-5376e9d8e7cc","system_id":"levelo_inurba_marseille","lat":43.27343,"lon":5.364511,"is_reserved":false,"is_disabled":false,"rental_uris":{"android":"levelo://app?vid=ea3d35f6-b07e-4308-ae51-5376e9d8e7cc","ios":"levelo://app?vid=ea3d35f6-b07e-4308-ae51-5376e9d8e7cc"},"vehicle_type_id":"4","last_reported":1702818451,"current_range_meters":12000,"station_id":"","pricing_plan_id":"free"},{"bike_id":"6cb0c20f-91c9-4fdd-920d-ba0bd7960208","system_id":"levelo_inurba_marseille","lat":43.310785,"lon":5.424305,"is_reserved":false,"is_disabled":false,"rental_uris":{"android":"levelo://app?vid=6cb0c20f-91c9-4fdd-920d-ba0bd7960208","ios":"levelo://app?vid=6cb0c20f-91c9-4fdd-920d-ba0bd7960208"},"vehicle_type_id":"4","last_reported":1702818451,"current_range_meters":21600,"station_id":"ce4bhp92rcd13ifvqhag","pricing_plan_id":"free"},{"bike_id":"251de0dc-299e-4a18-abf1-eec4ea9c23e2","system_id":"levelo_inurba_marseille","lat":43.310785,"lon":5.424305,"is_reserved":false,"is_disabled":false,"rental_uris":{"android":"levelo://app?vid=251de0dc-299e-4a18-abf1-eec4ea9c23e2","ios":"levelo://app?vid=251de0dc-299e-4a18-abf1-eec4ea9c23e2"},"vehicle_type_id":"4","last_reported":1702818451,"current_range_meters":31200,"station_id":"ce4bhp92rcd13ifvqhag","pricing_plan_id":"free"},{"bike_id":"a3776f53-cea4-49f3-8100-19e61a426b19","system_id":"levelo_inurba_marseille","lat":43.310785,"lon":5.424305,"is_reserved":false,"is_disabled":false,"rental_uris":{"android":"levelo://app?vid=a3776f53-cea4-49f3-8100-19e61a426b19","ios":"levelo://app?vid=a3776f53-cea4-49f3-8100-19e61a426b19"},"vehicle_type_id":"4","last_reported":1702818451,"current_range_meters":17600,"station_id":"ce4bhp92rcd13ifvqhag","pricing_plan_id":"free"},{"bike_id":"6cafcd50-5756-4ad3-b29b-b85e323da656","system_id":"levelo_inurba_marseille","lat":43.310785,"lon":5.424305,"is_reserved":false,"is_disabled":false,"rental_uris":{"android":"levelo://app?vid=6cafcd50-5756-4ad3-b29b-b85e323da656","ios":"levelo://app?vid=6cafcd50-5756-4ad3-b29b-b85e323da656"},"vehicle_type_id":"4","last_reported":1702818451,"current_range_meters":24400,"station_id":"ce4bhp92rcd13ifvqhag","pricing_plan_id":"free"},{"bike_id":"f97f3ae3-0746-4a73-8a97-072f8aa9cb10","system_id":"levelo_inurba_marseille","lat":43.310785,"lon":5.424305,"is_reserved":false,"is_disabled":false,"rental_uris":{"android":"levelo://app?vid=f97f3ae3-0746-4a73-8a97-072f8aa9cb10","ios":"levelo://app?vid=f97f3ae3-0746-4a73-8a97-072f8aa9cb10"},"vehicle_type_id":"4","last_reported":1702818451,"current_range_meters":31600,"station_id":"ce4bhp92rcd13ifvqhag","pricing_plan_id":"free"},{"bike_id":"43844db9-0392-4da0-9a6e-40bbf1d336e6","system_id":"levelo_inurba_marseille","lat":43.340804,"lon":5.410219,"is_reserved":false,"is_disabled":false,"rental_uris":{"android":"levelo://app?vid=43844db9-0392-4da0-9a6e-40bbf1d336e6","ios":"levelo://app?vid=43844db9-0392-4da0-9a6e-40bbf1d336e6"},"vehicle_type_id":"4","last_reported":1702818451,"current_range_meters":29200,"station_id":"ce4bhqh2rcd13ifvqhlg","pricing_plan_id":"free"},{"bike_id":"cb8657c1-f91a-4cfd-a573-28533970bdba","system_id":"levelo_inurba_marseille","lat":43.34142,"lon":5.40911,"is_reserved":false,"is_disabled":false,"rental_uris":{"android":"levelo://app?vid=cb8657c1-f91a-4cfd-a573-28533970bdba","ios":"levelo://app?vid=cb8657c1-f91a-4cfd-a573-28533970bdba"},"vehicle_type_id":"4","last_reported":1702818451,"current_range_meters":28000,"station_id":"ce4bhqh2rcd13ifvqhlg","pricing_plan_id":"free"},{"bike_id":"3ca2c2d2-99b0-4aa6-a05d-e30f02e6a7fb","system_id":"levelo_inurba_marseille","lat":43.276092,"lon":5.395289,"is_reserved":false,"is_disabled":false,"rental_uris":{"android":"levelo://app?vid=3ca2c2d2-99b0-4aa6-a05d-e30f02e6a7fb","ios":"levelo://app?vid=3ca2c2d2-99b0-4aa6-a05d-e30f02e6a7fb"},"vehicle_type_id":"4","last_reported":1702818451,"current_range_meters":18800,"station_id":"","pricing_plan_id":"free"},{"bike_id":"7c5e5a9a-9f39-4a14-9573-d5b8ab599dd5","system_id":"levelo_inurba_marseille","lat":43.27188,"lon":5.39224,"is_reserved":false,"is_disabled":false,"rental_uris":{"android":"levelo://app?vid=7c5e5a9a-9f39-4a14-9573-d5b8ab599dd5","ios":"levelo://app?vid=7c5e5a9a-9f39-4a14-9573-d5b8ab599dd5"},"vehicle_type_id":"4","last_reported":1702818451,"current_range_meters":18000,"station_id":"ce4bhhp2rcd13ifvqfm0","pricing_plan_id":"free"},{"bike_id":"dc485707-174a-4d8b-8462-9abdddf1e87e","system_id":"levelo_inurba_marseille","lat":43.278128,"lon":5.407195,"is_reserved":false,"is_disabled":false,"rental_uris":{"android":"levelo://app?vid=dc485707-174a-4d8b-8462-9abdddf1e87e","ios":"levelo://app?vid=dc485707-174a-4d8b-8462-9abdddf1e87e"},"vehicle_type_id":"4","last_reported":1702818451,"current_range_meters":14800,"station_id":"ce4bhnh2rcd13ifvqgtg","pricing_plan_id":"free"},{"bike_id":"79742ef2-f3ad-4f5b-a7bc-8215905d2e2e","system_id":"levelo_inurba_marseille","lat":43.278128,"lon":5.407195,"is_reserved":false,"is_disabled":false,"rental_uris":{"android":"levelo://app?vid=79742ef2-f3ad-4f5b-a7bc-8215905d2e2e","ios":"levelo://app?vid=79742ef2-f3ad-4f5b-a7bc-8215905d2e2e"},"vehicle_type_id":"4","last_reported":1702818451,"current_range_meters":29600,"station_id":"ce4bhnh2rcd13ifvqgtg","pricing_plan_id":"free"},{"bike_id":"c0d4131f-8d8d-4750-bf09-aa224f883954","system_id":"levelo_inurba_marseille","lat":43.27948,"lon":5.41045,"is_reserved":false,"is_disabled":false,"rental_uris":{"android":"levelo://app?vid=c0d4131f-8d8d-4750-bf09-aa224f883954","ios":"levelo://app?vid=c0d4131f-8d8d-4750-bf09-aa224f883954"},"vehicle_type_id":"4","last_reported":1702818451,"current_range_meters":0,"station_id":"ce4bhnp2rcd13ifvqh0g","pricing_plan_id":"free"},{"bike_id":"78948129-5e85-4b73-8298-c45ded762028","system_id":"levelo_inurba_marseille","lat":43.27934,"lon":5.41047,"is_reserved":false,"is_disabled":false,"rental_uris":{"android":"levelo://app?vid=78948129-5e85-4b73-8298-c45ded762028","ios":"levelo://app?vid=78948129-5e85-4b73-8298-c45ded762028"},"vehicle_type_id":"4","last_reported":1702818451,"current_range_meters":24400,"station_id":"ce4bhnp2rcd13ifvqh0g","pricing_plan_id":"free"},{"bike_id":"3cf43922-531f-4417-901a-bef01022c774","system_id":"levelo_inurba_marseille","lat":43.269319,"lon":5.389397,"is_reserved":false,"is_disabled":false,"rental_uris":{"android":"levelo://app?vid=3cf43922-531f-4417-901a-bef01022c774","ios":"levelo://app?vid=3cf43922-531f-4417-901a-bef01022c774"},"vehicle_type_id":"4","last_reported":1702818451,"current_range_meters":16000,"station_id":"ce4bhhh2rcd13ifvqfl0","pricing_plan_id":"free"},{"bike_id":"db774753-4382-453e-a138-c32d538f9839","system_id":"levelo_inurba_marseille","lat":43.358673,"lon":5.356739,"is_reserved":false,"is_disabled":false,"rental_uris":{"android":"levelo://app?vid=db774753-4382-453e-a138-c32d538f9839","ios":"levelo://app?vid=db774753-4382-453e-a138-c32d538f9839"},"vehicle_type_id":"4","last_reported":1702818451,"current_range_meters":11200,"station_id":"","pricing_plan_id":"free"},{"bike_id":"9719412c-3539-46bf-a125-717e9619b859","system_id":"levelo_inurba_marseille","lat":43.26681,"lon":5.382694,"is_reserved":false,"is_disabled":false,"rental_uris":{"android":"levelo://app?vid=9719412c-3539-46bf-a125-717e9619b859","ios":"levelo://app?vid=9719412c-3539-46bf-a125-717e9619b859"},"vehicle_type_id":"4","last_reported":1702818451,"current_range_meters":18400,"station_id":"ce4bhg92rcd13ifvqf90","pricing_plan_id":"free"},{"bike_id":"b3cbac93-e37b-46cb-a8ab-e21c6bc7010a","system_id":"levelo_inurba_marseille","lat":43.26555,"lon":5.37291,"is_reserved":false,"is_disabled":false,"rental_uris":{"android":"levelo://app?vid=b3cbac93-e37b-46cb-a8ab-e21c6bc7010a","ios":"levelo://app?vid=b3cbac93-e37b-46cb-a8ab-e21c6bc7010a"},"vehicle_type_id":"4","last_reported":1702818451,"current_range_meters":0,"station_id":"ce4bhg12rcd13ifvqf70","pricing_plan_id":"free"},{"bike_id":"4e649061-9f52-49b2-88df-d7d7b1e5b2c8","system_id":"levelo_inurba_marseille","lat":43.26551,"lon":5.37289,"is_reserved":false,"is_disabled":false,"rental_uris":{"android":"levelo://app?vid=4e649061-9f52-49b2-88df-d7d7b1e5b2c8","ios":"levelo://app?vid=4e649061-9f52-49b2-88df-d7d7b1e5b2c8"},"vehicle_type_id":"4","last_reported":1702818451,"current_range_meters":400,"station_id":"ce4bhg12rcd13ifvqf70","pricing_plan_id":"free"},{"bike_id":"3ec397f0-b8da-4e84-be43-f4abb20ebecf","system_id":"levelo_inurba_marseille","lat":43.276634,"lon":5.411787,"is_reserved":false,"is_disabled":false,"rental_uris":{"android":"levelo://app?vid=3ec397f0-b8da-4e84-be43-f4abb20ebecf","ios":"levelo://app?vid=3ec397f0-b8da-4e84-be43-f4abb20ebecf"},"vehicle_type_id":"4","last_reported":1702818451,"current_range_meters":27600,"station_id":"","pricing_plan_id":"free"},{"bike_id":"52b75330-794b-4ffe-89fe-9184ff499c6e","system_id":"levelo_inurba_marseille","lat":43.26796,"lon":5.39417,"is_reserved":false,"is_disabled":false,"rental_uris":{"android":"levelo://app?vid=52b75330-794b-4ffe-89fe-9184ff499c6e","ios":"levelo://app?vid=52b75330-794b-4ffe-89fe-9184ff499c6e"},"vehicle_type_id":"4","last_reported":1702818451,"current_range_meters":30800,"station_id":"ce4bhh12rcd13ifvqfg0","pricing_plan_id":"free"},{"bike_id":"bf3343ca-02f0-4678-892e-7ecd8b1e76e7","system_id":"levelo_inurba_marseille","lat":43.265714,"lon":5.372891,"is_reserved":false,"is_disabled":false,"rental_uris":{"android":"levelo://app?vid=bf3343ca-02f0-4678-892e-7ecd8b1e76e7","ios":"levelo://app?vid=bf3343ca-02f0-4678-892e-7ecd8b1e76e7"},"vehicle_type_id":"4","last_reported":1702818451,"current_range_meters":24800,"station_id":"ce4bhg12rcd13ifvqf70","pricing_plan_id":"free"},{"bike_id":"d1a19385-d8e7-4a34-9535-57779ea4879b","system_id":"levelo_inurba_marseille","lat":43.2679,"lon":5.39415,"is_reserved":false,"is_disabled":false,"rental_uris":{"android":"levelo://app?vid=d1a19385-d8e7-4a34-9535-57779ea4879b","ios":"levelo://app?vid=d1a19385-d8e7-4a34-9535-57779ea4879b"},"vehicle_type_id":"4","last_reported":1702818451,"current_range_meters":26000,"station_id":"ce4bhh12rcd13ifvqfg0","pricing_plan_id":"free"},{"bike_id":"f6a483b2-32f7-4eed-a37f-795383f6253e","system_id":"levelo_inurba_marseille","lat":43.26788,"lon":5.39413,"is_reserved":false,"is_disabled":false,"rental_uris":{"android":"levelo://app?vid=f6a483b2-32f7-4eed-a37f-795383f6253e","ios":"levelo://app?vid=f6a483b2-32f7-4eed-a37f-795383f6253e"},"vehicle_type_id":"4","last_reported":1702818451,"current_range_meters":26000,"station_id":"ce4bhh12rcd13ifvqfg0","pricing_plan_id":"free"},{"bike_id":"2b8d4d39-0b95-4a15-8ce0-9836020f1901","system_id":"levelo_inurba_marseille","lat":43.26788,"lon":5.39414,"is_reserved":false,"is_disabled":false,"rental_uris":{"android":"levelo://app?vid=2b8d4d39-0b95-4a15-8ce0-9836020f1901","ios":"levelo://app?vid=2b8d4d39-0b95-4a15-8ce0-9836020f1901"},"vehicle_type_id":"4","last_reported":1702818451,"current_range_meters":26800,"station_id":"ce4bhh12rcd13ifvqfg0","pricing_plan_id":"free"},{"bike_id":"d1d36f78-7aa7-47c1-8e0f-442bee7af2dd","system_id":"levelo_inurba_marseille","lat":43.26789,"lon":5.39421,"is_reserved":false,"is_disabled":false,"rental_uris":{"android":"levelo://app?vid=d1d36f78-7aa7-47c1-8e0f-442bee7af2dd","ios":"levelo://app?vid=d1d36f78-7aa7-47c1-8e0f-442bee7af2dd"},"vehicle_type_id":"4","last_reported":1702818451,"current_range_meters":14000,"station_id":"ce4bhh12rcd13ifvqfg0","pricing_plan_id":"free"},{"bike_id":"aaf4e48a-9b77-42fe-a999-8a25db259be0","system_id":"levelo_inurba_marseille","lat":43.267843,"lon":5.394217,"is_reserved":false,"is_disabled":false,"rental_uris":{"android":"levelo://app?vid=aaf4e48a-9b77-42fe-a999-8a25db259be0","ios":"levelo://app?vid=aaf4e48a-9b77-42fe-a999-8a25db259be0"},"vehicle_type_id":"4","last_reported":1702818451,"current_range_meters":27200,"station_id":"ce4bhh12rcd13ifvqfg0","pricing_plan_id":"free"},{"bike_id":"04243655-5fac-451f-a46a-afe846fd4d1c","system_id":"levelo_inurba_marseille","lat":43.26782,"lon":5.39415,"is_reserved":false,"is_disabled":false,"rental_uris":{"android":"levelo://app?vid=04243655-5fac-451f-a46a-afe846fd4d1c","ios":"levelo://app?vid=04243655-5fac-451f-a46a-afe846fd4d1c"},"vehicle_type_id":"4","last_reported":1702818451,"current_range_meters":29200,"station_id":"ce4bhh12rcd13ifvqfg0","pricing_plan_id":"free"},{"bike_id":"a095dcc2-a243-4435-947d-d7c82e53bfbf","system_id":"levelo_inurba_marseille","lat":43.26782,"lon":5.39423,"is_reserved":false,"is_disabled":false,"rental_uris":{"android":"levelo://app?vid=a095dcc2-a243-4435-947d-d7c82e53bfbf","ios":"levelo://app?vid=a095dcc2-a243-4435-947d-d7c82e53bfbf"},"vehicle_type_id":"4","last_reported":1702818451,"current_range_meters":22400,"station_id":"ce4bhh12rcd13ifvqfg0","pricing_plan_id":"free"},{"bike_id":"b862bdaf-a16d-4fa6-853c-fd7dcfd62232","system_id":"levelo_inurba_marseille","lat":43.267966,"lon":5.393976,"is_reserved":false,"is_disabled":false,"rental_uris":{"android":"levelo://app?vid=b862bdaf-a16d-4fa6-853c-fd7dcfd62232","ios":"levelo://app?vid=b862bdaf-a16d-4fa6-853c-fd7dcfd62232"},"vehicle_type_id":"4","last_reported":1702818451,"current_range_meters":18800,"station_id":"ce4bhh12rcd13ifvqfg0","pricing_plan_id":"free"},{"bike_id":"8fd83b2a-1207-4d97-9b48-a1707cda2027","system_id":"levelo_inurba_marseille","lat":43.26763,"lon":5.39418,"is_reserved":false,"is_disabled":false,"rental_uris":{"android":"levelo://app?vid=8fd83b2a-1207-4d97-9b48-a1707cda2027","ios":"levelo://app?vid=8fd83b2a-1207-4d97-9b48-a1707cda2027"},"vehicle_type_id":"4","last_reported":1702818451,"current_range_meters":13600,"station_id":"ce4bhh12rcd13ifvqfg0","pricing_plan_id":"free"},{"bike_id":"cfa9ec23-f139-4da1-8e0c-b07612e51cb5","system_id":"levelo_inurba_marseille","lat":43.265569,"lon":5.390047,"is_reserved":false,"is_disabled":false,"rental_uris":{"android":"levelo://app?vid=cfa9ec23-f139-4da1-8e0c-b07612e51cb5","ios":"levelo://app?vid=cfa9ec23-f139-4da1-8e0c-b07612e51cb5"},"vehicle_type_id":"4","last_reported":1702818451,"current_range_meters":28400,"station_id":"ce4bhe12rcd13ifvqf30","pricing_plan_id":"free"},{"bike_id":"cde16cde-0b04-4be7-8596-f3e7b6fee431","system_id":"levelo_inurba_marseille","lat":43.26938,"lon":5.40254,"is_reserved":false,"is_disabled":false,"rental_uris":{"android":"levelo://app?vid=cde16cde-0b04-4be7-8596-f3e7b6fee431","ios":"levelo://app?vid=cde16cde-0b04-4be7-8596-f3e7b6fee431"},"vehicle_type_id":"4","last_reported":1702818451,"current_range_meters":5200,"station_id":"cjm6bp8fraef2m0cb0m0","pricing_plan_id":"free"},{"bike_id":"8a89967b-a5ba-4c98-9fe4-fc037e82266e","system_id":"levelo_inurba_marseille","lat":43.2694,"lon":5.40268,"is_reserved":false,"is_disabled":false,"rental_uris":{"android":"levelo://app?vid=8a89967b-a5ba-4c98-9fe4-fc037e82266e","ios":"levelo://app?vid=8a89967b-a5ba-4c98-9fe4-fc037e82266e"},"vehicle_type_id":"4","last_reported":1702818451,"current_range_meters":22000,"station_id":"cjm6bp8fraef2m0cb0m0","pricing_plan_id":"free"},{"bike_id":"2ddaa260-3dde-415e-85e9-e03f5b2dd164","system_id":"levelo_inurba_marseille","lat":43.26936,"lon":5.40261,"is_reserved":false,"is_disabled":false,"rental_uris":{"android":"levelo://app?vid=2ddaa260-3dde-415e-85e9-e03f5b2dd164","ios":"levelo://app?vid=2ddaa260-3dde-415e-85e9-e03f5b2dd164"},"vehicle_type_id":"4","last_reported":1702818451,"current_range_meters":1200,"station_id":"cjm6bp8fraef2m0cb0m0","pricing_plan_id":"free"},{"bike_id":"5433e919-8912-4ed6-af13-5aab8a337cfa","system_id":"levelo_inurba_marseille","lat":43.261782,"lon":5.374515,"is_reserved":false,"is_disabled":false,"rental_uris":{"android":"levelo://app?vid=5433e919-8912-4ed6-af13-5aab8a337cfa","ios":"levelo://app?vid=5433e919-8912-4ed6-af13-5aab8a337cfa"},"vehicle_type_id":"4","last_reported":1702818451,"current_range_meters":4400,"station_id":"ce4bhgp2rcd13ifvqfc0","pricing_plan_id":"free"},{"bike_id":"0935ea5c-b672-44b5-8410-26fb735af5b9","system_id":"levelo_inurba_marseille","lat":43.317104,"lon":5.436818,"is_reserved":false,"is_disabled":false,"rental_uris":{"android":"levelo://app?vid=0935ea5c-b672-44b5-8410-26fb735af5b9","ios":"levelo://app?vid=0935ea5c-b672-44b5-8410-26fb735af5b9"},"vehicle_type_id":"4","last_reported":1702818451,"current_range_meters":16800,"station_id":"ce4bhp92rcd13ifvqhcg","pricing_plan_id":"free"},{"bike_id":"7743d713-d033-44f0-9919-d35e21ec4494","system_id":"levelo_inurba_marseille","lat":43.26502,"lon":5.39539,"is_reserved":false,"is_disabled":false,"rental_uris":{"android":"levelo://app?vid=7743d713-d033-44f0-9919-d35e21ec4494","ios":"levelo://app?vid=7743d713-d033-44f0-9919-d35e21ec4494"},"vehicle_type_id":"4","last_reported":1702818451,"current_range_meters":17600,"station_id":"","pricing_plan_id":"free"},{"bike_id":"b6518228-12c3-4225-894a-5f7dce8e8e5d","system_id":"levelo_inurba_marseille","lat":43.264969,"lon":5.395357,"is_reserved":false,"is_disabled":false,"rental_uris":{"android":"levelo://app?vid=b6518228-12c3-4225-894a-5f7dce8e8e5d","ios":"levelo://app?vid=b6518228-12c3-4225-894a-5f7dce8e8e5d"},"vehicle_type_id":"4","last_reported":1702818451,"current_range_meters":0,"station_id":"","pricing_plan_id":"free"},{"bike_id":"f2318a53-9471-42dc-8d4f-a7730a7a36c8","system_id":"levelo_inurba_marseille","lat":43.264994,"lon":5.395473,"is_reserved":false,"is_disabled":false,"rental_uris":{"android":"levelo://app?vid=f2318a53-9471-42dc-8d4f-a7730a7a36c8","ios":"levelo://app?vid=f2318a53-9471-42dc-8d4f-a7730a7a36c8"},"vehicle_type_id":"4","last_reported":1702818451,"current_range_meters":2000,"station_id":"","pricing_plan_id":"free"},{"bike_id":"4c30ab0b-cc54-4ba6-ae72-a8fb812c2d2c","system_id":"levelo_inurba_marseille","lat":43.26498,"lon":5.3955,"is_reserved":false,"is_disabled":false,"rental_uris":{"android":"levelo://app?vid=4c30ab0b-cc54-4ba6-ae72-a8fb812c2d2c","ios":"levelo://app?vid=4c30ab0b-cc54-4ba6-ae72-a8fb812c2d2c"},"vehicle_type_id":"4","last_reported":1702818451,"current_range_meters":24000,"station_id":"","pricing_plan_id":"free"},{"bike_id":"1765264f-1e74-4ce5-841e-c97748fde2f9","system_id":"levelo_inurba_marseille","lat":43.26497,"lon":5.39551,"is_reserved":false,"is_disabled":false,"rental_uris":{"android":"levelo://app?vid=1765264f-1e74-4ce5-841e-c97748fde2f9","ios":"levelo://app?vid=1765264f-1e74-4ce5-841e-c97748fde2f9"},"vehicle_type_id":"4","last_reported":1702818451,"current_range_meters":22400,"station_id":"","pricing_plan_id":"free"},{"bike_id":"1027c1c2-ba39-4720-b00d-2c56da016646","system_id":"levelo_inurba_marseille","lat":43.26496,"lon":5.39548,"is_reserved":false,"is_disabled":false,"rental_uris":{"android":"levelo://app?vid=1027c1c2-ba39-4720-b00d-2c56da016646","ios":"levelo://app?vid=1027c1c2-ba39-4720-b00d-2c56da016646"},"vehicle_type_id":"4","last_reported":1702818451,"current_range_meters":27600,"station_id":"","pricing_plan_id":"free"},{"bike_id":"71252ba5-5619-4f36-b490-0c5903f0700e","system_id":"levelo_inurba_marseille","lat":43.281548,"lon":5.42643,"is_reserved":false,"is_disabled":false,"rental_uris":{"android":"levelo://app?vid=71252ba5-5619-4f36-b490-0c5903f0700e","ios":"levelo://app?vid=71252ba5-5619-4f36-b490-0c5903f0700e"},"vehicle_type_id":"4","last_reported":1702818451,"current_range_meters":2800,"station_id":"ce4bhnh2rcd13ifvqgug","pricing_plan_id":"free"},{"bike_id":"d179c498-6590-4265-ba74-db4d632b80df","system_id":"levelo_inurba_marseille","lat":43.281548,"lon":5.42643,"is_reserved":false,"is_disabled":false,"rental_uris":{"android":"levelo://app?vid=d179c498-6590-4265-ba74-db4d632b80df","ios":"levelo://app?vid=d179c498-6590-4265-ba74-db4d632b80df"},"vehicle_type_id":"4","last_reported":1702818451,"current_range_meters":31200,"station_id":"ce4bhnh2rcd13ifvqgug","pricing_plan_id":"free"},{"bike_id":"4dd764f6-774c-4512-8b0e-1beb34d8f863","system_id":"levelo_inurba_marseille","lat":43.281548,"lon":5.42643,"is_reserved":false,"is_disabled":false,"rental_uris":{"android":"levelo://app?vid=4dd764f6-774c-4512-8b0e-1beb34d8f863","ios":"levelo://app?vid=4dd764f6-774c-4512-8b0e-1beb34d8f863"},"vehicle_type_id":"4","last_reported":1702818451,"current_range_meters":31200,"station_id":"ce4bhnh2rcd13ifvqgug","pricing_plan_id":"free"},{"bike_id":"c15ae3b7-8e97-4a88-a9b4-a63f88042490","system_id":"levelo_inurba_marseille","lat":43.281548,"lon":5.42643,"is_reserved":false,"is_disabled":false,"rental_uris":{"android":"levelo://app?vid=c15ae3b7-8e97-4a88-a9b4-a63f88042490","ios":"levelo://app?vid=c15ae3b7-8e97-4a88-a9b4-a63f88042490"},"vehicle_type_id":"4","last_reported":1702818451,"current_range_meters":800,"station_id":"ce4bhnh2rcd13ifvqgug","pricing_plan_id":"free"},{"bike_id":"35231141-8f42-44b2-9e3d-80a91df98462","system_id":"levelo_inurba_marseille","lat":43.2607,"lon":5.393983,"is_reserved":false,"is_disabled":false,"rental_uris":{"android":"levelo://app?vid=35231141-8f42-44b2-9e3d-80a91df98462","ios":"levelo://app?vid=35231141-8f42-44b2-9e3d-80a91df98462"},"vehicle_type_id":"4","last_reported":1702818451,"current_range_meters":14800,"station_id":"ce4bhh92rcd13ifvqfj0","pricing_plan_id":"free"},{"bike_id":"41bc15f8-3b1d-4ccf-944e-034bbcc08f91","system_id":"levelo_inurba_marseille","lat":43.275028,"lon":5.424534,"is_reserved":false,"is_disabled":false,"rental_uris":{"android":"levelo://app?vid=41bc15f8-3b1d-4ccf-944e-034bbcc08f91","ios":"levelo://app?vid=41bc15f8-3b1d-4ccf-944e-034bbcc08f91"},"vehicle_type_id":"4","last_reported":1702818451,"current_range_meters":29600,"station_id":"ce4bhn92rcd13ifvqgrg","pricing_plan_id":"free"},{"bike_id":"26edb7e5-1cc5-434c-a417-271b88181037","system_id":"levelo_inurba_marseille","lat":43.275028,"lon":5.424534,"is_reserved":false,"is_disabled":false,"rental_uris":{"android":"levelo://app?vid=26edb7e5-1cc5-434c-a417-271b88181037","ios":"levelo://app?vid=26edb7e5-1cc5-434c-a417-271b88181037"},"vehicle_type_id":"4","last_reported":1702818451,"current_range_meters":28400,"station_id":"ce4bhn92rcd13ifvqgrg","pricing_plan_id":"free"},{"bike_id":"86e8efcc-9a9d-4657-8fc4-7b76fe514acc","system_id":"levelo_inurba_marseille","lat":43.275028,"lon":5.424534,"is_reserved":false,"is_disabled":false,"rental_uris":{"android":"levelo://app?vid=86e8efcc-9a9d-4657-8fc4-7b76fe514acc","ios":"levelo://app?vid=86e8efcc-9a9d-4657-8fc4-7b76fe514acc"},"vehicle_type_id":"4","last_reported":1702818451,"current_range_meters":10400,"station_id":"ce4bhn92rcd13ifvqgrg","pricing_plan_id":"free"},{"bike_id":"b6836b5c-bf87-43d1-afcb-477e491235ab","system_id":"levelo_inurba_marseille","lat":43.26087,"lon":5.397652,"is_reserved":false,"is_disabled":false,"rental_uris":{"android":"levelo://app?vid=b6836b5c-bf87-43d1-afcb-477e491235ab","ios":"levelo://app?vid=b6836b5c-bf87-43d1-afcb-477e491235ab"},"vehicle_type_id":"4","last_reported":1702818451,"current_range_meters":800,"station_id":"","pricing_plan_id":"free"},{"bike_id":"9a221386-4eef-461d-8e18-f3fc3f633bbb","system_id":"levelo_inurba_marseille","lat":43.25739,"lon":5.38979,"is_reserved":false,"is_disabled":false,"rental_uris":{"android":"levelo://app?vid=9a221386-4eef-461d-8e18-f3fc3f633bbb","ios":"levelo://app?vid=9a221386-4eef-461d-8e18-f3fc3f633bbb"},"vehicle_type_id":"4","last_reported":1702818451,"current_range_meters":22000,"station_id":"","pricing_plan_id":"free"},{"bike_id":"c389d107-e6f2-478d-bd6a-ba0085ee0286","system_id":"levelo_inurba_marseille","lat":43.258318,"lon":5.394359,"is_reserved":false,"is_disabled":false,"rental_uris":{"android":"levelo://app?vid=c389d107-e6f2-478d-bd6a-ba0085ee0286","ios":"levelo://app?vid=c389d107-e6f2-478d-bd6a-ba0085ee0286"},"vehicle_type_id":"4","last_reported":1702818451,"current_range_meters":24400,"station_id":"ce4bhip2rcd13ifvqft0","pricing_plan_id":"free"},{"bike_id":"62de9976-dd34-404c-96bc-3d17794f52cd","system_id":"levelo_inurba_marseille","lat":43.255779,"lon":5.382321,"is_reserved":false,"is_disabled":false,"rental_uris":{"android":"levelo://app?vid=62de9976-dd34-404c-96bc-3d17794f52cd","ios":"levelo://app?vid=62de9976-dd34-404c-96bc-3d17794f52cd"},"vehicle_type_id":"4","last_reported":1702818451,"current_range_meters":29200,"station_id":"ce4bhih2rcd13ifvqfs0","pricing_plan_id":"free"},{"bike_id":"4a14eb90-0bcc-46d5-a7ef-68f7a4f98435","system_id":"levelo_inurba_marseille","lat":43.25576,"lon":5.38235,"is_reserved":false,"is_disabled":false,"rental_uris":{"android":"levelo://app?vid=4a14eb90-0bcc-46d5-a7ef-68f7a4f98435","ios":"levelo://app?vid=4a14eb90-0bcc-46d5-a7ef-68f7a4f98435"},"vehicle_type_id":"4","last_reported":1702818451,"current_range_meters":29600,"station_id":"ce4bhih2rcd13ifvqfs0","pricing_plan_id":"free"},{"bike_id":"2539639d-cda5-4ce6-bc65-33fce580fc04","system_id":"levelo_inurba_marseille","lat":43.254947,"lon":5.376454,"is_reserved":false,"is_disabled":false,"rental_uris":{"android":"levelo://app?vid=2539639d-cda5-4ce6-bc65-33fce580fc04","ios":"levelo://app?vid=2539639d-cda5-4ce6-bc65-33fce580fc04"},"vehicle_type_id":"4","last_reported":1702818451,"current_range_meters":10000,"station_id":"ce4bhh12rcd13ifvqff0","pricing_plan_id":"free"},{"bike_id":"7c68a6d7-1021-48f8-8474-744cd32fe033","system_id":"levelo_inurba_marseille","lat":43.27066,"lon":5.4228,"is_reserved":false,"is_disabled":false,"rental_uris":{"android":"levelo://app?vid=7c68a6d7-1021-48f8-8474-744cd32fe033","ios":"levelo://app?vid=7c68a6d7-1021-48f8-8474-744cd32fe033"},"vehicle_type_id":"4","last_reported":1702818451,"current_range_meters":20800,"station_id":"ce4bhk92rcd13ifvqgb0","pricing_plan_id":"free"},{"bike_id":"e22bfa2e-887e-4f39-94a3-367bba166b50","system_id":"levelo_inurba_marseille","lat":43.27069,"lon":5.42285,"is_reserved":false,"is_disabled":false,"rental_uris":{"android":"levelo://app?vid=e22bfa2e-887e-4f39-94a3-367bba166b50","ios":"levelo://app?vid=e22bfa2e-887e-4f39-94a3-367bba166b50"},"vehicle_type_id":"4","last_reported":1702818451,"current_range_meters":10400,"station_id":"ce4bhk92rcd13ifvqgb0","pricing_plan_id":"free"},{"bike_id":"93843a82-5a46-49fc-906b-f676445f2645","system_id":"levelo_inurba_marseille","lat":43.258658,"lon":5.398935,"is_reserved":false,"is_disabled":false,"rental_uris":{"android":"levelo://app?vid=93843a82-5a46-49fc-906b-f676445f2645","ios":"levelo://app?vid=93843a82-5a46-49fc-906b-f676445f2645"},"vehicle_type_id":"4","last_reported":1702818451,"current_range_meters":3600,"station_id":"ce4bhl92rcd13ifvqghg","pricing_plan_id":"free"},{"bike_id":"5afff893-1b27-4dd3-9c58-d4f78a2b7af9","system_id":"levelo_inurba_marseille","lat":43.258658,"lon":5.398935,"is_reserved":false,"is_disabled":false,"rental_uris":{"android":"levelo://app?vid=5afff893-1b27-4dd3-9c58-d4f78a2b7af9","ios":"levelo://app?vid=5afff893-1b27-4dd3-9c58-d4f78a2b7af9"},"vehicle_type_id":"4","last_reported":1702818451,"current_range_meters":16400,"station_id":"ce4bhl92rcd13ifvqghg","pricing_plan_id":"free"},{"bike_id":"2ff6c3bc-498c-4825-9301-32899d54408c","system_id":"levelo_inurba_marseille","lat":43.258658,"lon":5.398935,"is_reserved":false,"is_disabled":false,"rental_uris":{"android":"levelo://app?vid=2ff6c3bc-498c-4825-9301-32899d54408c","ios":"levelo://app?vid=2ff6c3bc-498c-4825-9301-32899d54408c"},"vehicle_type_id":"4","last_reported":1702818451,"current_range_meters":24800,"station_id":"ce4bhl92rcd13ifvqghg","pricing_plan_id":"free"},{"bike_id":"486de631-4303-438d-8a28-45c67f8e2772","system_id":"levelo_inurba_marseille","lat":43.2593,"lon":5.40907,"is_reserved":false,"is_disabled":false,"rental_uris":{"android":"levelo://app?vid=486de631-4303-438d-8a28-45c67f8e2772","ios":"levelo://app?vid=486de631-4303-438d-8a28-45c67f8e2772"},"vehicle_type_id":"4","last_reported":1702818451,"current_range_meters":18400,"station_id":"ce4bhm92rcd13ifvqglg","pricing_plan_id":"free"},{"bike_id":"e341de01-5fcc-4f5d-9a6e-add29695d1df","system_id":"levelo_inurba_marseille","lat":43.25932,"lon":5.40917,"is_reserved":false,"is_disabled":false,"rental_uris":{"android":"levelo://app?vid=e341de01-5fcc-4f5d-9a6e-add29695d1df","ios":"levelo://app?vid=e341de01-5fcc-4f5d-9a6e-add29695d1df"},"vehicle_type_id":"4","last_reported":1702818451,"current_range_meters":17600,"station_id":"ce4bhm92rcd13ifvqglg","pricing_plan_id":"free"},{"bike_id":"790f0c85-435e-464f-af9f-df0afa087a9d","system_id":"levelo_inurba_marseille","lat":43.259283,"lon":5.40912,"is_reserved":false,"is_disabled":false,"rental_uris":{"android":"levelo://app?vid=790f0c85-435e-464f-af9f-df0afa087a9d","ios":"levelo://app?vid=790f0c85-435e-464f-af9f-df0afa087a9d"},"vehicle_type_id":"4","last_reported":1702818451,"current_range_meters":31600,"station_id":"ce4bhm92rcd13ifvqglg","pricing_plan_id":"free"},{"bike_id":"c42c8265-a87f-4db6-b8a4-696660579129","system_id":"levelo_inurba_marseille","lat":43.257079,"lon":5.411051,"is_reserved":false,"is_disabled":false,"rental_uris":{"android":"levelo://app?vid=c42c8265-a87f-4db6-b8a4-696660579129","ios":"levelo://app?vid=c42c8265-a87f-4db6-b8a4-696660579129"},"vehicle_type_id":"4","last_reported":1702818451,"current_range_meters":29600,"station_id":"ce4bhkp2rcd13ifvqgd0","pricing_plan_id":"free"},{"bike_id":"b975f840-e9e7-4103-847b-0b0ed2380f1b","system_id":"levelo_inurba_marseille","lat":43.257079,"lon":5.411051,"is_reserved":false,"is_disabled":false,"rental_uris":{"android":"levelo://app?vid=b975f840-e9e7-4103-847b-0b0ed2380f1b","ios":"levelo://app?vid=b975f840-e9e7-4103-847b-0b0ed2380f1b"},"vehicle_type_id":"4","last_reported":1702818451,"current_range_meters":27200,"station_id":"ce4bhkp2rcd13ifvqgd0","pricing_plan_id":"free"},{"bike_id":"0e59f729-2f39-4646-9170-c1a3a820db3b","system_id":"levelo_inurba_marseille","lat":43.257079,"lon":5.411051,"is_reserved":false,"is_disabled":false,"rental_uris":{"android":"levelo://app?vid=0e59f729-2f39-4646-9170-c1a3a820db3b","ios":"levelo://app?vid=0e59f729-2f39-4646-9170-c1a3a820db3b"},"vehicle_type_id":"4","last_reported":1702818451,"current_range_meters":17200,"station_id":"ce4bhkp2rcd13ifvqgd0","pricing_plan_id":"free"},{"bike_id":"3cec78b0-b5aa-41c7-86c1-de0e9bda6db8","system_id":"levelo_inurba_marseille","lat":43.25006,"lon":5.38915,"is_reserved":false,"is_disabled":false,"rental_uris":{"android":"levelo://app?vid=3cec78b0-b5aa-41c7-86c1-de0e9bda6db8","ios":"levelo://app?vid=3cec78b0-b5aa-41c7-86c1-de0e9bda6db8"},"vehicle_type_id":"4","last_reported":1702818451,"current_range_meters":11600,"station_id":"ce4bhgp2rcd13ifvqfd0","pricing_plan_id":"free"},{"bike_id":"cfdb5aee-8cde-4ef1-a0fa-0c2f819e64ed","system_id":"levelo_inurba_marseille","lat":43.250009,"lon":5.389195,"is_reserved":false,"is_disabled":false,"rental_uris":{"android":"levelo://app?vid=cfdb5aee-8cde-4ef1-a0fa-0c2f819e64ed","ios":"levelo://app?vid=cfdb5aee-8cde-4ef1-a0fa-0c2f819e64ed"},"vehicle_type_id":"4","last_reported":1702818451,"current_range_meters":30400,"station_id":"ce4bhgp2rcd13ifvqfd0","pricing_plan_id":"free"},{"bike_id":"c7ea5a5d-89a6-47b0-b388-f1f4d7c62a2d","system_id":"levelo_inurba_marseille","lat":43.250009,"lon":5.389195,"is_reserved":false,"is_disabled":false,"rental_uris":{"android":"levelo://app?vid=c7ea5a5d-89a6-47b0-b388-f1f4d7c62a2d","ios":"levelo://app?vid=c7ea5a5d-89a6-47b0-b388-f1f4d7c62a2d"},"vehicle_type_id":"4","last_reported":1702818451,"current_range_meters":6800,"station_id":"ce4bhgp2rcd13ifvqfd0","pricing_plan_id":"free"},{"bike_id":"8369948a-1480-4003-854c-86ad37fffc9e","system_id":"levelo_inurba_marseille","lat":43.250009,"lon":5.389195,"is_reserved":false,"is_disabled":false,"rental_uris":{"android":"levelo://app?vid=8369948a-1480-4003-854c-86ad37fffc9e","ios":"levelo://app?vid=8369948a-1480-4003-854c-86ad37fffc9e"},"vehicle_type_id":"4","last_reported":1702818451,"current_range_meters":26800,"station_id":"ce4bhgp2rcd13ifvqfd0","pricing_plan_id":"free"},{"bike_id":"8df8e06b-ae3d-4c31-b5a7-0a836e8e6d7f","system_id":"levelo_inurba_marseille","lat":43.2479,"lon":5.374457,"is_reserved":false,"is_disabled":false,"rental_uris":{"android":"levelo://app?vid=8df8e06b-ae3d-4c31-b5a7-0a836e8e6d7f","ios":"levelo://app?vid=8df8e06b-ae3d-4c31-b5a7-0a836e8e6d7f"},"vehicle_type_id":"4","last_reported":1702818451,"current_range_meters":2800,"station_id":"ce4bhgh2rcd13ifvqfb0","pricing_plan_id":"free"},{"bike_id":"9cd5c80c-b27e-4663-a41b-eea86740b03a","system_id":"levelo_inurba_marseille","lat":43.2479,"lon":5.374457,"is_reserved":false,"is_disabled":false,"rental_uris":{"android":"levelo://app?vid=9cd5c80c-b27e-4663-a41b-eea86740b03a","ios":"levelo://app?vid=9cd5c80c-b27e-4663-a41b-eea86740b03a"},"vehicle_type_id":"4","last_reported":1702818451,"current_range_meters":1600,"station_id":"ce4bhgh2rcd13ifvqfb0","pricing_plan_id":"free"},{"bike_id":"d9bd2fff-02e1-40d4-ac78-847535def563","system_id":"levelo_inurba_marseille","lat":43.2479,"lon":5.374457,"is_reserved":false,"is_disabled":false,"rental_uris":{"android":"levelo://app?vid=d9bd2fff-02e1-40d4-ac78-847535def563","ios":"levelo://app?vid=d9bd2fff-02e1-40d4-ac78-847535def563"},"vehicle_type_id":"4","last_reported":1702818451,"current_range_meters":21600,"station_id":"ce4bhgh2rcd13ifvqfb0","pricing_plan_id":"free"},{"bike_id":"6985841a-72da-472e-a517-232562f61d03","system_id":"levelo_inurba_marseille","lat":43.2479,"lon":5.374457,"is_reserved":false,"is_disabled":false,"rental_uris":{"android":"levelo://app?vid=6985841a-72da-472e-a517-232562f61d03","ios":"levelo://app?vid=6985841a-72da-472e-a517-232562f61d03"},"vehicle_type_id":"4","last_reported":1702818451,"current_range_meters":22400,"station_id":"ce4bhgh2rcd13ifvqfb0","pricing_plan_id":"free"},{"bike_id":"55fa5cdd-6045-46a4-92e0-a0a679b6911d","system_id":"levelo_inurba_marseille","lat":43.2479,"lon":5.374457,"is_reserved":false,"is_disabled":false,"rental_uris":{"android":"levelo://app?vid=55fa5cdd-6045-46a4-92e0-a0a679b6911d","ios":"levelo://app?vid=55fa5cdd-6045-46a4-92e0-a0a679b6911d"},"vehicle_type_id":"4","last_reported":1702818451,"current_range_meters":19600,"station_id":"ce4bhgh2rcd13ifvqfb0","pricing_plan_id":"free"},{"bike_id":"7ef0ddd8-45c3-435f-9618-0aad7fd513ed","system_id":"levelo_inurba_marseille","lat":43.2479,"lon":5.374457,"is_reserved":false,"is_disabled":false,"rental_uris":{"android":"levelo://app?vid=7ef0ddd8-45c3-435f-9618-0aad7fd513ed","ios":"levelo://app?vid=7ef0ddd8-45c3-435f-9618-0aad7fd513ed"},"vehicle_type_id":"4","last_reported":1702818451,"current_range_meters":4000,"station_id":"ce4bhgh2rcd13ifvqfb0","pricing_plan_id":"free"},{"bike_id":"910cd32f-3e42-4e78-9dd1-27a7c5d97bc8","system_id":"levelo_inurba_marseille","lat":43.25102,"lon":5.403214,"is_reserved":false,"is_disabled":false,"rental_uris":{"android":"levelo://app?vid=910cd32f-3e42-4e78-9dd1-27a7c5d97bc8","ios":"levelo://app?vid=910cd32f-3e42-4e78-9dd1-27a7c5d97bc8"},"vehicle_type_id":"4","last_reported":1702818451,"current_range_meters":7200,"station_id":"ce4bhlh2rcd13ifvqgig","pricing_plan_id":"free"},{"bike_id":"687adf15-9215-46c7-9e60-54619e51bfb0","system_id":"levelo_inurba_marseille","lat":43.25102,"lon":5.403214,"is_reserved":false,"is_disabled":false,"rental_uris":{"android":"levelo://app?vid=687adf15-9215-46c7-9e60-54619e51bfb0","ios":"levelo://app?vid=687adf15-9215-46c7-9e60-54619e51bfb0"},"vehicle_type_id":"4","last_reported":1702818451,"current_range_meters":27200,"station_id":"ce4bhlh2rcd13ifvqgig","pricing_plan_id":"free"},{"bike_id":"cda151f2-9ad2-46c9-9115-b73ba9a06619","system_id":"levelo_inurba_marseille","lat":43.25218,"lon":5.40642,"is_reserved":false,"is_disabled":false,"rental_uris":{"android":"levelo://app?vid=cda151f2-9ad2-46c9-9115-b73ba9a06619","ios":"levelo://app?vid=cda151f2-9ad2-46c9-9115-b73ba9a06619"},"vehicle_type_id":"4","last_reported":1702818451,"current_range_meters":0,"station_id":"","pricing_plan_id":"free"},{"bike_id":"c00c64f3-e3c6-4d6d-bf94-23f0ad1bce44","system_id":"levelo_inurba_marseille","lat":43.25102,"lon":5.403214,"is_reserved":false,"is_disabled":false,"rental_uris":{"android":"levelo://app?vid=c00c64f3-e3c6-4d6d-bf94-23f0ad1bce44","ios":"levelo://app?vid=c00c64f3-e3c6-4d6d-bf94-23f0ad1bce44"},"vehicle_type_id":"4","last_reported":1702818451,"current_range_meters":28800,"station_id":"ce4bhlh2rcd13ifvqgig","pricing_plan_id":"free"},{"bike_id":"4d1a019e-fdef-4b9d-a8bf-ac159288be0c","system_id":"levelo_inurba_marseille","lat":43.25102,"lon":5.403214,"is_reserved":false,"is_disabled":false,"rental_uris":{"android":"levelo://app?vid=4d1a019e-fdef-4b9d-a8bf-ac159288be0c","ios":"levelo://app?vid=4d1a019e-fdef-4b9d-a8bf-ac159288be0c"},"vehicle_type_id":"4","last_reported":1702818451,"current_range_meters":15600,"station_id":"ce4bhlh2rcd13ifvqgig","pricing_plan_id":"free"},{"bike_id":"5380edcd-7135-48ef-852a-5359059d1903","system_id":"levelo_inurba_marseille","lat":43.25102,"lon":5.403214,"is_reserved":false,"is_disabled":false,"rental_uris":{"android":"levelo://app?vid=5380edcd-7135-48ef-852a-5359059d1903","ios":"levelo://app?vid=5380edcd-7135-48ef-852a-5359059d1903"},"vehicle_type_id":"4","last_reported":1702818451,"current_range_meters":19200,"station_id":"ce4bhlh2rcd13ifvqgig","pricing_plan_id":"free"},{"bike_id":"1407eb79-1ffa-473a-bae3-7a73ffd8ac4d","system_id":"levelo_inurba_marseille","lat":43.25102,"lon":5.403214,"is_reserved":false,"is_disabled":false,"rental_uris":{"android":"levelo://app?vid=1407eb79-1ffa-473a-bae3-7a73ffd8ac4d","ios":"levelo://app?vid=1407eb79-1ffa-473a-bae3-7a73ffd8ac4d"},"vehicle_type_id":"4","last_reported":1702818451,"current_range_meters":19200,"station_id":"ce4bhlh2rcd13ifvqgig","pricing_plan_id":"free"},{"bike_id":"6cf58916-2577-42e0-ba2f-f1ea4c46e281","system_id":"levelo_inurba_marseille","lat":43.25102,"lon":5.403214,"is_reserved":false,"is_disabled":false,"rental_uris":{"android":"levelo://app?vid=6cf58916-2577-42e0-ba2f-f1ea4c46e281","ios":"levelo://app?vid=6cf58916-2577-42e0-ba2f-f1ea4c46e281"},"vehicle_type_id":"4","last_reported":1702818451,"current_range_meters":17600,"station_id":"ce4bhlh2rcd13ifvqgig","pricing_plan_id":"free"},{"bike_id":"9fca151b-c7e1-4d9e-a3ab-a5c3d18fa366","system_id":"levelo_inurba_marseille","lat":43.246461,"lon":5.389014,"is_reserved":false,"is_disabled":false,"rental_uris":{"android":"levelo://app?vid=9fca151b-c7e1-4d9e-a3ab-a5c3d18fa366","ios":"levelo://app?vid=9fca151b-c7e1-4d9e-a3ab-a5c3d18fa366"},"vehicle_type_id":"4","last_reported":1702818451,"current_range_meters":20800,"station_id":"ce4bhg12rcd13ifvqf60","pricing_plan_id":"free"},{"bike_id":"7084b186-9844-43b1-92e3-50ac5f88c779","system_id":"levelo_inurba_marseille","lat":43.246461,"lon":5.389014,"is_reserved":false,"is_disabled":false,"rental_uris":{"android":"levelo://app?vid=7084b186-9844-43b1-92e3-50ac5f88c779","ios":"levelo://app?vid=7084b186-9844-43b1-92e3-50ac5f88c779"},"vehicle_type_id":"4","last_reported":1702818451,"current_range_meters":12400,"station_id":"ce4bhg12rcd13ifvqf60","pricing_plan_id":"free"},{"bike_id":"ad39b28a-cc9c-451f-bec9-f872dbac09fc","system_id":"levelo_inurba_marseille","lat":43.24389,"lon":5.37059,"is_reserved":false,"is_disabled":false,"rental_uris":{"android":"levelo://app?vid=ad39b28a-cc9c-451f-bec9-f872dbac09fc","ios":"levelo://app?vid=ad39b28a-cc9c-451f-bec9-f872dbac09fc"},"vehicle_type_id":"4","last_reported":1702818451,"current_range_meters":20800,"station_id":"ce4bhhh2rcd13ifvqfk0","pricing_plan_id":"free"},{"bike_id":"3a342296-cbb3-4a72-9d8f-830899303254","system_id":"levelo_inurba_marseille","lat":43.24387,"lon":5.37063,"is_reserved":false,"is_disabled":false,"rental_uris":{"android":"levelo://app?vid=3a342296-cbb3-4a72-9d8f-830899303254","ios":"levelo://app?vid=3a342296-cbb3-4a72-9d8f-830899303254"},"vehicle_type_id":"4","last_reported":1702818451,"current_range_meters":29200,"station_id":"ce4bhhh2rcd13ifvqfk0","pricing_plan_id":"free"},{"bike_id":"e048174b-9a5a-45c9-9a41-3e830b6d71c5","system_id":"levelo_inurba_marseille","lat":43.24386,"lon":5.37061,"is_reserved":false,"is_disabled":false,"rental_uris":{"android":"levelo://app?vid=e048174b-9a5a-45c9-9a41-3e830b6d71c5","ios":"levelo://app?vid=e048174b-9a5a-45c9-9a41-3e830b6d71c5"},"vehicle_type_id":"4","last_reported":1702818451,"current_range_meters":21200,"station_id":"ce4bhhh2rcd13ifvqfk0","pricing_plan_id":"free"},{"bike_id":"e0e7e98d-f5be-42e3-a53a-67657e71f17a","system_id":"levelo_inurba_marseille","lat":43.243884,"lon":5.370736,"is_reserved":false,"is_disabled":false,"rental_uris":{"android":"levelo://app?vid=e0e7e98d-f5be-42e3-a53a-67657e71f17a","ios":"levelo://app?vid=e0e7e98d-f5be-42e3-a53a-67657e71f17a"},"vehicle_type_id":"4","last_reported":1702818451,"current_range_meters":30400,"station_id":"ce4bhhh2rcd13ifvqfk0","pricing_plan_id":"free"},{"bike_id":"85058c94-5578-48f1-ab4b-2928f9acb2c6","system_id":"levelo_inurba_marseille","lat":43.243884,"lon":5.370736,"is_reserved":false,"is_disabled":false,"rental_uris":{"android":"levelo://app?vid=85058c94-5578-48f1-ab4b-2928f9acb2c6","ios":"levelo://app?vid=85058c94-5578-48f1-ab4b-2928f9acb2c6"},"vehicle_type_id":"4","last_reported":1702818451,"current_range_meters":20000,"station_id":"ce4bhhh2rcd13ifvqfk0","pricing_plan_id":"free"},{"bike_id":"fb6b216e-c8bc-4f8b-9f09-6e8cc477e48d","system_id":"levelo_inurba_marseille","lat":43.243884,"lon":5.370736,"is_reserved":false,"is_disabled":false,"rental_uris":{"android":"levelo://app?vid=fb6b216e-c8bc-4f8b-9f09-6e8cc477e48d","ios":"levelo://app?vid=fb6b216e-c8bc-4f8b-9f09-6e8cc477e48d"},"vehicle_type_id":"4","last_reported":1702818451,"current_range_meters":27600,"station_id":"ce4bhhh2rcd13ifvqfk0","pricing_plan_id":"free"},{"bike_id":"faa31a7e-54c4-4e18-86c2-0c32117bc5eb","system_id":"levelo_inurba_marseille","lat":43.239588,"lon":5.366238,"is_reserved":false,"is_disabled":false,"rental_uris":{"android":"levelo://app?vid=faa31a7e-54c4-4e18-86c2-0c32117bc5eb","ios":"levelo://app?vid=faa31a7e-54c4-4e18-86c2-0c32117bc5eb"},"vehicle_type_id":"4","last_reported":1702818451,"current_range_meters":9600,"station_id":"ce4bhi12rcd13ifvqfp0","pricing_plan_id":"free"},{"bike_id":"99dddd79-2a07-4af0-a550-fe20dbb7cfbb","system_id":"levelo_inurba_marseille","lat":43.239588,"lon":5.366238,"is_reserved":false,"is_disabled":false,"rental_uris":{"android":"levelo://app?vid=99dddd79-2a07-4af0-a550-fe20dbb7cfbb","ios":"levelo://app?vid=99dddd79-2a07-4af0-a550-fe20dbb7cfbb"},"vehicle_type_id":"4","last_reported":1702818451,"current_range_meters":31200,"station_id":"ce4bhi12rcd13ifvqfp0","pricing_plan_id":"free"},{"bike_id":"7730620f-a9e2-4b07-acc8-c4873c875b7d","system_id":"levelo_inurba_marseille","lat":43.239588,"lon":5.366238,"is_reserved":false,"is_disabled":false,"rental_uris":{"android":"levelo://app?vid=7730620f-a9e2-4b07-acc8-c4873c875b7d","ios":"levelo://app?vid=7730620f-a9e2-4b07-acc8-c4873c875b7d"},"vehicle_type_id":"4","last_reported":1702818451,"current_range_meters":18800,"station_id":"ce4bhi12rcd13ifvqfp0","pricing_plan_id":"free"},{"bike_id":"052cba09-9723-4747-98d9-a70412aa9e3b","system_id":"levelo_inurba_marseille","lat":43.239588,"lon":5.366238,"is_reserved":false,"is_disabled":false,"rental_uris":{"android":"levelo://app?vid=052cba09-9723-4747-98d9-a70412aa9e3b","ios":"levelo://app?vid=052cba09-9723-4747-98d9-a70412aa9e3b"},"vehicle_type_id":"4","last_reported":1702818451,"current_range_meters":22400,"station_id":"ce4bhi12rcd13ifvqfp0","pricing_plan_id":"free"},{"bike_id":"c6d9dfd2-a539-439d-8118-546d7460c24f","system_id":"levelo_inurba_marseille","lat":43.239588,"lon":5.366238,"is_reserved":false,"is_disabled":false,"rental_uris":{"android":"levelo://app?vid=c6d9dfd2-a539-439d-8118-546d7460c24f","ios":"levelo://app?vid=c6d9dfd2-a539-439d-8118-546d7460c24f"},"vehicle_type_id":"4","last_reported":1702818451,"current_range_meters":16400,"station_id":"ce4bhi12rcd13ifvqfp0","pricing_plan_id":"free"},{"bike_id":"23d837c6-d638-457e-90aa-163ac6a13346","system_id":"levelo_inurba_marseille","lat":43.239588,"lon":5.366238,"is_reserved":false,"is_disabled":false,"rental_uris":{"android":"levelo://app?vid=23d837c6-d638-457e-90aa-163ac6a13346","ios":"levelo://app?vid=23d837c6-d638-457e-90aa-163ac6a13346"},"vehicle_type_id":"4","last_reported":1702818451,"current_range_meters":22400,"station_id":"ce4bhi12rcd13ifvqfp0","pricing_plan_id":"free"},{"bike_id":"19f1a767-c0b2-4444-bb14-afe4405aed67","system_id":"levelo_inurba_marseille","lat":43.239588,"lon":5.366238,"is_reserved":false,"is_disabled":false,"rental_uris":{"android":"levelo://app?vid=19f1a767-c0b2-4444-bb14-afe4405aed67","ios":"levelo://app?vid=19f1a767-c0b2-4444-bb14-afe4405aed67"},"vehicle_type_id":"4","last_reported":1702818451,"current_range_meters":18800,"station_id":"ce4bhi12rcd13ifvqfp0","pricing_plan_id":"free"},{"bike_id":"9cefd1c4-2654-4779-abc8-cbf8b8647f9a","system_id":"levelo_inurba_marseille","lat":43.239588,"lon":5.366238,"is_reserved":false,"is_disabled":false,"rental_uris":{"android":"levelo://app?vid=9cefd1c4-2654-4779-abc8-cbf8b8647f9a","ios":"levelo://app?vid=9cefd1c4-2654-4779-abc8-cbf8b8647f9a"},"vehicle_type_id":"4","last_reported":1702818451,"current_range_meters":6800,"station_id":"ce4bhi12rcd13ifvqfp0","pricing_plan_id":"free"},{"bike_id":"958f4ef7-1020-4ccd-8ff6-04ad9bdde8bf","system_id":"levelo_inurba_marseille","lat":43.239588,"lon":5.366238,"is_reserved":false,"is_disabled":false,"rental_uris":{"android":"levelo://app?vid=958f4ef7-1020-4ccd-8ff6-04ad9bdde8bf","ios":"levelo://app?vid=958f4ef7-1020-4ccd-8ff6-04ad9bdde8bf"},"vehicle_type_id":"4","last_reported":1702818451,"current_range_meters":10400,"station_id":"ce4bhi12rcd13ifvqfp0","pricing_plan_id":"free"},{"bike_id":"31dc2d98-2dec-4733-96da-afc5ca9ff1c3","system_id":"levelo_inurba_marseille","lat":43.239588,"lon":5.366238,"is_reserved":false,"is_disabled":false,"rental_uris":{"android":"levelo://app?vid=31dc2d98-2dec-4733-96da-afc5ca9ff1c3","ios":"levelo://app?vid=31dc2d98-2dec-4733-96da-afc5ca9ff1c3"},"vehicle_type_id":"4","last_reported":1702818451,"current_range_meters":23200,"station_id":"ce4bhi12rcd13ifvqfp0","pricing_plan_id":"free"},{"bike_id":"d19eda44-c59c-4f27-a3fe-d04f42d1bc4c","system_id":"levelo_inurba_marseille","lat":43.239588,"lon":5.366238,"is_reserved":false,"is_disabled":false,"rental_uris":{"android":"levelo://app?vid=d19eda44-c59c-4f27-a3fe-d04f42d1bc4c","ios":"levelo://app?vid=d19eda44-c59c-4f27-a3fe-d04f42d1bc4c"},"vehicle_type_id":"4","last_reported":1702818451,"current_range_meters":11600,"station_id":"ce4bhi12rcd13ifvqfp0","pricing_plan_id":"free"},{"bike_id":"391d21ee-50f4-4ad5-9205-d2446648b03a","system_id":"levelo_inurba_marseille","lat":43.2396,"lon":5.36625,"is_reserved":false,"is_disabled":false,"rental_uris":{"android":"levelo://app?vid=391d21ee-50f4-4ad5-9205-d2446648b03a","ios":"levelo://app?vid=391d21ee-50f4-4ad5-9205-d2446648b03a"},"vehicle_type_id":"4","last_reported":1702818451,"current_range_meters":13200,"station_id":"ce4bhi12rcd13ifvqfp0","pricing_plan_id":"free"},{"bike_id":"c9074b87-4262-4412-9d82-f62d3786e247","system_id":"levelo_inurba_marseille","lat":43.239588,"lon":5.366238,"is_reserved":false,"is_disabled":false,"rental_uris":{"android":"levelo://app?vid=c9074b87-4262-4412-9d82-f62d3786e247","ios":"levelo://app?vid=c9074b87-4262-4412-9d82-f62d3786e247"},"vehicle_type_id":"4","last_reported":1702818451,"current_range_meters":31200,"station_id":"ce4bhi12rcd13ifvqfp0","pricing_plan_id":"free"},{"bike_id":"d1a8358e-ea35-4d8f-bb74-cb28961860a8","system_id":"levelo_inurba_marseille","lat":43.239588,"lon":5.366238,"is_reserved":false,"is_disabled":false,"rental_uris":{"android":"levelo://app?vid=d1a8358e-ea35-4d8f-bb74-cb28961860a8","ios":"levelo://app?vid=d1a8358e-ea35-4d8f-bb74-cb28961860a8"},"vehicle_type_id":"4","last_reported":1702818451,"current_range_meters":6000,"station_id":"ce4bhi12rcd13ifvqfp0","pricing_plan_id":"free"},{"bike_id":"630cf2f9-baf1-4860-be47-7a66ce2ac839","system_id":"levelo_inurba_marseille","lat":43.239557,"lon":5.366315,"is_reserved":false,"is_disabled":false,"rental_uris":{"android":"levelo://app?vid=630cf2f9-baf1-4860-be47-7a66ce2ac839","ios":"levelo://app?vid=630cf2f9-baf1-4860-be47-7a66ce2ac839"},"vehicle_type_id":"4","last_reported":1702818451,"current_range_meters":24800,"station_id":"ce4bhi12rcd13ifvqfp0","pricing_plan_id":"free"},{"bike_id":"52cec7c2-48fa-468b-93eb-791e6fccd85c","system_id":"levelo_inurba_marseille","lat":43.241703,"lon":5.397313,"is_reserved":false,"is_disabled":false,"rental_uris":{"android":"levelo://app?vid=52cec7c2-48fa-468b-93eb-791e6fccd85c","ios":"levelo://app?vid=52cec7c2-48fa-468b-93eb-791e6fccd85c"},"vehicle_type_id":"4","last_reported":1702818451,"current_range_meters":15600,"station_id":"ce4bhn12rcd13ifvqgpg","pricing_plan_id":"free"},{"bike_id":"947bd8ef-34e9-47ae-9f34-7d97f76cae41","system_id":"levelo_inurba_marseille","lat":43.23429,"lon":5.35945,"is_reserved":false,"is_disabled":false,"rental_uris":{"android":"levelo://app?vid=947bd8ef-34e9-47ae-9f34-7d97f76cae41","ios":"levelo://app?vid=947bd8ef-34e9-47ae-9f34-7d97f76cae41"},"vehicle_type_id":"4","last_reported":1702818451,"current_range_meters":13600,"station_id":"","pricing_plan_id":"free"},