{"last_updated":1730491815,"ttl":60,"version":"2.2","data":{"bikes":[{"bike_id":"4cf13f4a-64af-4166-b132-8fe405819188","system_id":"levelo_inurba_marseille","lat":43.25502,"lon":5.37655,"is_reserved":false,"is_disabled":false,"rental_uris":{"android":"levelo://app?vid=4cf13f4a-64af-4166-b132-8fe405819188","ios":"levelo://app?vid=4cf13f4a-64af-4166-b132-8fe405819188"},"vehicle_type_id":"4","last_reported":1730491816,"current_range_meters":24800,"station_id":"ce4bhh12rcd13ifvqff0","pricing_plan_id":"cebpf4jnsgd1na2vs0mg"},{"bike_id":"36d826ee-cf04-49f1-91ed-9dfd2b3e4728","system_id":"levelo_inurba_marseille","lat":43.29604,"lon":5.38091,"is_reserved":false,"is_disabled":false,"rental_uris":{"android":"levelo://app?vid=36d826ee-cf04-49f1-91ed-9dfd2b3e4728","ios":"levelo://app?vid=36d826ee-cf04-49f1-91ed-9dfd2b3e4728"},"vehicle_type_id":"4","last_reported":1730491816,"current_range_meters":36000,"station_id":"ce4bgl12rcd13ifvqbo0","pricing_plan_id":"cebpf4jnsgd1na2vs0mg"},{"bike_id":"deb0813f-bc6d-4259-9253-38c4df4ce6eb","system_id":"levelo_inurba_marseille","lat":43.30196,"lon":5.36611,"is_reserved":false,"is_disabled":false,"rental_uris":{"android":"levelo://app?vid=deb0813f-bc6d-4259-9253-38c4df4ce6eb","ios":"levelo://app?vid=deb0813f-bc6d-4259-9253-38c4df4ce6eb"},"vehicle_type_id":"4","last_reported":1730491816,"current_range_meters":39200,"station_id":"ce4bgrh2rcd13ifvqc8g","pricing_plan_id":"cebpf4jnsgd1na2vs0mg"},{"bike_id":"7f47fea8-3b5e-437a-a31e-f4194bf70b17","system_id":"levelo_inurba_marseille","lat":43.24658,"lon":5.3816,"is_reserved":false,"is_disabled":false,"rental_uris":{"android":"levelo://app?vid=7f47fea8-3b5e-437a-a31e-f4194bf70b17","ios":"levelo://app?vid=7f47fea8-3b5e-437a-a31e-f4194bf70b17"},"vehicle_type_id":"4","last_reported":1730491816,"current_range_meters":32800,"station_id":"ce4bhih2rcd13ifvqfr0","pricing_plan_id":"cebpf4jnsgd1na2vs0mg"},{"bike_id":"2c8a4263-6f69-484f-8ecb-39d7c98fd1f6","system_id":"levelo_inurba_marseille","lat":43.29975,"lon":5.3718,"is_reserved":false,"is_disabled":false,"rental_uris":{"android":"levelo://app?vid=2c8a4263-6f69-484f-8ecb-39d7c98fd1f6","ios":"levelo://app?vid=2c8a4263-6f69-484f-8ecb-39d7c98fd1f6"},"vehicle_type_id":"4","last_reported":1730491816,"current_range_meters":36400,"station_id":"ce4bgr92rcd13ifvqc7g","pricing_plan_id":"cebpf4jnsgd1na2vs0mg"},{"bike_id":"53361ed5-44e3-4331-b1db-d839ce43605d","system_id":"levelo_inurba_marseille","lat":43.32655,"lon":5.40993,"is_reserved":false,"is_disabled":false,"rental_uris":{"android":"levelo://app?vid=53361ed5-44e3-4331-b1db-d839ce43605d","ios":"levelo://app?vid=53361ed5-44e3-4331-b1db-d839ce43605d"},"vehicle_type_id":"4","last_reported":1730491816,"current_range_meters":6800,"station_id":"ce4bhpp2rcd13ifvqhgg","pricing_plan_id":"cebpf4jnsgd1na2vs0mg"},{"bike_id":"8682c02d-b75e-4986-bf40-c0b0cf6578e7","system_id":"levelo_inurba_marseille","lat":43.32108,"lon":5.36778,"is_reserved":false,"is_disabled":false,"rental_uris":{"android":"levelo://app?vid=8682c02d-b75e-4986-bf40-c0b0cf6578e7","ios":"levelo://app?vid=8682c02d-b75e-4986-bf40-c0b0cf6578e7"},"vehicle_type_id":"4","last_reported":1730491816,"current_range_meters":5600,"station_id":"ce4bhrh2rcd13ifvqhug","pricing_plan_id":"cebpf4jnsgd1na2vs0mg"},{"bike_id":"4060b50c-15a4-41ff-9d32-c5b655d62ee3","system_id":"levelo_inurba_marseille","lat":43.287657,"lon":5.390107,"is_reserved":false,"is_disabled":false,"rental_uris":{"android":"levelo://app?vid=4060b50c-15a4-41ff-9d32-c5b655d62ee3","ios":"levelo://app?vid=4060b50c-15a4-41ff-9d32-c5b655d62ee3"},"vehicle_type_id":"4","last_reported":1730491816,"current_range_meters":8400,"station_id":"","pricing_plan_id":"cebpf4jnsgd1na2vs0mg"},{"bike_id":"05ee8879-8815-4ec0-8f3b-ab65d73dd57e","system_id":"levelo_inurba_marseille","lat":43.29172,"lon":5.37154,"is_reserved":false,"is_disabled":false,"rental_uris":{"android":"levelo://app?vid=05ee8879-8815-4ec0-8f3b-ab65d73dd57e","ios":"levelo://app?vid=05ee8879-8815-4ec0-8f3b-ab65d73dd57e"},"vehicle_type_id":"4","last_reported":1730491816,"current_range_meters":38000,"station_id":"ce4bha92rcd13ifvqeh0","pricing_plan_id":"cebpf4jnsgd1na2vs0mg"},{"bike_id":"da4b1b9f-a552-4935-bde7-5d2e3f226f86","system_id":"levelo_inurba_marseille","lat":43.29553,"lon":5.42292,"is_reserved":false,"is_disabled":false,"rental_uris":{"android":"levelo://app?vid=da4b1b9f-a552-4935-bde7-5d2e3f226f86","ios":"levelo://app?vid=da4b1b9f-a552-4935-bde7-5d2e3f226f86"},"vehicle_type_id":"4","last_reported":1730491816,"current_range_meters":29600,"station_id":"ce4bhph2rcd13ifvqhdg","pricing_plan_id":"cebpf4jnsgd1na2vs0mg"},{"bike_id":"abf0a42e-7c85-455c-a662-bbdc24f2fbca","system_id":"levelo_inurba_marseille","lat":43.30158,"lon":5.39882,"is_reserved":false,"is_disabled":false,"rental_uris":{"android":"levelo://app?vid=abf0a42e-7c85-455c-a662-bbdc24f2fbca","ios":"levelo://app?vid=abf0a42e-7c85-455c-a662-bbdc24f2fbca"},"vehicle_type_id":"4","last_reported":1730491816,"current_range_meters":36400,"station_id":"ce4bh0h2rcd13ifvqd40","pricing_plan_id":"cebpf4jnsgd1na2vs0mg"},{"bike_id":"23066aa4-c2b2-4afc-8edc-719a1efd2d63","system_id":"levelo_inurba_marseille","lat":43.30423,"lon":5.39745,"is_reserved":false,"is_disabled":false,"rental_uris":{"android":"levelo://app?vid=23066aa4-c2b2-4afc-8edc-719a1efd2d63","ios":"levelo://app?vid=23066aa4-c2b2-4afc-8edc-719a1efd2d63"},"vehicle_type_id":"4","last_reported":1730491816,"current_range_meters":6800,"station_id":"ce4bh092rcd13ifvqd20","pricing_plan_id":"cebpf4jnsgd1na2vs0mg"},{"bike_id":"bc9f1558-18b8-4bda-8203-b5199362f9bb","system_id":"levelo_inurba_marseille","lat":43.2952,"lon":5.39035,"is_reserved":false,"is_disabled":false,"rental_uris":{"android":"levelo://app?vid=bc9f1558-18b8-4bda-8203-b5199362f9bb","ios":"levelo://app?vid=bc9f1558-18b8-4bda-8203-b5199362f9bb"},"vehicle_type_id":"4","last_reported":1730491816,"current_range_meters":38000,"station_id":"ce4bh3p2rcd13ifvqdp0","pricing_plan_id":"cebpf4jnsgd1na2vs0mg"},{"bike_id":"a86a23e3-77bc-440c-9488-7ddcfc3b780c","system_id":"levelo_inurba_marseille","lat":43.29041,"lon":5.39972,"is_reserved":false,"is_disabled":false,"rental_uris":{"android":"levelo://app?vid=a86a23e3-77bc-440c-9488-7ddcfc3b780c","ios":"levelo://app?vid=a86a23e3-77bc-440c-9488-7ddcfc3b780c"},"vehicle_type_id":"4","last_reported":1730491816,"current_range_meters":38800,"station_id":"ce4bh392rcd13ifvqdm0","pricing_plan_id":"cebpf4jnsgd1na2vs0mg"},{"bike_id":"512c4bd5-3edb-49b7-a54a-bbe327a08aa0","system_id":"levelo_inurba_marseille","lat":43.25732,"lon":5.41105,"is_reserved":false,"is_disabled":false,"rental_uris":{"android":"levelo://app?vid=512c4bd5-3edb-49b7-a54a-bbe327a08aa0","ios":"levelo://app?vid=512c4bd5-3edb-49b7-a54a-bbe327a08aa0"},"vehicle_type_id":"4","last_reported":1730491816,"current_range_meters":16800,"station_id":"ce4bhkp2rcd13ifvqgd0","pricing_plan_id":"cebpf4jnsgd1na2vs0mg"},{"bike_id":"a4627486-a087-47d1-bdea-e9476cd49986","system_id":"levelo_inurba_marseille","lat":43.23197,"lon":5.35547,"is_reserved":false,"is_disabled":false,"rental_uris":{"android":"levelo://app?vid=a4627486-a087-47d1-bdea-e9476cd49986","ios":"levelo://app?vid=a4627486-a087-47d1-bdea-e9476cd49986"},"vehicle_type_id":"4","last_reported":1730491816,"current_range_meters":30000,"station_id":"ce4bhu92rcd13ifvqi70","pricing_plan_id":"cebpf4jnsgd1na2vs0mg"},{"bike_id":"98606055-e59c-468c-9d5f-0ff0d6cc7798","system_id":"levelo_inurba_marseille","lat":43.29608,"lon":5.38097,"is_reserved":false,"is_disabled":false,"rental_uris":{"android":"levelo://app?vid=98606055-e59c-468c-9d5f-0ff0d6cc7798","ios":"levelo://app?vid=98606055-e59c-468c-9d5f-0ff0d6cc7798"},"vehicle_type_id":"4","last_reported":1730491816,"current_range_meters":32000,"station_id":"ce4bgl12rcd13ifvqbo0","pricing_plan_id":"cebpf4jnsgd1na2vs0mg"},{"bike_id":"509a9bdc-ca48-4855-8040-748bb9b3087b","system_id":"levelo_inurba_marseille","lat":43.25942,"lon":5.40902,"is_reserved":false,"is_disabled":false,"rental_uris":{"android":"levelo://app?vid=509a9bdc-ca48-4855-8040-748bb9b3087b","ios":"levelo://app?vid=509a9bdc-ca48-4855-8040-748bb9b3087b"},"vehicle_type_id":"4","last_reported":1730491816,"current_range_meters":26000,"station_id":"ce4bhm92rcd13ifvqglg","pricing_plan_id":"cebpf4jnsgd1na2vs0mg"},{"bike_id":"808ce341-fd04-452b-9d43-2ae4f8119e47","system_id":"levelo_inurba_marseille","lat":43.29717,"lon":5.37687,"is_reserved":false,"is_disabled":false,"rental_uris":{"android":"levelo://app?vid=808ce341-fd04-452b-9d43-2ae4f8119e47","ios":"levelo://app?vid=808ce341-fd04-452b-9d43-2ae4f8119e47"},"vehicle_type_id":"4","last_reported":1730491816,"current_range_meters":38800,"station_id":"ce4bgkh2rcd13ifvqbl0","pricing_plan_id":"cebpf4jnsgd1na2vs0mg"},{"bike_id":"87ed5b90-8e03-4a43-b258-8b0293b00409","system_id":"levelo_inurba_marseille","lat":43.28615,"lon":5.35097,"is_reserved":false,"is_disabled":false,"rental_uris":{"android":"levelo://app?vid=87ed5b90-8e03-4a43-b258-8b0293b00409","ios":"levelo://app?vid=87ed5b90-8e03-4a43-b258-8b0293b00409"},"vehicle_type_id":"4","last_reported":1730491816,"current_range_meters":14400,"station_id":"ce4bhch2rcd13ifvqeug","pricing_plan_id":"cebpf4jnsgd1na2vs0mg"},{"bike_id":"51995655-fa6e-4e22-8162-d6b09e3c2ea4","system_id":"levelo_inurba_marseille","lat":43.248,"lon":5.37448,"is_reserved":false,"is_disabled":false,"rental_uris":{"android":"levelo://app?vid=51995655-fa6e-4e22-8162-d6b09e3c2ea4","ios":"levelo://app?vid=51995655-fa6e-4e22-8162-d6b09e3c2ea4"},"vehicle_type_id":"4","last_reported":1730491816,"current_range_meters":14000,"station_id":"ce4bhgh2rcd13ifvqfb0","pricing_plan_id":"cebpf4jnsgd1na2vs0mg"},{"bike_id":"b2c85ca3-68d2-465d-a917-20dbea82fb4b","system_id":"levelo_inurba_marseille","lat":43.28729,"lon":5.37931,"is_reserved":false,"is_disabled":false,"rental_uris":{"android":"levelo://app?vid=b2c85ca3-68d2-465d-a917-20dbea82fb4b","ios":"levelo://app?vid=b2c85ca3-68d2-465d-a917-20dbea82fb4b"},"vehicle_type_id":"4","last_reported":1730491816,"current_range_meters":22000,"station_id":"ce4bh9p2rcd13ifvqec0","pricing_plan_id":"cebpf4jnsgd1na2vs0mg"},{"bike_id":"fe897454-dffc-4f65-b97d-08e45f23a6e2","system_id":"levelo_inurba_marseille","lat":43.29172,"lon":5.37151,"is_reserved":false,"is_disabled":false,"rental_uris":{"android":"levelo://app?vid=fe897454-dffc-4f65-b97d-08e45f23a6e2","ios":"levelo://app?vid=fe897454-dffc-4f65-b97d-08e45f23a6e2"},"vehicle_type_id":"4","last_reported":1730491816,"current_range_meters":22400,"station_id":"ce4bha92rcd13ifvqeh0","pricing_plan_id":"cebpf4jnsgd1na2vs0mg"},{"bike_id":"efbe383f-83c6-4df5-ac1f-ffa8f2e0197b","system_id":"levelo_inurba_marseille","lat":43.31335,"lon":5.39699,"is_reserved":false,"is_disabled":false,"rental_uris":{"android":"levelo://app?vid=efbe383f-83c6-4df5-ac1f-ffa8f2e0197b","ios":"levelo://app?vid=efbe383f-83c6-4df5-ac1f-ffa8f2e0197b"},"vehicle_type_id":"4","last_reported":1730491816,"current_range_meters":8400,"station_id":"ce4bgvp2rcd13ifvqcu0","pricing_plan_id":"cebpf4jnsgd1na2vs0mg"},{"bike_id":"1abcbad3-5258-4bc6-a90d-bdb1caec2037","system_id":"levelo_inurba_marseille","lat":43.25739,"lon":5.4111,"is_reserved":false,"is_disabled":false,"rental_uris":{"android":"levelo://app?vid=1abcbad3-5258-4bc6-a90d-bdb1caec2037","ios":"levelo://app?vid=1abcbad3-5258-4bc6-a90d-bdb1caec2037"},"vehicle_type_id":"4","last_reported":1730491816,"current_range_meters":3600,"station_id":"ce4bhkp2rcd13ifvqgd0","pricing_plan_id":"cebpf4jnsgd1na2vs0mg"},{"bike_id":"eead80c6-16a4-414f-bb42-55f7ee733971","system_id":"levelo_inurba_marseille","lat":43.30518,"lon":5.38423,"is_reserved":false,"is_disabled":false,"rental_uris":{"android":"levelo://app?vid=eead80c6-16a4-414f-bb42-55f7ee733971","ios":"levelo://app?vid=eead80c6-16a4-414f-bb42-55f7ee733971"},"vehicle_type_id":"4","last_reported":1730491816,"current_range_meters":6000,"station_id":"ce4bgg92rcd13ifvqb30","pricing_plan_id":"cebpf4jnsgd1na2vs0mg"},{"bike_id":"9372836d-5085-4681-8d53-b7d017ef6a3d","system_id":"levelo_inurba_marseille","lat":43.31061,"lon":5.3835,"is_reserved":false,"is_disabled":false,"rental_uris":{"android":"levelo://app?vid=9372836d-5085-4681-8d53-b7d017ef6a3d","ios":"levelo://app?vid=9372836d-5085-4681-8d53-b7d017ef6a3d"},"vehicle_type_id":"4","last_reported":1730491816,"current_range_meters":2800,"station_id":"ce4bgv92rcd13ifvqcr0","pricing_plan_id":"cebpf4jnsgd1na2vs0mg"},{"bike_id":"f1e1b728-9468-47b8-b2b9-f7d17346f789","system_id":"levelo_inurba_marseille","lat":43.30937,"lon":5.40132,"is_reserved":false,"is_disabled":false,"rental_uris":{"android":"levelo://app?vid=f1e1b728-9468-47b8-b2b9-f7d17346f789","ios":"levelo://app?vid=f1e1b728-9468-47b8-b2b9-f7d17346f789"},"vehicle_type_id":"4","last_reported":1730491816,"current_range_meters":2800,"station_id":"ce4bgvp2rcd13ifvqct0","pricing_plan_id":"cebpf4jnsgd1na2vs0mg"},{"bike_id":"3476600c-da9d-4dac-b50c-0322b1345e9e","system_id":"levelo_inurba_marseille","lat":43.272125,"lon":5.391691,"is_reserved":false,"is_disabled":false,"rental_uris":{"android":"levelo://app?vid=3476600c-da9d-4dac-b50c-0322b1345e9e","ios":"levelo://app?vid=3476600c-da9d-4dac-b50c-0322b1345e9e"},"vehicle_type_id":"4","last_reported":1730491816,"current_range_meters":36400,"station_id":"ce4bh392rcd13ifvqdl0","pricing_plan_id":"cebpf4jnsgd1na2vs0mg"},{"bike_id":"d939edb6-4472-4de1-920d-e35623da1e3c","system_id":"levelo_inurba_marseille","lat":43.27424,"lon":5.39418,"is_reserved":false,"is_disabled":false,"rental_uris":{"android":"levelo://app?vid=d939edb6-4472-4de1-920d-e35623da1e3c","ios":"levelo://app?vid=d939edb6-4472-4de1-920d-e35623da1e3c"},"vehicle_type_id":"4","last_reported":1730491816,"current_range_meters":32000,"station_id":"ce4bhdp2rcd13ifvqf20","pricing_plan_id":"cebpf4jnsgd1na2vs0mg"},{"bike_id":"49e7b56a-b112-474e-93f2-3e0625fc51c8","system_id":"levelo_inurba_marseille","lat":43.2801,"lon":5.4001,"is_reserved":false,"is_disabled":false,"rental_uris":{"android":"levelo://app?vid=49e7b56a-b112-474e-93f2-3e0625fc51c8","ios":"levelo://app?vid=49e7b56a-b112-474e-93f2-3e0625fc51c8"},"vehicle_type_id":"4","last_reported":1730491816,"current_range_meters":10000,"station_id":"ce4bho92rcd13ifvqh4g","pricing_plan_id":"cebpf4jnsgd1na2vs0mg"},{"bike_id":"53666ca2-d243-4f5e-8466-56bcf2799a94","system_id":"levelo_inurba_marseille","lat":43.29419,"lon":5.38629,"is_reserved":false,"is_disabled":false,"rental_uris":{"android":"levelo://app?vid=53666ca2-d243-4f5e-8466-56bcf2799a94","ios":"levelo://app?vid=53666ca2-d243-4f5e-8466-56bcf2799a94"},"vehicle_type_id":"4","last_reported":1730491816,"current_range_meters":12000,"station_id":"ce4bh2h2rcd13ifvqdh0","pricing_plan_id":"cebpf4jnsgd1na2vs0mg"},{"bike_id":"ca7418d4-c49d-4525-bde7-bfd3a3b3b27d","system_id":"levelo_inurba_marseille","lat":43.29424,"lon":5.38612,"is_reserved":false,"is_disabled":false,"rental_uris":{"android":"levelo://app?vid=ca7418d4-c49d-4525-bde7-bfd3a3b3b27d","ios":"levelo://app?vid=ca7418d4-c49d-4525-bde7-bfd3a3b3b27d"},"vehicle_type_id":"4","last_reported":1730491816,"current_range_meters":38800,"station_id":"ce4bh2h2rcd13ifvqdh0","pricing_plan_id":"cebpf4jnsgd1na2vs0mg"},{"bike_id":"8e860348-228f-405d-89f1-b2d5a7b9c901","system_id":"levelo_inurba_marseille","lat":43.29601,"lon":5.38107,"is_reserved":false,"is_disabled":false,"rental_uris":{"android":"levelo://app?vid=8e860348-228f-405d-89f1-b2d5a7b9c901","ios":"levelo://app?vid=8e860348-228f-405d-89f1-b2d5a7b9c901"},"vehicle_type_id":"4","last_reported":1730491816,"current_range_meters":38800,"station_id":"ce4bgl12rcd13ifvqbo0","pricing_plan_id":"cebpf4jnsgd1na2vs0mg"},{"bike_id":"ea1c796d-8371-4a8a-bdfb-1d6794eb91c5","system_id":"levelo_inurba_marseille","lat":43.29722,"lon":5.37687,"is_reserved":false,"is_disabled":false,"rental_uris":{"android":"levelo://app?vid=ea1c796d-8371-4a8a-bdfb-1d6794eb91c5","ios":"levelo://app?vid=ea1c796d-8371-4a8a-bdfb-1d6794eb91c5"},"vehicle_type_id":"4","last_reported":1730491816,"current_range_meters":20400,"station_id":"ce4bgkh2rcd13ifvqbl0","pricing_plan_id":"cebpf4jnsgd1na2vs0mg"},{"bike_id":"c4483829-057c-4053-a470-ffe8fef2d834","system_id":"levelo_inurba_marseille","lat":43.29034,"lon":5.38138,"is_reserved":false,"is_disabled":false,"rental_uris":{"android":"levelo://app?vid=c4483829-057c-4053-a470-ffe8fef2d834","ios":"levelo://app?vid=c4483829-057c-4053-a470-ffe8fef2d834"},"vehicle_type_id":"4","last_reported":1730491816,"current_range_meters":16400,"station_id":"ce4bh4p2rcd13ifvqe1g","pricing_plan_id":"cebpf4jnsgd1na2vs0mg"},{"bike_id":"956f1479-9e28-47c4-8d7e-8d831209c19f","system_id":"levelo_inurba_marseille","lat":43.30216,"lon":5.39464,"is_reserved":false,"is_disabled":false,"rental_uris":{"android":"levelo://app?vid=956f1479-9e28-47c4-8d7e-8d831209c19f","ios":"levelo://app?vid=956f1479-9e28-47c4-8d7e-8d831209c19f"},"vehicle_type_id":"4","last_reported":1730491816,"current_range_meters":38400,"station_id":"ce4bh0p2rcd13ifvqd70","pricing_plan_id":"cebpf4jnsgd1na2vs0mg"},{"bike_id":"6225ba0b-7925-4506-85b2-638d85384e2b","system_id":"levelo_inurba_marseille","lat":43.25115,"lon":5.40333,"is_reserved":false,"is_disabled":false,"rental_uris":{"android":"levelo://app?vid=6225ba0b-7925-4506-85b2-638d85384e2b","ios":"levelo://app?vid=6225ba0b-7925-4506-85b2-638d85384e2b"},"vehicle_type_id":"4","last_reported":1730491816,"current_range_meters":9600,"station_id":"ce4bhlh2rcd13ifvqgig","pricing_plan_id":"cebpf4jnsgd1na2vs0mg"},{"bike_id":"6ec3b2a4-4cb3-468a-b871-648718498dbe","system_id":"levelo_inurba_marseille","lat":43.29417,"lon":5.38626,"is_reserved":false,"is_disabled":false,"rental_uris":{"android":"levelo://app?vid=6ec3b2a4-4cb3-468a-b871-648718498dbe","ios":"levelo://app?vid=6ec3b2a4-4cb3-468a-b871-648718498dbe"},"vehicle_type_id":"4","last_reported":1730491816,"current_range_meters":22800,"station_id":"ce4bh2h2rcd13ifvqdh0","pricing_plan_id":"cebpf4jnsgd1na2vs0mg"},{"bike_id":"a7125d65-74ce-495d-817a-4658be7b2ef8","system_id":"levelo_inurba_marseille","lat":43.28709,"lon":5.37389,"is_reserved":false,"is_disabled":false,"rental_uris":{"android":"levelo://app?vid=a7125d65-74ce-495d-817a-4658be7b2ef8","ios":"levelo://app?vid=a7125d65-74ce-495d-817a-4658be7b2ef8"},"vehicle_type_id":"4","last_reported":1730491816,"current_range_meters":20000,"station_id":"ce4bh3p2rcd13ifvqdq0","pricing_plan_id":"cebpf4jnsgd1na2vs0mg"},{"bike_id":"09596189-53a3-4464-96b1-4eba042a8eae","system_id":"levelo_inurba_marseille","lat":43.29039,"lon":5.39967,"is_reserved":false,"is_disabled":false,"rental_uris":{"android":"levelo://app?vid=09596189-53a3-4464-96b1-4eba042a8eae","ios":"levelo://app?vid=09596189-53a3-4464-96b1-4eba042a8eae"},"vehicle_type_id":"4","last_reported":1730491816,"current_range_meters":12400,"station_id":"ce4bh392rcd13ifvqdm0","pricing_plan_id":"cebpf4jnsgd1na2vs0mg"},{"bike_id":"ce4b9b4b-c9db-466f-ade6-da9f1060e908","system_id":"levelo_inurba_marseille","lat":43.29037,"lon":5.38629,"is_reserved":false,"is_disabled":false,"rental_uris":{"android":"levelo://app?vid=ce4b9b4b-c9db-466f-ade6-da9f1060e908","ios":"levelo://app?vid=ce4b9b4b-c9db-466f-ade6-da9f1060e908"},"vehicle_type_id":"4","last_reported":1730491816,"current_range_meters":38800,"station_id":"ce4bh4p2rcd13ifvqe0g","pricing_plan_id":"cebpf4jnsgd1na2vs0mg"},{"bike_id":"a256a6e7-b213-46ad-83f5-e197403aa7d8","system_id":"levelo_inurba_marseille","lat":43.31717,"lon":5.42394,"is_reserved":false,"is_disabled":false,"rental_uris":{"android":"levelo://app?vid=a256a6e7-b213-46ad-83f5-e197403aa7d8","ios":"levelo://app?vid=a256a6e7-b213-46ad-83f5-e197403aa7d8"},"vehicle_type_id":"4","last_reported":1730491816,"current_range_meters":29600,"station_id":"ce4bhp92rcd13ifvqhbg","pricing_plan_id":"cebpf4jnsgd1na2vs0mg"},{"bike_id":"e1397ea6-1707-46a2-87d8-de9e3250349d","system_id":"levelo_inurba_marseille","lat":43.28728,"lon":5.37937,"is_reserved":false,"is_disabled":false,"rental_uris":{"android":"levelo://app?vid=e1397ea6-1707-46a2-87d8-de9e3250349d","ios":"levelo://app?vid=e1397ea6-1707-46a2-87d8-de9e3250349d"},"vehicle_type_id":"4","last_reported":1730491816,"current_range_meters":6400,"station_id":"ce4bh9p2rcd13ifvqec0","pricing_plan_id":"cebpf4jnsgd1na2vs0mg"},{"bike_id":"2f96ca02-e95c-4b69-8a12-e3990eda3b50","system_id":"levelo_inurba_marseille","lat":43.26785,"lon":5.39414,"is_reserved":false,"is_disabled":false,"rental_uris":{"android":"levelo://app?vid=2f96ca02-e95c-4b69-8a12-e3990eda3b50","ios":"levelo://app?vid=2f96ca02-e95c-4b69-8a12-e3990eda3b50"},"vehicle_type_id":"4","last_reported":1730491816,"current_range_meters":39200,"station_id":"ce4bhh12rcd13ifvqfg0","pricing_plan_id":"cebpf4jnsgd1na2vs0mg"},{"bike_id":"7aca20f8-1574-4b9d-bf15-a513db192236","system_id":"levelo_inurba_marseille","lat":43.29417,"lon":5.38631,"is_reserved":false,"is_disabled":false,"rental_uris":{"android":"levelo://app?vid=7aca20f8-1574-4b9d-bf15-a513db192236","ios":"levelo://app?vid=7aca20f8-1574-4b9d-bf15-a513db192236"},"vehicle_type_id":"4","last_reported":1730491816,"current_range_meters":38800,"station_id":"ce4bh2h2rcd13ifvqdh0","pricing_plan_id":"cebpf4jnsgd1na2vs0mg"},{"bike_id":"30ad748d-1b96-41f7-beb2-b93265fe886a","system_id":"levelo_inurba_marseille","lat":43.28717,"lon":5.37909,"is_reserved":false,"is_disabled":false,"rental_uris":{"android":"levelo://app?vid=30ad748d-1b96-41f7-beb2-b93265fe886a","ios":"levelo://app?vid=30ad748d-1b96-41f7-beb2-b93265fe886a"},"vehicle_type_id":"4","last_reported":1730491816,"current_range_meters":38800,"station_id":"ce4bh9p2rcd13ifvqec0","pricing_plan_id":"cebpf4jnsgd1na2vs0mg"},{"bike_id":"86501ceb-c189-4af2-bac2-4f3b6c95b810","system_id":"levelo_inurba_marseille","lat":43.29418,"lon":5.38605,"is_reserved":false,"is_disabled":false,"rental_uris":{"android":"levelo://app?vid=86501ceb-c189-4af2-bac2-4f3b6c95b810","ios":"levelo://app?vid=86501ceb-c189-4af2-bac2-4f3b6c95b810"},"vehicle_type_id":"4","last_reported":1730491816,"current_range_meters":38800,"station_id":"ce4bh2h2rcd13ifvqdh0","pricing_plan_id":"cebpf4jnsgd1na2vs0mg"},{"bike_id":"a1b4048c-2a4c-4b9a-89ac-6b4638d4b40f","system_id":"levelo_inurba_marseille","lat":43.30134,"lon":5.38771,"is_reserved":false,"is_disabled":false,"rental_uris":{"android":"levelo://app?vid=a1b4048c-2a4c-4b9a-89ac-6b4638d4b40f","ios":"levelo://app?vid=a1b4048c-2a4c-4b9a-89ac-6b4638d4b40f"},"vehicle_type_id":"4","last_reported":1730491816,"current_range_meters":20400,"station_id":"ce4bghh2rcd13ifvqb60","pricing_plan_id":"cebpf4jnsgd1na2vs0mg"},{"bike_id":"a2a564bb-f2f5-4177-947c-05956500b4aa","system_id":"levelo_inurba_marseille","lat":43.2847,"lon":5.38415,"is_reserved":false,"is_disabled":false,"rental_uris":{"android":"levelo://app?vid=a2a564bb-f2f5-4177-947c-05956500b4aa","ios":"levelo://app?vid=a2a564bb-f2f5-4177-947c-05956500b4aa"},"vehicle_type_id":"4","last_reported":1730491816,"current_range_meters":33600,"station_id":"ce4bh512rcd13ifvqe3g","pricing_plan_id":"cebpf4jnsgd1na2vs0mg"},{"bike_id":"5bcb579f-d846-488c-b136-1b5764194b39","system_id":"levelo_inurba_marseille","lat":43.29799,"lon":5.38101,"is_reserved":false,"is_disabled":false,"rental_uris":{"android":"levelo://app?vid=5bcb579f-d846-488c-b136-1b5764194b39","ios":"levelo://app?vid=5bcb579f-d846-488c-b136-1b5764194b39"},"vehicle_type_id":"4","last_reported":1730491816,"current_range_meters":23200,"station_id":"ce4bgip2rcd13ifvqbb0","pricing_plan_id":"cebpf4jnsgd1na2vs0mg"},{"bike_id":"7dc1c1ed-2472-4dd8-84f9-9b00a0c2baff","system_id":"levelo_inurba_marseille","lat":43.29554,"lon":5.4229,"is_reserved":false,"is_disabled":false,"rental_uris":{"android":"levelo://app?vid=7dc1c1ed-2472-4dd8-84f9-9b00a0c2baff","ios":"levelo://app?vid=7dc1c1ed-2472-4dd8-84f9-9b00a0c2baff"},"vehicle_type_id":"4","last_reported":1730491816,"current_range_meters":38800,"station_id":"ce4bhph2rcd13ifvqhdg","pricing_plan_id":"cebpf4jnsgd1na2vs0mg"},{"bike_id":"a7ff335d-8c74-4dee-94a0-af44a3182f2e","system_id":"levelo_inurba_marseille","lat":43.29717,"lon":5.37683,"is_reserved":false,"is_disabled":false,"rental_uris":{"android":"levelo://app?vid=a7ff335d-8c74-4dee-94a0-af44a3182f2e","ios":"levelo://app?vid=a7ff335d-8c74-4dee-94a0-af44a3182f2e"},"vehicle_type_id":"4","last_reported":1730491816,"current_range_meters":38400,"station_id":"ce4bgkh2rcd13ifvqbl0","pricing_plan_id":"cebpf4jnsgd1na2vs0mg"},{"bike_id":"90d5d68c-138a-4f05-95ba-e50b716963cc","system_id":"levelo_inurba_marseille","lat":43.29267,"lon":5.38441,"is_reserved":false,"is_disabled":false,"rental_uris":{"android":"levelo://app?vid=90d5d68c-138a-4f05-95ba-e50b716963cc","ios":"levelo://app?vid=90d5d68c-138a-4f05-95ba-e50b716963cc"},"vehicle_type_id":"4","last_reported":1730491816,"current_range_meters":30400,"station_id":"ce4bh692rcd13ifvqea0","pricing_plan_id":"cebpf4jnsgd1na2vs0mg"},{"bike_id":"fa6d808e-d533-491e-8823-4300020e1493","system_id":"levelo_inurba_marseille","lat":43.29885,"lon":5.38901,"is_reserved":false,"is_disabled":false,"rental_uris":{"android":"levelo://app?vid=fa6d808e-d533-491e-8823-4300020e1493","ios":"levelo://app?vid=fa6d808e-d533-491e-8823-4300020e1493"},"vehicle_type_id":"4","last_reported":1730491816,"current_range_meters":27200,"station_id":"ce4bh392rcd13ifvqdl0","pricing_plan_id":"cebpf4jnsgd1na2vs0mg"},{"bike_id":"80a33ea8-b992-4d39-bef7-cf1a1e3a2a4b","system_id":"levelo_inurba_marseille","lat":43.30263,"lon":5.40077,"is_reserved":false,"is_disabled":false,"rental_uris":{"android":"levelo://app?vid=80a33ea8-b992-4d39-bef7-cf1a1e3a2a4b","ios":"levelo://app?vid=80a33ea8-b992-4d39-bef7-cf1a1e3a2a4b"},"vehicle_type_id":"4","last_reported":1730491816,"current_range_meters":38800,"station_id":"ce4bgvh2rcd13ifvqcs0","pricing_plan_id":"cebpf4jnsgd1na2vs0mg"},{"bike_id":"afa39957-71be-4682-bdac-91a4c814290b","system_id":"levelo_inurba_marseille","lat":43.28915,"lon":5.38377,"is_reserved":false,"is_disabled":false,"rental_uris":{"android":"levelo://app?vid=afa39957-71be-4682-bdac-91a4c814290b","ios":"levelo://app?vid=afa39957-71be-4682-bdac-91a4c814290b"},"vehicle_type_id":"4","last_reported":1730491816,"current_range_meters":39200,"station_id":"ce4bh612rcd13ifvqe6g","pricing_plan_id":"cebpf4jnsgd1na2vs0mg"},{"bike_id":"9938ebcd-9900-4f33-ae62-087d07b91466","system_id":"levelo_inurba_marseille","lat":43.25736,"lon":5.41109,"is_reserved":false,"is_disabled":false,"rental_uris":{"android":"levelo://app?vid=9938ebcd-9900-4f33-ae62-087d07b91466","ios":"levelo://app?vid=9938ebcd-9900-4f33-ae62-087d07b91466"},"vehicle_type_id":"4","last_reported":1730491816,"current_range_meters":38800,"station_id":"ce4bhkp2rcd13ifvqgd0","pricing_plan_id":"cebpf4jnsgd1na2vs0mg"},{"bike_id":"f81c9dc1-d86c-4ae4-bbfb-f96586a0c69c","system_id":"levelo_inurba_marseille","lat":43.29261,"lon":5.38441,"is_reserved":false,"is_disabled":false,"rental_uris":{"android":"levelo://app?vid=f81c9dc1-d86c-4ae4-bbfb-f96586a0c69c","ios":"levelo://app?vid=f81c9dc1-d86c-4ae4-bbfb-f96586a0c69c"},"vehicle_type_id":"4","last_reported":1730491816,"current_range_meters":38800,"station_id":"ce4bh692rcd13ifvqea0","pricing_plan_id":"cebpf4jnsgd1na2vs0mg"},{"bike_id":"e960ac30-070e-494a-a9c1-effafcd9c6f4","system_id":"levelo_inurba_marseille","lat":43.29455,"lon":5.39593,"is_reserved":false,"is_disabled":false,"rental_uris":{"android":"levelo://app?vid=e960ac30-070e-494a-a9c1-effafcd9c6f4","ios":"levelo://app?vid=e960ac30-070e-494a-a9c1-effafcd9c6f4"},"vehicle_type_id":"4","last_reported":1730491816,"current_range_meters":11200,"station_id":"","pricing_plan_id":"cebpf4jnsgd1na2vs0mg"},{"bike_id":"8ea22335-1d23-4c13-aee7-41cbb56a8a2a","system_id":"levelo_inurba_marseille","lat":43.29093,"lon":5.38137,"is_reserved":false,"is_disabled":false,"rental_uris":{"android":"levelo://app?vid=8ea22335-1d23-4c13-aee7-41cbb56a8a2a","ios":"levelo://app?vid=8ea22335-1d23-4c13-aee7-41cbb56a8a2a"},"vehicle_type_id":"4","last_reported":1730491816,"current_range_meters":38000,"station_id":"ce4bh512rcd13ifvqe2g","pricing_plan_id":"cebpf4jnsgd1na2vs0mg"},{"bike_id":"6c26f9c8-71ad-4674-b09c-5d483b8428e0","system_id":"levelo_inurba_marseille","lat":43.30151,"lon":5.39886,"is_reserved":false,"is_disabled":false,"rental_uris":{"android":"levelo://app?vid=6c26f9c8-71ad-4674-b09c-5d483b8428e0","ios":"levelo://app?vid=6c26f9c8-71ad-4674-b09c-5d483b8428e0"},"vehicle_type_id":"4","last_reported":1730491816,"current_range_meters":38800,"station_id":"ce4bh0h2rcd13ifvqd40","pricing_plan_id":"cebpf4jnsgd1na2vs0mg"},{"bike_id":"df0fc349-16c3-4272-b279-49156ad6cb88","system_id":"levelo_inurba_marseille","lat":43.28438,"lon":5.39188,"is_reserved":false,"is_disabled":false,"rental_uris":{"android":"levelo://app?vid=df0fc349-16c3-4272-b279-49156ad6cb88","ios":"levelo://app?vid=df0fc349-16c3-4272-b279-49156ad6cb88"},"vehicle_type_id":"4","last_reported":1730491816,"current_range_meters":8000,"station_id":"ce4bhoh2rcd13ifvqh5g","pricing_plan_id":"cebpf4jnsgd1na2vs0mg"},{"bike_id":"bfb8e405-eb7b-4548-a670-2fa367f22334","system_id":"levelo_inurba_marseille","lat":43.26926,"lon":5.38915,"is_reserved":false,"is_disabled":false,"rental_uris":{"android":"levelo://app?vid=bfb8e405-eb7b-4548-a670-2fa367f22334","ios":"levelo://app?vid=bfb8e405-eb7b-4548-a670-2fa367f22334"},"vehicle_type_id":"4","last_reported":1730491816,"current_range_meters":26800,"station_id":"ce4bhhh2rcd13ifvqfl0","pricing_plan_id":"cebpf4jnsgd1na2vs0mg"},{"bike_id":"d69eef29-33f1-400b-9dbd-e583b4f600d8","system_id":"levelo_inurba_marseille","lat":43.24657,"lon":5.38891,"is_reserved":false,"is_disabled":false,"rental_uris":{"android":"levelo://app?vid=d69eef29-33f1-400b-9dbd-e583b4f600d8","ios":"levelo://app?vid=d69eef29-33f1-400b-9dbd-e583b4f600d8"},"vehicle_type_id":"4","last_reported":1730491816,"current_range_meters":25600,"station_id":"ce4bhg12rcd13ifvqf60","pricing_plan_id":"cebpf4jnsgd1na2vs0mg"},{"bike_id":"bd4e2b20-1aa1-479f-bd96-ad4e0572a62c","system_id":"levelo_inurba_marseille","lat":43.32473,"lon":5.36577,"is_reserved":false,"is_disabled":false,"rental_uris":{"android":"levelo://app?vid=bd4e2b20-1aa1-479f-bd96-ad4e0572a62c","ios":"levelo://app?vid=bd4e2b20-1aa1-479f-bd96-ad4e0572a62c"},"vehicle_type_id":"4","last_reported":1730491816,"current_range_meters":28400,"station_id":"ce4bhs12rcd13ifvqhvg","pricing_plan_id":"cebpf4jnsgd1na2vs0mg"},{"bike_id":"3d9b9e6e-9511-4fe1-9dde-e1f126071439","system_id":"levelo_inurba_marseille","lat":43.29849,"lon":5.36284,"is_reserved":false,"is_disabled":false,"rental_uris":{"android":"levelo://app?vid=3d9b9e6e-9511-4fe1-9dde-e1f126071439","ios":"levelo://app?vid=3d9b9e6e-9511-4fe1-9dde-e1f126071439"},"vehicle_type_id":"4","last_reported":1730491816,"current_range_meters":38000,"station_id":"ce4bgpp2rcd13ifvqc3g","pricing_plan_id":"cebpf4jnsgd1na2vs0mg"},{"bike_id":"2749a0d0-f853-40f1-94a4-905f9c1a5e39","system_id":"levelo_inurba_marseille","lat":43.28717,"lon":5.37915,"is_reserved":false,"is_disabled":false,"rental_uris":{"android":"levelo://app?vid=2749a0d0-f853-40f1-94a4-905f9c1a5e39","ios":"levelo://app?vid=2749a0d0-f853-40f1-94a4-905f9c1a5e39"},"vehicle_type_id":"4","last_reported":1730491816,"current_range_meters":38800,"station_id":"ce4bh9p2rcd13ifvqec0","pricing_plan_id":"cebpf4jnsgd1na2vs0mg"},{"bike_id":"66047545-0fb8-424f-9043-6c30d457954a","system_id":"levelo_inurba_marseille","lat":43.3093,"lon":5.40141,"is_reserved":false,"is_disabled":false,"rental_uris":{"android":"levelo://app?vid=66047545-0fb8-424f-9043-6c30d457954a","ios":"levelo://app?vid=66047545-0fb8-424f-9043-6c30d457954a"},"vehicle_type_id":"4","last_reported":1730491816,"current_range_meters":14000,"station_id":"ce4bgvp2rcd13ifvqct0","pricing_plan_id":"cebpf4jnsgd1na2vs0mg"},{"bike_id":"a166176a-6375-462d-890b-231578cd93ab","system_id":"levelo_inurba_marseille","lat":43.29267,"lon":5.38438,"is_reserved":false,"is_disabled":false,"rental_uris":{"android":"levelo://app?vid=a166176a-6375-462d-890b-231578cd93ab","ios":"levelo://app?vid=a166176a-6375-462d-890b-231578cd93ab"},"vehicle_type_id":"4","last_reported":1730491816,"current_range_meters":38000,"station_id":"ce4bh692rcd13ifvqea0","pricing_plan_id":"cebpf4jnsgd1na2vs0mg"},{"bike_id":"8df2a536-85e2-4625-b049-08d00f519928","system_id":"levelo_inurba_marseille","lat":43.2897,"lon":5.37834,"is_reserved":false,"is_disabled":false,"rental_uris":{"android":"levelo://app?vid=8df2a536-85e2-4625-b049-08d00f519928","ios":"levelo://app?vid=8df2a536-85e2-4625-b049-08d00f519928"},"vehicle_type_id":"4","last_reported":1730491816,"current_range_meters":38800,"station_id":"ce4bh9p2rcd13ifvqed0","pricing_plan_id":"cebpf4jnsgd1na2vs0mg"},{"bike_id":"8e03cbf0-6e85-4204-b689-62114c04dc75","system_id":"levelo_inurba_marseille","lat":43.2871,"lon":5.39986,"is_reserved":false,"is_disabled":false,"rental_uris":{"android":"levelo://app?vid=8e03cbf0-6e85-4204-b689-62114c04dc75","ios":"levelo://app?vid=8e03cbf0-6e85-4204-b689-62114c04dc75"},"vehicle_type_id":"4","last_reported":1730491816,"current_range_meters":22000,"station_id":"ce4bho92rcd13ifvqh3g","pricing_plan_id":"cebpf4jnsgd1na2vs0mg"},{"bike_id":"317d8648-1888-421e-ba60-471ba77ee79e","system_id":"levelo_inurba_marseille","lat":43.2981,"lon":5.38097,"is_reserved":false,"is_disabled":false,"rental_uris":{"android":"levelo://app?vid=317d8648-1888-421e-ba60-471ba77ee79e","ios":"levelo://app?vid=317d8648-1888-421e-ba60-471ba77ee79e"},"vehicle_type_id":"4","last_reported":1730491816,"current_range_meters":16800,"station_id":"ce4bgip2rcd13ifvqbb0","pricing_plan_id":"cebpf4jnsgd1na2vs0mg"},{"bike_id":"658dacf4-7ef3-4634-8126-9bbd88e5a6eb","system_id":"levelo_inurba_marseille","lat":43.23194,"lon":5.35548,"is_reserved":false,"is_disabled":false,"rental_uris":{"android":"levelo://app?vid=658dacf4-7ef3-4634-8126-9bbd88e5a6eb","ios":"levelo://app?vid=658dacf4-7ef3-4634-8126-9bbd88e5a6eb"},"vehicle_type_id":"4","last_reported":1730491816,"current_range_meters":23200,"station_id":"ce4bhu92rcd13ifvqi70","pricing_plan_id":"cebpf4jnsgd1na2vs0mg"},{"bike_id":"28a2859d-3364-49b1-8ce4-6be031f3e5a1","system_id":"levelo_inurba_marseille","lat":43.30305,"lon":5.40213,"is_reserved":false,"is_disabled":false,"rental_uris":{"android":"levelo://app?vid=28a2859d-3364-49b1-8ce4-6be031f3e5a1","ios":"levelo://app?vid=28a2859d-3364-49b1-8ce4-6be031f3e5a1"},"vehicle_type_id":"4","last_reported":1730491816,"current_range_meters":14800,"station_id":"ce4bhph2rcd13ifvqheg","pricing_plan_id":"cebpf4jnsgd1na2vs0mg"},{"bike_id":"b98cfd7f-acdf-400e-bf8f-9132b0f74693","system_id":"levelo_inurba_marseille","lat":43.28102,"lon":5.37835,"is_reserved":false,"is_disabled":false,"rental_uris":{"android":"levelo://app?vid=b98cfd7f-acdf-400e-bf8f-9132b0f74693","ios":"levelo://app?vid=b98cfd7f-acdf-400e-bf8f-9132b0f74693"},"vehicle_type_id":"4","last_reported":1730491816,"current_range_meters":28800,"station_id":"ce4bha12rcd13ifvqee0","pricing_plan_id":"cebpf4jnsgd1na2vs0mg"},{"bike_id":"e62e38a9-284c-4b15-bfe8-8b214b98f04b","system_id":"levelo_inurba_marseille","lat":43.2305,"lon":5.35493,"is_reserved":false,"is_disabled":false,"rental_uris":{"android":"levelo://app?vid=e62e38a9-284c-4b15-bfe8-8b214b98f04b","ios":"levelo://app?vid=e62e38a9-284c-4b15-bfe8-8b214b98f04b"},"vehicle_type_id":"4","last_reported":1730491816,"current_range_meters":25200,"station_id":"cpo3342slgdg3j2ifvpg","pricing_plan_id":"cebpf4jnsgd1na2vs0mg"},{"bike_id":"522cf0ac-265a-440b-92ae-96252ff4b6fc","system_id":"levelo_inurba_marseille","lat":43.29024,"lon":5.38633,"is_reserved":false,"is_disabled":false,"rental_uris":{"android":"levelo://app?vid=522cf0ac-265a-440b-92ae-96252ff4b6fc","ios":"levelo://app?vid=522cf0ac-265a-440b-92ae-96252ff4b6fc"},"vehicle_type_id":"4","last_reported":1730491816,"current_range_meters":20800,"station_id":"ce4bh4p2rcd13ifvqe0g","pricing_plan_id":"cebpf4jnsgd1na2vs0mg"},{"bike_id":"60432ed8-562f-414c-b6da-e517bb154e6e","system_id":"levelo_inurba_marseille","lat":43.265684,"lon":5.389992,"is_reserved":false,"is_disabled":false,"rental_uris":{"android":"levelo://app?vid=60432ed8-562f-414c-b6da-e517bb154e6e","ios":"levelo://app?vid=60432ed8-562f-414c-b6da-e517bb154e6e"},"vehicle_type_id":"4","last_reported":1730491816,"current_range_meters":28000,"station_id":"ce4bhe12rcd13ifvqf30","pricing_plan_id":"cebpf4jnsgd1na2vs0mg"},{"bike_id":"aad83483-aaa8-43f3-b586-ce82558627fc","system_id":"levelo_inurba_marseille","lat":43.30306,"lon":5.39197,"is_reserved":false,"is_disabled":false,"rental_uris":{"android":"levelo://app?vid=aad83483-aaa8-43f3-b586-ce82558627fc","ios":"levelo://app?vid=aad83483-aaa8-43f3-b586-ce82558627fc"},"vehicle_type_id":"4","last_reported":1730491816,"current_range_meters":38000,"station_id":"ce4bgkh2rcd13ifvqbk0","pricing_plan_id":"cebpf4jnsgd1na2vs0mg"},{"bike_id":"cd647baf-15b6-43ed-97ca-5c0e420cadab","system_id":"levelo_inurba_marseille","lat":43.30145,"lon":5.37416,"is_reserved":false,"is_disabled":false,"rental_uris":{"android":"levelo://app?vid=cd647baf-15b6-43ed-97ca-5c0e420cadab","ios":"levelo://app?vid=cd647baf-15b6-43ed-97ca-5c0e420cadab"},"vehicle_type_id":"4","last_reported":1730491816,"current_range_meters":39200,"station_id":"ce4bgs92rcd13ifvqcc0","pricing_plan_id":"cebpf4jnsgd1na2vs0mg"},{"bike_id":"8450bff6-e32c-4b0c-a88a-3104655a3c3d","system_id":"levelo_inurba_marseille","lat":43.28944,"lon":5.36638,"is_reserved":false,"is_disabled":false,"rental_uris":{"android":"levelo://app?vid=8450bff6-e32c-4b0c-a88a-3104655a3c3d","ios":"levelo://app?vid=8450bff6-e32c-4b0c-a88a-3104655a3c3d"},"vehicle_type_id":"4","last_reported":1730491816,"current_range_meters":20400,"station_id":"ce4bhap2rcd13ifvqek0","pricing_plan_id":"cebpf4jnsgd1na2vs0mg"},{"bike_id":"b0d0f0bb-42ff-4ebf-8686-64832137c359","system_id":"levelo_inurba_marseille","lat":43.29024,"lon":5.38139,"is_reserved":false,"is_disabled":false,"rental_uris":{"android":"levelo://app?vid=b0d0f0bb-42ff-4ebf-8686-64832137c359","ios":"levelo://app?vid=b0d0f0bb-42ff-4ebf-8686-64832137c359"},"vehicle_type_id":"4","last_reported":1730491816,"current_range_meters":36400,"station_id":"ce4bh4p2rcd13ifvqe1g","pricing_plan_id":"cebpf4jnsgd1na2vs0mg"},{"bike_id":"b890158d-4cc0-42ea-b1b1-cf934d08cc8a","system_id":"levelo_inurba_marseille","lat":43.32363,"lon":5.38885,"is_reserved":false,"is_disabled":false,"rental_uris":{"android":"levelo://app?vid=b890158d-4cc0-42ea-b1b1-cf934d08cc8a","ios":"levelo://app?vid=b890158d-4cc0-42ea-b1b1-cf934d08cc8a"},"vehicle_type_id":"4","last_reported":1730491816,"current_range_meters":31200,"station_id":"ce4bhqp2rcd13ifvqhog","pricing_plan_id":"cebpf4jnsgd1na2vs0mg"},{"bike_id":"fe9625bd-3854-4eec-a593-8fa0f2878c84","system_id":"levelo_inurba_marseille","lat":43.29532,"lon":5.38536,"is_reserved":false,"is_disabled":false,"rental_uris":{"android":"levelo://app?vid=fe9625bd-3854-4eec-a593-8fa0f2878c84","ios":"levelo://app?vid=fe9625bd-3854-4eec-a593-8fa0f2878c84"},"vehicle_type_id":"4","last_reported":1730491816,"current_range_meters":16000,"station_id":"ce4bgih2rcd13ifvqba0","pricing_plan_id":"cebpf4jnsgd1na2vs0mg"},{"bike_id":"5dfc5511-3b28-411a-bc77-7d913f352b0b","system_id":"levelo_inurba_marseille","lat":43.28936,"lon":5.36641,"is_reserved":false,"is_disabled":false,"rental_uris":{"android":"levelo://app?vid=5dfc5511-3b28-411a-bc77-7d913f352b0b","ios":"levelo://app?vid=5dfc5511-3b28-411a-bc77-7d913f352b0b"},"vehicle_type_id":"4","last_reported":1730491816,"current_range_meters":25600,"station_id":"ce4bhap2rcd13ifvqek0","pricing_plan_id":"cebpf4jnsgd1na2vs0mg"},{"bike_id":"569b0fbe-ed72-417d-9e56-1ca18cf64965","system_id":"levelo_inurba_marseille","lat":43.296977,"lon":5.36158,"is_reserved":false,"is_disabled":false,"rental_uris":{"android":"levelo://app?vid=569b0fbe-ed72-417d-9e56-1ca18cf64965","ios":"levelo://app?vid=569b0fbe-ed72-417d-9e56-1ca18cf64965"},"vehicle_type_id":"4","last_reported":1730491816,"current_range_meters":35200,"station_id":"","pricing_plan_id":"cebpf4jnsgd1na2vs0mg"},{"bike_id":"58888b2f-4043-49e7-8689-b66db66cd29d","system_id":"levelo_inurba_marseille","lat":43.29625,"lon":5.37172,"is_reserved":false,"is_disabled":false,"rental_uris":{"android":"levelo://app?vid=58888b2f-4043-49e7-8689-b66db66cd29d","ios":"levelo://app?vid=58888b2f-4043-49e7-8689-b66db66cd29d"},"vehicle_type_id":"4","last_reported":1730491816,"current_range_meters":34000,"station_id":"ce4bgnh2rcd13ifvqc0g","pricing_plan_id":"cebpf4jnsgd1na2vs0mg"},{"bike_id":"fa7676c1-2639-4b99-bd6e-8a5d76a8230f","system_id":"levelo_inurba_marseille","lat":43.29085,"lon":5.38155,"is_reserved":false,"is_disabled":false,"rental_uris":{"android":"levelo://app?vid=fa7676c1-2639-4b99-bd6e-8a5d76a8230f","ios":"levelo://app?vid=fa7676c1-2639-4b99-bd6e-8a5d76a8230f"},"vehicle_type_id":"4","last_reported":1730491816,"current_range_meters":20400,"station_id":"ce4bh512rcd13ifvqe2g","pricing_plan_id":"cebpf4jnsgd1na2vs0mg"},{"bike_id":"d4aeb6e5-cd6b-4b56-bb5a-70ff11bc4e45","system_id":"levelo_inurba_marseille","lat":43.324813,"lon":5.365591,"is_reserved":false,"is_disabled":false,"rental_uris":{"android":"levelo://app?vid=d4aeb6e5-cd6b-4b56-bb5a-70ff11bc4e45","ios":"levelo://app?vid=d4aeb6e5-cd6b-4b56-bb5a-70ff11bc4e45"},"vehicle_type_id":"4","last_reported":1730491816,"current_range_meters":22400,"station_id":"ce4bhs12rcd13ifvqhvg","pricing_plan_id":"cebpf4jnsgd1na2vs0mg"},{"bike_id":"ae6438f8-57ee-43d4-8e49-35f050ba43cc","system_id":"levelo_inurba_marseille","lat":43.29262,"lon":5.38429,"is_reserved":false,"is_disabled":false,"rental_uris":{"android":"levelo://app?vid=ae6438f8-57ee-43d4-8e49-35f050ba43cc","ios":"levelo://app?vid=ae6438f8-57ee-43d4-8e49-35f050ba43cc"},"vehicle_type_id":"4","last_reported":1730491816,"current_range_meters":30800,"station_id":"ce4bh692rcd13ifvqea0","pricing_plan_id":"cebpf4jnsgd1na2vs0mg"},{"bike_id":"bfab254b-dda0-49c5-ae2e-902568de5a52","system_id":"levelo_inurba_marseille","lat":43.2511,"lon":5.40318,"is_reserved":false,"is_disabled":false,"rental_uris":{"android":"levelo://app?vid=bfab254b-dda0-49c5-ae2e-902568de5a52","ios":"levelo://app?vid=bfab254b-dda0-49c5-ae2e-902568de5a52"},"vehicle_type_id":"4","last_reported":1730491816,"current_range_meters":8400,"station_id":"ce4bhlh2rcd13ifvqgig","pricing_plan_id":"cebpf4jnsgd1na2vs0mg"},{"bike_id":"1bcd969c-edc6-40cd-a5c3-7f9cd75a3cfb","system_id":"levelo_inurba_marseille","lat":43.29871,"lon":5.39732,"is_reserved":false,"is_disabled":false,"rental_uris":{"android":"levelo://app?vid=1bcd969c-edc6-40cd-a5c3-7f9cd75a3cfb","ios":"levelo://app?vid=1bcd969c-edc6-40cd-a5c3-7f9cd75a3cfb"},"vehicle_type_id":"4","last_reported":1730491816,"current_range_meters":38000,"station_id":"ce4bh0h2rcd13ifvqd50","pricing_plan_id":"cebpf4jnsgd1na2vs0mg"},{"bike_id":"9b3cdd1c-31e2-45e9-a347-f5de25356952","system_id":"levelo_inurba_marseille","lat":43.29425,"lon":5.38608,"is_reserved":false,"is_disabled":false,"rental_uris":{"android":"levelo://app?vid=9b3cdd1c-31e2-45e9-a347-f5de25356952","ios":"levelo://app?vid=9b3cdd1c-31e2-45e9-a347-f5de25356952"},"vehicle_type_id":"4","last_reported":1730491816,"current_range_meters":38800,"station_id":"ce4bh2h2rcd13ifvqdh0","pricing_plan_id":"cebpf4jnsgd1na2vs0mg"},{"bike_id":"e17c59d5-3203-4078-b42c-b4f6c60ac7cc","system_id":"levelo_inurba_marseille","lat":43.28046,"lon":5.36948,"is_reserved":false,"is_disabled":false,"rental_uris":{"android":"levelo://app?vid=e17c59d5-3203-4078-b42c-b4f6c60ac7cc","ios":"levelo://app?vid=e17c59d5-3203-4078-b42c-b4f6c60ac7cc"},"vehicle_type_id":"4","last_reported":1730491816,"current_range_meters":24800,"station_id":"ce4bha12rcd13ifvqef0","pricing_plan_id":"cebpf4jnsgd1na2vs0mg"},{"bike_id":"016a4bf1-781c-43c3-9a9e-b42149c36362","system_id":"levelo_inurba_marseille","lat":43.28347,"lon":5.38103,"is_reserved":false,"is_disabled":false,"rental_uris":{"android":"levelo://app?vid=016a4bf1-781c-43c3-9a9e-b42149c36362","ios":"levelo://app?vid=016a4bf1-781c-43c3-9a9e-b42149c36362"},"vehicle_type_id":"4","last_reported":1730491816,"current_range_meters":7200,"station_id":"ce4bh412rcd13ifvqdr0","pricing_plan_id":"cebpf4jnsgd1na2vs0mg"},{"bike_id":"2baae56c-efb9-4e66-aa94-08df08d5019c","system_id":"levelo_inurba_marseille","lat":43.27998,"lon":5.4166,"is_reserved":false,"is_disabled":false,"rental_uris":{"android":"levelo://app?vid=2baae56c-efb9-4e66-aa94-08df08d5019c","ios":"levelo://app?vid=2baae56c-efb9-4e66-aa94-08df08d5019c"},"vehicle_type_id":"4","last_reported":1730491816,"current_range_meters":13600,"station_id":"ce4bho12rcd13ifvqh1g","pricing_plan_id":"cebpf4jnsgd1na2vs0mg"},{"bike_id":"4625fa44-29cd-4535-ae87-0061d3951e1c","system_id":"levelo_inurba_marseille","lat":43.28669,"lon":5.38649,"is_reserved":false,"is_disabled":false,"rental_uris":{"android":"levelo://app?vid=4625fa44-29cd-4535-ae87-0061d3951e1c","ios":"levelo://app?vid=4625fa44-29cd-4535-ae87-0061d3951e1c"},"vehicle_type_id":"4","last_reported":1730491816,"current_range_meters":6800,"station_id":"ce4bh492rcd13ifvqdug","pricing_plan_id":"cebpf4jnsgd1na2vs0mg"},{"bike_id":"2d7de978-fe7a-4748-bce2-9b270b74d3a7","system_id":"levelo_inurba_marseille","lat":43.28098,"lon":5.3784,"is_reserved":false,"is_disabled":false,"rental_uris":{"android":"levelo://app?vid=2d7de978-fe7a-4748-bce2-9b270b74d3a7","ios":"levelo://app?vid=2d7de978-fe7a-4748-bce2-9b270b74d3a7"},"vehicle_type_id":"4","last_reported":1730491816,"current_range_meters":38000,"station_id":"ce4bha12rcd13ifvqee0","pricing_plan_id":"cebpf4jnsgd1na2vs0mg"},{"bike_id":"b0176a28-527c-42b9-b750-f1dad8510223","system_id":"levelo_inurba_marseille","lat":43.29731,"lon":5.37419,"is_reserved":false,"is_disabled":false,"rental_uris":{"android":"levelo://app?vid=b0176a28-527c-42b9-b750-f1dad8510223","ios":"levelo://app?vid=b0176a28-527c-42b9-b750-f1dad8510223"},"vehicle_type_id":"4","last_reported":1730491816,"current_range_meters":32800,"station_id":"","pricing_plan_id":"cebpf4jnsgd1na2vs0mg"},{"bike_id":"15097f61-a1d7-4b0b-80aa-883f8eebec37","system_id":"levelo_inurba_marseille","lat":43.30592,"lon":5.39356,"is_reserved":false,"is_disabled":false,"rental_uris":{"android":"levelo://app?vid=15097f61-a1d7-4b0b-80aa-883f8eebec37","ios":"levelo://app?vid=15097f61-a1d7-4b0b-80aa-883f8eebec37"},"vehicle_type_id":"4","last_reported":1730491816,"current_range_meters":4000,"station_id":"ce4bh0p2rcd13ifvqd80","pricing_plan_id":"cebpf4jnsgd1na2vs0mg"},{"bike_id":"7bc7d769-6da5-483d-9ae3-760493fd74d0","system_id":"levelo_inurba_marseille","lat":43.26785,"lon":5.39414,"is_reserved":false,"is_disabled":false,"rental_uris":{"android":"levelo://app?vid=7bc7d769-6da5-483d-9ae3-760493fd74d0","ios":"levelo://app?vid=7bc7d769-6da5-483d-9ae3-760493fd74d0"},"vehicle_type_id":"4","last_reported":1730491816,"current_range_meters":38800,"station_id":"ce4bhh12rcd13ifvqfg0","pricing_plan_id":"cebpf4jnsgd1na2vs0mg"},{"bike_id":"a4de29bb-1d70-40a6-bd33-383183bead72","system_id":"levelo_inurba_marseille","lat":43.29421,"lon":5.3861,"is_reserved":false,"is_disabled":false,"rental_uris":{"android":"levelo://app?vid=a4de29bb-1d70-40a6-bd33-383183bead72","ios":"levelo://app?vid=a4de29bb-1d70-40a6-bd33-383183bead72"},"vehicle_type_id":"4","last_reported":1730491816,"current_range_meters":38800,"station_id":"ce4bh2h2rcd13ifvqdh0","pricing_plan_id":"cebpf4jnsgd1na2vs0mg"},{"bike_id":"d51677eb-8438-4523-94a5-5a1a51892e88","system_id":"levelo_inurba_marseille","lat":43.3088,"lon":5.37183,"is_reserved":false,"is_disabled":false,"rental_uris":{"android":"levelo://app?vid=d51677eb-8438-4523-94a5-5a1a51892e88","ios":"levelo://app?vid=d51677eb-8438-4523-94a5-5a1a51892e88"},"vehicle_type_id":"4","last_reported":1730491816,"current_range_meters":4800,"station_id":"ce4bguh2rcd13ifvqckg","pricing_plan_id":"cebpf4jnsgd1na2vs0mg"},{"bike_id":"61832802-950c-47d6-8f64-f2e959a32902","system_id":"levelo_inurba_marseille","lat":43.2942,"lon":5.38627,"is_reserved":false,"is_disabled":false,"rental_uris":{"android":"levelo://app?vid=61832802-950c-47d6-8f64-f2e959a32902","ios":"levelo://app?vid=61832802-950c-47d6-8f64-f2e959a32902"},"vehicle_type_id":"4","last_reported":1730491816,"current_range_meters":3200,"station_id":"ce4bh2h2rcd13ifvqdh0","pricing_plan_id":"cebpf4jnsgd1na2vs0mg"},{"bike_id":"25efdd14-e5a3-4f02-a8ea-e62e3c219fa3","system_id":"levelo_inurba_marseille","lat":43.28155,"lon":5.42649,"is_reserved":false,"is_disabled":false,"rental_uris":{"android":"levelo://app?vid=25efdd14-e5a3-4f02-a8ea-e62e3c219fa3","ios":"levelo://app?vid=25efdd14-e5a3-4f02-a8ea-e62e3c219fa3"},"vehicle_type_id":"4","last_reported":1730491816,"current_range_meters":34800,"station_id":"ce4bhnh2rcd13ifvqgug","pricing_plan_id":"cebpf4jnsgd1na2vs0mg"},{"bike_id":"e1610605-5756-4123-907e-88ebe2cdf2d8","system_id":"levelo_inurba_marseille","lat":43.29027,"lon":5.38648,"is_reserved":false,"is_disabled":false,"rental_uris":{"android":"levelo://app?vid=e1610605-5756-4123-907e-88ebe2cdf2d8","ios":"levelo://app?vid=e1610605-5756-4123-907e-88ebe2cdf2d8"},"vehicle_type_id":"4","last_reported":1730491816,"current_range_meters":34000,"station_id":"ce4bh4p2rcd13ifvqe0g","pricing_plan_id":"cebpf4jnsgd1na2vs0mg"},{"bike_id":"18402065-9e87-476b-95ad-30853de181a0","system_id":"levelo_inurba_marseille","lat":43.32458,"lon":5.45552,"is_reserved":false,"is_disabled":false,"rental_uris":{"android":"levelo://app?vid=18402065-9e87-476b-95ad-30853de181a0","ios":"levelo://app?vid=18402065-9e87-476b-95ad-30853de181a0"},"vehicle_type_id":"4","last_reported":1730491816,"current_range_meters":10000,"station_id":"","pricing_plan_id":"cebpf4jnsgd1na2vs0mg"},{"bike_id":"e3bbd86b-867d-4a71-ad09-6911756eb59e","system_id":"levelo_inurba_marseille","lat":43.29425,"lon":5.38637,"is_reserved":false,"is_disabled":false,"rental_uris":{"android":"levelo://app?vid=e3bbd86b-867d-4a71-ad09-6911756eb59e","ios":"levelo://app?vid=e3bbd86b-867d-4a71-ad09-6911756eb59e"},"vehicle_type_id":"4","last_reported":1730491816,"current_range_meters":31200,"station_id":"ce4bh2h2rcd13ifvqdh0","pricing_plan_id":"cebpf4jnsgd1na2vs0mg"},{"bike_id":"f6fac059-fe85-4d7a-8ea9-001b079724c7","system_id":"levelo_inurba_marseille","lat":43.29421,"lon":5.38604,"is_reserved":false,"is_disabled":false,"rental_uris":{"android":"levelo://app?vid=f6fac059-fe85-4d7a-8ea9-001b079724c7","ios":"levelo://app?vid=f6fac059-fe85-4d7a-8ea9-001b079724c7"},"vehicle_type_id":"4","last_reported":1730491816,"current_range_meters":38800,"station_id":"ce4bh2h2rcd13ifvqdh0","pricing_plan_id":"cebpf4jnsgd1na2vs0mg"},{"bike_id":"711fc037-1485-48d1-a756-6d4246ae9cd4","system_id":"levelo_inurba_marseille","lat":43.24655,"lon":5.38898,"is_reserved":false,"is_disabled":false,"rental_uris":{"android":"levelo://app?vid=711fc037-1485-48d1-a756-6d4246ae9cd4","ios":"levelo://app?vid=711fc037-1485-48d1-a756-6d4246ae9cd4"},"vehicle_type_id":"4","last_reported":1730491816,"current_range_meters":6800,"station_id":"ce4bhg12rcd13ifvqf60","pricing_plan_id":"cebpf4jnsgd1na2vs0mg"},{"bike_id":"bcf7fd0f-8c82-4927-bce3-78aae8816f12","system_id":"levelo_inurba_marseille","lat":43.29416,"lon":5.38633,"is_reserved":false,"is_disabled":false,"rental_uris":{"android":"levelo://app?vid=bcf7fd0f-8c82-4927-bce3-78aae8816f12","ios":"levelo://app?vid=bcf7fd0f-8c82-4927-bce3-78aae8816f12"},"vehicle_type_id":"4","last_reported":1730491816,"current_range_meters":27600,"station_id":"ce4bh2h2rcd13ifvqdh0","pricing_plan_id":"cebpf4jnsgd1na2vs0mg"},{"bike_id":"bc077c92-b0fa-4624-9bea-c7263cd1a3f9","system_id":"levelo_inurba_marseille","lat":43.27993,"lon":5.41661,"is_reserved":false,"is_disabled":false,"rental_uris":{"android":"levelo://app?vid=bc077c92-b0fa-4624-9bea-c7263cd1a3f9","ios":"levelo://app?vid=bc077c92-b0fa-4624-9bea-c7263cd1a3f9"},"vehicle_type_id":"4","last_reported":1730491816,"current_range_meters":24800,"station_id":"ce4bho12rcd13ifvqh1g","pricing_plan_id":"cebpf4jnsgd1na2vs0mg"},{"bike_id":"f29e08d0-df4f-47ec-a1b9-d60d401e09cd","system_id":"levelo_inurba_marseille","lat":43.29531,"lon":5.37499,"is_reserved":false,"is_disabled":false,"rental_uris":{"android":"levelo://app?vid=f29e08d0-df4f-47ec-a1b9-d60d401e09cd","ios":"levelo://app?vid=f29e08d0-df4f-47ec-a1b9-d60d401e09cd"},"vehicle_type_id":"4","last_reported":1730491816,"current_range_meters":38000,"station_id":"ce4bgkp2rcd13ifvqbmg","pricing_plan_id":"cebpf4jnsgd1na2vs0mg"},{"bike_id":"9e54130a-3084-46d5-a88d-7b44c836d8d6","system_id":"levelo_inurba_marseille","lat":43.26805,"lon":5.40271,"is_reserved":false,"is_disabled":false,"rental_uris":{"android":"levelo://app?vid=9e54130a-3084-46d5-a88d-7b44c836d8d6","ios":"levelo://app?vid=9e54130a-3084-46d5-a88d-7b44c836d8d6"},"vehicle_type_id":"4","last_reported":1730491816,"current_range_meters":6400,"station_id":"ce501612rcd8frsf0b60","pricing_plan_id":"cebpf4jnsgd1na2vs0mg"},{"bike_id":"7e420487-74b0-44d2-ad7a-302b8af48008","system_id":"levelo_inurba_marseille","lat":43.29026,"lon":5.38143,"is_reserved":false,"is_disabled":false,"rental_uris":{"android":"levelo://app?vid=7e420487-74b0-44d2-ad7a-302b8af48008","ios":"levelo://app?vid=7e420487-74b0-44d2-ad7a-302b8af48008"},"vehicle_type_id":"4","last_reported":1730491816,"current_range_meters":20400,"station_id":"ce4bh4p2rcd13ifvqe1g","pricing_plan_id":"cebpf4jnsgd1na2vs0mg"},{"bike_id":"cffa510c-a8c3-4e26-9743-eacf445e8e29","system_id":"levelo_inurba_marseille","lat":43.29309,"lon":5.37178,"is_reserved":false,"is_disabled":false,"rental_uris":{"android":"levelo://app?vid=cffa510c-a8c3-4e26-9743-eacf445e8e29","ios":"levelo://app?vid=cffa510c-a8c3-4e26-9743-eacf445e8e29"},"vehicle_type_id":"4","last_reported":1730491816,"current_range_meters":27600,"station_id":"ce4bgh92rcd13ifvqb40","pricing_plan_id":"cebpf4jnsgd1na2vs0mg"},{"bike_id":"ed17d874-8ff3-4c07-903d-ec6de7cecb92","system_id":"levelo_inurba_marseille","lat":43.29701,"lon":5.366,"is_reserved":false,"is_disabled":false,"rental_uris":{"android":"levelo://app?vid=ed17d874-8ff3-4c07-903d-ec6de7cecb92","ios":"levelo://app?vid=ed17d874-8ff3-4c07-903d-ec6de7cecb92"},"vehicle_type_id":"4","last_reported":1730491816,"current_range_meters":7200,"station_id":"ce4bgn12rcd13ifvqbt0","pricing_plan_id":"cebpf4jnsgd1na2vs0mg"},{"bike_id":"3a455b1c-cf79-4309-ae45-c3e948580009","system_id":"levelo_inurba_marseille","lat":43.2903,"lon":5.38137,"is_reserved":false,"is_disabled":false,"rental_uris":{"android":"levelo://app?vid=3a455b1c-cf79-4309-ae45-c3e948580009","ios":"levelo://app?vid=3a455b1c-cf79-4309-ae45-c3e948580009"},"vehicle_type_id":"4","last_reported":1730491816,"current_range_meters":30000,"station_id":"ce4bh4p2rcd13ifvqe1g","pricing_plan_id":"cebpf4jnsgd1na2vs0mg"},{"bike_id":"c464d67e-1a73-40bd-b8bb-ad08b05c10b4","system_id":"levelo_inurba_marseille","lat":43.31289,"lon":5.40171,"is_reserved":false,"is_disabled":false,"rental_uris":{"android":"levelo://app?vid=c464d67e-1a73-40bd-b8bb-ad08b05c10b4","ios":"levelo://app?vid=c464d67e-1a73-40bd-b8bb-ad08b05c10b4"},"vehicle_type_id":"4","last_reported":1730491816,"current_range_meters":12000,"station_id":"ce4bh092rcd13ifvqd30","pricing_plan_id":"cebpf4jnsgd1na2vs0mg"},{"bike_id":"df77d774-9ddf-46df-8f6e-b7495fdeaf88","system_id":"levelo_inurba_marseille","lat":43.26783,"lon":5.3942,"is_reserved":false,"is_disabled":false,"rental_uris":{"android":"levelo://app?vid=df77d774-9ddf-46df-8f6e-b7495fdeaf88","ios":"levelo://app?vid=df77d774-9ddf-46df-8f6e-b7495fdeaf88"},"vehicle_type_id":"4","last_reported":1730491816,"current_range_meters":28000,"station_id":"ce4bhh12rcd13ifvqfg0","pricing_plan_id":"cebpf4jnsgd1na2vs0mg"},{"bike_id":"02767ede-6227-4ced-8928-3a5e4ff75603","system_id":"levelo_inurba_marseille","lat":43.30916,"lon":5.36848,"is_reserved":false,"is_disabled":false,"rental_uris":{"android":"levelo://app?vid=02767ede-6227-4ced-8928-3a5e4ff75603","ios":"levelo://app?vid=02767ede-6227-4ced-8928-3a5e4ff75603"},"vehicle_type_id":"4","last_reported":1730491816,"current_range_meters":38800,"station_id":"ce4bgn92rcd13ifvqbvg","pricing_plan_id":"cebpf4jnsgd1na2vs0mg"},{"bike_id":"ad8217e0-9495-49d8-ab29-72d39dca0dda","system_id":"levelo_inurba_marseille","lat":43.27996,"lon":5.40006,"is_reserved":false,"is_disabled":false,"rental_uris":{"android":"levelo://app?vid=ad8217e0-9495-49d8-ab29-72d39dca0dda","ios":"levelo://app?vid=ad8217e0-9495-49d8-ab29-72d39dca0dda"},"vehicle_type_id":"4","last_reported":1730491816,"current_range_meters":18800,"station_id":"ce4bho92rcd13ifvqh4g","pricing_plan_id":"cebpf4jnsgd1na2vs0mg"},{"bike_id":"a749c99c-7a2d-49c7-ba2f-d2a78c9fb921","system_id":"levelo_inurba_marseille","lat":43.27812,"lon":5.40705,"is_reserved":false,"is_disabled":false,"rental_uris":{"android":"levelo://app?vid=a749c99c-7a2d-49c7-ba2f-d2a78c9fb921","ios":"levelo://app?vid=a749c99c-7a2d-49c7-ba2f-d2a78c9fb921"},"vehicle_type_id":"4","last_reported":1730491816,"current_range_meters":35200,"station_id":"ce4bhnh2rcd13ifvqgtg","pricing_plan_id":"cebpf4jnsgd1na2vs0mg"},{"bike_id":"627d220e-daa9-4a70-b12f-dfeb64a7a8be","system_id":"levelo_inurba_marseille","lat":43.289272,"lon":5.384062,"is_reserved":false,"is_disabled":false,"rental_uris":{"android":"levelo://app?vid=627d220e-daa9-4a70-b12f-dfeb64a7a8be","ios":"levelo://app?vid=627d220e-daa9-4a70-b12f-dfeb64a7a8be"},"vehicle_type_id":"4","last_reported":1730491816,"current_range_meters":14400,"station_id":"ce4bh612rcd13ifvqe6g","pricing_plan_id":"cebpf4jnsgd1na2vs0mg"},{"bike_id":"01a21b68-e9bd-4a8e-8888-d00afb90da73","system_id":"levelo_inurba_marseille","lat":43.29978,"lon":5.37179,"is_reserved":false,"is_disabled":false,"rental_uris":{"android":"levelo://app?vid=01a21b68-e9bd-4a8e-8888-d00afb90da73","ios":"levelo://app?vid=01a21b68-e9bd-4a8e-8888-d00afb90da73"},"vehicle_type_id":"4","last_reported":1730491816,"current_range_meters":27200,"station_id":"ce4bgr92rcd13ifvqc7g","pricing_plan_id":"cebpf4jnsgd1na2vs0mg"},{"bike_id":"838468ab-f744-461f-83fc-e19e85a2ff90","system_id":"levelo_inurba_marseille","lat":43.29254,"lon":5.40894,"is_reserved":false,"is_disabled":false,"rental_uris":{"android":"levelo://app?vid=838468ab-f744-461f-83fc-e19e85a2ff90","ios":"levelo://app?vid=838468ab-f744-461f-83fc-e19e85a2ff90"},"vehicle_type_id":"4","last_reported":1730491816,"current_range_meters":8800,"station_id":"ce4bh192rcd13ifvqdc0","pricing_plan_id":"cebpf4jnsgd1na2vs0mg"},{"bike_id":"d8c8460e-88aa-4929-8b6f-75300411d6df","system_id":"levelo_inurba_marseille","lat":43.27425,"lon":5.39411,"is_reserved":false,"is_disabled":false,"rental_uris":{"android":"levelo://app?vid=d8c8460e-88aa-4929-8b6f-75300411d6df","ios":"levelo://app?vid=d8c8460e-88aa-4929-8b6f-75300411d6df"},"vehicle_type_id":"4","last_reported":1730491816,"current_range_meters":16400,"station_id":"ce4bhdp2rcd13ifvqf20","pricing_plan_id":"cebpf4jnsgd1na2vs0mg"},{"bike_id":"ef10497a-439b-4c81-9e9b-6c7dcb7e5450","system_id":"levelo_inurba_marseille","lat":43.28712,"lon":5.39998,"is_reserved":false,"is_disabled":false,"rental_uris":{"android":"levelo://app?vid=ef10497a-439b-4c81-9e9b-6c7dcb7e5450","ios":"levelo://app?vid=ef10497a-439b-4c81-9e9b-6c7dcb7e5450"},"vehicle_type_id":"4","last_reported":1730491816,"current_range_meters":38800,"station_id":"ce4bho92rcd13ifvqh3g","pricing_plan_id":"cebpf4jnsgd1na2vs0mg"},{"bike_id":"6f4b7619-ff48-4d05-806c-856657c20933","system_id":"levelo_inurba_marseille","lat":43.27369,"lon":5.36253,"is_reserved":false,"is_disabled":false,"rental_uris":{"android":"levelo://app?vid=6f4b7619-ff48-4d05-806c-856657c20933","ios":"levelo://app?vid=6f4b7619-ff48-4d05-806c-856657c20933"},"vehicle_type_id":"4","last_reported":1730491816,"current_range_meters":13600,"station_id":"ce4bhbh2rcd13ifvqeo0","pricing_plan_id":"cebpf4jnsgd1na2vs0mg"},{"bike_id":"bff4d2d5-c517-49af-84bd-b3ba7cffdb4c","system_id":"levelo_inurba_marseille","lat":43.25815,"lon":5.39432,"is_reserved":false,"is_disabled":false,"rental_uris":{"android":"levelo://app?vid=bff4d2d5-c517-49af-84bd-b3ba7cffdb4c","ios":"levelo://app?vid=bff4d2d5-c517-49af-84bd-b3ba7cffdb4c"},"vehicle_type_id":"4","last_reported":1730491816,"current_range_meters":38800,"station_id":"ce4bhip2rcd13ifvqft0","pricing_plan_id":"cebpf4jnsgd1na2vs0mg"},{"bike_id":"f5b8ac0f-cd64-4677-b9a3-29759d99c053","system_id":"levelo_inurba_marseille","lat":43.24998,"lon":5.38935,"is_reserved":false,"is_disabled":false,"rental_uris":{"android":"levelo://app?vid=f5b8ac0f-cd64-4677-b9a3-29759d99c053","ios":"levelo://app?vid=f5b8ac0f-cd64-4677-b9a3-29759d99c053"},"vehicle_type_id":"4","last_reported":1730491816,"current_range_meters":37600,"station_id":"ce4bhgp2rcd13ifvqfd0","pricing_plan_id":"cebpf4jnsgd1na2vs0mg"},{"bike_id":"30779dfb-e221-4708-b3d5-972d9c614bc3","system_id":"levelo_inurba_marseille","lat":43.31174,"lon":5.38713,"is_reserved":false,"is_disabled":false,"rental_uris":{"android":"levelo://app?vid=30779dfb-e221-4708-b3d5-972d9c614bc3","ios":"levelo://app?vid=30779dfb-e221-4708-b3d5-972d9c614bc3"},"vehicle_type_id":"4","last_reported":1730491816,"current_range_meters":20000,"station_id":"ce4bgv12rcd13ifvqcp0","pricing_plan_id":"cebpf4jnsgd1na2vs0mg"},{"bike_id":"04bb0bc0-fd9d-4169-b947-9b5d9c899f23","system_id":"levelo_inurba_marseille","lat":43.28623,"lon":5.35103,"is_reserved":false,"is_disabled":false,"rental_uris":{"android":"levelo://app?vid=04bb0bc0-fd9d-4169-b947-9b5d9c899f23","ios":"levelo://app?vid=04bb0bc0-fd9d-4169-b947-9b5d9c899f23"},"vehicle_type_id":"4","last_reported":1730491816,"current_range_meters":26000,"station_id":"ce4bhch2rcd13ifvqeug","pricing_plan_id":"cebpf4jnsgd1na2vs0mg"},{"bike_id":"8c67d340-801d-46e5-b910-2f8aff3ff078","system_id":"levelo_inurba_marseille","lat":43.33374,"lon":5.37033,"is_reserved":false,"is_disabled":false,"rental_uris":{"android":"levelo://app?vid=8c67d340-801d-46e5-b910-2f8aff3ff078","ios":"levelo://app?vid=8c67d340-801d-46e5-b910-2f8aff3ff078"},"vehicle_type_id":"4","last_reported":1730491816,"current_range_meters":14400,"station_id":"","pricing_plan_id":"cebpf4jnsgd1na2vs0mg"},{"bike_id":"83356032-baeb-401a-bdff-8adddb83ed12","system_id":"levelo_inurba_marseille","lat":43.23197,"lon":5.35551,"is_reserved":false,"is_disabled":false,"rental_uris":{"android":"levelo://app?vid=83356032-baeb-401a-bdff-8adddb83ed12","ios":"levelo://app?vid=83356032-baeb-401a-bdff-8adddb83ed12"},"vehicle_type_id":"4","last_reported":1730491816,"current_range_meters":38800,"station_id":"ce4bhu92rcd13ifvqi70","pricing_plan_id":"cebpf4jnsgd1na2vs0mg"},{"bike_id":"e0a5fdad-ad5a-406c-a74b-095bf7605789","system_id":"levelo_inurba_marseille","lat":43.27844,"lon":5.39204,"is_reserved":false,"is_disabled":false,"rental_uris":{"android":"levelo://app?vid=e0a5fdad-ad5a-406c-a74b-095bf7605789","ios":"levelo://app?vid=e0a5fdad-ad5a-406c-a74b-095bf7605789"},"vehicle_type_id":"4","last_reported":1730491816,"current_range_meters":24400,"station_id":"ce4bhjp2rcd13ifvqga0","pricing_plan_id":"cebpf4jnsgd1na2vs0mg"},{"bike_id":"0fe14362-061a-4a0b-8560-641bcb26245f","system_id":"levelo_inurba_marseille","lat":43.29006,"lon":5.35609,"is_reserved":false,"is_disabled":false,"rental_uris":{"android":"levelo://app?vid=0fe14362-061a-4a0b-8560-641bcb26245f","ios":"levelo://app?vid=0fe14362-061a-4a0b-8560-641bcb26245f"},"vehicle_type_id":"4","last_reported":1730491816,"current_range_meters":38400,"station_id":"ce4bhb92rcd13ifvqen0","pricing_plan_id":"cebpf4jnsgd1na2vs0mg"},{"bike_id":"02c4ab5c-31f5-4d06-affc-310aaf314199","system_id":"levelo_inurba_marseille","lat":43.26216,"lon":5.37439,"is_reserved":false,"is_disabled":false,"rental_uris":{"android":"levelo://app?vid=02c4ab5c-31f5-4d06-affc-310aaf314199","ios":"levelo://app?vid=02c4ab5c-31f5-4d06-affc-310aaf314199"},"vehicle_type_id":"4","last_reported":1730491816,"current_range_meters":21600,"station_id":"ce4bhgp2rcd13ifvqfc0","pricing_plan_id":"cebpf4jnsgd1na2vs0mg"},{"bike_id":"c9fe9305-e5b5-403a-8ac6-ee784523647c","system_id":"levelo_inurba_marseille","lat":43.23426,"lon":5.35941,"is_reserved":false,"is_disabled":false,"rental_uris":{"android":"levelo://app?vid=c9fe9305-e5b5-403a-8ac6-ee784523647c","ios":"levelo://app?vid=c9fe9305-e5b5-403a-8ac6-ee784523647c"},"vehicle_type_id":"4","last_reported":1730491816,"current_range_meters":21600,"station_id":"","pricing_plan_id":"cebpf4jnsgd1na2vs0mg"},{"bike_id":"69a0d18e-0381-4102-9fad-3f8c57fc1228","system_id":"levelo_inurba_marseille","lat":43.230674,"lon":5.354924,"is_reserved":false,"is_disabled":false,"rental_uris":{"android":"levelo://app?vid=69a0d18e-0381-4102-9fad-3f8c57fc1228","ios":"levelo://app?vid=69a0d18e-0381-4102-9fad-3f8c57fc1228"},"vehicle_type_id":"4","last_reported":1730491816,"current_range_meters":38800,"station_id":"cpo3342slgdg3j2ifvpg","pricing_plan_id":"cebpf4jnsgd1na2vs0mg"},{"bike_id":"07d0df56-f8bc-46e6-871c-8e071fb175e5","system_id":"levelo_inurba_marseille","lat":43.232,"lon":5.35557,"is_reserved":false,"is_disabled":false,"rental_uris":{"android":"levelo://app?vid=07d0df56-f8bc-46e6-871c-8e071fb175e5","ios":"levelo://app?vid=07d0df56-f8bc-46e6-871c-8e071fb175e5"},"vehicle_type_id":"4","last_reported":1730491816,"current_range_meters":38800,"station_id":"ce4bhu92rcd13ifvqi70","pricing_plan_id":"cebpf4jnsgd1na2vs0mg"},{"bike_id":"d067261d-1f65-4dda-b2ae-d6541cf03bfa","system_id":"levelo_inurba_marseille","lat":43.28674,"lon":5.3865,"is_reserved":false,"is_disabled":false,"rental_uris":{"android":"levelo://app?vid=d067261d-1f65-4dda-b2ae-d6541cf03bfa","ios":"levelo://app?vid=d067261d-1f65-4dda-b2ae-d6541cf03bfa"},"vehicle_type_id":"4","last_reported":1730491816,"current_range_meters":36800,"station_id":"ce4bh492rcd13ifvqdug","pricing_plan_id":"cebpf4jnsgd1na2vs0mg"},{"bike_id":"19e6008c-0743-45ac-b4bf-fc683ef0e14c","system_id":"levelo_inurba_marseille","lat":43.25729,"lon":5.41107,"is_reserved":false,"is_disabled":false,"rental_uris":{"android":"levelo://app?vid=19e6008c-0743-45ac-b4bf-fc683ef0e14c","ios":"levelo://app?vid=19e6008c-0743-45ac-b4bf-fc683ef0e14c"},"vehicle_type_id":"4","last_reported":1730491816,"current_range_meters":28800,"station_id":"ce4bhkp2rcd13ifvqgd0","pricing_plan_id":"cebpf4jnsgd1na2vs0mg"},{"bike_id":"877ae4f1-ee0a-40cb-bd47-eb9700d76d94","system_id":"levelo_inurba_marseille","lat":43.29508,"lon":5.38643,"is_reserved":false,"is_disabled":false,"rental_uris":{"android":"levelo://app?vid=877ae4f1-ee0a-40cb-bd47-eb9700d76d94","ios":"levelo://app?vid=877ae4f1-ee0a-40cb-bd47-eb9700d76d94"},"vehicle_type_id":"4","last_reported":1730491816,"current_range_meters":7200,"station_id":"","pricing_plan_id":"cebpf4jnsgd1na2vs0mg"},{"bike_id":"58b0cce1-4562-420c-97a3-006a5e2d6209","system_id":"levelo_inurba_marseille","lat":43.27061,"lon":5.40258,"is_reserved":false,"is_disabled":false,"rental_uris":{"android":"levelo://app?vid=58b0cce1-4562-420c-97a3-006a5e2d6209","ios":"levelo://app?vid=58b0cce1-4562-420c-97a3-006a5e2d6209"},"vehicle_type_id":"4","last_reported":1730491816,"current_range_meters":24000,"station_id":"ce4bhk92rcd13ifvqgc0","pricing_plan_id":"cebpf4jnsgd1na2vs0mg"},{"bike_id":"c121262e-e64f-4c57-ad81-84bc1a1971e7","system_id":"levelo_inurba_marseille","lat":43.29432,"lon":5.386,"is_reserved":false,"is_disabled":false,"rental_uris":{"android":"levelo://app?vid=c121262e-e64f-4c57-ad81-84bc1a1971e7","ios":"levelo://app?vid=c121262e-e64f-4c57-ad81-84bc1a1971e7"},"vehicle_type_id":"4","last_reported":1730491816,"current_range_meters":26800,"station_id":"ce4bh2h2rcd13ifvqdh0","pricing_plan_id":"cebpf4jnsgd1na2vs0mg"},{"bike_id":"0681c4d0-3227-4511-88e9-13d0e9bbac17","system_id":"levelo_inurba_marseille","lat":43.30441,"lon":5.38883,"is_reserved":false,"is_disabled":false,"rental_uris":{"android":"levelo://app?vid=0681c4d0-3227-4511-88e9-13d0e9bbac17","ios":"levelo://app?vid=0681c4d0-3227-4511-88e9-13d0e9bbac17"},"vehicle_type_id":"4","last_reported":1730491816,"current_range_meters":37600,"station_id":"ce4bgk12rcd13ifvqbi0","pricing_plan_id":"cebpf4jnsgd1na2vs0mg"},{"bike_id":"d43eb6e6-188f-4b61-baef-2c942fc313d9","system_id":"levelo_inurba_marseille","lat":43.30356,"lon":5.41886,"is_reserved":false,"is_disabled":false,"rental_uris":{"android":"levelo://app?vid=d43eb6e6-188f-4b61-baef-2c942fc313d9","ios":"levelo://app?vid=d43eb6e6-188f-4b61-baef-2c942fc313d9"},"vehicle_type_id":"4","last_reported":1730491816,"current_range_meters":20400,"station_id":"ce4bhop2rcd13ifvqh7g","pricing_plan_id":"cebpf4jnsgd1na2vs0mg"},{"bike_id":"e46bb17b-2752-4677-bb19-57747f80054d","system_id":"levelo_inurba_marseille","lat":43.30351,"lon":5.41872,"is_reserved":false,"is_disabled":false,"rental_uris":{"android":"levelo://app?vid=e46bb17b-2752-4677-bb19-57747f80054d","ios":"levelo://app?vid=e46bb17b-2752-4677-bb19-57747f80054d"},"vehicle_type_id":"4","last_reported":1730491816,"current_range_meters":30400,"station_id":"ce4bhop2rcd13ifvqh7g","pricing_plan_id":"cebpf4jnsgd1na2vs0mg"},{"bike_id":"b35737c6-49ec-46a6-98b7-a66d9ca0bf72","system_id":"levelo_inurba_marseille","lat":43.29525,"lon":5.39034,"is_reserved":false,"is_disabled":false,"rental_uris":{"android":"levelo://app?vid=b35737c6-49ec-46a6-98b7-a66d9ca0bf72","ios":"levelo://app?vid=b35737c6-49ec-46a6-98b7-a66d9ca0bf72"},"vehicle_type_id":"4","last_reported":1730491816,"current_range_meters":38800,"station_id":"ce4bh3p2rcd13ifvqdp0","pricing_plan_id":"cebpf4jnsgd1na2vs0mg"},{"bike_id":"223427b6-a667-4fba-bfd1-d25670cecee0","system_id":"levelo_inurba_marseille","lat":43.29031,"lon":5.3756,"is_reserved":false,"is_disabled":false,"rental_uris":{"android":"levelo://app?vid=223427b6-a667-4fba-bfd1-d25670cecee0","ios":"levelo://app?vid=223427b6-a667-4fba-bfd1-d25670cecee0"},"vehicle_type_id":"4","last_reported":1730491816,"current_range_meters":38800,"station_id":"ce4bh692rcd13ifvqe90","pricing_plan_id":"cebpf4jnsgd1na2vs0mg"},{"bike_id":"c512dfa3-9aad-4a81-a8ab-c1d000bfa4c9","system_id":"levelo_inurba_marseille","lat":43.27883,"lon":5.380605,"is_reserved":false,"is_disabled":false,"rental_uris":{"android":"levelo://app?vid=c512dfa3-9aad-4a81-a8ab-c1d000bfa4c9","ios":"levelo://app?vid=c512dfa3-9aad-4a81-a8ab-c1d000bfa4c9"},"vehicle_type_id":"4","last_reported":1730491816,"current_range_meters":10800,"station_id":"ce4bhf92rcd13ifvqf50","pricing_plan_id":"cebpf4jnsgd1na2vs0mg"},{"bike_id":"5593522d-2de9-48c0-a42a-44f9da3b1f87","system_id":"levelo_inurba_marseille","lat":43.29985,"lon":5.37171,"is_reserved":false,"is_disabled":false,"rental_uris":{"android":"levelo://app?vid=5593522d-2de9-48c0-a42a-44f9da3b1f87","ios":"levelo://app?vid=5593522d-2de9-48c0-a42a-44f9da3b1f87"},"vehicle_type_id":"4","last_reported":1730491816,"current_range_meters":38000,"station_id":"ce4bgr92rcd13ifvqc7g","pricing_plan_id":"cebpf4jnsgd1na2vs0mg"},{"bike_id":"58184187-f6fa-412d-8ff6-14e2a1de63bc","system_id":"levelo_inurba_marseille","lat":43.27811,"lon":5.40716,"is_reserved":false,"is_disabled":false,"rental_uris":{"android":"levelo://app?vid=58184187-f6fa-412d-8ff6-14e2a1de63bc","ios":"levelo://app?vid=58184187-f6fa-412d-8ff6-14e2a1de63bc"},"vehicle_type_id":"4","last_reported":1730491816,"current_range_meters":17600,"station_id":"ce4bhnh2rcd13ifvqgtg","pricing_plan_id":"cebpf4jnsgd1na2vs0mg"},{"bike_id":"367151e3-d9d1-496e-afc3-1d3ad14f98c6","system_id":"levelo_inurba_marseille","lat":43.32368,"lon":5.38885,"is_reserved":false,"is_disabled":false,"rental_uris":{"android":"levelo://app?vid=367151e3-d9d1-496e-afc3-1d3ad14f98c6","ios":"levelo://app?vid=367151e3-d9d1-496e-afc3-1d3ad14f98c6"},"vehicle_type_id":"4","last_reported":1730491816,"current_range_meters":36000,"station_id":"ce4bhqp2rcd13ifvqhog","pricing_plan_id":"cebpf4jnsgd1na2vs0mg"},{"bike_id":"f615e294-0409-44a2-a018-25a12cadb6a0","system_id":"levelo_inurba_marseille","lat":43.29262,"lon":5.38443,"is_reserved":false,"is_disabled":false,"rental_uris":{"android":"levelo://app?vid=f615e294-0409-44a2-a018-25a12cadb6a0","ios":"levelo://app?vid=f615e294-0409-44a2-a018-25a12cadb6a0"},"vehicle_type_id":"4","last_reported":1730491816,"current_range_meters":9600,"station_id":"ce4bh692rcd13ifvqea0","pricing_plan_id":"cebpf4jnsgd1na2vs0mg"},{"bike_id":"7efa920b-7c79-4972-8cbb-f551f2ff4d12","system_id":"levelo_inurba_marseille","lat":43.27435,"lon":5.39417,"is_reserved":false,"is_disabled":false,"rental_uris":{"android":"levelo://app?vid=7efa920b-7c79-4972-8cbb-f551f2ff4d12","ios":"levelo://app?vid=7efa920b-7c79-4972-8cbb-f551f2ff4d12"},"vehicle_type_id":"4","last_reported":1730491816,"current_range_meters":38800,"station_id":"ce4bhdp2rcd13ifvqf20","pricing_plan_id":"cebpf4jnsgd1na2vs0mg"},{"bike_id":"6eca7a87-c843-4bf6-a3de-25402ecb0517","system_id":"levelo_inurba_marseille","lat":43.28922,"lon":5.39624,"is_reserved":false,"is_disabled":false,"rental_uris":{"android":"levelo://app?vid=6eca7a87-c843-4bf6-a3de-25402ecb0517","ios":"levelo://app?vid=6eca7a87-c843-4bf6-a3de-25402ecb0517"},"vehicle_type_id":"4","last_reported":1730491816,"current_range_meters":37600,"station_id":"ce4bh3h2rcd13ifvqdn0","pricing_plan_id":"cebpf4jnsgd1na2vs0mg"},{"bike_id":"d8b30d62-8fb7-4930-b190-e85b44e5d382","system_id":"levelo_inurba_marseille","lat":43.29806,"lon":5.38091,"is_reserved":false,"is_disabled":false,"rental_uris":{"android":"levelo://app?vid=d8b30d62-8fb7-4930-b190-e85b44e5d382","ios":"levelo://app?vid=d8b30d62-8fb7-4930-b190-e85b44e5d382"},"vehicle_type_id":"4","last_reported":1730491816,"current_range_meters":24400,"station_id":"ce4bgip2rcd13ifvqbb0","pricing_plan_id":"cebpf4jnsgd1na2vs0mg"},{"bike_id":"85fd5c53-1c11-452e-ace1-97535e5aa961","system_id":"levelo_inurba_marseille","lat":43.30893,"lon":5.37185,"is_reserved":false,"is_disabled":false,"rental_uris":{"android":"levelo://app?vid=85fd5c53-1c11-452e-ace1-97535e5aa961","ios":"levelo://app?vid=85fd5c53-1c11-452e-ace1-97535e5aa961"},"vehicle_type_id":"4","last_reported":1730491816,"current_range_meters":35600,"station_id":"ce4bguh2rcd13ifvqckg","pricing_plan_id":"cebpf4jnsgd1na2vs0mg"},{"bike_id":"45a7b138-6734-4c36-9029-1c78825153fb","system_id":"levelo_inurba_marseille","lat":43.27378,"lon":5.36252,"is_reserved":false,"is_disabled":false,"rental_uris":{"android":"levelo://app?vid=45a7b138-6734-4c36-9029-1c78825153fb","ios":"levelo://app?vid=45a7b138-6734-4c36-9029-1c78825153fb"},"vehicle_type_id":"4","last_reported":1730491816,"current_range_meters":37600,"station_id":"ce4bhbh2rcd13ifvqeo0","pricing_plan_id":"cebpf4jnsgd1na2vs0mg"},{"bike_id":"b308451d-42cb-41d1-b5a5-a3a56d0b89d4","system_id":"levelo_inurba_marseille","lat":43.29032,"lon":5.38621,"is_reserved":false,"is_disabled":false,"rental_uris":{"android":"levelo://app?vid=b308451d-42cb-41d1-b5a5-a3a56d0b89d4","ios":"levelo://app?vid=b308451d-42cb-41d1-b5a5-a3a56d0b89d4"},"vehicle_type_id":"4","last_reported":1730491816,"current_range_meters":38800,"station_id":"ce4bh4p2rcd13ifvqe0g","pricing_plan_id":"cebpf4jnsgd1na2vs0mg"},{"bike_id":"a666d207-ba0b-4da4-ab30-e5fee93d146b","system_id":"levelo_inurba_marseille","lat":43.29416,"lon":5.38624,"is_reserved":false,"is_disabled":false,"rental_uris":{"android":"levelo://app?vid=a666d207-ba0b-4da4-ab30-e5fee93d146b","ios":"levelo://app?vid=a666d207-ba0b-4da4-ab30-e5fee93d146b"},"vehicle_type_id":"4","last_reported":1730491816,"current_range_meters":16400,"station_id":"ce4bh2h2rcd13ifvqdh0","pricing_plan_id":"cebpf4jnsgd1na2vs0mg"},{"bike_id":"a51b32eb-bce6-49ee-995d-911914cb0a4d","system_id":"levelo_inurba_marseille","lat":43.29802,"lon":5.38086,"is_reserved":false,"is_disabled":false,"rental_uris":{"android":"levelo://app?vid=a51b32eb-bce6-49ee-995d-911914cb0a4d","ios":"levelo://app?vid=a51b32eb-bce6-49ee-995d-911914cb0a4d"},"vehicle_type_id":"4","last_reported":1730491816,"current_range_meters":18800,"station_id":"ce4bgip2rcd13ifvqbb0","pricing_plan_id":"cebpf4jnsgd1na2vs0mg"},{"bike_id":"57d18951-2001-4003-92d2-aa5cb684af8c","system_id":"levelo_inurba_marseille","lat":43.27119,"lon":5.3945,"is_reserved":false,"is_disabled":false,"rental_uris":{"android":"levelo://app?vid=57d18951-2001-4003-92d2-aa5cb684af8c","ios":"levelo://app?vid=57d18951-2001-4003-92d2-aa5cb684af8c"},"vehicle_type_id":"4","last_reported":1730491816,"current_range_meters":20400,"station_id":"","pricing_plan_id":"cebpf4jnsgd1na2vs0mg"},{"bike_id":"5c27b960-6461-4f9d-887b-b61a1549abaa","system_id":"levelo_inurba_marseille","lat":43.2512,"lon":5.4032,"is_reserved":false,"is_disabled":false,"rental_uris":{"android":"levelo://app?vid=5c27b960-6461-4f9d-887b-b61a1549abaa","ios":"levelo://app?vid=5c27b960-6461-4f9d-887b-b61a1549abaa"},"vehicle_type_id":"4","last_reported":1730491816,"current_range_meters":7200,"station_id":"ce4bhlh2rcd13ifvqgig","pricing_plan_id":"cebpf4jnsgd1na2vs0mg"},{"bike_id":"3730747f-62e1-4de2-8b52-5c433fdc4dd3","system_id":"levelo_inurba_marseille","lat":43.23188,"lon":5.39988,"is_reserved":false,"is_disabled":false,"rental_uris":{"android":"levelo://app?vid=3730747f-62e1-4de2-8b52-5c433fdc4dd3","ios":"levelo://app?vid=3730747f-62e1-4de2-8b52-5c433fdc4dd3"},"vehicle_type_id":"4","last_reported":1730491816,"current_range_meters":6400,"station_id":"ce4bhn12rcd13ifvqgqg","pricing_plan_id":"cebpf4jnsgd1na2vs0mg"},{"bike_id":"682bf1c5-5903-4d2f-ab10-5dd6d792be55","system_id":"levelo_inurba_marseille","lat":43.25822,"lon":5.39427,"is_reserved":false,"is_disabled":false,"rental_uris":{"android":"levelo://app?vid=682bf1c5-5903-4d2f-ab10-5dd6d792be55","ios":"levelo://app?vid=682bf1c5-5903-4d2f-ab10-5dd6d792be55"},"vehicle_type_id":"4","last_reported":1730491816,"current_range_meters":28400,"station_id":"ce4bhip2rcd13ifvqft0","pricing_plan_id":"cebpf4jnsgd1na2vs0mg"},{"bike_id":"e8bb2e43-06e1-4662-9540-13b29d948ad5","system_id":"levelo_inurba_marseille","lat":43.33731,"lon":5.39177,"is_reserved":false,"is_disabled":false,"rental_uris":{"android":"levelo://app?vid=e8bb2e43-06e1-4662-9540-13b29d948ad5","ios":"levelo://app?vid=e8bb2e43-06e1-4662-9540-13b29d948ad5"},"vehicle_type_id":"4","last_reported":1730491816,"current_range_meters":6800,"station_id":"ce4bhr92rcd13ifvqhsg","pricing_plan_id":"cebpf4jnsgd1na2vs0mg"},{"bike_id":"e4f934c1-2a90-4694-82db-8f770e0c5203","system_id":"levelo_inurba_marseille","lat":43.290375,"lon":5.386481,"is_reserved":false,"is_disabled":false,"rental_uris":{"android":"levelo://app?vid=e4f934c1-2a90-4694-82db-8f770e0c5203","ios":"levelo://app?vid=e4f934c1-2a90-4694-82db-8f770e0c5203"},"vehicle_type_id":"4","last_reported":1730491816,"current_range_meters":6000,"station_id":"ce4bh4p2rcd13ifvqe0g","pricing_plan_id":"cebpf4jnsgd1na2vs0mg"},{"bike_id":"0f524f7a-e87b-40e6-a0d2-ade4e8a08165","system_id":"levelo_inurba_marseille","lat":43.27436,"lon":5.39415,"is_reserved":false,"is_disabled":false,"rental_uris":{"android":"levelo://app?vid=0f524f7a-e87b-40e6-a0d2-ade4e8a08165","ios":"levelo://app?vid=0f524f7a-e87b-40e6-a0d2-ade4e8a08165"},"vehicle_type_id":"4","last_reported":1730491816,"current_range_meters":38800,"station_id":"ce4bhdp2rcd13ifvqf20","pricing_plan_id":"cebpf4jnsgd1na2vs0mg"},{"bike_id":"d7080d00-b7d3-43c5-9587-096fc4030728","system_id":"levelo_inurba_marseille","lat":43.29313,"lon":5.37444,"is_reserved":false,"is_disabled":false,"rental_uris":{"android":"levelo://app?vid=d7080d00-b7d3-43c5-9587-096fc4030728","ios":"levelo://app?vid=d7080d00-b7d3-43c5-9587-096fc4030728"},"vehicle_type_id":"4","last_reported":1730491816,"current_range_meters":8000,"station_id":"ce4bgi12rcd13ifvqb70","pricing_plan_id":"cebpf4jnsgd1na2vs0mg"},{"bike_id":"dee78bd8-3802-45af-a002-dc082f3ccf4c","system_id":"levelo_inurba_marseille","lat":43.29982,"lon":5.38474,"is_reserved":false,"is_disabled":false,"rental_uris":{"android":"levelo://app?vid=dee78bd8-3802-45af-a002-dc082f3ccf4c","ios":"levelo://app?vid=dee78bd8-3802-45af-a002-dc082f3ccf4c"},"vehicle_type_id":"4","last_reported":1730491816,"current_range_meters":17200,"station_id":"ce4bgj92rcd13ifvqbd0","pricing_plan_id":"cebpf4jnsgd1na2vs0mg"},{"bike_id":"94279a57-03c0-47b7-abe3-7226e86fd3b0","system_id":"levelo_inurba_marseille","lat":43.27621,"lon":5.36112,"is_reserved":false,"is_disabled":false,"rental_uris":{"android":"levelo://app?vid=94279a57-03c0-47b7-abe3-7226e86fd3b0","ios":"levelo://app?vid=94279a57-03c0-47b7-abe3-7226e86fd3b0"},"vehicle_type_id":"4","last_reported":1730491816,"current_range_meters":24400,"station_id":"ce4bgj92rcd13ifvqbe0","pricing_plan_id":"cebpf4jnsgd1na2vs0mg"},{"bike_id":"082af54f-48ec-4feb-99ef-5452aea79e32","system_id":"levelo_inurba_marseille","lat":43.30214,"lon":5.39455,"is_reserved":false,"is_disabled":false,"rental_uris":{"android":"levelo://app?vid=082af54f-48ec-4feb-99ef-5452aea79e32","ios":"levelo://app?vid=082af54f-48ec-4feb-99ef-5452aea79e32"},"vehicle_type_id":"4","last_reported":1730491816,"current_range_meters":38000,"station_id":"ce4bh0p2rcd13ifvqd70","pricing_plan_id":"cebpf4jnsgd1na2vs0mg"},{"bike_id":"41866827-2f64-4cf7-8a6f-149d36745074","system_id":"levelo_inurba_marseille","lat":43.33031,"lon":5.39045,"is_reserved":false,"is_disabled":false,"rental_uris":{"android":"levelo://app?vid=41866827-2f64-4cf7-8a6f-149d36745074","ios":"levelo://app?vid=41866827-2f64-4cf7-8a6f-149d36745074"},"vehicle_type_id":"4","last_reported":1730491816,"current_range_meters":28000,"station_id":"ce4bhr92rcd13ifvqhrg","pricing_plan_id":"cebpf4jnsgd1na2vs0mg"},{"bike_id":"42048d4f-3394-4b7d-9f23-8170efa9936e","system_id":"levelo_inurba_marseille","lat":43.29605,"lon":5.37705,"is_reserved":false,"is_disabled":false,"rental_uris":{"android":"levelo://app?vid=42048d4f-3394-4b7d-9f23-8170efa9936e","ios":"levelo://app?vid=42048d4f-3394-4b7d-9f23-8170efa9936e"},"vehicle_type_id":"4","last_reported":1730491816,"current_range_meters":36800,"station_id":"ce4bgi92rcd13ifvqb90","pricing_plan_id":"cebpf4jnsgd1na2vs0mg"},{"bike_id":"6c2c3cb0-1feb-40b9-ab27-36ab3e40beed","system_id":"levelo_inurba_marseille","lat":43.27431,"lon":5.3942,"is_reserved":false,"is_disabled":false,"rental_uris":{"android":"levelo://app?vid=6c2c3cb0-1feb-40b9-ab27-36ab3e40beed","ios":"levelo://app?vid=6c2c3cb0-1feb-40b9-ab27-36ab3e40beed"},"vehicle_type_id":"4","last_reported":1730491816,"current_range_meters":38800,"station_id":"ce4bhdp2rcd13ifvqf20","pricing_plan_id":"cebpf4jnsgd1na2vs0mg"},{"bike_id":"811f91a7-b491-4bd2-b61b-6549a4b39843","system_id":"levelo_inurba_marseille","lat":43.29423,"lon":5.38605,"is_reserved":false,"is_disabled":false,"rental_uris":{"android":"levelo://app?vid=811f91a7-b491-4bd2-b61b-6549a4b39843","ios":"levelo://app?vid=811f91a7-b491-4bd2-b61b-6549a4b39843"},"vehicle_type_id":"4","last_reported":1730491816,"current_range_meters":32400,"station_id":"ce4bh2h2rcd13ifvqdh0","pricing_plan_id":"cebpf4jnsgd1na2vs0mg"},{"bike_id":"4629119f-c821-4cfe-a343-a1bd2c202831","system_id":"levelo_inurba_marseille","lat":43.29307,"lon":5.37471,"is_reserved":false,"is_disabled":false,"rental_uris":{"android":"levelo://app?vid=4629119f-c821-4cfe-a343-a1bd2c202831","ios":"levelo://app?vid=4629119f-c821-4cfe-a343-a1bd2c202831"},"vehicle_type_id":"4","last_reported":1730491816,"current_range_meters":33200,"station_id":"ce4bgi12rcd13ifvqb70","pricing_plan_id":"cebpf4jnsgd1na2vs0mg"},{"bike_id":"df5442d7-72be-4e92-ac3b-0742cf530ba9","system_id":"levelo_inurba_marseille","lat":43.29171,"lon":5.37151,"is_reserved":false,"is_disabled":false,"rental_uris":{"android":"levelo://app?vid=df5442d7-72be-4e92-ac3b-0742cf530ba9","ios":"levelo://app?vid=df5442d7-72be-4e92-ac3b-0742cf530ba9"},"vehicle_type_id":"4","last_reported":1730491816,"current_range_meters":37600,"station_id":"ce4bha92rcd13ifvqeh0","pricing_plan_id":"cebpf4jnsgd1na2vs0mg"},{"bike_id":"7ed51d70-6074-4098-a6e9-e31bb18cf644","system_id":"levelo_inurba_marseille","lat":43.29422,"lon":5.38608,"is_reserved":false,"is_disabled":false,"rental_uris":{"android":"levelo://app?vid=7ed51d70-6074-4098-a6e9-e31bb18cf644","ios":"levelo://app?vid=7ed51d70-6074-4098-a6e9-e31bb18cf644"},"vehicle_type_id":"4","last_reported":1730491816,"current_range_meters":36400,"station_id":"ce4bh2h2rcd13ifvqdh0","pricing_plan_id":"cebpf4jnsgd1na2vs0mg"},{"bike_id":"ce7a9679-1309-4337-a277-05901a838b7d","system_id":"levelo_inurba_marseille","lat":43.2935,"lon":5.43428,"is_reserved":false,"is_disabled":false,"rental_uris":{"android":"levelo://app?vid=ce7a9679-1309-4337-a277-05901a838b7d","ios":"levelo://app?vid=ce7a9679-1309-4337-a277-05901a838b7d"},"vehicle_type_id":"4","last_reported":1730491816,"current_range_meters":15200,"station_id":"","pricing_plan_id":"cebpf4jnsgd1na2vs0mg"},{"bike_id":"5a0d6e70-4bf5-47da-89b9-94aaa8a6f1ad","system_id":"levelo_inurba_marseille","lat":43.28702,"lon":5.39978,"is_reserved":false,"is_disabled":false,"rental_uris":{"android":"levelo://app?vid=5a0d6e70-4bf5-47da-89b9-94aaa8a6f1ad","ios":"levelo://app?vid=5a0d6e70-4bf5-47da-89b9-94aaa8a6f1ad"},"vehicle_type_id":"4","last_reported":1730491816,"current_range_meters":30400,"station_id":"ce4bho92rcd13ifvqh3g","pricing_plan_id":"cebpf4jnsgd1na2vs0mg"},{"bike_id":"1f3aa093-7a7c-4f32-b11c-7457b3129365","system_id":"levelo_inurba_marseille","lat":43.29091,"lon":5.3812,"is_reserved":false,"is_disabled":false,"rental_uris":{"android":"levelo://app?vid=1f3aa093-7a7c-4f32-b11c-7457b3129365","ios":"levelo://app?vid=1f3aa093-7a7c-4f32-b11c-7457b3129365"},"vehicle_type_id":"4","last_reported":1730491816,"current_range_meters":8000,"station_id":"ce4bh512rcd13ifvqe2g","pricing_plan_id":"cebpf4jnsgd1na2vs0mg"},{"bike_id":"4f7284c8-d4ff-445f-a445-a7ce122e2dd7","system_id":"levelo_inurba_marseille","lat":43.30781,"lon":5.37651,"is_reserved":false,"is_disabled":false,"rental_uris":{"android":"levelo://app?vid=4f7284c8-d4ff-445f-a445-a7ce122e2dd7","ios":"levelo://app?vid=4f7284c8-d4ff-445f-a445-a7ce122e2dd7"},"vehicle_type_id":"4","last_reported":1730491816,"current_range_meters":39200,"station_id":"ce4bgv92rcd13ifvqcq0","pricing_plan_id":"cebpf4jnsgd1na2vs0mg"},{"bike_id":"78b2177b-882f-41be-b6b9-03266c0d960b","system_id":"levelo_inurba_marseille","lat":43.30189,"lon":5.36628,"is_reserved":false,"is_disabled":false,"rental_uris":{"android":"levelo://app?vid=78b2177b-882f-41be-b6b9-03266c0d960b","ios":"levelo://app?vid=78b2177b-882f-41be-b6b9-03266c0d960b"},"vehicle_type_id":"4","last_reported":1730491816,"current_range_meters":38800,"station_id":"ce4bgrh2rcd13ifvqc8g","pricing_plan_id":"cebpf4jnsgd1na2vs0mg"},{"bike_id":"3ae8841f-d1cc-4892-a751-8ec8126cd94b","system_id":"levelo_inurba_marseille","lat":43.29175,"lon":5.37149,"is_reserved":false,"is_disabled":false,"rental_uris":{"android":"levelo://app?vid=3ae8841f-d1cc-4892-a751-8ec8126cd94b","ios":"levelo://app?vid=3ae8841f-d1cc-4892-a751-8ec8126cd94b"},"vehicle_type_id":"4","last_reported":1730491816,"current_range_meters":8400,"station_id":"ce4bha92rcd13ifvqeh0","pricing_plan_id":"cebpf4jnsgd1na2vs0mg"},{"bike_id":"5ea16ae8-98fd-4bdd-a1fe-c289ea4444db","system_id":"levelo_inurba_marseille","lat":43.30212,"lon":5.39471,"is_reserved":false,"is_disabled":false,"rental_uris":{"android":"levelo://app?vid=5ea16ae8-98fd-4bdd-a1fe-c289ea4444db","ios":"levelo://app?vid=5ea16ae8-98fd-4bdd-a1fe-c289ea4444db"},"vehicle_type_id":"4","last_reported":1730491816,"current_range_meters":38800,"station_id":"ce4bh0p2rcd13ifvqd70","pricing_plan_id":"cebpf4jnsgd1na2vs0mg"},{"bike_id":"83fa3881-9e62-444a-963c-db2ecfe2eb1c","system_id":"levelo_inurba_marseille","lat":43.29943,"lon":5.40081,"is_reserved":false,"is_disabled":false,"rental_uris":{"android":"levelo://app?vid=83fa3881-9e62-444a-963c-db2ecfe2eb1c","ios":"levelo://app?vid=83fa3881-9e62-444a-963c-db2ecfe2eb1c"},"vehicle_type_id":"4","last_reported":1730491816,"current_range_meters":36400,"station_id":"ce4bh192rcd13ifvqdb0","pricing_plan_id":"cebpf4jnsgd1na2vs0mg"},{"bike_id":"d82aee6d-af35-4a22-9eb7-915822a73e7c","system_id":"levelo_inurba_marseille","lat":43.27438,"lon":5.39405,"is_reserved":false,"is_disabled":false,"rental_uris":{"android":"levelo://app?vid=d82aee6d-af35-4a22-9eb7-915822a73e7c","ios":"levelo://app?vid=d82aee6d-af35-4a22-9eb7-915822a73e7c"},"vehicle_type_id":"4","last_reported":1730491816,"current_range_meters":38800,"station_id":"ce4bhdp2rcd13ifvqf20","pricing_plan_id":"cebpf4jnsgd1na2vs0mg"},{"bike_id":"d50f606e-f4bc-464a-a19d-df1ef05eabaa","system_id":"levelo_inurba_marseille","lat":43.28924,"lon":5.38388,"is_reserved":false,"is_disabled":false,"rental_uris":{"android":"levelo://app?vid=d50f606e-f4bc-464a-a19d-df1ef05eabaa","ios":"levelo://app?vid=d50f606e-f4bc-464a-a19d-df1ef05eabaa"},"vehicle_type_id":"4","last_reported":1730491816,"current_range_meters":36800,"station_id":"ce4bh612rcd13ifvqe6g","pricing_plan_id":"cebpf4jnsgd1na2vs0mg"},{"bike_id":"89278f8d-dfe9-4ad6-a16f-d4bb717fd27f","system_id":"levelo_inurba_marseille","lat":43.29422,"lon":5.38628,"is_reserved":false,"is_disabled":false,"rental_uris":{"android":"levelo://app?vid=89278f8d-dfe9-4ad6-a16f-d4bb717fd27f","ios":"levelo://app?vid=89278f8d-dfe9-4ad6-a16f-d4bb717fd27f"},"vehicle_type_id":"4","last_reported":1730491816,"current_range_meters":24000,"station_id":"ce4bh2h2rcd13ifvqdh0","pricing_plan_id":"cebpf4jnsgd1na2vs0mg"},{"bike_id":"cda7c75e-7fdf-40be-8c05-6e2add1ab333","system_id":"levelo_inurba_marseille","lat":43.317064,"lon":5.377328,"is_reserved":false,"is_disabled":false,"rental_uris":{"android":"levelo://app?vid=cda7c75e-7fdf-40be-8c05-6e2add1ab333","ios":"levelo://app?vid=cda7c75e-7fdf-40be-8c05-6e2add1ab333"},"vehicle_type_id":"4","last_reported":1730491816,"current_range_meters":39200,"station_id":"ce4bgth2rcd13ifvqch0","pricing_plan_id":"cebpf4jnsgd1na2vs0mg"},{"bike_id":"7629c085-fcbc-430c-aeca-508e993d9ece","system_id":"levelo_inurba_marseille","lat":43.29541,"lon":5.38552,"is_reserved":false,"is_disabled":false,"rental_uris":{"android":"levelo://app?vid=7629c085-fcbc-430c-aeca-508e993d9ece","ios":"levelo://app?vid=7629c085-fcbc-430c-aeca-508e993d9ece"},"vehicle_type_id":"4","last_reported":1730491816,"current_range_meters":31200,"station_id":"ce4bgih2rcd13ifvqba0","pricing_plan_id":"cebpf4jnsgd1na2vs0mg"},{"bike_id":"d46d506c-45a5-42cc-8073-5ab1c52d4100","system_id":"levelo_inurba_marseille","lat":43.29008,"lon":5.35609,"is_reserved":false,"is_disabled":false,"rental_uris":{"android":"levelo://app?vid=d46d506c-45a5-42cc-8073-5ab1c52d4100","ios":"levelo://app?vid=d46d506c-45a5-42cc-8073-5ab1c52d4100"},"vehicle_type_id":"4","last_reported":1730491816,"current_range_meters":6800,"station_id":"ce4bhb92rcd13ifvqen0","pricing_plan_id":"cebpf4jnsgd1na2vs0mg"},{"bike_id":"aea44ede-f2aa-4413-b1bd-9de00b274b46","system_id":"levelo_inurba_marseille","lat":43.24998,"lon":5.38925,"is_reserved":false,"is_disabled":false,"rental_uris":{"android":"levelo://app?vid=aea44ede-f2aa-4413-b1bd-9de00b274b46","ios":"levelo://app?vid=aea44ede-f2aa-4413-b1bd-9de00b274b46"},"vehicle_type_id":"4","last_reported":1730491816,"current_range_meters":30400,"station_id":"ce4bhgp2rcd13ifvqfd0","pricing_plan_id":"cebpf4jnsgd1na2vs0mg"},{"bike_id":"5e485333-62fb-4da8-97a1-fa557b7ae588","system_id":"levelo_inurba_marseille","lat":43.290887,"lon":5.391175,"is_reserved":false,"is_disabled":false,"rental_uris":{"android":"levelo://app?vid=5e485333-62fb-4da8-97a1-fa557b7ae588","ios":"levelo://app?vid=5e485333-62fb-4da8-97a1-fa557b7ae588"},"vehicle_type_id":"4","last_reported":1730491816,"current_range_meters":28000,"station_id":"","pricing_plan_id":"cebpf4jnsgd1na2vs0mg"},{"bike_id":"48f311ea-c15c-4c36-b596-38b404fd4878","system_id":"levelo_inurba_marseille","lat":43.29595,"lon":5.380976,"is_reserved":false,"is_disabled":false,"rental_uris":{"android":"levelo://app?vid=48f311ea-c15c-4c36-b596-38b404fd4878","ios":"levelo://app?vid=48f311ea-c15c-4c36-b596-38b404fd4878"},"vehicle_type_id":"4","last_reported":1730491816,"current_range_meters":33600,"station_id":"ce4bgl12rcd13ifvqbo0","pricing_plan_id":"cebpf4jnsgd1na2vs0mg"},{"bike_id":"276b2d1e-7059-4e74-a7da-ce07ae31918a","system_id":"levelo_inurba_marseille","lat":43.25584,"lon":5.38241,"is_reserved":false,"is_disabled":false,"rental_uris":{"android":"levelo://app?vid=276b2d1e-7059-4e74-a7da-ce07ae31918a","ios":"levelo://app?vid=276b2d1e-7059-4e74-a7da-ce07ae31918a"},"vehicle_type_id":"4","last_reported":1730491816,"current_range_meters":26000,"station_id":"ce4bhih2rcd13ifvqfs0","pricing_plan_id":"cebpf4jnsgd1na2vs0mg"},{"bike_id":"ef0d2e3f-fc7e-467f-9ee7-fc601aafe09a","system_id":"levelo_inurba_marseille","lat":43.30942,"lon":5.4028,"is_reserved":false,"is_disabled":false,"rental_uris":{"android":"levelo://app?vid=ef0d2e3f-fc7e-467f-9ee7-fc601aafe09a","ios":"levelo://app?vid=ef0d2e3f-fc7e-467f-9ee7-fc601aafe09a"},"vehicle_type_id":"4","last_reported":1730491816,"current_range_meters":16800,"station_id":"","pricing_plan_id":"cebpf4jnsgd1na2vs0mg"},{"bike_id":"fcb96d8f-6854-4fbb-a255-1177695f3474","system_id":"levelo_inurba_marseille","lat":43.29212,"lon":5.39334,"is_reserved":false,"is_disabled":false,"rental_uris":{"android":"levelo://app?vid=fcb96d8f-6854-4fbb-a255-1177695f3474","ios":"levelo://app?vid=fcb96d8f-6854-4fbb-a255-1177695f3474"},"vehicle_type_id":"4","last_reported":1730491816,"current_range_meters":8800,"station_id":"ce4bh192rcd13ifvqdd0","pricing_plan_id":"cebpf4jnsgd1na2vs0mg"},{"bike_id":"41d47d69-979b-4480-8fb6-135de4b1e8ff","system_id":"levelo_inurba_marseille","lat":43.2572,"lon":5.41112,"is_reserved":false,"is_disabled":false,"rental_uris":{"android":"levelo://app?vid=41d47d69-979b-4480-8fb6-135de4b1e8ff","ios":"levelo://app?vid=41d47d69-979b-4480-8fb6-135de4b1e8ff"},"vehicle_type_id":"4","last_reported":1730491816,"current_range_meters":39200,"station_id":"ce4bhkp2rcd13ifvqgd0","pricing_plan_id":"cebpf4jnsgd1na2vs0mg"},{"bike_id":"2d657bac-10d6-4bef-9967-ecfb0e9eb5e6","system_id":"levelo_inurba_marseille","lat":43.26035,"lon":5.37578,"is_reserved":false,"is_disabled":false,"rental_uris":{"android":"levelo://app?vid=2d657bac-10d6-4bef-9967-ecfb0e9eb5e6","ios":"levelo://app?vid=2d657bac-10d6-4bef-9967-ecfb0e9eb5e6"},"vehicle_type_id":"4","last_reported":1730491816,"current_range_meters":30800,"station_id":"ce4bhh12rcd13ifvqff0","pricing_plan_id":"cebpf4jnsgd1na2vs0mg"},{"bike_id":"066435ff-957d-4c00-bee6-d0afc37d866a","system_id":"levelo_inurba_marseille","lat":43.29673,"lon":5.37272,"is_reserved":false,"is_disabled":false,"rental_uris":{"android":"levelo://app?vid=066435ff-957d-4c00-bee6-d0afc37d866a","ios":"levelo://app?vid=066435ff-957d-4c00-bee6-d0afc37d866a"},"vehicle_type_id":"4","last_reported":1730491816,"current_range_meters":13600,"station_id":"ce4bgk12rcd13ifvqbj0","pricing_plan_id":"cebpf4jnsgd1na2vs0mg"},{"bike_id":"93aea321-c052-49e2-b5c1-0b584459c0e5","system_id":"levelo_inurba_marseille","lat":43.29901,"lon":5.38139,"is_reserved":false,"is_disabled":false,"rental_uris":{"android":"levelo://app?vid=93aea321-c052-49e2-b5c1-0b584459c0e5","ios":"levelo://app?vid=93aea321-c052-49e2-b5c1-0b584459c0e5"},"vehicle_type_id":"4","last_reported":1730491816,"current_range_meters":34800,"station_id":"ce4bgj12rcd13ifvqbc0","pricing_plan_id":"cebpf4jnsgd1na2vs0mg"},{"bike_id":"f68b3ed3-30da-4022-9721-0a70833c562e","system_id":"levelo_inurba_marseille","lat":43.2926,"lon":5.38433,"is_reserved":false,"is_disabled":false,"rental_uris":{"android":"levelo://app?vid=f68b3ed3-30da-4022-9721-0a70833c562e","ios":"levelo://app?vid=f68b3ed3-30da-4022-9721-0a70833c562e"},"vehicle_type_id":"4","last_reported":1730491816,"current_range_meters":38800,"station_id":"ce4bh692rcd13ifvqea0","pricing_plan_id":"cebpf4jnsgd1na2vs0mg"},{"bike_id":"58051f0e-7f43-4bf7-a32f-78bebfddf494","system_id":"levelo_inurba_marseille","lat":43.30244,"lon":5.4002,"is_reserved":false,"is_disabled":false,"rental_uris":{"android":"levelo://app?vid=58051f0e-7f43-4bf7-a32f-78bebfddf494","ios":"levelo://app?vid=58051f0e-7f43-4bf7-a32f-78bebfddf494"},"vehicle_type_id":"4","last_reported":1730491816,"current_range_meters":9200,"station_id":"ce4bgvh2rcd13ifvqcs0","pricing_plan_id":"cebpf4jnsgd1na2vs0mg"},{"bike_id":"1f1632d0-3b04-45d9-9e18-35c41e08aec0","system_id":"levelo_inurba_marseille","lat":43.29251,"lon":5.38427,"is_reserved":false,"is_disabled":false,"rental_uris":{"android":"levelo://app?vid=1f1632d0-3b04-45d9-9e18-35c41e08aec0","ios":"levelo://app?vid=1f1632d0-3b04-45d9-9e18-35c41e08aec0"},"vehicle_type_id":"4","last_reported":1730491816,"current_range_meters":9600,"station_id":"ce4bh692rcd13ifvqea0","pricing_plan_id":"cebpf4jnsgd1na2vs0mg"},{"bike_id":"2565876a-0761-4ba5-8c32-fe57beb03d94","system_id":"levelo_inurba_marseille","lat":43.30354,"lon":5.41877,"is_reserved":false,"is_disabled":false,"rental_uris":{"android":"levelo://app?vid=2565876a-0761-4ba5-8c32-fe57beb03d94","ios":"levelo://app?vid=2565876a-0761-4ba5-8c32-fe57beb03d94"},"vehicle_type_id":"4","last_reported":1730491816,"current_range_meters":38800,"station_id":"ce4bhop2rcd13ifvqh7g","pricing_plan_id":"cebpf4jnsgd1na2vs0mg"},{"bike_id":"20735d6c-f64d-4804-9c0a-97ab0e63b259","system_id":"levelo_inurba_marseille","lat":43.295378,"lon":5.374914,"is_reserved":false,"is_disabled":false,"rental_uris":{"android":"levelo://app?vid=20735d6c-f64d-4804-9c0a-97ab0e63b259","ios":"levelo://app?vid=20735d6c-f64d-4804-9c0a-97ab0e63b259"},"vehicle_type_id":"4","last_reported":1730491816,"current_range_meters":26000,"station_id":"ce4bgkp2rcd13ifvqbmg","pricing_plan_id":"cebpf4jnsgd1na2vs0mg"},{"bike_id":"bf4d3e05-778d-43c7-a6f9-36a204e68783","system_id":"levelo_inurba_marseille","lat":43.29422,"lon":5.38609,"is_reserved":false,"is_disabled":false,"rental_uris":{"android":"levelo://app?vid=bf4d3e05-778d-43c7-a6f9-36a204e68783","ios":"levelo://app?vid=bf4d3e05-778d-43c7-a6f9-36a204e68783"},"vehicle_type_id":"4","last_reported":1730491816,"current_range_meters":38800,"station_id":"ce4bh2h2rcd13ifvqdh0","pricing_plan_id":"cebpf4jnsgd1na2vs0mg"},{"bike_id":"2e679aa2-6222-4666-94d2-8febbbac34cf","system_id":"levelo_inurba_marseille","lat":43.28958,"lon":5.4809,"is_reserved":false,"is_disabled":false,"rental_uris":{"android":"levelo://app?vid=2e679aa2-6222-4666-94d2-8febbbac34cf","ios":"levelo://app?vid=2e679aa2-6222-4666-94d2-8febbbac34cf"},"vehicle_type_id":"4","last_reported":1730491816,"current_range_meters":5600,"station_id":"","pricing_plan_id":"cebpf4jnsgd1na2vs0mg"},{"bike_id":"b6ce1429-4569-431e-9f22-e660b1f6be5a","system_id":"levelo_inurba_marseille","lat":43.269481,"lon":5.402897,"is_reserved":false,"is_disabled":false,"rental_uris":{"android":"levelo://app?vid=b6ce1429-4569-431e-9f22-e660b1f6be5a","ios":"levelo://app?vid=b6ce1429-4569-431e-9f22-e660b1f6be5a"},"vehicle_type_id":"4","last_reported":1730491816,"current_range_meters":38800,"station_id":"cjm6bp8fraef2m0cb0m0","pricing_plan_id":"cebpf4jnsgd1na2vs0mg"},{"bike_id":"824d79de-37c9-48a6-8501-ab22ab90c310","system_id":"levelo_inurba_marseille","lat":43.28666,"lon":5.38664,"is_reserved":false,"is_disabled":false,"rental_uris":{"android":"levelo://app?vid=824d79de-37c9-48a6-8501-ab22ab90c310","ios":"levelo://app?vid=824d79de-37c9-48a6-8501-ab22ab90c310"},"vehicle_type_id":"4","last_reported":1730491816,"current_range_meters":38400,"station_id":"ce4bh492rcd13ifvqdug","pricing_plan_id":"cebpf4jnsgd1na2vs0mg"},{"bike_id":"0858818c-fe66-42d8-b29b-68f7bc977d07","system_id":"levelo_inurba_marseille","lat":43.29261,"lon":5.38438,"is_reserved":false,"is_disabled":false,"rental_uris":{"android":"levelo://app?vid=0858818c-fe66-42d8-b29b-68f7bc977d07","ios":"levelo://app?vid=0858818c-fe66-42d8-b29b-68f7bc977d07"},"vehicle_type_id":"4","last_reported":1730491816,"current_range_meters":18000,"station_id":"ce4bh692rcd13ifvqea0","pricing_plan_id":"cebpf4jnsgd1na2vs0mg"},{"bike_id":"e4674f21-78c1-4f15-8fe6-dab5f3bfd6c4","system_id":"levelo_inurba_marseille","lat":43.25863,"lon":5.39898,"is_reserved":false,"is_disabled":false,"rental_uris":{"android":"levelo://app?vid=e4674f21-78c1-4f15-8fe6-dab5f3bfd6c4","ios":"levelo://app?vid=e4674f21-78c1-4f15-8fe6-dab5f3bfd6c4"},"vehicle_type_id":"4","last_reported":1730491816,"current_range_meters":36800,"station_id":"ce4bhl92rcd13ifvqghg","pricing_plan_id":"cebpf4jnsgd1na2vs0mg"},{"bike_id":"5e009c35-9d88-4f66-bd94-1eb3233a1fac","system_id":"levelo_inurba_marseille","lat":43.29533,"lon":5.38543,"is_reserved":false,"is_disabled":false,"rental_uris":{"android":"levelo://app?vid=5e009c35-9d88-4f66-bd94-1eb3233a1fac","ios":"levelo://app?vid=5e009c35-9d88-4f66-bd94-1eb3233a1fac"},"vehicle_type_id":"4","last_reported":1730491816,"current_range_meters":27600,"station_id":"ce4bgih2rcd13ifvqba0","pricing_plan_id":"cebpf4jnsgd1na2vs0mg"},