{"last_updated":1685160443,"ttl":30,"version":"2.2","data":{"bikes":[{"bike_id":"cfb4c45f-7230-4803-997a-4a7b85227bcb","system_id":"levelo_inurba_marseille","lat":43.31341,"lon":5.367098,"is_reserved":false,"is_disabled":false,"rental_uris":{"android":"levelo://app?vid=cfb4c45f-7230-4803-997a-4a7b85227bcb","ios":"levelo://app?vid=cfb4c45f-7230-4803-997a-4a7b85227bcb"},"vehicle_type_id":"4","last_reported":1685160444,"current_range_meters":26400,"station_id":"ce4bgr92rcd13ifvqc6g","pricing_plan_id":"free"},{"bike_id":"0a126e65-6468-4c5e-89b7-0a0c5b6bb237","system_id":"levelo_inurba_marseille","lat":43.31341,"lon":5.367098,"is_reserved":false,"is_disabled":false,"rental_uris":{"android":"levelo://app?vid=0a126e65-6468-4c5e-89b7-0a0c5b6bb237","ios":"levelo://app?vid=0a126e65-6468-4c5e-89b7-0a0c5b6bb237"},"vehicle_type_id":"4","last_reported":1685160444,"current_range_meters":29600,"station_id":"ce4bgr92rcd13ifvqc6g","pricing_plan_id":"free"},{"bike_id":"7e9bc15b-21ed-413a-9873-0a19b3f37aae","system_id":"levelo_inurba_marseille","lat":43.312239,"lon":5.368562,"is_reserved":false,"is_disabled":false,"rental_uris":{"android":"levelo://app?vid=7e9bc15b-21ed-413a-9873-0a19b3f37aae","ios":"levelo://app?vid=7e9bc15b-21ed-413a-9873-0a19b3f37aae"},"vehicle_type_id":"4","last_reported":1685160444,"current_range_meters":23200,"station_id":"ce4bgl92rcd13ifvqbq0","pricing_plan_id":"free"},{"bike_id":"b345635f-57a4-4d2a-bca6-fc1a6d219356","system_id":"levelo_inurba_marseille","lat":43.312239,"lon":5.368562,"is_reserved":false,"is_disabled":false,"rental_uris":{"android":"levelo://app?vid=b345635f-57a4-4d2a-bca6-fc1a6d219356","ios":"levelo://app?vid=b345635f-57a4-4d2a-bca6-fc1a6d219356"},"vehicle_type_id":"4","last_reported":1685160444,"current_range_meters":31200,"station_id":"ce4bgl92rcd13ifvqbq0","pricing_plan_id":"free"},{"bike_id":"209c69f0-e92d-4398-899a-0fefc2ad001d","system_id":"levelo_inurba_marseille","lat":43.314811,"lon":5.373103,"is_reserved":false,"is_disabled":false,"rental_uris":{"android":"levelo://app?vid=209c69f0-e92d-4398-899a-0fefc2ad001d","ios":"levelo://app?vid=209c69f0-e92d-4398-899a-0fefc2ad001d"},"vehicle_type_id":"4","last_reported":1685160444,"current_range_meters":17200,"station_id":"ce4bgt12rcd13ifvqcd0","pricing_plan_id":"free"},{"bike_id":"f6fc06d0-76d8-46a4-909c-fd3f8aa36899","system_id":"levelo_inurba_marseille","lat":43.314811,"lon":5.373103,"is_reserved":false,"is_disabled":false,"rental_uris":{"android":"levelo://app?vid=f6fc06d0-76d8-46a4-909c-fd3f8aa36899","ios":"levelo://app?vid=f6fc06d0-76d8-46a4-909c-fd3f8aa36899"},"vehicle_type_id":"4","last_reported":1685160444,"current_range_meters":30800,"station_id":"ce4bgt12rcd13ifvqcd0","pricing_plan_id":"free"},{"bike_id":"073c43fc-4df7-407c-baac-d473b8e95a4f","system_id":"levelo_inurba_marseille","lat":43.314811,"lon":5.373103,"is_reserved":false,"is_disabled":false,"rental_uris":{"android":"levelo://app?vid=073c43fc-4df7-407c-baac-d473b8e95a4f","ios":"levelo://app?vid=073c43fc-4df7-407c-baac-d473b8e95a4f"},"vehicle_type_id":"4","last_reported":1685160444,"current_range_meters":29600,"station_id":"ce4bgt12rcd13ifvqcd0","pricing_plan_id":"free"},{"bike_id":"931d84d1-79f0-4389-9ce3-97a2d5a0e9e2","system_id":"levelo_inurba_marseille","lat":43.308614,"lon":5.372098,"is_reserved":false,"is_disabled":false,"rental_uris":{"android":"levelo://app?vid=931d84d1-79f0-4389-9ce3-97a2d5a0e9e2","ios":"levelo://app?vid=931d84d1-79f0-4389-9ce3-97a2d5a0e9e2"},"vehicle_type_id":"4","last_reported":1685160444,"current_range_meters":2800,"station_id":"ce4bguh2rcd13ifvqckg","pricing_plan_id":"free"},{"bike_id":"1c2de123-dcec-464d-97ba-bfd2d9dd076b","system_id":"levelo_inurba_marseille","lat":43.308614,"lon":5.372098,"is_reserved":false,"is_disabled":false,"rental_uris":{"android":"levelo://app?vid=1c2de123-dcec-464d-97ba-bfd2d9dd076b","ios":"levelo://app?vid=1c2de123-dcec-464d-97ba-bfd2d9dd076b"},"vehicle_type_id":"4","last_reported":1685160444,"current_range_meters":0,"station_id":"ce4bguh2rcd13ifvqckg","pricing_plan_id":"free"},{"bike_id":"26d86bba-d59a-49c0-9973-30ea71f50853","system_id":"levelo_inurba_marseille","lat":43.308614,"lon":5.372098,"is_reserved":false,"is_disabled":false,"rental_uris":{"android":"levelo://app?vid=26d86bba-d59a-49c0-9973-30ea71f50853","ios":"levelo://app?vid=26d86bba-d59a-49c0-9973-30ea71f50853"},"vehicle_type_id":"4","last_reported":1685160444,"current_range_meters":10000,"station_id":"ce4bguh2rcd13ifvqckg","pricing_plan_id":"free"},{"bike_id":"b1f1fd97-79c1-4866-bafa-b76f01e04d0a","system_id":"levelo_inurba_marseille","lat":43.308614,"lon":5.372098,"is_reserved":false,"is_disabled":false,"rental_uris":{"android":"levelo://app?vid=b1f1fd97-79c1-4866-bafa-b76f01e04d0a","ios":"levelo://app?vid=b1f1fd97-79c1-4866-bafa-b76f01e04d0a"},"vehicle_type_id":"4","last_reported":1685160444,"current_range_meters":21200,"station_id":"ce4bguh2rcd13ifvqckg","pricing_plan_id":"free"},{"bike_id":"1587c926-1973-4463-a189-7cb7bf119def","system_id":"levelo_inurba_marseille","lat":43.30545,"lon":5.36714,"is_reserved":false,"is_disabled":false,"rental_uris":{"android":"levelo://app?vid=1587c926-1973-4463-a189-7cb7bf119def","ios":"levelo://app?vid=1587c926-1973-4463-a189-7cb7bf119def"},"vehicle_type_id":"4","last_reported":1685160444,"current_range_meters":0,"station_id":"ce4bgrp2rcd13ifvqc9g","pricing_plan_id":"free"},{"bike_id":"5921b083-e155-411c-bed6-98f631b3efdd","system_id":"levelo_inurba_marseille","lat":43.305989,"lon":5.37225,"is_reserved":false,"is_disabled":false,"rental_uris":{"android":"levelo://app?vid=5921b083-e155-411c-bed6-98f631b3efdd","ios":"levelo://app?vid=5921b083-e155-411c-bed6-98f631b3efdd"},"vehicle_type_id":"4","last_reported":1685160444,"current_range_meters":30000,"station_id":"ce4bgqh2rcd13ifvqc4g","pricing_plan_id":"free"},{"bike_id":"a071ff1d-c471-4592-91e0-07470d9e503d","system_id":"levelo_inurba_marseille","lat":43.31115,"lon":5.37763,"is_reserved":false,"is_disabled":false,"rental_uris":{"android":"levelo://app?vid=a071ff1d-c471-4592-91e0-07470d9e503d","ios":"levelo://app?vid=a071ff1d-c471-4592-91e0-07470d9e503d"},"vehicle_type_id":"4","last_reported":1685160444,"current_range_meters":4000,"station_id":"ce4bgt92rcd13ifvqcg0","pricing_plan_id":"free"},{"bike_id":"788de9eb-f4cb-4110-987b-cfe690f1663a","system_id":"levelo_inurba_marseille","lat":43.31117,"lon":5.37773,"is_reserved":false,"is_disabled":false,"rental_uris":{"android":"levelo://app?vid=788de9eb-f4cb-4110-987b-cfe690f1663a","ios":"levelo://app?vid=788de9eb-f4cb-4110-987b-cfe690f1663a"},"vehicle_type_id":"4","last_reported":1685160444,"current_range_meters":6000,"station_id":"ce4bgt92rcd13ifvqcg0","pricing_plan_id":"free"},{"bike_id":"225d8a01-bc78-4e23-af85-dbe6f04179a1","system_id":"levelo_inurba_marseille","lat":43.3111,"lon":5.37773,"is_reserved":false,"is_disabled":false,"rental_uris":{"android":"levelo://app?vid=225d8a01-bc78-4e23-af85-dbe6f04179a1","ios":"levelo://app?vid=225d8a01-bc78-4e23-af85-dbe6f04179a1"},"vehicle_type_id":"4","last_reported":1685160444,"current_range_meters":28400,"station_id":"ce4bgt92rcd13ifvqcg0","pricing_plan_id":"free"},{"bike_id":"f47b8c93-abbd-42bc-9979-f8f6f8e17204","system_id":"levelo_inurba_marseille","lat":43.31711,"lon":5.37733,"is_reserved":false,"is_disabled":false,"rental_uris":{"android":"levelo://app?vid=f47b8c93-abbd-42bc-9979-f8f6f8e17204","ios":"levelo://app?vid=f47b8c93-abbd-42bc-9979-f8f6f8e17204"},"vehicle_type_id":"4","last_reported":1685160444,"current_range_meters":9600,"station_id":"ce4bgth2rcd13ifvqch0","pricing_plan_id":"free"},{"bike_id":"c0b0d062-8275-40cf-8874-7d9d55ab7e88","system_id":"levelo_inurba_marseille","lat":43.31713,"lon":5.37832,"is_reserved":false,"is_disabled":false,"rental_uris":{"android":"levelo://app?vid=c0b0d062-8275-40cf-8874-7d9d55ab7e88","ios":"levelo://app?vid=c0b0d062-8275-40cf-8874-7d9d55ab7e88"},"vehicle_type_id":"4","last_reported":1685160444,"current_range_meters":22400,"station_id":"","pricing_plan_id":"free"},{"bike_id":"871ed027-16f2-46ef-b6e2-047b2e70397b","system_id":"levelo_inurba_marseille","lat":43.315293,"lon":5.380349,"is_reserved":false,"is_disabled":false,"rental_uris":{"android":"levelo://app?vid=871ed027-16f2-46ef-b6e2-047b2e70397b","ios":"levelo://app?vid=871ed027-16f2-46ef-b6e2-047b2e70397b"},"vehicle_type_id":"4","last_reported":1685160444,"current_range_meters":18400,"station_id":"ce4bhsp2rcd13ifvqi50","pricing_plan_id":"free"},{"bike_id":"5c6d3410-9c43-4d50-bb24-06969f52b17c","system_id":"levelo_inurba_marseille","lat":43.315289,"lon":5.380349,"is_reserved":false,"is_disabled":false,"rental_uris":{"android":"levelo://app?vid=5c6d3410-9c43-4d50-bb24-06969f52b17c","ios":"levelo://app?vid=5c6d3410-9c43-4d50-bb24-06969f52b17c"},"vehicle_type_id":"4","last_reported":1685160444,"current_range_meters":27200,"station_id":"ce4bhsp2rcd13ifvqi50","pricing_plan_id":"free"},{"bike_id":"6eb736d2-e79e-4202-bafb-1e5dbfa8549f","system_id":"levelo_inurba_marseille","lat":43.308012,"lon":5.381511,"is_reserved":false,"is_disabled":false,"rental_uris":{"android":"levelo://app?vid=6eb736d2-e79e-4202-bafb-1e5dbfa8549f","ios":"levelo://app?vid=6eb736d2-e79e-4202-bafb-1e5dbfa8549f"},"vehicle_type_id":"4","last_reported":1685160444,"current_range_meters":0,"station_id":"ce4bgt12rcd13ifvqce0","pricing_plan_id":"free"},{"bike_id":"908283cb-91d6-42a6-b242-ca753b633b00","system_id":"levelo_inurba_marseille","lat":43.308012,"lon":5.381511,"is_reserved":false,"is_disabled":false,"rental_uris":{"android":"levelo://app?vid=908283cb-91d6-42a6-b242-ca753b633b00","ios":"levelo://app?vid=908283cb-91d6-42a6-b242-ca753b633b00"},"vehicle_type_id":"4","last_reported":1685160444,"current_range_meters":14000,"station_id":"ce4bgt12rcd13ifvqce0","pricing_plan_id":"free"},{"bike_id":"be40ac48-858a-4da4-a87d-5d3d0c6f70f4","system_id":"levelo_inurba_marseille","lat":43.308012,"lon":5.381511,"is_reserved":false,"is_disabled":false,"rental_uris":{"android":"levelo://app?vid=be40ac48-858a-4da4-a87d-5d3d0c6f70f4","ios":"levelo://app?vid=be40ac48-858a-4da4-a87d-5d3d0c6f70f4"},"vehicle_type_id":"4","last_reported":1685160444,"current_range_meters":21200,"station_id":"ce4bgt12rcd13ifvqce0","pricing_plan_id":"free"},{"bike_id":"9f6de354-6c9d-4f1b-a2df-088646142b2d","system_id":"levelo_inurba_marseille","lat":43.30464,"lon":5.37901,"is_reserved":false,"is_disabled":false,"rental_uris":{"android":"levelo://app?vid=9f6de354-6c9d-4f1b-a2df-088646142b2d","ios":"levelo://app?vid=9f6de354-6c9d-4f1b-a2df-088646142b2d"},"vehicle_type_id":"4","last_reported":1685160444,"current_range_meters":0,"station_id":"ce4bgup2rcd13ifvqcn0","pricing_plan_id":"free"},{"bike_id":"29da8be4-a037-4e0e-a27d-9856864e4ddf","system_id":"levelo_inurba_marseille","lat":43.304606,"lon":5.379026,"is_reserved":false,"is_disabled":false,"rental_uris":{"android":"levelo://app?vid=29da8be4-a037-4e0e-a27d-9856864e4ddf","ios":"levelo://app?vid=29da8be4-a037-4e0e-a27d-9856864e4ddf"},"vehicle_type_id":"4","last_reported":1685160444,"current_range_meters":16800,"station_id":"ce4bgup2rcd13ifvqcn0","pricing_plan_id":"free"},{"bike_id":"038ba766-5bb0-4d00-8c20-54c42b2fe9ad","system_id":"levelo_inurba_marseille","lat":43.304606,"lon":5.379026,"is_reserved":false,"is_disabled":false,"rental_uris":{"android":"levelo://app?vid=038ba766-5bb0-4d00-8c20-54c42b2fe9ad","ios":"levelo://app?vid=038ba766-5bb0-4d00-8c20-54c42b2fe9ad"},"vehicle_type_id":"4","last_reported":1685160444,"current_range_meters":23600,"station_id":"ce4bgup2rcd13ifvqcn0","pricing_plan_id":"free"},{"bike_id":"527259da-9fc5-4792-bc89-a672cf60dd74","system_id":"levelo_inurba_marseille","lat":43.304606,"lon":5.379026,"is_reserved":false,"is_disabled":false,"rental_uris":{"android":"levelo://app?vid=527259da-9fc5-4792-bc89-a672cf60dd74","ios":"levelo://app?vid=527259da-9fc5-4792-bc89-a672cf60dd74"},"vehicle_type_id":"4","last_reported":1685160444,"current_range_meters":28000,"station_id":"ce4bgup2rcd13ifvqcn0","pricing_plan_id":"free"},{"bike_id":"e5571f58-adb6-49b7-8c86-2d757ae8e1a0","system_id":"levelo_inurba_marseille","lat":43.31991,"lon":5.3815,"is_reserved":false,"is_disabled":false,"rental_uris":{"android":"levelo://app?vid=e5571f58-adb6-49b7-8c86-2d757ae8e1a0","ios":"levelo://app?vid=e5571f58-adb6-49b7-8c86-2d757ae8e1a0"},"vehicle_type_id":"4","last_reported":1685160444,"current_range_meters":15600,"station_id":"ce4bhr12rcd13ifvqhpg","pricing_plan_id":"free"},{"bike_id":"15085faf-94d1-454c-8de1-c9482918e24b","system_id":"levelo_inurba_marseille","lat":43.3199,"lon":5.38153,"is_reserved":false,"is_disabled":false,"rental_uris":{"android":"levelo://app?vid=15085faf-94d1-454c-8de1-c9482918e24b","ios":"levelo://app?vid=15085faf-94d1-454c-8de1-c9482918e24b"},"vehicle_type_id":"4","last_reported":1685160444,"current_range_meters":6000,"station_id":"ce4bhr12rcd13ifvqhpg","pricing_plan_id":"free"},{"bike_id":"5f66b5c8-c13e-4e6a-af73-99f8edb1fe4e","system_id":"levelo_inurba_marseille","lat":43.31991,"lon":5.38155,"is_reserved":false,"is_disabled":false,"rental_uris":{"android":"levelo://app?vid=5f66b5c8-c13e-4e6a-af73-99f8edb1fe4e","ios":"levelo://app?vid=5f66b5c8-c13e-4e6a-af73-99f8edb1fe4e"},"vehicle_type_id":"4","last_reported":1685160444,"current_range_meters":18400,"station_id":"ce4bhr12rcd13ifvqhpg","pricing_plan_id":"free"},{"bike_id":"46349676-80ed-44a7-9bea-3a55a4175303","system_id":"levelo_inurba_marseille","lat":43.31997,"lon":5.3815,"is_reserved":false,"is_disabled":false,"rental_uris":{"android":"levelo://app?vid=46349676-80ed-44a7-9bea-3a55a4175303","ios":"levelo://app?vid=46349676-80ed-44a7-9bea-3a55a4175303"},"vehicle_type_id":"4","last_reported":1685160444,"current_range_meters":7600,"station_id":"ce4bhr12rcd13ifvqhpg","pricing_plan_id":"free"},{"bike_id":"edc96815-b3ab-4c58-b65b-672be6b50dea","system_id":"levelo_inurba_marseille","lat":43.3137,"lon":5.38522,"is_reserved":false,"is_disabled":false,"rental_uris":{"android":"levelo://app?vid=edc96815-b3ab-4c58-b65b-672be6b50dea","ios":"levelo://app?vid=edc96815-b3ab-4c58-b65b-672be6b50dea"},"vehicle_type_id":"4","last_reported":1685160444,"current_range_meters":20800,"station_id":"","pricing_plan_id":"free"},{"bike_id":"e5d8d997-87e0-44b8-b6df-cc74b70787d7","system_id":"levelo_inurba_marseille","lat":43.299222,"lon":5.365554,"is_reserved":false,"is_disabled":false,"rental_uris":{"android":"levelo://app?vid=e5d8d997-87e0-44b8-b6df-cc74b70787d7","ios":"levelo://app?vid=e5d8d997-87e0-44b8-b6df-cc74b70787d7"},"vehicle_type_id":"4","last_reported":1685160444,"current_range_meters":8800,"station_id":"ce4bgm92rcd13ifvqbr0","pricing_plan_id":"free"},{"bike_id":"83c42fe1-d21d-4978-9fd5-d3769dbd4479","system_id":"levelo_inurba_marseille","lat":43.311722,"lon":5.387247,"is_reserved":false,"is_disabled":false,"rental_uris":{"android":"levelo://app?vid=83c42fe1-d21d-4978-9fd5-d3769dbd4479","ios":"levelo://app?vid=83c42fe1-d21d-4978-9fd5-d3769dbd4479"},"vehicle_type_id":"4","last_reported":1685160444,"current_range_meters":27600,"station_id":"ce4bgv12rcd13ifvqcp0","pricing_plan_id":"free"},{"bike_id":"4ded0168-7122-4264-82ce-403728a786ee","system_id":"levelo_inurba_marseille","lat":43.29825,"lon":5.36304,"is_reserved":false,"is_disabled":false,"rental_uris":{"android":"levelo://app?vid=4ded0168-7122-4264-82ce-403728a786ee","ios":"levelo://app?vid=4ded0168-7122-4264-82ce-403728a786ee"},"vehicle_type_id":"4","last_reported":1685160444,"current_range_meters":0,"station_id":"","pricing_plan_id":"free"},{"bike_id":"54716154-8db0-4266-ab8e-a58a594b5020","system_id":"levelo_inurba_marseille","lat":43.29813,"lon":5.3709,"is_reserved":false,"is_disabled":false,"rental_uris":{"android":"levelo://app?vid=54716154-8db0-4266-ab8e-a58a594b5020","ios":"levelo://app?vid=54716154-8db0-4266-ab8e-a58a594b5020"},"vehicle_type_id":"4","last_reported":1685160444,"current_range_meters":0,"station_id":"","pricing_plan_id":"free"},{"bike_id":"debf5365-94ba-46d7-a1c6-a7d5ad9cddb3","system_id":"levelo_inurba_marseille","lat":43.328371,"lon":5.366909,"is_reserved":false,"is_disabled":false,"rental_uris":{"android":"levelo://app?vid=debf5365-94ba-46d7-a1c6-a7d5ad9cddb3","ios":"levelo://app?vid=debf5365-94ba-46d7-a1c6-a7d5ad9cddb3"},"vehicle_type_id":"4","last_reported":1685160444,"current_range_meters":0,"station_id":"ce4bhs92rcd13ifvqi0g","pricing_plan_id":"free"},{"bike_id":"6aadd20f-ee22-42f7-9c69-f3066c5dfcf1","system_id":"levelo_inurba_marseille","lat":43.328371,"lon":5.366909,"is_reserved":false,"is_disabled":false,"rental_uris":{"android":"levelo://app?vid=6aadd20f-ee22-42f7-9c69-f3066c5dfcf1","ios":"levelo://app?vid=6aadd20f-ee22-42f7-9c69-f3066c5dfcf1"},"vehicle_type_id":"4","last_reported":1685160444,"current_range_meters":17200,"station_id":"ce4bhs92rcd13ifvqi0g","pricing_plan_id":"free"},{"bike_id":"15bdd509-ac6b-486d-a3af-74b1c552f2cb","system_id":"levelo_inurba_marseille","lat":43.32833,"lon":5.36689,"is_reserved":false,"is_disabled":false,"rental_uris":{"android":"levelo://app?vid=15bdd509-ac6b-486d-a3af-74b1c552f2cb","ios":"levelo://app?vid=15bdd509-ac6b-486d-a3af-74b1c552f2cb"},"vehicle_type_id":"4","last_reported":1685160444,"current_range_meters":13200,"station_id":"ce4bhs92rcd13ifvqi0g","pricing_plan_id":"free"},{"bike_id":"5b41336e-8cda-4032-8da8-494d6692ef1d","system_id":"levelo_inurba_marseille","lat":43.299028,"lon":5.381509,"is_reserved":false,"is_disabled":false,"rental_uris":{"android":"levelo://app?vid=5b41336e-8cda-4032-8da8-494d6692ef1d","ios":"levelo://app?vid=5b41336e-8cda-4032-8da8-494d6692ef1d"},"vehicle_type_id":"4","last_reported":1685160444,"current_range_meters":12800,"station_id":"ce4bgj12rcd13ifvqbc0","pricing_plan_id":"free"},{"bike_id":"b760dc60-6d37-49c7-8dde-1a371397cdb8","system_id":"levelo_inurba_marseille","lat":43.317557,"lon":5.390173,"is_reserved":false,"is_disabled":false,"rental_uris":{"android":"levelo://app?vid=b760dc60-6d37-49c7-8dde-1a371397cdb8","ios":"levelo://app?vid=b760dc60-6d37-49c7-8dde-1a371397cdb8"},"vehicle_type_id":"4","last_reported":1685160444,"current_range_meters":29200,"station_id":"ce4bhqp2rcd13ifvqhng","pricing_plan_id":"free"},{"bike_id":"cf3fb89a-c959-4f23-8f03-a98d306de8af","system_id":"levelo_inurba_marseille","lat":43.317557,"lon":5.390173,"is_reserved":false,"is_disabled":false,"rental_uris":{"android":"levelo://app?vid=cf3fb89a-c959-4f23-8f03-a98d306de8af","ios":"levelo://app?vid=cf3fb89a-c959-4f23-8f03-a98d306de8af"},"vehicle_type_id":"4","last_reported":1685160444,"current_range_meters":26800,"station_id":"ce4bhqp2rcd13ifvqhng","pricing_plan_id":"free"},{"bike_id":"b3228e82-a458-4668-af9c-908050096944","system_id":"levelo_inurba_marseille","lat":43.317557,"lon":5.390173,"is_reserved":false,"is_disabled":false,"rental_uris":{"android":"levelo://app?vid=b3228e82-a458-4668-af9c-908050096944","ios":"levelo://app?vid=b3228e82-a458-4668-af9c-908050096944"},"vehicle_type_id":"4","last_reported":1685160444,"current_range_meters":29600,"station_id":"ce4bhqp2rcd13ifvqhng","pricing_plan_id":"free"},{"bike_id":"774ce504-2767-4c7f-b9b2-adba2127074c","system_id":"levelo_inurba_marseille","lat":43.317557,"lon":5.390173,"is_reserved":false,"is_disabled":false,"rental_uris":{"android":"levelo://app?vid=774ce504-2767-4c7f-b9b2-adba2127074c","ios":"levelo://app?vid=774ce504-2767-4c7f-b9b2-adba2127074c"},"vehicle_type_id":"4","last_reported":1685160444,"current_range_meters":29600,"station_id":"ce4bhqp2rcd13ifvqhng","pricing_plan_id":"free"},{"bike_id":"0a80d5e9-ad49-415c-9ece-72c4359f066d","system_id":"levelo_inurba_marseille","lat":43.317557,"lon":5.390173,"is_reserved":false,"is_disabled":false,"rental_uris":{"android":"levelo://app?vid=0a80d5e9-ad49-415c-9ece-72c4359f066d","ios":"levelo://app?vid=0a80d5e9-ad49-415c-9ece-72c4359f066d"},"vehicle_type_id":"4","last_reported":1685160444,"current_range_meters":28800,"station_id":"ce4bhqp2rcd13ifvqhng","pricing_plan_id":"free"},{"bike_id":"ea8b6c1b-5796-43d3-a8ae-a36ea20fd214","system_id":"levelo_inurba_marseille","lat":43.29577,"lon":5.37526,"is_reserved":false,"is_disabled":false,"rental_uris":{"android":"levelo://app?vid=ea8b6c1b-5796-43d3-a8ae-a36ea20fd214","ios":"levelo://app?vid=ea8b6c1b-5796-43d3-a8ae-a36ea20fd214"},"vehicle_type_id":"4","last_reported":1685160444,"current_range_meters":0,"station_id":"ce4bgh92rcd13ifvqb50","pricing_plan_id":"free"},{"bike_id":"e1786a32-67bb-4b83-879c-4fa13b7154ce","system_id":"levelo_inurba_marseille","lat":43.29783,"lon":5.38108,"is_reserved":false,"is_disabled":false,"rental_uris":{"android":"levelo://app?vid=e1786a32-67bb-4b83-879c-4fa13b7154ce","ios":"levelo://app?vid=e1786a32-67bb-4b83-879c-4fa13b7154ce"},"vehicle_type_id":"4","last_reported":1685160444,"current_range_meters":0,"station_id":"ce4bgip2rcd13ifvqbb0","pricing_plan_id":"free"},{"bike_id":"5445cfe7-93ee-474f-b357-0497c251d266","system_id":"levelo_inurba_marseille","lat":43.29787,"lon":5.38127,"is_reserved":false,"is_disabled":false,"rental_uris":{"android":"levelo://app?vid=5445cfe7-93ee-474f-b357-0497c251d266","ios":"levelo://app?vid=5445cfe7-93ee-474f-b357-0497c251d266"},"vehicle_type_id":"4","last_reported":1685160444,"current_range_meters":0,"station_id":"ce4bgip2rcd13ifvqbb0","pricing_plan_id":"free"},{"bike_id":"3289b7bc-6138-4ebb-8d82-2b0e69f1f911","system_id":"levelo_inurba_marseille","lat":43.296556,"lon":5.381226,"is_reserved":false,"is_disabled":false,"rental_uris":{"android":"levelo://app?vid=3289b7bc-6138-4ebb-8d82-2b0e69f1f911","ios":"levelo://app?vid=3289b7bc-6138-4ebb-8d82-2b0e69f1f911"},"vehicle_type_id":"4","last_reported":1685160444,"current_range_meters":800,"station_id":"","pricing_plan_id":"free"},{"bike_id":"15b52e71-618b-4328-b7cc-4bd55cb328a8","system_id":"levelo_inurba_marseille","lat":43.32367,"lon":5.388836,"is_reserved":false,"is_disabled":false,"rental_uris":{"android":"levelo://app?vid=15b52e71-618b-4328-b7cc-4bd55cb328a8","ios":"levelo://app?vid=15b52e71-618b-4328-b7cc-4bd55cb328a8"},"vehicle_type_id":"4","last_reported":1685160444,"current_range_meters":24800,"station_id":"ce4bhqp2rcd13ifvqhog","pricing_plan_id":"free"},{"bike_id":"8e0a1d6e-692c-48c1-9723-7afb585518c4","system_id":"levelo_inurba_marseille","lat":43.31276,"lon":5.39379,"is_reserved":false,"is_disabled":false,"rental_uris":{"android":"levelo://app?vid=8e0a1d6e-692c-48c1-9723-7afb585518c4","ios":"levelo://app?vid=8e0a1d6e-692c-48c1-9723-7afb585518c4"},"vehicle_type_id":"4","last_reported":1685160444,"current_range_meters":0,"station_id":"","pricing_plan_id":"free"},{"bike_id":"03c9b7b0-b02b-4153-89ee-017355d57432","system_id":"levelo_inurba_marseille","lat":43.29302,"lon":5.37191,"is_reserved":false,"is_disabled":false,"rental_uris":{"android":"levelo://app?vid=03c9b7b0-b02b-4153-89ee-017355d57432","ios":"levelo://app?vid=03c9b7b0-b02b-4153-89ee-017355d57432"},"vehicle_type_id":"4","last_reported":1685160444,"current_range_meters":0,"station_id":"","pricing_plan_id":"free"},{"bike_id":"9ad9f8dd-0155-44ec-a411-f5a2026eba33","system_id":"levelo_inurba_marseille","lat":43.2936,"lon":5.37835,"is_reserved":false,"is_disabled":false,"rental_uris":{"android":"levelo://app?vid=9ad9f8dd-0155-44ec-a411-f5a2026eba33","ios":"levelo://app?vid=9ad9f8dd-0155-44ec-a411-f5a2026eba33"},"vehicle_type_id":"4","last_reported":1685160444,"current_range_meters":26800,"station_id":"ce4bgjh2rcd13ifvqbf0","pricing_plan_id":"free"},{"bike_id":"315d986d-a715-4adb-aaf2-56d320044e5c","system_id":"levelo_inurba_marseille","lat":43.292311,"lon":5.360731,"is_reserved":false,"is_disabled":false,"rental_uris":{"android":"levelo://app?vid=315d986d-a715-4adb-aaf2-56d320044e5c","ios":"levelo://app?vid=315d986d-a715-4adb-aaf2-56d320044e5c"},"vehicle_type_id":"4","last_reported":1685160444,"current_range_meters":31600,"station_id":"ce4bhbh2rcd13ifvqeqg","pricing_plan_id":"free"},{"bike_id":"c2dfad4e-203a-4a55-a71e-d6cfd1a7defc","system_id":"levelo_inurba_marseille","lat":43.292311,"lon":5.360731,"is_reserved":false,"is_disabled":false,"rental_uris":{"android":"levelo://app?vid=c2dfad4e-203a-4a55-a71e-d6cfd1a7defc","ios":"levelo://app?vid=c2dfad4e-203a-4a55-a71e-d6cfd1a7defc"},"vehicle_type_id":"4","last_reported":1685160444,"current_range_meters":29200,"station_id":"ce4bhbh2rcd13ifvqeqg","pricing_plan_id":"free"},{"bike_id":"04aff767-29ef-4862-8f33-fbebb7bd7b94","system_id":"levelo_inurba_marseille","lat":43.292318,"lon":5.360638,"is_reserved":false,"is_disabled":false,"rental_uris":{"android":"levelo://app?vid=04aff767-29ef-4862-8f33-fbebb7bd7b94","ios":"levelo://app?vid=04aff767-29ef-4862-8f33-fbebb7bd7b94"},"vehicle_type_id":"4","last_reported":1685160444,"current_range_meters":28800,"station_id":"ce4bhbh2rcd13ifvqeqg","pricing_plan_id":"free"},{"bike_id":"3a6e7c45-aab0-4c9c-9d02-9f6dc2287f35","system_id":"levelo_inurba_marseille","lat":43.29228,"lon":5.36079,"is_reserved":false,"is_disabled":false,"rental_uris":{"android":"levelo://app?vid=3a6e7c45-aab0-4c9c-9d02-9f6dc2287f35","ios":"levelo://app?vid=3a6e7c45-aab0-4c9c-9d02-9f6dc2287f35"},"vehicle_type_id":"4","last_reported":1685160444,"current_range_meters":11200,"station_id":"ce4bhbh2rcd13ifvqeqg","pricing_plan_id":"free"},{"bike_id":"71e548e4-e9c1-47b2-a20e-cb0f4ed00ee7","system_id":"levelo_inurba_marseille","lat":43.30085,"lon":5.390856,"is_reserved":false,"is_disabled":false,"rental_uris":{"android":"levelo://app?vid=71e548e4-e9c1-47b2-a20e-cb0f4ed00ee7","ios":"levelo://app?vid=71e548e4-e9c1-47b2-a20e-cb0f4ed00ee7"},"vehicle_type_id":"4","last_reported":1685160444,"current_range_meters":0,"station_id":"ce4bh192rcd13ifvqdb0","pricing_plan_id":"free"},{"bike_id":"7a0c1491-e7d2-4a04-8ef2-607ed3e9d341","system_id":"levelo_inurba_marseille","lat":43.292311,"lon":5.360731,"is_reserved":false,"is_disabled":false,"rental_uris":{"android":"levelo://app?vid=7a0c1491-e7d2-4a04-8ef2-607ed3e9d341","ios":"levelo://app?vid=7a0c1491-e7d2-4a04-8ef2-607ed3e9d341"},"vehicle_type_id":"4","last_reported":1685160444,"current_range_meters":27600,"station_id":"ce4bhbh2rcd13ifvqeqg","pricing_plan_id":"free"},{"bike_id":"8e23444a-31c7-407b-8b1e-89757185ba86","system_id":"levelo_inurba_marseille","lat":43.29222,"lon":5.36051,"is_reserved":false,"is_disabled":false,"rental_uris":{"android":"levelo://app?vid=8e23444a-31c7-407b-8b1e-89757185ba86","ios":"levelo://app?vid=8e23444a-31c7-407b-8b1e-89757185ba86"},"vehicle_type_id":"4","last_reported":1685160444,"current_range_meters":29600,"station_id":"ce4bhbh2rcd13ifvqeqg","pricing_plan_id":"free"},{"bike_id":"f953355b-14d7-4508-9331-13e9496d40f9","system_id":"levelo_inurba_marseille","lat":43.300852,"lon":5.390859,"is_reserved":false,"is_disabled":false,"rental_uris":{"android":"levelo://app?vid=f953355b-14d7-4508-9331-13e9496d40f9","ios":"levelo://app?vid=f953355b-14d7-4508-9331-13e9496d40f9"},"vehicle_type_id":"4","last_reported":1685160444,"current_range_meters":26400,"station_id":"ce4bh192rcd13ifvqdb0","pricing_plan_id":"free"},{"bike_id":"b7d367d9-8f51-4246-bce3-ff626ca3c9d3","system_id":"levelo_inurba_marseille","lat":43.298764,"lon":5.388973,"is_reserved":false,"is_disabled":false,"rental_uris":{"android":"levelo://app?vid=b7d367d9-8f51-4246-bce3-ff626ca3c9d3","ios":"levelo://app?vid=b7d367d9-8f51-4246-bce3-ff626ca3c9d3"},"vehicle_type_id":"4","last_reported":1685160444,"current_range_meters":0,"station_id":"ce4bh392rcd13ifvqdl0","pricing_plan_id":"free"},{"bike_id":"fe3613ba-e557-44d4-91f9-0781c919e764","system_id":"levelo_inurba_marseille","lat":43.25102,"lon":5.403214,"is_reserved":false,"is_disabled":false,"rental_uris":{"android":"levelo://app?vid=fe3613ba-e557-44d4-91f9-0781c919e764","ios":"levelo://app?vid=fe3613ba-e557-44d4-91f9-0781c919e764"},"vehicle_type_id":"4","last_reported":1685160444,"current_range_meters":0,"station_id":"ce4bhlh2rcd13ifvqgig","pricing_plan_id":"free"},{"bike_id":"71db31b8-daf0-4fa8-b1dc-837820a25bdf","system_id":"levelo_inurba_marseille","lat":43.309038,"lon":5.396546,"is_reserved":false,"is_disabled":false,"rental_uris":{"android":"levelo://app?vid=71db31b8-daf0-4fa8-b1dc-837820a25bdf","ios":"levelo://app?vid=71db31b8-daf0-4fa8-b1dc-837820a25bdf"},"vehicle_type_id":"4","last_reported":1685160444,"current_range_meters":400,"station_id":"ce4bh012rcd13ifvqcv0","pricing_plan_id":"free"},{"bike_id":"f11bd125-d0cf-458a-b939-a63fa0ed69bf","system_id":"levelo_inurba_marseille","lat":43.30886,"lon":5.39641,"is_reserved":false,"is_disabled":false,"rental_uris":{"android":"levelo://app?vid=f11bd125-d0cf-458a-b939-a63fa0ed69bf","ios":"levelo://app?vid=f11bd125-d0cf-458a-b939-a63fa0ed69bf"},"vehicle_type_id":"4","last_reported":1685160444,"current_range_meters":400,"station_id":"ce4bh012rcd13ifvqcv0","pricing_plan_id":"free"},{"bike_id":"341e13a8-3375-47ef-b6ab-bbcc35bdf995","system_id":"levelo_inurba_marseille","lat":43.29193,"lon":5.35794,"is_reserved":false,"is_disabled":false,"rental_uris":{"android":"levelo://app?vid=341e13a8-3375-47ef-b6ab-bbcc35bdf995","ios":"levelo://app?vid=341e13a8-3375-47ef-b6ab-bbcc35bdf995"},"vehicle_type_id":"4","last_reported":1685160444,"current_range_meters":30400,"station_id":"ce4bhb12rcd13ifvqel0","pricing_plan_id":"free"},{"bike_id":"e83efb7a-b88f-4299-9dc5-8a967077d059","system_id":"levelo_inurba_marseille","lat":43.309038,"lon":5.396546,"is_reserved":false,"is_disabled":false,"rental_uris":{"android":"levelo://app?vid=e83efb7a-b88f-4299-9dc5-8a967077d059","ios":"levelo://app?vid=e83efb7a-b88f-4299-9dc5-8a967077d059"},"vehicle_type_id":"4","last_reported":1685160444,"current_range_meters":5200,"station_id":"ce4bh012rcd13ifvqcv0","pricing_plan_id":"free"},{"bike_id":"4e3406ab-5cfc-4471-924d-3678c29152f6","system_id":"levelo_inurba_marseille","lat":43.313291,"lon":5.396838,"is_reserved":false,"is_disabled":false,"rental_uris":{"android":"levelo://app?vid=4e3406ab-5cfc-4471-924d-3678c29152f6","ios":"levelo://app?vid=4e3406ab-5cfc-4471-924d-3678c29152f6"},"vehicle_type_id":"4","last_reported":1685160444,"current_range_meters":5200,"station_id":"ce4bgvp2rcd13ifvqcu0","pricing_plan_id":"free"},{"bike_id":"9478e152-99c3-48df-855b-261b6cece1cc","system_id":"levelo_inurba_marseille","lat":43.313291,"lon":5.396838,"is_reserved":false,"is_disabled":false,"rental_uris":{"android":"levelo://app?vid=9478e152-99c3-48df-855b-261b6cece1cc","ios":"levelo://app?vid=9478e152-99c3-48df-855b-261b6cece1cc"},"vehicle_type_id":"4","last_reported":1685160444,"current_range_meters":12000,"station_id":"ce4bgvp2rcd13ifvqcu0","pricing_plan_id":"free"},{"bike_id":"18ed3bb2-12e7-491c-8c4f-55f6c405d52f","system_id":"levelo_inurba_marseille","lat":43.313291,"lon":5.396838,"is_reserved":false,"is_disabled":false,"rental_uris":{"android":"levelo://app?vid=18ed3bb2-12e7-491c-8c4f-55f6c405d52f","ios":"levelo://app?vid=18ed3bb2-12e7-491c-8c4f-55f6c405d52f"},"vehicle_type_id":"4","last_reported":1685160444,"current_range_meters":0,"station_id":"ce4bgvp2rcd13ifvqcu0","pricing_plan_id":"free"},{"bike_id":"fabb0972-ab78-4b48-9ef4-05f772332cfc","system_id":"levelo_inurba_marseille","lat":43.313291,"lon":5.396838,"is_reserved":false,"is_disabled":false,"rental_uris":{"android":"levelo://app?vid=fabb0972-ab78-4b48-9ef4-05f772332cfc","ios":"levelo://app?vid=fabb0972-ab78-4b48-9ef4-05f772332cfc"},"vehicle_type_id":"4","last_reported":1685160444,"current_range_meters":10800,"station_id":"ce4bgvp2rcd13ifvqcu0","pricing_plan_id":"free"},{"bike_id":"cbe0c9a4-14b4-43fb-8b40-5ff5f061ea48","system_id":"levelo_inurba_marseille","lat":43.3132,"lon":5.39709,"is_reserved":false,"is_disabled":false,"rental_uris":{"android":"levelo://app?vid=cbe0c9a4-14b4-43fb-8b40-5ff5f061ea48","ios":"levelo://app?vid=cbe0c9a4-14b4-43fb-8b40-5ff5f061ea48"},"vehicle_type_id":"4","last_reported":1685160444,"current_range_meters":0,"station_id":"ce4bgvp2rcd13ifvqcu0","pricing_plan_id":"free"},{"bike_id":"c731e572-0e84-45af-b7ef-e6545a1b4c46","system_id":"levelo_inurba_marseille","lat":43.29529,"lon":5.385581,"is_reserved":false,"is_disabled":false,"rental_uris":{"android":"levelo://app?vid=c731e572-0e84-45af-b7ef-e6545a1b4c46","ios":"levelo://app?vid=c731e572-0e84-45af-b7ef-e6545a1b4c46"},"vehicle_type_id":"4","last_reported":1685160444,"current_range_meters":26800,"station_id":"ce4bgih2rcd13ifvqba0","pricing_plan_id":"free"},{"bike_id":"e5c85557-f95a-4c3c-bcc1-7582d4ad08c2","system_id":"levelo_inurba_marseille","lat":43.29529,"lon":5.385581,"is_reserved":false,"is_disabled":false,"rental_uris":{"android":"levelo://app?vid=e5c85557-f95a-4c3c-bcc1-7582d4ad08c2","ios":"levelo://app?vid=e5c85557-f95a-4c3c-bcc1-7582d4ad08c2"},"vehicle_type_id":"4","last_reported":1685160444,"current_range_meters":29200,"station_id":"ce4bgih2rcd13ifvqba0","pricing_plan_id":"free"},{"bike_id":"fb5b5a4c-01ae-4633-bce8-fb242fac5263","system_id":"levelo_inurba_marseille","lat":43.29529,"lon":5.385581,"is_reserved":false,"is_disabled":false,"rental_uris":{"android":"levelo://app?vid=fb5b5a4c-01ae-4633-bce8-fb242fac5263","ios":"levelo://app?vid=fb5b5a4c-01ae-4633-bce8-fb242fac5263"},"vehicle_type_id":"4","last_reported":1685160444,"current_range_meters":29200,"station_id":"ce4bgih2rcd13ifvqba0","pricing_plan_id":"free"},{"bike_id":"9025b6c7-5840-45c3-bed0-e48ce9eb828c","system_id":"levelo_inurba_marseille","lat":43.290631,"lon":5.359244,"is_reserved":false,"is_disabled":false,"rental_uris":{"android":"levelo://app?vid=9025b6c7-5840-45c3-bed0-e48ce9eb828c","ios":"levelo://app?vid=9025b6c7-5840-45c3-bed0-e48ce9eb828c"},"vehicle_type_id":"4","last_reported":1685160444,"current_range_meters":13600,"station_id":"ce4bha92rcd13ifvqeg0","pricing_plan_id":"free"},{"bike_id":"bfcf6053-fb74-4982-9889-d598173cb6aa","system_id":"levelo_inurba_marseille","lat":43.289184,"lon":5.366408,"is_reserved":false,"is_disabled":false,"rental_uris":{"android":"levelo://app?vid=bfcf6053-fb74-4982-9889-d598173cb6aa","ios":"levelo://app?vid=bfcf6053-fb74-4982-9889-d598173cb6aa"},"vehicle_type_id":"4","last_reported":1685160444,"current_range_meters":21200,"station_id":"ce4bhap2rcd13ifvqek0","pricing_plan_id":"free"},{"bike_id":"c2859cf9-b439-491b-8a27-91852aaaf6ca","system_id":"levelo_inurba_marseille","lat":43.289468,"lon":5.363719,"is_reserved":false,"is_disabled":false,"rental_uris":{"android":"levelo://app?vid=c2859cf9-b439-491b-8a27-91852aaaf6ca","ios":"levelo://app?vid=c2859cf9-b439-491b-8a27-91852aaaf6ca"},"vehicle_type_id":"4","last_reported":1685160444,"current_range_meters":27200,"station_id":"ce4bhc92rcd13ifvqetg","pricing_plan_id":"free"},{"bike_id":"09322ae8-72a7-4e80-962e-134a98cd9781","system_id":"levelo_inurba_marseille","lat":43.289468,"lon":5.363719,"is_reserved":false,"is_disabled":false,"rental_uris":{"android":"levelo://app?vid=09322ae8-72a7-4e80-962e-134a98cd9781","ios":"levelo://app?vid=09322ae8-72a7-4e80-962e-134a98cd9781"},"vehicle_type_id":"4","last_reported":1685160444,"current_range_meters":25200,"station_id":"ce4bhc92rcd13ifvqetg","pricing_plan_id":"free"},{"bike_id":"db009f0a-f84a-4a23-9120-792266a51dc9","system_id":"levelo_inurba_marseille","lat":43.304296,"lon":5.397513,"is_reserved":false,"is_disabled":false,"rental_uris":{"android":"levelo://app?vid=db009f0a-f84a-4a23-9120-792266a51dc9","ios":"levelo://app?vid=db009f0a-f84a-4a23-9120-792266a51dc9"},"vehicle_type_id":"4","last_reported":1685160444,"current_range_meters":18000,"station_id":"ce4bh092rcd13ifvqd20","pricing_plan_id":"free"},{"bike_id":"45965492-6db7-4b9c-828f-19d1b9ad4ff1","system_id":"levelo_inurba_marseille","lat":43.33042,"lon":5.38915,"is_reserved":false,"is_disabled":false,"rental_uris":{"android":"levelo://app?vid=45965492-6db7-4b9c-828f-19d1b9ad4ff1","ios":"levelo://app?vid=45965492-6db7-4b9c-828f-19d1b9ad4ff1"},"vehicle_type_id":"4","last_reported":1685160444,"current_range_meters":3200,"station_id":"ce4bhr92rcd13ifvqhrg","pricing_plan_id":"free"},{"bike_id":"351acc09-8a17-4508-bb95-e897624cde5b","system_id":"levelo_inurba_marseille","lat":43.33045,"lon":5.38912,"is_reserved":false,"is_disabled":false,"rental_uris":{"android":"levelo://app?vid=351acc09-8a17-4508-bb95-e897624cde5b","ios":"levelo://app?vid=351acc09-8a17-4508-bb95-e897624cde5b"},"vehicle_type_id":"4","last_reported":1685160444,"current_range_meters":5600,"station_id":"ce4bhr92rcd13ifvqhrg","pricing_plan_id":"free"},{"bike_id":"f445296b-8f7c-42f6-82cf-090bfc4f7485","system_id":"levelo_inurba_marseille","lat":43.33048,"lon":5.3891,"is_reserved":false,"is_disabled":false,"rental_uris":{"android":"levelo://app?vid=f445296b-8f7c-42f6-82cf-090bfc4f7485","ios":"levelo://app?vid=f445296b-8f7c-42f6-82cf-090bfc4f7485"},"vehicle_type_id":"4","last_reported":1685160444,"current_range_meters":11600,"station_id":"ce4bhr92rcd13ifvqhrg","pricing_plan_id":"free"},{"bike_id":"13febadc-ed15-4a0c-835e-7b0f87d51ec7","system_id":"levelo_inurba_marseille","lat":43.290104,"lon":5.356111,"is_reserved":false,"is_disabled":false,"rental_uris":{"android":"levelo://app?vid=13febadc-ed15-4a0c-835e-7b0f87d51ec7","ios":"levelo://app?vid=13febadc-ed15-4a0c-835e-7b0f87d51ec7"},"vehicle_type_id":"4","last_reported":1685160444,"current_range_meters":27200,"station_id":"ce4bhb92rcd13ifvqen0","pricing_plan_id":"free"},{"bike_id":"90c35fe1-7f91-4b22-82fa-6290e8b1f27b","system_id":"levelo_inurba_marseille","lat":43.290103,"lon":5.356114,"is_reserved":false,"is_disabled":false,"rental_uris":{"android":"levelo://app?vid=90c35fe1-7f91-4b22-82fa-6290e8b1f27b","ios":"levelo://app?vid=90c35fe1-7f91-4b22-82fa-6290e8b1f27b"},"vehicle_type_id":"4","last_reported":1685160444,"current_range_meters":29600,"station_id":"ce4bhb92rcd13ifvqen0","pricing_plan_id":"free"},{"bike_id":"c615e7e9-23ac-44fe-be49-0db760bcad8c","system_id":"levelo_inurba_marseille","lat":43.33046,"lon":5.38921,"is_reserved":false,"is_disabled":false,"rental_uris":{"android":"levelo://app?vid=c615e7e9-23ac-44fe-be49-0db760bcad8c","ios":"levelo://app?vid=c615e7e9-23ac-44fe-be49-0db760bcad8c"},"vehicle_type_id":"4","last_reported":1685160444,"current_range_meters":0,"station_id":"ce4bhr92rcd13ifvqhrg","pricing_plan_id":"free"},{"bike_id":"dc87ddfe-0276-4af6-9854-4bc182c68e1b","system_id":"levelo_inurba_marseille","lat":43.290104,"lon":5.356111,"is_reserved":false,"is_disabled":false,"rental_uris":{"android":"levelo://app?vid=dc87ddfe-0276-4af6-9854-4bc182c68e1b","ios":"levelo://app?vid=dc87ddfe-0276-4af6-9854-4bc182c68e1b"},"vehicle_type_id":"4","last_reported":1685160444,"current_range_meters":31200,"station_id":"ce4bhb92rcd13ifvqen0","pricing_plan_id":"free"},{"bike_id":"4dfab6ad-be40-4201-a8a4-8649d0116356","system_id":"levelo_inurba_marseille","lat":43.290104,"lon":5.356111,"is_reserved":false,"is_disabled":false,"rental_uris":{"android":"levelo://app?vid=4dfab6ad-be40-4201-a8a4-8649d0116356","ios":"levelo://app?vid=4dfab6ad-be40-4201-a8a4-8649d0116356"},"vehicle_type_id":"4","last_reported":1685160444,"current_range_meters":29200,"station_id":"ce4bhb92rcd13ifvqen0","pricing_plan_id":"free"},{"bike_id":"59f55b0e-2941-44e1-91b2-da51dafd23fd","system_id":"levelo_inurba_marseille","lat":43.28997,"lon":5.35615,"is_reserved":false,"is_disabled":false,"rental_uris":{"android":"levelo://app?vid=59f55b0e-2941-44e1-91b2-da51dafd23fd","ios":"levelo://app?vid=59f55b0e-2941-44e1-91b2-da51dafd23fd"},"vehicle_type_id":"4","last_reported":1685160444,"current_range_meters":0,"station_id":"ce4bhb92rcd13ifvqen0","pricing_plan_id":"free"},{"bike_id":"59ad26f4-bea2-44d4-91c5-7ad5356ff707","system_id":"levelo_inurba_marseille","lat":43.290104,"lon":5.356111,"is_reserved":false,"is_disabled":false,"rental_uris":{"android":"levelo://app?vid=59ad26f4-bea2-44d4-91c5-7ad5356ff707","ios":"levelo://app?vid=59ad26f4-bea2-44d4-91c5-7ad5356ff707"},"vehicle_type_id":"4","last_reported":1685160444,"current_range_meters":27200,"station_id":"ce4bhb92rcd13ifvqen0","pricing_plan_id":"free"},{"bike_id":"ff3adcdd-c3ba-4f75-a6b8-a6a3ec500db0","system_id":"levelo_inurba_marseille","lat":43.2885,"lon":5.35844,"is_reserved":false,"is_disabled":false,"rental_uris":{"android":"levelo://app?vid=ff3adcdd-c3ba-4f75-a6b8-a6a3ec500db0","ios":"levelo://app?vid=ff3adcdd-c3ba-4f75-a6b8-a6a3ec500db0"},"vehicle_type_id":"4","last_reported":1685160444,"current_range_meters":0,"station_id":"ce4bhb12rcd13ifvqem0","pricing_plan_id":"free"},{"bike_id":"cc0b4051-9764-433e-b95a-de747eb014bb","system_id":"levelo_inurba_marseille","lat":43.28856,"lon":5.358371,"is_reserved":false,"is_disabled":false,"rental_uris":{"android":"levelo://app?vid=cc0b4051-9764-433e-b95a-de747eb014bb","ios":"levelo://app?vid=cc0b4051-9764-433e-b95a-de747eb014bb"},"vehicle_type_id":"4","last_reported":1685160444,"current_range_meters":31200,"station_id":"ce4bhb12rcd13ifvqem0","pricing_plan_id":"free"},{"bike_id":"31f720de-218a-4b5b-b0aa-c3e6fae4c874","system_id":"levelo_inurba_marseille","lat":43.30642,"lon":5.401031,"is_reserved":false,"is_disabled":false,"rental_uris":{"android":"levelo://app?vid=31f720de-218a-4b5b-b0aa-c3e6fae4c874","ios":"levelo://app?vid=31f720de-218a-4b5b-b0aa-c3e6fae4c874"},"vehicle_type_id":"4","last_reported":1685160444,"current_range_meters":30000,"station_id":"ce4bh112rcd13ifvqda0","pricing_plan_id":"free"},{"bike_id":"141c14ea-594b-43ee-894e-8c44af1dcd73","system_id":"levelo_inurba_marseille","lat":43.33752,"lon":5.37439,"is_reserved":false,"is_disabled":false,"rental_uris":{"android":"levelo://app?vid=141c14ea-594b-43ee-894e-8c44af1dcd73","ios":"levelo://app?vid=141c14ea-594b-43ee-894e-8c44af1dcd73"},"vehicle_type_id":"4","last_reported":1685160444,"current_range_meters":13200,"station_id":"","pricing_plan_id":"free"},{"bike_id":"21bebb90-bd37-4351-9ead-f26273aea005","system_id":"levelo_inurba_marseille","lat":43.33753,"lon":5.37435,"is_reserved":false,"is_disabled":false,"rental_uris":{"android":"levelo://app?vid=21bebb90-bd37-4351-9ead-f26273aea005","ios":"levelo://app?vid=21bebb90-bd37-4351-9ead-f26273aea005"},"vehicle_type_id":"4","last_reported":1685160444,"current_range_meters":17200,"station_id":"","pricing_plan_id":"free"},{"bike_id":"0db149bf-f8c9-48ec-a7e2-bc8c39f4a018","system_id":"levelo_inurba_marseille","lat":43.30642,"lon":5.401031,"is_reserved":false,"is_disabled":false,"rental_uris":{"android":"levelo://app?vid=0db149bf-f8c9-48ec-a7e2-bc8c39f4a018","ios":"levelo://app?vid=0db149bf-f8c9-48ec-a7e2-bc8c39f4a018"},"vehicle_type_id":"4","last_reported":1685160444,"current_range_meters":31200,"station_id":"ce4bh112rcd13ifvqda0","pricing_plan_id":"free"},{"bike_id":"556c6db1-2600-4c2b-9521-aae8453517c1","system_id":"levelo_inurba_marseille","lat":43.33762,"lon":5.37445,"is_reserved":false,"is_disabled":false,"rental_uris":{"android":"levelo://app?vid=556c6db1-2600-4c2b-9521-aae8453517c1","ios":"levelo://app?vid=556c6db1-2600-4c2b-9521-aae8453517c1"},"vehicle_type_id":"4","last_reported":1685160444,"current_range_meters":19200,"station_id":"","pricing_plan_id":"free"},{"bike_id":"1490fad1-fe90-4399-a2f2-79545cf03a2b","system_id":"levelo_inurba_marseille","lat":43.337578,"lon":5.374791,"is_reserved":false,"is_disabled":false,"rental_uris":{"android":"levelo://app?vid=1490fad1-fe90-4399-a2f2-79545cf03a2b","ios":"levelo://app?vid=1490fad1-fe90-4399-a2f2-79545cf03a2b"},"vehicle_type_id":"4","last_reported":1685160444,"current_range_meters":28800,"station_id":"","pricing_plan_id":"free"},{"bike_id":"d5481f23-2e90-49e5-90f9-50629faff775","system_id":"levelo_inurba_marseille","lat":43.33758,"lon":5.37484,"is_reserved":false,"is_disabled":false,"rental_uris":{"android":"levelo://app?vid=d5481f23-2e90-49e5-90f9-50629faff775","ios":"levelo://app?vid=d5481f23-2e90-49e5-90f9-50629faff775"},"vehicle_type_id":"4","last_reported":1685160444,"current_range_meters":31200,"station_id":"","pricing_plan_id":"free"},{"bike_id":"bc3ab39f-25a2-484f-a736-854473d6e8e6","system_id":"levelo_inurba_marseille","lat":43.306412,"lon":5.401035,"is_reserved":false,"is_disabled":false,"rental_uris":{"android":"levelo://app?vid=bc3ab39f-25a2-484f-a736-854473d6e8e6","ios":"levelo://app?vid=bc3ab39f-25a2-484f-a736-854473d6e8e6"},"vehicle_type_id":"4","last_reported":1685160444,"current_range_meters":31200,"station_id":"ce4bh112rcd13ifvqda0","pricing_plan_id":"free"},{"bike_id":"8cbc48f7-c2f7-4254-8dd8-1b8fb94efe1e","system_id":"levelo_inurba_marseille","lat":43.306412,"lon":5.401035,"is_reserved":false,"is_disabled":false,"rental_uris":{"android":"levelo://app?vid=8cbc48f7-c2f7-4254-8dd8-1b8fb94efe1e","ios":"levelo://app?vid=8cbc48f7-c2f7-4254-8dd8-1b8fb94efe1e"},"vehicle_type_id":"4","last_reported":1685160444,"current_range_meters":5200,"station_id":"ce4bh112rcd13ifvqda0","pricing_plan_id":"free"},{"bike_id":"5bd96745-9a19-4fe7-b597-4db9cabdc957","system_id":"levelo_inurba_marseille","lat":43.33775,"lon":5.37429,"is_reserved":false,"is_disabled":false,"rental_uris":{"android":"levelo://app?vid=5bd96745-9a19-4fe7-b597-4db9cabdc957","ios":"levelo://app?vid=5bd96745-9a19-4fe7-b597-4db9cabdc957"},"vehicle_type_id":"4","last_reported":1685160444,"current_range_meters":26800,"station_id":"","pricing_plan_id":"free"},{"bike_id":"13c2eb00-037a-4c96-8417-72354b6ac734","system_id":"levelo_inurba_marseille","lat":43.3378,"lon":5.37423,"is_reserved":false,"is_disabled":false,"rental_uris":{"android":"levelo://app?vid=13c2eb00-037a-4c96-8417-72354b6ac734","ios":"levelo://app?vid=13c2eb00-037a-4c96-8417-72354b6ac734"},"vehicle_type_id":"4","last_reported":1685160444,"current_range_meters":20400,"station_id":"","pricing_plan_id":"free"},{"bike_id":"9723a328-d09d-4249-8021-ef338cc09f7f","system_id":"levelo_inurba_marseille","lat":43.286593,"lon":5.363346,"is_reserved":false,"is_disabled":false,"rental_uris":{"android":"levelo://app?vid=9723a328-d09d-4249-8021-ef338cc09f7f","ios":"levelo://app?vid=9723a328-d09d-4249-8021-ef338cc09f7f"},"vehicle_type_id":"4","last_reported":1685160444,"current_range_meters":30800,"station_id":"ce4bhah2rcd13ifvqej0","pricing_plan_id":"free"},{"bike_id":"15ac8984-2799-4b47-99b9-657671df0aa8","system_id":"levelo_inurba_marseille","lat":43.298681,"lon":5.397225,"is_reserved":false,"is_disabled":false,"rental_uris":{"android":"levelo://app?vid=15ac8984-2799-4b47-99b9-657671df0aa8","ios":"levelo://app?vid=15ac8984-2799-4b47-99b9-657671df0aa8"},"vehicle_type_id":"4","last_reported":1685160444,"current_range_meters":31200,"station_id":"ce4bh0h2rcd13ifvqd50","pricing_plan_id":"free"},{"bike_id":"fa0a8ea8-7065-4e69-8183-9de854e995ec","system_id":"levelo_inurba_marseille","lat":43.298681,"lon":5.397225,"is_reserved":false,"is_disabled":false,"rental_uris":{"android":"levelo://app?vid=fa0a8ea8-7065-4e69-8183-9de854e995ec","ios":"levelo://app?vid=fa0a8ea8-7065-4e69-8183-9de854e995ec"},"vehicle_type_id":"4","last_reported":1685160444,"current_range_meters":28800,"station_id":"ce4bh0h2rcd13ifvqd50","pricing_plan_id":"free"},{"bike_id":"a2e4600b-61a0-4f77-b5b6-856eab72febd","system_id":"levelo_inurba_marseille","lat":43.298681,"lon":5.397225,"is_reserved":false,"is_disabled":false,"rental_uris":{"android":"levelo://app?vid=a2e4600b-61a0-4f77-b5b6-856eab72febd","ios":"levelo://app?vid=a2e4600b-61a0-4f77-b5b6-856eab72febd"},"vehicle_type_id":"4","last_reported":1685160444,"current_range_meters":31200,"station_id":"ce4bh0h2rcd13ifvqd50","pricing_plan_id":"free"},{"bike_id":"54314762-6038-4e00-96cc-b7f4f94977ae","system_id":"levelo_inurba_marseille","lat":43.302759,"lon":5.400793,"is_reserved":false,"is_disabled":false,"rental_uris":{"android":"levelo://app?vid=54314762-6038-4e00-96cc-b7f4f94977ae","ios":"levelo://app?vid=54314762-6038-4e00-96cc-b7f4f94977ae"},"vehicle_type_id":"4","last_reported":1685160444,"current_range_meters":31200,"station_id":"ce4bgvh2rcd13ifvqcs0","pricing_plan_id":"free"},{"bike_id":"c90037cd-a76f-4d3e-8909-e4e10cbd2318","system_id":"levelo_inurba_marseille","lat":43.302759,"lon":5.400793,"is_reserved":false,"is_disabled":false,"rental_uris":{"android":"levelo://app?vid=c90037cd-a76f-4d3e-8909-e4e10cbd2318","ios":"levelo://app?vid=c90037cd-a76f-4d3e-8909-e4e10cbd2318"},"vehicle_type_id":"4","last_reported":1685160444,"current_range_meters":26400,"station_id":"ce4bgvh2rcd13ifvqcs0","pricing_plan_id":"free"},{"bike_id":"a6d1b819-56ec-4fb1-b34b-aad0898c19f4","system_id":"levelo_inurba_marseille","lat":43.302759,"lon":5.400793,"is_reserved":false,"is_disabled":false,"rental_uris":{"android":"levelo://app?vid=a6d1b819-56ec-4fb1-b34b-aad0898c19f4","ios":"levelo://app?vid=a6d1b819-56ec-4fb1-b34b-aad0898c19f4"},"vehicle_type_id":"4","last_reported":1685160444,"current_range_meters":31200,"station_id":"ce4bgvh2rcd13ifvqcs0","pricing_plan_id":"free"},{"bike_id":"358a7fe0-0dc4-40f8-8370-761d3f749b49","system_id":"levelo_inurba_marseille","lat":43.302759,"lon":5.400793,"is_reserved":false,"is_disabled":false,"rental_uris":{"android":"levelo://app?vid=358a7fe0-0dc4-40f8-8370-761d3f749b49","ios":"levelo://app?vid=358a7fe0-0dc4-40f8-8370-761d3f749b49"},"vehicle_type_id":"4","last_reported":1685160444,"current_range_meters":31200,"station_id":"ce4bgvh2rcd13ifvqcs0","pricing_plan_id":"free"},{"bike_id":"2ebf9ba6-5d7e-4727-8512-7c7aa3459da4","system_id":"levelo_inurba_marseille","lat":43.302759,"lon":5.400793,"is_reserved":false,"is_disabled":false,"rental_uris":{"android":"levelo://app?vid=2ebf9ba6-5d7e-4727-8512-7c7aa3459da4","ios":"levelo://app?vid=2ebf9ba6-5d7e-4727-8512-7c7aa3459da4"},"vehicle_type_id":"4","last_reported":1685160444,"current_range_meters":28800,"station_id":"ce4bgvh2rcd13ifvqcs0","pricing_plan_id":"free"},{"bike_id":"c44e8de2-0c7b-49de-bb57-718d04f46c78","system_id":"levelo_inurba_marseille","lat":43.302759,"lon":5.400793,"is_reserved":false,"is_disabled":false,"rental_uris":{"android":"levelo://app?vid=c44e8de2-0c7b-49de-bb57-718d04f46c78","ios":"levelo://app?vid=c44e8de2-0c7b-49de-bb57-718d04f46c78"},"vehicle_type_id":"4","last_reported":1685160444,"current_range_meters":31200,"station_id":"ce4bgvh2rcd13ifvqcs0","pricing_plan_id":"free"},{"bike_id":"01eb067c-9d65-4851-99ab-af20cba2d128","system_id":"levelo_inurba_marseille","lat":43.302759,"lon":5.400793,"is_reserved":false,"is_disabled":false,"rental_uris":{"android":"levelo://app?vid=01eb067c-9d65-4851-99ab-af20cba2d128","ios":"levelo://app?vid=01eb067c-9d65-4851-99ab-af20cba2d128"},"vehicle_type_id":"4","last_reported":1685160444,"current_range_meters":31200,"station_id":"ce4bgvh2rcd13ifvqcs0","pricing_plan_id":"free"},{"bike_id":"6c2b7043-4dd4-4f49-8af8-fa5056e63c2c","system_id":"levelo_inurba_marseille","lat":43.30247,"lon":5.40088,"is_reserved":false,"is_disabled":false,"rental_uris":{"android":"levelo://app?vid=6c2b7043-4dd4-4f49-8af8-fa5056e63c2c","ios":"levelo://app?vid=6c2b7043-4dd4-4f49-8af8-fa5056e63c2c"},"vehicle_type_id":"4","last_reported":1685160444,"current_range_meters":31200,"station_id":"","pricing_plan_id":"free"},{"bike_id":"70fe169d-4d9f-477c-857e-629445d68ffd","system_id":"levelo_inurba_marseille","lat":43.287184,"lon":5.37937,"is_reserved":false,"is_disabled":false,"rental_uris":{"android":"levelo://app?vid=70fe169d-4d9f-477c-857e-629445d68ffd","ios":"levelo://app?vid=70fe169d-4d9f-477c-857e-629445d68ffd"},"vehicle_type_id":"4","last_reported":1685160444,"current_range_meters":27600,"station_id":"ce4bh9p2rcd13ifvqec0","pricing_plan_id":"free"},{"bike_id":"f33a80fd-195d-41c7-9df1-c1e4c84a6daf","system_id":"levelo_inurba_marseille","lat":43.29475,"lon":5.3948,"is_reserved":false,"is_disabled":false,"rental_uris":{"android":"levelo://app?vid=f33a80fd-195d-41c7-9df1-c1e4c84a6daf","ios":"levelo://app?vid=f33a80fd-195d-41c7-9df1-c1e4c84a6daf"},"vehicle_type_id":"4","last_reported":1685160444,"current_range_meters":0,"station_id":"","pricing_plan_id":"free"},{"bike_id":"10293d08-5565-47fa-8681-6e8d5321fe00","system_id":"levelo_inurba_marseille","lat":43.29194,"lon":5.39326,"is_reserved":false,"is_disabled":false,"rental_uris":{"android":"levelo://app?vid=10293d08-5565-47fa-8681-6e8d5321fe00","ios":"levelo://app?vid=10293d08-5565-47fa-8681-6e8d5321fe00"},"vehicle_type_id":"4","last_reported":1685160444,"current_range_meters":24800,"station_id":"","pricing_plan_id":"free"},{"bike_id":"28a6ea0c-1f23-4f97-9dc0-ed6153b0fdc2","system_id":"levelo_inurba_marseille","lat":43.28461,"lon":5.35893,"is_reserved":false,"is_disabled":false,"rental_uris":{"android":"levelo://app?vid=28a6ea0c-1f23-4f97-9dc0-ed6153b0fdc2","ios":"levelo://app?vid=28a6ea0c-1f23-4f97-9dc0-ed6153b0fdc2"},"vehicle_type_id":"4","last_reported":1685160444,"current_range_meters":31200,"station_id":"ce4bhah2rcd13ifvqei0","pricing_plan_id":"free"},{"bike_id":"fbbe1101-31e0-4cc4-bd31-6779aafe5571","system_id":"levelo_inurba_marseille","lat":43.284534,"lon":5.358662,"is_reserved":false,"is_disabled":false,"rental_uris":{"android":"levelo://app?vid=fbbe1101-31e0-4cc4-bd31-6779aafe5571","ios":"levelo://app?vid=fbbe1101-31e0-4cc4-bd31-6779aafe5571"},"vehicle_type_id":"4","last_reported":1685160444,"current_range_meters":16000,"station_id":"ce4bhah2rcd13ifvqei0","pricing_plan_id":"free"},{"bike_id":"fd722a03-52b2-4be0-8f69-98caaa2f1827","system_id":"levelo_inurba_marseille","lat":43.28617,"lon":5.35106,"is_reserved":false,"is_disabled":false,"rental_uris":{"android":"levelo://app?vid=fd722a03-52b2-4be0-8f69-98caaa2f1827","ios":"levelo://app?vid=fd722a03-52b2-4be0-8f69-98caaa2f1827"},"vehicle_type_id":"4","last_reported":1685160444,"current_range_meters":31200,"station_id":"","pricing_plan_id":"free"},{"bike_id":"1f2bda87-9d01-43d0-8361-b4c373ea93dd","system_id":"levelo_inurba_marseille","lat":43.285856,"lon":5.350771,"is_reserved":false,"is_disabled":false,"rental_uris":{"android":"levelo://app?vid=1f2bda87-9d01-43d0-8361-b4c373ea93dd","ios":"levelo://app?vid=1f2bda87-9d01-43d0-8361-b4c373ea93dd"},"vehicle_type_id":"4","last_reported":1685160444,"current_range_meters":21200,"station_id":"ce4bhch2rcd13ifvqeug","pricing_plan_id":"free"},{"bike_id":"7c171c01-fa60-4ea6-8dfc-5b86636faae7","system_id":"levelo_inurba_marseille","lat":43.285856,"lon":5.350771,"is_reserved":false,"is_disabled":false,"rental_uris":{"android":"levelo://app?vid=7c171c01-fa60-4ea6-8dfc-5b86636faae7","ios":"levelo://app?vid=7c171c01-fa60-4ea6-8dfc-5b86636faae7"},"vehicle_type_id":"4","last_reported":1685160444,"current_range_meters":31200,"station_id":"ce4bhch2rcd13ifvqeug","pricing_plan_id":"free"},{"bike_id":"66408b67-b677-4789-831c-b0caea45c7d9","system_id":"levelo_inurba_marseille","lat":43.285856,"lon":5.350771,"is_reserved":false,"is_disabled":false,"rental_uris":{"android":"levelo://app?vid=66408b67-b677-4789-831c-b0caea45c7d9","ios":"levelo://app?vid=66408b67-b677-4789-831c-b0caea45c7d9"},"vehicle_type_id":"4","last_reported":1685160444,"current_range_meters":31200,"station_id":"ce4bhch2rcd13ifvqeug","pricing_plan_id":"free"},{"bike_id":"e2127832-7e43-4e89-8d3d-00e9fc401535","system_id":"levelo_inurba_marseille","lat":43.285856,"lon":5.350771,"is_reserved":false,"is_disabled":false,"rental_uris":{"android":"levelo://app?vid=e2127832-7e43-4e89-8d3d-00e9fc401535","ios":"levelo://app?vid=e2127832-7e43-4e89-8d3d-00e9fc401535"},"vehicle_type_id":"4","last_reported":1685160444,"current_range_meters":30800,"station_id":"ce4bhch2rcd13ifvqeug","pricing_plan_id":"free"},{"bike_id":"6f383150-e027-4e07-bc9a-59b36ae1822d","system_id":"levelo_inurba_marseille","lat":43.285856,"lon":5.350771,"is_reserved":false,"is_disabled":false,"rental_uris":{"android":"levelo://app?vid=6f383150-e027-4e07-bc9a-59b36ae1822d","ios":"levelo://app?vid=6f383150-e027-4e07-bc9a-59b36ae1822d"},"vehicle_type_id":"4","last_reported":1685160444,"current_range_meters":31200,"station_id":"ce4bhch2rcd13ifvqeug","pricing_plan_id":"free"},{"bike_id":"579eea96-b1e2-44ba-afb5-a8496e262068","system_id":"levelo_inurba_marseille","lat":43.28609,"lon":5.35109,"is_reserved":false,"is_disabled":false,"rental_uris":{"android":"levelo://app?vid=579eea96-b1e2-44ba-afb5-a8496e262068","ios":"levelo://app?vid=579eea96-b1e2-44ba-afb5-a8496e262068"},"vehicle_type_id":"4","last_reported":1685160444,"current_range_meters":31200,"station_id":"","pricing_plan_id":"free"},{"bike_id":"dbc4db5c-125f-4964-9101-163ef52308da","system_id":"levelo_inurba_marseille","lat":43.295713,"lon":5.399639,"is_reserved":false,"is_disabled":false,"rental_uris":{"android":"levelo://app?vid=dbc4db5c-125f-4964-9101-163ef52308da","ios":"levelo://app?vid=dbc4db5c-125f-4964-9101-163ef52308da"},"vehicle_type_id":"4","last_reported":1685160444,"current_range_meters":28800,"station_id":"ce4bh312rcd13ifvqdj0","pricing_plan_id":"free"},{"bike_id":"22136bd6-8c17-401f-8f85-4d306a9f8650","system_id":"levelo_inurba_marseille","lat":43.295713,"lon":5.399639,"is_reserved":false,"is_disabled":false,"rental_uris":{"android":"levelo://app?vid=22136bd6-8c17-401f-8f85-4d306a9f8650","ios":"levelo://app?vid=22136bd6-8c17-401f-8f85-4d306a9f8650"},"vehicle_type_id":"4","last_reported":1685160444,"current_range_meters":21200,"station_id":"ce4bh312rcd13ifvqdj0","pricing_plan_id":"free"},{"bike_id":"f2a159c0-91f7-4a0e-be15-f969286e0639","system_id":"levelo_inurba_marseille","lat":43.28676,"lon":5.38665,"is_reserved":false,"is_disabled":false,"rental_uris":{"android":"levelo://app?vid=f2a159c0-91f7-4a0e-be15-f969286e0639","ios":"levelo://app?vid=f2a159c0-91f7-4a0e-be15-f969286e0639"},"vehicle_type_id":"4","last_reported":1685160444,"current_range_meters":3600,"station_id":"ce4bh492rcd13ifvqdug","pricing_plan_id":"free"},{"bike_id":"b59e3972-bd7c-4ead-92bc-777cdd993bde","system_id":"levelo_inurba_marseille","lat":43.286595,"lon":5.386795,"is_reserved":false,"is_disabled":false,"rental_uris":{"android":"levelo://app?vid=b59e3972-bd7c-4ead-92bc-777cdd993bde","ios":"levelo://app?vid=b59e3972-bd7c-4ead-92bc-777cdd993bde"},"vehicle_type_id":"4","last_reported":1685160444,"current_range_meters":29200,"station_id":"ce4bh492rcd13ifvqdug","pricing_plan_id":"free"},{"bike_id":"d5fd31a8-b7a4-48f5-9751-f4ba7b16e78e","system_id":"levelo_inurba_marseille","lat":43.323464,"lon":5.406297,"is_reserved":false,"is_disabled":false,"rental_uris":{"android":"levelo://app?vid=d5fd31a8-b7a4-48f5-9751-f4ba7b16e78e","ios":"levelo://app?vid=d5fd31a8-b7a4-48f5-9751-f4ba7b16e78e"},"vehicle_type_id":"4","last_reported":1685160444,"current_range_meters":31600,"station_id":"ce4bhq92rcd13ifvqhjg","pricing_plan_id":"free"},{"bike_id":"5371bbd7-c92f-4fd0-bddb-eca2c7cd5808","system_id":"levelo_inurba_marseille","lat":43.323464,"lon":5.406297,"is_reserved":false,"is_disabled":false,"rental_uris":{"android":"levelo://app?vid=5371bbd7-c92f-4fd0-bddb-eca2c7cd5808","ios":"levelo://app?vid=5371bbd7-c92f-4fd0-bddb-eca2c7cd5808"},"vehicle_type_id":"4","last_reported":1685160444,"current_range_meters":31600,"station_id":"ce4bhq92rcd13ifvqhjg","pricing_plan_id":"free"},{"bike_id":"313049e2-232c-4f54-9b26-81086cea8884","system_id":"levelo_inurba_marseille","lat":43.33724,"lon":5.39189,"is_reserved":false,"is_disabled":false,"rental_uris":{"android":"levelo://app?vid=313049e2-232c-4f54-9b26-81086cea8884","ios":"levelo://app?vid=313049e2-232c-4f54-9b26-81086cea8884"},"vehicle_type_id":"4","last_reported":1685160444,"current_range_meters":10800,"station_id":"","pricing_plan_id":"free"},{"bike_id":"6939637e-15d6-4532-99c1-c88a05c70740","system_id":"levelo_inurba_marseille","lat":43.323464,"lon":5.406297,"is_reserved":false,"is_disabled":false,"rental_uris":{"android":"levelo://app?vid=6939637e-15d6-4532-99c1-c88a05c70740","ios":"levelo://app?vid=6939637e-15d6-4532-99c1-c88a05c70740"},"vehicle_type_id":"4","last_reported":1685160444,"current_range_meters":17600,"station_id":"ce4bhq92rcd13ifvqhjg","pricing_plan_id":"free"},{"bike_id":"5d688962-049d-4fff-85f5-9a49fd012e0e","system_id":"levelo_inurba_marseille","lat":43.323464,"lon":5.406297,"is_reserved":false,"is_disabled":false,"rental_uris":{"android":"levelo://app?vid=5d688962-049d-4fff-85f5-9a49fd012e0e","ios":"levelo://app?vid=5d688962-049d-4fff-85f5-9a49fd012e0e"},"vehicle_type_id":"4","last_reported":1685160444,"current_range_meters":16800,"station_id":"ce4bhq92rcd13ifvqhjg","pricing_plan_id":"free"},{"bike_id":"3ee711d4-e8c4-460e-bf6e-e7dd093413a8","system_id":"levelo_inurba_marseille","lat":43.28813,"lon":5.39173,"is_reserved":false,"is_disabled":false,"rental_uris":{"android":"levelo://app?vid=3ee711d4-e8c4-460e-bf6e-e7dd093413a8","ios":"levelo://app?vid=3ee711d4-e8c4-460e-bf6e-e7dd093413a8"},"vehicle_type_id":"4","last_reported":1685160444,"current_range_meters":0,"station_id":"","pricing_plan_id":"free"},{"bike_id":"ae801b52-e192-419f-988e-df52e71f9e3b","system_id":"levelo_inurba_marseille","lat":43.323464,"lon":5.406297,"is_reserved":false,"is_disabled":false,"rental_uris":{"android":"levelo://app?vid=ae801b52-e192-419f-988e-df52e71f9e3b","ios":"levelo://app?vid=ae801b52-e192-419f-988e-df52e71f9e3b"},"vehicle_type_id":"4","last_reported":1685160444,"current_range_meters":28000,"station_id":"ce4bhq92rcd13ifvqhjg","pricing_plan_id":"free"},{"bike_id":"879270a9-f3d5-4fbd-87f6-2ab604ed569b","system_id":"levelo_inurba_marseille","lat":43.323464,"lon":5.406297,"is_reserved":false,"is_disabled":false,"rental_uris":{"android":"levelo://app?vid=879270a9-f3d5-4fbd-87f6-2ab604ed569b","ios":"levelo://app?vid=879270a9-f3d5-4fbd-87f6-2ab604ed569b"},"vehicle_type_id":"4","last_reported":1685160444,"current_range_meters":29600,"station_id":"ce4bhq92rcd13ifvqhjg","pricing_plan_id":"free"},{"bike_id":"b2b4c97d-4feb-49ce-8ac2-9614480a179c","system_id":"levelo_inurba_marseille","lat":43.323464,"lon":5.406297,"is_reserved":false,"is_disabled":false,"rental_uris":{"android":"levelo://app?vid=b2b4c97d-4feb-49ce-8ac2-9614480a179c","ios":"levelo://app?vid=b2b4c97d-4feb-49ce-8ac2-9614480a179c"},"vehicle_type_id":"4","last_reported":1685160444,"current_range_meters":31200,"station_id":"ce4bhq92rcd13ifvqhjg","pricing_plan_id":"free"},{"bike_id":"f7643fda-0266-4755-82bf-fcd27a6a7f7a","system_id":"levelo_inurba_marseille","lat":43.323464,"lon":5.406297,"is_reserved":false,"is_disabled":false,"rental_uris":{"android":"levelo://app?vid=f7643fda-0266-4755-82bf-fcd27a6a7f7a","ios":"levelo://app?vid=f7643fda-0266-4755-82bf-fcd27a6a7f7a"},"vehicle_type_id":"4","last_reported":1685160444,"current_range_meters":28000,"station_id":"ce4bhq92rcd13ifvqhjg","pricing_plan_id":"free"},{"bike_id":"50441a7c-bb9b-41ca-98a7-5176a7d4524e","system_id":"levelo_inurba_marseille","lat":43.3373,"lon":5.39194,"is_reserved":false,"is_disabled":false,"rental_uris":{"android":"levelo://app?vid=50441a7c-bb9b-41ca-98a7-5176a7d4524e","ios":"levelo://app?vid=50441a7c-bb9b-41ca-98a7-5176a7d4524e"},"vehicle_type_id":"4","last_reported":1685160444,"current_range_meters":18800,"station_id":"","pricing_plan_id":"free"},{"bike_id":"f57ef959-0b8a-4c31-a71f-3fecce5dd84a","system_id":"levelo_inurba_marseille","lat":43.28474,"lon":5.38444,"is_reserved":false,"is_disabled":false,"rental_uris":{"android":"levelo://app?vid=f57ef959-0b8a-4c31-a71f-3fecce5dd84a","ios":"levelo://app?vid=f57ef959-0b8a-4c31-a71f-3fecce5dd84a"},"vehicle_type_id":"4","last_reported":1685160444,"current_range_meters":0,"station_id":"ce4bh512rcd13ifvqe3g","pricing_plan_id":"free"},{"bike_id":"ea0b39b2-cedb-43ea-af4a-bda2113cb111","system_id":"levelo_inurba_marseille","lat":43.284793,"lon":5.384119,"is_reserved":false,"is_disabled":false,"rental_uris":{"android":"levelo://app?vid=ea0b39b2-cedb-43ea-af4a-bda2113cb111","ios":"levelo://app?vid=ea0b39b2-cedb-43ea-af4a-bda2113cb111"},"vehicle_type_id":"4","last_reported":1685160444,"current_range_meters":24800,"station_id":"ce4bh512rcd13ifvqe3g","pricing_plan_id":"free"},{"bike_id":"7b376725-d905-4883-8c92-3765e8ba8216","system_id":"levelo_inurba_marseille","lat":43.283498,"lon":5.380948,"is_reserved":false,"is_disabled":false,"rental_uris":{"android":"levelo://app?vid=7b376725-d905-4883-8c92-3765e8ba8216","ios":"levelo://app?vid=7b376725-d905-4883-8c92-3765e8ba8216"},"vehicle_type_id":"4","last_reported":1685160444,"current_range_meters":31600,"station_id":"ce4bh412rcd13ifvqdr0","pricing_plan_id":"free"},{"bike_id":"4080e28d-2860-42ac-839e-14f6003e611e","system_id":"levelo_inurba_marseille","lat":43.284219,"lon":5.3497,"is_reserved":false,"is_disabled":false,"rental_uris":{"android":"levelo://app?vid=4080e28d-2860-42ac-839e-14f6003e611e","ios":"levelo://app?vid=4080e28d-2860-42ac-839e-14f6003e611e"},"vehicle_type_id":"4","last_reported":1685160444,"current_range_meters":30400,"station_id":"ce4bhbh2rcd13ifvqepg","pricing_plan_id":"free"},{"bike_id":"7b113544-6eab-4044-994e-93c5a1145307","system_id":"levelo_inurba_marseille","lat":43.283494,"lon":5.380945,"is_reserved":false,"is_disabled":false,"rental_uris":{"android":"levelo://app?vid=7b113544-6eab-4044-994e-93c5a1145307","ios":"levelo://app?vid=7b113544-6eab-4044-994e-93c5a1145307"},"vehicle_type_id":"4","last_reported":1685160444,"current_range_meters":29200,"station_id":"ce4bh412rcd13ifvqdr0","pricing_plan_id":"free"},{"bike_id":"204b318d-2df0-4d66-ba92-9ab9c3f27acc","system_id":"levelo_inurba_marseille","lat":43.284219,"lon":5.3497,"is_reserved":false,"is_disabled":false,"rental_uris":{"android":"levelo://app?vid=204b318d-2df0-4d66-ba92-9ab9c3f27acc","ios":"levelo://app?vid=204b318d-2df0-4d66-ba92-9ab9c3f27acc"},"vehicle_type_id":"4","last_reported":1685160444,"current_range_meters":30400,"station_id":"ce4bhbh2rcd13ifvqepg","pricing_plan_id":"free"},{"bike_id":"86336e90-c707-4249-a43c-75147d406afe","system_id":"levelo_inurba_marseille","lat":43.289363,"lon":5.396322,"is_reserved":false,"is_disabled":false,"rental_uris":{"android":"levelo://app?vid=86336e90-c707-4249-a43c-75147d406afe","ios":"levelo://app?vid=86336e90-c707-4249-a43c-75147d406afe"},"vehicle_type_id":"4","last_reported":1685160444,"current_range_meters":24800,"station_id":"ce4bh3h2rcd13ifvqdn0","pricing_plan_id":"free"},{"bike_id":"c94bd58b-8fbd-4df6-8937-d0f1424c003b","system_id":"levelo_inurba_marseille","lat":43.289363,"lon":5.396322,"is_reserved":false,"is_disabled":false,"rental_uris":{"android":"levelo://app?vid=c94bd58b-8fbd-4df6-8937-d0f1424c003b","ios":"levelo://app?vid=c94bd58b-8fbd-4df6-8937-d0f1424c003b"},"vehicle_type_id":"4","last_reported":1685160444,"current_range_meters":31600,"station_id":"ce4bh3h2rcd13ifvqdn0","pricing_plan_id":"free"},{"bike_id":"1bb83647-bc05-4b1d-a75e-ebfe2939c795","system_id":"levelo_inurba_marseille","lat":43.289363,"lon":5.396322,"is_reserved":false,"is_disabled":false,"rental_uris":{"android":"levelo://app?vid=1bb83647-bc05-4b1d-a75e-ebfe2939c795","ios":"levelo://app?vid=1bb83647-bc05-4b1d-a75e-ebfe2939c795"},"vehicle_type_id":"4","last_reported":1685160444,"current_range_meters":23600,"station_id":"ce4bh3h2rcd13ifvqdn0","pricing_plan_id":"free"},{"bike_id":"d79573db-cc1b-4793-9cad-b8447964c925","system_id":"levelo_inurba_marseille","lat":43.289363,"lon":5.396322,"is_reserved":false,"is_disabled":false,"rental_uris":{"android":"levelo://app?vid=d79573db-cc1b-4793-9cad-b8447964c925","ios":"levelo://app?vid=d79573db-cc1b-4793-9cad-b8447964c925"},"vehicle_type_id":"4","last_reported":1685160444,"current_range_meters":28000,"station_id":"ce4bh3h2rcd13ifvqdn0","pricing_plan_id":"free"},{"bike_id":"9119a3f0-f170-448a-9aad-c9c5a14a5eb4","system_id":"levelo_inurba_marseille","lat":43.292724,"lon":5.401131,"is_reserved":false,"is_disabled":false,"rental_uris":{"android":"levelo://app?vid=9119a3f0-f170-448a-9aad-c9c5a14a5eb4","ios":"levelo://app?vid=9119a3f0-f170-448a-9aad-c9c5a14a5eb4"},"vehicle_type_id":"4","last_reported":1685160444,"current_range_meters":26800,"station_id":"ce4bh312rcd13ifvqdk0","pricing_plan_id":"free"},{"bike_id":"0b922366-ceee-4059-9319-187e2691ba2c","system_id":"levelo_inurba_marseille","lat":43.292724,"lon":5.401131,"is_reserved":false,"is_disabled":false,"rental_uris":{"android":"levelo://app?vid=0b922366-ceee-4059-9319-187e2691ba2c","ios":"levelo://app?vid=0b922366-ceee-4059-9319-187e2691ba2c"},"vehicle_type_id":"4","last_reported":1685160444,"current_range_meters":30000,"station_id":"ce4bh312rcd13ifvqdk0","pricing_plan_id":"free"},{"bike_id":"33a69924-33b1-420c-8fed-86c4b57e6599","system_id":"levelo_inurba_marseille","lat":43.282744,"lon":5.350533,"is_reserved":false,"is_disabled":false,"rental_uris":{"android":"levelo://app?vid=33a69924-33b1-420c-8fed-86c4b57e6599","ios":"levelo://app?vid=33a69924-33b1-420c-8fed-86c4b57e6599"},"vehicle_type_id":"4","last_reported":1685160444,"current_range_meters":30400,"station_id":"ce4bhbp2rcd13ifvqerg","pricing_plan_id":"free"},{"bike_id":"970d3671-60d6-4607-b7eb-63318cc30196","system_id":"levelo_inurba_marseille","lat":43.292724,"lon":5.401131,"is_reserved":false,"is_disabled":false,"rental_uris":{"android":"levelo://app?vid=970d3671-60d6-4607-b7eb-63318cc30196","ios":"levelo://app?vid=970d3671-60d6-4607-b7eb-63318cc30196"},"vehicle_type_id":"4","last_reported":1685160444,"current_range_meters":20800,"station_id":"ce4bh312rcd13ifvqdk0","pricing_plan_id":"free"},{"bike_id":"d988c244-3cc1-461d-96dd-22c7504823f7","system_id":"levelo_inurba_marseille","lat":43.292724,"lon":5.401131,"is_reserved":false,"is_disabled":false,"rental_uris":{"android":"levelo://app?vid=d988c244-3cc1-461d-96dd-22c7504823f7","ios":"levelo://app?vid=d988c244-3cc1-461d-96dd-22c7504823f7"},"vehicle_type_id":"4","last_reported":1685160444,"current_range_meters":28400,"station_id":"ce4bh312rcd13ifvqdk0","pricing_plan_id":"free"},{"bike_id":"7d2d7c40-49aa-47af-939c-e72c3ea9b59c","system_id":"levelo_inurba_marseille","lat":43.29265,"lon":5.40141,"is_reserved":false,"is_disabled":false,"rental_uris":{"android":"levelo://app?vid=7d2d7c40-49aa-47af-939c-e72c3ea9b59c","ios":"levelo://app?vid=7d2d7c40-49aa-47af-939c-e72c3ea9b59c"},"vehicle_type_id":"4","last_reported":1685160444,"current_range_meters":0,"station_id":"ce4bh312rcd13ifvqdk0","pricing_plan_id":"free"},{"bike_id":"78e0e238-b2a3-4497-840c-a5a70abc8cc4","system_id":"levelo_inurba_marseille","lat":43.292724,"lon":5.401131,"is_reserved":false,"is_disabled":false,"rental_uris":{"android":"levelo://app?vid=78e0e238-b2a3-4497-840c-a5a70abc8cc4","ios":"levelo://app?vid=78e0e238-b2a3-4497-840c-a5a70abc8cc4"},"vehicle_type_id":"4","last_reported":1685160444,"current_range_meters":28400,"station_id":"ce4bh312rcd13ifvqdk0","pricing_plan_id":"free"},{"bike_id":"656e1fa8-ea14-42f3-8ff2-918b12891e1b","system_id":"levelo_inurba_marseille","lat":43.292724,"lon":5.401131,"is_reserved":false,"is_disabled":false,"rental_uris":{"android":"levelo://app?vid=656e1fa8-ea14-42f3-8ff2-918b12891e1b","ios":"levelo://app?vid=656e1fa8-ea14-42f3-8ff2-918b12891e1b"},"vehicle_type_id":"4","last_reported":1685160444,"current_range_meters":28800,"station_id":"ce4bh312rcd13ifvqdk0","pricing_plan_id":"free"},{"bike_id":"df7f48d6-d3a3-4dfa-aa7a-61559b0f8ca1","system_id":"levelo_inurba_marseille","lat":43.292724,"lon":5.401131,"is_reserved":false,"is_disabled":false,"rental_uris":{"android":"levelo://app?vid=df7f48d6-d3a3-4dfa-aa7a-61559b0f8ca1","ios":"levelo://app?vid=df7f48d6-d3a3-4dfa-aa7a-61559b0f8ca1"},"vehicle_type_id":"4","last_reported":1685160444,"current_range_meters":26800,"station_id":"ce4bh312rcd13ifvqdk0","pricing_plan_id":"free"},{"bike_id":"4f9a0629-93d3-4eb1-b384-e94d6dd532cf","system_id":"levelo_inurba_marseille","lat":43.282754,"lon":5.350519,"is_reserved":false,"is_disabled":false,"rental_uris":{"android":"levelo://app?vid=4f9a0629-93d3-4eb1-b384-e94d6dd532cf","ios":"levelo://app?vid=4f9a0629-93d3-4eb1-b384-e94d6dd532cf"},"vehicle_type_id":"4","last_reported":1685160444,"current_range_meters":31200,"station_id":"ce4bhbp2rcd13ifvqerg","pricing_plan_id":"free"},{"bike_id":"ed71355f-7910-45c0-8dc8-23907d31d116","system_id":"levelo_inurba_marseille","lat":43.282754,"lon":5.350519,"is_reserved":false,"is_disabled":false,"rental_uris":{"android":"levelo://app?vid=ed71355f-7910-45c0-8dc8-23907d31d116","ios":"levelo://app?vid=ed71355f-7910-45c0-8dc8-23907d31d116"},"vehicle_type_id":"4","last_reported":1685160444,"current_range_meters":26800,"station_id":"ce4bhbp2rcd13ifvqerg","pricing_plan_id":"free"},{"bike_id":"7e930153-8d6d-4d63-85b8-250eea778e1d","system_id":"levelo_inurba_marseille","lat":43.282754,"lon":5.350519,"is_reserved":false,"is_disabled":false,"rental_uris":{"android":"levelo://app?vid=7e930153-8d6d-4d63-85b8-250eea778e1d","ios":"levelo://app?vid=7e930153-8d6d-4d63-85b8-250eea778e1d"},"vehicle_type_id":"4","last_reported":1685160444,"current_range_meters":28000,"station_id":"ce4bhbp2rcd13ifvqerg","pricing_plan_id":"free"},{"bike_id":"bb484526-cfc9-4f6f-9c56-1e984839205d","system_id":"levelo_inurba_marseille","lat":43.282744,"lon":5.350533,"is_reserved":false,"is_disabled":false,"rental_uris":{"android":"levelo://app?vid=bb484526-cfc9-4f6f-9c56-1e984839205d","ios":"levelo://app?vid=bb484526-cfc9-4f6f-9c56-1e984839205d"},"vehicle_type_id":"4","last_reported":1685160444,"current_range_meters":30400,"station_id":"ce4bhbp2rcd13ifvqerg","pricing_plan_id":"free"},{"bike_id":"f1184c74-8b52-4930-847d-a161e807fd5c","system_id":"levelo_inurba_marseille","lat":43.282754,"lon":5.350519,"is_reserved":false,"is_disabled":false,"rental_uris":{"android":"levelo://app?vid=f1184c74-8b52-4930-847d-a161e807fd5c","ios":"levelo://app?vid=f1184c74-8b52-4930-847d-a161e807fd5c"},"vehicle_type_id":"4","last_reported":1685160444,"current_range_meters":31200,"station_id":"ce4bhbp2rcd13ifvqerg","pricing_plan_id":"free"},{"bike_id":"8424e3dc-7f1f-4c18-a24d-d9ec17d150ac","system_id":"levelo_inurba_marseille","lat":43.282744,"lon":5.350533,"is_reserved":false,"is_disabled":false,"rental_uris":{"android":"levelo://app?vid=8424e3dc-7f1f-4c18-a24d-d9ec17d150ac","ios":"levelo://app?vid=8424e3dc-7f1f-4c18-a24d-d9ec17d150ac"},"vehicle_type_id":"4","last_reported":1685160444,"current_range_meters":28800,"station_id":"ce4bhbp2rcd13ifvqerg","pricing_plan_id":"free"},{"bike_id":"27ddecbd-d632-458d-9763-eaac3bceed42","system_id":"levelo_inurba_marseille","lat":43.282754,"lon":5.350519,"is_reserved":false,"is_disabled":false,"rental_uris":{"android":"levelo://app?vid=27ddecbd-d632-458d-9763-eaac3bceed42","ios":"levelo://app?vid=27ddecbd-d632-458d-9763-eaac3bceed42"},"vehicle_type_id":"4","last_reported":1685160444,"current_range_meters":26800,"station_id":"ce4bhbp2rcd13ifvqerg","pricing_plan_id":"free"},{"bike_id":"f0ad7a79-16c3-43df-bb4d-8e6fe7552922","system_id":"levelo_inurba_marseille","lat":43.282754,"lon":5.350519,"is_reserved":false,"is_disabled":false,"rental_uris":{"android":"levelo://app?vid=f0ad7a79-16c3-43df-bb4d-8e6fe7552922","ios":"levelo://app?vid=f0ad7a79-16c3-43df-bb4d-8e6fe7552922"},"vehicle_type_id":"4","last_reported":1685160444,"current_range_meters":32000,"station_id":"ce4bhbp2rcd13ifvqerg","pricing_plan_id":"free"},{"bike_id":"bb7839f8-e0be-41be-bc82-82776e1bd2ec","system_id":"levelo_inurba_marseille","lat":43.283502,"lon":5.386471,"is_reserved":false,"is_disabled":false,"rental_uris":{"android":"levelo://app?vid=bb7839f8-e0be-41be-bc82-82776e1bd2ec","ios":"levelo://app?vid=bb7839f8-e0be-41be-bc82-82776e1bd2ec"},"vehicle_type_id":"4","last_reported":1685160444,"current_range_meters":23600,"station_id":"ce4bh492rcd13ifvqdvg","pricing_plan_id":"free"},{"bike_id":"0db18a4e-4960-4f4c-ab07-178c17824c02","system_id":"levelo_inurba_marseille","lat":43.282754,"lon":5.350519,"is_reserved":false,"is_disabled":false,"rental_uris":{"android":"levelo://app?vid=0db18a4e-4960-4f4c-ab07-178c17824c02","ios":"levelo://app?vid=0db18a4e-4960-4f4c-ab07-178c17824c02"},"vehicle_type_id":"4","last_reported":1685160444,"current_range_meters":23600,"station_id":"ce4bhbp2rcd13ifvqerg","pricing_plan_id":"free"},{"bike_id":"5a27fdce-49b5-4293-9c77-3ef406c28893","system_id":"levelo_inurba_marseille","lat":43.282754,"lon":5.350519,"is_reserved":false,"is_disabled":false,"rental_uris":{"android":"levelo://app?vid=5a27fdce-49b5-4293-9c77-3ef406c28893","ios":"levelo://app?vid=5a27fdce-49b5-4293-9c77-3ef406c28893"},"vehicle_type_id":"4","last_reported":1685160444,"current_range_meters":31200,"station_id":"ce4bhbp2rcd13ifvqerg","pricing_plan_id":"free"},{"bike_id":"5be2dc27-9f4e-4fbb-bdff-00717014c0d2","system_id":"levelo_inurba_marseille","lat":43.282744,"lon":5.350533,"is_reserved":false,"is_disabled":false,"rental_uris":{"android":"levelo://app?vid=5be2dc27-9f4e-4fbb-bdff-00717014c0d2","ios":"levelo://app?vid=5be2dc27-9f4e-4fbb-bdff-00717014c0d2"},"vehicle_type_id":"4","last_reported":1685160444,"current_range_meters":14800,"station_id":"ce4bhbp2rcd13ifvqerg","pricing_plan_id":"free"},{"bike_id":"d45f58aa-c07c-4d88-8a3c-10477c83ff0d","system_id":"levelo_inurba_marseille","lat":43.282754,"lon":5.350519,"is_reserved":false,"is_disabled":false,"rental_uris":{"android":"levelo://app?vid=d45f58aa-c07c-4d88-8a3c-10477c83ff0d","ios":"levelo://app?vid=d45f58aa-c07c-4d88-8a3c-10477c83ff0d"},"vehicle_type_id":"4","last_reported":1685160444,"current_range_meters":31200,"station_id":"ce4bhbp2rcd13ifvqerg","pricing_plan_id":"free"},{"bike_id":"55be6f43-b1e5-4bb6-b8d4-a36e15050183","system_id":"levelo_inurba_marseille","lat":43.283502,"lon":5.386471,"is_reserved":false,"is_disabled":false,"rental_uris":{"android":"levelo://app?vid=55be6f43-b1e5-4bb6-b8d4-a36e15050183","ios":"levelo://app?vid=55be6f43-b1e5-4bb6-b8d4-a36e15050183"},"vehicle_type_id":"4","last_reported":1685160444,"current_range_meters":28000,"station_id":"ce4bh492rcd13ifvqdvg","pricing_plan_id":"free"},{"bike_id":"e8a3ba42-10c4-44c0-acea-5694daad8460","system_id":"levelo_inurba_marseille","lat":43.28042,"lon":5.36941,"is_reserved":false,"is_disabled":false,"rental_uris":{"android":"levelo://app?vid=e8a3ba42-10c4-44c0-acea-5694daad8460","ios":"levelo://app?vid=e8a3ba42-10c4-44c0-acea-5694daad8460"},"vehicle_type_id":"4","last_reported":1685160444,"current_range_meters":29200,"station_id":"ce4bha12rcd13ifvqef0","pricing_plan_id":"free"},{"bike_id":"b0400a98-af0c-4c42-831c-19342d8ab57d","system_id":"levelo_inurba_marseille","lat":43.28039,"lon":5.369297,"is_reserved":false,"is_disabled":false,"rental_uris":{"android":"levelo://app?vid=b0400a98-af0c-4c42-831c-19342d8ab57d","ios":"levelo://app?vid=b0400a98-af0c-4c42-831c-19342d8ab57d"},"vehicle_type_id":"4","last_reported":1685160444,"current_range_meters":27600,"station_id":"ce4bha12rcd13ifvqef0","pricing_plan_id":"free"},{"bike_id":"4d86ce40-e406-44d0-9e2e-59dcfae65e59","system_id":"levelo_inurba_marseille","lat":43.29041,"lon":5.39947,"is_reserved":false,"is_disabled":false,"rental_uris":{"android":"levelo://app?vid=4d86ce40-e406-44d0-9e2e-59dcfae65e59","ios":"levelo://app?vid=4d86ce40-e406-44d0-9e2e-59dcfae65e59"},"vehicle_type_id":"4","last_reported":1685160444,"current_range_meters":0,"station_id":"ce4bh392rcd13ifvqdm0","pricing_plan_id":"free"},{"bike_id":"09553393-c26a-46df-aaaf-0754d92a4e75","system_id":"levelo_inurba_marseille","lat":43.290412,"lon":5.399633,"is_reserved":false,"is_disabled":false,"rental_uris":{"android":"levelo://app?vid=09553393-c26a-46df-aaaf-0754d92a4e75","ios":"levelo://app?vid=09553393-c26a-46df-aaaf-0754d92a4e75"},"vehicle_type_id":"4","last_reported":1685160444,"current_range_meters":28800,"station_id":"ce4bh392rcd13ifvqdm0","pricing_plan_id":"free"},{"bike_id":"b4d47a3f-5a59-44e4-9856-449b8913a1a9","system_id":"levelo_inurba_marseille","lat":43.29041,"lon":5.399634,"is_reserved":false,"is_disabled":false,"rental_uris":{"android":"levelo://app?vid=b4d47a3f-5a59-44e4-9856-449b8913a1a9","ios":"levelo://app?vid=b4d47a3f-5a59-44e4-9856-449b8913a1a9"},"vehicle_type_id":"4","last_reported":1685160444,"current_range_meters":10800,"station_id":"ce4bh392rcd13ifvqdm0","pricing_plan_id":"free"},{"bike_id":"cb8eec23-6763-496e-8c9d-31690f63768b","system_id":"levelo_inurba_marseille","lat":43.281044,"lon":5.378308,"is_reserved":false,"is_disabled":false,"rental_uris":{"android":"levelo://app?vid=cb8eec23-6763-496e-8c9d-31690f63768b","ios":"levelo://app?vid=cb8eec23-6763-496e-8c9d-31690f63768b"},"vehicle_type_id":"4","last_reported":1685160444,"current_range_meters":22800,"station_id":"ce4bha12rcd13ifvqee0","pricing_plan_id":"free"},{"bike_id":"d75c5d2c-e2c1-4449-83d9-e6ab0f3fbc7e","system_id":"levelo_inurba_marseille","lat":43.281044,"lon":5.378308,"is_reserved":false,"is_disabled":false,"rental_uris":{"android":"levelo://app?vid=d75c5d2c-e2c1-4449-83d9-e6ab0f3fbc7e","ios":"levelo://app?vid=d75c5d2c-e2c1-4449-83d9-e6ab0f3fbc7e"},"vehicle_type_id":"4","last_reported":1685160444,"current_range_meters":31200,"station_id":"ce4bha12rcd13ifvqee0","pricing_plan_id":"free"},{"bike_id":"2f42fb67-7e50-4a9a-be8a-e4b1dab1832d","system_id":"levelo_inurba_marseille","lat":43.281044,"lon":5.378308,"is_reserved":false,"is_disabled":false,"rental_uris":{"android":"levelo://app?vid=2f42fb67-7e50-4a9a-be8a-e4b1dab1832d","ios":"levelo://app?vid=2f42fb67-7e50-4a9a-be8a-e4b1dab1832d"},"vehicle_type_id":"4","last_reported":1685160444,"current_range_meters":31200,"station_id":"ce4bha12rcd13ifvqee0","pricing_plan_id":"free"},{"bike_id":"b445d36b-15dd-4e14-a2de-d8a40bee3808","system_id":"levelo_inurba_marseille","lat":43.281044,"lon":5.378308,"is_reserved":false,"is_disabled":false,"rental_uris":{"android":"levelo://app?vid=b445d36b-15dd-4e14-a2de-d8a40bee3808","ios":"levelo://app?vid=b445d36b-15dd-4e14-a2de-d8a40bee3808"},"vehicle_type_id":"4","last_reported":1685160444,"current_range_meters":23200,"station_id":"ce4bha12rcd13ifvqee0","pricing_plan_id":"free"},{"bike_id":"df03f69d-d32b-49e2-8dcc-c0beceb30041","system_id":"levelo_inurba_marseille","lat":43.281044,"lon":5.378308,"is_reserved":false,"is_disabled":false,"rental_uris":{"android":"levelo://app?vid=df03f69d-d32b-49e2-8dcc-c0beceb30041","ios":"levelo://app?vid=df03f69d-d32b-49e2-8dcc-c0beceb30041"},"vehicle_type_id":"4","last_reported":1685160444,"current_range_meters":16400,"station_id":"ce4bha12rcd13ifvqee0","pricing_plan_id":"free"},{"bike_id":"323cfaeb-8a44-4b62-972a-ba09af835fc4","system_id":"levelo_inurba_marseille","lat":43.281044,"lon":5.378308,"is_reserved":false,"is_disabled":false,"rental_uris":{"android":"levelo://app?vid=323cfaeb-8a44-4b62-972a-ba09af835fc4","ios":"levelo://app?vid=323cfaeb-8a44-4b62-972a-ba09af835fc4"},"vehicle_type_id":"4","last_reported":1685160444,"current_range_meters":31200,"station_id":"ce4bha12rcd13ifvqee0","pricing_plan_id":"free"},{"bike_id":"84ec1851-fafb-4168-8906-6d7a440c0fe7","system_id":"levelo_inurba_marseille","lat":43.28099,"lon":5.37846,"is_reserved":false,"is_disabled":false,"rental_uris":{"android":"levelo://app?vid=84ec1851-fafb-4168-8906-6d7a440c0fe7","ios":"levelo://app?vid=84ec1851-fafb-4168-8906-6d7a440c0fe7"},"vehicle_type_id":"4","last_reported":1685160444,"current_range_meters":31200,"station_id":"ce4bha12rcd13ifvqee0","pricing_plan_id":"free"},{"bike_id":"02ffe92c-edee-40a0-be19-efcef9dc6efd","system_id":"levelo_inurba_marseille","lat":43.281044,"lon":5.378308,"is_reserved":false,"is_disabled":false,"rental_uris":{"android":"levelo://app?vid=02ffe92c-edee-40a0-be19-efcef9dc6efd","ios":"levelo://app?vid=02ffe92c-edee-40a0-be19-efcef9dc6efd"},"vehicle_type_id":"4","last_reported":1685160444,"current_range_meters":30400,"station_id":"ce4bha12rcd13ifvqee0","pricing_plan_id":"free"},{"bike_id":"8f41c514-aa14-4761-923e-8911f12380ae","system_id":"levelo_inurba_marseille","lat":43.281044,"lon":5.378308,"is_reserved":false,"is_disabled":false,"rental_uris":{"android":"levelo://app?vid=8f41c514-aa14-4761-923e-8911f12380ae","ios":"levelo://app?vid=8f41c514-aa14-4761-923e-8911f12380ae"},"vehicle_type_id":"4","last_reported":1685160444,"current_range_meters":31200,"station_id":"ce4bha12rcd13ifvqee0","pricing_plan_id":"free"},{"bike_id":"f07ac72c-d72e-4e4d-8a63-908be3e7fe0f","system_id":"levelo_inurba_marseille","lat":43.28097,"lon":5.37846,"is_reserved":false,"is_disabled":false,"rental_uris":{"android":"levelo://app?vid=f07ac72c-d72e-4e4d-8a63-908be3e7fe0f","ios":"levelo://app?vid=f07ac72c-d72e-4e4d-8a63-908be3e7fe0f"},"vehicle_type_id":"4","last_reported":1685160444,"current_range_meters":28400,"station_id":"ce4bha12rcd13ifvqee0","pricing_plan_id":"free"},{"bike_id":"c0dce46e-5855-4d62-9fc7-72dc1d6af6e0","system_id":"levelo_inurba_marseille","lat":43.296263,"lon":5.40601,"is_reserved":false,"is_disabled":false,"rental_uris":{"android":"levelo://app?vid=c0dce46e-5855-4d62-9fc7-72dc1d6af6e0","ios":"levelo://app?vid=c0dce46e-5855-4d62-9fc7-72dc1d6af6e0"},"vehicle_type_id":"4","last_reported":1685160444,"current_range_meters":20800,"station_id":"ce4bh0h2rcd13ifvqd60","pricing_plan_id":"free"},{"bike_id":"d1cd2b19-b6fb-467c-ba45-63d99b94d985","system_id":"levelo_inurba_marseille","lat":43.28096,"lon":5.37852,"is_reserved":false,"is_disabled":false,"rental_uris":{"android":"levelo://app?vid=d1cd2b19-b6fb-467c-ba45-63d99b94d985","ios":"levelo://app?vid=d1cd2b19-b6fb-467c-ba45-63d99b94d985"},"vehicle_type_id":"4","last_reported":1685160444,"current_range_meters":31200,"station_id":"ce4bha12rcd13ifvqee0","pricing_plan_id":"free"},{"bike_id":"d907dc81-067b-4de5-9dfa-74bdebf1946d","system_id":"levelo_inurba_marseille","lat":43.296263,"lon":5.40601,"is_reserved":false,"is_disabled":false,"rental_uris":{"android":"levelo://app?vid=d907dc81-067b-4de5-9dfa-74bdebf1946d","ios":"levelo://app?vid=d907dc81-067b-4de5-9dfa-74bdebf1946d"},"vehicle_type_id":"4","last_reported":1685160444,"current_range_meters":28400,"station_id":"ce4bh0h2rcd13ifvqd60","pricing_plan_id":"free"},{"bike_id":"325d11bc-4278-4838-8a45-806ef6eba70a","system_id":"levelo_inurba_marseille","lat":43.296263,"lon":5.40601,"is_reserved":false,"is_disabled":false,"rental_uris":{"android":"levelo://app?vid=325d11bc-4278-4838-8a45-806ef6eba70a","ios":"levelo://app?vid=325d11bc-4278-4838-8a45-806ef6eba70a"},"vehicle_type_id":"4","last_reported":1685160444,"current_range_meters":30800,"station_id":"ce4bh0h2rcd13ifvqd60","pricing_plan_id":"free"},{"bike_id":"5c99c1b8-bcbe-47d0-bc17-9adcbd1663a7","system_id":"levelo_inurba_marseille","lat":43.296263,"lon":5.40601,"is_reserved":false,"is_disabled":false,"rental_uris":{"android":"levelo://app?vid=5c99c1b8-bcbe-47d0-bc17-9adcbd1663a7","ios":"levelo://app?vid=5c99c1b8-bcbe-47d0-bc17-9adcbd1663a7"},"vehicle_type_id":"4","last_reported":1685160444,"current_range_meters":10400,"station_id":"ce4bh0h2rcd13ifvqd60","pricing_plan_id":"free"},{"bike_id":"976254bc-d84c-40e7-88b6-52c03416c965","system_id":"levelo_inurba_marseille","lat":43.32122,"lon":5.41086,"is_reserved":false,"is_disabled":false,"rental_uris":{"android":"levelo://app?vid=976254bc-d84c-40e7-88b6-52c03416c965","ios":"levelo://app?vid=976254bc-d84c-40e7-88b6-52c03416c965"},"vehicle_type_id":"4","last_reported":1685160444,"current_range_meters":10000,"station_id":"","pricing_plan_id":"free"},{"bike_id":"1aae93d9-42e6-4f6f-a2d1-98ff933a77e6","system_id":"levelo_inurba_marseille","lat":43.284462,"lon":5.392121,"is_reserved":false,"is_disabled":false,"rental_uris":{"android":"levelo://app?vid=1aae93d9-42e6-4f6f-a2d1-98ff933a77e6","ios":"levelo://app?vid=1aae93d9-42e6-4f6f-a2d1-98ff933a77e6"},"vehicle_type_id":"4","last_reported":1685160444,"current_range_meters":31200,"station_id":"ce4bhoh2rcd13ifvqh5g","pricing_plan_id":"free"},{"bike_id":"e89181d3-ca2d-4a87-807d-2588c1253eb3","system_id":"levelo_inurba_marseille","lat":43.284462,"lon":5.392121,"is_reserved":false,"is_disabled":false,"rental_uris":{"android":"levelo://app?vid=e89181d3-ca2d-4a87-807d-2588c1253eb3","ios":"levelo://app?vid=e89181d3-ca2d-4a87-807d-2588c1253eb3"},"vehicle_type_id":"4","last_reported":1685160444,"current_range_meters":31200,"station_id":"ce4bhoh2rcd13ifvqh5g","pricing_plan_id":"free"},{"bike_id":"c9890851-61ba-4366-b00a-e964dbe97002","system_id":"levelo_inurba_marseille","lat":43.284462,"lon":5.392121,"is_reserved":false,"is_disabled":false,"rental_uris":{"android":"levelo://app?vid=c9890851-61ba-4366-b00a-e964dbe97002","ios":"levelo://app?vid=c9890851-61ba-4366-b00a-e964dbe97002"},"vehicle_type_id":"4","last_reported":1685160444,"current_range_meters":31200,"station_id":"ce4bhoh2rcd13ifvqh5g","pricing_plan_id":"free"},{"bike_id":"0060afdf-9274-4bc2-9e4d-85d350aca9b0","system_id":"levelo_inurba_marseille","lat":43.284462,"lon":5.392121,"is_reserved":false,"is_disabled":false,"rental_uris":{"android":"levelo://app?vid=0060afdf-9274-4bc2-9e4d-85d350aca9b0","ios":"levelo://app?vid=0060afdf-9274-4bc2-9e4d-85d350aca9b0"},"vehicle_type_id":"4","last_reported":1685160444,"current_range_meters":16400,"station_id":"ce4bhoh2rcd13ifvqh5g","pricing_plan_id":"free"},{"bike_id":"7e66b6b5-700c-4328-a5da-b67e1e8507c9","system_id":"levelo_inurba_marseille","lat":43.284462,"lon":5.392121,"is_reserved":false,"is_disabled":false,"rental_uris":{"android":"levelo://app?vid=7e66b6b5-700c-4328-a5da-b67e1e8507c9","ios":"levelo://app?vid=7e66b6b5-700c-4328-a5da-b67e1e8507c9"},"vehicle_type_id":"4","last_reported":1685160444,"current_range_meters":30400,"station_id":"ce4bhoh2rcd13ifvqh5g","pricing_plan_id":"free"},{"bike_id":"e3a68845-096f-484e-a2eb-a878577c5104","system_id":"levelo_inurba_marseille","lat":43.284462,"lon":5.392121,"is_reserved":false,"is_disabled":false,"rental_uris":{"android":"levelo://app?vid=e3a68845-096f-484e-a2eb-a878577c5104","ios":"levelo://app?vid=e3a68845-096f-484e-a2eb-a878577c5104"},"vehicle_type_id":"4","last_reported":1685160444,"current_range_meters":22000,"station_id":"ce4bhoh2rcd13ifvqh5g","pricing_plan_id":"free"},{"bike_id":"a64971d0-cbb1-4172-819f-6cbf335f6a4c","system_id":"levelo_inurba_marseille","lat":43.28573,"lon":5.394992,"is_reserved":false,"is_disabled":false,"rental_uris":{"android":"levelo://app?vid=a64971d0-cbb1-4172-819f-6cbf335f6a4c","ios":"levelo://app?vid=a64971d0-cbb1-4172-819f-6cbf335f6a4c"},"vehicle_type_id":"4","last_reported":1685160444,"current_range_meters":24400,"station_id":"ce4bh292rcd13ifvqdg0","pricing_plan_id":"free"},{"bike_id":"fc7e0243-af9f-444e-aaa9-f138f98246e6","system_id":"levelo_inurba_marseille","lat":43.285742,"lon":5.395004,"is_reserved":false,"is_disabled":false,"rental_uris":{"android":"levelo://app?vid=fc7e0243-af9f-444e-aaa9-f138f98246e6","ios":"levelo://app?vid=fc7e0243-af9f-444e-aaa9-f138f98246e6"},"vehicle_type_id":"4","last_reported":1685160444,"current_range_meters":29200,"station_id":"ce4bh292rcd13ifvqdg0","pricing_plan_id":"free"},{"bike_id":"8182f375-cb4c-4c24-a3fe-8475889b4cde","system_id":"levelo_inurba_marseille","lat":43.285742,"lon":5.395004,"is_reserved":false,"is_disabled":false,"rental_uris":{"android":"levelo://app?vid=8182f375-cb4c-4c24-a3fe-8475889b4cde","ios":"levelo://app?vid=8182f375-cb4c-4c24-a3fe-8475889b4cde"},"vehicle_type_id":"4","last_reported":1685160444,"current_range_meters":29200,"station_id":"ce4bh292rcd13ifvqdg0","pricing_plan_id":"free"},{"bike_id":"8ca01983-4637-4492-8767-610c58afef78","system_id":"levelo_inurba_marseille","lat":43.304188,"lon":5.412904,"is_reserved":false,"is_disabled":false,"rental_uris":{"android":"levelo://app?vid=8ca01983-4637-4492-8767-610c58afef78","ios":"levelo://app?vid=8ca01983-4637-4492-8767-610c58afef78"},"vehicle_type_id":"4","last_reported":1685160444,"current_range_meters":22000,"station_id":"ce4bhop2rcd13ifvqh8g","pricing_plan_id":"free"},{"bike_id":"e258a718-2ac6-4ce6-b447-df609ee652b6","system_id":"levelo_inurba_marseille","lat":43.304188,"lon":5.412904,"is_reserved":false,"is_disabled":false,"rental_uris":{"android":"levelo://app?vid=e258a718-2ac6-4ce6-b447-df609ee652b6","ios":"levelo://app?vid=e258a718-2ac6-4ce6-b447-df609ee652b6"},"vehicle_type_id":"4","last_reported":1685160444,"current_range_meters":24400,"station_id":"ce4bhop2rcd13ifvqh8g","pricing_plan_id":"free"},{"bike_id":"d34e1b9b-2f50-4627-b58b-63ca67f36f86","system_id":"levelo_inurba_marseille","lat":43.30412,"lon":5.41281,"is_reserved":false,"is_disabled":false,"rental_uris":{"android":"levelo://app?vid=d34e1b9b-2f50-4627-b58b-63ca67f36f86","ios":"levelo://app?vid=d34e1b9b-2f50-4627-b58b-63ca67f36f86"},"vehicle_type_id":"4","last_reported":1685160444,"current_range_meters":0,"station_id":"ce4bhop2rcd13ifvqh8g","pricing_plan_id":"free"},{"bike_id":"3d6afcea-6ab8-4617-bbdf-9ad70ac4187b","system_id":"levelo_inurba_marseille","lat":43.304188,"lon":5.412904,"is_reserved":false,"is_disabled":false,"rental_uris":{"android":"levelo://app?vid=3d6afcea-6ab8-4617-bbdf-9ad70ac4187b","ios":"levelo://app?vid=3d6afcea-6ab8-4617-bbdf-9ad70ac4187b"},"vehicle_type_id":"4","last_reported":1685160444,"current_range_meters":10400,"station_id":"ce4bhop2rcd13ifvqh8g","pricing_plan_id":"free"},{"bike_id":"bb09308a-bd56-4210-b775-985e78e5e469","system_id":"levelo_inurba_marseille","lat":43.304188,"lon":5.412904,"is_reserved":false,"is_disabled":false,"rental_uris":{"android":"levelo://app?vid=bb09308a-bd56-4210-b775-985e78e5e469","ios":"levelo://app?vid=bb09308a-bd56-4210-b775-985e78e5e469"},"vehicle_type_id":"4","last_reported":1685160444,"current_range_meters":6000,"station_id":"ce4bhop2rcd13ifvqh8g","pricing_plan_id":"free"},{"bike_id":"4fcbbd2a-fd77-4b8b-8966-4187f423eae8","system_id":"levelo_inurba_marseille","lat":43.28714,"lon":5.39979,"is_reserved":false,"is_disabled":false,"rental_uris":{"android":"levelo://app?vid=4fcbbd2a-fd77-4b8b-8966-4187f423eae8","ios":"levelo://app?vid=4fcbbd2a-fd77-4b8b-8966-4187f423eae8"},"vehicle_type_id":"4","last_reported":1685160444,"current_range_meters":5600,"station_id":"ce4bho92rcd13ifvqh3g","pricing_plan_id":"free"},{"bike_id":"af348f6a-6b42-424b-ac57-fc0b2efa170b","system_id":"levelo_inurba_marseille","lat":43.287154,"lon":5.399979,"is_reserved":false,"is_disabled":false,"rental_uris":{"android":"levelo://app?vid=af348f6a-6b42-424b-ac57-fc0b2efa170b","ios":"levelo://app?vid=af348f6a-6b42-424b-ac57-fc0b2efa170b"},"vehicle_type_id":"4","last_reported":1685160444,"current_range_meters":23200,"station_id":"ce4bho92rcd13ifvqh3g","pricing_plan_id":"free"},{"bike_id":"f261c8fe-2a68-4ed6-b039-4d946d9e744a","system_id":"levelo_inurba_marseille","lat":43.28704,"lon":5.39978,"is_reserved":false,"is_disabled":false,"rental_uris":{"android":"levelo://app?vid=f261c8fe-2a68-4ed6-b039-4d946d9e744a","ios":"levelo://app?vid=f261c8fe-2a68-4ed6-b039-4d946d9e744a"},"vehicle_type_id":"4","last_reported":1685160444,"current_range_meters":29600,"station_id":"ce4bho92rcd13ifvqh3g","pricing_plan_id":"free"},{"bike_id":"d2b6e072-7e34-4e52-83cc-10dfaf2a574d","system_id":"levelo_inurba_marseille","lat":43.287118,"lon":5.399901,"is_reserved":false,"is_disabled":false,"rental_uris":{"android":"levelo://app?vid=d2b6e072-7e34-4e52-83cc-10dfaf2a574d","ios":"levelo://app?vid=d2b6e072-7e34-4e52-83cc-10dfaf2a574d"},"vehicle_type_id":"4","last_reported":1685160444,"current_range_meters":27600,"station_id":"ce4bho92rcd13ifvqh3g","pricing_plan_id":"free"},{"bike_id":"55ef8691-f264-481c-9a11-40cb592032a3","system_id":"levelo_inurba_marseille","lat":43.28708,"lon":5.3999,"is_reserved":false,"is_disabled":false,"rental_uris":{"android":"levelo://app?vid=55ef8691-f264-481c-9a11-40cb592032a3","ios":"levelo://app?vid=55ef8691-f264-481c-9a11-40cb592032a3"},"vehicle_type_id":"4","last_reported":1685160444,"current_range_meters":31200,"station_id":"ce4bho92rcd13ifvqh3g","pricing_plan_id":"free"},{"bike_id":"5a42253c-099c-4c5d-859d-567872562c29","system_id":"levelo_inurba_marseille","lat":43.28704,"lon":5.39986,"is_reserved":false,"is_disabled":false,"rental_uris":{"android":"levelo://app?vid=5a42253c-099c-4c5d-859d-567872562c29","ios":"levelo://app?vid=5a42253c-099c-4c5d-859d-567872562c29"},"vehicle_type_id":"4","last_reported":1685160444,"current_range_meters":20400,"station_id":"ce4bho92rcd13ifvqh3g","pricing_plan_id":"free"},{"bike_id":"ac3963b2-be8c-498c-ae2f-09e027148ade","system_id":"levelo_inurba_marseille","lat":43.287061,"lon":5.399911,"is_reserved":false,"is_disabled":false,"rental_uris":{"android":"levelo://app?vid=ac3963b2-be8c-498c-ae2f-09e027148ade","ios":"levelo://app?vid=ac3963b2-be8c-498c-ae2f-09e027148ade"},"vehicle_type_id":"4","last_reported":1685160444,"current_range_meters":6400,"station_id":"","pricing_plan_id":"free"},{"bike_id":"44847ab4-dd17-49a4-b33b-1745fa72cfc1","system_id":"levelo_inurba_marseille","lat":43.287154,"lon":5.399979,"is_reserved":false,"is_disabled":false,"rental_uris":{"android":"levelo://app?vid=44847ab4-dd17-49a4-b33b-1745fa72cfc1","ios":"levelo://app?vid=44847ab4-dd17-49a4-b33b-1745fa72cfc1"},"vehicle_type_id":"4","last_reported":1685160444,"current_range_meters":31200,"station_id":"ce4bho92rcd13ifvqh3g","pricing_plan_id":"free"},{"bike_id":"b57ea7c8-00e7-4b71-8fa9-9e0d9272f6ea","system_id":"levelo_inurba_marseille","lat":43.2871,"lon":5.39997,"is_reserved":false,"is_disabled":false,"rental_uris":{"android":"levelo://app?vid=b57ea7c8-00e7-4b71-8fa9-9e0d9272f6ea","ios":"levelo://app?vid=b57ea7c8-00e7-4b71-8fa9-9e0d9272f6ea"},"vehicle_type_id":"4","last_reported":1685160444,"current_range_meters":31200,"station_id":"ce4bho92rcd13ifvqh3g","pricing_plan_id":"free"},{"bike_id":"529cf632-b73e-499c-9a94-237f6f923f94","system_id":"levelo_inurba_marseille","lat":43.287154,"lon":5.399979,"is_reserved":false,"is_disabled":false,"rental_uris":{"android":"levelo://app?vid=529cf632-b73e-499c-9a94-237f6f923f94","ios":"levelo://app?vid=529cf632-b73e-499c-9a94-237f6f923f94"},"vehicle_type_id":"4","last_reported":1685160444,"current_range_meters":27600,"station_id":"ce4bho92rcd13ifvqh3g","pricing_plan_id":"free"},{"bike_id":"4208cf45-bfb2-42b4-a59e-2d870a44089d","system_id":"levelo_inurba_marseille","lat":43.287154,"lon":5.399979,"is_reserved":false,"is_disabled":false,"rental_uris":{"android":"levelo://app?vid=4208cf45-bfb2-42b4-a59e-2d870a44089d","ios":"levelo://app?vid=4208cf45-bfb2-42b4-a59e-2d870a44089d"},"vehicle_type_id":"4","last_reported":1685160444,"current_range_meters":24400,"station_id":"ce4bho92rcd13ifvqh3g","pricing_plan_id":"free"},{"bike_id":"81e1e2b8-6542-4f6b-8f7a-9eaab41c34c8","system_id":"levelo_inurba_marseille","lat":43.287154,"lon":5.399979,"is_reserved":false,"is_disabled":false,"rental_uris":{"android":"levelo://app?vid=81e1e2b8-6542-4f6b-8f7a-9eaab41c34c8","ios":"levelo://app?vid=81e1e2b8-6542-4f6b-8f7a-9eaab41c34c8"},"vehicle_type_id":"4","last_reported":1685160444,"current_range_meters":30800,"station_id":"ce4bho92rcd13ifvqh3g","pricing_plan_id":"free"},{"bike_id":"cb956b86-65f4-4da8-b5c5-c7452cd50080","system_id":"levelo_inurba_marseille","lat":43.287154,"lon":5.399979,"is_reserved":false,"is_disabled":false,"rental_uris":{"android":"levelo://app?vid=cb956b86-65f4-4da8-b5c5-c7452cd50080","ios":"levelo://app?vid=cb956b86-65f4-4da8-b5c5-c7452cd50080"},"vehicle_type_id":"4","last_reported":1685160444,"current_range_meters":23600,"station_id":"ce4bho92rcd13ifvqh3g","pricing_plan_id":"free"},{"bike_id":"c1e04982-e52a-4ba3-81eb-8addb16c8bf4","system_id":"levelo_inurba_marseille","lat":43.287154,"lon":5.399979,"is_reserved":false,"is_disabled":false,"rental_uris":{"android":"levelo://app?vid=c1e04982-e52a-4ba3-81eb-8addb16c8bf4","ios":"levelo://app?vid=c1e04982-e52a-4ba3-81eb-8addb16c8bf4"},"vehicle_type_id":"4","last_reported":1685160444,"current_range_meters":26400,"station_id":"ce4bho92rcd13ifvqh3g","pricing_plan_id":"free"},{"bike_id":"0fd491e2-2725-4e35-bf76-b72863147782","system_id":"levelo_inurba_marseille","lat":43.287154,"lon":5.399979,"is_reserved":false,"is_disabled":false,"rental_uris":{"android":"levelo://app?vid=0fd491e2-2725-4e35-bf76-b72863147782","ios":"levelo://app?vid=0fd491e2-2725-4e35-bf76-b72863147782"},"vehicle_type_id":"4","last_reported":1685160444,"current_range_meters":31200,"station_id":"ce4bho92rcd13ifvqh3g","pricing_plan_id":"free"},{"bike_id":"14c10f25-1cd8-479b-a190-b5803b5862fa","system_id":"levelo_inurba_marseille","lat":43.287154,"lon":5.399979,"is_reserved":false,"is_disabled":false,"rental_uris":{"android":"levelo://app?vid=14c10f25-1cd8-479b-a190-b5803b5862fa","ios":"levelo://app?vid=14c10f25-1cd8-479b-a190-b5803b5862fa"},"vehicle_type_id":"4","last_reported":1685160444,"current_range_meters":28800,"station_id":"ce4bho92rcd13ifvqh3g","pricing_plan_id":"free"},{"bike_id":"ede29c99-b1e0-423e-9d45-e216622c8664","system_id":"levelo_inurba_marseille","lat":43.287154,"lon":5.399979,"is_reserved":false,"is_disabled":false,"rental_uris":{"android":"levelo://app?vid=ede29c99-b1e0-423e-9d45-e216622c8664","ios":"levelo://app?vid=ede29c99-b1e0-423e-9d45-e216622c8664"},"vehicle_type_id":"4","last_reported":1685160444,"current_range_meters":31200,"station_id":"ce4bho92rcd13ifvqh3g","pricing_plan_id":"free"},