{"last_updated":1703282800,"ttl":30,"version":"2.2","data":{"bikes":[{"bike_id":"c91d9173-956e-4e6e-96f0-d03ea9a68939","system_id":"levelo_inurba_marseille","lat":43.312239,"lon":5.368562,"is_reserved":false,"is_disabled":false,"rental_uris":{"android":"levelo://app?vid=c91d9173-956e-4e6e-96f0-d03ea9a68939","ios":"levelo://app?vid=c91d9173-956e-4e6e-96f0-d03ea9a68939"},"vehicle_type_id":"4","last_reported":1703282800,"current_range_meters":16000,"station_id":"ce4bgl92rcd13ifvqbq0","pricing_plan_id":"free"},{"bike_id":"697e2cfc-3140-482d-85e9-5ef4b3c17f25","system_id":"levelo_inurba_marseille","lat":43.309039,"lon":5.371797,"is_reserved":false,"is_disabled":false,"rental_uris":{"android":"levelo://app?vid=697e2cfc-3140-482d-85e9-5ef4b3c17f25","ios":"levelo://app?vid=697e2cfc-3140-482d-85e9-5ef4b3c17f25"},"vehicle_type_id":"4","last_reported":1703282800,"current_range_meters":25200,"station_id":"ce4bguh2rcd13ifvqckg","pricing_plan_id":"free"},{"bike_id":"9bee6855-e7a7-4898-9aa2-1a642541e5f2","system_id":"levelo_inurba_marseille","lat":43.309039,"lon":5.371797,"is_reserved":false,"is_disabled":false,"rental_uris":{"android":"levelo://app?vid=9bee6855-e7a7-4898-9aa2-1a642541e5f2","ios":"levelo://app?vid=9bee6855-e7a7-4898-9aa2-1a642541e5f2"},"vehicle_type_id":"4","last_reported":1703282800,"current_range_meters":30400,"station_id":"ce4bguh2rcd13ifvqckg","pricing_plan_id":"free"},{"bike_id":"84fab048-41f9-41ea-b2a8-5ddf2253aa11","system_id":"levelo_inurba_marseille","lat":43.309039,"lon":5.371797,"is_reserved":false,"is_disabled":false,"rental_uris":{"android":"levelo://app?vid=84fab048-41f9-41ea-b2a8-5ddf2253aa11","ios":"levelo://app?vid=84fab048-41f9-41ea-b2a8-5ddf2253aa11"},"vehicle_type_id":"4","last_reported":1703282800,"current_range_meters":22400,"station_id":"ce4bguh2rcd13ifvqckg","pricing_plan_id":"free"},{"bike_id":"1ea026f7-d936-4455-ae92-061aa91aea8f","system_id":"levelo_inurba_marseille","lat":43.311125,"lon":5.377624,"is_reserved":false,"is_disabled":false,"rental_uris":{"android":"levelo://app?vid=1ea026f7-d936-4455-ae92-061aa91aea8f","ios":"levelo://app?vid=1ea026f7-d936-4455-ae92-061aa91aea8f"},"vehicle_type_id":"4","last_reported":1703282800,"current_range_meters":20400,"station_id":"ce4bgt92rcd13ifvqcg0","pricing_plan_id":"free"},{"bike_id":"fb118b0a-db0f-4e92-a91a-a6fadc82352a","system_id":"levelo_inurba_marseille","lat":43.311131,"lon":5.377651,"is_reserved":false,"is_disabled":false,"rental_uris":{"android":"levelo://app?vid=fb118b0a-db0f-4e92-a91a-a6fadc82352a","ios":"levelo://app?vid=fb118b0a-db0f-4e92-a91a-a6fadc82352a"},"vehicle_type_id":"4","last_reported":1703282800,"current_range_meters":8400,"station_id":"ce4bgt92rcd13ifvqcg0","pricing_plan_id":"free"},{"bike_id":"31064d41-982a-4d68-957c-a6ab36a1327f","system_id":"levelo_inurba_marseille","lat":43.317075,"lon":5.377367,"is_reserved":false,"is_disabled":false,"rental_uris":{"android":"levelo://app?vid=31064d41-982a-4d68-957c-a6ab36a1327f","ios":"levelo://app?vid=31064d41-982a-4d68-957c-a6ab36a1327f"},"vehicle_type_id":"4","last_reported":1703282800,"current_range_meters":30000,"station_id":"ce4bgth2rcd13ifvqch0","pricing_plan_id":"free"},{"bike_id":"bc74c432-90ab-4b82-bc0b-9716a4ccf6b2","system_id":"levelo_inurba_marseille","lat":43.317075,"lon":5.377367,"is_reserved":false,"is_disabled":false,"rental_uris":{"android":"levelo://app?vid=bc74c432-90ab-4b82-bc0b-9716a4ccf6b2","ios":"levelo://app?vid=bc74c432-90ab-4b82-bc0b-9716a4ccf6b2"},"vehicle_type_id":"4","last_reported":1703282800,"current_range_meters":17200,"station_id":"ce4bgth2rcd13ifvqch0","pricing_plan_id":"free"},{"bike_id":"cf28ca03-6df3-4dbf-a190-bbac42653145","system_id":"levelo_inurba_marseille","lat":43.301939,"lon":5.366286,"is_reserved":false,"is_disabled":false,"rental_uris":{"android":"levelo://app?vid=cf28ca03-6df3-4dbf-a190-bbac42653145","ios":"levelo://app?vid=cf28ca03-6df3-4dbf-a190-bbac42653145"},"vehicle_type_id":"4","last_reported":1703282800,"current_range_meters":2400,"station_id":"ce4bgrh2rcd13ifvqc8g","pricing_plan_id":"free"},{"bike_id":"a2d4010b-d632-4190-828a-b8e8886b1c9c","system_id":"levelo_inurba_marseille","lat":43.308012,"lon":5.381511,"is_reserved":false,"is_disabled":false,"rental_uris":{"android":"levelo://app?vid=a2d4010b-d632-4190-828a-b8e8886b1c9c","ios":"levelo://app?vid=a2d4010b-d632-4190-828a-b8e8886b1c9c"},"vehicle_type_id":"4","last_reported":1703282800,"current_range_meters":0,"station_id":"ce4bgt12rcd13ifvqce0","pricing_plan_id":"free"},{"bike_id":"d2a20330-7d63-4c58-b62b-0e00da829c12","system_id":"levelo_inurba_marseille","lat":43.308012,"lon":5.381511,"is_reserved":false,"is_disabled":false,"rental_uris":{"android":"levelo://app?vid=d2a20330-7d63-4c58-b62b-0e00da829c12","ios":"levelo://app?vid=d2a20330-7d63-4c58-b62b-0e00da829c12"},"vehicle_type_id":"4","last_reported":1703282800,"current_range_meters":23600,"station_id":"ce4bgt12rcd13ifvqce0","pricing_plan_id":"free"},{"bike_id":"00192217-4083-4c24-b3dc-41e4ad6320b2","system_id":"levelo_inurba_marseille","lat":43.304606,"lon":5.379026,"is_reserved":false,"is_disabled":false,"rental_uris":{"android":"levelo://app?vid=00192217-4083-4c24-b3dc-41e4ad6320b2","ios":"levelo://app?vid=00192217-4083-4c24-b3dc-41e4ad6320b2"},"vehicle_type_id":"4","last_reported":1703282800,"current_range_meters":27600,"station_id":"ce4bgup2rcd13ifvqcn0","pricing_plan_id":"free"},{"bike_id":"5173c815-5ad8-4866-809e-c9042bb14333","system_id":"levelo_inurba_marseille","lat":43.304606,"lon":5.379026,"is_reserved":false,"is_disabled":false,"rental_uris":{"android":"levelo://app?vid=5173c815-5ad8-4866-809e-c9042bb14333","ios":"levelo://app?vid=5173c815-5ad8-4866-809e-c9042bb14333"},"vehicle_type_id":"4","last_reported":1703282800,"current_range_meters":22400,"station_id":"ce4bgup2rcd13ifvqcn0","pricing_plan_id":"free"},{"bike_id":"6676e4b4-d3d7-408d-9354-9a08ef7e19d2","system_id":"levelo_inurba_marseille","lat":43.304606,"lon":5.379026,"is_reserved":false,"is_disabled":false,"rental_uris":{"android":"levelo://app?vid=6676e4b4-d3d7-408d-9354-9a08ef7e19d2","ios":"levelo://app?vid=6676e4b4-d3d7-408d-9354-9a08ef7e19d2"},"vehicle_type_id":"4","last_reported":1703282800,"current_range_meters":26000,"station_id":"ce4bgup2rcd13ifvqcn0","pricing_plan_id":"free"},{"bike_id":"f66b2c3a-dca4-44e4-83aa-0408996240b7","system_id":"levelo_inurba_marseille","lat":43.304606,"lon":5.379026,"is_reserved":false,"is_disabled":false,"rental_uris":{"android":"levelo://app?vid=f66b2c3a-dca4-44e4-83aa-0408996240b7","ios":"levelo://app?vid=f66b2c3a-dca4-44e4-83aa-0408996240b7"},"vehicle_type_id":"4","last_reported":1703282800,"current_range_meters":31200,"station_id":"ce4bgup2rcd13ifvqcn0","pricing_plan_id":"free"},{"bike_id":"0f12f4a1-9d18-4087-b872-4b0ae162eb1d","system_id":"levelo_inurba_marseille","lat":43.324771,"lon":5.36557,"is_reserved":false,"is_disabled":false,"rental_uris":{"android":"levelo://app?vid=0f12f4a1-9d18-4087-b872-4b0ae162eb1d","ios":"levelo://app?vid=0f12f4a1-9d18-4087-b872-4b0ae162eb1d"},"vehicle_type_id":"4","last_reported":1703282800,"current_range_meters":0,"station_id":"ce4bhs12rcd13ifvqhvg","pricing_plan_id":"free"},{"bike_id":"fc8ec5f1-5f09-4364-9576-3ec3ab394e4b","system_id":"levelo_inurba_marseille","lat":43.324771,"lon":5.36557,"is_reserved":false,"is_disabled":false,"rental_uris":{"android":"levelo://app?vid=fc8ec5f1-5f09-4364-9576-3ec3ab394e4b","ios":"levelo://app?vid=fc8ec5f1-5f09-4364-9576-3ec3ab394e4b"},"vehicle_type_id":"4","last_reported":1703282800,"current_range_meters":25200,"station_id":"ce4bhs12rcd13ifvqhvg","pricing_plan_id":"free"},{"bike_id":"4b176a2b-35a8-478e-93c2-e09cc8ed4702","system_id":"levelo_inurba_marseille","lat":43.302784,"lon":5.377158,"is_reserved":false,"is_disabled":false,"rental_uris":{"android":"levelo://app?vid=4b176a2b-35a8-478e-93c2-e09cc8ed4702","ios":"levelo://app?vid=4b176a2b-35a8-478e-93c2-e09cc8ed4702"},"vehicle_type_id":"4","last_reported":1703282800,"current_range_meters":800,"station_id":"ce4bguh2rcd13ifvqcj0","pricing_plan_id":"free"},{"bike_id":"69599836-e945-413a-a849-741769f44bc7","system_id":"levelo_inurba_marseille","lat":43.302784,"lon":5.377158,"is_reserved":false,"is_disabled":false,"rental_uris":{"android":"levelo://app?vid=69599836-e945-413a-a849-741769f44bc7","ios":"levelo://app?vid=69599836-e945-413a-a849-741769f44bc7"},"vehicle_type_id":"4","last_reported":1703282800,"current_range_meters":17200,"station_id":"ce4bguh2rcd13ifvqcj0","pricing_plan_id":"free"},{"bike_id":"a007f74f-8188-4986-bcf7-d8f09aba2c84","system_id":"levelo_inurba_marseille","lat":43.30143,"lon":5.37413,"is_reserved":false,"is_disabled":false,"rental_uris":{"android":"levelo://app?vid=a007f74f-8188-4986-bcf7-d8f09aba2c84","ios":"levelo://app?vid=a007f74f-8188-4986-bcf7-d8f09aba2c84"},"vehicle_type_id":"4","last_reported":1703282800,"current_range_meters":26800,"station_id":"ce4bgs92rcd13ifvqcc0","pricing_plan_id":"free"},{"bike_id":"dc0f6af5-c02c-4610-baea-e5c6ca16f530","system_id":"levelo_inurba_marseille","lat":43.3199,"lon":5.381454,"is_reserved":false,"is_disabled":false,"rental_uris":{"android":"levelo://app?vid=dc0f6af5-c02c-4610-baea-e5c6ca16f530","ios":"levelo://app?vid=dc0f6af5-c02c-4610-baea-e5c6ca16f530"},"vehicle_type_id":"4","last_reported":1703282800,"current_range_meters":27600,"station_id":"ce4bhr12rcd13ifvqhpg","pricing_plan_id":"free"},{"bike_id":"c616a760-5d15-46bb-9d75-552ebc124cb7","system_id":"levelo_inurba_marseille","lat":43.319935,"lon":5.381699,"is_reserved":false,"is_disabled":false,"rental_uris":{"android":"levelo://app?vid=c616a760-5d15-46bb-9d75-552ebc124cb7","ios":"levelo://app?vid=c616a760-5d15-46bb-9d75-552ebc124cb7"},"vehicle_type_id":"4","last_reported":1703282800,"current_range_meters":18800,"station_id":"ce4bhr12rcd13ifvqhpg","pricing_plan_id":"free"},{"bike_id":"9c231161-337f-4eba-87d3-44d75eaa84aa","system_id":"levelo_inurba_marseille","lat":43.319935,"lon":5.381699,"is_reserved":false,"is_disabled":false,"rental_uris":{"android":"levelo://app?vid=9c231161-337f-4eba-87d3-44d75eaa84aa","ios":"levelo://app?vid=9c231161-337f-4eba-87d3-44d75eaa84aa"},"vehicle_type_id":"4","last_reported":1703282800,"current_range_meters":30000,"station_id":"ce4bhr12rcd13ifvqhpg","pricing_plan_id":"free"},{"bike_id":"82b7c1aa-506b-4cff-953c-bb835d7847c3","system_id":"levelo_inurba_marseille","lat":43.319935,"lon":5.381699,"is_reserved":false,"is_disabled":false,"rental_uris":{"android":"levelo://app?vid=82b7c1aa-506b-4cff-953c-bb835d7847c3","ios":"levelo://app?vid=82b7c1aa-506b-4cff-953c-bb835d7847c3"},"vehicle_type_id":"4","last_reported":1703282800,"current_range_meters":13600,"station_id":"ce4bhr12rcd13ifvqhpg","pricing_plan_id":"free"},{"bike_id":"a4d91f4c-0227-4bc9-a904-969806ef4ac5","system_id":"levelo_inurba_marseille","lat":43.319935,"lon":5.381699,"is_reserved":false,"is_disabled":false,"rental_uris":{"android":"levelo://app?vid=a4d91f4c-0227-4bc9-a904-969806ef4ac5","ios":"levelo://app?vid=a4d91f4c-0227-4bc9-a904-969806ef4ac5"},"vehicle_type_id":"4","last_reported":1703282800,"current_range_meters":20800,"station_id":"ce4bhr12rcd13ifvqhpg","pricing_plan_id":"free"},{"bike_id":"0660b770-dd60-4e90-8802-23f4be821afa","system_id":"levelo_inurba_marseille","lat":43.319935,"lon":5.381699,"is_reserved":false,"is_disabled":false,"rental_uris":{"android":"levelo://app?vid=0660b770-dd60-4e90-8802-23f4be821afa","ios":"levelo://app?vid=0660b770-dd60-4e90-8802-23f4be821afa"},"vehicle_type_id":"4","last_reported":1703282800,"current_range_meters":5200,"station_id":"ce4bhr12rcd13ifvqhpg","pricing_plan_id":"free"},{"bike_id":"7f17d550-d32d-4490-8e9d-12fbd3d7571d","system_id":"levelo_inurba_marseille","lat":43.319935,"lon":5.381699,"is_reserved":false,"is_disabled":false,"rental_uris":{"android":"levelo://app?vid=7f17d550-d32d-4490-8e9d-12fbd3d7571d","ios":"levelo://app?vid=7f17d550-d32d-4490-8e9d-12fbd3d7571d"},"vehicle_type_id":"4","last_reported":1703282800,"current_range_meters":21200,"station_id":"ce4bhr12rcd13ifvqhpg","pricing_plan_id":"free"},{"bike_id":"965cf9c4-61d5-49c2-b8b1-76508d620af4","system_id":"levelo_inurba_marseille","lat":43.319935,"lon":5.381699,"is_reserved":false,"is_disabled":false,"rental_uris":{"android":"levelo://app?vid=965cf9c4-61d5-49c2-b8b1-76508d620af4","ios":"levelo://app?vid=965cf9c4-61d5-49c2-b8b1-76508d620af4"},"vehicle_type_id":"4","last_reported":1703282800,"current_range_meters":19600,"station_id":"ce4bhr12rcd13ifvqhpg","pricing_plan_id":"free"},{"bike_id":"aa45a0f2-bcac-49ac-839d-139aefb29921","system_id":"levelo_inurba_marseille","lat":43.313571,"lon":5.384829,"is_reserved":false,"is_disabled":false,"rental_uris":{"android":"levelo://app?vid=aa45a0f2-bcac-49ac-839d-139aefb29921","ios":"levelo://app?vid=aa45a0f2-bcac-49ac-839d-139aefb29921"},"vehicle_type_id":"4","last_reported":1703282800,"current_range_meters":16000,"station_id":"ce4bgt92rcd13ifvqcf0","pricing_plan_id":"free"},{"bike_id":"1e2ae72d-4a0f-4817-be6f-232d7ac49957","system_id":"levelo_inurba_marseille","lat":43.305364,"lon":5.384119,"is_reserved":false,"is_disabled":false,"rental_uris":{"android":"levelo://app?vid=1e2ae72d-4a0f-4817-be6f-232d7ac49957","ios":"levelo://app?vid=1e2ae72d-4a0f-4817-be6f-232d7ac49957"},"vehicle_type_id":"4","last_reported":1703282800,"current_range_meters":22800,"station_id":"ce4bgg92rcd13ifvqb30","pricing_plan_id":"free"},{"bike_id":"f55231a7-5d32-4ced-966b-a2c17847181e","system_id":"levelo_inurba_marseille","lat":43.311722,"lon":5.387247,"is_reserved":false,"is_disabled":false,"rental_uris":{"android":"levelo://app?vid=f55231a7-5d32-4ced-966b-a2c17847181e","ios":"levelo://app?vid=f55231a7-5d32-4ced-966b-a2c17847181e"},"vehicle_type_id":"4","last_reported":1703282800,"current_range_meters":24400,"station_id":"ce4bgv12rcd13ifvqcp0","pricing_plan_id":"free"},{"bike_id":"f5987233-1d3e-4901-8b4d-56e1ca83344b","system_id":"levelo_inurba_marseille","lat":43.322872,"lon":5.382756,"is_reserved":false,"is_disabled":false,"rental_uris":{"android":"levelo://app?vid=f5987233-1d3e-4901-8b4d-56e1ca83344b","ios":"levelo://app?vid=f5987233-1d3e-4901-8b4d-56e1ca83344b"},"vehicle_type_id":"4","last_reported":1703282800,"current_range_meters":31600,"station_id":"ce4bhr12rcd13ifvqhqg","pricing_plan_id":"free"},{"bike_id":"6ef56fd5-1a7c-4c71-8bf8-33afeff899ef","system_id":"levelo_inurba_marseille","lat":43.322872,"lon":5.382756,"is_reserved":false,"is_disabled":false,"rental_uris":{"android":"levelo://app?vid=6ef56fd5-1a7c-4c71-8bf8-33afeff899ef","ios":"levelo://app?vid=6ef56fd5-1a7c-4c71-8bf8-33afeff899ef"},"vehicle_type_id":"4","last_reported":1703282800,"current_range_meters":19200,"station_id":"ce4bhr12rcd13ifvqhqg","pricing_plan_id":"free"},{"bike_id":"e4cf6f6e-7d8c-4b7e-ab01-7de3c446c970","system_id":"levelo_inurba_marseille","lat":43.322872,"lon":5.382756,"is_reserved":false,"is_disabled":false,"rental_uris":{"android":"levelo://app?vid=e4cf6f6e-7d8c-4b7e-ab01-7de3c446c970","ios":"levelo://app?vid=e4cf6f6e-7d8c-4b7e-ab01-7de3c446c970"},"vehicle_type_id":"4","last_reported":1703282800,"current_range_meters":31200,"station_id":"ce4bhr12rcd13ifvqhqg","pricing_plan_id":"free"},{"bike_id":"62a0e181-56c1-4aad-a05b-240ecf27baec","system_id":"levelo_inurba_marseille","lat":43.322872,"lon":5.382756,"is_reserved":false,"is_disabled":false,"rental_uris":{"android":"levelo://app?vid=62a0e181-56c1-4aad-a05b-240ecf27baec","ios":"levelo://app?vid=62a0e181-56c1-4aad-a05b-240ecf27baec"},"vehicle_type_id":"4","last_reported":1703282800,"current_range_meters":31600,"station_id":"ce4bhr12rcd13ifvqhqg","pricing_plan_id":"free"},{"bike_id":"d728a8b4-bece-4be0-a14a-8abb6b425cd7","system_id":"levelo_inurba_marseille","lat":43.328371,"lon":5.366909,"is_reserved":false,"is_disabled":false,"rental_uris":{"android":"levelo://app?vid=d728a8b4-bece-4be0-a14a-8abb6b425cd7","ios":"levelo://app?vid=d728a8b4-bece-4be0-a14a-8abb6b425cd7"},"vehicle_type_id":"4","last_reported":1703282800,"current_range_meters":16000,"station_id":"ce4bhs92rcd13ifvqi0g","pricing_plan_id":"free"},{"bike_id":"6cba446c-9ee9-4546-8c3c-626825b73b1e","system_id":"levelo_inurba_marseille","lat":43.328371,"lon":5.366909,"is_reserved":false,"is_disabled":false,"rental_uris":{"android":"levelo://app?vid=6cba446c-9ee9-4546-8c3c-626825b73b1e","ios":"levelo://app?vid=6cba446c-9ee9-4546-8c3c-626825b73b1e"},"vehicle_type_id":"4","last_reported":1703282800,"current_range_meters":6000,"station_id":"ce4bhs92rcd13ifvqi0g","pricing_plan_id":"free"},{"bike_id":"aa3fb6e4-1c03-44e5-96a0-f8edc6b5e34f","system_id":"levelo_inurba_marseille","lat":43.328371,"lon":5.366909,"is_reserved":false,"is_disabled":false,"rental_uris":{"android":"levelo://app?vid=aa3fb6e4-1c03-44e5-96a0-f8edc6b5e34f","ios":"levelo://app?vid=aa3fb6e4-1c03-44e5-96a0-f8edc6b5e34f"},"vehicle_type_id":"4","last_reported":1703282800,"current_range_meters":400,"station_id":"ce4bhs92rcd13ifvqi0g","pricing_plan_id":"free"},{"bike_id":"d2be49f4-d512-450f-80de-370a6da97420","system_id":"levelo_inurba_marseille","lat":43.328371,"lon":5.366909,"is_reserved":false,"is_disabled":false,"rental_uris":{"android":"levelo://app?vid=d2be49f4-d512-450f-80de-370a6da97420","ios":"levelo://app?vid=d2be49f4-d512-450f-80de-370a6da97420"},"vehicle_type_id":"4","last_reported":1703282800,"current_range_meters":3600,"station_id":"ce4bhs92rcd13ifvqi0g","pricing_plan_id":"free"},{"bike_id":"525f6ec1-c089-48ad-8216-d8e073aa768d","system_id":"levelo_inurba_marseille","lat":43.32849,"lon":5.367113,"is_reserved":false,"is_disabled":false,"rental_uris":{"android":"levelo://app?vid=525f6ec1-c089-48ad-8216-d8e073aa768d","ios":"levelo://app?vid=525f6ec1-c089-48ad-8216-d8e073aa768d"},"vehicle_type_id":"4","last_reported":1703282800,"current_range_meters":4400,"station_id":"ce4bhs92rcd13ifvqi0g","pricing_plan_id":"free"},{"bike_id":"f5f48672-2c8e-4cb3-beef-288577373a8d","system_id":"levelo_inurba_marseille","lat":43.2968,"lon":5.37291,"is_reserved":false,"is_disabled":false,"rental_uris":{"android":"levelo://app?vid=f5f48672-2c8e-4cb3-beef-288577373a8d","ios":"levelo://app?vid=f5f48672-2c8e-4cb3-beef-288577373a8d"},"vehicle_type_id":"4","last_reported":1703282800,"current_range_meters":6800,"station_id":"ce4bgk12rcd13ifvqbj0","pricing_plan_id":"free"},{"bike_id":"156d9ead-45a7-434b-a21c-e340221d8806","system_id":"levelo_inurba_marseille","lat":43.2968,"lon":5.37291,"is_reserved":false,"is_disabled":false,"rental_uris":{"android":"levelo://app?vid=156d9ead-45a7-434b-a21c-e340221d8806","ios":"levelo://app?vid=156d9ead-45a7-434b-a21c-e340221d8806"},"vehicle_type_id":"4","last_reported":1703282800,"current_range_meters":13600,"station_id":"ce4bgk12rcd13ifvqbj0","pricing_plan_id":"free"},{"bike_id":"558ec63f-134c-4e7a-9858-e5ff95d1d8fa","system_id":"levelo_inurba_marseille","lat":43.296041,"lon":5.36783,"is_reserved":false,"is_disabled":false,"rental_uris":{"android":"levelo://app?vid=558ec63f-134c-4e7a-9858-e5ff95d1d8fa","ios":"levelo://app?vid=558ec63f-134c-4e7a-9858-e5ff95d1d8fa"},"vehicle_type_id":"4","last_reported":1703282800,"current_range_meters":12800,"station_id":"","pricing_plan_id":"free"},{"bike_id":"6e7c668c-6a14-4afc-be5a-87a32b65b643","system_id":"levelo_inurba_marseille","lat":43.296129,"lon":5.370777,"is_reserved":false,"is_disabled":false,"rental_uris":{"android":"levelo://app?vid=6e7c668c-6a14-4afc-be5a-87a32b65b643","ios":"levelo://app?vid=6e7c668c-6a14-4afc-be5a-87a32b65b643"},"vehicle_type_id":"4","last_reported":1703282800,"current_range_meters":5600,"station_id":"ce4bgnh2rcd13ifvqc0g","pricing_plan_id":"free"},{"bike_id":"b403e6b0-50a3-4e6a-80ff-538a53db017c","system_id":"levelo_inurba_marseille","lat":43.29587,"lon":5.36746,"is_reserved":false,"is_disabled":false,"rental_uris":{"android":"levelo://app?vid=b403e6b0-50a3-4e6a-80ff-538a53db017c","ios":"levelo://app?vid=b403e6b0-50a3-4e6a-80ff-538a53db017c"},"vehicle_type_id":"4","last_reported":1703282800,"current_range_meters":12400,"station_id":"ce4bgph2rcd13ifvqc2g","pricing_plan_id":"free"},{"bike_id":"b09a6aae-d323-47a7-88de-4468f828d1bc","system_id":"levelo_inurba_marseille","lat":43.299028,"lon":5.381509,"is_reserved":false,"is_disabled":false,"rental_uris":{"android":"levelo://app?vid=b09a6aae-d323-47a7-88de-4468f828d1bc","ios":"levelo://app?vid=b09a6aae-d323-47a7-88de-4468f828d1bc"},"vehicle_type_id":"4","last_reported":1703282800,"current_range_meters":29200,"station_id":"ce4bgj12rcd13ifvqbc0","pricing_plan_id":"free"},{"bike_id":"978bd87e-148d-4d12-929b-ed562b80b796","system_id":"levelo_inurba_marseille","lat":43.309589,"lon":5.390258,"is_reserved":false,"is_disabled":false,"rental_uris":{"android":"levelo://app?vid=978bd87e-148d-4d12-929b-ed562b80b796","ios":"levelo://app?vid=978bd87e-148d-4d12-929b-ed562b80b796"},"vehicle_type_id":"4","last_reported":1703282800,"current_range_meters":5600,"station_id":"ce4bgup2rcd13ifvqco0","pricing_plan_id":"free"},{"bike_id":"71c8a270-aa5c-408a-b73b-93cd4751a6b5","system_id":"levelo_inurba_marseille","lat":43.309589,"lon":5.390258,"is_reserved":false,"is_disabled":false,"rental_uris":{"android":"levelo://app?vid=71c8a270-aa5c-408a-b73b-93cd4751a6b5","ios":"levelo://app?vid=71c8a270-aa5c-408a-b73b-93cd4751a6b5"},"vehicle_type_id":"4","last_reported":1703282800,"current_range_meters":19600,"station_id":"ce4bgup2rcd13ifvqco0","pricing_plan_id":"free"},{"bike_id":"064ba6eb-7aa4-440c-88cc-23893acb7197","system_id":"levelo_inurba_marseille","lat":43.299028,"lon":5.381509,"is_reserved":false,"is_disabled":false,"rental_uris":{"android":"levelo://app?vid=064ba6eb-7aa4-440c-88cc-23893acb7197","ios":"levelo://app?vid=064ba6eb-7aa4-440c-88cc-23893acb7197"},"vehicle_type_id":"4","last_reported":1703282800,"current_range_meters":5200,"station_id":"ce4bgj12rcd13ifvqbc0","pricing_plan_id":"free"},{"bike_id":"b9c8fefe-fcf2-4e1c-95c9-c0ffed42221d","system_id":"levelo_inurba_marseille","lat":43.317557,"lon":5.390173,"is_reserved":false,"is_disabled":false,"rental_uris":{"android":"levelo://app?vid=b9c8fefe-fcf2-4e1c-95c9-c0ffed42221d","ios":"levelo://app?vid=b9c8fefe-fcf2-4e1c-95c9-c0ffed42221d"},"vehicle_type_id":"4","last_reported":1703282800,"current_range_meters":14400,"station_id":"ce4bhqp2rcd13ifvqhng","pricing_plan_id":"free"},{"bike_id":"62e22e3e-8174-4ec7-90f7-4445322daa77","system_id":"levelo_inurba_marseille","lat":43.317557,"lon":5.390173,"is_reserved":false,"is_disabled":false,"rental_uris":{"android":"levelo://app?vid=62e22e3e-8174-4ec7-90f7-4445322daa77","ios":"levelo://app?vid=62e22e3e-8174-4ec7-90f7-4445322daa77"},"vehicle_type_id":"4","last_reported":1703282800,"current_range_meters":25600,"station_id":"ce4bhqp2rcd13ifvqhng","pricing_plan_id":"free"},{"bike_id":"7eada8fb-8c59-41ea-ae15-1164bd9fc1af","system_id":"levelo_inurba_marseille","lat":43.32176,"lon":5.38767,"is_reserved":false,"is_disabled":false,"rental_uris":{"android":"levelo://app?vid=7eada8fb-8c59-41ea-ae15-1164bd9fc1af","ios":"levelo://app?vid=7eada8fb-8c59-41ea-ae15-1164bd9fc1af"},"vehicle_type_id":"4","last_reported":1703282800,"current_range_meters":29600,"station_id":"","pricing_plan_id":"free"},{"bike_id":"d39682ea-d8f1-45a4-b2b8-5a732fb091bc","system_id":"levelo_inurba_marseille","lat":43.317557,"lon":5.390173,"is_reserved":false,"is_disabled":false,"rental_uris":{"android":"levelo://app?vid=d39682ea-d8f1-45a4-b2b8-5a732fb091bc","ios":"levelo://app?vid=d39682ea-d8f1-45a4-b2b8-5a732fb091bc"},"vehicle_type_id":"4","last_reported":1703282800,"current_range_meters":31200,"station_id":"ce4bhqp2rcd13ifvqhng","pricing_plan_id":"free"},{"bike_id":"43855516-4c02-494d-aefa-3c215dbc6b85","system_id":"levelo_inurba_marseille","lat":43.317557,"lon":5.390173,"is_reserved":false,"is_disabled":false,"rental_uris":{"android":"levelo://app?vid=43855516-4c02-494d-aefa-3c215dbc6b85","ios":"levelo://app?vid=43855516-4c02-494d-aefa-3c215dbc6b85"},"vehicle_type_id":"4","last_reported":1703282800,"current_range_meters":800,"station_id":"ce4bhqp2rcd13ifvqhng","pricing_plan_id":"free"},{"bike_id":"ed9e0dce-523c-4fb1-af64-ee02f111f9d9","system_id":"levelo_inurba_marseille","lat":43.298037,"lon":5.381066,"is_reserved":false,"is_disabled":false,"rental_uris":{"android":"levelo://app?vid=ed9e0dce-523c-4fb1-af64-ee02f111f9d9","ios":"levelo://app?vid=ed9e0dce-523c-4fb1-af64-ee02f111f9d9"},"vehicle_type_id":"4","last_reported":1703282800,"current_range_meters":12800,"station_id":"ce4bgip2rcd13ifvqbb0","pricing_plan_id":"free"},{"bike_id":"cdb3d701-5381-4219-9cdd-c446bf2fa9ab","system_id":"levelo_inurba_marseille","lat":43.295329,"lon":5.361175,"is_reserved":false,"is_disabled":false,"rental_uris":{"android":"levelo://app?vid=cdb3d701-5381-4219-9cdd-c446bf2fa9ab","ios":"levelo://app?vid=cdb3d701-5381-4219-9cdd-c446bf2fa9ab"},"vehicle_type_id":"4","last_reported":1703282800,"current_range_meters":6800,"station_id":"","pricing_plan_id":"free"},{"bike_id":"b38a2a7c-0426-46ed-bf36-002fafc95283","system_id":"levelo_inurba_marseille","lat":43.298037,"lon":5.381066,"is_reserved":false,"is_disabled":false,"rental_uris":{"android":"levelo://app?vid=b38a2a7c-0426-46ed-bf36-002fafc95283","ios":"levelo://app?vid=b38a2a7c-0426-46ed-bf36-002fafc95283"},"vehicle_type_id":"4","last_reported":1703282800,"current_range_meters":10800,"station_id":"ce4bgip2rcd13ifvqbb0","pricing_plan_id":"free"},{"bike_id":"751abed5-dd5a-4e93-af76-564fc4c5a6ce","system_id":"levelo_inurba_marseille","lat":43.295748,"lon":5.37522,"is_reserved":false,"is_disabled":false,"rental_uris":{"android":"levelo://app?vid=751abed5-dd5a-4e93-af76-564fc4c5a6ce","ios":"levelo://app?vid=751abed5-dd5a-4e93-af76-564fc4c5a6ce"},"vehicle_type_id":"4","last_reported":1703282800,"current_range_meters":18400,"station_id":"ce4bgh92rcd13ifvqb50","pricing_plan_id":"free"},{"bike_id":"35234996-28b4-4f04-a912-c4ef5c649f4f","system_id":"levelo_inurba_marseille","lat":43.295748,"lon":5.37522,"is_reserved":false,"is_disabled":false,"rental_uris":{"android":"levelo://app?vid=35234996-28b4-4f04-a912-c4ef5c649f4f","ios":"levelo://app?vid=35234996-28b4-4f04-a912-c4ef5c649f4f"},"vehicle_type_id":"4","last_reported":1703282800,"current_range_meters":21600,"station_id":"ce4bgh92rcd13ifvqb50","pricing_plan_id":"free"},{"bike_id":"476ab6f7-9133-4ba3-8490-d8e96b8cf3d3","system_id":"levelo_inurba_marseille","lat":43.295748,"lon":5.37522,"is_reserved":false,"is_disabled":false,"rental_uris":{"android":"levelo://app?vid=476ab6f7-9133-4ba3-8490-d8e96b8cf3d3","ios":"levelo://app?vid=476ab6f7-9133-4ba3-8490-d8e96b8cf3d3"},"vehicle_type_id":"4","last_reported":1703282800,"current_range_meters":0,"station_id":"ce4bgh92rcd13ifvqb50","pricing_plan_id":"free"},{"bike_id":"90604aac-855a-476e-8ec3-49541958c0ba","system_id":"levelo_inurba_marseille","lat":43.295279,"lon":5.375048,"is_reserved":false,"is_disabled":false,"rental_uris":{"android":"levelo://app?vid=90604aac-855a-476e-8ec3-49541958c0ba","ios":"levelo://app?vid=90604aac-855a-476e-8ec3-49541958c0ba"},"vehicle_type_id":"4","last_reported":1703282800,"current_range_meters":22000,"station_id":"ce4bgkp2rcd13ifvqbmg","pricing_plan_id":"free"},{"bike_id":"1378810b-812d-44e5-847a-1b7aeb90e4c4","system_id":"levelo_inurba_marseille","lat":43.299,"lon":5.38357,"is_reserved":false,"is_disabled":false,"rental_uris":{"android":"levelo://app?vid=1378810b-812d-44e5-847a-1b7aeb90e4c4","ios":"levelo://app?vid=1378810b-812d-44e5-847a-1b7aeb90e4c4"},"vehicle_type_id":"4","last_reported":1703282800,"current_range_meters":0,"station_id":"","pricing_plan_id":"free"},{"bike_id":"af9499c7-8902-4195-acb2-149e7ab366df","system_id":"levelo_inurba_marseille","lat":43.295279,"lon":5.375048,"is_reserved":false,"is_disabled":false,"rental_uris":{"android":"levelo://app?vid=af9499c7-8902-4195-acb2-149e7ab366df","ios":"levelo://app?vid=af9499c7-8902-4195-acb2-149e7ab366df"},"vehicle_type_id":"4","last_reported":1703282800,"current_range_meters":31200,"station_id":"ce4bgkp2rcd13ifvqbmg","pricing_plan_id":"free"},{"bike_id":"fb803c70-a754-4cf5-8a7a-8c2b2c950940","system_id":"levelo_inurba_marseille","lat":43.295279,"lon":5.375048,"is_reserved":false,"is_disabled":false,"rental_uris":{"android":"levelo://app?vid=fb803c70-a754-4cf5-8a7a-8c2b2c950940","ios":"levelo://app?vid=fb803c70-a754-4cf5-8a7a-8c2b2c950940"},"vehicle_type_id":"4","last_reported":1703282800,"current_range_meters":8000,"station_id":"ce4bgkp2rcd13ifvqbmg","pricing_plan_id":"free"},{"bike_id":"2a213056-ee19-4ae3-bca7-0984aab96cbf","system_id":"levelo_inurba_marseille","lat":43.295279,"lon":5.375048,"is_reserved":false,"is_disabled":false,"rental_uris":{"android":"levelo://app?vid=2a213056-ee19-4ae3-bca7-0984aab96cbf","ios":"levelo://app?vid=2a213056-ee19-4ae3-bca7-0984aab96cbf"},"vehicle_type_id":"4","last_reported":1703282800,"current_range_meters":19600,"station_id":"ce4bgkp2rcd13ifvqbmg","pricing_plan_id":"free"},{"bike_id":"80bda835-1a54-4498-aa05-c858905f235e","system_id":"levelo_inurba_marseille","lat":43.295279,"lon":5.375048,"is_reserved":false,"is_disabled":false,"rental_uris":{"android":"levelo://app?vid=80bda835-1a54-4498-aa05-c858905f235e","ios":"levelo://app?vid=80bda835-1a54-4498-aa05-c858905f235e"},"vehicle_type_id":"4","last_reported":1703282800,"current_range_meters":10000,"station_id":"ce4bgkp2rcd13ifvqbmg","pricing_plan_id":"free"},{"bike_id":"dc576f31-c21e-42d2-97a4-815b145b7f58","system_id":"levelo_inurba_marseille","lat":43.32367,"lon":5.388836,"is_reserved":false,"is_disabled":false,"rental_uris":{"android":"levelo://app?vid=dc576f31-c21e-42d2-97a4-815b145b7f58","ios":"levelo://app?vid=dc576f31-c21e-42d2-97a4-815b145b7f58"},"vehicle_type_id":"4","last_reported":1703282800,"current_range_meters":1600,"station_id":"ce4bhqp2rcd13ifvqhog","pricing_plan_id":"free"},{"bike_id":"035ba96c-8560-4c70-973e-f7eb3e99c40c","system_id":"levelo_inurba_marseille","lat":43.32367,"lon":5.388836,"is_reserved":false,"is_disabled":false,"rental_uris":{"android":"levelo://app?vid=035ba96c-8560-4c70-973e-f7eb3e99c40c","ios":"levelo://app?vid=035ba96c-8560-4c70-973e-f7eb3e99c40c"},"vehicle_type_id":"4","last_reported":1703282800,"current_range_meters":20000,"station_id":"ce4bhqp2rcd13ifvqhog","pricing_plan_id":"free"},{"bike_id":"006fc528-e9d7-4df8-a8e0-9efbea4c2223","system_id":"levelo_inurba_marseille","lat":43.305994,"lon":5.393687,"is_reserved":false,"is_disabled":false,"rental_uris":{"android":"levelo://app?vid=006fc528-e9d7-4df8-a8e0-9efbea4c2223","ios":"levelo://app?vid=006fc528-e9d7-4df8-a8e0-9efbea4c2223"},"vehicle_type_id":"4","last_reported":1703282800,"current_range_meters":4800,"station_id":"ce4bh0p2rcd13ifvqd80","pricing_plan_id":"free"},{"bike_id":"63f2e51c-0352-46d1-8182-8d14819ab3c6","system_id":"levelo_inurba_marseille","lat":43.305994,"lon":5.393687,"is_reserved":false,"is_disabled":false,"rental_uris":{"android":"levelo://app?vid=63f2e51c-0352-46d1-8182-8d14819ab3c6","ios":"levelo://app?vid=63f2e51c-0352-46d1-8182-8d14819ab3c6"},"vehicle_type_id":"4","last_reported":1703282800,"current_range_meters":21200,"station_id":"ce4bh0p2rcd13ifvqd80","pricing_plan_id":"free"},{"bike_id":"c8a9e390-2bbf-4503-8caa-a5a326c429e9","system_id":"levelo_inurba_marseille","lat":43.293009,"lon":5.374584,"is_reserved":false,"is_disabled":false,"rental_uris":{"android":"levelo://app?vid=c8a9e390-2bbf-4503-8caa-a5a326c429e9","ios":"levelo://app?vid=c8a9e390-2bbf-4503-8caa-a5a326c429e9"},"vehicle_type_id":"4","last_reported":1703282800,"current_range_meters":15600,"station_id":"ce4bgi12rcd13ifvqb70","pricing_plan_id":"free"},{"bike_id":"ddd45a12-8629-4dfc-900d-fbe35bd1e378","system_id":"levelo_inurba_marseille","lat":43.292311,"lon":5.360731,"is_reserved":false,"is_disabled":false,"rental_uris":{"android":"levelo://app?vid=ddd45a12-8629-4dfc-900d-fbe35bd1e378","ios":"levelo://app?vid=ddd45a12-8629-4dfc-900d-fbe35bd1e378"},"vehicle_type_id":"4","last_reported":1703282800,"current_range_meters":6000,"station_id":"ce4bhbh2rcd13ifvqeqg","pricing_plan_id":"free"},{"bike_id":"557000a1-02d5-45c6-b20c-951b70bf4f82","system_id":"levelo_inurba_marseille","lat":43.30098,"lon":5.390869,"is_reserved":false,"is_disabled":false,"rental_uris":{"android":"levelo://app?vid=557000a1-02d5-45c6-b20c-951b70bf4f82","ios":"levelo://app?vid=557000a1-02d5-45c6-b20c-951b70bf4f82"},"vehicle_type_id":"4","last_reported":1703282800,"current_range_meters":0,"station_id":"","pricing_plan_id":"free"},{"bike_id":"0531a484-e23f-4786-9034-d52375148168","system_id":"levelo_inurba_marseille","lat":43.30085,"lon":5.390856,"is_reserved":false,"is_disabled":false,"rental_uris":{"android":"levelo://app?vid=0531a484-e23f-4786-9034-d52375148168","ios":"levelo://app?vid=0531a484-e23f-4786-9034-d52375148168"},"vehicle_type_id":"4","last_reported":1703282800,"current_range_meters":18800,"station_id":"ce4bh192rcd13ifvqdb0","pricing_plan_id":"free"},{"bike_id":"58cd2f8a-199a-497e-b063-29597504a54c","system_id":"levelo_inurba_marseille","lat":43.29866,"lon":5.3891,"is_reserved":false,"is_disabled":false,"rental_uris":{"android":"levelo://app?vid=58cd2f8a-199a-497e-b063-29597504a54c","ios":"levelo://app?vid=58cd2f8a-199a-497e-b063-29597504a54c"},"vehicle_type_id":"4","last_reported":1703282800,"current_range_meters":3200,"station_id":"","pricing_plan_id":"free"},{"bike_id":"787a319f-9a79-4164-8fbf-55115fc93c14","system_id":"levelo_inurba_marseille","lat":43.291994,"lon":5.357886,"is_reserved":false,"is_disabled":false,"rental_uris":{"android":"levelo://app?vid=787a319f-9a79-4164-8fbf-55115fc93c14","ios":"levelo://app?vid=787a319f-9a79-4164-8fbf-55115fc93c14"},"vehicle_type_id":"4","last_reported":1703282800,"current_range_meters":400,"station_id":"ce4bhb12rcd13ifvqel0","pricing_plan_id":"free"},{"bike_id":"75010e95-6090-49a5-abe9-7665f1325710","system_id":"levelo_inurba_marseille","lat":43.309038,"lon":5.396546,"is_reserved":false,"is_disabled":false,"rental_uris":{"android":"levelo://app?vid=75010e95-6090-49a5-abe9-7665f1325710","ios":"levelo://app?vid=75010e95-6090-49a5-abe9-7665f1325710"},"vehicle_type_id":"4","last_reported":1703282800,"current_range_meters":12400,"station_id":"ce4bh012rcd13ifvqcv0","pricing_plan_id":"free"},{"bike_id":"d24a6b7b-da49-49c7-829b-2e032599b918","system_id":"levelo_inurba_marseille","lat":43.291994,"lon":5.357886,"is_reserved":false,"is_disabled":false,"rental_uris":{"android":"levelo://app?vid=d24a6b7b-da49-49c7-829b-2e032599b918","ios":"levelo://app?vid=d24a6b7b-da49-49c7-829b-2e032599b918"},"vehicle_type_id":"4","last_reported":1703282800,"current_range_meters":11200,"station_id":"ce4bhb12rcd13ifvqel0","pricing_plan_id":"free"},{"bike_id":"1c53378b-8e96-4648-8299-2ce4fc698ff4","system_id":"levelo_inurba_marseille","lat":43.309047,"lon":5.396551,"is_reserved":false,"is_disabled":false,"rental_uris":{"android":"levelo://app?vid=1c53378b-8e96-4648-8299-2ce4fc698ff4","ios":"levelo://app?vid=1c53378b-8e96-4648-8299-2ce4fc698ff4"},"vehicle_type_id":"4","last_reported":1703282800,"current_range_meters":9200,"station_id":"ce4bh012rcd13ifvqcv0","pricing_plan_id":"free"},{"bike_id":"6b18bf16-2713-445d-a871-514ed4097ac6","system_id":"levelo_inurba_marseille","lat":43.309038,"lon":5.396546,"is_reserved":false,"is_disabled":false,"rental_uris":{"android":"levelo://app?vid=6b18bf16-2713-445d-a871-514ed4097ac6","ios":"levelo://app?vid=6b18bf16-2713-445d-a871-514ed4097ac6"},"vehicle_type_id":"4","last_reported":1703282800,"current_range_meters":0,"station_id":"ce4bh012rcd13ifvqcv0","pricing_plan_id":"free"},{"bike_id":"b2695943-07fd-49b6-a987-ac2d9d2b0c81","system_id":"levelo_inurba_marseille","lat":43.309038,"lon":5.396546,"is_reserved":false,"is_disabled":false,"rental_uris":{"android":"levelo://app?vid=b2695943-07fd-49b6-a987-ac2d9d2b0c81","ios":"levelo://app?vid=b2695943-07fd-49b6-a987-ac2d9d2b0c81"},"vehicle_type_id":"4","last_reported":1703282800,"current_range_meters":16400,"station_id":"ce4bh012rcd13ifvqcv0","pricing_plan_id":"free"},{"bike_id":"9c4bd2fc-3d5e-46d7-a52e-17b1c35c085b","system_id":"levelo_inurba_marseille","lat":43.313291,"lon":5.396838,"is_reserved":false,"is_disabled":false,"rental_uris":{"android":"levelo://app?vid=9c4bd2fc-3d5e-46d7-a52e-17b1c35c085b","ios":"levelo://app?vid=9c4bd2fc-3d5e-46d7-a52e-17b1c35c085b"},"vehicle_type_id":"4","last_reported":1703282800,"current_range_meters":15200,"station_id":"ce4bgvp2rcd13ifvqcu0","pricing_plan_id":"free"},{"bike_id":"af4eb44c-b6c6-4ffb-9294-38dd5d5dc4b6","system_id":"levelo_inurba_marseille","lat":43.31327,"lon":5.39691,"is_reserved":false,"is_disabled":false,"rental_uris":{"android":"levelo://app?vid=af4eb44c-b6c6-4ffb-9294-38dd5d5dc4b6","ios":"levelo://app?vid=af4eb44c-b6c6-4ffb-9294-38dd5d5dc4b6"},"vehicle_type_id":"4","last_reported":1703282800,"current_range_meters":20800,"station_id":"ce4bgvp2rcd13ifvqcu0","pricing_plan_id":"free"},{"bike_id":"38d8ffb9-ac7c-4e14-9721-daaee9d23c1a","system_id":"levelo_inurba_marseille","lat":43.313291,"lon":5.396838,"is_reserved":false,"is_disabled":false,"rental_uris":{"android":"levelo://app?vid=38d8ffb9-ac7c-4e14-9721-daaee9d23c1a","ios":"levelo://app?vid=38d8ffb9-ac7c-4e14-9721-daaee9d23c1a"},"vehicle_type_id":"4","last_reported":1703282800,"current_range_meters":30000,"station_id":"ce4bgvp2rcd13ifvqcu0","pricing_plan_id":"free"},{"bike_id":"a90b8b83-e596-4fc1-8b62-b201f740b064","system_id":"levelo_inurba_marseille","lat":43.313291,"lon":5.396838,"is_reserved":false,"is_disabled":false,"rental_uris":{"android":"levelo://app?vid=a90b8b83-e596-4fc1-8b62-b201f740b064","ios":"levelo://app?vid=a90b8b83-e596-4fc1-8b62-b201f740b064"},"vehicle_type_id":"4","last_reported":1703282800,"current_range_meters":27200,"station_id":"ce4bgvp2rcd13ifvqcu0","pricing_plan_id":"free"},{"bike_id":"f933215d-6626-4c32-b02f-641c93ecbb55","system_id":"levelo_inurba_marseille","lat":43.309038,"lon":5.396546,"is_reserved":false,"is_disabled":false,"rental_uris":{"android":"levelo://app?vid=f933215d-6626-4c32-b02f-641c93ecbb55","ios":"levelo://app?vid=f933215d-6626-4c32-b02f-641c93ecbb55"},"vehicle_type_id":"4","last_reported":1703282800,"current_range_meters":7200,"station_id":"ce4bh012rcd13ifvqcv0","pricing_plan_id":"free"},{"bike_id":"155c9fe9-c508-4cda-9841-f95a11134658","system_id":"levelo_inurba_marseille","lat":43.309038,"lon":5.396546,"is_reserved":false,"is_disabled":false,"rental_uris":{"android":"levelo://app?vid=155c9fe9-c508-4cda-9841-f95a11134658","ios":"levelo://app?vid=155c9fe9-c508-4cda-9841-f95a11134658"},"vehicle_type_id":"4","last_reported":1703282800,"current_range_meters":22400,"station_id":"ce4bh012rcd13ifvqcv0","pricing_plan_id":"free"},{"bike_id":"cbc62839-3c9d-4d9e-963f-bbabfe928114","system_id":"levelo_inurba_marseille","lat":43.313291,"lon":5.396838,"is_reserved":false,"is_disabled":false,"rental_uris":{"android":"levelo://app?vid=cbc62839-3c9d-4d9e-963f-bbabfe928114","ios":"levelo://app?vid=cbc62839-3c9d-4d9e-963f-bbabfe928114"},"vehicle_type_id":"4","last_reported":1703282800,"current_range_meters":24400,"station_id":"ce4bgvp2rcd13ifvqcu0","pricing_plan_id":"free"},{"bike_id":"fa38fcc7-ca87-4463-a289-03c7cd4e6723","system_id":"levelo_inurba_marseille","lat":43.313291,"lon":5.396838,"is_reserved":false,"is_disabled":false,"rental_uris":{"android":"levelo://app?vid=fa38fcc7-ca87-4463-a289-03c7cd4e6723","ios":"levelo://app?vid=fa38fcc7-ca87-4463-a289-03c7cd4e6723"},"vehicle_type_id":"4","last_reported":1703282800,"current_range_meters":30800,"station_id":"ce4bgvp2rcd13ifvqcu0","pricing_plan_id":"free"},{"bike_id":"8574d9c3-1f5d-45bc-b840-34b822fa2f5a","system_id":"levelo_inurba_marseille","lat":43.309047,"lon":5.396551,"is_reserved":false,"is_disabled":false,"rental_uris":{"android":"levelo://app?vid=8574d9c3-1f5d-45bc-b840-34b822fa2f5a","ios":"levelo://app?vid=8574d9c3-1f5d-45bc-b840-34b822fa2f5a"},"vehicle_type_id":"4","last_reported":1703282800,"current_range_meters":22800,"station_id":"ce4bh012rcd13ifvqcv0","pricing_plan_id":"free"},{"bike_id":"eceb5307-053e-422d-bbd0-9af032e873b8","system_id":"levelo_inurba_marseille","lat":43.313291,"lon":5.396838,"is_reserved":false,"is_disabled":false,"rental_uris":{"android":"levelo://app?vid=eceb5307-053e-422d-bbd0-9af032e873b8","ios":"levelo://app?vid=eceb5307-053e-422d-bbd0-9af032e873b8"},"vehicle_type_id":"4","last_reported":1703282800,"current_range_meters":29200,"station_id":"ce4bgvp2rcd13ifvqcu0","pricing_plan_id":"free"},{"bike_id":"365351fb-9dc0-4763-85db-886ebe3b10db","system_id":"levelo_inurba_marseille","lat":43.313291,"lon":5.396838,"is_reserved":false,"is_disabled":false,"rental_uris":{"android":"levelo://app?vid=365351fb-9dc0-4763-85db-886ebe3b10db","ios":"levelo://app?vid=365351fb-9dc0-4763-85db-886ebe3b10db"},"vehicle_type_id":"4","last_reported":1703282800,"current_range_meters":7600,"station_id":"ce4bgvp2rcd13ifvqcu0","pricing_plan_id":"free"},{"bike_id":"c4b5c253-f844-42fd-82a6-50cb9b8a64cd","system_id":"levelo_inurba_marseille","lat":43.313291,"lon":5.396838,"is_reserved":false,"is_disabled":false,"rental_uris":{"android":"levelo://app?vid=c4b5c253-f844-42fd-82a6-50cb9b8a64cd","ios":"levelo://app?vid=c4b5c253-f844-42fd-82a6-50cb9b8a64cd"},"vehicle_type_id":"4","last_reported":1703282800,"current_range_meters":31200,"station_id":"ce4bgvp2rcd13ifvqcu0","pricing_plan_id":"free"},{"bike_id":"1da4162f-4f92-4f65-92b1-b3c55987e395","system_id":"levelo_inurba_marseille","lat":43.29529,"lon":5.385581,"is_reserved":false,"is_disabled":false,"rental_uris":{"android":"levelo://app?vid=1da4162f-4f92-4f65-92b1-b3c55987e395","ios":"levelo://app?vid=1da4162f-4f92-4f65-92b1-b3c55987e395"},"vehicle_type_id":"4","last_reported":1703282800,"current_range_meters":7200,"station_id":"ce4bgih2rcd13ifvqba0","pricing_plan_id":"free"},{"bike_id":"a91591f1-076d-4a62-a102-562e8624b379","system_id":"levelo_inurba_marseille","lat":43.29534,"lon":5.38546,"is_reserved":false,"is_disabled":false,"rental_uris":{"android":"levelo://app?vid=a91591f1-076d-4a62-a102-562e8624b379","ios":"levelo://app?vid=a91591f1-076d-4a62-a102-562e8624b379"},"vehicle_type_id":"4","last_reported":1703282800,"current_range_meters":4000,"station_id":"ce4bgih2rcd13ifvqba0","pricing_plan_id":"free"},{"bike_id":"c619dc0b-d1a4-4971-8c12-ea3d2479eee0","system_id":"levelo_inurba_marseille","lat":43.29529,"lon":5.385581,"is_reserved":false,"is_disabled":false,"rental_uris":{"android":"levelo://app?vid=c619dc0b-d1a4-4971-8c12-ea3d2479eee0","ios":"levelo://app?vid=c619dc0b-d1a4-4971-8c12-ea3d2479eee0"},"vehicle_type_id":"4","last_reported":1703282800,"current_range_meters":28400,"station_id":"ce4bgih2rcd13ifvqba0","pricing_plan_id":"free"},{"bike_id":"afb34401-e0e1-403b-8b52-844910c06e1a","system_id":"levelo_inurba_marseille","lat":43.290779,"lon":5.371482,"is_reserved":false,"is_disabled":false,"rental_uris":{"android":"levelo://app?vid=afb34401-e0e1-403b-8b52-844910c06e1a","ios":"levelo://app?vid=afb34401-e0e1-403b-8b52-844910c06e1a"},"vehicle_type_id":"4","last_reported":1703282800,"current_range_meters":24800,"station_id":"ce4bh5p2rcd13ifvqe4g","pricing_plan_id":"free"},{"bike_id":"c08fd7e6-5dcd-44ca-abfa-5e7fe4940cdc","system_id":"levelo_inurba_marseille","lat":43.302172,"lon":5.394726,"is_reserved":false,"is_disabled":false,"rental_uris":{"android":"levelo://app?vid=c08fd7e6-5dcd-44ca-abfa-5e7fe4940cdc","ios":"levelo://app?vid=c08fd7e6-5dcd-44ca-abfa-5e7fe4940cdc"},"vehicle_type_id":"4","last_reported":1703282800,"current_range_meters":20800,"station_id":"","pricing_plan_id":"free"},{"bike_id":"b9dfbc3d-0db8-4e73-afbf-f143ba1f2902","system_id":"levelo_inurba_marseille","lat":43.30214,"lon":5.39472,"is_reserved":false,"is_disabled":false,"rental_uris":{"android":"levelo://app?vid=b9dfbc3d-0db8-4e73-afbf-f143ba1f2902","ios":"levelo://app?vid=b9dfbc3d-0db8-4e73-afbf-f143ba1f2902"},"vehicle_type_id":"4","last_reported":1703282800,"current_range_meters":26800,"station_id":"ce4bh0p2rcd13ifvqd70","pricing_plan_id":"free"},{"bike_id":"81ecd235-69e4-434d-8b01-82b37874aab3","system_id":"levelo_inurba_marseille","lat":43.290631,"lon":5.359244,"is_reserved":false,"is_disabled":false,"rental_uris":{"android":"levelo://app?vid=81ecd235-69e4-434d-8b01-82b37874aab3","ios":"levelo://app?vid=81ecd235-69e4-434d-8b01-82b37874aab3"},"vehicle_type_id":"4","last_reported":1703282800,"current_range_meters":31200,"station_id":"ce4bha92rcd13ifvqeg0","pricing_plan_id":"free"},{"bike_id":"05a91304-c3de-4da2-834e-5964d898eaca","system_id":"levelo_inurba_marseille","lat":43.290631,"lon":5.359244,"is_reserved":false,"is_disabled":false,"rental_uris":{"android":"levelo://app?vid=05a91304-c3de-4da2-834e-5964d898eaca","ios":"levelo://app?vid=05a91304-c3de-4da2-834e-5964d898eaca"},"vehicle_type_id":"4","last_reported":1703282800,"current_range_meters":30000,"station_id":"ce4bha92rcd13ifvqeg0","pricing_plan_id":"free"},{"bike_id":"a8ee3438-3f49-448a-9ad4-96b995db011d","system_id":"levelo_inurba_marseille","lat":43.289184,"lon":5.366408,"is_reserved":false,"is_disabled":false,"rental_uris":{"android":"levelo://app?vid=a8ee3438-3f49-448a-9ad4-96b995db011d","ios":"levelo://app?vid=a8ee3438-3f49-448a-9ad4-96b995db011d"},"vehicle_type_id":"4","last_reported":1703282800,"current_range_meters":27200,"station_id":"ce4bhap2rcd13ifvqek0","pricing_plan_id":"free"},{"bike_id":"5c8279d1-be92-40be-8cb4-30d1317f5805","system_id":"levelo_inurba_marseille","lat":43.294153,"lon":5.386305,"is_reserved":false,"is_disabled":false,"rental_uris":{"android":"levelo://app?vid=5c8279d1-be92-40be-8cb4-30d1317f5805","ios":"levelo://app?vid=5c8279d1-be92-40be-8cb4-30d1317f5805"},"vehicle_type_id":"4","last_reported":1703282800,"current_range_meters":27600,"station_id":"ce4bh2h2rcd13ifvqdh0","pricing_plan_id":"free"},{"bike_id":"0774dd71-6226-419d-bf37-6c3f270322f5","system_id":"levelo_inurba_marseille","lat":43.292644,"lon":5.384257,"is_reserved":false,"is_disabled":false,"rental_uris":{"android":"levelo://app?vid=0774dd71-6226-419d-bf37-6c3f270322f5","ios":"levelo://app?vid=0774dd71-6226-419d-bf37-6c3f270322f5"},"vehicle_type_id":"4","last_reported":1703282800,"current_range_meters":26000,"station_id":"ce4bh692rcd13ifvqea0","pricing_plan_id":"free"},{"bike_id":"ad49f3bb-9ac6-424a-b167-cee7bb3212d4","system_id":"levelo_inurba_marseille","lat":43.292644,"lon":5.384257,"is_reserved":false,"is_disabled":false,"rental_uris":{"android":"levelo://app?vid=ad49f3bb-9ac6-424a-b167-cee7bb3212d4","ios":"levelo://app?vid=ad49f3bb-9ac6-424a-b167-cee7bb3212d4"},"vehicle_type_id":"4","last_reported":1703282800,"current_range_meters":31200,"station_id":"ce4bh692rcd13ifvqea0","pricing_plan_id":"free"},{"bike_id":"d3456a4e-a9e0-4fc7-b3df-0515be5ca2a6","system_id":"levelo_inurba_marseille","lat":43.29788,"lon":5.39333,"is_reserved":false,"is_disabled":false,"rental_uris":{"android":"levelo://app?vid=d3456a4e-a9e0-4fc7-b3df-0515be5ca2a6","ios":"levelo://app?vid=d3456a4e-a9e0-4fc7-b3df-0515be5ca2a6"},"vehicle_type_id":"4","last_reported":1703282800,"current_range_meters":0,"station_id":"chh1huq6cuj3fo74tm60","pricing_plan_id":"free"},{"bike_id":"5d493969-578d-4ecd-9d25-2d165dc669df","system_id":"levelo_inurba_marseille","lat":43.303312,"lon":5.39769,"is_reserved":false,"is_disabled":false,"rental_uris":{"android":"levelo://app?vid=5d493969-578d-4ecd-9d25-2d165dc669df","ios":"levelo://app?vid=5d493969-578d-4ecd-9d25-2d165dc669df"},"vehicle_type_id":"4","last_reported":1703282800,"current_range_meters":0,"station_id":"","pricing_plan_id":"free"},{"bike_id":"28bd0799-2d1f-44f9-bb5d-3b37f12e8dd4","system_id":"levelo_inurba_marseille","lat":43.297841,"lon":5.393328,"is_reserved":false,"is_disabled":false,"rental_uris":{"android":"levelo://app?vid=28bd0799-2d1f-44f9-bb5d-3b37f12e8dd4","ios":"levelo://app?vid=28bd0799-2d1f-44f9-bb5d-3b37f12e8dd4"},"vehicle_type_id":"4","last_reported":1703282800,"current_range_meters":1600,"station_id":"chh1huq6cuj3fo74tm60","pricing_plan_id":"free"},{"bike_id":"f98faf19-403e-4ee7-8939-68cda535204c","system_id":"levelo_inurba_marseille","lat":43.295169,"lon":5.390426,"is_reserved":false,"is_disabled":false,"rental_uris":{"android":"levelo://app?vid=f98faf19-403e-4ee7-8939-68cda535204c","ios":"levelo://app?vid=f98faf19-403e-4ee7-8939-68cda535204c"},"vehicle_type_id":"4","last_reported":1703282800,"current_range_meters":23600,"station_id":"ce4bh3p2rcd13ifvqdp0","pricing_plan_id":"free"},{"bike_id":"e12972cc-6790-49f6-b985-6bd97f171776","system_id":"levelo_inurba_marseille","lat":43.289741,"lon":5.378306,"is_reserved":false,"is_disabled":false,"rental_uris":{"android":"levelo://app?vid=e12972cc-6790-49f6-b985-6bd97f171776","ios":"levelo://app?vid=e12972cc-6790-49f6-b985-6bd97f171776"},"vehicle_type_id":"4","last_reported":1703282800,"current_range_meters":23200,"station_id":"ce4bh9p2rcd13ifvqed0","pricing_plan_id":"free"},{"bike_id":"7e375e93-9a3b-45da-be1b-a2bc9dd16535","system_id":"levelo_inurba_marseille","lat":43.289743,"lon":5.378304,"is_reserved":false,"is_disabled":false,"rental_uris":{"android":"levelo://app?vid=7e375e93-9a3b-45da-be1b-a2bc9dd16535","ios":"levelo://app?vid=7e375e93-9a3b-45da-be1b-a2bc9dd16535"},"vehicle_type_id":"4","last_reported":1703282800,"current_range_meters":20800,"station_id":"ce4bh9p2rcd13ifvqed0","pricing_plan_id":"free"},{"bike_id":"81dbbd90-9599-479c-ba03-e0b40135a135","system_id":"levelo_inurba_marseille","lat":43.30642,"lon":5.401031,"is_reserved":false,"is_disabled":false,"rental_uris":{"android":"levelo://app?vid=81dbbd90-9599-479c-ba03-e0b40135a135","ios":"levelo://app?vid=81dbbd90-9599-479c-ba03-e0b40135a135"},"vehicle_type_id":"4","last_reported":1703282800,"current_range_meters":6000,"station_id":"ce4bh112rcd13ifvqda0","pricing_plan_id":"free"},{"bike_id":"5ead1464-77c6-4df9-9688-a6faea1fbd31","system_id":"levelo_inurba_marseille","lat":43.30642,"lon":5.401031,"is_reserved":false,"is_disabled":false,"rental_uris":{"android":"levelo://app?vid=5ead1464-77c6-4df9-9688-a6faea1fbd31","ios":"levelo://app?vid=5ead1464-77c6-4df9-9688-a6faea1fbd31"},"vehicle_type_id":"4","last_reported":1703282800,"current_range_meters":8400,"station_id":"ce4bh112rcd13ifvqda0","pricing_plan_id":"free"},{"bike_id":"b454f71d-8a20-4189-a475-87189dc42ddd","system_id":"levelo_inurba_marseille","lat":43.306412,"lon":5.401035,"is_reserved":false,"is_disabled":false,"rental_uris":{"android":"levelo://app?vid=b454f71d-8a20-4189-a475-87189dc42ddd","ios":"levelo://app?vid=b454f71d-8a20-4189-a475-87189dc42ddd"},"vehicle_type_id":"4","last_reported":1703282800,"current_range_meters":26800,"station_id":"ce4bh112rcd13ifvqda0","pricing_plan_id":"free"},{"bike_id":"4d5470d0-0040-4c68-88bc-555cb610f065","system_id":"levelo_inurba_marseille","lat":43.301117,"lon":5.398795,"is_reserved":false,"is_disabled":false,"rental_uris":{"android":"levelo://app?vid=4d5470d0-0040-4c68-88bc-555cb610f065","ios":"levelo://app?vid=4d5470d0-0040-4c68-88bc-555cb610f065"},"vehicle_type_id":"4","last_reported":1703282800,"current_range_meters":28800,"station_id":"ce4bh0h2rcd13ifvqd40","pricing_plan_id":"free"},{"bike_id":"75b18967-7f89-4897-8d40-bd05fffa6136","system_id":"levelo_inurba_marseille","lat":43.301117,"lon":5.398795,"is_reserved":false,"is_disabled":false,"rental_uris":{"android":"levelo://app?vid=75b18967-7f89-4897-8d40-bd05fffa6136","ios":"levelo://app?vid=75b18967-7f89-4897-8d40-bd05fffa6136"},"vehicle_type_id":"4","last_reported":1703282800,"current_range_meters":27200,"station_id":"ce4bh0h2rcd13ifvqd40","pricing_plan_id":"free"},{"bike_id":"0033355c-48e3-487f-83f1-2a6ccbb3045c","system_id":"levelo_inurba_marseille","lat":43.28727,"lon":5.36078,"is_reserved":false,"is_disabled":false,"rental_uris":{"android":"levelo://app?vid=0033355c-48e3-487f-83f1-2a6ccbb3045c","ios":"levelo://app?vid=0033355c-48e3-487f-83f1-2a6ccbb3045c"},"vehicle_type_id":"4","last_reported":1703282800,"current_range_meters":31200,"station_id":"cki0cbj6b192h4jlfktg","pricing_plan_id":"free"},{"bike_id":"a6efb37b-2ef6-49dc-872c-d915832fefb8","system_id":"levelo_inurba_marseille","lat":43.2871,"lon":5.3737,"is_reserved":false,"is_disabled":false,"rental_uris":{"android":"levelo://app?vid=a6efb37b-2ef6-49dc-872c-d915832fefb8","ios":"levelo://app?vid=a6efb37b-2ef6-49dc-872c-d915832fefb8"},"vehicle_type_id":"4","last_reported":1703282800,"current_range_meters":29200,"station_id":"ce4bh3p2rcd13ifvqdq0","pricing_plan_id":"free"},{"bike_id":"28b4d729-c5b3-4793-a7f6-96091fd4139c","system_id":"levelo_inurba_marseille","lat":43.298681,"lon":5.397225,"is_reserved":false,"is_disabled":false,"rental_uris":{"android":"levelo://app?vid=28b4d729-c5b3-4793-a7f6-96091fd4139c","ios":"levelo://app?vid=28b4d729-c5b3-4793-a7f6-96091fd4139c"},"vehicle_type_id":"4","last_reported":1703282800,"current_range_meters":2400,"station_id":"ce4bh0h2rcd13ifvqd50","pricing_plan_id":"free"},{"bike_id":"a850dc1b-0815-4c4a-a814-4eaeaa4411d2","system_id":"levelo_inurba_marseille","lat":43.28702,"lon":5.37403,"is_reserved":false,"is_disabled":false,"rental_uris":{"android":"levelo://app?vid=a850dc1b-0815-4c4a-a814-4eaeaa4411d2","ios":"levelo://app?vid=a850dc1b-0815-4c4a-a814-4eaeaa4411d2"},"vehicle_type_id":"4","last_reported":1703282800,"current_range_meters":2800,"station_id":"ce4bh3p2rcd13ifvqdq0","pricing_plan_id":"free"},{"bike_id":"98e48ef2-398c-425e-851f-0b6ac0708f0c","system_id":"levelo_inurba_marseille","lat":43.28699,"lon":5.37402,"is_reserved":false,"is_disabled":false,"rental_uris":{"android":"levelo://app?vid=98e48ef2-398c-425e-851f-0b6ac0708f0c","ios":"levelo://app?vid=98e48ef2-398c-425e-851f-0b6ac0708f0c"},"vehicle_type_id":"4","last_reported":1703282800,"current_range_meters":26000,"station_id":"ce4bh3p2rcd13ifvqdq0","pricing_plan_id":"free"},{"bike_id":"180aabb0-70d8-4d51-9c1b-29d82762c3c9","system_id":"levelo_inurba_marseille","lat":43.28696,"lon":5.37396,"is_reserved":false,"is_disabled":false,"rental_uris":{"android":"levelo://app?vid=180aabb0-70d8-4d51-9c1b-29d82762c3c9","ios":"levelo://app?vid=180aabb0-70d8-4d51-9c1b-29d82762c3c9"},"vehicle_type_id":"4","last_reported":1703282800,"current_range_meters":11600,"station_id":"ce4bh3p2rcd13ifvqdq0","pricing_plan_id":"free"},{"bike_id":"be1f6aa3-7f03-4e0f-8d7f-4ee682dcb054","system_id":"levelo_inurba_marseille","lat":43.295194,"lon":5.39397,"is_reserved":false,"is_disabled":false,"rental_uris":{"android":"levelo://app?vid=be1f6aa3-7f03-4e0f-8d7f-4ee682dcb054","ios":"levelo://app?vid=be1f6aa3-7f03-4e0f-8d7f-4ee682dcb054"},"vehicle_type_id":"4","last_reported":1703282800,"current_range_meters":22000,"station_id":"ce4bh292rcd13ifvqdf0","pricing_plan_id":"free"},{"bike_id":"7a645867-3b52-4547-8870-d59fa9a29cce","system_id":"levelo_inurba_marseille","lat":43.295196,"lon":5.39397,"is_reserved":false,"is_disabled":false,"rental_uris":{"android":"levelo://app?vid=7a645867-3b52-4547-8870-d59fa9a29cce","ios":"levelo://app?vid=7a645867-3b52-4547-8870-d59fa9a29cce"},"vehicle_type_id":"4","last_reported":1703282800,"current_range_meters":22800,"station_id":"ce4bh292rcd13ifvqdf0","pricing_plan_id":"free"},{"bike_id":"128efa03-4166-4506-a699-835c18168f6c","system_id":"levelo_inurba_marseille","lat":43.289307,"lon":5.38406,"is_reserved":false,"is_disabled":false,"rental_uris":{"android":"levelo://app?vid=128efa03-4166-4506-a699-835c18168f6c","ios":"levelo://app?vid=128efa03-4166-4506-a699-835c18168f6c"},"vehicle_type_id":"4","last_reported":1703282800,"current_range_meters":18800,"station_id":"ce4bh612rcd13ifvqe6g","pricing_plan_id":"free"},{"bike_id":"86fba989-2664-4104-a3df-2cd2e581de70","system_id":"levelo_inurba_marseille","lat":43.302759,"lon":5.400793,"is_reserved":false,"is_disabled":false,"rental_uris":{"android":"levelo://app?vid=86fba989-2664-4104-a3df-2cd2e581de70","ios":"levelo://app?vid=86fba989-2664-4104-a3df-2cd2e581de70"},"vehicle_type_id":"4","last_reported":1703282800,"current_range_meters":27600,"station_id":"ce4bgvh2rcd13ifvqcs0","pricing_plan_id":"free"},{"bike_id":"eb502274-37ff-4ca4-bbe7-4ad04d1501c1","system_id":"levelo_inurba_marseille","lat":43.290336,"lon":5.386425,"is_reserved":false,"is_disabled":false,"rental_uris":{"android":"levelo://app?vid=eb502274-37ff-4ca4-bbe7-4ad04d1501c1","ios":"levelo://app?vid=eb502274-37ff-4ca4-bbe7-4ad04d1501c1"},"vehicle_type_id":"4","last_reported":1703282800,"current_range_meters":13200,"station_id":"ce4bh4p2rcd13ifvqe0g","pricing_plan_id":"free"},{"bike_id":"48ddc2ca-5e8b-4715-913f-1f808556fb3a","system_id":"levelo_inurba_marseille","lat":43.286039,"lon":5.370679,"is_reserved":false,"is_disabled":false,"rental_uris":{"android":"levelo://app?vid=48ddc2ca-5e8b-4715-913f-1f808556fb3a","ios":"levelo://app?vid=48ddc2ca-5e8b-4715-913f-1f808556fb3a"},"vehicle_type_id":"4","last_reported":1703282800,"current_range_meters":18400,"station_id":"ce4bht12rcd13ifvqi60","pricing_plan_id":"free"},{"bike_id":"47d6d772-3e25-483b-a391-aef7761f662b","system_id":"levelo_inurba_marseille","lat":43.291994,"lon":5.392907,"is_reserved":false,"is_disabled":false,"rental_uris":{"android":"levelo://app?vid=47d6d772-3e25-483b-a391-aef7761f662b","ios":"levelo://app?vid=47d6d772-3e25-483b-a391-aef7761f662b"},"vehicle_type_id":"4","last_reported":1703282800,"current_range_meters":23600,"station_id":"ce4bh192rcd13ifvqdd0","pricing_plan_id":"free"},{"bike_id":"6ace1402-69fb-457d-ba4c-03b3c25e66e2","system_id":"levelo_inurba_marseille","lat":43.291994,"lon":5.392907,"is_reserved":false,"is_disabled":false,"rental_uris":{"android":"levelo://app?vid=6ace1402-69fb-457d-ba4c-03b3c25e66e2","ios":"levelo://app?vid=6ace1402-69fb-457d-ba4c-03b3c25e66e2"},"vehicle_type_id":"4","last_reported":1703282800,"current_range_meters":2000,"station_id":"ce4bh192rcd13ifvqdd0","pricing_plan_id":"free"},{"bike_id":"0a2e800b-fa74-4150-afbb-edb394aedf99","system_id":"levelo_inurba_marseille","lat":43.291994,"lon":5.392907,"is_reserved":false,"is_disabled":false,"rental_uris":{"android":"levelo://app?vid=0a2e800b-fa74-4150-afbb-edb394aedf99","ios":"levelo://app?vid=0a2e800b-fa74-4150-afbb-edb394aedf99"},"vehicle_type_id":"4","last_reported":1703282800,"current_range_meters":12800,"station_id":"ce4bh192rcd13ifvqdd0","pricing_plan_id":"free"},{"bike_id":"e2adfa7c-882e-48a1-9ee4-b36e6186ebbf","system_id":"levelo_inurba_marseille","lat":43.330912,"lon":5.396935,"is_reserved":false,"is_disabled":false,"rental_uris":{"android":"levelo://app?vid=e2adfa7c-882e-48a1-9ee4-b36e6186ebbf","ios":"levelo://app?vid=e2adfa7c-882e-48a1-9ee4-b36e6186ebbf"},"vehicle_type_id":"4","last_reported":1703282800,"current_range_meters":16800,"station_id":"","pricing_plan_id":"free"},{"bike_id":"c2c7c43c-54ac-47b0-beb9-7b89b954ee39","system_id":"levelo_inurba_marseille","lat":43.294314,"lon":5.397498,"is_reserved":false,"is_disabled":false,"rental_uris":{"android":"levelo://app?vid=c2c7c43c-54ac-47b0-beb9-7b89b954ee39","ios":"levelo://app?vid=c2c7c43c-54ac-47b0-beb9-7b89b954ee39"},"vehicle_type_id":"4","last_reported":1703282800,"current_range_meters":1200,"station_id":"ce4bh3h2rcd13ifvqdo0","pricing_plan_id":"free"},{"bike_id":"6681f091-8cae-40db-82be-2afedc79afec","system_id":"levelo_inurba_marseille","lat":43.297939,"lon":5.401186,"is_reserved":false,"is_disabled":false,"rental_uris":{"android":"levelo://app?vid=6681f091-8cae-40db-82be-2afedc79afec","ios":"levelo://app?vid=6681f091-8cae-40db-82be-2afedc79afec"},"vehicle_type_id":"4","last_reported":1703282800,"current_range_meters":4400,"station_id":"","pricing_plan_id":"free"},{"bike_id":"924533ae-2896-4d73-b37a-2936fb14ac9e","system_id":"levelo_inurba_marseille","lat":43.285856,"lon":5.350771,"is_reserved":false,"is_disabled":false,"rental_uris":{"android":"levelo://app?vid=924533ae-2896-4d73-b37a-2936fb14ac9e","ios":"levelo://app?vid=924533ae-2896-4d73-b37a-2936fb14ac9e"},"vehicle_type_id":"4","last_reported":1703282800,"current_range_meters":21600,"station_id":"ce4bhch2rcd13ifvqeug","pricing_plan_id":"free"},{"bike_id":"094ef77f-de81-47da-9e7d-e578fa924134","system_id":"levelo_inurba_marseille","lat":43.286595,"lon":5.386795,"is_reserved":false,"is_disabled":false,"rental_uris":{"android":"levelo://app?vid=094ef77f-de81-47da-9e7d-e578fa924134","ios":"levelo://app?vid=094ef77f-de81-47da-9e7d-e578fa924134"},"vehicle_type_id":"4","last_reported":1703282800,"current_range_meters":16400,"station_id":"ce4bh492rcd13ifvqdug","pricing_plan_id":"free"},{"bike_id":"76192aae-bf8f-4986-bdcb-57241cc57cf3","system_id":"levelo_inurba_marseille","lat":43.286595,"lon":5.386795,"is_reserved":false,"is_disabled":false,"rental_uris":{"android":"levelo://app?vid=76192aae-bf8f-4986-bdcb-57241cc57cf3","ios":"levelo://app?vid=76192aae-bf8f-4986-bdcb-57241cc57cf3"},"vehicle_type_id":"4","last_reported":1703282800,"current_range_meters":7200,"station_id":"ce4bh492rcd13ifvqdug","pricing_plan_id":"free"},{"bike_id":"3ae1b93f-2d5c-4a67-83d5-dfe27cef6c07","system_id":"levelo_inurba_marseille","lat":43.286595,"lon":5.386795,"is_reserved":false,"is_disabled":false,"rental_uris":{"android":"levelo://app?vid=3ae1b93f-2d5c-4a67-83d5-dfe27cef6c07","ios":"levelo://app?vid=3ae1b93f-2d5c-4a67-83d5-dfe27cef6c07"},"vehicle_type_id":"4","last_reported":1703282800,"current_range_meters":3600,"station_id":"ce4bh492rcd13ifvqdug","pricing_plan_id":"free"},{"bike_id":"74a09c13-6c2c-4944-9026-8298eeec9bb2","system_id":"levelo_inurba_marseille","lat":43.286595,"lon":5.386795,"is_reserved":false,"is_disabled":false,"rental_uris":{"android":"levelo://app?vid=74a09c13-6c2c-4944-9026-8298eeec9bb2","ios":"levelo://app?vid=74a09c13-6c2c-4944-9026-8298eeec9bb2"},"vehicle_type_id":"4","last_reported":1703282800,"current_range_meters":23200,"station_id":"ce4bh492rcd13ifvqdug","pricing_plan_id":"free"},{"bike_id":"69a23a1c-70a2-4aea-9058-ccf2c18c7b58","system_id":"levelo_inurba_marseille","lat":43.33717,"lon":5.391857,"is_reserved":false,"is_disabled":false,"rental_uris":{"android":"levelo://app?vid=69a23a1c-70a2-4aea-9058-ccf2c18c7b58","ios":"levelo://app?vid=69a23a1c-70a2-4aea-9058-ccf2c18c7b58"},"vehicle_type_id":"4","last_reported":1703282800,"current_range_meters":16400,"station_id":"ce4bhr92rcd13ifvqhsg","pricing_plan_id":"free"},{"bike_id":"3b7e3ec0-988e-4aeb-bcf3-3017c628b5d3","system_id":"levelo_inurba_marseille","lat":43.33717,"lon":5.391857,"is_reserved":false,"is_disabled":false,"rental_uris":{"android":"levelo://app?vid=3b7e3ec0-988e-4aeb-bcf3-3017c628b5d3","ios":"levelo://app?vid=3b7e3ec0-988e-4aeb-bcf3-3017c628b5d3"},"vehicle_type_id":"4","last_reported":1703282800,"current_range_meters":30000,"station_id":"ce4bhr92rcd13ifvqhsg","pricing_plan_id":"free"},{"bike_id":"b7c71217-6fce-490c-9bd4-073ff8143718","system_id":"levelo_inurba_marseille","lat":43.33717,"lon":5.391857,"is_reserved":false,"is_disabled":false,"rental_uris":{"android":"levelo://app?vid=b7c71217-6fce-490c-9bd4-073ff8143718","ios":"levelo://app?vid=b7c71217-6fce-490c-9bd4-073ff8143718"},"vehicle_type_id":"4","last_reported":1703282800,"current_range_meters":30400,"station_id":"ce4bhr92rcd13ifvqhsg","pricing_plan_id":"free"},{"bike_id":"b306bef3-61ce-4097-b249-eebc7da08ee6","system_id":"levelo_inurba_marseille","lat":43.323464,"lon":5.406297,"is_reserved":false,"is_disabled":false,"rental_uris":{"android":"levelo://app?vid=b306bef3-61ce-4097-b249-eebc7da08ee6","ios":"levelo://app?vid=b306bef3-61ce-4097-b249-eebc7da08ee6"},"vehicle_type_id":"4","last_reported":1703282800,"current_range_meters":27200,"station_id":"ce4bhq92rcd13ifvqhjg","pricing_plan_id":"free"},{"bike_id":"9d529b75-68bf-461d-a200-5fe479ed1362","system_id":"levelo_inurba_marseille","lat":43.283494,"lon":5.380945,"is_reserved":false,"is_disabled":false,"rental_uris":{"android":"levelo://app?vid=9d529b75-68bf-461d-a200-5fe479ed1362","ios":"levelo://app?vid=9d529b75-68bf-461d-a200-5fe479ed1362"},"vehicle_type_id":"4","last_reported":1703282800,"current_range_meters":7200,"station_id":"ce4bh412rcd13ifvqdr0","pricing_plan_id":"free"},{"bike_id":"15cb422d-23f8-464c-882f-b4695fe55579","system_id":"levelo_inurba_marseille","lat":43.28483,"lon":5.3842,"is_reserved":false,"is_disabled":false,"rental_uris":{"android":"levelo://app?vid=15cb422d-23f8-464c-882f-b4695fe55579","ios":"levelo://app?vid=15cb422d-23f8-464c-882f-b4695fe55579"},"vehicle_type_id":"4","last_reported":1703282800,"current_range_meters":25600,"station_id":"ce4bh512rcd13ifvqe3g","pricing_plan_id":"free"},{"bike_id":"21dfe4ee-e0d8-43dc-a445-17834023ca68","system_id":"levelo_inurba_marseille","lat":43.28485,"lon":5.3843,"is_reserved":false,"is_disabled":false,"rental_uris":{"android":"levelo://app?vid=21dfe4ee-e0d8-43dc-a445-17834023ca68","ios":"levelo://app?vid=21dfe4ee-e0d8-43dc-a445-17834023ca68"},"vehicle_type_id":"4","last_reported":1703282800,"current_range_meters":0,"station_id":"ce4bh512rcd13ifvqe3g","pricing_plan_id":"free"},{"bike_id":"65021249-c0c2-4b0f-bb1e-ecd3d7ce2832","system_id":"levelo_inurba_marseille","lat":43.28472,"lon":5.38405,"is_reserved":false,"is_disabled":false,"rental_uris":{"android":"levelo://app?vid=65021249-c0c2-4b0f-bb1e-ecd3d7ce2832","ios":"levelo://app?vid=65021249-c0c2-4b0f-bb1e-ecd3d7ce2832"},"vehicle_type_id":"4","last_reported":1703282800,"current_range_meters":0,"station_id":"ce4bh512rcd13ifvqe3g","pricing_plan_id":"free"},{"bike_id":"f4bf4f70-8c9e-44d4-ad15-47ee97e6bc87","system_id":"levelo_inurba_marseille","lat":43.288501,"lon":5.393087,"is_reserved":false,"is_disabled":false,"rental_uris":{"android":"levelo://app?vid=f4bf4f70-8c9e-44d4-ad15-47ee97e6bc87","ios":"levelo://app?vid=f4bf4f70-8c9e-44d4-ad15-47ee97e6bc87"},"vehicle_type_id":"4","last_reported":1703282800,"current_range_meters":28400,"station_id":"ce4bh2p2rcd13ifvqdi0","pricing_plan_id":"free"},{"bike_id":"dd2c3ceb-e73c-4214-a147-8ddf55655284","system_id":"levelo_inurba_marseille","lat":43.288501,"lon":5.393087,"is_reserved":false,"is_disabled":false,"rental_uris":{"android":"levelo://app?vid=dd2c3ceb-e73c-4214-a147-8ddf55655284","ios":"levelo://app?vid=dd2c3ceb-e73c-4214-a147-8ddf55655284"},"vehicle_type_id":"4","last_reported":1703282800,"current_range_meters":29200,"station_id":"ce4bh2p2rcd13ifvqdi0","pricing_plan_id":"free"},{"bike_id":"b1150a08-14b8-4d87-8b9a-5658fda0c676","system_id":"levelo_inurba_marseille","lat":43.283494,"lon":5.380945,"is_reserved":false,"is_disabled":false,"rental_uris":{"android":"levelo://app?vid=b1150a08-14b8-4d87-8b9a-5658fda0c676","ios":"levelo://app?vid=b1150a08-14b8-4d87-8b9a-5658fda0c676"},"vehicle_type_id":"4","last_reported":1703282800,"current_range_meters":24000,"station_id":"ce4bh412rcd13ifvqdr0","pricing_plan_id":"free"},{"bike_id":"fd6583fe-bfb4-4eec-9c48-29450c69b4e5","system_id":"levelo_inurba_marseille","lat":43.283494,"lon":5.380945,"is_reserved":false,"is_disabled":false,"rental_uris":{"android":"levelo://app?vid=fd6583fe-bfb4-4eec-9c48-29450c69b4e5","ios":"levelo://app?vid=fd6583fe-bfb4-4eec-9c48-29450c69b4e5"},"vehicle_type_id":"4","last_reported":1703282800,"current_range_meters":24800,"station_id":"ce4bh412rcd13ifvqdr0","pricing_plan_id":"free"},{"bike_id":"a5916ad7-dca9-460c-84c4-103afe2940f3","system_id":"levelo_inurba_marseille","lat":43.283494,"lon":5.380945,"is_reserved":false,"is_disabled":false,"rental_uris":{"android":"levelo://app?vid=a5916ad7-dca9-460c-84c4-103afe2940f3","ios":"levelo://app?vid=a5916ad7-dca9-460c-84c4-103afe2940f3"},"vehicle_type_id":"4","last_reported":1703282800,"current_range_meters":400,"station_id":"ce4bh412rcd13ifvqdr0","pricing_plan_id":"free"},{"bike_id":"dfe209b5-c7a8-4c11-967f-411d0a0626e0","system_id":"levelo_inurba_marseille","lat":43.283494,"lon":5.380945,"is_reserved":false,"is_disabled":false,"rental_uris":{"android":"levelo://app?vid=dfe209b5-c7a8-4c11-967f-411d0a0626e0","ios":"levelo://app?vid=dfe209b5-c7a8-4c11-967f-411d0a0626e0"},"vehicle_type_id":"4","last_reported":1703282800,"current_range_meters":8800,"station_id":"ce4bh412rcd13ifvqdr0","pricing_plan_id":"free"},{"bike_id":"3836b981-ce8c-4134-a5b7-097c6433e054","system_id":"levelo_inurba_marseille","lat":43.283498,"lon":5.380948,"is_reserved":false,"is_disabled":false,"rental_uris":{"android":"levelo://app?vid=3836b981-ce8c-4134-a5b7-097c6433e054","ios":"levelo://app?vid=3836b981-ce8c-4134-a5b7-097c6433e054"},"vehicle_type_id":"4","last_reported":1703282800,"current_range_meters":24800,"station_id":"ce4bh412rcd13ifvqdr0","pricing_plan_id":"free"},{"bike_id":"b02feee7-8174-41b3-95be-62f87df2ecbb","system_id":"levelo_inurba_marseille","lat":43.283494,"lon":5.380945,"is_reserved":false,"is_disabled":false,"rental_uris":{"android":"levelo://app?vid=b02feee7-8174-41b3-95be-62f87df2ecbb","ios":"levelo://app?vid=b02feee7-8174-41b3-95be-62f87df2ecbb"},"vehicle_type_id":"4","last_reported":1703282800,"current_range_meters":9600,"station_id":"ce4bh412rcd13ifvqdr0","pricing_plan_id":"free"},{"bike_id":"b9c3ee26-ebde-4464-a27c-db7a20a2b420","system_id":"levelo_inurba_marseille","lat":43.284219,"lon":5.3497,"is_reserved":false,"is_disabled":false,"rental_uris":{"android":"levelo://app?vid=b9c3ee26-ebde-4464-a27c-db7a20a2b420","ios":"levelo://app?vid=b9c3ee26-ebde-4464-a27c-db7a20a2b420"},"vehicle_type_id":"4","last_reported":1703282800,"current_range_meters":28000,"station_id":"ce4bhbh2rcd13ifvqepg","pricing_plan_id":"free"},{"bike_id":"b6f1f3de-4488-4b2c-932e-085734e4f1f1","system_id":"levelo_inurba_marseille","lat":43.284217,"lon":5.349697,"is_reserved":false,"is_disabled":false,"rental_uris":{"android":"levelo://app?vid=b6f1f3de-4488-4b2c-932e-085734e4f1f1","ios":"levelo://app?vid=b6f1f3de-4488-4b2c-932e-085734e4f1f1"},"vehicle_type_id":"4","last_reported":1703282800,"current_range_meters":18000,"station_id":"ce4bhbh2rcd13ifvqepg","pricing_plan_id":"free"},{"bike_id":"0c07039d-f042-4577-ad3b-2eb17b5732ec","system_id":"levelo_inurba_marseille","lat":43.28269,"lon":5.35074,"is_reserved":false,"is_disabled":false,"rental_uris":{"android":"levelo://app?vid=0c07039d-f042-4577-ad3b-2eb17b5732ec","ios":"levelo://app?vid=0c07039d-f042-4577-ad3b-2eb17b5732ec"},"vehicle_type_id":"4","last_reported":1703282800,"current_range_meters":10400,"station_id":"ce4bhbp2rcd13ifvqerg","pricing_plan_id":"free"},{"bike_id":"8c390459-bc7b-427a-9b73-2c1c9e96a676","system_id":"levelo_inurba_marseille","lat":43.282744,"lon":5.350533,"is_reserved":false,"is_disabled":false,"rental_uris":{"android":"levelo://app?vid=8c390459-bc7b-427a-9b73-2c1c9e96a676","ios":"levelo://app?vid=8c390459-bc7b-427a-9b73-2c1c9e96a676"},"vehicle_type_id":"4","last_reported":1703282800,"current_range_meters":27600,"station_id":"ce4bhbp2rcd13ifvqerg","pricing_plan_id":"free"},{"bike_id":"5dfbda82-9999-48e9-9779-7781fbf040e2","system_id":"levelo_inurba_marseille","lat":43.28265,"lon":5.35081,"is_reserved":false,"is_disabled":false,"rental_uris":{"android":"levelo://app?vid=5dfbda82-9999-48e9-9779-7781fbf040e2","ios":"levelo://app?vid=5dfbda82-9999-48e9-9779-7781fbf040e2"},"vehicle_type_id":"4","last_reported":1703282800,"current_range_meters":29600,"station_id":"ce4bhbp2rcd13ifvqerg","pricing_plan_id":"free"},{"bike_id":"0bb11488-f524-43ac-b0ef-26d7b8df5763","system_id":"levelo_inurba_marseille","lat":43.28265,"lon":5.35058,"is_reserved":false,"is_disabled":false,"rental_uris":{"android":"levelo://app?vid=0bb11488-f524-43ac-b0ef-26d7b8df5763","ios":"levelo://app?vid=0bb11488-f524-43ac-b0ef-26d7b8df5763"},"vehicle_type_id":"4","last_reported":1703282800,"current_range_meters":11600,"station_id":"ce4bhbp2rcd13ifvqerg","pricing_plan_id":"free"},{"bike_id":"4eef49c0-0c90-4442-8ed3-697eff8d5ad9","system_id":"levelo_inurba_marseille","lat":43.28039,"lon":5.369297,"is_reserved":false,"is_disabled":false,"rental_uris":{"android":"levelo://app?vid=4eef49c0-0c90-4442-8ed3-697eff8d5ad9","ios":"levelo://app?vid=4eef49c0-0c90-4442-8ed3-697eff8d5ad9"},"vehicle_type_id":"4","last_reported":1703282800,"current_range_meters":4000,"station_id":"ce4bha12rcd13ifvqef0","pricing_plan_id":"free"},{"bike_id":"97d80501-33bc-4972-ad91-912885aebdbb","system_id":"levelo_inurba_marseille","lat":43.280382,"lon":5.369291,"is_reserved":false,"is_disabled":false,"rental_uris":{"android":"levelo://app?vid=97d80501-33bc-4972-ad91-912885aebdbb","ios":"levelo://app?vid=97d80501-33bc-4972-ad91-912885aebdbb"},"vehicle_type_id":"4","last_reported":1703282800,"current_range_meters":23200,"station_id":"ce4bha12rcd13ifvqef0","pricing_plan_id":"free"},{"bike_id":"1bb9feff-3e8b-46d2-8c5c-420eb3be4d2c","system_id":"levelo_inurba_marseille","lat":43.28039,"lon":5.369297,"is_reserved":false,"is_disabled":false,"rental_uris":{"android":"levelo://app?vid=1bb9feff-3e8b-46d2-8c5c-420eb3be4d2c","ios":"levelo://app?vid=1bb9feff-3e8b-46d2-8c5c-420eb3be4d2c"},"vehicle_type_id":"4","last_reported":1703282800,"current_range_meters":30400,"station_id":"ce4bha12rcd13ifvqef0","pricing_plan_id":"free"},{"bike_id":"9ffafec3-6611-4556-9571-530e1d819b18","system_id":"levelo_inurba_marseille","lat":43.280382,"lon":5.369291,"is_reserved":false,"is_disabled":false,"rental_uris":{"android":"levelo://app?vid=9ffafec3-6611-4556-9571-530e1d819b18","ios":"levelo://app?vid=9ffafec3-6611-4556-9571-530e1d819b18"},"vehicle_type_id":"4","last_reported":1703282800,"current_range_meters":17200,"station_id":"ce4bha12rcd13ifvqef0","pricing_plan_id":"free"},{"bike_id":"2024a61b-7173-4785-8359-84679011d211","system_id":"levelo_inurba_marseille","lat":43.280382,"lon":5.369291,"is_reserved":false,"is_disabled":false,"rental_uris":{"android":"levelo://app?vid=2024a61b-7173-4785-8359-84679011d211","ios":"levelo://app?vid=2024a61b-7173-4785-8359-84679011d211"},"vehicle_type_id":"4","last_reported":1703282800,"current_range_meters":12000,"station_id":"ce4bha12rcd13ifvqef0","pricing_plan_id":"free"},{"bike_id":"ec771f13-a6f7-4502-b81f-19d6b7b2be5f","system_id":"levelo_inurba_marseille","lat":43.28039,"lon":5.369297,"is_reserved":false,"is_disabled":false,"rental_uris":{"android":"levelo://app?vid=ec771f13-a6f7-4502-b81f-19d6b7b2be5f","ios":"levelo://app?vid=ec771f13-a6f7-4502-b81f-19d6b7b2be5f"},"vehicle_type_id":"4","last_reported":1703282800,"current_range_meters":28400,"station_id":"ce4bha12rcd13ifvqef0","pricing_plan_id":"free"},{"bike_id":"3f00ce2f-0172-4aa0-9a12-381ede84a945","system_id":"levelo_inurba_marseille","lat":43.28727,"lon":5.36078,"is_reserved":false,"is_disabled":false,"rental_uris":{"android":"levelo://app?vid=3f00ce2f-0172-4aa0-9a12-381ede84a945","ios":"levelo://app?vid=3f00ce2f-0172-4aa0-9a12-381ede84a945"},"vehicle_type_id":"4","last_reported":1703282800,"current_range_meters":24800,"station_id":"cki0cbj6b192h4jlfktg","pricing_plan_id":"free"},{"bike_id":"8379dd3c-9b88-4dae-95f2-cf66f3df6a33","system_id":"levelo_inurba_marseille","lat":43.281044,"lon":5.378308,"is_reserved":false,"is_disabled":false,"rental_uris":{"android":"levelo://app?vid=8379dd3c-9b88-4dae-95f2-cf66f3df6a33","ios":"levelo://app?vid=8379dd3c-9b88-4dae-95f2-cf66f3df6a33"},"vehicle_type_id":"4","last_reported":1703282800,"current_range_meters":12400,"station_id":"ce4bha12rcd13ifvqee0","pricing_plan_id":"free"},{"bike_id":"7f32770d-c6c5-448b-bb8e-3c5f4fb2b94b","system_id":"levelo_inurba_marseille","lat":43.284462,"lon":5.392121,"is_reserved":false,"is_disabled":false,"rental_uris":{"android":"levelo://app?vid=7f32770d-c6c5-448b-bb8e-3c5f4fb2b94b","ios":"levelo://app?vid=7f32770d-c6c5-448b-bb8e-3c5f4fb2b94b"},"vehicle_type_id":"4","last_reported":1703282800,"current_range_meters":3200,"station_id":"ce4bhoh2rcd13ifvqh5g","pricing_plan_id":"free"},{"bike_id":"5bcfeea0-33d4-4796-98b5-eb764ba649bb","system_id":"levelo_inurba_marseille","lat":43.284462,"lon":5.392121,"is_reserved":false,"is_disabled":false,"rental_uris":{"android":"levelo://app?vid=5bcfeea0-33d4-4796-98b5-eb764ba649bb","ios":"levelo://app?vid=5bcfeea0-33d4-4796-98b5-eb764ba649bb"},"vehicle_type_id":"4","last_reported":1703282800,"current_range_meters":6400,"station_id":"ce4bhoh2rcd13ifvqh5g","pricing_plan_id":"free"},{"bike_id":"4c43b076-ecab-4426-a7e6-d095a83b2ead","system_id":"levelo_inurba_marseille","lat":43.284462,"lon":5.392121,"is_reserved":false,"is_disabled":false,"rental_uris":{"android":"levelo://app?vid=4c43b076-ecab-4426-a7e6-d095a83b2ead","ios":"levelo://app?vid=4c43b076-ecab-4426-a7e6-d095a83b2ead"},"vehicle_type_id":"4","last_reported":1703282800,"current_range_meters":29600,"station_id":"ce4bhoh2rcd13ifvqh5g","pricing_plan_id":"free"},{"bike_id":"8d89e252-3ce4-4bbd-a528-b01be5a6b4f3","system_id":"levelo_inurba_marseille","lat":43.28573,"lon":5.394992,"is_reserved":false,"is_disabled":false,"rental_uris":{"android":"levelo://app?vid=8d89e252-3ce4-4bbd-a528-b01be5a6b4f3","ios":"levelo://app?vid=8d89e252-3ce4-4bbd-a528-b01be5a6b4f3"},"vehicle_type_id":"4","last_reported":1703282800,"current_range_meters":28800,"station_id":"ce4bh292rcd13ifvqdg0","pricing_plan_id":"free"},{"bike_id":"07915d1e-dc07-4e56-afb9-9d66caf9a477","system_id":"levelo_inurba_marseille","lat":43.28573,"lon":5.394992,"is_reserved":false,"is_disabled":false,"rental_uris":{"android":"levelo://app?vid=07915d1e-dc07-4e56-afb9-9d66caf9a477","ios":"levelo://app?vid=07915d1e-dc07-4e56-afb9-9d66caf9a477"},"vehicle_type_id":"4","last_reported":1703282800,"current_range_meters":22800,"station_id":"ce4bh292rcd13ifvqdg0","pricing_plan_id":"free"},{"bike_id":"5eca8518-9e3e-4ec0-ae9a-e282692557e7","system_id":"levelo_inurba_marseille","lat":43.292569,"lon":5.409107,"is_reserved":false,"is_disabled":false,"rental_uris":{"android":"levelo://app?vid=5eca8518-9e3e-4ec0-ae9a-e282692557e7","ios":"levelo://app?vid=5eca8518-9e3e-4ec0-ae9a-e282692557e7"},"vehicle_type_id":"4","last_reported":1703282800,"current_range_meters":25600,"station_id":"ce4bh192rcd13ifvqdc0","pricing_plan_id":"free"},{"bike_id":"921b424d-ad0d-4c7a-9d74-66e3a49bfa19","system_id":"levelo_inurba_marseille","lat":43.326605,"lon":5.409903,"is_reserved":false,"is_disabled":false,"rental_uris":{"android":"levelo://app?vid=921b424d-ad0d-4c7a-9d74-66e3a49bfa19","ios":"levelo://app?vid=921b424d-ad0d-4c7a-9d74-66e3a49bfa19"},"vehicle_type_id":"4","last_reported":1703282800,"current_range_meters":26000,"station_id":"ce4bhpp2rcd13ifvqhgg","pricing_plan_id":"free"},{"bike_id":"49d73e02-e5c2-4882-b44f-d8c5e2af2b78","system_id":"levelo_inurba_marseille","lat":43.326605,"lon":5.409903,"is_reserved":false,"is_disabled":false,"rental_uris":{"android":"levelo://app?vid=49d73e02-e5c2-4882-b44f-d8c5e2af2b78","ios":"levelo://app?vid=49d73e02-e5c2-4882-b44f-d8c5e2af2b78"},"vehicle_type_id":"4","last_reported":1703282800,"current_range_meters":22000,"station_id":"ce4bhpp2rcd13ifvqhgg","pricing_plan_id":"free"},{"bike_id":"2dce41b4-f1e9-4565-979b-d206af37124f","system_id":"levelo_inurba_marseille","lat":43.326605,"lon":5.409903,"is_reserved":false,"is_disabled":false,"rental_uris":{"android":"levelo://app?vid=2dce41b4-f1e9-4565-979b-d206af37124f","ios":"levelo://app?vid=2dce41b4-f1e9-4565-979b-d206af37124f"},"vehicle_type_id":"4","last_reported":1703282800,"current_range_meters":31600,"station_id":"ce4bhpp2rcd13ifvqhgg","pricing_plan_id":"free"},{"bike_id":"aefe02c5-00b4-4187-895f-8ef3edfdb806","system_id":"levelo_inurba_marseille","lat":43.3042,"lon":5.41277,"is_reserved":false,"is_disabled":false,"rental_uris":{"android":"levelo://app?vid=aefe02c5-00b4-4187-895f-8ef3edfdb806","ios":"levelo://app?vid=aefe02c5-00b4-4187-895f-8ef3edfdb806"},"vehicle_type_id":"4","last_reported":1703282800,"current_range_meters":30400,"station_id":"ce4bhop2rcd13ifvqh8g","pricing_plan_id":"free"},{"bike_id":"3facbe4d-388c-40d0-82e4-59c677c06a34","system_id":"levelo_inurba_marseille","lat":43.30422,"lon":5.4128,"is_reserved":false,"is_disabled":false,"rental_uris":{"android":"levelo://app?vid=3facbe4d-388c-40d0-82e4-59c677c06a34","ios":"levelo://app?vid=3facbe4d-388c-40d0-82e4-59c677c06a34"},"vehicle_type_id":"4","last_reported":1703282800,"current_range_meters":4400,"station_id":"ce4bhop2rcd13ifvqh8g","pricing_plan_id":"free"},{"bike_id":"2994219f-f282-434d-a4a5-dcac2f9151e5","system_id":"levelo_inurba_marseille","lat":43.304172,"lon":5.412793,"is_reserved":false,"is_disabled":false,"rental_uris":{"android":"levelo://app?vid=2994219f-f282-434d-a4a5-dcac2f9151e5","ios":"levelo://app?vid=2994219f-f282-434d-a4a5-dcac2f9151e5"},"vehicle_type_id":"4","last_reported":1703282800,"current_range_meters":14000,"station_id":"ce4bhop2rcd13ifvqh8g","pricing_plan_id":"free"},{"bike_id":"7f89473b-4ee2-4ba8-86bf-bc53e18d4702","system_id":"levelo_inurba_marseille","lat":43.304166,"lon":5.412801,"is_reserved":false,"is_disabled":false,"rental_uris":{"android":"levelo://app?vid=7f89473b-4ee2-4ba8-86bf-bc53e18d4702","ios":"levelo://app?vid=7f89473b-4ee2-4ba8-86bf-bc53e18d4702"},"vehicle_type_id":"4","last_reported":1703282800,"current_range_meters":3200,"station_id":"ce4bhop2rcd13ifvqh8g","pricing_plan_id":"free"},{"bike_id":"ce8793a4-914b-4560-a507-07a33915b2ad","system_id":"levelo_inurba_marseille","lat":43.30424,"lon":5.41285,"is_reserved":false,"is_disabled":false,"rental_uris":{"android":"levelo://app?vid=ce8793a4-914b-4560-a507-07a33915b2ad","ios":"levelo://app?vid=ce8793a4-914b-4560-a507-07a33915b2ad"},"vehicle_type_id":"4","last_reported":1703282800,"current_range_meters":10000,"station_id":"ce4bhop2rcd13ifvqh8g","pricing_plan_id":"free"},{"bike_id":"f2a735b9-b183-4b03-acbe-8b823bd40b24","system_id":"levelo_inurba_marseille","lat":43.304124,"lon":5.412852,"is_reserved":false,"is_disabled":false,"rental_uris":{"android":"levelo://app?vid=f2a735b9-b183-4b03-acbe-8b823bd40b24","ios":"levelo://app?vid=f2a735b9-b183-4b03-acbe-8b823bd40b24"},"vehicle_type_id":"4","last_reported":1703282800,"current_range_meters":31200,"station_id":"ce4bhop2rcd13ifvqh8g","pricing_plan_id":"free"},{"bike_id":"4fc3eaa3-b5e5-4ef0-972e-8a11d75e9279","system_id":"levelo_inurba_marseille","lat":43.279087,"lon":5.380114,"is_reserved":false,"is_disabled":false,"rental_uris":{"android":"levelo://app?vid=4fc3eaa3-b5e5-4ef0-972e-8a11d75e9279","ios":"levelo://app?vid=4fc3eaa3-b5e5-4ef0-972e-8a11d75e9279"},"vehicle_type_id":"4","last_reported":1703282800,"current_range_meters":26000,"station_id":"ce4bhf92rcd13ifvqf50","pricing_plan_id":"free"},{"bike_id":"1db55c21-5b1c-4276-b8ff-c0616eb64739","system_id":"levelo_inurba_marseille","lat":43.287154,"lon":5.399979,"is_reserved":false,"is_disabled":false,"rental_uris":{"android":"levelo://app?vid=1db55c21-5b1c-4276-b8ff-c0616eb64739","ios":"levelo://app?vid=1db55c21-5b1c-4276-b8ff-c0616eb64739"},"vehicle_type_id":"4","last_reported":1703282800,"current_range_meters":25200,"station_id":"ce4bho92rcd13ifvqh3g","pricing_plan_id":"free"},{"bike_id":"3abf6371-b3c9-4f2e-92be-ad71562b6a11","system_id":"levelo_inurba_marseille","lat":43.28704,"lon":5.400153,"is_reserved":false,"is_disabled":false,"rental_uris":{"android":"levelo://app?vid=3abf6371-b3c9-4f2e-92be-ad71562b6a11","ios":"levelo://app?vid=3abf6371-b3c9-4f2e-92be-ad71562b6a11"},"vehicle_type_id":"4","last_reported":1703282800,"current_range_meters":8000,"station_id":"ce4bho92rcd13ifvqh3g","pricing_plan_id":"free"},{"bike_id":"b87d96b8-e1ce-4762-b3c9-0c98d25215da","system_id":"levelo_inurba_marseille","lat":43.320045,"lon":5.415046,"is_reserved":false,"is_disabled":false,"rental_uris":{"android":"levelo://app?vid=b87d96b8-e1ce-4762-b3c9-0c98d25215da","ios":"levelo://app?vid=b87d96b8-e1ce-4762-b3c9-0c98d25215da"},"vehicle_type_id":"4","last_reported":1703282800,"current_range_meters":12800,"station_id":"ce4bhq92rcd13ifvqhkg","pricing_plan_id":"free"},{"bike_id":"3c990e90-1eed-4343-9b72-6fb2ce5c8fda","system_id":"levelo_inurba_marseille","lat":43.27618,"lon":5.3612,"is_reserved":false,"is_disabled":false,"rental_uris":{"android":"levelo://app?vid=3c990e90-1eed-4343-9b72-6fb2ce5c8fda","ios":"levelo://app?vid=3c990e90-1eed-4343-9b72-6fb2ce5c8fda"},"vehicle_type_id":"4","last_reported":1703282800,"current_range_meters":2800,"station_id":"ce4bgj92rcd13ifvqbe0","pricing_plan_id":"free"},{"bike_id":"db2046b0-697a-4d2e-8814-6af0aeab90a8","system_id":"levelo_inurba_marseille","lat":43.276179,"lon":5.361009,"is_reserved":false,"is_disabled":false,"rental_uris":{"android":"levelo://app?vid=db2046b0-697a-4d2e-8814-6af0aeab90a8","ios":"levelo://app?vid=db2046b0-697a-4d2e-8814-6af0aeab90a8"},"vehicle_type_id":"4","last_reported":1703282800,"current_range_meters":6000,"station_id":"ce4bgj92rcd13ifvqbe0","pricing_plan_id":"free"},{"bike_id":"e5af3670-68f2-4e5c-9bf4-21ce1330df16","system_id":"levelo_inurba_marseille","lat":43.280784,"lon":5.396622,"is_reserved":false,"is_disabled":false,"rental_uris":{"android":"levelo://app?vid=e5af3670-68f2-4e5c-9bf4-21ce1330df16","ios":"levelo://app?vid=e5af3670-68f2-4e5c-9bf4-21ce1330df16"},"vehicle_type_id":"4","last_reported":1703282800,"current_range_meters":31200,"station_id":"ce4bho12rcd13ifvqh2g","pricing_plan_id":"free"},{"bike_id":"92652a21-0cc0-4a5f-8e5f-31ffc502ba29","system_id":"levelo_inurba_marseille","lat":43.303837,"lon":5.418724,"is_reserved":false,"is_disabled":false,"rental_uris":{"android":"levelo://app?vid=92652a21-0cc0-4a5f-8e5f-31ffc502ba29","ios":"levelo://app?vid=92652a21-0cc0-4a5f-8e5f-31ffc502ba29"},"vehicle_type_id":"4","last_reported":1703282800,"current_range_meters":22400,"station_id":"ce4bhop2rcd13ifvqh7g","pricing_plan_id":"free"},{"bike_id":"03b14f24-ad2a-40bf-a8a4-d789d50cd69a","system_id":"levelo_inurba_marseille","lat":43.303837,"lon":5.418724,"is_reserved":false,"is_disabled":false,"rental_uris":{"android":"levelo://app?vid=03b14f24-ad2a-40bf-a8a4-d789d50cd69a","ios":"levelo://app?vid=03b14f24-ad2a-40bf-a8a4-d789d50cd69a"},"vehicle_type_id":"4","last_reported":1703282800,"current_range_meters":30000,"station_id":"ce4bhop2rcd13ifvqh7g","pricing_plan_id":"free"},{"bike_id":"48cb72d6-5769-46dd-a4f2-54dfd0bfb283","system_id":"levelo_inurba_marseille","lat":43.273613,"lon":5.362705,"is_reserved":false,"is_disabled":false,"rental_uris":{"android":"levelo://app?vid=48cb72d6-5769-46dd-a4f2-54dfd0bfb283","ios":"levelo://app?vid=48cb72d6-5769-46dd-a4f2-54dfd0bfb283"},"vehicle_type_id":"4","last_reported":1703282800,"current_range_meters":28800,"station_id":"ce4bhbh2rcd13ifvqeo0","pricing_plan_id":"free"},{"bike_id":"843de36b-095c-4afd-830d-de0e9d07ea09","system_id":"levelo_inurba_marseille","lat":43.273613,"lon":5.362705,"is_reserved":false,"is_disabled":false,"rental_uris":{"android":"levelo://app?vid=843de36b-095c-4afd-830d-de0e9d07ea09","ios":"levelo://app?vid=843de36b-095c-4afd-830d-de0e9d07ea09"},"vehicle_type_id":"4","last_reported":1703282800,"current_range_meters":30400,"station_id":"ce4bhbh2rcd13ifvqeo0","pricing_plan_id":"free"},{"bike_id":"e09a6d18-e62b-45bc-ba72-f8db6df2fcf5","system_id":"levelo_inurba_marseille","lat":43.273609,"lon":5.362708,"is_reserved":false,"is_disabled":false,"rental_uris":{"android":"levelo://app?vid=e09a6d18-e62b-45bc-ba72-f8db6df2fcf5","ios":"levelo://app?vid=e09a6d18-e62b-45bc-ba72-f8db6df2fcf5"},"vehicle_type_id":"4","last_reported":1703282800,"current_range_meters":30000,"station_id":"ce4bhbh2rcd13ifvqeo0","pricing_plan_id":"free"},{"bike_id":"d25de747-3cec-4576-99a5-27d47914b475","system_id":"levelo_inurba_marseille","lat":43.33604,"lon":5.41028,"is_reserved":false,"is_disabled":false,"rental_uris":{"android":"levelo://app?vid=d25de747-3cec-4576-99a5-27d47914b475","ios":"levelo://app?vid=d25de747-3cec-4576-99a5-27d47914b475"},"vehicle_type_id":"4","last_reported":1703282800,"current_range_meters":9200,"station_id":"ce4bhqh2rcd13ifvqhmg","pricing_plan_id":"free"},{"bike_id":"bb7a82d1-94cf-447b-90e4-39e3e291862b","system_id":"levelo_inurba_marseille","lat":43.276771,"lon":5.388799,"is_reserved":false,"is_disabled":false,"rental_uris":{"android":"levelo://app?vid=bb7a82d1-94cf-447b-90e4-39e3e291862b","ios":"levelo://app?vid=bb7a82d1-94cf-447b-90e4-39e3e291862b"},"vehicle_type_id":"4","last_reported":1703282800,"current_range_meters":3200,"station_id":"ce4bhi12rcd13ifvqfo0","pricing_plan_id":"free"},{"bike_id":"7c92ac06-9f8b-4771-8927-7d3efcae43ac","system_id":"levelo_inurba_marseille","lat":43.310785,"lon":5.424305,"is_reserved":false,"is_disabled":false,"rental_uris":{"android":"levelo://app?vid=7c92ac06-9f8b-4771-8927-7d3efcae43ac","ios":"levelo://app?vid=7c92ac06-9f8b-4771-8927-7d3efcae43ac"},"vehicle_type_id":"4","last_reported":1703282800,"current_range_meters":18000,"station_id":"ce4bhp92rcd13ifvqhag","pricing_plan_id":"free"},{"bike_id":"9d8a300c-7356-461f-8e60-7c138328974e","system_id":"levelo_inurba_marseille","lat":43.317121,"lon":5.423936,"is_reserved":false,"is_disabled":false,"rental_uris":{"android":"levelo://app?vid=9d8a300c-7356-461f-8e60-7c138328974e","ios":"levelo://app?vid=9d8a300c-7356-461f-8e60-7c138328974e"},"vehicle_type_id":"4","last_reported":1703282800,"current_range_meters":28800,"station_id":"ce4bhp92rcd13ifvqhbg","pricing_plan_id":"free"},{"bike_id":"12245dbc-a0af-447e-bc90-735052f4c4cb","system_id":"levelo_inurba_marseille","lat":43.30414,"lon":5.42538,"is_reserved":false,"is_disabled":false,"rental_uris":{"android":"levelo://app?vid=12245dbc-a0af-447e-bc90-735052f4c4cb","ios":"levelo://app?vid=12245dbc-a0af-447e-bc90-735052f4c4cb"},"vehicle_type_id":"4","last_reported":1703282800,"current_range_meters":2400,"station_id":"ce4bhoh2rcd13ifvqh6g","pricing_plan_id":"free"},{"bike_id":"b2bae555-70b7-4476-bc50-e1d2a40076e2","system_id":"levelo_inurba_marseille","lat":43.295511,"lon":5.422926,"is_reserved":false,"is_disabled":false,"rental_uris":{"android":"levelo://app?vid=b2bae555-70b7-4476-bc50-e1d2a40076e2","ios":"levelo://app?vid=b2bae555-70b7-4476-bc50-e1d2a40076e2"},"vehicle_type_id":"4","last_reported":1703282800,"current_range_meters":25200,"station_id":"ce4bhph2rcd13ifvqhdg","pricing_plan_id":"free"},{"bike_id":"33e023ea-c319-4b46-af01-12d017ed6bef","system_id":"levelo_inurba_marseille","lat":43.272116,"lon":5.391763,"is_reserved":false,"is_disabled":false,"rental_uris":{"android":"levelo://app?vid=33e023ea-c319-4b46-af01-12d017ed6bef","ios":"levelo://app?vid=33e023ea-c319-4b46-af01-12d017ed6bef"},"vehicle_type_id":"4","last_reported":1703282800,"current_range_meters":19200,"station_id":"ce4bhhp2rcd13ifvqfm0","pricing_plan_id":"free"},{"bike_id":"3c86252e-38e1-4524-80ab-11f9efbb08d7","system_id":"levelo_inurba_marseille","lat":43.2721,"lon":5.39181,"is_reserved":false,"is_disabled":false,"rental_uris":{"android":"levelo://app?vid=3c86252e-38e1-4524-80ab-11f9efbb08d7","ios":"levelo://app?vid=3c86252e-38e1-4524-80ab-11f9efbb08d7"},"vehicle_type_id":"4","last_reported":1703282800,"current_range_meters":0,"station_id":"ce4bhhp2rcd13ifvqfm0","pricing_plan_id":"free"},{"bike_id":"053f9963-162f-4d8a-a7e8-c93be1eb3c79","system_id":"levelo_inurba_marseille","lat":43.272118,"lon":5.391758,"is_reserved":false,"is_disabled":false,"rental_uris":{"android":"levelo://app?vid=053f9963-162f-4d8a-a7e8-c93be1eb3c79","ios":"levelo://app?vid=053f9963-162f-4d8a-a7e8-c93be1eb3c79"},"vehicle_type_id":"4","last_reported":1703282800,"current_range_meters":12800,"station_id":"ce4bhhp2rcd13ifvqfm0","pricing_plan_id":"free"},{"bike_id":"aae3d177-3e9e-405a-bda1-ee0a0d357d08","system_id":"levelo_inurba_marseille","lat":43.27207,"lon":5.39192,"is_reserved":false,"is_disabled":false,"rental_uris":{"android":"levelo://app?vid=aae3d177-3e9e-405a-bda1-ee0a0d357d08","ios":"levelo://app?vid=aae3d177-3e9e-405a-bda1-ee0a0d357d08"},"vehicle_type_id":"4","last_reported":1703282800,"current_range_meters":0,"station_id":"ce4bhhp2rcd13ifvqfm0","pricing_plan_id":"free"},{"bike_id":"9291bcb0-68af-431c-b6de-8509c4d05015","system_id":"levelo_inurba_marseille","lat":43.27203,"lon":5.39182,"is_reserved":false,"is_disabled":false,"rental_uris":{"android":"levelo://app?vid=9291bcb0-68af-431c-b6de-8509c4d05015","ios":"levelo://app?vid=9291bcb0-68af-431c-b6de-8509c4d05015"},"vehicle_type_id":"4","last_reported":1703282800,"current_range_meters":0,"station_id":"ce4bhhp2rcd13ifvqfm0","pricing_plan_id":"free"},{"bike_id":"8b6c6e5d-efb8-449f-902b-2f6033ff09f0","system_id":"levelo_inurba_marseille","lat":43.278128,"lon":5.407195,"is_reserved":false,"is_disabled":false,"rental_uris":{"android":"levelo://app?vid=8b6c6e5d-efb8-449f-902b-2f6033ff09f0","ios":"levelo://app?vid=8b6c6e5d-efb8-449f-902b-2f6033ff09f0"},"vehicle_type_id":"4","last_reported":1703282800,"current_range_meters":14000,"station_id":"ce4bhnh2rcd13ifvqgtg","pricing_plan_id":"free"},{"bike_id":"5ac55ea3-9cbd-4fdc-9bf7-97c5c25381b9","system_id":"levelo_inurba_marseille","lat":43.2781,"lon":5.40713,"is_reserved":false,"is_disabled":false,"rental_uris":{"android":"levelo://app?vid=5ac55ea3-9cbd-4fdc-9bf7-97c5c25381b9","ios":"levelo://app?vid=5ac55ea3-9cbd-4fdc-9bf7-97c5c25381b9"},"vehicle_type_id":"4","last_reported":1703282800,"current_range_meters":3200,"station_id":"ce4bhnh2rcd13ifvqgtg","pricing_plan_id":"free"},{"bike_id":"17477f7e-7e27-47f1-99a4-9717c464e350","system_id":"levelo_inurba_marseille","lat":43.278128,"lon":5.407195,"is_reserved":false,"is_disabled":false,"rental_uris":{"android":"levelo://app?vid=17477f7e-7e27-47f1-99a4-9717c464e350","ios":"levelo://app?vid=17477f7e-7e27-47f1-99a4-9717c464e350"},"vehicle_type_id":"4","last_reported":1703282800,"current_range_meters":25600,"station_id":"ce4bhnh2rcd13ifvqgtg","pricing_plan_id":"free"},{"bike_id":"9f64aafd-c841-405b-aa4d-882e9d32084c","system_id":"levelo_inurba_marseille","lat":43.26552,"lon":5.37287,"is_reserved":false,"is_disabled":false,"rental_uris":{"android":"levelo://app?vid=9f64aafd-c841-405b-aa4d-882e9d32084c","ios":"levelo://app?vid=9f64aafd-c841-405b-aa4d-882e9d32084c"},"vehicle_type_id":"4","last_reported":1703282800,"current_range_meters":21600,"station_id":"ce4bhg12rcd13ifvqf70","pricing_plan_id":"free"},{"bike_id":"8a8118d2-1be5-4451-b2d9-0ba1321b8f2d","system_id":"levelo_inurba_marseille","lat":43.28003,"lon":5.41649,"is_reserved":false,"is_disabled":false,"rental_uris":{"android":"levelo://app?vid=8a8118d2-1be5-4451-b2d9-0ba1321b8f2d","ios":"levelo://app?vid=8a8118d2-1be5-4451-b2d9-0ba1321b8f2d"},"vehicle_type_id":"4","last_reported":1703282800,"current_range_meters":12800,"station_id":"ce4bho12rcd13ifvqh1g","pricing_plan_id":"free"},{"bike_id":"04856091-6154-4709-aa6f-1b2c52cd2fe2","system_id":"levelo_inurba_marseille","lat":43.265571,"lon":5.390032,"is_reserved":false,"is_disabled":false,"rental_uris":{"android":"levelo://app?vid=04856091-6154-4709-aa6f-1b2c52cd2fe2","ios":"levelo://app?vid=04856091-6154-4709-aa6f-1b2c52cd2fe2"},"vehicle_type_id":"4","last_reported":1703282800,"current_range_meters":0,"station_id":"ce4bhe12rcd13ifvqf30","pricing_plan_id":"free"},{"bike_id":"8dcce589-3fc8-4cfd-a507-9be5a0f708c5","system_id":"levelo_inurba_marseille","lat":43.265569,"lon":5.390047,"is_reserved":false,"is_disabled":false,"rental_uris":{"android":"levelo://app?vid=8dcce589-3fc8-4cfd-a507-9be5a0f708c5","ios":"levelo://app?vid=8dcce589-3fc8-4cfd-a507-9be5a0f708c5"},"vehicle_type_id":"4","last_reported":1703282800,"current_range_meters":19600,"station_id":"ce4bhe12rcd13ifvqf30","pricing_plan_id":"free"},{"bike_id":"25da4067-3a54-48f0-b298-b48ae16a0b38","system_id":"levelo_inurba_marseille","lat":43.265569,"lon":5.390047,"is_reserved":false,"is_disabled":false,"rental_uris":{"android":"levelo://app?vid=25da4067-3a54-48f0-b298-b48ae16a0b38","ios":"levelo://app?vid=25da4067-3a54-48f0-b298-b48ae16a0b38"},"vehicle_type_id":"4","last_reported":1703282800,"current_range_meters":9200,"station_id":"ce4bhe12rcd13ifvqf30","pricing_plan_id":"free"},{"bike_id":"a00c63e0-8f9b-49e7-a6c0-743857ff5370","system_id":"levelo_inurba_marseille","lat":43.265569,"lon":5.390047,"is_reserved":false,"is_disabled":false,"rental_uris":{"android":"levelo://app?vid=a00c63e0-8f9b-49e7-a6c0-743857ff5370","ios":"levelo://app?vid=a00c63e0-8f9b-49e7-a6c0-743857ff5370"},"vehicle_type_id":"4","last_reported":1703282800,"current_range_meters":0,"station_id":"ce4bhe12rcd13ifvqf30","pricing_plan_id":"free"},{"bike_id":"c58e1262-f8e5-4cce-9f1b-ca3654f61e11","system_id":"levelo_inurba_marseille","lat":43.26949,"lon":5.40262,"is_reserved":false,"is_disabled":false,"rental_uris":{"android":"levelo://app?vid=c58e1262-f8e5-4cce-9f1b-ca3654f61e11","ios":"levelo://app?vid=c58e1262-f8e5-4cce-9f1b-ca3654f61e11"},"vehicle_type_id":"4","last_reported":1703282800,"current_range_meters":12000,"station_id":"cjm6bp8fraef2m0cb0m0","pricing_plan_id":"free"},{"bike_id":"c46d2d6c-d439-470a-99b2-00fccc9917e9","system_id":"levelo_inurba_marseille","lat":43.261782,"lon":5.374515,"is_reserved":false,"is_disabled":false,"rental_uris":{"android":"levelo://app?vid=c46d2d6c-d439-470a-99b2-00fccc9917e9","ios":"levelo://app?vid=c46d2d6c-d439-470a-99b2-00fccc9917e9"},"vehicle_type_id":"4","last_reported":1703282800,"current_range_meters":15600,"station_id":"ce4bhgp2rcd13ifvqfc0","pricing_plan_id":"free"},{"bike_id":"4e68cc02-5179-4162-a2d3-aa51415e2ffc","system_id":"levelo_inurba_marseille","lat":43.261782,"lon":5.374515,"is_reserved":false,"is_disabled":false,"rental_uris":{"android":"levelo://app?vid=4e68cc02-5179-4162-a2d3-aa51415e2ffc","ios":"levelo://app?vid=4e68cc02-5179-4162-a2d3-aa51415e2ffc"},"vehicle_type_id":"4","last_reported":1703282800,"current_range_meters":31200,"station_id":"ce4bhgp2rcd13ifvqfc0","pricing_plan_id":"free"},{"bike_id":"a36e5938-cfe7-4a1e-b899-9e1c72d03485","system_id":"levelo_inurba_marseille","lat":43.317104,"lon":5.436818,"is_reserved":false,"is_disabled":false,"rental_uris":{"android":"levelo://app?vid=a36e5938-cfe7-4a1e-b899-9e1c72d03485","ios":"levelo://app?vid=a36e5938-cfe7-4a1e-b899-9e1c72d03485"},"vehicle_type_id":"4","last_reported":1703282800,"current_range_meters":7200,"station_id":"ce4bhp92rcd13ifvqhcg","pricing_plan_id":"free"},{"bike_id":"7fbe02a0-b05d-40e2-885a-21861b971e54","system_id":"levelo_inurba_marseille","lat":43.317104,"lon":5.436818,"is_reserved":false,"is_disabled":false,"rental_uris":{"android":"levelo://app?vid=7fbe02a0-b05d-40e2-885a-21861b971e54","ios":"levelo://app?vid=7fbe02a0-b05d-40e2-885a-21861b971e54"},"vehicle_type_id":"4","last_reported":1703282800,"current_range_meters":10400,"station_id":"ce4bhp92rcd13ifvqhcg","pricing_plan_id":"free"},{"bike_id":"9a22b759-cb02-4a9f-b32d-4de2997c4531","system_id":"levelo_inurba_marseille","lat":43.317104,"lon":5.436818,"is_reserved":false,"is_disabled":false,"rental_uris":{"android":"levelo://app?vid=9a22b759-cb02-4a9f-b32d-4de2997c4531","ios":"levelo://app?vid=9a22b759-cb02-4a9f-b32d-4de2997c4531"},"vehicle_type_id":"4","last_reported":1703282800,"current_range_meters":1600,"station_id":"ce4bhp92rcd13ifvqhcg","pricing_plan_id":"free"},{"bike_id":"3c97a8a7-622c-4d01-a316-783cde5fc7f9","system_id":"levelo_inurba_marseille","lat":43.317104,"lon":5.436818,"is_reserved":false,"is_disabled":false,"rental_uris":{"android":"levelo://app?vid=3c97a8a7-622c-4d01-a316-783cde5fc7f9","ios":"levelo://app?vid=3c97a8a7-622c-4d01-a316-783cde5fc7f9"},"vehicle_type_id":"4","last_reported":1703282800,"current_range_meters":25200,"station_id":"ce4bhp92rcd13ifvqhcg","pricing_plan_id":"free"},{"bike_id":"cb3bedef-14c4-4d98-84e3-b4d224805958","system_id":"levelo_inurba_marseille","lat":43.271368,"lon":5.40928,"is_reserved":false,"is_disabled":false,"rental_uris":{"android":"levelo://app?vid=cb3bedef-14c4-4d98-84e3-b4d224805958","ios":"levelo://app?vid=cb3bedef-14c4-4d98-84e3-b4d224805958"},"vehicle_type_id":"4","last_reported":1703282800,"current_range_meters":16800,"station_id":"ce4bhl12rcd13ifvqgf0","pricing_plan_id":"free"},{"bike_id":"e6a27536-93bf-4353-bc30-ffcc5c9c33d5","system_id":"levelo_inurba_marseille","lat":43.271368,"lon":5.40928,"is_reserved":false,"is_disabled":false,"rental_uris":{"android":"levelo://app?vid=e6a27536-93bf-4353-bc30-ffcc5c9c33d5","ios":"levelo://app?vid=e6a27536-93bf-4353-bc30-ffcc5c9c33d5"},"vehicle_type_id":"4","last_reported":1703282800,"current_range_meters":23200,"station_id":"ce4bhl12rcd13ifvqgf0","pricing_plan_id":"free"},{"bike_id":"ecded0b1-26e9-4178-868a-0ff40f1e2ee0","system_id":"levelo_inurba_marseille","lat":43.271388,"lon":5.409269,"is_reserved":false,"is_disabled":false,"rental_uris":{"android":"levelo://app?vid=ecded0b1-26e9-4178-868a-0ff40f1e2ee0","ios":"levelo://app?vid=ecded0b1-26e9-4178-868a-0ff40f1e2ee0"},"vehicle_type_id":"4","last_reported":1703282800,"current_range_meters":30400,"station_id":"ce4bhl12rcd13ifvqgf0","pricing_plan_id":"free"},