{"last_updated":1724955083,"ttl":30,"version":"2.2","data":{"bikes":[{"bike_id":"dcf4db84-e473-426c-a636-e48c2bd7cd2e","system_id":"levelo_inurba_marseille","lat":43.312239,"lon":5.368562,"is_reserved":false,"is_disabled":false,"rental_uris":{"android":"levelo://app?vid=dcf4db84-e473-426c-a636-e48c2bd7cd2e","ios":"levelo://app?vid=dcf4db84-e473-426c-a636-e48c2bd7cd2e"},"vehicle_type_id":"4","last_reported":1724955083,"current_range_meters":13200,"station_id":"ce4bgl92rcd13ifvqbq0","pricing_plan_id":"cebpf4jnsgd1na2vs0mg"},{"bike_id":"8ef82de8-7b0c-4813-aa69-232b52009e9f","system_id":"levelo_inurba_marseille","lat":43.314811,"lon":5.373103,"is_reserved":false,"is_disabled":false,"rental_uris":{"android":"levelo://app?vid=8ef82de8-7b0c-4813-aa69-232b52009e9f","ios":"levelo://app?vid=8ef82de8-7b0c-4813-aa69-232b52009e9f"},"vehicle_type_id":"4","last_reported":1724955083,"current_range_meters":19200,"station_id":"ce4bgt12rcd13ifvqcd0","pricing_plan_id":"cebpf4jnsgd1na2vs0mg"},{"bike_id":"5a44a50a-e99d-4b61-aa30-02729ab570e0","system_id":"levelo_inurba_marseille","lat":43.314811,"lon":5.373103,"is_reserved":false,"is_disabled":false,"rental_uris":{"android":"levelo://app?vid=5a44a50a-e99d-4b61-aa30-02729ab570e0","ios":"levelo://app?vid=5a44a50a-e99d-4b61-aa30-02729ab570e0"},"vehicle_type_id":"4","last_reported":1724955083,"current_range_meters":15200,"station_id":"ce4bgt12rcd13ifvqcd0","pricing_plan_id":"cebpf4jnsgd1na2vs0mg"},{"bike_id":"84c326e3-d2e4-45fa-b631-532339e49b8f","system_id":"levelo_inurba_marseille","lat":43.31448,"lon":5.37378,"is_reserved":false,"is_disabled":false,"rental_uris":{"android":"levelo://app?vid=84c326e3-d2e4-45fa-b631-532339e49b8f","ios":"levelo://app?vid=84c326e3-d2e4-45fa-b631-532339e49b8f"},"vehicle_type_id":"4","last_reported":1724955083,"current_range_meters":30000,"station_id":"","pricing_plan_id":"cebpf4jnsgd1na2vs0mg"},{"bike_id":"6c15e696-b91c-4c86-b76c-314d3fedea64","system_id":"levelo_inurba_marseille","lat":43.305467,"lon":5.366776,"is_reserved":false,"is_disabled":false,"rental_uris":{"android":"levelo://app?vid=6c15e696-b91c-4c86-b76c-314d3fedea64","ios":"levelo://app?vid=6c15e696-b91c-4c86-b76c-314d3fedea64"},"vehicle_type_id":"4","last_reported":1724955083,"current_range_meters":800,"station_id":"","pricing_plan_id":"cebpf4jnsgd1na2vs0mg"},{"bike_id":"a10569a3-e937-4a60-b808-aea1a7db09f0","system_id":"levelo_inurba_marseille","lat":43.305706,"lon":5.365654,"is_reserved":false,"is_disabled":false,"rental_uris":{"android":"levelo://app?vid=a10569a3-e937-4a60-b808-aea1a7db09f0","ios":"levelo://app?vid=a10569a3-e937-4a60-b808-aea1a7db09f0"},"vehicle_type_id":"4","last_reported":1724955083,"current_range_meters":28400,"station_id":"ce4bgs12rcd13ifvqcag","pricing_plan_id":"cebpf4jnsgd1na2vs0mg"},{"bike_id":"50d1a5d6-6507-44ab-acd2-d610c90ea7d7","system_id":"levelo_inurba_marseille","lat":43.30527,"lon":5.36699,"is_reserved":false,"is_disabled":false,"rental_uris":{"android":"levelo://app?vid=50d1a5d6-6507-44ab-acd2-d610c90ea7d7","ios":"levelo://app?vid=50d1a5d6-6507-44ab-acd2-d610c90ea7d7"},"vehicle_type_id":"4","last_reported":1724955083,"current_range_meters":24400,"station_id":"ce4bgrp2rcd13ifvqc9g","pricing_plan_id":"cebpf4jnsgd1na2vs0mg"},{"bike_id":"1c16af74-0d36-4200-913c-6e8a1d8abe25","system_id":"levelo_inurba_marseille","lat":43.305287,"lon":5.36537,"is_reserved":false,"is_disabled":false,"rental_uris":{"android":"levelo://app?vid=1c16af74-0d36-4200-913c-6e8a1d8abe25","ios":"levelo://app?vid=1c16af74-0d36-4200-913c-6e8a1d8abe25"},"vehicle_type_id":"4","last_reported":1724955083,"current_range_meters":0,"station_id":"ce4bgs12rcd13ifvqcag","pricing_plan_id":"cebpf4jnsgd1na2vs0mg"},{"bike_id":"faf673fb-9357-49b1-b586-1a9093d26635","system_id":"levelo_inurba_marseille","lat":43.30537,"lon":5.367345,"is_reserved":false,"is_disabled":false,"rental_uris":{"android":"levelo://app?vid=faf673fb-9357-49b1-b586-1a9093d26635","ios":"levelo://app?vid=faf673fb-9357-49b1-b586-1a9093d26635"},"vehicle_type_id":"4","last_reported":1724955083,"current_range_meters":800,"station_id":"ce4bgrp2rcd13ifvqc9g","pricing_plan_id":"cebpf4jnsgd1na2vs0mg"},{"bike_id":"8ced3895-1fdc-4a84-a453-707fc92220a1","system_id":"levelo_inurba_marseille","lat":43.311125,"lon":5.377624,"is_reserved":false,"is_disabled":false,"rental_uris":{"android":"levelo://app?vid=8ced3895-1fdc-4a84-a453-707fc92220a1","ios":"levelo://app?vid=8ced3895-1fdc-4a84-a453-707fc92220a1"},"vehicle_type_id":"4","last_reported":1724955083,"current_range_meters":0,"station_id":"ce4bgt92rcd13ifvqcg0","pricing_plan_id":"cebpf4jnsgd1na2vs0mg"},{"bike_id":"4f767d15-7742-4026-9699-747097757c60","system_id":"levelo_inurba_marseille","lat":43.311125,"lon":5.377624,"is_reserved":false,"is_disabled":false,"rental_uris":{"android":"levelo://app?vid=4f767d15-7742-4026-9699-747097757c60","ios":"levelo://app?vid=4f767d15-7742-4026-9699-747097757c60"},"vehicle_type_id":"4","last_reported":1724955083,"current_range_meters":5600,"station_id":"ce4bgt92rcd13ifvqcg0","pricing_plan_id":"cebpf4jnsgd1na2vs0mg"},{"bike_id":"448545ed-fc7e-43df-abe6-7d0d6a6e0dc7","system_id":"levelo_inurba_marseille","lat":43.307945,"lon":5.376487,"is_reserved":false,"is_disabled":false,"rental_uris":{"android":"levelo://app?vid=448545ed-fc7e-43df-abe6-7d0d6a6e0dc7","ios":"levelo://app?vid=448545ed-fc7e-43df-abe6-7d0d6a6e0dc7"},"vehicle_type_id":"4","last_reported":1724955083,"current_range_meters":7200,"station_id":"ce4bgv92rcd13ifvqcq0","pricing_plan_id":"cebpf4jnsgd1na2vs0mg"},{"bike_id":"1e451522-f582-493c-a4f7-f74b96520883","system_id":"levelo_inurba_marseille","lat":43.307945,"lon":5.376487,"is_reserved":false,"is_disabled":false,"rental_uris":{"android":"levelo://app?vid=1e451522-f582-493c-a4f7-f74b96520883","ios":"levelo://app?vid=1e451522-f582-493c-a4f7-f74b96520883"},"vehicle_type_id":"4","last_reported":1724955083,"current_range_meters":11600,"station_id":"ce4bgv92rcd13ifvqcq0","pricing_plan_id":"cebpf4jnsgd1na2vs0mg"},{"bike_id":"f39425f0-faf5-4e39-b9cd-70b85fe00188","system_id":"levelo_inurba_marseille","lat":43.307945,"lon":5.376487,"is_reserved":false,"is_disabled":false,"rental_uris":{"android":"levelo://app?vid=f39425f0-faf5-4e39-b9cd-70b85fe00188","ios":"levelo://app?vid=f39425f0-faf5-4e39-b9cd-70b85fe00188"},"vehicle_type_id":"4","last_reported":1724955083,"current_range_meters":11200,"station_id":"ce4bgv92rcd13ifvqcq0","pricing_plan_id":"cebpf4jnsgd1na2vs0mg"},{"bike_id":"6437bb55-e668-4ea0-8759-b308ef273d60","system_id":"levelo_inurba_marseille","lat":43.317075,"lon":5.377367,"is_reserved":false,"is_disabled":false,"rental_uris":{"android":"levelo://app?vid=6437bb55-e668-4ea0-8759-b308ef273d60","ios":"levelo://app?vid=6437bb55-e668-4ea0-8759-b308ef273d60"},"vehicle_type_id":"4","last_reported":1724955083,"current_range_meters":11200,"station_id":"ce4bgth2rcd13ifvqch0","pricing_plan_id":"cebpf4jnsgd1na2vs0mg"},{"bike_id":"5c63d1c1-4f98-41ed-b6a1-ad8e7f70a0dd","system_id":"levelo_inurba_marseille","lat":43.317075,"lon":5.377367,"is_reserved":false,"is_disabled":false,"rental_uris":{"android":"levelo://app?vid=5c63d1c1-4f98-41ed-b6a1-ad8e7f70a0dd","ios":"levelo://app?vid=5c63d1c1-4f98-41ed-b6a1-ad8e7f70a0dd"},"vehicle_type_id":"4","last_reported":1724955083,"current_range_meters":4800,"station_id":"ce4bgth2rcd13ifvqch0","pricing_plan_id":"cebpf4jnsgd1na2vs0mg"},{"bike_id":"fcedef45-fa03-45b8-b26f-c796ae6ce343","system_id":"levelo_inurba_marseille","lat":43.30907,"lon":5.37811,"is_reserved":false,"is_disabled":false,"rental_uris":{"android":"levelo://app?vid=fcedef45-fa03-45b8-b26f-c796ae6ce343","ios":"levelo://app?vid=fcedef45-fa03-45b8-b26f-c796ae6ce343"},"vehicle_type_id":"4","last_reported":1724955083,"current_range_meters":28000,"station_id":"","pricing_plan_id":"cebpf4jnsgd1na2vs0mg"},{"bike_id":"4aa2c883-d259-4497-bbd7-46f4535fdacf","system_id":"levelo_inurba_marseille","lat":43.316383,"lon":5.379353,"is_reserved":false,"is_disabled":false,"rental_uris":{"android":"levelo://app?vid=4aa2c883-d259-4497-bbd7-46f4535fdacf","ios":"levelo://app?vid=4aa2c883-d259-4497-bbd7-46f4535fdacf"},"vehicle_type_id":"4","last_reported":1724955083,"current_range_meters":22400,"station_id":"","pricing_plan_id":"cebpf4jnsgd1na2vs0mg"},{"bike_id":"5295c7e7-8380-4675-b472-87ad7e84e9a9","system_id":"levelo_inurba_marseille","lat":43.303046,"lon":5.368981,"is_reserved":false,"is_disabled":false,"rental_uris":{"android":"levelo://app?vid=5295c7e7-8380-4675-b472-87ad7e84e9a9","ios":"levelo://app?vid=5295c7e7-8380-4675-b472-87ad7e84e9a9"},"vehicle_type_id":"4","last_reported":1724955083,"current_range_meters":21600,"station_id":"ce4bgqh2rcd13ifvqc5g","pricing_plan_id":"cebpf4jnsgd1na2vs0mg"},{"bike_id":"f726f444-8a54-41c5-b914-f04022edf0ea","system_id":"levelo_inurba_marseille","lat":43.315289,"lon":5.380349,"is_reserved":false,"is_disabled":false,"rental_uris":{"android":"levelo://app?vid=f726f444-8a54-41c5-b914-f04022edf0ea","ios":"levelo://app?vid=f726f444-8a54-41c5-b914-f04022edf0ea"},"vehicle_type_id":"4","last_reported":1724955083,"current_range_meters":5600,"station_id":"ce4bhsp2rcd13ifvqi50","pricing_plan_id":"cebpf4jnsgd1na2vs0mg"},{"bike_id":"bedee329-acff-44f0-a522-80be2a4b17fd","system_id":"levelo_inurba_marseille","lat":43.302131,"lon":5.365843,"is_reserved":false,"is_disabled":false,"rental_uris":{"android":"levelo://app?vid=bedee329-acff-44f0-a522-80be2a4b17fd","ios":"levelo://app?vid=bedee329-acff-44f0-a522-80be2a4b17fd"},"vehicle_type_id":"4","last_reported":1724955083,"current_range_meters":4400,"station_id":"ce4bgrh2rcd13ifvqc8g","pricing_plan_id":"cebpf4jnsgd1na2vs0mg"},{"bike_id":"e9939b35-275e-442a-945d-712e1597f642","system_id":"levelo_inurba_marseille","lat":43.301939,"lon":5.366286,"is_reserved":false,"is_disabled":false,"rental_uris":{"android":"levelo://app?vid=e9939b35-275e-442a-945d-712e1597f642","ios":"levelo://app?vid=e9939b35-275e-442a-945d-712e1597f642"},"vehicle_type_id":"4","last_reported":1724955083,"current_range_meters":10400,"station_id":"ce4bgrh2rcd13ifvqc8g","pricing_plan_id":"cebpf4jnsgd1na2vs0mg"},{"bike_id":"e6e888a4-a177-4a73-b654-748324e3fbce","system_id":"levelo_inurba_marseille","lat":43.301939,"lon":5.366286,"is_reserved":false,"is_disabled":false,"rental_uris":{"android":"levelo://app?vid=e6e888a4-a177-4a73-b654-748324e3fbce","ios":"levelo://app?vid=e6e888a4-a177-4a73-b654-748324e3fbce"},"vehicle_type_id":"4","last_reported":1724955083,"current_range_meters":18800,"station_id":"ce4bgrh2rcd13ifvqc8g","pricing_plan_id":"cebpf4jnsgd1na2vs0mg"},{"bike_id":"26293114-58ed-46dc-a900-c70614200bd8","system_id":"levelo_inurba_marseille","lat":43.308012,"lon":5.381511,"is_reserved":false,"is_disabled":false,"rental_uris":{"android":"levelo://app?vid=26293114-58ed-46dc-a900-c70614200bd8","ios":"levelo://app?vid=26293114-58ed-46dc-a900-c70614200bd8"},"vehicle_type_id":"4","last_reported":1724955083,"current_range_meters":0,"station_id":"ce4bgt12rcd13ifvqce0","pricing_plan_id":"cebpf4jnsgd1na2vs0mg"},{"bike_id":"4a2ae25a-1cd6-4abe-9cd3-f1e28b967ab2","system_id":"levelo_inurba_marseille","lat":43.32474,"lon":5.3657,"is_reserved":false,"is_disabled":false,"rental_uris":{"android":"levelo://app?vid=4a2ae25a-1cd6-4abe-9cd3-f1e28b967ab2","ios":"levelo://app?vid=4a2ae25a-1cd6-4abe-9cd3-f1e28b967ab2"},"vehicle_type_id":"4","last_reported":1724955083,"current_range_meters":14400,"station_id":"","pricing_plan_id":"cebpf4jnsgd1na2vs0mg"},{"bike_id":"8cfb7bbf-b61b-424a-a708-c8defd0da1dd","system_id":"levelo_inurba_marseille","lat":43.324771,"lon":5.36557,"is_reserved":false,"is_disabled":false,"rental_uris":{"android":"levelo://app?vid=8cfb7bbf-b61b-424a-a708-c8defd0da1dd","ios":"levelo://app?vid=8cfb7bbf-b61b-424a-a708-c8defd0da1dd"},"vehicle_type_id":"4","last_reported":1724955083,"current_range_meters":7200,"station_id":"ce4bhs12rcd13ifvqhvg","pricing_plan_id":"cebpf4jnsgd1na2vs0mg"},{"bike_id":"54eebee6-5e2d-4e3f-bacd-16b5fed2b061","system_id":"levelo_inurba_marseille","lat":43.324771,"lon":5.36557,"is_reserved":false,"is_disabled":false,"rental_uris":{"android":"levelo://app?vid=54eebee6-5e2d-4e3f-bacd-16b5fed2b061","ios":"levelo://app?vid=54eebee6-5e2d-4e3f-bacd-16b5fed2b061"},"vehicle_type_id":"4","last_reported":1724955083,"current_range_meters":15600,"station_id":"ce4bhs12rcd13ifvqhvg","pricing_plan_id":"cebpf4jnsgd1na2vs0mg"},{"bike_id":"18f73bb3-7f25-4253-ba02-d358437e959f","system_id":"levelo_inurba_marseille","lat":43.324771,"lon":5.36557,"is_reserved":false,"is_disabled":false,"rental_uris":{"android":"levelo://app?vid=18f73bb3-7f25-4253-ba02-d358437e959f","ios":"levelo://app?vid=18f73bb3-7f25-4253-ba02-d358437e959f"},"vehicle_type_id":"4","last_reported":1724955083,"current_range_meters":18000,"station_id":"ce4bhs12rcd13ifvqhvg","pricing_plan_id":"cebpf4jnsgd1na2vs0mg"},{"bike_id":"a18ab256-c330-446a-85d8-a6dfc1e85eb2","system_id":"levelo_inurba_marseille","lat":43.32487,"lon":5.36565,"is_reserved":false,"is_disabled":false,"rental_uris":{"android":"levelo://app?vid=a18ab256-c330-446a-85d8-a6dfc1e85eb2","ios":"levelo://app?vid=a18ab256-c330-446a-85d8-a6dfc1e85eb2"},"vehicle_type_id":"4","last_reported":1724955083,"current_range_meters":6400,"station_id":"ce4bhs12rcd13ifvqhvg","pricing_plan_id":"cebpf4jnsgd1na2vs0mg"},{"bike_id":"76da00ad-55a4-42d5-8c2a-eae0006821fb","system_id":"levelo_inurba_marseille","lat":43.310804,"lon":5.38359,"is_reserved":false,"is_disabled":false,"rental_uris":{"android":"levelo://app?vid=76da00ad-55a4-42d5-8c2a-eae0006821fb","ios":"levelo://app?vid=76da00ad-55a4-42d5-8c2a-eae0006821fb"},"vehicle_type_id":"4","last_reported":1724955083,"current_range_meters":0,"station_id":"ce4bgv92rcd13ifvqcr0","pricing_plan_id":"cebpf4jnsgd1na2vs0mg"},{"bike_id":"59fe0f96-3111-4d32-9703-6648e9a2747f","system_id":"levelo_inurba_marseille","lat":43.302784,"lon":5.377158,"is_reserved":false,"is_disabled":false,"rental_uris":{"android":"levelo://app?vid=59fe0f96-3111-4d32-9703-6648e9a2747f","ios":"levelo://app?vid=59fe0f96-3111-4d32-9703-6648e9a2747f"},"vehicle_type_id":"4","last_reported":1724955083,"current_range_meters":10000,"station_id":"ce4bguh2rcd13ifvqcj0","pricing_plan_id":"cebpf4jnsgd1na2vs0mg"},{"bike_id":"34b803be-953b-4cb9-9612-18f420f608b9","system_id":"levelo_inurba_marseille","lat":43.302784,"lon":5.377158,"is_reserved":false,"is_disabled":false,"rental_uris":{"android":"levelo://app?vid=34b803be-953b-4cb9-9612-18f420f608b9","ios":"levelo://app?vid=34b803be-953b-4cb9-9612-18f420f608b9"},"vehicle_type_id":"4","last_reported":1724955083,"current_range_meters":10000,"station_id":"ce4bguh2rcd13ifvqcj0","pricing_plan_id":"cebpf4jnsgd1na2vs0mg"},{"bike_id":"e9112425-de91-4d39-ade2-08229a4a5e6d","system_id":"levelo_inurba_marseille","lat":43.302784,"lon":5.377158,"is_reserved":false,"is_disabled":false,"rental_uris":{"android":"levelo://app?vid=e9112425-de91-4d39-ade2-08229a4a5e6d","ios":"levelo://app?vid=e9112425-de91-4d39-ade2-08229a4a5e6d"},"vehicle_type_id":"4","last_reported":1724955083,"current_range_meters":14800,"station_id":"ce4bguh2rcd13ifvqcj0","pricing_plan_id":"cebpf4jnsgd1na2vs0mg"},{"bike_id":"023a9206-67e1-4a24-9b65-828cb76f89a2","system_id":"levelo_inurba_marseille","lat":43.30304,"lon":5.368987,"is_reserved":false,"is_disabled":false,"rental_uris":{"android":"levelo://app?vid=023a9206-67e1-4a24-9b65-828cb76f89a2","ios":"levelo://app?vid=023a9206-67e1-4a24-9b65-828cb76f89a2"},"vehicle_type_id":"4","last_reported":1724955083,"current_range_meters":5200,"station_id":"ce4bgqh2rcd13ifvqc5g","pricing_plan_id":"cebpf4jnsgd1na2vs0mg"},{"bike_id":"e3111a3b-7468-44ff-96fd-4d2751271717","system_id":"levelo_inurba_marseille","lat":43.302784,"lon":5.377158,"is_reserved":false,"is_disabled":false,"rental_uris":{"android":"levelo://app?vid=e3111a3b-7468-44ff-96fd-4d2751271717","ios":"levelo://app?vid=e3111a3b-7468-44ff-96fd-4d2751271717"},"vehicle_type_id":"4","last_reported":1724955083,"current_range_meters":30000,"station_id":"ce4bguh2rcd13ifvqcj0","pricing_plan_id":"cebpf4jnsgd1na2vs0mg"},{"bike_id":"06177739-3f66-4ecb-b733-12c519afeb0e","system_id":"levelo_inurba_marseille","lat":43.29999,"lon":5.36393,"is_reserved":false,"is_disabled":false,"rental_uris":{"android":"levelo://app?vid=06177739-3f66-4ecb-b733-12c519afeb0e","ios":"levelo://app?vid=06177739-3f66-4ecb-b733-12c519afeb0e"},"vehicle_type_id":"4","last_reported":1724955083,"current_range_meters":400,"station_id":"","pricing_plan_id":"cebpf4jnsgd1na2vs0mg"},{"bike_id":"c5addfea-b7e6-40b6-b865-d7e287b25abf","system_id":"levelo_inurba_marseille","lat":43.313571,"lon":5.384829,"is_reserved":false,"is_disabled":false,"rental_uris":{"android":"levelo://app?vid=c5addfea-b7e6-40b6-b865-d7e287b25abf","ios":"levelo://app?vid=c5addfea-b7e6-40b6-b865-d7e287b25abf"},"vehicle_type_id":"4","last_reported":1724955083,"current_range_meters":22400,"station_id":"ce4bgt92rcd13ifvqcf0","pricing_plan_id":"cebpf4jnsgd1na2vs0mg"},{"bike_id":"47ae2ab5-3bb6-4a58-9eda-02d9210c9e5d","system_id":"levelo_inurba_marseille","lat":43.313571,"lon":5.384829,"is_reserved":false,"is_disabled":false,"rental_uris":{"android":"levelo://app?vid=47ae2ab5-3bb6-4a58-9eda-02d9210c9e5d","ios":"levelo://app?vid=47ae2ab5-3bb6-4a58-9eda-02d9210c9e5d"},"vehicle_type_id":"4","last_reported":1724955083,"current_range_meters":27600,"station_id":"ce4bgt92rcd13ifvqcf0","pricing_plan_id":"cebpf4jnsgd1na2vs0mg"},{"bike_id":"dd3f5535-60ff-46f4-94c1-0fcd6399aa33","system_id":"levelo_inurba_marseille","lat":43.299724,"lon":5.371829,"is_reserved":false,"is_disabled":false,"rental_uris":{"android":"levelo://app?vid=dd3f5535-60ff-46f4-94c1-0fcd6399aa33","ios":"levelo://app?vid=dd3f5535-60ff-46f4-94c1-0fcd6399aa33"},"vehicle_type_id":"4","last_reported":1724955083,"current_range_meters":18400,"station_id":"ce4bgr92rcd13ifvqc7g","pricing_plan_id":"cebpf4jnsgd1na2vs0mg"},{"bike_id":"b45b78e6-a1ee-46f4-a3b2-0a899bce5780","system_id":"levelo_inurba_marseille","lat":43.29939,"lon":5.36536,"is_reserved":false,"is_disabled":false,"rental_uris":{"android":"levelo://app?vid=b45b78e6-a1ee-46f4-a3b2-0a899bce5780","ios":"levelo://app?vid=b45b78e6-a1ee-46f4-a3b2-0a899bce5780"},"vehicle_type_id":"4","last_reported":1724955083,"current_range_meters":1200,"station_id":"ce4bgm92rcd13ifvqbr0","pricing_plan_id":"cebpf4jnsgd1na2vs0mg"},{"bike_id":"d281524b-e192-4e9a-ac49-57b0fd338baa","system_id":"levelo_inurba_marseille","lat":43.299222,"lon":5.365554,"is_reserved":false,"is_disabled":false,"rental_uris":{"android":"levelo://app?vid=d281524b-e192-4e9a-ac49-57b0fd338baa","ios":"levelo://app?vid=d281524b-e192-4e9a-ac49-57b0fd338baa"},"vehicle_type_id":"4","last_reported":1724955083,"current_range_meters":17600,"station_id":"ce4bgm92rcd13ifvqbr0","pricing_plan_id":"cebpf4jnsgd1na2vs0mg"},{"bike_id":"82dab7f2-d178-4a4a-9cb1-80144f5d4703","system_id":"levelo_inurba_marseille","lat":43.29974,"lon":5.37172,"is_reserved":false,"is_disabled":false,"rental_uris":{"android":"levelo://app?vid=82dab7f2-d178-4a4a-9cb1-80144f5d4703","ios":"levelo://app?vid=82dab7f2-d178-4a4a-9cb1-80144f5d4703"},"vehicle_type_id":"4","last_reported":1724955083,"current_range_meters":4400,"station_id":"ce4bgr92rcd13ifvqc7g","pricing_plan_id":"cebpf4jnsgd1na2vs0mg"},{"bike_id":"41ae8f5b-0cbc-48d3-be31-4c0e3334200a","system_id":"levelo_inurba_marseille","lat":43.299209,"lon":5.365547,"is_reserved":false,"is_disabled":false,"rental_uris":{"android":"levelo://app?vid=41ae8f5b-0cbc-48d3-be31-4c0e3334200a","ios":"levelo://app?vid=41ae8f5b-0cbc-48d3-be31-4c0e3334200a"},"vehicle_type_id":"4","last_reported":1724955083,"current_range_meters":14400,"station_id":"ce4bgm92rcd13ifvqbr0","pricing_plan_id":"cebpf4jnsgd1na2vs0mg"},{"bike_id":"0c99d938-1ce2-46d8-b58d-59e141e9cef1","system_id":"levelo_inurba_marseille","lat":43.299724,"lon":5.371829,"is_reserved":false,"is_disabled":false,"rental_uris":{"android":"levelo://app?vid=0c99d938-1ce2-46d8-b58d-59e141e9cef1","ios":"levelo://app?vid=0c99d938-1ce2-46d8-b58d-59e141e9cef1"},"vehicle_type_id":"4","last_reported":1724955083,"current_range_meters":23200,"station_id":"ce4bgr92rcd13ifvqc7g","pricing_plan_id":"cebpf4jnsgd1na2vs0mg"},{"bike_id":"fd07a2a9-a822-4cae-bddd-34c8a4b4fe63","system_id":"levelo_inurba_marseille","lat":43.299724,"lon":5.371829,"is_reserved":false,"is_disabled":false,"rental_uris":{"android":"levelo://app?vid=fd07a2a9-a822-4cae-bddd-34c8a4b4fe63","ios":"levelo://app?vid=fd07a2a9-a822-4cae-bddd-34c8a4b4fe63"},"vehicle_type_id":"4","last_reported":1724955083,"current_range_meters":22000,"station_id":"ce4bgr92rcd13ifvqc7g","pricing_plan_id":"cebpf4jnsgd1na2vs0mg"},{"bike_id":"f0b68c5e-6da3-4efb-b93c-39205b6b4283","system_id":"levelo_inurba_marseille","lat":43.299222,"lon":5.365554,"is_reserved":false,"is_disabled":false,"rental_uris":{"android":"levelo://app?vid=f0b68c5e-6da3-4efb-b93c-39205b6b4283","ios":"levelo://app?vid=f0b68c5e-6da3-4efb-b93c-39205b6b4283"},"vehicle_type_id":"4","last_reported":1724955083,"current_range_meters":5200,"station_id":"ce4bgm92rcd13ifvqbr0","pricing_plan_id":"cebpf4jnsgd1na2vs0mg"},{"bike_id":"3f17e4ee-e996-434f-8b1f-c411f8562c21","system_id":"levelo_inurba_marseille","lat":43.299209,"lon":5.365547,"is_reserved":false,"is_disabled":false,"rental_uris":{"android":"levelo://app?vid=3f17e4ee-e996-434f-8b1f-c411f8562c21","ios":"levelo://app?vid=3f17e4ee-e996-434f-8b1f-c411f8562c21"},"vehicle_type_id":"4","last_reported":1724955083,"current_range_meters":0,"station_id":"ce4bgm92rcd13ifvqbr0","pricing_plan_id":"cebpf4jnsgd1na2vs0mg"},{"bike_id":"26a31c55-d9fe-4860-9ef1-1e33524fab96","system_id":"levelo_inurba_marseille","lat":43.298433,"lon":5.362774,"is_reserved":false,"is_disabled":false,"rental_uris":{"android":"levelo://app?vid=26a31c55-d9fe-4860-9ef1-1e33524fab96","ios":"levelo://app?vid=26a31c55-d9fe-4860-9ef1-1e33524fab96"},"vehicle_type_id":"4","last_reported":1724955083,"current_range_meters":24800,"station_id":"ce4bgpp2rcd13ifvqc3g","pricing_plan_id":"cebpf4jnsgd1na2vs0mg"},{"bike_id":"c22d2737-76cc-4109-bb99-49b54235ee63","system_id":"levelo_inurba_marseille","lat":43.298433,"lon":5.362774,"is_reserved":false,"is_disabled":false,"rental_uris":{"android":"levelo://app?vid=c22d2737-76cc-4109-bb99-49b54235ee63","ios":"levelo://app?vid=c22d2737-76cc-4109-bb99-49b54235ee63"},"vehicle_type_id":"4","last_reported":1724955083,"current_range_meters":0,"station_id":"ce4bgpp2rcd13ifvqc3g","pricing_plan_id":"cebpf4jnsgd1na2vs0mg"},{"bike_id":"82c96dfe-9843-4632-a12b-57d749aefdce","system_id":"levelo_inurba_marseille","lat":43.298433,"lon":5.362774,"is_reserved":false,"is_disabled":false,"rental_uris":{"android":"levelo://app?vid=82c96dfe-9843-4632-a12b-57d749aefdce","ios":"levelo://app?vid=82c96dfe-9843-4632-a12b-57d749aefdce"},"vehicle_type_id":"4","last_reported":1724955083,"current_range_meters":5600,"station_id":"ce4bgpp2rcd13ifvqc3g","pricing_plan_id":"cebpf4jnsgd1na2vs0mg"},{"bike_id":"bfcd91ae-b457-4448-84e1-2384a8cc92c9","system_id":"levelo_inurba_marseille","lat":43.298433,"lon":5.362774,"is_reserved":false,"is_disabled":false,"rental_uris":{"android":"levelo://app?vid=bfcd91ae-b457-4448-84e1-2384a8cc92c9","ios":"levelo://app?vid=bfcd91ae-b457-4448-84e1-2384a8cc92c9"},"vehicle_type_id":"4","last_reported":1724955083,"current_range_meters":27200,"station_id":"ce4bgpp2rcd13ifvqc3g","pricing_plan_id":"cebpf4jnsgd1na2vs0mg"},{"bike_id":"20b50f70-212b-4802-9fac-1ea706d31911","system_id":"levelo_inurba_marseille","lat":43.298433,"lon":5.362774,"is_reserved":false,"is_disabled":false,"rental_uris":{"android":"levelo://app?vid=20b50f70-212b-4802-9fac-1ea706d31911","ios":"levelo://app?vid=20b50f70-212b-4802-9fac-1ea706d31911"},"vehicle_type_id":"4","last_reported":1724955083,"current_range_meters":17600,"station_id":"ce4bgpp2rcd13ifvqc3g","pricing_plan_id":"cebpf4jnsgd1na2vs0mg"},{"bike_id":"fc1dd4fb-5aac-484b-b2db-fb8e5f800aec","system_id":"levelo_inurba_marseille","lat":43.298433,"lon":5.362774,"is_reserved":false,"is_disabled":false,"rental_uris":{"android":"levelo://app?vid=fc1dd4fb-5aac-484b-b2db-fb8e5f800aec","ios":"levelo://app?vid=fc1dd4fb-5aac-484b-b2db-fb8e5f800aec"},"vehicle_type_id":"4","last_reported":1724955083,"current_range_meters":6000,"station_id":"ce4bgpp2rcd13ifvqc3g","pricing_plan_id":"cebpf4jnsgd1na2vs0mg"},{"bike_id":"66fed4b0-d091-4df9-a38b-468b428c60e1","system_id":"levelo_inurba_marseille","lat":43.298433,"lon":5.362774,"is_reserved":false,"is_disabled":false,"rental_uris":{"android":"levelo://app?vid=66fed4b0-d091-4df9-a38b-468b428c60e1","ios":"levelo://app?vid=66fed4b0-d091-4df9-a38b-468b428c60e1"},"vehicle_type_id":"4","last_reported":1724955083,"current_range_meters":0,"station_id":"ce4bgpp2rcd13ifvqc3g","pricing_plan_id":"cebpf4jnsgd1na2vs0mg"},{"bike_id":"a04bffbe-617a-43bd-9dfc-f277fed440ba","system_id":"levelo_inurba_marseille","lat":43.3117,"lon":5.38717,"is_reserved":false,"is_disabled":false,"rental_uris":{"android":"levelo://app?vid=a04bffbe-617a-43bd-9dfc-f277fed440ba","ios":"levelo://app?vid=a04bffbe-617a-43bd-9dfc-f277fed440ba"},"vehicle_type_id":"4","last_reported":1724955083,"current_range_meters":21600,"station_id":"ce4bgv12rcd13ifvqcp0","pricing_plan_id":"cebpf4jnsgd1na2vs0mg"},{"bike_id":"220c6874-c7f3-47e1-8aa8-ab875bc1fb9c","system_id":"levelo_inurba_marseille","lat":43.299243,"lon":5.37481,"is_reserved":false,"is_disabled":false,"rental_uris":{"android":"levelo://app?vid=220c6874-c7f3-47e1-8aa8-ab875bc1fb9c","ios":"levelo://app?vid=220c6874-c7f3-47e1-8aa8-ab875bc1fb9c"},"vehicle_type_id":"4","last_reported":1724955083,"current_range_meters":13200,"station_id":"ce4bgjh2rcd13ifvqbg0","pricing_plan_id":"cebpf4jnsgd1na2vs0mg"},{"bike_id":"16587edf-52f2-4095-8c7d-188fb3e70422","system_id":"levelo_inurba_marseille","lat":43.29909,"lon":5.37591,"is_reserved":false,"is_disabled":false,"rental_uris":{"android":"levelo://app?vid=16587edf-52f2-4095-8c7d-188fb3e70422","ios":"levelo://app?vid=16587edf-52f2-4095-8c7d-188fb3e70422"},"vehicle_type_id":"4","last_reported":1724955083,"current_range_meters":22400,"station_id":"","pricing_plan_id":"cebpf4jnsgd1na2vs0mg"},{"bike_id":"44b694c3-cb61-44bd-8ac7-572678037941","system_id":"levelo_inurba_marseille","lat":43.32291,"lon":5.38249,"is_reserved":false,"is_disabled":false,"rental_uris":{"android":"levelo://app?vid=44b694c3-cb61-44bd-8ac7-572678037941","ios":"levelo://app?vid=44b694c3-cb61-44bd-8ac7-572678037941"},"vehicle_type_id":"4","last_reported":1724955083,"current_range_meters":6400,"station_id":"ce4bhr12rcd13ifvqhqg","pricing_plan_id":"cebpf4jnsgd1na2vs0mg"},{"bike_id":"cb73b66e-dfa6-4f93-80b9-a70c2f549e78","system_id":"levelo_inurba_marseille","lat":43.32286,"lon":5.3826,"is_reserved":false,"is_disabled":false,"rental_uris":{"android":"levelo://app?vid=cb73b66e-dfa6-4f93-80b9-a70c2f549e78","ios":"levelo://app?vid=cb73b66e-dfa6-4f93-80b9-a70c2f549e78"},"vehicle_type_id":"4","last_reported":1724955083,"current_range_meters":27600,"station_id":"ce4bhr12rcd13ifvqhqg","pricing_plan_id":"cebpf4jnsgd1na2vs0mg"},{"bike_id":"78adb6e2-a74e-45b0-8807-c691a3fbddc2","system_id":"levelo_inurba_marseille","lat":43.32287,"lon":5.38262,"is_reserved":false,"is_disabled":false,"rental_uris":{"android":"levelo://app?vid=78adb6e2-a74e-45b0-8807-c691a3fbddc2","ios":"levelo://app?vid=78adb6e2-a74e-45b0-8807-c691a3fbddc2"},"vehicle_type_id":"4","last_reported":1724955083,"current_range_meters":0,"station_id":"ce4bhr12rcd13ifvqhqg","pricing_plan_id":"cebpf4jnsgd1na2vs0mg"},{"bike_id":"67bd89f1-4063-4fb0-8524-cc59071121e7","system_id":"levelo_inurba_marseille","lat":43.297794,"lon":5.370888,"is_reserved":false,"is_disabled":false,"rental_uris":{"android":"levelo://app?vid=67bd89f1-4063-4fb0-8524-cc59071121e7","ios":"levelo://app?vid=67bd89f1-4063-4fb0-8524-cc59071121e7"},"vehicle_type_id":"4","last_reported":1724955083,"current_range_meters":400,"station_id":"ce4bgop2rcd13ifvqc1g","pricing_plan_id":"cebpf4jnsgd1na2vs0mg"},{"bike_id":"011d463e-8edf-4b02-95f0-4e3a7c3f3319","system_id":"levelo_inurba_marseille","lat":43.322872,"lon":5.382756,"is_reserved":false,"is_disabled":false,"rental_uris":{"android":"levelo://app?vid=011d463e-8edf-4b02-95f0-4e3a7c3f3319","ios":"levelo://app?vid=011d463e-8edf-4b02-95f0-4e3a7c3f3319"},"vehicle_type_id":"4","last_reported":1724955083,"current_range_meters":27200,"station_id":"ce4bhr12rcd13ifvqhqg","pricing_plan_id":"cebpf4jnsgd1na2vs0mg"},{"bike_id":"3aebbc7a-7676-4528-89b5-84c6d00293cc","system_id":"levelo_inurba_marseille","lat":43.297163,"lon":5.365866,"is_reserved":false,"is_disabled":false,"rental_uris":{"android":"levelo://app?vid=3aebbc7a-7676-4528-89b5-84c6d00293cc","ios":"levelo://app?vid=3aebbc7a-7676-4528-89b5-84c6d00293cc"},"vehicle_type_id":"4","last_reported":1724955083,"current_range_meters":4400,"station_id":"ce4bgn12rcd13ifvqbt0","pricing_plan_id":"cebpf4jnsgd1na2vs0mg"},{"bike_id":"599c706e-df11-4655-8c2b-1c4d755a2826","system_id":"levelo_inurba_marseille","lat":43.297163,"lon":5.365866,"is_reserved":false,"is_disabled":false,"rental_uris":{"android":"levelo://app?vid=599c706e-df11-4655-8c2b-1c4d755a2826","ios":"levelo://app?vid=599c706e-df11-4655-8c2b-1c4d755a2826"},"vehicle_type_id":"4","last_reported":1724955083,"current_range_meters":31200,"station_id":"ce4bgn12rcd13ifvqbt0","pricing_plan_id":"cebpf4jnsgd1na2vs0mg"},{"bike_id":"e4317dab-b0f3-492f-8075-318f245a8959","system_id":"levelo_inurba_marseille","lat":43.29585,"lon":5.36743,"is_reserved":false,"is_disabled":false,"rental_uris":{"android":"levelo://app?vid=e4317dab-b0f3-492f-8075-318f245a8959","ios":"levelo://app?vid=e4317dab-b0f3-492f-8075-318f245a8959"},"vehicle_type_id":"4","last_reported":1724955083,"current_range_meters":22400,"station_id":"ce4bgph2rcd13ifvqc2g","pricing_plan_id":"cebpf4jnsgd1na2vs0mg"},{"bike_id":"1ef03994-17aa-4733-8383-51107a845ce1","system_id":"levelo_inurba_marseille","lat":43.29573,"lon":5.367355,"is_reserved":false,"is_disabled":false,"rental_uris":{"android":"levelo://app?vid=1ef03994-17aa-4733-8383-51107a845ce1","ios":"levelo://app?vid=1ef03994-17aa-4733-8383-51107a845ce1"},"vehicle_type_id":"4","last_reported":1724955083,"current_range_meters":9600,"station_id":"ce4bgph2rcd13ifvqc2g","pricing_plan_id":"cebpf4jnsgd1na2vs0mg"},{"bike_id":"8f074e6e-9a66-420b-b43a-6336fbd7b1b0","system_id":"levelo_inurba_marseille","lat":43.29573,"lon":5.367355,"is_reserved":false,"is_disabled":false,"rental_uris":{"android":"levelo://app?vid=8f074e6e-9a66-420b-b43a-6336fbd7b1b0","ios":"levelo://app?vid=8f074e6e-9a66-420b-b43a-6336fbd7b1b0"},"vehicle_type_id":"4","last_reported":1724955083,"current_range_meters":15200,"station_id":"ce4bgph2rcd13ifvqc2g","pricing_plan_id":"cebpf4jnsgd1na2vs0mg"},{"bike_id":"26b0473f-2121-4b1e-8c82-4d0b609a8282","system_id":"levelo_inurba_marseille","lat":43.29573,"lon":5.367355,"is_reserved":false,"is_disabled":false,"rental_uris":{"android":"levelo://app?vid=26b0473f-2121-4b1e-8c82-4d0b609a8282","ios":"levelo://app?vid=26b0473f-2121-4b1e-8c82-4d0b609a8282"},"vehicle_type_id":"4","last_reported":1724955083,"current_range_meters":0,"station_id":"ce4bgph2rcd13ifvqc2g","pricing_plan_id":"cebpf4jnsgd1na2vs0mg"},{"bike_id":"d934e74d-293c-4000-8277-8eba8bf587da","system_id":"levelo_inurba_marseille","lat":43.29581,"lon":5.36738,"is_reserved":false,"is_disabled":false,"rental_uris":{"android":"levelo://app?vid=d934e74d-293c-4000-8277-8eba8bf587da","ios":"levelo://app?vid=d934e74d-293c-4000-8277-8eba8bf587da"},"vehicle_type_id":"4","last_reported":1724955083,"current_range_meters":28000,"station_id":"ce4bgph2rcd13ifvqc2g","pricing_plan_id":"cebpf4jnsgd1na2vs0mg"},{"bike_id":"3cceda5c-f1a3-429f-a530-04e265d3d8a8","system_id":"levelo_inurba_marseille","lat":43.2958,"lon":5.36741,"is_reserved":false,"is_disabled":false,"rental_uris":{"android":"levelo://app?vid=3cceda5c-f1a3-429f-a530-04e265d3d8a8","ios":"levelo://app?vid=3cceda5c-f1a3-429f-a530-04e265d3d8a8"},"vehicle_type_id":"4","last_reported":1724955083,"current_range_meters":16000,"station_id":"ce4bgph2rcd13ifvqc2g","pricing_plan_id":"cebpf4jnsgd1na2vs0mg"},{"bike_id":"053a13bc-050f-4ca3-a315-34bcad79c273","system_id":"levelo_inurba_marseille","lat":43.29573,"lon":5.367355,"is_reserved":false,"is_disabled":false,"rental_uris":{"android":"levelo://app?vid=053a13bc-050f-4ca3-a315-34bcad79c273","ios":"levelo://app?vid=053a13bc-050f-4ca3-a315-34bcad79c273"},"vehicle_type_id":"4","last_reported":1724955083,"current_range_meters":3600,"station_id":"ce4bgph2rcd13ifvqc2g","pricing_plan_id":"cebpf4jnsgd1na2vs0mg"},{"bike_id":"00a8a254-bbac-408d-8cae-9723326b1b1c","system_id":"levelo_inurba_marseille","lat":43.29573,"lon":5.367355,"is_reserved":false,"is_disabled":false,"rental_uris":{"android":"levelo://app?vid=00a8a254-bbac-408d-8cae-9723326b1b1c","ios":"levelo://app?vid=00a8a254-bbac-408d-8cae-9723326b1b1c"},"vehicle_type_id":"4","last_reported":1724955083,"current_range_meters":17600,"station_id":"ce4bgph2rcd13ifvqc2g","pricing_plan_id":"cebpf4jnsgd1na2vs0mg"},{"bike_id":"34e2b1af-88a9-4783-928e-9cb7b2279b5d","system_id":"levelo_inurba_marseille","lat":43.29577,"lon":5.36743,"is_reserved":false,"is_disabled":false,"rental_uris":{"android":"levelo://app?vid=34e2b1af-88a9-4783-928e-9cb7b2279b5d","ios":"levelo://app?vid=34e2b1af-88a9-4783-928e-9cb7b2279b5d"},"vehicle_type_id":"4","last_reported":1724955083,"current_range_meters":2800,"station_id":"ce4bgph2rcd13ifvqc2g","pricing_plan_id":"cebpf4jnsgd1na2vs0mg"},{"bike_id":"f581e1f5-33dc-437c-bfcd-705a202d39d3","system_id":"levelo_inurba_marseille","lat":43.29575,"lon":5.36734,"is_reserved":false,"is_disabled":false,"rental_uris":{"android":"levelo://app?vid=f581e1f5-33dc-437c-bfcd-705a202d39d3","ios":"levelo://app?vid=f581e1f5-33dc-437c-bfcd-705a202d39d3"},"vehicle_type_id":"4","last_reported":1724955083,"current_range_meters":0,"station_id":"ce4bgph2rcd13ifvqc2g","pricing_plan_id":"cebpf4jnsgd1na2vs0mg"},{"bike_id":"18a2abf9-79ff-407a-aa8b-252659bd7994","system_id":"levelo_inurba_marseille","lat":43.309589,"lon":5.390258,"is_reserved":false,"is_disabled":false,"rental_uris":{"android":"levelo://app?vid=18a2abf9-79ff-407a-aa8b-252659bd7994","ios":"levelo://app?vid=18a2abf9-79ff-407a-aa8b-252659bd7994"},"vehicle_type_id":"4","last_reported":1724955083,"current_range_meters":3600,"station_id":"ce4bgup2rcd13ifvqco0","pricing_plan_id":"cebpf4jnsgd1na2vs0mg"},{"bike_id":"c910264e-baaf-4ca7-8fbb-eecd8dcda9f0","system_id":"levelo_inurba_marseille","lat":43.309589,"lon":5.390258,"is_reserved":false,"is_disabled":false,"rental_uris":{"android":"levelo://app?vid=c910264e-baaf-4ca7-8fbb-eecd8dcda9f0","ios":"levelo://app?vid=c910264e-baaf-4ca7-8fbb-eecd8dcda9f0"},"vehicle_type_id":"4","last_reported":1724955083,"current_range_meters":29600,"station_id":"ce4bgup2rcd13ifvqco0","pricing_plan_id":"cebpf4jnsgd1na2vs0mg"},{"bike_id":"79bfb402-c216-4f92-ba60-278685587122","system_id":"levelo_inurba_marseille","lat":43.30952,"lon":5.39026,"is_reserved":false,"is_disabled":false,"rental_uris":{"android":"levelo://app?vid=79bfb402-c216-4f92-ba60-278685587122","ios":"levelo://app?vid=79bfb402-c216-4f92-ba60-278685587122"},"vehicle_type_id":"4","last_reported":1724955083,"current_range_meters":0,"station_id":"ce4bgup2rcd13ifvqco0","pricing_plan_id":"cebpf4jnsgd1na2vs0mg"},{"bike_id":"855ced57-e86f-40a7-a906-a8412c1ea1cf","system_id":"levelo_inurba_marseille","lat":43.29529,"lon":5.385581,"is_reserved":false,"is_disabled":false,"rental_uris":{"android":"levelo://app?vid=855ced57-e86f-40a7-a906-a8412c1ea1cf","ios":"levelo://app?vid=855ced57-e86f-40a7-a906-a8412c1ea1cf"},"vehicle_type_id":"4","last_reported":1724955083,"current_range_meters":14800,"station_id":"ce4bgih2rcd13ifvqba0","pricing_plan_id":"cebpf4jnsgd1na2vs0mg"},{"bike_id":"b37549fd-0469-4407-b5e0-6a45d4f77dd4","system_id":"levelo_inurba_marseille","lat":43.309589,"lon":5.390258,"is_reserved":false,"is_disabled":false,"rental_uris":{"android":"levelo://app?vid=b37549fd-0469-4407-b5e0-6a45d4f77dd4","ios":"levelo://app?vid=b37549fd-0469-4407-b5e0-6a45d4f77dd4"},"vehicle_type_id":"4","last_reported":1724955083,"current_range_meters":12400,"station_id":"ce4bgup2rcd13ifvqco0","pricing_plan_id":"cebpf4jnsgd1na2vs0mg"},{"bike_id":"a073adef-b936-4924-89f9-3294c6631855","system_id":"levelo_inurba_marseille","lat":43.29575,"lon":5.36101,"is_reserved":false,"is_disabled":false,"rental_uris":{"android":"levelo://app?vid=a073adef-b936-4924-89f9-3294c6631855","ios":"levelo://app?vid=a073adef-b936-4924-89f9-3294c6631855"},"vehicle_type_id":"4","last_reported":1724955083,"current_range_meters":9600,"station_id":"","pricing_plan_id":"cebpf4jnsgd1na2vs0mg"},{"bike_id":"33252662-d0f5-46bc-a4e1-92e2d6f888eb","system_id":"levelo_inurba_marseille","lat":43.298037,"lon":5.381066,"is_reserved":false,"is_disabled":false,"rental_uris":{"android":"levelo://app?vid=33252662-d0f5-46bc-a4e1-92e2d6f888eb","ios":"levelo://app?vid=33252662-d0f5-46bc-a4e1-92e2d6f888eb"},"vehicle_type_id":"4","last_reported":1724955083,"current_range_meters":13600,"station_id":"ce4bgip2rcd13ifvqbb0","pricing_plan_id":"cebpf4jnsgd1na2vs0mg"},{"bike_id":"5365a783-7811-46be-8201-f6f3e54ff72c","system_id":"levelo_inurba_marseille","lat":43.29798,"lon":5.38095,"is_reserved":false,"is_disabled":false,"rental_uris":{"android":"levelo://app?vid=5365a783-7811-46be-8201-f6f3e54ff72c","ios":"levelo://app?vid=5365a783-7811-46be-8201-f6f3e54ff72c"},"vehicle_type_id":"4","last_reported":1724955083,"current_range_meters":0,"station_id":"ce4bgip2rcd13ifvqbb0","pricing_plan_id":"cebpf4jnsgd1na2vs0mg"},{"bike_id":"4c693c0e-8208-4fe9-96fa-6b6dc6668acf","system_id":"levelo_inurba_marseille","lat":43.295748,"lon":5.37522,"is_reserved":false,"is_disabled":false,"rental_uris":{"android":"levelo://app?vid=4c693c0e-8208-4fe9-96fa-6b6dc6668acf","ios":"levelo://app?vid=4c693c0e-8208-4fe9-96fa-6b6dc6668acf"},"vehicle_type_id":"4","last_reported":1724955083,"current_range_meters":31200,"station_id":"ce4bgh92rcd13ifvqb50","pricing_plan_id":"cebpf4jnsgd1na2vs0mg"},{"bike_id":"df8a559d-f5b0-4a69-a765-9c72cee8df02","system_id":"levelo_inurba_marseille","lat":43.298037,"lon":5.381066,"is_reserved":false,"is_disabled":false,"rental_uris":{"android":"levelo://app?vid=df8a559d-f5b0-4a69-a765-9c72cee8df02","ios":"levelo://app?vid=df8a559d-f5b0-4a69-a765-9c72cee8df02"},"vehicle_type_id":"4","last_reported":1724955083,"current_range_meters":30800,"station_id":"ce4bgip2rcd13ifvqbb0","pricing_plan_id":"cebpf4jnsgd1na2vs0mg"},{"bike_id":"92ae53e9-653b-455d-b565-c0ea39bb3f60","system_id":"levelo_inurba_marseille","lat":43.296263,"lon":5.377094,"is_reserved":false,"is_disabled":false,"rental_uris":{"android":"levelo://app?vid=92ae53e9-653b-455d-b565-c0ea39bb3f60","ios":"levelo://app?vid=92ae53e9-653b-455d-b565-c0ea39bb3f60"},"vehicle_type_id":"4","last_reported":1724955083,"current_range_meters":0,"station_id":"ce4bgi92rcd13ifvqb90","pricing_plan_id":"cebpf4jnsgd1na2vs0mg"},{"bike_id":"6cc8c668-05aa-4f93-a84d-95d4a8ce1499","system_id":"levelo_inurba_marseille","lat":43.29569,"lon":5.37515,"is_reserved":false,"is_disabled":false,"rental_uris":{"android":"levelo://app?vid=6cc8c668-05aa-4f93-a84d-95d4a8ce1499","ios":"levelo://app?vid=6cc8c668-05aa-4f93-a84d-95d4a8ce1499"},"vehicle_type_id":"4","last_reported":1724955083,"current_range_meters":21200,"station_id":"ce4bgh92rcd13ifvqb50","pricing_plan_id":"cebpf4jnsgd1na2vs0mg"},{"bike_id":"9e0404d1-1ec5-448c-9b95-6ba7ba818afc","system_id":"levelo_inurba_marseille","lat":43.304278,"lon":5.388868,"is_reserved":false,"is_disabled":false,"rental_uris":{"android":"levelo://app?vid=9e0404d1-1ec5-448c-9b95-6ba7ba818afc","ios":"levelo://app?vid=9e0404d1-1ec5-448c-9b95-6ba7ba818afc"},"vehicle_type_id":"4","last_reported":1724955083,"current_range_meters":3600,"station_id":"ce4bgk12rcd13ifvqbi0","pricing_plan_id":"cebpf4jnsgd1na2vs0mg"},{"bike_id":"f1e0b963-d096-4032-bc3a-c24f76c044f3","system_id":"levelo_inurba_marseille","lat":43.295748,"lon":5.37522,"is_reserved":false,"is_disabled":false,"rental_uris":{"android":"levelo://app?vid=f1e0b963-d096-4032-bc3a-c24f76c044f3","ios":"levelo://app?vid=f1e0b963-d096-4032-bc3a-c24f76c044f3"},"vehicle_type_id":"4","last_reported":1724955083,"current_range_meters":12400,"station_id":"ce4bgh92rcd13ifvqb50","pricing_plan_id":"cebpf4jnsgd1na2vs0mg"},{"bike_id":"0b00dee8-c103-44d8-9349-2a5cd18d1733","system_id":"levelo_inurba_marseille","lat":43.29608,"lon":5.37699,"is_reserved":false,"is_disabled":false,"rental_uris":{"android":"levelo://app?vid=0b00dee8-c103-44d8-9349-2a5cd18d1733","ios":"levelo://app?vid=0b00dee8-c103-44d8-9349-2a5cd18d1733"},"vehicle_type_id":"4","last_reported":1724955083,"current_range_meters":29600,"station_id":"ce4bgi92rcd13ifvqb90","pricing_plan_id":"cebpf4jnsgd1na2vs0mg"},{"bike_id":"ac08acc9-29ed-455c-8d80-2c71b6f415ba","system_id":"levelo_inurba_marseille","lat":43.295279,"lon":5.375048,"is_reserved":false,"is_disabled":false,"rental_uris":{"android":"levelo://app?vid=ac08acc9-29ed-455c-8d80-2c71b6f415ba","ios":"levelo://app?vid=ac08acc9-29ed-455c-8d80-2c71b6f415ba"},"vehicle_type_id":"4","last_reported":1724955083,"current_range_meters":800,"station_id":"ce4bgkp2rcd13ifvqbmg","pricing_plan_id":"cebpf4jnsgd1na2vs0mg"},{"bike_id":"b80d86dc-d3f5-4190-878d-ec90faca31e5","system_id":"levelo_inurba_marseille","lat":43.299707,"lon":5.384859,"is_reserved":false,"is_disabled":false,"rental_uris":{"android":"levelo://app?vid=b80d86dc-d3f5-4190-878d-ec90faca31e5","ios":"levelo://app?vid=b80d86dc-d3f5-4190-878d-ec90faca31e5"},"vehicle_type_id":"4","last_reported":1724955083,"current_range_meters":24400,"station_id":"ce4bgj92rcd13ifvqbd0","pricing_plan_id":"cebpf4jnsgd1na2vs0mg"},{"bike_id":"ffb88523-bab1-4c16-a7e7-1da99edeeca9","system_id":"levelo_inurba_marseille","lat":43.299717,"lon":5.384845,"is_reserved":false,"is_disabled":false,"rental_uris":{"android":"levelo://app?vid=ffb88523-bab1-4c16-a7e7-1da99edeeca9","ios":"levelo://app?vid=ffb88523-bab1-4c16-a7e7-1da99edeeca9"},"vehicle_type_id":"4","last_reported":1724955083,"current_range_meters":0,"station_id":"ce4bgj92rcd13ifvqbd0","pricing_plan_id":"cebpf4jnsgd1na2vs0mg"},{"bike_id":"740725e2-f191-4fec-bf19-08c1e67ea0f3","system_id":"levelo_inurba_marseille","lat":43.29971,"lon":5.38497,"is_reserved":false,"is_disabled":false,"rental_uris":{"android":"levelo://app?vid=740725e2-f191-4fec-bf19-08c1e67ea0f3","ios":"levelo://app?vid=740725e2-f191-4fec-bf19-08c1e67ea0f3"},"vehicle_type_id":"4","last_reported":1724955083,"current_range_meters":11200,"station_id":"ce4bgj92rcd13ifvqbd0","pricing_plan_id":"cebpf4jnsgd1na2vs0mg"},{"bike_id":"f398c5a4-754e-48e7-919f-8e8c87251944","system_id":"levelo_inurba_marseille","lat":43.299717,"lon":5.384845,"is_reserved":false,"is_disabled":false,"rental_uris":{"android":"levelo://app?vid=f398c5a4-754e-48e7-919f-8e8c87251944","ios":"levelo://app?vid=f398c5a4-754e-48e7-919f-8e8c87251944"},"vehicle_type_id":"4","last_reported":1724955083,"current_range_meters":5600,"station_id":"ce4bgj92rcd13ifvqbd0","pricing_plan_id":"cebpf4jnsgd1na2vs0mg"},{"bike_id":"752959e0-073f-49d9-af14-2c1819f03d21","system_id":"levelo_inurba_marseille","lat":43.301396,"lon":5.387812,"is_reserved":false,"is_disabled":false,"rental_uris":{"android":"levelo://app?vid=752959e0-073f-49d9-af14-2c1819f03d21","ios":"levelo://app?vid=752959e0-073f-49d9-af14-2c1819f03d21"},"vehicle_type_id":"4","last_reported":1724955083,"current_range_meters":0,"station_id":"ce4bghh2rcd13ifvqb60","pricing_plan_id":"cebpf4jnsgd1na2vs0mg"},{"bike_id":"1fb6aa1d-40a9-4829-b1b6-01c4ee1c5094","system_id":"levelo_inurba_marseille","lat":43.301396,"lon":5.387812,"is_reserved":false,"is_disabled":false,"rental_uris":{"android":"levelo://app?vid=1fb6aa1d-40a9-4829-b1b6-01c4ee1c5094","ios":"levelo://app?vid=1fb6aa1d-40a9-4829-b1b6-01c4ee1c5094"},"vehicle_type_id":"4","last_reported":1724955083,"current_range_meters":15200,"station_id":"ce4bghh2rcd13ifvqb60","pricing_plan_id":"cebpf4jnsgd1na2vs0mg"},{"bike_id":"658f99d4-a8f3-4b47-9d20-39b1bf0895ff","system_id":"levelo_inurba_marseille","lat":43.301396,"lon":5.387812,"is_reserved":false,"is_disabled":false,"rental_uris":{"android":"levelo://app?vid=658f99d4-a8f3-4b47-9d20-39b1bf0895ff","ios":"levelo://app?vid=658f99d4-a8f3-4b47-9d20-39b1bf0895ff"},"vehicle_type_id":"4","last_reported":1724955083,"current_range_meters":24800,"station_id":"ce4bghh2rcd13ifvqb60","pricing_plan_id":"cebpf4jnsgd1na2vs0mg"},{"bike_id":"bbcfce4f-f115-4cb0-b16c-aa8105a470a3","system_id":"levelo_inurba_marseille","lat":43.301396,"lon":5.387812,"is_reserved":false,"is_disabled":false,"rental_uris":{"android":"levelo://app?vid=bbcfce4f-f115-4cb0-b16c-aa8105a470a3","ios":"levelo://app?vid=bbcfce4f-f115-4cb0-b16c-aa8105a470a3"},"vehicle_type_id":"4","last_reported":1724955083,"current_range_meters":0,"station_id":"ce4bghh2rcd13ifvqb60","pricing_plan_id":"cebpf4jnsgd1na2vs0mg"},{"bike_id":"02c6d649-7111-4991-9c1c-86ed7a284d31","system_id":"levelo_inurba_marseille","lat":43.301396,"lon":5.387812,"is_reserved":false,"is_disabled":false,"rental_uris":{"android":"levelo://app?vid=02c6d649-7111-4991-9c1c-86ed7a284d31","ios":"levelo://app?vid=02c6d649-7111-4991-9c1c-86ed7a284d31"},"vehicle_type_id":"4","last_reported":1724955083,"current_range_meters":30800,"station_id":"ce4bghh2rcd13ifvqb60","pricing_plan_id":"cebpf4jnsgd1na2vs0mg"},{"bike_id":"4ab5e112-d452-41b2-a66a-9b989fe8c7e5","system_id":"levelo_inurba_marseille","lat":43.314309,"lon":5.393659,"is_reserved":false,"is_disabled":false,"rental_uris":{"android":"levelo://app?vid=4ab5e112-d452-41b2-a66a-9b989fe8c7e5","ios":"levelo://app?vid=4ab5e112-d452-41b2-a66a-9b989fe8c7e5"},"vehicle_type_id":"4","last_reported":1724955083,"current_range_meters":28400,"station_id":"","pricing_plan_id":"cebpf4jnsgd1na2vs0mg"},{"bike_id":"cb5de9ff-81a3-482d-b65c-e9338d8edc35","system_id":"levelo_inurba_marseille","lat":43.29618,"lon":5.38112,"is_reserved":false,"is_disabled":false,"rental_uris":{"android":"levelo://app?vid=cb5de9ff-81a3-482d-b65c-e9338d8edc35","ios":"levelo://app?vid=cb5de9ff-81a3-482d-b65c-e9338d8edc35"},"vehicle_type_id":"4","last_reported":1724955083,"current_range_meters":31200,"station_id":"ce4bgl12rcd13ifvqbo0","pricing_plan_id":"cebpf4jnsgd1na2vs0mg"},{"bike_id":"800d3795-9774-4259-a737-d18e0b7b3519","system_id":"levelo_inurba_marseille","lat":43.292749,"lon":5.368402,"is_reserved":false,"is_disabled":false,"rental_uris":{"android":"levelo://app?vid=800d3795-9774-4259-a737-d18e0b7b3519","ios":"levelo://app?vid=800d3795-9774-4259-a737-d18e0b7b3519"},"vehicle_type_id":"4","last_reported":1724955083,"current_range_meters":29600,"station_id":"ce4bhbp2rcd13ifvqesg","pricing_plan_id":"cebpf4jnsgd1na2vs0mg"},{"bike_id":"bb8b54a6-0f3b-469a-8570-11ce68ab8d13","system_id":"levelo_inurba_marseille","lat":43.293249,"lon":5.371578,"is_reserved":false,"is_disabled":false,"rental_uris":{"android":"levelo://app?vid=bb8b54a6-0f3b-469a-8570-11ce68ab8d13","ios":"levelo://app?vid=bb8b54a6-0f3b-469a-8570-11ce68ab8d13"},"vehicle_type_id":"4","last_reported":1724955083,"current_range_meters":0,"station_id":"ce4bgh92rcd13ifvqb40","pricing_plan_id":"cebpf4jnsgd1na2vs0mg"},{"bike_id":"a924ccac-03f4-4256-a942-b60826225f47","system_id":"levelo_inurba_marseille","lat":43.293259,"lon":5.371586,"is_reserved":false,"is_disabled":false,"rental_uris":{"android":"levelo://app?vid=a924ccac-03f4-4256-a942-b60826225f47","ios":"levelo://app?vid=a924ccac-03f4-4256-a942-b60826225f47"},"vehicle_type_id":"4","last_reported":1724955083,"current_range_meters":17600,"station_id":"ce4bgh92rcd13ifvqb40","pricing_plan_id":"cebpf4jnsgd1na2vs0mg"},{"bike_id":"c845646b-2a25-46f5-ac06-faca487edb82","system_id":"levelo_inurba_marseille","lat":43.292749,"lon":5.368402,"is_reserved":false,"is_disabled":false,"rental_uris":{"android":"levelo://app?vid=c845646b-2a25-46f5-ac06-faca487edb82","ios":"levelo://app?vid=c845646b-2a25-46f5-ac06-faca487edb82"},"vehicle_type_id":"4","last_reported":1724955083,"current_range_meters":24800,"station_id":"ce4bhbp2rcd13ifvqesg","pricing_plan_id":"cebpf4jnsgd1na2vs0mg"},{"bike_id":"775f683a-2bf6-4c7a-8374-bf14458fd320","system_id":"levelo_inurba_marseille","lat":43.292749,"lon":5.368402,"is_reserved":false,"is_disabled":false,"rental_uris":{"android":"levelo://app?vid=775f683a-2bf6-4c7a-8374-bf14458fd320","ios":"levelo://app?vid=775f683a-2bf6-4c7a-8374-bf14458fd320"},"vehicle_type_id":"4","last_reported":1724955083,"current_range_meters":21600,"station_id":"ce4bhbp2rcd13ifvqesg","pricing_plan_id":"cebpf4jnsgd1na2vs0mg"},{"bike_id":"745a73a0-0ceb-4645-b064-36d3e4e3d5d9","system_id":"levelo_inurba_marseille","lat":43.293259,"lon":5.371586,"is_reserved":false,"is_disabled":false,"rental_uris":{"android":"levelo://app?vid=745a73a0-0ceb-4645-b064-36d3e4e3d5d9","ios":"levelo://app?vid=745a73a0-0ceb-4645-b064-36d3e4e3d5d9"},"vehicle_type_id":"4","last_reported":1724955083,"current_range_meters":25200,"station_id":"ce4bgh92rcd13ifvqb40","pricing_plan_id":"cebpf4jnsgd1na2vs0mg"},{"bike_id":"7977fba1-629d-448a-a5b7-12e37d7db9ce","system_id":"levelo_inurba_marseille","lat":43.293259,"lon":5.371586,"is_reserved":false,"is_disabled":false,"rental_uris":{"android":"levelo://app?vid=7977fba1-629d-448a-a5b7-12e37d7db9ce","ios":"levelo://app?vid=7977fba1-629d-448a-a5b7-12e37d7db9ce"},"vehicle_type_id":"4","last_reported":1724955083,"current_range_meters":24400,"station_id":"ce4bgh92rcd13ifvqb40","pricing_plan_id":"cebpf4jnsgd1na2vs0mg"},{"bike_id":"f96ebb4a-4d31-41a0-b6fe-20fd7fb3edc5","system_id":"levelo_inurba_marseille","lat":43.292737,"lon":5.36849,"is_reserved":false,"is_disabled":false,"rental_uris":{"android":"levelo://app?vid=f96ebb4a-4d31-41a0-b6fe-20fd7fb3edc5","ios":"levelo://app?vid=f96ebb4a-4d31-41a0-b6fe-20fd7fb3edc5"},"vehicle_type_id":"4","last_reported":1724955083,"current_range_meters":0,"station_id":"ce4bhbp2rcd13ifvqesg","pricing_plan_id":"cebpf4jnsgd1na2vs0mg"},{"bike_id":"40d863eb-f0fc-4400-b59a-4a8f8c5b1354","system_id":"levelo_inurba_marseille","lat":43.292749,"lon":5.368402,"is_reserved":false,"is_disabled":false,"rental_uris":{"android":"levelo://app?vid=40d863eb-f0fc-4400-b59a-4a8f8c5b1354","ios":"levelo://app?vid=40d863eb-f0fc-4400-b59a-4a8f8c5b1354"},"vehicle_type_id":"4","last_reported":1724955083,"current_range_meters":0,"station_id":"ce4bhbp2rcd13ifvqesg","pricing_plan_id":"cebpf4jnsgd1na2vs0mg"},{"bike_id":"47c474e1-ed2d-44df-9016-7401d3dbf82f","system_id":"levelo_inurba_marseille","lat":43.29272,"lon":5.36858,"is_reserved":false,"is_disabled":false,"rental_uris":{"android":"levelo://app?vid=47c474e1-ed2d-44df-9016-7401d3dbf82f","ios":"levelo://app?vid=47c474e1-ed2d-44df-9016-7401d3dbf82f"},"vehicle_type_id":"4","last_reported":1724955083,"current_range_meters":0,"station_id":"ce4bhbp2rcd13ifvqesg","pricing_plan_id":"cebpf4jnsgd1na2vs0mg"},{"bike_id":"0d5bcff7-1e14-4b29-bbc4-3d61ea6ce20f","system_id":"levelo_inurba_marseille","lat":43.293249,"lon":5.371578,"is_reserved":false,"is_disabled":false,"rental_uris":{"android":"levelo://app?vid=0d5bcff7-1e14-4b29-bbc4-3d61ea6ce20f","ios":"levelo://app?vid=0d5bcff7-1e14-4b29-bbc4-3d61ea6ce20f"},"vehicle_type_id":"4","last_reported":1724955083,"current_range_meters":24800,"station_id":"ce4bgh92rcd13ifvqb40","pricing_plan_id":"cebpf4jnsgd1na2vs0mg"},{"bike_id":"9cf3c940-6903-4699-a04c-1ce7590e07fc","system_id":"levelo_inurba_marseille","lat":43.293187,"lon":5.37415,"is_reserved":false,"is_disabled":false,"rental_uris":{"android":"levelo://app?vid=9cf3c940-6903-4699-a04c-1ce7590e07fc","ios":"levelo://app?vid=9cf3c940-6903-4699-a04c-1ce7590e07fc"},"vehicle_type_id":"4","last_reported":1724955083,"current_range_meters":0,"station_id":"ce4bgi12rcd13ifvqb70","pricing_plan_id":"cebpf4jnsgd1na2vs0mg"},{"bike_id":"16ebd82a-49ea-450d-bbc1-e338dfc1a5ac","system_id":"levelo_inurba_marseille","lat":43.29247,"lon":5.36731,"is_reserved":false,"is_disabled":false,"rental_uris":{"android":"levelo://app?vid=16ebd82a-49ea-450d-bbc1-e338dfc1a5ac","ios":"levelo://app?vid=16ebd82a-49ea-450d-bbc1-e338dfc1a5ac"},"vehicle_type_id":"4","last_reported":1724955083,"current_range_meters":0,"station_id":"","pricing_plan_id":"cebpf4jnsgd1na2vs0mg"},{"bike_id":"cf515e78-331d-42b4-a22e-25b20aa85839","system_id":"levelo_inurba_marseille","lat":43.293009,"lon":5.374584,"is_reserved":false,"is_disabled":false,"rental_uris":{"android":"levelo://app?vid=cf515e78-331d-42b4-a22e-25b20aa85839","ios":"levelo://app?vid=cf515e78-331d-42b4-a22e-25b20aa85839"},"vehicle_type_id":"4","last_reported":1724955083,"current_range_meters":0,"station_id":"ce4bgi12rcd13ifvqb70","pricing_plan_id":"cebpf4jnsgd1na2vs0mg"},{"bike_id":"2ecfd782-acc6-41da-a9e5-9dad4e2a82a9","system_id":"levelo_inurba_marseille","lat":43.305994,"lon":5.393687,"is_reserved":false,"is_disabled":false,"rental_uris":{"android":"levelo://app?vid=2ecfd782-acc6-41da-a9e5-9dad4e2a82a9","ios":"levelo://app?vid=2ecfd782-acc6-41da-a9e5-9dad4e2a82a9"},"vehicle_type_id":"4","last_reported":1724955083,"current_range_meters":2800,"station_id":"ce4bh0p2rcd13ifvqd80","pricing_plan_id":"cebpf4jnsgd1na2vs0mg"},{"bike_id":"38a0bbbb-09e6-410c-9a10-731c1056fb67","system_id":"levelo_inurba_marseille","lat":43.293009,"lon":5.374584,"is_reserved":false,"is_disabled":false,"rental_uris":{"android":"levelo://app?vid=38a0bbbb-09e6-410c-9a10-731c1056fb67","ios":"levelo://app?vid=38a0bbbb-09e6-410c-9a10-731c1056fb67"},"vehicle_type_id":"4","last_reported":1724955083,"current_range_meters":2400,"station_id":"ce4bgi12rcd13ifvqb70","pricing_plan_id":"cebpf4jnsgd1na2vs0mg"},{"bike_id":"185be74a-355b-4136-92a8-5dc277616cf1","system_id":"levelo_inurba_marseille","lat":43.305994,"lon":5.393687,"is_reserved":false,"is_disabled":false,"rental_uris":{"android":"levelo://app?vid=185be74a-355b-4136-92a8-5dc277616cf1","ios":"levelo://app?vid=185be74a-355b-4136-92a8-5dc277616cf1"},"vehicle_type_id":"4","last_reported":1724955083,"current_range_meters":2000,"station_id":"ce4bh0p2rcd13ifvqd80","pricing_plan_id":"cebpf4jnsgd1na2vs0mg"},{"bike_id":"daec53eb-ee08-4bff-8701-12585d6889c3","system_id":"levelo_inurba_marseille","lat":43.305994,"lon":5.393687,"is_reserved":false,"is_disabled":false,"rental_uris":{"android":"levelo://app?vid=daec53eb-ee08-4bff-8701-12585d6889c3","ios":"levelo://app?vid=daec53eb-ee08-4bff-8701-12585d6889c3"},"vehicle_type_id":"4","last_reported":1724955083,"current_range_meters":0,"station_id":"ce4bh0p2rcd13ifvqd80","pricing_plan_id":"cebpf4jnsgd1na2vs0mg"},{"bike_id":"192175ec-b15c-45b6-9e17-217421fdfce7","system_id":"levelo_inurba_marseille","lat":43.293009,"lon":5.374584,"is_reserved":false,"is_disabled":false,"rental_uris":{"android":"levelo://app?vid=192175ec-b15c-45b6-9e17-217421fdfce7","ios":"levelo://app?vid=192175ec-b15c-45b6-9e17-217421fdfce7"},"vehicle_type_id":"4","last_reported":1724955083,"current_range_meters":15600,"station_id":"ce4bgi12rcd13ifvqb70","pricing_plan_id":"cebpf4jnsgd1na2vs0mg"},{"bike_id":"35c6e1c0-765a-4c91-a3b3-4b4976a45760","system_id":"levelo_inurba_marseille","lat":43.2929,"lon":5.3745,"is_reserved":false,"is_disabled":false,"rental_uris":{"android":"levelo://app?vid=35c6e1c0-765a-4c91-a3b3-4b4976a45760","ios":"levelo://app?vid=35c6e1c0-765a-4c91-a3b3-4b4976a45760"},"vehicle_type_id":"4","last_reported":1724955083,"current_range_meters":12400,"station_id":"ce4bgi12rcd13ifvqb70","pricing_plan_id":"cebpf4jnsgd1na2vs0mg"},{"bike_id":"7d16326d-2b97-4d79-984e-099da84efb46","system_id":"levelo_inurba_marseille","lat":43.2929,"lon":5.37461,"is_reserved":false,"is_disabled":false,"rental_uris":{"android":"levelo://app?vid=7d16326d-2b97-4d79-984e-099da84efb46","ios":"levelo://app?vid=7d16326d-2b97-4d79-984e-099da84efb46"},"vehicle_type_id":"4","last_reported":1724955083,"current_range_meters":30800,"station_id":"ce4bgi12rcd13ifvqb70","pricing_plan_id":"cebpf4jnsgd1na2vs0mg"},{"bike_id":"6b6c8255-06f6-421b-b9f1-16407bbb573d","system_id":"levelo_inurba_marseille","lat":43.303002,"lon":5.392142,"is_reserved":false,"is_disabled":false,"rental_uris":{"android":"levelo://app?vid=6b6c8255-06f6-421b-b9f1-16407bbb573d","ios":"levelo://app?vid=6b6c8255-06f6-421b-b9f1-16407bbb573d"},"vehicle_type_id":"4","last_reported":1724955083,"current_range_meters":18000,"station_id":"ce4bgkh2rcd13ifvqbk0","pricing_plan_id":"cebpf4jnsgd1na2vs0mg"},{"bike_id":"8fa97e4d-bea8-4a03-ab5e-b57090f91b23","system_id":"levelo_inurba_marseille","lat":43.29375,"lon":5.37845,"is_reserved":false,"is_disabled":false,"rental_uris":{"android":"levelo://app?vid=8fa97e4d-bea8-4a03-ab5e-b57090f91b23","ios":"levelo://app?vid=8fa97e4d-bea8-4a03-ab5e-b57090f91b23"},"vehicle_type_id":"4","last_reported":1724955083,"current_range_meters":11600,"station_id":"ce4bgjh2rcd13ifvqbf0","pricing_plan_id":"cebpf4jnsgd1na2vs0mg"},{"bike_id":"f72826d8-a75d-4a3f-8e6f-7f3060362361","system_id":"levelo_inurba_marseille","lat":43.303002,"lon":5.392142,"is_reserved":false,"is_disabled":false,"rental_uris":{"android":"levelo://app?vid=f72826d8-a75d-4a3f-8e6f-7f3060362361","ios":"levelo://app?vid=f72826d8-a75d-4a3f-8e6f-7f3060362361"},"vehicle_type_id":"4","last_reported":1724955083,"current_range_meters":0,"station_id":"ce4bgkh2rcd13ifvqbk0","pricing_plan_id":"cebpf4jnsgd1na2vs0mg"},{"bike_id":"0b88e676-5b6f-409a-b117-bb37504fe6de","system_id":"levelo_inurba_marseille","lat":43.302992,"lon":5.392136,"is_reserved":false,"is_disabled":false,"rental_uris":{"android":"levelo://app?vid=0b88e676-5b6f-409a-b117-bb37504fe6de","ios":"levelo://app?vid=0b88e676-5b6f-409a-b117-bb37504fe6de"},"vehicle_type_id":"4","last_reported":1724955083,"current_range_meters":25200,"station_id":"ce4bgkh2rcd13ifvqbk0","pricing_plan_id":"cebpf4jnsgd1na2vs0mg"},{"bike_id":"79e5f6ae-2065-4243-afa4-49d1f6fc3bf1","system_id":"levelo_inurba_marseille","lat":43.2936,"lon":5.37835,"is_reserved":false,"is_disabled":false,"rental_uris":{"android":"levelo://app?vid=79e5f6ae-2065-4243-afa4-49d1f6fc3bf1","ios":"levelo://app?vid=79e5f6ae-2065-4243-afa4-49d1f6fc3bf1"},"vehicle_type_id":"4","last_reported":1724955083,"current_range_meters":2400,"station_id":"ce4bgjh2rcd13ifvqbf0","pricing_plan_id":"cebpf4jnsgd1na2vs0mg"},{"bike_id":"6eabc05f-d049-4d4d-805c-7a8c35439e5f","system_id":"levelo_inurba_marseille","lat":43.2936,"lon":5.37835,"is_reserved":false,"is_disabled":false,"rental_uris":{"android":"levelo://app?vid=6eabc05f-d049-4d4d-805c-7a8c35439e5f","ios":"levelo://app?vid=6eabc05f-d049-4d4d-805c-7a8c35439e5f"},"vehicle_type_id":"4","last_reported":1724955083,"current_range_meters":2800,"station_id":"ce4bgjh2rcd13ifvqbf0","pricing_plan_id":"cebpf4jnsgd1na2vs0mg"},{"bike_id":"ea944315-7b91-417f-ac78-e5bfc14930fb","system_id":"levelo_inurba_marseille","lat":43.2936,"lon":5.37835,"is_reserved":false,"is_disabled":false,"rental_uris":{"android":"levelo://app?vid=ea944315-7b91-417f-ac78-e5bfc14930fb","ios":"levelo://app?vid=ea944315-7b91-417f-ac78-e5bfc14930fb"},"vehicle_type_id":"4","last_reported":1724955083,"current_range_meters":14000,"station_id":"ce4bgjh2rcd13ifvqbf0","pricing_plan_id":"cebpf4jnsgd1na2vs0mg"},{"bike_id":"429d7a62-27d0-4123-a58d-c230ee5acf7e","system_id":"levelo_inurba_marseille","lat":43.292311,"lon":5.360731,"is_reserved":false,"is_disabled":false,"rental_uris":{"android":"levelo://app?vid=429d7a62-27d0-4123-a58d-c230ee5acf7e","ios":"levelo://app?vid=429d7a62-27d0-4123-a58d-c230ee5acf7e"},"vehicle_type_id":"4","last_reported":1724955083,"current_range_meters":12000,"station_id":"ce4bhbh2rcd13ifvqeqg","pricing_plan_id":"cebpf4jnsgd1na2vs0mg"},{"bike_id":"3420e5cd-e6c7-47a9-8ada-6484750b1395","system_id":"levelo_inurba_marseille","lat":43.292311,"lon":5.360731,"is_reserved":false,"is_disabled":false,"rental_uris":{"android":"levelo://app?vid=3420e5cd-e6c7-47a9-8ada-6484750b1395","ios":"levelo://app?vid=3420e5cd-e6c7-47a9-8ada-6484750b1395"},"vehicle_type_id":"4","last_reported":1724955083,"current_range_meters":29200,"station_id":"ce4bhbh2rcd13ifvqeqg","pricing_plan_id":"cebpf4jnsgd1na2vs0mg"},{"bike_id":"a5207beb-1f49-4963-ade6-4b51f887655d","system_id":"levelo_inurba_marseille","lat":43.30099,"lon":5.39083,"is_reserved":false,"is_disabled":false,"rental_uris":{"android":"levelo://app?vid=a5207beb-1f49-4963-ade6-4b51f887655d","ios":"levelo://app?vid=a5207beb-1f49-4963-ade6-4b51f887655d"},"vehicle_type_id":"4","last_reported":1724955083,"current_range_meters":0,"station_id":"ce4bh192rcd13ifvqdb0","pricing_plan_id":"cebpf4jnsgd1na2vs0mg"},{"bike_id":"000ea480-0c59-4402-b661-5739eb5c01a8","system_id":"levelo_inurba_marseille","lat":43.292311,"lon":5.360731,"is_reserved":false,"is_disabled":false,"rental_uris":{"android":"levelo://app?vid=000ea480-0c59-4402-b661-5739eb5c01a8","ios":"levelo://app?vid=000ea480-0c59-4402-b661-5739eb5c01a8"},"vehicle_type_id":"4","last_reported":1724955083,"current_range_meters":0,"station_id":"ce4bhbh2rcd13ifvqeqg","pricing_plan_id":"cebpf4jnsgd1na2vs0mg"},{"bike_id":"cb358dab-b64e-4ef9-a169-58419e56dbef","system_id":"levelo_inurba_marseille","lat":43.298764,"lon":5.388973,"is_reserved":false,"is_disabled":false,"rental_uris":{"android":"levelo://app?vid=cb358dab-b64e-4ef9-a169-58419e56dbef","ios":"levelo://app?vid=cb358dab-b64e-4ef9-a169-58419e56dbef"},"vehicle_type_id":"4","last_reported":1724955083,"current_range_meters":26000,"station_id":"ce4bh392rcd13ifvqdl0","pricing_plan_id":"cebpf4jnsgd1na2vs0mg"},{"bike_id":"d528f001-0baf-48e5-9d11-87509acce4ac","system_id":"levelo_inurba_marseille","lat":43.291675,"lon":5.371583,"is_reserved":false,"is_disabled":false,"rental_uris":{"android":"levelo://app?vid=d528f001-0baf-48e5-9d11-87509acce4ac","ios":"levelo://app?vid=d528f001-0baf-48e5-9d11-87509acce4ac"},"vehicle_type_id":"4","last_reported":1724955083,"current_range_meters":15600,"station_id":"ce4bha92rcd13ifvqeh0","pricing_plan_id":"cebpf4jnsgd1na2vs0mg"},{"bike_id":"5ecf624c-4e78-429d-994c-cf6aee62948b","system_id":"levelo_inurba_marseille","lat":43.298764,"lon":5.388973,"is_reserved":false,"is_disabled":false,"rental_uris":{"android":"levelo://app?vid=5ecf624c-4e78-429d-994c-cf6aee62948b","ios":"levelo://app?vid=5ecf624c-4e78-429d-994c-cf6aee62948b"},"vehicle_type_id":"4","last_reported":1724955083,"current_range_meters":17600,"station_id":"ce4bh392rcd13ifvqdl0","pricing_plan_id":"cebpf4jnsgd1na2vs0mg"},{"bike_id":"69f63bab-8ed1-4143-8b95-858abaf5afa7","system_id":"levelo_inurba_marseille","lat":43.298764,"lon":5.388973,"is_reserved":false,"is_disabled":false,"rental_uris":{"android":"levelo://app?vid=69f63bab-8ed1-4143-8b95-858abaf5afa7","ios":"levelo://app?vid=69f63bab-8ed1-4143-8b95-858abaf5afa7"},"vehicle_type_id":"4","last_reported":1724955083,"current_range_meters":0,"station_id":"ce4bh392rcd13ifvqdl0","pricing_plan_id":"cebpf4jnsgd1na2vs0mg"},{"bike_id":"cea7da79-e926-4639-91cc-60144a786362","system_id":"levelo_inurba_marseille","lat":43.291671,"lon":5.371575,"is_reserved":false,"is_disabled":false,"rental_uris":{"android":"levelo://app?vid=cea7da79-e926-4639-91cc-60144a786362","ios":"levelo://app?vid=cea7da79-e926-4639-91cc-60144a786362"},"vehicle_type_id":"4","last_reported":1724955083,"current_range_meters":25600,"station_id":"ce4bha92rcd13ifvqeh0","pricing_plan_id":"cebpf4jnsgd1na2vs0mg"},{"bike_id":"1f738ec2-7bc8-41a3-b4b7-e3b22ce6fc2d","system_id":"levelo_inurba_marseille","lat":43.29208,"lon":5.35801,"is_reserved":false,"is_disabled":false,"rental_uris":{"android":"levelo://app?vid=1f738ec2-7bc8-41a3-b4b7-e3b22ce6fc2d","ios":"levelo://app?vid=1f738ec2-7bc8-41a3-b4b7-e3b22ce6fc2d"},"vehicle_type_id":"4","last_reported":1724955083,"current_range_meters":0,"station_id":"ce4bhb12rcd13ifvqel0","pricing_plan_id":"cebpf4jnsgd1na2vs0mg"},{"bike_id":"b8242842-3cef-4021-a654-5afe119f843f","system_id":"levelo_inurba_marseille","lat":43.31325,"lon":5.39681,"is_reserved":false,"is_disabled":false,"rental_uris":{"android":"levelo://app?vid=b8242842-3cef-4021-a654-5afe119f843f","ios":"levelo://app?vid=b8242842-3cef-4021-a654-5afe119f843f"},"vehicle_type_id":"4","last_reported":1724955083,"current_range_meters":0,"station_id":"ce4bgvp2rcd13ifvqcu0","pricing_plan_id":"cebpf4jnsgd1na2vs0mg"},{"bike_id":"1c4ba573-4384-46a6-b80e-348850b26d38","system_id":"levelo_inurba_marseille","lat":43.291994,"lon":5.357886,"is_reserved":false,"is_disabled":false,"rental_uris":{"android":"levelo://app?vid=1c4ba573-4384-46a6-b80e-348850b26d38","ios":"levelo://app?vid=1c4ba573-4384-46a6-b80e-348850b26d38"},"vehicle_type_id":"4","last_reported":1724955083,"current_range_meters":7200,"station_id":"ce4bhb12rcd13ifvqel0","pricing_plan_id":"cebpf4jnsgd1na2vs0mg"},{"bike_id":"796365c6-df32-44e4-bd04-9f0dd18f6ae3","system_id":"levelo_inurba_marseille","lat":43.31333,"lon":5.39693,"is_reserved":false,"is_disabled":false,"rental_uris":{"android":"levelo://app?vid=796365c6-df32-44e4-bd04-9f0dd18f6ae3","ios":"levelo://app?vid=796365c6-df32-44e4-bd04-9f0dd18f6ae3"},"vehicle_type_id":"4","last_reported":1724955083,"current_range_meters":0,"station_id":"ce4bgvp2rcd13ifvqcu0","pricing_plan_id":"cebpf4jnsgd1na2vs0mg"},{"bike_id":"20f68684-f4c0-4b91-beec-1055a6aa40df","system_id":"levelo_inurba_marseille","lat":43.291726,"lon":5.3752,"is_reserved":false,"is_disabled":false,"rental_uris":{"android":"levelo://app?vid=20f68684-f4c0-4b91-beec-1055a6aa40df","ios":"levelo://app?vid=20f68684-f4c0-4b91-beec-1055a6aa40df"},"vehicle_type_id":"4","last_reported":1724955083,"current_range_meters":0,"station_id":"","pricing_plan_id":"cebpf4jnsgd1na2vs0mg"},{"bike_id":"8d7bec6d-c615-4958-bfc1-fdeb26b4b6c6","system_id":"levelo_inurba_marseille","lat":43.309047,"lon":5.396551,"is_reserved":false,"is_disabled":false,"rental_uris":{"android":"levelo://app?vid=8d7bec6d-c615-4958-bfc1-fdeb26b4b6c6","ios":"levelo://app?vid=8d7bec6d-c615-4958-bfc1-fdeb26b4b6c6"},"vehicle_type_id":"4","last_reported":1724955083,"current_range_meters":16000,"station_id":"ce4bh012rcd13ifvqcv0","pricing_plan_id":"cebpf4jnsgd1na2vs0mg"},{"bike_id":"b8f182d8-544d-49d4-9bda-91cb7978f220","system_id":"levelo_inurba_marseille","lat":43.309038,"lon":5.396546,"is_reserved":false,"is_disabled":false,"rental_uris":{"android":"levelo://app?vid=b8f182d8-544d-49d4-9bda-91cb7978f220","ios":"levelo://app?vid=b8f182d8-544d-49d4-9bda-91cb7978f220"},"vehicle_type_id":"4","last_reported":1724955083,"current_range_meters":4400,"station_id":"ce4bh012rcd13ifvqcv0","pricing_plan_id":"cebpf4jnsgd1na2vs0mg"},{"bike_id":"6bc21fdc-cbf6-4e42-a1b0-000636958e6b","system_id":"levelo_inurba_marseille","lat":43.309047,"lon":5.396551,"is_reserved":false,"is_disabled":false,"rental_uris":{"android":"levelo://app?vid=6bc21fdc-cbf6-4e42-a1b0-000636958e6b","ios":"levelo://app?vid=6bc21fdc-cbf6-4e42-a1b0-000636958e6b"},"vehicle_type_id":"4","last_reported":1724955083,"current_range_meters":23600,"station_id":"ce4bh012rcd13ifvqcv0","pricing_plan_id":"cebpf4jnsgd1na2vs0mg"},{"bike_id":"4930a4ed-29e0-4615-adef-49bfe1826469","system_id":"levelo_inurba_marseille","lat":43.309047,"lon":5.396551,"is_reserved":false,"is_disabled":false,"rental_uris":{"android":"levelo://app?vid=4930a4ed-29e0-4615-adef-49bfe1826469","ios":"levelo://app?vid=4930a4ed-29e0-4615-adef-49bfe1826469"},"vehicle_type_id":"4","last_reported":1724955083,"current_range_meters":4800,"station_id":"ce4bh012rcd13ifvqcv0","pricing_plan_id":"cebpf4jnsgd1na2vs0mg"},{"bike_id":"4c4b59f2-00eb-4c4a-9f1c-abefb46c40d0","system_id":"levelo_inurba_marseille","lat":43.29529,"lon":5.385581,"is_reserved":false,"is_disabled":false,"rental_uris":{"android":"levelo://app?vid=4c4b59f2-00eb-4c4a-9f1c-abefb46c40d0","ios":"levelo://app?vid=4c4b59f2-00eb-4c4a-9f1c-abefb46c40d0"},"vehicle_type_id":"4","last_reported":1724955083,"current_range_meters":18400,"station_id":"ce4bgih2rcd13ifvqba0","pricing_plan_id":"cebpf4jnsgd1na2vs0mg"},{"bike_id":"a5481722-044e-4ef3-8238-f51c6d137c6b","system_id":"levelo_inurba_marseille","lat":43.29529,"lon":5.385581,"is_reserved":false,"is_disabled":false,"rental_uris":{"android":"levelo://app?vid=a5481722-044e-4ef3-8238-f51c6d137c6b","ios":"levelo://app?vid=a5481722-044e-4ef3-8238-f51c6d137c6b"},"vehicle_type_id":"4","last_reported":1724955083,"current_range_meters":1600,"station_id":"ce4bgih2rcd13ifvqba0","pricing_plan_id":"cebpf4jnsgd1na2vs0mg"},{"bike_id":"8a0a7e93-eaee-4bb6-aee6-3cf884a8d36b","system_id":"levelo_inurba_marseille","lat":43.29529,"lon":5.385581,"is_reserved":false,"is_disabled":false,"rental_uris":{"android":"levelo://app?vid=8a0a7e93-eaee-4bb6-aee6-3cf884a8d36b","ios":"levelo://app?vid=8a0a7e93-eaee-4bb6-aee6-3cf884a8d36b"},"vehicle_type_id":"4","last_reported":1724955083,"current_range_meters":16800,"station_id":"ce4bgih2rcd13ifvqba0","pricing_plan_id":"cebpf4jnsgd1na2vs0mg"},{"bike_id":"d9d22235-a3a8-4c0b-81f5-30e2099f8094","system_id":"levelo_inurba_marseille","lat":43.29529,"lon":5.385581,"is_reserved":false,"is_disabled":false,"rental_uris":{"android":"levelo://app?vid=d9d22235-a3a8-4c0b-81f5-30e2099f8094","ios":"levelo://app?vid=d9d22235-a3a8-4c0b-81f5-30e2099f8094"},"vehicle_type_id":"4","last_reported":1724955083,"current_range_meters":19200,"station_id":"ce4bgih2rcd13ifvqba0","pricing_plan_id":"cebpf4jnsgd1na2vs0mg"},{"bike_id":"717db744-408c-4bcf-9428-68fdbcd07730","system_id":"levelo_inurba_marseille","lat":43.29527,"lon":5.38539,"is_reserved":false,"is_disabled":false,"rental_uris":{"android":"levelo://app?vid=717db744-408c-4bcf-9428-68fdbcd07730","ios":"levelo://app?vid=717db744-408c-4bcf-9428-68fdbcd07730"},"vehicle_type_id":"4","last_reported":1724955083,"current_range_meters":16000,"station_id":"ce4bgih2rcd13ifvqba0","pricing_plan_id":"cebpf4jnsgd1na2vs0mg"},{"bike_id":"27ba0e02-657b-419b-8d41-3a29f544c078","system_id":"levelo_inurba_marseille","lat":43.29529,"lon":5.385581,"is_reserved":false,"is_disabled":false,"rental_uris":{"android":"levelo://app?vid=27ba0e02-657b-419b-8d41-3a29f544c078","ios":"levelo://app?vid=27ba0e02-657b-419b-8d41-3a29f544c078"},"vehicle_type_id":"4","last_reported":1724955083,"current_range_meters":1600,"station_id":"ce4bgih2rcd13ifvqba0","pricing_plan_id":"cebpf4jnsgd1na2vs0mg"},{"bike_id":"167096e8-1fd3-4193-91fa-78f02d00166c","system_id":"levelo_inurba_marseille","lat":43.290779,"lon":5.371482,"is_reserved":false,"is_disabled":false,"rental_uris":{"android":"levelo://app?vid=167096e8-1fd3-4193-91fa-78f02d00166c","ios":"levelo://app?vid=167096e8-1fd3-4193-91fa-78f02d00166c"},"vehicle_type_id":"4","last_reported":1724955083,"current_range_meters":10000,"station_id":"ce4bh5p2rcd13ifvqe4g","pricing_plan_id":"cebpf4jnsgd1na2vs0mg"},{"bike_id":"0e272320-fc93-46ff-a78c-de6faf67f2b1","system_id":"levelo_inurba_marseille","lat":43.3021,"lon":5.39459,"is_reserved":false,"is_disabled":false,"rental_uris":{"android":"levelo://app?vid=0e272320-fc93-46ff-a78c-de6faf67f2b1","ios":"levelo://app?vid=0e272320-fc93-46ff-a78c-de6faf67f2b1"},"vehicle_type_id":"4","last_reported":1724955083,"current_range_meters":31200,"station_id":"ce4bh0p2rcd13ifvqd70","pricing_plan_id":"cebpf4jnsgd1na2vs0mg"},{"bike_id":"1b726413-a939-451f-abf3-1dc794e2e0ab","system_id":"levelo_inurba_marseille","lat":43.294153,"lon":5.386305,"is_reserved":false,"is_disabled":false,"rental_uris":{"android":"levelo://app?vid=1b726413-a939-451f-abf3-1dc794e2e0ab","ios":"levelo://app?vid=1b726413-a939-451f-abf3-1dc794e2e0ab"},"vehicle_type_id":"4","last_reported":1724955083,"current_range_meters":23600,"station_id":"ce4bh2h2rcd13ifvqdh0","pricing_plan_id":"cebpf4jnsgd1na2vs0mg"},{"bike_id":"ecd047f6-0d7b-4bf8-a816-fc6a50dee7fd","system_id":"levelo_inurba_marseille","lat":43.28951,"lon":5.36636,"is_reserved":false,"is_disabled":false,"rental_uris":{"android":"levelo://app?vid=ecd047f6-0d7b-4bf8-a816-fc6a50dee7fd","ios":"levelo://app?vid=ecd047f6-0d7b-4bf8-a816-fc6a50dee7fd"},"vehicle_type_id":"4","last_reported":1724955083,"current_range_meters":28800,"station_id":"ce4bhap2rcd13ifvqek0","pricing_plan_id":"cebpf4jnsgd1na2vs0mg"},{"bike_id":"a1fd81dd-2a1c-4ea3-b3e7-ad0afcfdce39","system_id":"levelo_inurba_marseille","lat":43.29422,"lon":5.38621,"is_reserved":false,"is_disabled":false,"rental_uris":{"android":"levelo://app?vid=a1fd81dd-2a1c-4ea3-b3e7-ad0afcfdce39","ios":"levelo://app?vid=a1fd81dd-2a1c-4ea3-b3e7-ad0afcfdce39"},"vehicle_type_id":"4","last_reported":1724955083,"current_range_meters":13200,"station_id":"ce4bh2h2rcd13ifvqdh0","pricing_plan_id":"cebpf4jnsgd1na2vs0mg"},{"bike_id":"74771ee8-844b-4b19-b9b6-35dbf81bf300","system_id":"levelo_inurba_marseille","lat":43.290327,"lon":5.375711,"is_reserved":false,"is_disabled":false,"rental_uris":{"android":"levelo://app?vid=74771ee8-844b-4b19-b9b6-35dbf81bf300","ios":"levelo://app?vid=74771ee8-844b-4b19-b9b6-35dbf81bf300"},"vehicle_type_id":"4","last_reported":1724955083,"current_range_meters":19200,"station_id":"ce4bh692rcd13ifvqe90","pricing_plan_id":"cebpf4jnsgd1na2vs0mg"},{"bike_id":"26870ecb-621c-4bd9-b13a-fd0e0a11f53f","system_id":"levelo_inurba_marseille","lat":43.290327,"lon":5.375711,"is_reserved":false,"is_disabled":false,"rental_uris":{"android":"levelo://app?vid=26870ecb-621c-4bd9-b13a-fd0e0a11f53f","ios":"levelo://app?vid=26870ecb-621c-4bd9-b13a-fd0e0a11f53f"},"vehicle_type_id":"4","last_reported":1724955083,"current_range_meters":800,"station_id":"ce4bh692rcd13ifvqe90","pricing_plan_id":"cebpf4jnsgd1na2vs0mg"},{"bike_id":"17acb4d0-3503-4fd7-9bba-5ca3ad1dbaa9","system_id":"levelo_inurba_marseille","lat":43.294153,"lon":5.386305,"is_reserved":false,"is_disabled":false,"rental_uris":{"android":"levelo://app?vid=17acb4d0-3503-4fd7-9bba-5ca3ad1dbaa9","ios":"levelo://app?vid=17acb4d0-3503-4fd7-9bba-5ca3ad1dbaa9"},"vehicle_type_id":"4","last_reported":1724955083,"current_range_meters":31200,"station_id":"ce4bh2h2rcd13ifvqdh0","pricing_plan_id":"cebpf4jnsgd1na2vs0mg"},{"bike_id":"b6561256-11e8-49c4-bc02-6ad3a75a3e9d","system_id":"levelo_inurba_marseille","lat":43.294153,"lon":5.386305,"is_reserved":false,"is_disabled":false,"rental_uris":{"android":"levelo://app?vid=b6561256-11e8-49c4-bc02-6ad3a75a3e9d","ios":"levelo://app?vid=b6561256-11e8-49c4-bc02-6ad3a75a3e9d"},"vehicle_type_id":"4","last_reported":1724955083,"current_range_meters":5200,"station_id":"ce4bh2h2rcd13ifvqdh0","pricing_plan_id":"cebpf4jnsgd1na2vs0mg"},{"bike_id":"4c76dc9a-f0c7-4cb3-80e7-311fe8f57638","system_id":"levelo_inurba_marseille","lat":43.29423,"lon":5.38628,"is_reserved":false,"is_disabled":false,"rental_uris":{"android":"levelo://app?vid=4c76dc9a-f0c7-4cb3-80e7-311fe8f57638","ios":"levelo://app?vid=4c76dc9a-f0c7-4cb3-80e7-311fe8f57638"},"vehicle_type_id":"4","last_reported":1724955083,"current_range_meters":31200,"station_id":"ce4bh2h2rcd13ifvqdh0","pricing_plan_id":"cebpf4jnsgd1na2vs0mg"},{"bike_id":"b643b530-6acb-4fc6-88cb-58b02c7013cd","system_id":"levelo_inurba_marseille","lat":43.289482,"lon":5.366366,"is_reserved":false,"is_disabled":false,"rental_uris":{"android":"levelo://app?vid=b643b530-6acb-4fc6-88cb-58b02c7013cd","ios":"levelo://app?vid=b643b530-6acb-4fc6-88cb-58b02c7013cd"},"vehicle_type_id":"4","last_reported":1724955083,"current_range_meters":25600,"station_id":"ce4bhap2rcd13ifvqek0","pricing_plan_id":"cebpf4jnsgd1na2vs0mg"},{"bike_id":"1dbc7156-7693-45ca-a632-1eec5e1ea6f7","system_id":"levelo_inurba_marseille","lat":43.294153,"lon":5.386305,"is_reserved":false,"is_disabled":false,"rental_uris":{"android":"levelo://app?vid=1dbc7156-7693-45ca-a632-1eec5e1ea6f7","ios":"levelo://app?vid=1dbc7156-7693-45ca-a632-1eec5e1ea6f7"},"vehicle_type_id":"4","last_reported":1724955083,"current_range_meters":8000,"station_id":"ce4bh2h2rcd13ifvqdh0","pricing_plan_id":"cebpf4jnsgd1na2vs0mg"},{"bike_id":"427c1e7d-6b61-458d-a22f-51229f2fff6c","system_id":"levelo_inurba_marseille","lat":43.294162,"lon":5.386292,"is_reserved":false,"is_disabled":false,"rental_uris":{"android":"levelo://app?vid=427c1e7d-6b61-458d-a22f-51229f2fff6c","ios":"levelo://app?vid=427c1e7d-6b61-458d-a22f-51229f2fff6c"},"vehicle_type_id":"4","last_reported":1724955083,"current_range_meters":2400,"station_id":"ce4bh2h2rcd13ifvqdh0","pricing_plan_id":"cebpf4jnsgd1na2vs0mg"},{"bike_id":"6591d901-2793-4e67-bef7-418f33294bf4","system_id":"levelo_inurba_marseille","lat":43.290319,"lon":5.375732,"is_reserved":false,"is_disabled":false,"rental_uris":{"android":"levelo://app?vid=6591d901-2793-4e67-bef7-418f33294bf4","ios":"levelo://app?vid=6591d901-2793-4e67-bef7-418f33294bf4"},"vehicle_type_id":"4","last_reported":1724955083,"current_range_meters":10400,"station_id":"ce4bh692rcd13ifvqe90","pricing_plan_id":"cebpf4jnsgd1na2vs0mg"},{"bike_id":"b549499d-ef54-4922-8836-a18700dc750b","system_id":"levelo_inurba_marseille","lat":43.294162,"lon":5.386292,"is_reserved":false,"is_disabled":false,"rental_uris":{"android":"levelo://app?vid=b549499d-ef54-4922-8836-a18700dc750b","ios":"levelo://app?vid=b549499d-ef54-4922-8836-a18700dc750b"},"vehicle_type_id":"4","last_reported":1724955083,"current_range_meters":25200,"station_id":"ce4bh2h2rcd13ifvqdh0","pricing_plan_id":"cebpf4jnsgd1na2vs0mg"},{"bike_id":"8a0089b8-6625-4f47-9dbf-e2fd75c2da89","system_id":"levelo_inurba_marseille","lat":43.294162,"lon":5.386292,"is_reserved":false,"is_disabled":false,"rental_uris":{"android":"levelo://app?vid=8a0089b8-6625-4f47-9dbf-e2fd75c2da89","ios":"levelo://app?vid=8a0089b8-6625-4f47-9dbf-e2fd75c2da89"},"vehicle_type_id":"4","last_reported":1724955083,"current_range_meters":11600,"station_id":"ce4bh2h2rcd13ifvqdh0","pricing_plan_id":"cebpf4jnsgd1na2vs0mg"},{"bike_id":"4b5b8c1d-1b7e-4ed0-a145-4dfd94e9bfd0","system_id":"levelo_inurba_marseille","lat":43.289383,"lon":5.366257,"is_reserved":false,"is_disabled":false,"rental_uris":{"android":"levelo://app?vid=4b5b8c1d-1b7e-4ed0-a145-4dfd94e9bfd0","ios":"levelo://app?vid=4b5b8c1d-1b7e-4ed0-a145-4dfd94e9bfd0"},"vehicle_type_id":"4","last_reported":1724955083,"current_range_meters":31200,"station_id":"ce4bhap2rcd13ifvqek0","pricing_plan_id":"cebpf4jnsgd1na2vs0mg"},{"bike_id":"8f82f7a7-dea2-4608-99c8-396a9d0de577","system_id":"levelo_inurba_marseille","lat":43.28938,"lon":5.3663,"is_reserved":false,"is_disabled":false,"rental_uris":{"android":"levelo://app?vid=8f82f7a7-dea2-4608-99c8-396a9d0de577","ios":"levelo://app?vid=8f82f7a7-dea2-4608-99c8-396a9d0de577"},"vehicle_type_id":"4","last_reported":1724955083,"current_range_meters":20000,"station_id":"ce4bhap2rcd13ifvqek0","pricing_plan_id":"cebpf4jnsgd1na2vs0mg"},{"bike_id":"64881c6f-eb69-41e1-a282-af5830b6391a","system_id":"levelo_inurba_marseille","lat":43.292644,"lon":5.384257,"is_reserved":false,"is_disabled":false,"rental_uris":{"android":"levelo://app?vid=64881c6f-eb69-41e1-a282-af5830b6391a","ios":"levelo://app?vid=64881c6f-eb69-41e1-a282-af5830b6391a"},"vehicle_type_id":"4","last_reported":1724955083,"current_range_meters":8800,"station_id":"ce4bh692rcd13ifvqea0","pricing_plan_id":"cebpf4jnsgd1na2vs0mg"},{"bike_id":"9903dce2-a43d-497c-a6c3-7648647967fc","system_id":"levelo_inurba_marseille","lat":43.289184,"lon":5.366408,"is_reserved":false,"is_disabled":false,"rental_uris":{"android":"levelo://app?vid=9903dce2-a43d-497c-a6c3-7648647967fc","ios":"levelo://app?vid=9903dce2-a43d-497c-a6c3-7648647967fc"},"vehicle_type_id":"4","last_reported":1724955083,"current_range_meters":3200,"station_id":"ce4bhap2rcd13ifvqek0","pricing_plan_id":"cebpf4jnsgd1na2vs0mg"},{"bike_id":"a376ce3f-73aa-4d0d-9d67-1f7731e68370","system_id":"levelo_inurba_marseille","lat":43.28937,"lon":5.36412,"is_reserved":false,"is_disabled":false,"rental_uris":{"android":"levelo://app?vid=a376ce3f-73aa-4d0d-9d67-1f7731e68370","ios":"levelo://app?vid=a376ce3f-73aa-4d0d-9d67-1f7731e68370"},"vehicle_type_id":"4","last_reported":1724955083,"current_range_meters":30000,"station_id":"ce4bhc92rcd13ifvqetg","pricing_plan_id":"cebpf4jnsgd1na2vs0mg"},{"bike_id":"ba04e04a-6151-4407-8cab-ff0f0b5c2564","system_id":"levelo_inurba_marseille","lat":43.289468,"lon":5.363719,"is_reserved":false,"is_disabled":false,"rental_uris":{"android":"levelo://app?vid=ba04e04a-6151-4407-8cab-ff0f0b5c2564","ios":"levelo://app?vid=ba04e04a-6151-4407-8cab-ff0f0b5c2564"},"vehicle_type_id":"4","last_reported":1724955083,"current_range_meters":10800,"station_id":"ce4bhc92rcd13ifvqetg","pricing_plan_id":"cebpf4jnsgd1na2vs0mg"},{"bike_id":"d2ad53c0-e2ff-495e-a19c-47a6bc5616ff","system_id":"levelo_inurba_marseille","lat":43.292644,"lon":5.384257,"is_reserved":false,"is_disabled":false,"rental_uris":{"android":"levelo://app?vid=d2ad53c0-e2ff-495e-a19c-47a6bc5616ff","ios":"levelo://app?vid=d2ad53c0-e2ff-495e-a19c-47a6bc5616ff"},"vehicle_type_id":"4","last_reported":1724955083,"current_range_meters":0,"station_id":"ce4bh692rcd13ifvqea0","pricing_plan_id":"cebpf4jnsgd1na2vs0mg"},{"bike_id":"1a5f2850-d2ae-4a5e-953a-45e28cf2a14b","system_id":"levelo_inurba_marseille","lat":43.292644,"lon":5.384257,"is_reserved":false,"is_disabled":false,"rental_uris":{"android":"levelo://app?vid=1a5f2850-d2ae-4a5e-953a-45e28cf2a14b","ios":"levelo://app?vid=1a5f2850-d2ae-4a5e-953a-45e28cf2a14b"},"vehicle_type_id":"4","last_reported":1724955083,"current_range_meters":16800,"station_id":"ce4bh692rcd13ifvqea0","pricing_plan_id":"cebpf4jnsgd1na2vs0mg"},{"bike_id":"b50362af-b3d4-4d99-b269-981c3578c0ae","system_id":"levelo_inurba_marseille","lat":43.29271,"lon":5.38434,"is_reserved":false,"is_disabled":false,"rental_uris":{"android":"levelo://app?vid=b50362af-b3d4-4d99-b269-981c3578c0ae","ios":"levelo://app?vid=b50362af-b3d4-4d99-b269-981c3578c0ae"},"vehicle_type_id":"4","last_reported":1724955083,"current_range_meters":2400,"station_id":"ce4bh692rcd13ifvqea0","pricing_plan_id":"cebpf4jnsgd1na2vs0mg"},{"bike_id":"753be6d5-8cfa-438a-b27e-3e50ebf4f9b1","system_id":"levelo_inurba_marseille","lat":43.292642,"lon":5.384254,"is_reserved":false,"is_disabled":false,"rental_uris":{"android":"levelo://app?vid=753be6d5-8cfa-438a-b27e-3e50ebf4f9b1","ios":"levelo://app?vid=753be6d5-8cfa-438a-b27e-3e50ebf4f9b1"},"vehicle_type_id":"4","last_reported":1724955083,"current_range_meters":21200,"station_id":"ce4bh692rcd13ifvqea0","pricing_plan_id":"cebpf4jnsgd1na2vs0mg"},{"bike_id":"b8718fa5-7d28-48bd-8926-819eb70d4f72","system_id":"levelo_inurba_marseille","lat":43.292644,"lon":5.384257,"is_reserved":false,"is_disabled":false,"rental_uris":{"android":"levelo://app?vid=b8718fa5-7d28-48bd-8926-819eb70d4f72","ios":"levelo://app?vid=b8718fa5-7d28-48bd-8926-819eb70d4f72"},"vehicle_type_id":"4","last_reported":1724955083,"current_range_meters":18800,"station_id":"ce4bh692rcd13ifvqea0","pricing_plan_id":"cebpf4jnsgd1na2vs0mg"},{"bike_id":"4ac8b6f9-9e82-4aa3-9bcc-9ea03551a1ea","system_id":"levelo_inurba_marseille","lat":43.292644,"lon":5.384257,"is_reserved":false,"is_disabled":false,"rental_uris":{"android":"levelo://app?vid=4ac8b6f9-9e82-4aa3-9bcc-9ea03551a1ea","ios":"levelo://app?vid=4ac8b6f9-9e82-4aa3-9bcc-9ea03551a1ea"},"vehicle_type_id":"4","last_reported":1724955083,"current_range_meters":0,"station_id":"ce4bh692rcd13ifvqea0","pricing_plan_id":"cebpf4jnsgd1na2vs0mg"},{"bike_id":"e31fdc5c-e92f-4359-87fd-4bad1d9c0b4d","system_id":"levelo_inurba_marseille","lat":43.292644,"lon":5.384257,"is_reserved":false,"is_disabled":false,"rental_uris":{"android":"levelo://app?vid=e31fdc5c-e92f-4359-87fd-4bad1d9c0b4d","ios":"levelo://app?vid=e31fdc5c-e92f-4359-87fd-4bad1d9c0b4d"},"vehicle_type_id":"4","last_reported":1724955083,"current_range_meters":0,"station_id":"ce4bh692rcd13ifvqea0","pricing_plan_id":"cebpf4jnsgd1na2vs0mg"},{"bike_id":"b12b3147-c6d1-4bdd-9929-a5ea1b49e63a","system_id":"levelo_inurba_marseille","lat":43.292644,"lon":5.384257,"is_reserved":false,"is_disabled":false,"rental_uris":{"android":"levelo://app?vid=b12b3147-c6d1-4bdd-9929-a5ea1b49e63a","ios":"levelo://app?vid=b12b3147-c6d1-4bdd-9929-a5ea1b49e63a"},"vehicle_type_id":"4","last_reported":1724955083,"current_range_meters":31200,"station_id":"ce4bh692rcd13ifvqea0","pricing_plan_id":"cebpf4jnsgd1na2vs0mg"},{"bike_id":"39629159-6cf5-47ff-a4e2-7ad3943f0d4f","system_id":"levelo_inurba_marseille","lat":43.292644,"lon":5.384257,"is_reserved":false,"is_disabled":false,"rental_uris":{"android":"levelo://app?vid=39629159-6cf5-47ff-a4e2-7ad3943f0d4f","ios":"levelo://app?vid=39629159-6cf5-47ff-a4e2-7ad3943f0d4f"},"vehicle_type_id":"4","last_reported":1724955083,"current_range_meters":31200,"station_id":"ce4bh692rcd13ifvqea0","pricing_plan_id":"cebpf4jnsgd1na2vs0mg"},{"bike_id":"6b7b2ee2-1323-4700-a3c4-13ecf2a9dbf6","system_id":"levelo_inurba_marseille","lat":43.292644,"lon":5.384257,"is_reserved":false,"is_disabled":false,"rental_uris":{"android":"levelo://app?vid=6b7b2ee2-1323-4700-a3c4-13ecf2a9dbf6","ios":"levelo://app?vid=6b7b2ee2-1323-4700-a3c4-13ecf2a9dbf6"},"vehicle_type_id":"4","last_reported":1724955083,"current_range_meters":32000,"station_id":"ce4bh692rcd13ifvqea0","pricing_plan_id":"cebpf4jnsgd1na2vs0mg"},{"bike_id":"2faf08a8-37a9-4719-9a60-3711b31162ed","system_id":"levelo_inurba_marseille","lat":43.292642,"lon":5.384254,"is_reserved":false,"is_disabled":false,"rental_uris":{"android":"levelo://app?vid=2faf08a8-37a9-4719-9a60-3711b31162ed","ios":"levelo://app?vid=2faf08a8-37a9-4719-9a60-3711b31162ed"},"vehicle_type_id":"4","last_reported":1724955083,"current_range_meters":22800,"station_id":"ce4bh692rcd13ifvqea0","pricing_plan_id":"cebpf4jnsgd1na2vs0mg"},{"bike_id":"83675eef-b063-4043-87ff-724b06402e2d","system_id":"levelo_inurba_marseille","lat":43.29259,"lon":5.38446,"is_reserved":false,"is_disabled":false,"rental_uris":{"android":"levelo://app?vid=83675eef-b063-4043-87ff-724b06402e2d","ios":"levelo://app?vid=83675eef-b063-4043-87ff-724b06402e2d"},"vehicle_type_id":"4","last_reported":1724955083,"current_range_meters":4800,"station_id":"ce4bh692rcd13ifvqea0","pricing_plan_id":"cebpf4jnsgd1na2vs0mg"},{"bike_id":"56e397c5-a055-4c96-822b-d632ebcfc40f","system_id":"levelo_inurba_marseille","lat":43.292644,"lon":5.384257,"is_reserved":false,"is_disabled":false,"rental_uris":{"android":"levelo://app?vid=56e397c5-a055-4c96-822b-d632ebcfc40f","ios":"levelo://app?vid=56e397c5-a055-4c96-822b-d632ebcfc40f"},"vehicle_type_id":"4","last_reported":1724955083,"current_range_meters":29200,"station_id":"ce4bh692rcd13ifvqea0","pricing_plan_id":"cebpf4jnsgd1na2vs0mg"},{"bike_id":"b534c2e9-4069-4bc9-b51b-0d52a05f5dc1","system_id":"levelo_inurba_marseille","lat":43.30302,"lon":5.39692,"is_reserved":false,"is_disabled":false,"rental_uris":{"android":"levelo://app?vid=b534c2e9-4069-4bc9-b51b-0d52a05f5dc1","ios":"levelo://app?vid=b534c2e9-4069-4bc9-b51b-0d52a05f5dc1"},"vehicle_type_id":"4","last_reported":1724955083,"current_range_meters":8000,"station_id":"","pricing_plan_id":"cebpf4jnsgd1na2vs0mg"},{"bike_id":"b00c3b55-f228-42f4-b538-39454b8430b4","system_id":"levelo_inurba_marseille","lat":43.290104,"lon":5.356111,"is_reserved":false,"is_disabled":false,"rental_uris":{"android":"levelo://app?vid=b00c3b55-f228-42f4-b538-39454b8430b4","ios":"levelo://app?vid=b00c3b55-f228-42f4-b538-39454b8430b4"},"vehicle_type_id":"4","last_reported":1724955083,"current_range_meters":24400,"station_id":"ce4bhb92rcd13ifvqen0","pricing_plan_id":"cebpf4jnsgd1na2vs0mg"},{"bike_id":"303b901f-7ea7-43d6-bde0-f4e496b5b617","system_id":"levelo_inurba_marseille","lat":43.290103,"lon":5.356114,"is_reserved":false,"is_disabled":false,"rental_uris":{"android":"levelo://app?vid=303b901f-7ea7-43d6-bde0-f4e496b5b617","ios":"levelo://app?vid=303b901f-7ea7-43d6-bde0-f4e496b5b617"},"vehicle_type_id":"4","last_reported":1724955083,"current_range_meters":0,"station_id":"ce4bhb92rcd13ifvqen0","pricing_plan_id":"cebpf4jnsgd1na2vs0mg"},{"bike_id":"5a080911-40c8-4770-a50a-b2ff101eb729","system_id":"levelo_inurba_marseille","lat":43.290104,"lon":5.356111,"is_reserved":false,"is_disabled":false,"rental_uris":{"android":"levelo://app?vid=5a080911-40c8-4770-a50a-b2ff101eb729","ios":"levelo://app?vid=5a080911-40c8-4770-a50a-b2ff101eb729"},"vehicle_type_id":"4","last_reported":1724955083,"current_range_meters":0,"station_id":"ce4bhb92rcd13ifvqen0","pricing_plan_id":"cebpf4jnsgd1na2vs0mg"},{"bike_id":"8a8887de-5c7d-4b1c-91b2-78e9c920b48d","system_id":"levelo_inurba_marseille","lat":43.29003,"lon":5.35612,"is_reserved":false,"is_disabled":false,"rental_uris":{"android":"levelo://app?vid=8a8887de-5c7d-4b1c-91b2-78e9c920b48d","ios":"levelo://app?vid=8a8887de-5c7d-4b1c-91b2-78e9c920b48d"},"vehicle_type_id":"4","last_reported":1724955083,"current_range_meters":31200,"station_id":"ce4bhb92rcd13ifvqen0","pricing_plan_id":"cebpf4jnsgd1na2vs0mg"},{"bike_id":"f0b92eaa-3733-408e-a1e0-bb7d14907b1a","system_id":"levelo_inurba_marseille","lat":43.290103,"lon":5.356114,"is_reserved":false,"is_disabled":false,"rental_uris":{"android":"levelo://app?vid=f0b92eaa-3733-408e-a1e0-bb7d14907b1a","ios":"levelo://app?vid=f0b92eaa-3733-408e-a1e0-bb7d14907b1a"},"vehicle_type_id":"4","last_reported":1724955083,"current_range_meters":0,"station_id":"ce4bhb92rcd13ifvqen0","pricing_plan_id":"cebpf4jnsgd1na2vs0mg"},{"bike_id":"6d23e087-0689-43fc-9ce1-3effff000aee","system_id":"levelo_inurba_marseille","lat":43.330442,"lon":5.389148,"is_reserved":false,"is_disabled":false,"rental_uris":{"android":"levelo://app?vid=6d23e087-0689-43fc-9ce1-3effff000aee","ios":"levelo://app?vid=6d23e087-0689-43fc-9ce1-3effff000aee"},"vehicle_type_id":"4","last_reported":1724955083,"current_range_meters":16400,"station_id":"ce4bhr92rcd13ifvqhrg","pricing_plan_id":"cebpf4jnsgd1na2vs0mg"},{"bike_id":"6938656e-9fa9-40e5-a828-df9222529e3e","system_id":"levelo_inurba_marseille","lat":43.289743,"lon":5.378304,"is_reserved":false,"is_disabled":false,"rental_uris":{"android":"levelo://app?vid=6938656e-9fa9-40e5-a828-df9222529e3e","ios":"levelo://app?vid=6938656e-9fa9-40e5-a828-df9222529e3e"},"vehicle_type_id":"4","last_reported":1724955083,"current_range_meters":31200,"station_id":"ce4bh9p2rcd13ifvqed0","pricing_plan_id":"cebpf4jnsgd1na2vs0mg"},{"bike_id":"cf15c213-5126-4945-866b-a228ecc5d4ea","system_id":"levelo_inurba_marseille","lat":43.330442,"lon":5.389148,"is_reserved":false,"is_disabled":false,"rental_uris":{"android":"levelo://app?vid=cf15c213-5126-4945-866b-a228ecc5d4ea","ios":"levelo://app?vid=cf15c213-5126-4945-866b-a228ecc5d4ea"},"vehicle_type_id":"4","last_reported":1724955083,"current_range_meters":10000,"station_id":"ce4bhr92rcd13ifvqhrg","pricing_plan_id":"cebpf4jnsgd1na2vs0mg"},{"bike_id":"b94e175c-6b76-49f6-ad35-dad9111de64d","system_id":"levelo_inurba_marseille","lat":43.2901,"lon":5.381269,"is_reserved":false,"is_disabled":false,"rental_uris":{"android":"levelo://app?vid=b94e175c-6b76-49f6-ad35-dad9111de64d","ios":"levelo://app?vid=b94e175c-6b76-49f6-ad35-dad9111de64d"},"vehicle_type_id":"4","last_reported":1724955083,"current_range_meters":1600,"station_id":"ce4bh4p2rcd13ifvqe1g","pricing_plan_id":"cebpf4jnsgd1na2vs0mg"},{"bike_id":"334b18e9-4c89-4dae-a782-2b270fd06f86","system_id":"levelo_inurba_marseille","lat":43.28856,"lon":5.358371,"is_reserved":false,"is_disabled":false,"rental_uris":{"android":"levelo://app?vid=334b18e9-4c89-4dae-a782-2b270fd06f86","ios":"levelo://app?vid=334b18e9-4c89-4dae-a782-2b270fd06f86"},"vehicle_type_id":"4","last_reported":1724955083,"current_range_meters":0,"station_id":"ce4bhb12rcd13ifvqem0","pricing_plan_id":"cebpf4jnsgd1na2vs0mg"},{"bike_id":"3ba478a2-7225-4ce4-8a05-8a280b8242a9","system_id":"levelo_inurba_marseille","lat":43.31268,"lon":5.40163,"is_reserved":false,"is_disabled":false,"rental_uris":{"android":"levelo://app?vid=3ba478a2-7225-4ce4-8a05-8a280b8242a9","ios":"levelo://app?vid=3ba478a2-7225-4ce4-8a05-8a280b8242a9"},"vehicle_type_id":"4","last_reported":1724955083,"current_range_meters":0,"station_id":"ce4bh092rcd13ifvqd30","pricing_plan_id":"cebpf4jnsgd1na2vs0mg"},{"bike_id":"f82ee5c4-6cb0-4128-892b-07ddb78697c3","system_id":"levelo_inurba_marseille","lat":43.312609,"lon":5.401662,"is_reserved":false,"is_disabled":false,"rental_uris":{"android":"levelo://app?vid=f82ee5c4-6cb0-4128-892b-07ddb78697c3","ios":"levelo://app?vid=f82ee5c4-6cb0-4128-892b-07ddb78697c3"},"vehicle_type_id":"4","last_reported":1724955083,"current_range_meters":17600,"station_id":"ce4bh092rcd13ifvqd30","pricing_plan_id":"cebpf4jnsgd1na2vs0mg"},{"bike_id":"ab8f8523-8afd-474a-9964-57e6dc1b8132","system_id":"levelo_inurba_marseille","lat":43.299707,"lon":5.384859,"is_reserved":false,"is_disabled":false,"rental_uris":{"android":"levelo://app?vid=ab8f8523-8afd-474a-9964-57e6dc1b8132","ios":"levelo://app?vid=ab8f8523-8afd-474a-9964-57e6dc1b8132"},"vehicle_type_id":"4","last_reported":1724955083,"current_range_meters":5600,"station_id":"ce4bgj92rcd13ifvqbd0","pricing_plan_id":"cebpf4jnsgd1na2vs0mg"},{"bike_id":"c03e9f24-d762-4485-a30c-5467f4a40f49","system_id":"levelo_inurba_marseille","lat":43.312609,"lon":5.401662,"is_reserved":false,"is_disabled":false,"rental_uris":{"android":"levelo://app?vid=c03e9f24-d762-4485-a30c-5467f4a40f49","ios":"levelo://app?vid=c03e9f24-d762-4485-a30c-5467f4a40f49"},"vehicle_type_id":"4","last_reported":1724955083,"current_range_meters":14800,"station_id":"ce4bh092rcd13ifvqd30","pricing_plan_id":"cebpf4jnsgd1na2vs0mg"},{"bike_id":"37657346-0421-4e0f-846b-d9aff390b914","system_id":"levelo_inurba_marseille","lat":43.295748,"lon":5.37522,"is_reserved":false,"is_disabled":false,"rental_uris":{"android":"levelo://app?vid=37657346-0421-4e0f-846b-d9aff390b914","ios":"levelo://app?vid=37657346-0421-4e0f-846b-d9aff390b914"},"vehicle_type_id":"4","last_reported":1724955083,"current_range_meters":27200,"station_id":"ce4bgh92rcd13ifvqb50","pricing_plan_id":"cebpf4jnsgd1na2vs0mg"},{"bike_id":"dcddd056-a6d2-4d81-aebf-04a2750833cd","system_id":"levelo_inurba_marseille","lat":43.337444,"lon":5.374475,"is_reserved":false,"is_disabled":false,"rental_uris":{"android":"levelo://app?vid=dcddd056-a6d2-4d81-aebf-04a2750833cd","ios":"levelo://app?vid=dcddd056-a6d2-4d81-aebf-04a2750833cd"},"vehicle_type_id":"4","last_reported":1724955083,"current_range_meters":11600,"station_id":"","pricing_plan_id":"cebpf4jnsgd1na2vs0mg"},{"bike_id":"bd5515cc-6c3f-4933-a5cc-0928311c1965","system_id":"levelo_inurba_marseille","lat":43.31278,"lon":5.40173,"is_reserved":false,"is_disabled":false,"rental_uris":{"android":"levelo://app?vid=bd5515cc-6c3f-4933-a5cc-0928311c1965","ios":"levelo://app?vid=bd5515cc-6c3f-4933-a5cc-0928311c1965"},"vehicle_type_id":"4","last_reported":1724955083,"current_range_meters":800,"station_id":"ce4bh092rcd13ifvqd30","pricing_plan_id":"cebpf4jnsgd1na2vs0mg"},{"bike_id":"8af5042a-350b-4d39-81f2-4a69c55acca4","system_id":"levelo_inurba_marseille","lat":43.312609,"lon":5.401662,"is_reserved":false,"is_disabled":false,"rental_uris":{"android":"levelo://app?vid=8af5042a-350b-4d39-81f2-4a69c55acca4","ios":"levelo://app?vid=8af5042a-350b-4d39-81f2-4a69c55acca4"},"vehicle_type_id":"4","last_reported":1724955083,"current_range_meters":22000,"station_id":"ce4bh092rcd13ifvqd30","pricing_plan_id":"cebpf4jnsgd1na2vs0mg"},{"bike_id":"fe922f96-4c42-4561-977f-458313f3ad9e","system_id":"levelo_inurba_marseille","lat":43.309371,"lon":5.401449,"is_reserved":false,"is_disabled":false,"rental_uris":{"android":"levelo://app?vid=fe922f96-4c42-4561-977f-458313f3ad9e","ios":"levelo://app?vid=fe922f96-4c42-4561-977f-458313f3ad9e"},"vehicle_type_id":"4","last_reported":1724955083,"current_range_meters":22800,"station_id":"ce4bgvp2rcd13ifvqct0","pricing_plan_id":"cebpf4jnsgd1na2vs0mg"},{"bike_id":"68ec235b-2eb7-469b-90d0-7c9b267d5493","system_id":"levelo_inurba_marseille","lat":43.309371,"lon":5.401449,"is_reserved":false,"is_disabled":false,"rental_uris":{"android":"levelo://app?vid=68ec235b-2eb7-469b-90d0-7c9b267d5493","ios":"levelo://app?vid=68ec235b-2eb7-469b-90d0-7c9b267d5493"},"vehicle_type_id":"4","last_reported":1724955083,"current_range_meters":2800,"station_id":"ce4bgvp2rcd13ifvqct0","pricing_plan_id":"cebpf4jnsgd1na2vs0mg"},{"bike_id":"0aafb528-7897-403e-81cc-d0f724d15b24","system_id":"levelo_inurba_marseille","lat":43.309371,"lon":5.401449,"is_reserved":false,"is_disabled":false,"rental_uris":{"android":"levelo://app?vid=0aafb528-7897-403e-81cc-d0f724d15b24","ios":"levelo://app?vid=0aafb528-7897-403e-81cc-d0f724d15b24"},"vehicle_type_id":"4","last_reported":1724955083,"current_range_meters":1600,"station_id":"ce4bgvp2rcd13ifvqct0","pricing_plan_id":"cebpf4jnsgd1na2vs0mg"},{"bike_id":"b912dddd-13d2-4db1-b8c9-4fa8effa77d8","system_id":"levelo_inurba_marseille","lat":43.337451,"lon":5.374688,"is_reserved":false,"is_disabled":false,"rental_uris":{"android":"levelo://app?vid=b912dddd-13d2-4db1-b8c9-4fa8effa77d8","ios":"levelo://app?vid=b912dddd-13d2-4db1-b8c9-4fa8effa77d8"},"vehicle_type_id":"4","last_reported":1724955083,"current_range_meters":16400,"station_id":"","pricing_plan_id":"cebpf4jnsgd1na2vs0mg"},{"bike_id":"cd06c70a-7d59-403a-a51a-b7724b26713a","system_id":"levelo_inurba_marseille","lat":43.33748,"lon":5.37452,"is_reserved":false,"is_disabled":false,"rental_uris":{"android":"levelo://app?vid=cd06c70a-7d59-403a-a51a-b7724b26713a","ios":"levelo://app?vid=cd06c70a-7d59-403a-a51a-b7724b26713a"},"vehicle_type_id":"4","last_reported":1724955083,"current_range_meters":22400,"station_id":"","pricing_plan_id":"cebpf4jnsgd1na2vs0mg"},{"bike_id":"514b7c60-269c-4459-9e6e-643b36ba3f7e","system_id":"levelo_inurba_marseille","lat":43.337625,"lon":5.374416,"is_reserved":false,"is_disabled":false,"rental_uris":{"android":"levelo://app?vid=514b7c60-269c-4459-9e6e-643b36ba3f7e","ios":"levelo://app?vid=514b7c60-269c-4459-9e6e-643b36ba3f7e"},"vehicle_type_id":"4","last_reported":1724955083,"current_range_meters":10400,"station_id":"","pricing_plan_id":"cebpf4jnsgd1na2vs0mg"},{"bike_id":"76b38333-2c25-4a83-92b5-8ebf23c1faf9","system_id":"levelo_inurba_marseille","lat":43.33758,"lon":5.3747,"is_reserved":false,"is_disabled":false,"rental_uris":{"android":"levelo://app?vid=76b38333-2c25-4a83-92b5-8ebf23c1faf9","ios":"levelo://app?vid=76b38333-2c25-4a83-92b5-8ebf23c1faf9"},"vehicle_type_id":"4","last_reported":1724955083,"current_range_meters":4800,"station_id":"","pricing_plan_id":"cebpf4jnsgd1na2vs0mg"},{"bike_id":"40b14f62-1032-41aa-99cc-4ce627a28f5a","system_id":"levelo_inurba_marseille","lat":43.33757,"lon":5.37485,"is_reserved":false,"is_disabled":false,"rental_uris":{"android":"levelo://app?vid=40b14f62-1032-41aa-99cc-4ce627a28f5a","ios":"levelo://app?vid=40b14f62-1032-41aa-99cc-4ce627a28f5a"},"vehicle_type_id":"4","last_reported":1724955083,"current_range_meters":10400,"station_id":"","pricing_plan_id":"cebpf4jnsgd1na2vs0mg"},{"bike_id":"e900e5ef-a7e5-4bc1-ada4-d0331378434c","system_id":"levelo_inurba_marseille","lat":43.337686,"lon":5.374554,"is_reserved":false,"is_disabled":false,"rental_uris":{"android":"levelo://app?vid=e900e5ef-a7e5-4bc1-ada4-d0331378434c","ios":"levelo://app?vid=e900e5ef-a7e5-4bc1-ada4-d0331378434c"},"vehicle_type_id":"4","last_reported":1724955083,"current_range_meters":27600,"station_id":"","pricing_plan_id":"cebpf4jnsgd1na2vs0mg"},{"bike_id":"5e97aab6-3ddb-4ef8-be94-ae4730067dc9","system_id":"levelo_inurba_marseille","lat":43.301117,"lon":5.398795,"is_reserved":false,"is_disabled":false,"rental_uris":{"android":"levelo://app?vid=5e97aab6-3ddb-4ef8-be94-ae4730067dc9","ios":"levelo://app?vid=5e97aab6-3ddb-4ef8-be94-ae4730067dc9"},"vehicle_type_id":"4","last_reported":1724955083,"current_range_meters":30000,"station_id":"ce4bh0h2rcd13ifvqd40","pricing_plan_id":"cebpf4jnsgd1na2vs0mg"},{"bike_id":"e6c15f10-cd96-480d-a947-6c706a20220d","system_id":"levelo_inurba_marseille","lat":43.301117,"lon":5.398795,"is_reserved":false,"is_disabled":false,"rental_uris":{"android":"levelo://app?vid=e6c15f10-cd96-480d-a947-6c706a20220d","ios":"levelo://app?vid=e6c15f10-cd96-480d-a947-6c706a20220d"},"vehicle_type_id":"4","last_reported":1724955083,"current_range_meters":31600,"station_id":"ce4bh0h2rcd13ifvqd40","pricing_plan_id":"cebpf4jnsgd1na2vs0mg"},{"bike_id":"75634366-2c80-420f-b727-c3ea59f072ee","system_id":"levelo_inurba_marseille","lat":43.286961,"lon":5.373785,"is_reserved":false,"is_disabled":false,"rental_uris":{"android":"levelo://app?vid=75634366-2c80-420f-b727-c3ea59f072ee","ios":"levelo://app?vid=75634366-2c80-420f-b727-c3ea59f072ee"},"vehicle_type_id":"4","last_reported":1724955083,"current_range_meters":23600,"station_id":"ce4bh3p2rcd13ifvqdq0","pricing_plan_id":"cebpf4jnsgd1na2vs0mg"},