{"last_updated":1737317306,"ttl":60,"version":"2.2","data":{"bikes":[{"bike_id":"a4be9f66-56e2-4ce4-a73a-0d9f0eb50413","system_id":"levelo_inurba_marseille","lat":43.30667,"lon":5.40067,"is_reserved":false,"is_disabled":false,"rental_uris":{"android":"levelo://app?vid=a4be9f66-56e2-4ce4-a73a-0d9f0eb50413","ios":"levelo://app?vid=a4be9f66-56e2-4ce4-a73a-0d9f0eb50413"},"vehicle_type_id":"4","last_reported":1737317306,"current_range_meters":16800,"station_id":"ce4bh112rcd13ifvqda0","pricing_plan_id":"cebpf4jnsgd1na2vs0mg"},{"bike_id":"8bface02-8741-4157-a2ca-4b8723bc93d9","system_id":"levelo_inurba_marseille","lat":43.31266,"lon":5.40162,"is_reserved":false,"is_disabled":false,"rental_uris":{"android":"levelo://app?vid=8bface02-8741-4157-a2ca-4b8723bc93d9","ios":"levelo://app?vid=8bface02-8741-4157-a2ca-4b8723bc93d9"},"vehicle_type_id":"4","last_reported":1737317306,"current_range_meters":37600,"station_id":"ce4bh092rcd13ifvqd30","pricing_plan_id":"cebpf4jnsgd1na2vs0mg"},{"bike_id":"d0f0bb79-1394-4019-babd-97c8e1b445c7","system_id":"levelo_inurba_marseille","lat":43.25491,"lon":5.37647,"is_reserved":false,"is_disabled":false,"rental_uris":{"android":"levelo://app?vid=d0f0bb79-1394-4019-babd-97c8e1b445c7","ios":"levelo://app?vid=d0f0bb79-1394-4019-babd-97c8e1b445c7"},"vehicle_type_id":"4","last_reported":1737317306,"current_range_meters":38800,"station_id":"ce4bhh12rcd13ifvqff0","pricing_plan_id":"cebpf4jnsgd1na2vs0mg"},{"bike_id":"ebfb61b6-8894-4d4f-aeb9-4d2902470030","system_id":"levelo_inurba_marseille","lat":43.29522,"lon":5.38536,"is_reserved":false,"is_disabled":false,"rental_uris":{"android":"levelo://app?vid=ebfb61b6-8894-4d4f-aeb9-4d2902470030","ios":"levelo://app?vid=ebfb61b6-8894-4d4f-aeb9-4d2902470030"},"vehicle_type_id":"4","last_reported":1737317306,"current_range_meters":25600,"station_id":"ce4bgih2rcd13ifvqba0","pricing_plan_id":"cebpf4jnsgd1na2vs0mg"},{"bike_id":"d383b76c-b1c5-4112-bf95-e420a42ff72e","system_id":"levelo_inurba_marseille","lat":43.24826,"lon":5.37459,"is_reserved":false,"is_disabled":false,"rental_uris":{"android":"levelo://app?vid=d383b76c-b1c5-4112-bf95-e420a42ff72e","ios":"levelo://app?vid=d383b76c-b1c5-4112-bf95-e420a42ff72e"},"vehicle_type_id":"4","last_reported":1737317306,"current_range_meters":36000,"station_id":"ce4bhgh2rcd13ifvqfb0","pricing_plan_id":"cebpf4jnsgd1na2vs0mg"},{"bike_id":"bf79b5c4-0988-4ed9-bb11-0a06d57d2b15","system_id":"levelo_inurba_marseille","lat":43.27325,"lon":5.39097,"is_reserved":false,"is_disabled":false,"rental_uris":{"android":"levelo://app?vid=bf79b5c4-0988-4ed9-bb11-0a06d57d2b15","ios":"levelo://app?vid=bf79b5c4-0988-4ed9-bb11-0a06d57d2b15"},"vehicle_type_id":"4","last_reported":1737317306,"current_range_meters":38800,"station_id":"ce4bhgp2rcd13ifvqfe0","pricing_plan_id":"cebpf4jnsgd1na2vs0mg"},{"bike_id":"016891d3-d48d-43ea-9d8d-aacd30510a50","system_id":"levelo_inurba_marseille","lat":43.23062,"lon":5.35487,"is_reserved":false,"is_disabled":false,"rental_uris":{"android":"levelo://app?vid=016891d3-d48d-43ea-9d8d-aacd30510a50","ios":"levelo://app?vid=016891d3-d48d-43ea-9d8d-aacd30510a50"},"vehicle_type_id":"4","last_reported":1737317306,"current_range_meters":23200,"station_id":"cpo3342slgdg3j2ifvpg","pricing_plan_id":"cebpf4jnsgd1na2vs0mg"},{"bike_id":"a5cfd84d-4cae-4412-b199-dcb982d64799","system_id":"levelo_inurba_marseille","lat":43.28454,"lon":5.39201,"is_reserved":false,"is_disabled":true,"rental_uris":{"android":"levelo://app?vid=a5cfd84d-4cae-4412-b199-dcb982d64799","ios":"levelo://app?vid=a5cfd84d-4cae-4412-b199-dcb982d64799"},"vehicle_type_id":"4","last_reported":1737317306,"current_range_meters":0,"station_id":"ce4bhoh2rcd13ifvqh5g","pricing_plan_id":"cebpf4jnsgd1na2vs0mg"},{"bike_id":"f9ba6911-1d74-4e31-be86-e083ccd6eee1","system_id":"levelo_inurba_marseille","lat":43.2679,"lon":5.39419,"is_reserved":false,"is_disabled":false,"rental_uris":{"android":"levelo://app?vid=f9ba6911-1d74-4e31-be86-e083ccd6eee1","ios":"levelo://app?vid=f9ba6911-1d74-4e31-be86-e083ccd6eee1"},"vehicle_type_id":"4","last_reported":1737317306,"current_range_meters":24000,"station_id":"ce4bhh12rcd13ifvqfg0","pricing_plan_id":"cebpf4jnsgd1na2vs0mg"},{"bike_id":"d1889acc-ccb4-4467-9239-c14e6452db6a","system_id":"levelo_inurba_marseille","lat":43.278283,"lon":5.39214,"is_reserved":false,"is_disabled":false,"rental_uris":{"android":"levelo://app?vid=d1889acc-ccb4-4467-9239-c14e6452db6a","ios":"levelo://app?vid=d1889acc-ccb4-4467-9239-c14e6452db6a"},"vehicle_type_id":"4","last_reported":1737317306,"current_range_meters":8000,"station_id":"ce4bhjp2rcd13ifvqga0","pricing_plan_id":"cebpf4jnsgd1na2vs0mg"},{"bike_id":"c981f361-a508-4553-8bc2-435b4c98d6fb","system_id":"levelo_inurba_marseille","lat":43.31501,"lon":5.37294,"is_reserved":false,"is_disabled":false,"rental_uris":{"android":"levelo://app?vid=c981f361-a508-4553-8bc2-435b4c98d6fb","ios":"levelo://app?vid=c981f361-a508-4553-8bc2-435b4c98d6fb"},"vehicle_type_id":"4","last_reported":1737317306,"current_range_meters":16000,"station_id":"ce4bgt12rcd13ifvqcd0","pricing_plan_id":"cebpf4jnsgd1na2vs0mg"},{"bike_id":"b846d7af-124d-4f4a-8053-b0de3756dd48","system_id":"levelo_inurba_marseille","lat":43.26791,"lon":5.39415,"is_reserved":false,"is_disabled":false,"rental_uris":{"android":"levelo://app?vid=b846d7af-124d-4f4a-8053-b0de3756dd48","ios":"levelo://app?vid=b846d7af-124d-4f4a-8053-b0de3756dd48"},"vehicle_type_id":"4","last_reported":1737317306,"current_range_meters":16000,"station_id":"ce4bhh12rcd13ifvqfg0","pricing_plan_id":"cebpf4jnsgd1na2vs0mg"},{"bike_id":"e3d5a69f-7604-4ab5-bfce-dc9cf0dd7b56","system_id":"levelo_inurba_marseille","lat":43.29586,"lon":5.39977,"is_reserved":false,"is_disabled":true,"rental_uris":{"android":"levelo://app?vid=e3d5a69f-7604-4ab5-bfce-dc9cf0dd7b56","ios":"levelo://app?vid=e3d5a69f-7604-4ab5-bfce-dc9cf0dd7b56"},"vehicle_type_id":"4","last_reported":1737317306,"current_range_meters":27600,"station_id":"ce4bh312rcd13ifvqdj0","pricing_plan_id":"cebpf4jnsgd1na2vs0mg"},{"bike_id":"ca89c479-d11c-443e-beb6-69e744d498e8","system_id":"levelo_inurba_marseille","lat":43.27313,"lon":5.39091,"is_reserved":false,"is_disabled":false,"rental_uris":{"android":"levelo://app?vid=ca89c479-d11c-443e-beb6-69e744d498e8","ios":"levelo://app?vid=ca89c479-d11c-443e-beb6-69e744d498e8"},"vehicle_type_id":"4","last_reported":1737317306,"current_range_meters":33200,"station_id":"ce4bhgp2rcd13ifvqfe0","pricing_plan_id":"cebpf4jnsgd1na2vs0mg"},{"bike_id":"a53024ce-07b3-42ef-aa05-725ca8a01d00","system_id":"levelo_inurba_marseille","lat":43.2721,"lon":5.39196,"is_reserved":false,"is_disabled":false,"rental_uris":{"android":"levelo://app?vid=a53024ce-07b3-42ef-aa05-725ca8a01d00","ios":"levelo://app?vid=a53024ce-07b3-42ef-aa05-725ca8a01d00"},"vehicle_type_id":"4","last_reported":1737317306,"current_range_meters":32800,"station_id":"ce4bhhp2rcd13ifvqfm0","pricing_plan_id":"cebpf4jnsgd1na2vs0mg"},{"bike_id":"a15481fc-8117-47fa-8058-02c79ff5be87","system_id":"levelo_inurba_marseille","lat":43.25108,"lon":5.40318,"is_reserved":false,"is_disabled":false,"rental_uris":{"android":"levelo://app?vid=a15481fc-8117-47fa-8058-02c79ff5be87","ios":"levelo://app?vid=a15481fc-8117-47fa-8058-02c79ff5be87"},"vehicle_type_id":"4","last_reported":1737317306,"current_range_meters":13600,"station_id":"ce4bhlh2rcd13ifvqgig","pricing_plan_id":"cebpf4jnsgd1na2vs0mg"},{"bike_id":"bb4afb95-c7f0-4860-8460-5fc5e3d37182","system_id":"levelo_inurba_marseille","lat":43.27323,"lon":5.39093,"is_reserved":false,"is_disabled":false,"rental_uris":{"android":"levelo://app?vid=bb4afb95-c7f0-4860-8460-5fc5e3d37182","ios":"levelo://app?vid=bb4afb95-c7f0-4860-8460-5fc5e3d37182"},"vehicle_type_id":"4","last_reported":1737317306,"current_range_meters":30000,"station_id":"ce4bhgp2rcd13ifvqfe0","pricing_plan_id":"cebpf4jnsgd1na2vs0mg"},{"bike_id":"402ea5b9-e3ac-4afe-bb26-cef48c6b50d0","system_id":"levelo_inurba_marseille","lat":43.30543,"lon":5.38429,"is_reserved":false,"is_disabled":false,"rental_uris":{"android":"levelo://app?vid=402ea5b9-e3ac-4afe-bb26-cef48c6b50d0","ios":"levelo://app?vid=402ea5b9-e3ac-4afe-bb26-cef48c6b50d0"},"vehicle_type_id":"4","last_reported":1737317306,"current_range_meters":38800,"station_id":"ce4bgg92rcd13ifvqb30","pricing_plan_id":"cebpf4jnsgd1na2vs0mg"},{"bike_id":"87c11c0b-755c-45ff-a6ed-dc16fa9397a1","system_id":"levelo_inurba_marseille","lat":43.27312,"lon":5.39091,"is_reserved":false,"is_disabled":false,"rental_uris":{"android":"levelo://app?vid=87c11c0b-755c-45ff-a6ed-dc16fa9397a1","ios":"levelo://app?vid=87c11c0b-755c-45ff-a6ed-dc16fa9397a1"},"vehicle_type_id":"4","last_reported":1737317306,"current_range_meters":38800,"station_id":"ce4bhgp2rcd13ifvqfe0","pricing_plan_id":"cebpf4jnsgd1na2vs0mg"},{"bike_id":"763ed4fc-16fd-47a0-aedf-62c028daa66f","system_id":"levelo_inurba_marseille","lat":43.36388,"lon":5.35559,"is_reserved":false,"is_disabled":false,"rental_uris":{"android":"levelo://app?vid=763ed4fc-16fd-47a0-aedf-62c028daa66f","ios":"levelo://app?vid=763ed4fc-16fd-47a0-aedf-62c028daa66f"},"vehicle_type_id":"4","last_reported":1737317306,"current_range_meters":12000,"station_id":"","pricing_plan_id":"cebpf4jnsgd1na2vs0mg"},{"bike_id":"a0446cdf-4c31-4e00-97ba-8566b8db2edd","system_id":"levelo_inurba_marseille","lat":43.306039,"lon":5.372282,"is_reserved":false,"is_disabled":false,"rental_uris":{"android":"levelo://app?vid=a0446cdf-4c31-4e00-97ba-8566b8db2edd","ios":"levelo://app?vid=a0446cdf-4c31-4e00-97ba-8566b8db2edd"},"vehicle_type_id":"4","last_reported":1737317306,"current_range_meters":20000,"station_id":"","pricing_plan_id":"cebpf4jnsgd1na2vs0mg"},{"bike_id":"56855a2d-6aa0-43be-9bd4-39897b793621","system_id":"levelo_inurba_marseille","lat":43.23194,"lon":5.35545,"is_reserved":false,"is_disabled":false,"rental_uris":{"android":"levelo://app?vid=56855a2d-6aa0-43be-9bd4-39897b793621","ios":"levelo://app?vid=56855a2d-6aa0-43be-9bd4-39897b793621"},"vehicle_type_id":"4","last_reported":1737317306,"current_range_meters":6800,"station_id":"ce4bhu92rcd13ifvqi70","pricing_plan_id":"cebpf4jnsgd1na2vs0mg"},{"bike_id":"0be87886-7cc2-4a7c-aefd-b4d145a1ecaa","system_id":"levelo_inurba_marseille","lat":43.30885,"lon":5.39639,"is_reserved":false,"is_disabled":false,"rental_uris":{"android":"levelo://app?vid=0be87886-7cc2-4a7c-aefd-b4d145a1ecaa","ios":"levelo://app?vid=0be87886-7cc2-4a7c-aefd-b4d145a1ecaa"},"vehicle_type_id":"4","last_reported":1737317306,"current_range_meters":18800,"station_id":"ce4bh012rcd13ifvqcv0","pricing_plan_id":"cebpf4jnsgd1na2vs0mg"},{"bike_id":"7fcd78c2-0eab-400f-9e84-d750709c1420","system_id":"levelo_inurba_marseille","lat":43.31225,"lon":5.36858,"is_reserved":false,"is_disabled":false,"rental_uris":{"android":"levelo://app?vid=7fcd78c2-0eab-400f-9e84-d750709c1420","ios":"levelo://app?vid=7fcd78c2-0eab-400f-9e84-d750709c1420"},"vehicle_type_id":"4","last_reported":1737317306,"current_range_meters":25200,"station_id":"ce4bgl92rcd13ifvqbq0","pricing_plan_id":"cebpf4jnsgd1na2vs0mg"},{"bike_id":"ad436ec6-70de-4034-bfb0-ec137c53cd7e","system_id":"levelo_inurba_marseille","lat":43.26802,"lon":5.40258,"is_reserved":false,"is_disabled":false,"rental_uris":{"android":"levelo://app?vid=ad436ec6-70de-4034-bfb0-ec137c53cd7e","ios":"levelo://app?vid=ad436ec6-70de-4034-bfb0-ec137c53cd7e"},"vehicle_type_id":"4","last_reported":1737317306,"current_range_meters":38800,"station_id":"ce501612rcd8frsf0b60","pricing_plan_id":"cebpf4jnsgd1na2vs0mg"},{"bike_id":"f3c94274-f861-4c89-8bb1-1ebe1a531935","system_id":"levelo_inurba_marseille","lat":43.25057,"lon":5.38931,"is_reserved":false,"is_disabled":false,"rental_uris":{"android":"levelo://app?vid=f3c94274-f861-4c89-8bb1-1ebe1a531935","ios":"levelo://app?vid=f3c94274-f861-4c89-8bb1-1ebe1a531935"},"vehicle_type_id":"4","last_reported":1737317306,"current_range_meters":36800,"station_id":"ce4bhgp2rcd13ifvqfd0","pricing_plan_id":"cebpf4jnsgd1na2vs0mg"},{"bike_id":"adb118d6-cabd-484d-ac59-2e04d54bc02a","system_id":"levelo_inurba_marseille","lat":43.25721,"lon":5.41115,"is_reserved":false,"is_disabled":false,"rental_uris":{"android":"levelo://app?vid=adb118d6-cabd-484d-ac59-2e04d54bc02a","ios":"levelo://app?vid=adb118d6-cabd-484d-ac59-2e04d54bc02a"},"vehicle_type_id":"4","last_reported":1737317306,"current_range_meters":31200,"station_id":"ce4bhkp2rcd13ifvqgd0","pricing_plan_id":"cebpf4jnsgd1na2vs0mg"},{"bike_id":"ea820ade-d81d-428e-82b9-7f165f7e8e75","system_id":"levelo_inurba_marseille","lat":43.32365,"lon":5.36768,"is_reserved":false,"is_disabled":false,"rental_uris":{"android":"levelo://app?vid=ea820ade-d81d-428e-82b9-7f165f7e8e75","ios":"levelo://app?vid=ea820ade-d81d-428e-82b9-7f165f7e8e75"},"vehicle_type_id":"4","last_reported":1737317306,"current_range_meters":14400,"station_id":"ce4bhsh2rcd13ifvqi2g","pricing_plan_id":"cebpf4jnsgd1na2vs0mg"},{"bike_id":"c29020e0-83ef-4b06-ac4f-c4422257f84a","system_id":"levelo_inurba_marseille","lat":43.36396,"lon":5.35583,"is_reserved":false,"is_disabled":false,"rental_uris":{"android":"levelo://app?vid=c29020e0-83ef-4b06-ac4f-c4422257f84a","ios":"levelo://app?vid=c29020e0-83ef-4b06-ac4f-c4422257f84a"},"vehicle_type_id":"4","last_reported":1737317306,"current_range_meters":17200,"station_id":"","pricing_plan_id":"cebpf4jnsgd1na2vs0mg"},{"bike_id":"9a9f5094-96b5-4ffb-92ab-bc926b485321","system_id":"levelo_inurba_marseille","lat":43.23192,"lon":5.39975,"is_reserved":false,"is_disabled":false,"rental_uris":{"android":"levelo://app?vid=9a9f5094-96b5-4ffb-92ab-bc926b485321","ios":"levelo://app?vid=9a9f5094-96b5-4ffb-92ab-bc926b485321"},"vehicle_type_id":"4","last_reported":1737317306,"current_range_meters":24400,"station_id":"ce4bhn12rcd13ifvqgqg","pricing_plan_id":"cebpf4jnsgd1na2vs0mg"},{"bike_id":"ced7fb40-6690-4b1a-a579-21d8bf569244","system_id":"levelo_inurba_marseille","lat":43.27211,"lon":5.39185,"is_reserved":false,"is_disabled":false,"rental_uris":{"android":"levelo://app?vid=ced7fb40-6690-4b1a-a579-21d8bf569244","ios":"levelo://app?vid=ced7fb40-6690-4b1a-a579-21d8bf569244"},"vehicle_type_id":"4","last_reported":1737317306,"current_range_meters":31200,"station_id":"ce4bhhp2rcd13ifvqfm0","pricing_plan_id":"cebpf4jnsgd1na2vs0mg"},{"bike_id":"6bf5bd29-3e54-437a-9020-86384919dc04","system_id":"levelo_inurba_marseille","lat":43.32294,"lon":5.38292,"is_reserved":false,"is_disabled":false,"rental_uris":{"android":"levelo://app?vid=6bf5bd29-3e54-437a-9020-86384919dc04","ios":"levelo://app?vid=6bf5bd29-3e54-437a-9020-86384919dc04"},"vehicle_type_id":"4","last_reported":1737317306,"current_range_meters":38800,"station_id":"ce4bhr12rcd13ifvqhqg","pricing_plan_id":"cebpf4jnsgd1na2vs0mg"},{"bike_id":"405e40dc-c3d6-479f-9025-5bd9d5c0eb74","system_id":"levelo_inurba_marseille","lat":43.29907,"lon":5.3814,"is_reserved":false,"is_disabled":false,"rental_uris":{"android":"levelo://app?vid=405e40dc-c3d6-479f-9025-5bd9d5c0eb74","ios":"levelo://app?vid=405e40dc-c3d6-479f-9025-5bd9d5c0eb74"},"vehicle_type_id":"4","last_reported":1737317306,"current_range_meters":27200,"station_id":"ce4bgj12rcd13ifvqbc0","pricing_plan_id":"cebpf4jnsgd1na2vs0mg"},{"bike_id":"b672b566-ae6e-4181-a2cb-0155be334a04","system_id":"levelo_inurba_marseille","lat":43.28939,"lon":5.36633,"is_reserved":false,"is_disabled":true,"rental_uris":{"android":"levelo://app?vid=b672b566-ae6e-4181-a2cb-0155be334a04","ios":"levelo://app?vid=b672b566-ae6e-4181-a2cb-0155be334a04"},"vehicle_type_id":"4","last_reported":1737317306,"current_range_meters":32000,"station_id":"ce4bhap2rcd13ifvqek0","pricing_plan_id":"cebpf4jnsgd1na2vs0mg"},{"bike_id":"de359285-6551-4a7a-9b07-47eb5926f194","system_id":"levelo_inurba_marseille","lat":43.30588,"lon":5.39391,"is_reserved":false,"is_disabled":false,"rental_uris":{"android":"levelo://app?vid=de359285-6551-4a7a-9b07-47eb5926f194","ios":"levelo://app?vid=de359285-6551-4a7a-9b07-47eb5926f194"},"vehicle_type_id":"4","last_reported":1737317306,"current_range_meters":24800,"station_id":"ce4bh0p2rcd13ifvqd80","pricing_plan_id":"cebpf4jnsgd1na2vs0mg"},{"bike_id":"68b3faca-46a6-4186-847f-60871cb03f13","system_id":"levelo_inurba_marseille","lat":43.29865,"lon":5.39728,"is_reserved":false,"is_disabled":false,"rental_uris":{"android":"levelo://app?vid=68b3faca-46a6-4186-847f-60871cb03f13","ios":"levelo://app?vid=68b3faca-46a6-4186-847f-60871cb03f13"},"vehicle_type_id":"4","last_reported":1737317306,"current_range_meters":30400,"station_id":"ce4bh0h2rcd13ifvqd50","pricing_plan_id":"cebpf4jnsgd1na2vs0mg"},{"bike_id":"04e7f6b2-1170-476d-8eb7-54bc6ab7d23c","system_id":"levelo_inurba_marseille","lat":43.24387,"lon":5.37049,"is_reserved":false,"is_disabled":false,"rental_uris":{"android":"levelo://app?vid=04e7f6b2-1170-476d-8eb7-54bc6ab7d23c","ios":"levelo://app?vid=04e7f6b2-1170-476d-8eb7-54bc6ab7d23c"},"vehicle_type_id":"4","last_reported":1737317306,"current_range_meters":36800,"station_id":"ce4bhhh2rcd13ifvqfk0","pricing_plan_id":"cebpf4jnsgd1na2vs0mg"},{"bike_id":"9cc055f8-e768-48bb-a745-cc4661593627","system_id":"levelo_inurba_marseille","lat":43.27305,"lon":5.39085,"is_reserved":false,"is_disabled":false,"rental_uris":{"android":"levelo://app?vid=9cc055f8-e768-48bb-a745-cc4661593627","ios":"levelo://app?vid=9cc055f8-e768-48bb-a745-cc4661593627"},"vehicle_type_id":"4","last_reported":1737317306,"current_range_meters":33600,"station_id":"ce4bhgp2rcd13ifvqfe0","pricing_plan_id":"cebpf4jnsgd1na2vs0mg"},{"bike_id":"449f8a20-a708-4ad3-ad5e-9855ad16da8c","system_id":"levelo_inurba_marseille","lat":43.27045,"lon":5.40276,"is_reserved":false,"is_disabled":false,"rental_uris":{"android":"levelo://app?vid=449f8a20-a708-4ad3-ad5e-9855ad16da8c","ios":"levelo://app?vid=449f8a20-a708-4ad3-ad5e-9855ad16da8c"},"vehicle_type_id":"4","last_reported":1737317306,"current_range_meters":28800,"station_id":"ce4bhk92rcd13ifvqgc0","pricing_plan_id":"cebpf4jnsgd1na2vs0mg"},{"bike_id":"a1268425-e1b2-45b1-8fbc-9391b8140126","system_id":"levelo_inurba_marseille","lat":43.24391,"lon":5.37045,"is_reserved":false,"is_disabled":false,"rental_uris":{"android":"levelo://app?vid=a1268425-e1b2-45b1-8fbc-9391b8140126","ios":"levelo://app?vid=a1268425-e1b2-45b1-8fbc-9391b8140126"},"vehicle_type_id":"4","last_reported":1737317306,"current_range_meters":28000,"station_id":"ce4bhhh2rcd13ifvqfk0","pricing_plan_id":"cebpf4jnsgd1na2vs0mg"},{"bike_id":"93ccf62e-5857-4ef1-82a1-4115736411fd","system_id":"levelo_inurba_marseille","lat":43.2621,"lon":5.40458,"is_reserved":false,"is_disabled":false,"rental_uris":{"android":"levelo://app?vid=93ccf62e-5857-4ef1-82a1-4115736411fd","ios":"levelo://app?vid=93ccf62e-5857-4ef1-82a1-4115736411fd"},"vehicle_type_id":"4","last_reported":1737317306,"current_range_meters":34800,"station_id":"","pricing_plan_id":"cebpf4jnsgd1na2vs0mg"},{"bike_id":"5daca076-97e7-44f2-a06a-3888ff9fb787","system_id":"levelo_inurba_marseille","lat":43.27052,"lon":5.4026,"is_reserved":false,"is_disabled":false,"rental_uris":{"android":"levelo://app?vid=5daca076-97e7-44f2-a06a-3888ff9fb787","ios":"levelo://app?vid=5daca076-97e7-44f2-a06a-3888ff9fb787"},"vehicle_type_id":"4","last_reported":1737317306,"current_range_meters":25200,"station_id":"ce4bhk92rcd13ifvqgc0","pricing_plan_id":"cebpf4jnsgd1na2vs0mg"},{"bike_id":"d29c2132-c56f-4cae-af2c-5d645e547eb7","system_id":"levelo_inurba_marseille","lat":43.28487,"lon":5.38427,"is_reserved":false,"is_disabled":false,"rental_uris":{"android":"levelo://app?vid=d29c2132-c56f-4cae-af2c-5d645e547eb7","ios":"levelo://app?vid=d29c2132-c56f-4cae-af2c-5d645e547eb7"},"vehicle_type_id":"4","last_reported":1737317306,"current_range_meters":18000,"station_id":"ce4bh512rcd13ifvqe3g","pricing_plan_id":"cebpf4jnsgd1na2vs0mg"},{"bike_id":"80b01635-da8d-49c6-970d-fcae6353de6a","system_id":"levelo_inurba_marseille","lat":43.26941,"lon":5.40248,"is_reserved":false,"is_disabled":false,"rental_uris":{"android":"levelo://app?vid=80b01635-da8d-49c6-970d-fcae6353de6a","ios":"levelo://app?vid=80b01635-da8d-49c6-970d-fcae6353de6a"},"vehicle_type_id":"4","last_reported":1737317306,"current_range_meters":14800,"station_id":"cjm6bp8fraef2m0cb0m0","pricing_plan_id":"cebpf4jnsgd1na2vs0mg"},{"bike_id":"529c5357-3139-4edd-85ea-52fbb21f95f1","system_id":"levelo_inurba_marseille","lat":43.29204,"lon":5.39323,"is_reserved":false,"is_disabled":false,"rental_uris":{"android":"levelo://app?vid=529c5357-3139-4edd-85ea-52fbb21f95f1","ios":"levelo://app?vid=529c5357-3139-4edd-85ea-52fbb21f95f1"},"vehicle_type_id":"4","last_reported":1737317306,"current_range_meters":38800,"station_id":"ce4bh192rcd13ifvqdd0","pricing_plan_id":"cebpf4jnsgd1na2vs0mg"},{"bike_id":"81112329-1dad-4775-ba9b-1357b51686d0","system_id":"levelo_inurba_marseille","lat":43.31312,"lon":5.37344,"is_reserved":false,"is_disabled":false,"rental_uris":{"android":"levelo://app?vid=81112329-1dad-4775-ba9b-1357b51686d0","ios":"levelo://app?vid=81112329-1dad-4775-ba9b-1357b51686d0"},"vehicle_type_id":"4","last_reported":1737317306,"current_range_meters":36000,"station_id":"","pricing_plan_id":"cebpf4jnsgd1na2vs0mg"},{"bike_id":"a5980b8c-03f5-415b-9e39-3ae241b9c1c6","system_id":"levelo_inurba_marseille","lat":43.30883,"lon":5.39646,"is_reserved":false,"is_disabled":false,"rental_uris":{"android":"levelo://app?vid=a5980b8c-03f5-415b-9e39-3ae241b9c1c6","ios":"levelo://app?vid=a5980b8c-03f5-415b-9e39-3ae241b9c1c6"},"vehicle_type_id":"4","last_reported":1737317306,"current_range_meters":33600,"station_id":"ce4bh012rcd13ifvqcv0","pricing_plan_id":"cebpf4jnsgd1na2vs0mg"},{"bike_id":"aa58a370-3dfc-419f-ac67-60fe6fa0a1a7","system_id":"levelo_inurba_marseille","lat":43.24664,"lon":5.38168,"is_reserved":false,"is_disabled":false,"rental_uris":{"android":"levelo://app?vid=aa58a370-3dfc-419f-ac67-60fe6fa0a1a7","ios":"levelo://app?vid=aa58a370-3dfc-419f-ac67-60fe6fa0a1a7"},"vehicle_type_id":"4","last_reported":1737317306,"current_range_meters":11600,"station_id":"ce4bhih2rcd13ifvqfr0","pricing_plan_id":"cebpf4jnsgd1na2vs0mg"},{"bike_id":"e8977f8d-4704-43fc-84cc-a8268aab5cff","system_id":"levelo_inurba_marseille","lat":43.2681,"lon":5.40266,"is_reserved":false,"is_disabled":false,"rental_uris":{"android":"levelo://app?vid=e8977f8d-4704-43fc-84cc-a8268aab5cff","ios":"levelo://app?vid=e8977f8d-4704-43fc-84cc-a8268aab5cff"},"vehicle_type_id":"4","last_reported":1737317306,"current_range_meters":38800,"station_id":"ce501612rcd8frsf0b60","pricing_plan_id":"cebpf4jnsgd1na2vs0mg"},{"bike_id":"76ae0bac-44fa-485e-8dfa-3c828879e5bd","system_id":"levelo_inurba_marseille","lat":43.26521,"lon":5.39558,"is_reserved":false,"is_disabled":false,"rental_uris":{"android":"levelo://app?vid=76ae0bac-44fa-485e-8dfa-3c828879e5bd","ios":"levelo://app?vid=76ae0bac-44fa-485e-8dfa-3c828879e5bd"},"vehicle_type_id":"4","last_reported":1737317306,"current_range_meters":32800,"station_id":"ce4bhi12rcd13ifvqfq0","pricing_plan_id":"cebpf4jnsgd1na2vs0mg"},{"bike_id":"25a1483f-1859-4f2a-a274-9eb2c53ccd4c","system_id":"levelo_inurba_marseille","lat":43.27495,"lon":5.42445,"is_reserved":false,"is_disabled":false,"rental_uris":{"android":"levelo://app?vid=25a1483f-1859-4f2a-a274-9eb2c53ccd4c","ios":"levelo://app?vid=25a1483f-1859-4f2a-a274-9eb2c53ccd4c"},"vehicle_type_id":"4","last_reported":1737317306,"current_range_meters":26000,"station_id":"ce4bhn92rcd13ifvqgrg","pricing_plan_id":"cebpf4jnsgd1na2vs0mg"},{"bike_id":"afa3b07f-a639-42dd-abf5-28cc00708042","system_id":"levelo_inurba_marseille","lat":43.29192,"lon":5.393,"is_reserved":false,"is_disabled":false,"rental_uris":{"android":"levelo://app?vid=afa3b07f-a639-42dd-abf5-28cc00708042","ios":"levelo://app?vid=afa3b07f-a639-42dd-abf5-28cc00708042"},"vehicle_type_id":"4","last_reported":1737317306,"current_range_meters":26000,"station_id":"ce4bh192rcd13ifvqdd0","pricing_plan_id":"cebpf4jnsgd1na2vs0mg"},{"bike_id":"3860f79b-6390-4baa-9962-103869425bc6","system_id":"levelo_inurba_marseille","lat":43.2989,"lon":5.43675,"is_reserved":false,"is_disabled":false,"rental_uris":{"android":"levelo://app?vid=3860f79b-6390-4baa-9962-103869425bc6","ios":"levelo://app?vid=3860f79b-6390-4baa-9962-103869425bc6"},"vehicle_type_id":"4","last_reported":1737317306,"current_range_meters":21600,"station_id":"ce4bhpp2rcd13ifvqhfg","pricing_plan_id":"cebpf4jnsgd1na2vs0mg"},{"bike_id":"b14f1103-f0c1-4eea-a319-43c13105cce8","system_id":"levelo_inurba_marseille","lat":43.3248,"lon":5.36565,"is_reserved":false,"is_disabled":false,"rental_uris":{"android":"levelo://app?vid=b14f1103-f0c1-4eea-a319-43c13105cce8","ios":"levelo://app?vid=b14f1103-f0c1-4eea-a319-43c13105cce8"},"vehicle_type_id":"4","last_reported":1737317306,"current_range_meters":3200,"station_id":"ce4bhs12rcd13ifvqhvg","pricing_plan_id":"cebpf4jnsgd1na2vs0mg"},{"bike_id":"ec1ead99-65a0-4333-8a22-ff4e8980ef0e","system_id":"levelo_inurba_marseille","lat":43.26788,"lon":5.39419,"is_reserved":false,"is_disabled":false,"rental_uris":{"android":"levelo://app?vid=ec1ead99-65a0-4333-8a22-ff4e8980ef0e","ios":"levelo://app?vid=ec1ead99-65a0-4333-8a22-ff4e8980ef0e"},"vehicle_type_id":"4","last_reported":1737317306,"current_range_meters":38800,"station_id":"ce4bhh12rcd13ifvqfg0","pricing_plan_id":"cebpf4jnsgd1na2vs0mg"},{"bike_id":"f09979f7-be70-46cc-b8ab-d9d3b5ad1a4b","system_id":"levelo_inurba_marseille","lat":43.2507,"lon":5.3952,"is_reserved":false,"is_disabled":false,"rental_uris":{"android":"levelo://app?vid=f09979f7-be70-46cc-b8ab-d9d3b5ad1a4b","ios":"levelo://app?vid=f09979f7-be70-46cc-b8ab-d9d3b5ad1a4b"},"vehicle_type_id":"4","last_reported":1737317306,"current_range_meters":24800,"station_id":"ce4bhm12rcd13ifvqgkg","pricing_plan_id":"cebpf4jnsgd1na2vs0mg"},{"bike_id":"10b8da58-1f12-44b0-8c4c-eff01d48a146","system_id":"levelo_inurba_marseille","lat":43.30655,"lon":5.40103,"is_reserved":false,"is_disabled":true,"rental_uris":{"android":"levelo://app?vid=10b8da58-1f12-44b0-8c4c-eff01d48a146","ios":"levelo://app?vid=10b8da58-1f12-44b0-8c4c-eff01d48a146"},"vehicle_type_id":"4","last_reported":1737317306,"current_range_meters":27200,"station_id":"ce4bh112rcd13ifvqda0","pricing_plan_id":"cebpf4jnsgd1na2vs0mg"},{"bike_id":"9bfcd8f3-ca46-4a92-be49-7365e2e55c59","system_id":"levelo_inurba_marseille","lat":43.27424,"lon":5.39418,"is_reserved":false,"is_disabled":false,"rental_uris":{"android":"levelo://app?vid=9bfcd8f3-ca46-4a92-be49-7365e2e55c59","ios":"levelo://app?vid=9bfcd8f3-ca46-4a92-be49-7365e2e55c59"},"vehicle_type_id":"4","last_reported":1737317306,"current_range_meters":12000,"station_id":"ce4bhdp2rcd13ifvqf20","pricing_plan_id":"cebpf4jnsgd1na2vs0mg"},{"bike_id":"ca8aa51d-4833-4c77-8009-59b7c07323a3","system_id":"levelo_inurba_marseille","lat":43.32364,"lon":5.36766,"is_reserved":false,"is_disabled":false,"rental_uris":{"android":"levelo://app?vid=ca8aa51d-4833-4c77-8009-59b7c07323a3","ios":"levelo://app?vid=ca8aa51d-4833-4c77-8009-59b7c07323a3"},"vehicle_type_id":"4","last_reported":1737317306,"current_range_meters":35200,"station_id":"ce4bhsh2rcd13ifvqi2g","pricing_plan_id":"cebpf4jnsgd1na2vs0mg"},{"bike_id":"5905d5b7-91e0-4bbc-96b5-ad98104bbb73","system_id":"levelo_inurba_marseille","lat":43.27678,"lon":5.38894,"is_reserved":false,"is_disabled":false,"rental_uris":{"android":"levelo://app?vid=5905d5b7-91e0-4bbc-96b5-ad98104bbb73","ios":"levelo://app?vid=5905d5b7-91e0-4bbc-96b5-ad98104bbb73"},"vehicle_type_id":"4","last_reported":1737317306,"current_range_meters":28400,"station_id":"ce4bhi12rcd13ifvqfo0","pricing_plan_id":"cebpf4jnsgd1na2vs0mg"},{"bike_id":"5bf8e543-9cea-4650-a514-c933c4653b89","system_id":"levelo_inurba_marseille","lat":43.31073,"lon":5.38358,"is_reserved":false,"is_disabled":false,"rental_uris":{"android":"levelo://app?vid=5bf8e543-9cea-4650-a514-c933c4653b89","ios":"levelo://app?vid=5bf8e543-9cea-4650-a514-c933c4653b89"},"vehicle_type_id":"4","last_reported":1737317306,"current_range_meters":36000,"station_id":"ce4bgv92rcd13ifvqcr0","pricing_plan_id":"cebpf4jnsgd1na2vs0mg"},{"bike_id":"f3f70cac-de35-48b0-a3dd-1f1cd91da10d","system_id":"levelo_inurba_marseille","lat":43.30262,"lon":5.40064,"is_reserved":false,"is_disabled":false,"rental_uris":{"android":"levelo://app?vid=f3f70cac-de35-48b0-a3dd-1f1cd91da10d","ios":"levelo://app?vid=f3f70cac-de35-48b0-a3dd-1f1cd91da10d"},"vehicle_type_id":"4","last_reported":1737317306,"current_range_meters":37600,"station_id":"ce4bgvh2rcd13ifvqcs0","pricing_plan_id":"cebpf4jnsgd1na2vs0mg"},{"bike_id":"ce0ee56d-180c-40a7-8ee4-1ff6fa737784","system_id":"levelo_inurba_marseille","lat":43.29903,"lon":5.43651,"is_reserved":false,"is_disabled":false,"rental_uris":{"android":"levelo://app?vid=ce0ee56d-180c-40a7-8ee4-1ff6fa737784","ios":"levelo://app?vid=ce0ee56d-180c-40a7-8ee4-1ff6fa737784"},"vehicle_type_id":"4","last_reported":1737317306,"current_range_meters":38800,"station_id":"ce4bhpp2rcd13ifvqhfg","pricing_plan_id":"cebpf4jnsgd1na2vs0mg"},{"bike_id":"49edd341-1744-445c-b1f6-ec80c4f617c5","system_id":"levelo_inurba_marseille","lat":43.27074,"lon":5.4228,"is_reserved":false,"is_disabled":false,"rental_uris":{"android":"levelo://app?vid=49edd341-1744-445c-b1f6-ec80c4f617c5","ios":"levelo://app?vid=49edd341-1744-445c-b1f6-ec80c4f617c5"},"vehicle_type_id":"4","last_reported":1737317306,"current_range_meters":28400,"station_id":"ce4bhk92rcd13ifvqgb0","pricing_plan_id":"cebpf4jnsgd1na2vs0mg"},{"bike_id":"51379e9f-1ebd-43ee-bd84-6927ab606473","system_id":"levelo_inurba_marseille","lat":43.24164,"lon":5.36395,"is_reserved":false,"is_disabled":false,"rental_uris":{"android":"levelo://app?vid=51379e9f-1ebd-43ee-bd84-6927ab606473","ios":"levelo://app?vid=51379e9f-1ebd-43ee-bd84-6927ab606473"},"vehicle_type_id":"4","last_reported":1737317306,"current_range_meters":25600,"station_id":"cpo36qri1sfpv3e86is0","pricing_plan_id":"cebpf4jnsgd1na2vs0mg"},{"bike_id":"57d9fa47-e597-4ea4-913f-9b45079bd718","system_id":"levelo_inurba_marseille","lat":43.33025,"lon":5.39032,"is_reserved":false,"is_disabled":false,"rental_uris":{"android":"levelo://app?vid=57d9fa47-e597-4ea4-913f-9b45079bd718","ios":"levelo://app?vid=57d9fa47-e597-4ea4-913f-9b45079bd718"},"vehicle_type_id":"4","last_reported":1737317306,"current_range_meters":24400,"station_id":"ce4bhr92rcd13ifvqhrg","pricing_plan_id":"cebpf4jnsgd1na2vs0mg"},{"bike_id":"bc76e6ad-cf44-4904-8351-89b3939bc8b1","system_id":"levelo_inurba_marseille","lat":43.29168,"lon":5.37163,"is_reserved":false,"is_disabled":false,"rental_uris":{"android":"levelo://app?vid=bc76e6ad-cf44-4904-8351-89b3939bc8b1","ios":"levelo://app?vid=bc76e6ad-cf44-4904-8351-89b3939bc8b1"},"vehicle_type_id":"4","last_reported":1737317306,"current_range_meters":38800,"station_id":"ce4bha92rcd13ifvqeh0","pricing_plan_id":"cebpf4jnsgd1na2vs0mg"},{"bike_id":"4ec76aa8-1e80-4051-b2ea-1baaf50a61e8","system_id":"levelo_inurba_marseille","lat":43.24126,"lon":5.381,"is_reserved":false,"is_disabled":false,"rental_uris":{"android":"levelo://app?vid=4ec76aa8-1e80-4051-b2ea-1baaf50a61e8","ios":"levelo://app?vid=4ec76aa8-1e80-4051-b2ea-1baaf50a61e8"},"vehicle_type_id":"4","last_reported":1737317306,"current_range_meters":16800,"station_id":"","pricing_plan_id":"cebpf4jnsgd1na2vs0mg"},{"bike_id":"d7b57092-5089-4c4a-819e-bef9772d11d8","system_id":"levelo_inurba_marseille","lat":43.31803,"lon":5.3778,"is_reserved":false,"is_disabled":false,"rental_uris":{"android":"levelo://app?vid=d7b57092-5089-4c4a-819e-bef9772d11d8","ios":"levelo://app?vid=d7b57092-5089-4c4a-819e-bef9772d11d8"},"vehicle_type_id":"4","last_reported":1737317306,"current_range_meters":31200,"station_id":"","pricing_plan_id":"cebpf4jnsgd1na2vs0mg"},{"bike_id":"bd00f222-ce0c-4f81-a68c-0edabc3e5f6b","system_id":"levelo_inurba_marseille","lat":43.2508,"lon":5.39521,"is_reserved":false,"is_disabled":false,"rental_uris":{"android":"levelo://app?vid=bd00f222-ce0c-4f81-a68c-0edabc3e5f6b","ios":"levelo://app?vid=bd00f222-ce0c-4f81-a68c-0edabc3e5f6b"},"vehicle_type_id":"4","last_reported":1737317306,"current_range_meters":36400,"station_id":"ce4bhm12rcd13ifvqgkg","pricing_plan_id":"cebpf4jnsgd1na2vs0mg"},{"bike_id":"145cc5bf-a5de-40a5-b882-d0e2e790c715","system_id":"levelo_inurba_marseille","lat":43.2961,"lon":5.38094,"is_reserved":false,"is_disabled":false,"rental_uris":{"android":"levelo://app?vid=145cc5bf-a5de-40a5-b882-d0e2e790c715","ios":"levelo://app?vid=145cc5bf-a5de-40a5-b882-d0e2e790c715"},"vehicle_type_id":"4","last_reported":1737317306,"current_range_meters":38800,"station_id":"ce4bgl12rcd13ifvqbo0","pricing_plan_id":"cebpf4jnsgd1na2vs0mg"},{"bike_id":"11711ab9-4f4b-4ecb-9024-29f0de6a5b87","system_id":"levelo_inurba_marseille","lat":43.26919,"lon":5.40248,"is_reserved":false,"is_disabled":false,"rental_uris":{"android":"levelo://app?vid=11711ab9-4f4b-4ecb-9024-29f0de6a5b87","ios":"levelo://app?vid=11711ab9-4f4b-4ecb-9024-29f0de6a5b87"},"vehicle_type_id":"4","last_reported":1737317306,"current_range_meters":24000,"station_id":"cjm6bp8fraef2m0cb0m0","pricing_plan_id":"cebpf4jnsgd1na2vs0mg"},{"bike_id":"b14c698e-ccbd-4931-a1a4-89ecd1354a05","system_id":"levelo_inurba_marseille","lat":43.2743,"lon":5.39362,"is_reserved":false,"is_disabled":true,"rental_uris":{"android":"levelo://app?vid=b14c698e-ccbd-4931-a1a4-89ecd1354a05","ios":"levelo://app?vid=b14c698e-ccbd-4931-a1a4-89ecd1354a05"},"vehicle_type_id":"4","last_reported":1737317306,"current_range_meters":800,"station_id":"ce4bhdp2rcd13ifvqf20","pricing_plan_id":"cebpf4jnsgd1na2vs0mg"},{"bike_id":"4104cbba-088f-4383-b2a0-261d17699731","system_id":"levelo_inurba_marseille","lat":43.23963,"lon":5.366355,"is_reserved":false,"is_disabled":false,"rental_uris":{"android":"levelo://app?vid=4104cbba-088f-4383-b2a0-261d17699731","ios":"levelo://app?vid=4104cbba-088f-4383-b2a0-261d17699731"},"vehicle_type_id":"4","last_reported":1737317306,"current_range_meters":36000,"station_id":"ce4bhi12rcd13ifvqfp0","pricing_plan_id":"cebpf4jnsgd1na2vs0mg"},{"bike_id":"7be810f6-d21f-44ca-8f08-d9a4a9e1b082","system_id":"levelo_inurba_marseille","lat":43.32358,"lon":5.3676,"is_reserved":false,"is_disabled":false,"rental_uris":{"android":"levelo://app?vid=7be810f6-d21f-44ca-8f08-d9a4a9e1b082","ios":"levelo://app?vid=7be810f6-d21f-44ca-8f08-d9a4a9e1b082"},"vehicle_type_id":"4","last_reported":1737317306,"current_range_meters":13600,"station_id":"ce4bhsh2rcd13ifvqi2g","pricing_plan_id":"cebpf4jnsgd1na2vs0mg"},{"bike_id":"fa3ae047-f405-4f0c-8e0e-dbbd46305ff7","system_id":"levelo_inurba_marseille","lat":43.275707,"lon":5.384107,"is_reserved":false,"is_disabled":false,"rental_uris":{"android":"levelo://app?vid=fa3ae047-f405-4f0c-8e0e-dbbd46305ff7","ios":"levelo://app?vid=fa3ae047-f405-4f0c-8e0e-dbbd46305ff7"},"vehicle_type_id":"4","last_reported":1737317306,"current_range_meters":38800,"station_id":"ce4bhh92rcd13ifvqfi0","pricing_plan_id":"cebpf4jnsgd1na2vs0mg"},{"bike_id":"b5efb390-7a38-4acd-88da-cfae35c1be12","system_id":"levelo_inurba_marseille","lat":43.27314,"lon":5.39089,"is_reserved":false,"is_disabled":false,"rental_uris":{"android":"levelo://app?vid=b5efb390-7a38-4acd-88da-cfae35c1be12","ios":"levelo://app?vid=b5efb390-7a38-4acd-88da-cfae35c1be12"},"vehicle_type_id":"4","last_reported":1737317306,"current_range_meters":30800,"station_id":"ce4bhgp2rcd13ifvqfe0","pricing_plan_id":"cebpf4jnsgd1na2vs0mg"},{"bike_id":"4eab8b95-e725-4774-9c70-d2be6401d290","system_id":"levelo_inurba_marseille","lat":43.32448,"lon":5.36533,"is_reserved":false,"is_disabled":false,"rental_uris":{"android":"levelo://app?vid=4eab8b95-e725-4774-9c70-d2be6401d290","ios":"levelo://app?vid=4eab8b95-e725-4774-9c70-d2be6401d290"},"vehicle_type_id":"4","last_reported":1737317306,"current_range_meters":36400,"station_id":"ce4bhs12rcd13ifvqhvg","pricing_plan_id":"cebpf4jnsgd1na2vs0mg"},{"bike_id":"28ef1c1e-dd89-43e8-817b-9b489831397b","system_id":"levelo_inurba_marseille","lat":43.27098,"lon":5.39603,"is_reserved":false,"is_disabled":true,"rental_uris":{"android":"levelo://app?vid=28ef1c1e-dd89-43e8-817b-9b489831397b","ios":"levelo://app?vid=28ef1c1e-dd89-43e8-817b-9b489831397b"},"vehicle_type_id":"4","last_reported":1737317306,"current_range_meters":0,"station_id":"","pricing_plan_id":"cebpf4jnsgd1na2vs0mg"},{"bike_id":"a090d58d-a1fb-4921-bd15-f1d1e2db9ea4","system_id":"levelo_inurba_marseille","lat":43.24181,"lon":5.39733,"is_reserved":false,"is_disabled":false,"rental_uris":{"android":"levelo://app?vid=a090d58d-a1fb-4921-bd15-f1d1e2db9ea4","ios":"levelo://app?vid=a090d58d-a1fb-4921-bd15-f1d1e2db9ea4"},"vehicle_type_id":"4","last_reported":1737317306,"current_range_meters":28800,"station_id":"ce4bhn12rcd13ifvqgpg","pricing_plan_id":"cebpf4jnsgd1na2vs0mg"},{"bike_id":"7d444872-3fb0-4536-9005-7a5b415b9ac8","system_id":"levelo_inurba_marseille","lat":43.245456,"lon":5.395217,"is_reserved":false,"is_disabled":false,"rental_uris":{"android":"levelo://app?vid=7d444872-3fb0-4536-9005-7a5b415b9ac8","ios":"levelo://app?vid=7d444872-3fb0-4536-9005-7a5b415b9ac8"},"vehicle_type_id":"4","last_reported":1737317306,"current_range_meters":34000,"station_id":"ce4bhlp2rcd13ifvqgjg","pricing_plan_id":"cebpf4jnsgd1na2vs0mg"},{"bike_id":"fd4d57d3-e476-4095-a9ce-e96d6483545c","system_id":"levelo_inurba_marseille","lat":43.28417,"lon":5.37549,"is_reserved":false,"is_disabled":false,"rental_uris":{"android":"levelo://app?vid=fd4d57d3-e476-4095-a9ce-e96d6483545c","ios":"levelo://app?vid=fd4d57d3-e476-4095-a9ce-e96d6483545c"},"vehicle_type_id":"4","last_reported":1737317306,"current_range_meters":28800,"station_id":"ce4bh412rcd13ifvqds0","pricing_plan_id":"cebpf4jnsgd1na2vs0mg"},{"bike_id":"fc4d54fa-c14c-4612-9074-ef3411f762fe","system_id":"levelo_inurba_marseille","lat":43.26935,"lon":5.40202,"is_reserved":false,"is_disabled":false,"rental_uris":{"android":"levelo://app?vid=fc4d54fa-c14c-4612-9074-ef3411f762fe","ios":"levelo://app?vid=fc4d54fa-c14c-4612-9074-ef3411f762fe"},"vehicle_type_id":"4","last_reported":1737317306,"current_range_meters":24400,"station_id":"","pricing_plan_id":"cebpf4jnsgd1na2vs0mg"},{"bike_id":"357eaeda-fef2-41f2-9ad0-621ae2cc5c09","system_id":"levelo_inurba_marseille","lat":43.33753,"lon":5.37518,"is_reserved":false,"is_disabled":false,"rental_uris":{"android":"levelo://app?vid=357eaeda-fef2-41f2-9ad0-621ae2cc5c09","ios":"levelo://app?vid=357eaeda-fef2-41f2-9ad0-621ae2cc5c09"},"vehicle_type_id":"4","last_reported":1737317306,"current_range_meters":31200,"station_id":"","pricing_plan_id":"cebpf4jnsgd1na2vs0mg"},{"bike_id":"9591e31e-6673-4bff-8f50-6b7e82a6b9d7","system_id":"levelo_inurba_marseille","lat":43.24069,"lon":5.37747,"is_reserved":false,"is_disabled":false,"rental_uris":{"android":"levelo://app?vid=9591e31e-6673-4bff-8f50-6b7e82a6b9d7","ios":"levelo://app?vid=9591e31e-6673-4bff-8f50-6b7e82a6b9d7"},"vehicle_type_id":"4","last_reported":1737317306,"current_range_meters":21600,"station_id":"ce4bhnp2rcd13ifvqgvg","pricing_plan_id":"cebpf4jnsgd1na2vs0mg"},{"bike_id":"ce27e413-df3d-41a0-b3b9-f2bea8802047","system_id":"levelo_inurba_marseille","lat":43.287025,"lon":5.374005,"is_reserved":false,"is_disabled":false,"rental_uris":{"android":"levelo://app?vid=ce27e413-df3d-41a0-b3b9-f2bea8802047","ios":"levelo://app?vid=ce27e413-df3d-41a0-b3b9-f2bea8802047"},"vehicle_type_id":"4","last_reported":1737317306,"current_range_meters":30400,"station_id":"ce4bh3p2rcd13ifvqdq0","pricing_plan_id":"cebpf4jnsgd1na2vs0mg"},{"bike_id":"4ca0c0a8-ebec-4495-a31b-51805b75ee6d","system_id":"levelo_inurba_marseille","lat":43.24648,"lon":5.38888,"is_reserved":false,"is_disabled":false,"rental_uris":{"android":"levelo://app?vid=4ca0c0a8-ebec-4495-a31b-51805b75ee6d","ios":"levelo://app?vid=4ca0c0a8-ebec-4495-a31b-51805b75ee6d"},"vehicle_type_id":"4","last_reported":1737317306,"current_range_meters":38400,"station_id":"ce4bhg12rcd13ifvqf60","pricing_plan_id":"cebpf4jnsgd1na2vs0mg"},{"bike_id":"59573d05-8b25-4d08-928a-2e522ea4e7a5","system_id":"levelo_inurba_marseille","lat":43.31155,"lon":5.38722,"is_reserved":false,"is_disabled":true,"rental_uris":{"android":"levelo://app?vid=59573d05-8b25-4d08-928a-2e522ea4e7a5","ios":"levelo://app?vid=59573d05-8b25-4d08-928a-2e522ea4e7a5"},"vehicle_type_id":"4","last_reported":1737317306,"current_range_meters":38800,"station_id":"ce4bgv12rcd13ifvqcp0","pricing_plan_id":"cebpf4jnsgd1na2vs0mg"},{"bike_id":"d714004e-0a5d-46dc-8f45-dcd4ee7c47a7","system_id":"levelo_inurba_marseille","lat":43.29561,"lon":5.37484,"is_reserved":false,"is_disabled":true,"rental_uris":{"android":"levelo://app?vid=d714004e-0a5d-46dc-8f45-dcd4ee7c47a7","ios":"levelo://app?vid=d714004e-0a5d-46dc-8f45-dcd4ee7c47a7"},"vehicle_type_id":"4","last_reported":1737317306,"current_range_meters":13600,"station_id":"ce4bgh92rcd13ifvqb50","pricing_plan_id":"cebpf4jnsgd1na2vs0mg"},{"bike_id":"450199e2-7559-4412-a9e8-aa7adede615e","system_id":"levelo_inurba_marseille","lat":43.27211,"lon":5.39183,"is_reserved":false,"is_disabled":false,"rental_uris":{"android":"levelo://app?vid=450199e2-7559-4412-a9e8-aa7adede615e","ios":"levelo://app?vid=450199e2-7559-4412-a9e8-aa7adede615e"},"vehicle_type_id":"4","last_reported":1737317306,"current_range_meters":30800,"station_id":"ce4bhhp2rcd13ifvqfm0","pricing_plan_id":"cebpf4jnsgd1na2vs0mg"},{"bike_id":"bc24efdc-7262-4dc6-8d91-959601976d7e","system_id":"levelo_inurba_marseille","lat":43.28846,"lon":5.39327,"is_reserved":false,"is_disabled":false,"rental_uris":{"android":"levelo://app?vid=bc24efdc-7262-4dc6-8d91-959601976d7e","ios":"levelo://app?vid=bc24efdc-7262-4dc6-8d91-959601976d7e"},"vehicle_type_id":"4","last_reported":1737317306,"current_range_meters":30400,"station_id":"ce4bh2p2rcd13ifvqdi0","pricing_plan_id":"cebpf4jnsgd1na2vs0mg"},{"bike_id":"406cf7e1-dd3a-472a-896f-d09b14680f3c","system_id":"levelo_inurba_marseille","lat":43.26058,"lon":5.39394,"is_reserved":false,"is_disabled":false,"rental_uris":{"android":"levelo://app?vid=406cf7e1-dd3a-472a-896f-d09b14680f3c","ios":"levelo://app?vid=406cf7e1-dd3a-472a-896f-d09b14680f3c"},"vehicle_type_id":"4","last_reported":1737317306,"current_range_meters":24800,"station_id":"ce4bhh92rcd13ifvqfj0","pricing_plan_id":"cebpf4jnsgd1na2vs0mg"},{"bike_id":"10fbf793-650b-45ab-a847-3345db2e6687","system_id":"levelo_inurba_marseille","lat":43.29255,"lon":5.38435,"is_reserved":false,"is_disabled":false,"rental_uris":{"android":"levelo://app?vid=10fbf793-650b-45ab-a847-3345db2e6687","ios":"levelo://app?vid=10fbf793-650b-45ab-a847-3345db2e6687"},"vehicle_type_id":"4","last_reported":1737317306,"current_range_meters":38800,"station_id":"ce4bh692rcd13ifvqea0","pricing_plan_id":"cebpf4jnsgd1na2vs0mg"},{"bike_id":"01a07bd9-36a1-4c19-a88b-7c9e3a6ee490","system_id":"levelo_inurba_marseille","lat":43.25088,"lon":5.39514,"is_reserved":false,"is_disabled":false,"rental_uris":{"android":"levelo://app?vid=01a07bd9-36a1-4c19-a88b-7c9e3a6ee490","ios":"levelo://app?vid=01a07bd9-36a1-4c19-a88b-7c9e3a6ee490"},"vehicle_type_id":"4","last_reported":1737317306,"current_range_meters":32000,"station_id":"ce4bhm12rcd13ifvqgkg","pricing_plan_id":"cebpf4jnsgd1na2vs0mg"},{"bike_id":"3ee3bed5-3086-456c-978b-a08673a42a05","system_id":"levelo_inurba_marseille","lat":43.28478,"lon":5.3841,"is_reserved":false,"is_disabled":false,"rental_uris":{"android":"levelo://app?vid=3ee3bed5-3086-456c-978b-a08673a42a05","ios":"levelo://app?vid=3ee3bed5-3086-456c-978b-a08673a42a05"},"vehicle_type_id":"4","last_reported":1737317306,"current_range_meters":24000,"station_id":"ce4bh512rcd13ifvqe3g","pricing_plan_id":"cebpf4jnsgd1na2vs0mg"},{"bike_id":"3a226b53-772d-4831-aae6-679204abc709","system_id":"levelo_inurba_marseille","lat":43.25862,"lon":5.39892,"is_reserved":false,"is_disabled":false,"rental_uris":{"android":"levelo://app?vid=3a226b53-772d-4831-aae6-679204abc709","ios":"levelo://app?vid=3a226b53-772d-4831-aae6-679204abc709"},"vehicle_type_id":"4","last_reported":1737317306,"current_range_meters":38800,"station_id":"ce4bhl92rcd13ifvqghg","pricing_plan_id":"cebpf4jnsgd1na2vs0mg"},{"bike_id":"d751e749-afcd-4240-9c1e-54752c62ac8f","system_id":"levelo_inurba_marseille","lat":43.27487,"lon":5.42458,"is_reserved":false,"is_disabled":true,"rental_uris":{"android":"levelo://app?vid=d751e749-afcd-4240-9c1e-54752c62ac8f","ios":"levelo://app?vid=d751e749-afcd-4240-9c1e-54752c62ac8f"},"vehicle_type_id":"4","last_reported":1737317306,"current_range_meters":38000,"station_id":"ce4bhn92rcd13ifvqgrg","pricing_plan_id":"cebpf4jnsgd1na2vs0mg"},{"bike_id":"7e66cdd4-d4f9-419e-86ef-a4b6fd288504","system_id":"levelo_inurba_marseille","lat":43.29918,"lon":5.38148,"is_reserved":false,"is_disabled":false,"rental_uris":{"android":"levelo://app?vid=7e66cdd4-d4f9-419e-86ef-a4b6fd288504","ios":"levelo://app?vid=7e66cdd4-d4f9-419e-86ef-a4b6fd288504"},"vehicle_type_id":"4","last_reported":1737317306,"current_range_meters":33200,"station_id":"ce4bgj12rcd13ifvqbc0","pricing_plan_id":"cebpf4jnsgd1na2vs0mg"},{"bike_id":"1a531580-4efd-49f3-925f-81e7e3768874","system_id":"levelo_inurba_marseille","lat":43.25729,"lon":5.41106,"is_reserved":false,"is_disabled":false,"rental_uris":{"android":"levelo://app?vid=1a531580-4efd-49f3-925f-81e7e3768874","ios":"levelo://app?vid=1a531580-4efd-49f3-925f-81e7e3768874"},"vehicle_type_id":"4","last_reported":1737317306,"current_range_meters":36400,"station_id":"ce4bhkp2rcd13ifvqgd0","pricing_plan_id":"cebpf4jnsgd1na2vs0mg"},{"bike_id":"524072f1-ace1-43cc-8007-f91dc732b1f7","system_id":"levelo_inurba_marseille","lat":43.25084,"lon":5.39513,"is_reserved":false,"is_disabled":false,"rental_uris":{"android":"levelo://app?vid=524072f1-ace1-43cc-8007-f91dc732b1f7","ios":"levelo://app?vid=524072f1-ace1-43cc-8007-f91dc732b1f7"},"vehicle_type_id":"4","last_reported":1737317306,"current_range_meters":30000,"station_id":"ce4bhm12rcd13ifvqgkg","pricing_plan_id":"cebpf4jnsgd1na2vs0mg"},{"bike_id":"c42268c0-a5e0-42b8-b874-93ef21576df8","system_id":"levelo_inurba_marseille","lat":43.28155,"lon":5.42637,"is_reserved":false,"is_disabled":false,"rental_uris":{"android":"levelo://app?vid=c42268c0-a5e0-42b8-b874-93ef21576df8","ios":"levelo://app?vid=c42268c0-a5e0-42b8-b874-93ef21576df8"},"vehicle_type_id":"4","last_reported":1737317306,"current_range_meters":26800,"station_id":"ce4bhnh2rcd13ifvqgug","pricing_plan_id":"cebpf4jnsgd1na2vs0mg"},{"bike_id":"65a67c24-b043-409c-9b6c-49d12733cda3","system_id":"levelo_inurba_marseille","lat":43.2733,"lon":5.39046,"is_reserved":false,"is_disabled":false,"rental_uris":{"android":"levelo://app?vid=65a67c24-b043-409c-9b6c-49d12733cda3","ios":"levelo://app?vid=65a67c24-b043-409c-9b6c-49d12733cda3"},"vehicle_type_id":"4","last_reported":1737317306,"current_range_meters":34800,"station_id":"ce4bhgp2rcd13ifvqfe0","pricing_plan_id":"cebpf4jnsgd1na2vs0mg"},{"bike_id":"0f2743d1-4d5e-4f5d-80a9-2ff55d9ea33b","system_id":"levelo_inurba_marseille","lat":43.24073,"lon":5.37743,"is_reserved":false,"is_disabled":false,"rental_uris":{"android":"levelo://app?vid=0f2743d1-4d5e-4f5d-80a9-2ff55d9ea33b","ios":"levelo://app?vid=0f2743d1-4d5e-4f5d-80a9-2ff55d9ea33b"},"vehicle_type_id":"4","last_reported":1737317306,"current_range_meters":36400,"station_id":"ce4bhnp2rcd13ifvqgvg","pricing_plan_id":"cebpf4jnsgd1na2vs0mg"},{"bike_id":"6c856576-b5fe-48dd-b2ab-0a4b615188d9","system_id":"levelo_inurba_marseille","lat":43.32346,"lon":5.40593,"is_reserved":false,"is_disabled":false,"rental_uris":{"android":"levelo://app?vid=6c856576-b5fe-48dd-b2ab-0a4b615188d9","ios":"levelo://app?vid=6c856576-b5fe-48dd-b2ab-0a4b615188d9"},"vehicle_type_id":"4","last_reported":1737317306,"current_range_meters":39200,"station_id":"ce4bhq92rcd13ifvqhjg","pricing_plan_id":"cebpf4jnsgd1na2vs0mg"},{"bike_id":"392d5c13-52e3-4447-bb35-77b670143dc4","system_id":"levelo_inurba_marseille","lat":43.23954,"lon":5.36632,"is_reserved":false,"is_disabled":false,"rental_uris":{"android":"levelo://app?vid=392d5c13-52e3-4447-bb35-77b670143dc4","ios":"levelo://app?vid=392d5c13-52e3-4447-bb35-77b670143dc4"},"vehicle_type_id":"4","last_reported":1737317306,"current_range_meters":32000,"station_id":"ce4bhi12rcd13ifvqfp0","pricing_plan_id":"cebpf4jnsgd1na2vs0mg"},{"bike_id":"97dc7bbb-af7c-432f-aee1-cb76edac8ebd","system_id":"levelo_inurba_marseille","lat":43.23194,"lon":5.39978,"is_reserved":false,"is_disabled":true,"rental_uris":{"android":"levelo://app?vid=97dc7bbb-af7c-432f-aee1-cb76edac8ebd","ios":"levelo://app?vid=97dc7bbb-af7c-432f-aee1-cb76edac8ebd"},"vehicle_type_id":"4","last_reported":1737317306,"current_range_meters":0,"station_id":"ce4bhn12rcd13ifvqgqg","pricing_plan_id":"cebpf4jnsgd1na2vs0mg"},{"bike_id":"4291632b-b89c-4c47-8e03-1ac2c74e4815","system_id":"levelo_inurba_marseille","lat":43.24177,"lon":5.39725,"is_reserved":false,"is_disabled":false,"rental_uris":{"android":"levelo://app?vid=4291632b-b89c-4c47-8e03-1ac2c74e4815","ios":"levelo://app?vid=4291632b-b89c-4c47-8e03-1ac2c74e4815"},"vehicle_type_id":"4","last_reported":1737317306,"current_range_meters":36800,"station_id":"ce4bhn12rcd13ifvqgpg","pricing_plan_id":"cebpf4jnsgd1na2vs0mg"},{"bike_id":"ee73fa00-f9a6-49b4-893a-68a7f4e3a906","system_id":"levelo_inurba_marseille","lat":43.24639,"lon":5.38273,"is_reserved":false,"is_disabled":false,"rental_uris":{"android":"levelo://app?vid=ee73fa00-f9a6-49b4-893a-68a7f4e3a906","ios":"levelo://app?vid=ee73fa00-f9a6-49b4-893a-68a7f4e3a906"},"vehicle_type_id":"4","last_reported":1737317306,"current_range_meters":19200,"station_id":"ce4bhih2rcd13ifvqfr0","pricing_plan_id":"cebpf4jnsgd1na2vs0mg"},{"bike_id":"92107073-e558-49e0-80fa-a695a1e7387b","system_id":"levelo_inurba_marseille","lat":43.23188,"lon":5.3997,"is_reserved":false,"is_disabled":false,"rental_uris":{"android":"levelo://app?vid=92107073-e558-49e0-80fa-a695a1e7387b","ios":"levelo://app?vid=92107073-e558-49e0-80fa-a695a1e7387b"},"vehicle_type_id":"4","last_reported":1737317306,"current_range_meters":25200,"station_id":"ce4bhn12rcd13ifvqgqg","pricing_plan_id":"cebpf4jnsgd1na2vs0mg"},{"bike_id":"2c2f029b-75ba-4beb-9e9a-38c9bd9c6b19","system_id":"levelo_inurba_marseille","lat":43.29614,"lon":5.3715,"is_reserved":false,"is_disabled":false,"rental_uris":{"android":"levelo://app?vid=2c2f029b-75ba-4beb-9e9a-38c9bd9c6b19","ios":"levelo://app?vid=2c2f029b-75ba-4beb-9e9a-38c9bd9c6b19"},"vehicle_type_id":"4","last_reported":1737317306,"current_range_meters":27600,"station_id":"ce4bgnh2rcd13ifvqc0g","pricing_plan_id":"cebpf4jnsgd1na2vs0mg"},{"bike_id":"fe4bdf99-cde8-468d-8e83-d8577bad1661","system_id":"levelo_inurba_marseille","lat":43.26924,"lon":5.40219,"is_reserved":false,"is_disabled":false,"rental_uris":{"android":"levelo://app?vid=fe4bdf99-cde8-468d-8e83-d8577bad1661","ios":"levelo://app?vid=fe4bdf99-cde8-468d-8e83-d8577bad1661"},"vehicle_type_id":"4","last_reported":1737317306,"current_range_meters":26000,"station_id":"cjm6bp8fraef2m0cb0m0","pricing_plan_id":"cebpf4jnsgd1na2vs0mg"},{"bike_id":"900ad26d-3b21-49f7-89ce-2c50eb20d154","system_id":"levelo_inurba_marseille","lat":43.28484,"lon":5.38427,"is_reserved":false,"is_disabled":false,"rental_uris":{"android":"levelo://app?vid=900ad26d-3b21-49f7-89ce-2c50eb20d154","ios":"levelo://app?vid=900ad26d-3b21-49f7-89ce-2c50eb20d154"},"vehicle_type_id":"4","last_reported":1737317306,"current_range_meters":38800,"station_id":"ce4bh512rcd13ifvqe3g","pricing_plan_id":"cebpf4jnsgd1na2vs0mg"},{"bike_id":"da0c1458-7a2f-497b-bc8a-70e13e9507b3","system_id":"levelo_inurba_marseille","lat":43.29875,"lon":5.38897,"is_reserved":false,"is_disabled":false,"rental_uris":{"android":"levelo://app?vid=da0c1458-7a2f-497b-bc8a-70e13e9507b3","ios":"levelo://app?vid=da0c1458-7a2f-497b-bc8a-70e13e9507b3"},"vehicle_type_id":"4","last_reported":1737317306,"current_range_meters":29600,"station_id":"ce4bh392rcd13ifvqdl0","pricing_plan_id":"cebpf4jnsgd1na2vs0mg"},{"bike_id":"1bbd5e91-0295-48c8-8466-4e5e3e9c6213","system_id":"levelo_inurba_marseille","lat":43.26559,"lon":5.37281,"is_reserved":false,"is_disabled":false,"rental_uris":{"android":"levelo://app?vid=1bbd5e91-0295-48c8-8466-4e5e3e9c6213","ios":"levelo://app?vid=1bbd5e91-0295-48c8-8466-4e5e3e9c6213"},"vehicle_type_id":"4","last_reported":1737317306,"current_range_meters":28000,"station_id":"ce4bhg12rcd13ifvqf70","pricing_plan_id":"cebpf4jnsgd1na2vs0mg"},{"bike_id":"25065037-d69f-4f23-91ba-174c33bae92a","system_id":"levelo_inurba_marseille","lat":43.26946,"lon":5.40241,"is_reserved":false,"is_disabled":false,"rental_uris":{"android":"levelo://app?vid=25065037-d69f-4f23-91ba-174c33bae92a","ios":"levelo://app?vid=25065037-d69f-4f23-91ba-174c33bae92a"},"vehicle_type_id":"4","last_reported":1737317306,"current_range_meters":17600,"station_id":"cjm6bp8fraef2m0cb0m0","pricing_plan_id":"cebpf4jnsgd1na2vs0mg"},{"bike_id":"80bcc3e7-77de-44a5-8965-f19acb6d7452","system_id":"levelo_inurba_marseille","lat":43.330228,"lon":5.390458,"is_reserved":false,"is_disabled":false,"rental_uris":{"android":"levelo://app?vid=80bcc3e7-77de-44a5-8965-f19acb6d7452","ios":"levelo://app?vid=80bcc3e7-77de-44a5-8965-f19acb6d7452"},"vehicle_type_id":"4","last_reported":1737317306,"current_range_meters":39200,"station_id":"ce4bhr92rcd13ifvqhrg","pricing_plan_id":"cebpf4jnsgd1na2vs0mg"},{"bike_id":"98f7ad2e-eebc-43f2-a8c5-e198deef074e","system_id":"levelo_inurba_marseille","lat":43.27064,"lon":5.40261,"is_reserved":false,"is_disabled":false,"rental_uris":{"android":"levelo://app?vid=98f7ad2e-eebc-43f2-a8c5-e198deef074e","ios":"levelo://app?vid=98f7ad2e-eebc-43f2-a8c5-e198deef074e"},"vehicle_type_id":"4","last_reported":1737317306,"current_range_meters":33200,"station_id":"ce4bhk92rcd13ifvqgc0","pricing_plan_id":"cebpf4jnsgd1na2vs0mg"},{"bike_id":"f4a4a406-b0a5-42fc-9236-32e93ac6f6b2","system_id":"levelo_inurba_marseille","lat":43.23146,"lon":5.43711,"is_reserved":false,"is_disabled":true,"rental_uris":{"android":"levelo://app?vid=f4a4a406-b0a5-42fc-9236-32e93ac6f6b2","ios":"levelo://app?vid=f4a4a406-b0a5-42fc-9236-32e93ac6f6b2"},"vehicle_type_id":"4","last_reported":1737317306,"current_range_meters":24800,"station_id":"ce4bhmp2rcd13ifvqgog","pricing_plan_id":"cebpf4jnsgd1na2vs0mg"},{"bike_id":"210ffe2d-27bf-471a-a897-ba0eb55d9e2b","system_id":"levelo_inurba_marseille","lat":43.27068,"lon":5.42264,"is_reserved":false,"is_disabled":false,"rental_uris":{"android":"levelo://app?vid=210ffe2d-27bf-471a-a897-ba0eb55d9e2b","ios":"levelo://app?vid=210ffe2d-27bf-471a-a897-ba0eb55d9e2b"},"vehicle_type_id":"4","last_reported":1737317306,"current_range_meters":33600,"station_id":"ce4bhk92rcd13ifvqgb0","pricing_plan_id":"cebpf4jnsgd1na2vs0mg"},{"bike_id":"bbfada75-579a-40ba-b7f2-b1f3b00c0c62","system_id":"levelo_inurba_marseille","lat":43.26937,"lon":5.40253,"is_reserved":false,"is_disabled":false,"rental_uris":{"android":"levelo://app?vid=bbfada75-579a-40ba-b7f2-b1f3b00c0c62","ios":"levelo://app?vid=bbfada75-579a-40ba-b7f2-b1f3b00c0c62"},"vehicle_type_id":"4","last_reported":1737317306,"current_range_meters":21600,"station_id":"cjm6bp8fraef2m0cb0m0","pricing_plan_id":"cebpf4jnsgd1na2vs0mg"},{"bike_id":"f97eea84-0fbf-410b-b370-8ddf72f07fc1","system_id":"levelo_inurba_marseille","lat":43.29566,"lon":5.39975,"is_reserved":false,"is_disabled":false,"rental_uris":{"android":"levelo://app?vid=f97eea84-0fbf-410b-b370-8ddf72f07fc1","ios":"levelo://app?vid=f97eea84-0fbf-410b-b370-8ddf72f07fc1"},"vehicle_type_id":"4","last_reported":1737317306,"current_range_meters":38800,"station_id":"ce4bh312rcd13ifvqdj0","pricing_plan_id":"cebpf4jnsgd1na2vs0mg"},{"bike_id":"e16bfad3-6e5c-42b6-90cd-e77c51d0ba6a","system_id":"levelo_inurba_marseille","lat":43.299089,"lon":5.381341,"is_reserved":false,"is_disabled":true,"rental_uris":{"android":"levelo://app?vid=e16bfad3-6e5c-42b6-90cd-e77c51d0ba6a","ios":"levelo://app?vid=e16bfad3-6e5c-42b6-90cd-e77c51d0ba6a"},"vehicle_type_id":"4","last_reported":1737317306,"current_range_meters":17600,"station_id":"ce4bgj12rcd13ifvqbc0","pricing_plan_id":"cebpf4jnsgd1na2vs0mg"},{"bike_id":"ed68907f-255c-459d-8b28-ef9a664d0ec1","system_id":"levelo_inurba_marseille","lat":43.27935,"lon":5.41038,"is_reserved":false,"is_disabled":false,"rental_uris":{"android":"levelo://app?vid=ed68907f-255c-459d-8b28-ef9a664d0ec1","ios":"levelo://app?vid=ed68907f-255c-459d-8b28-ef9a664d0ec1"},"vehicle_type_id":"4","last_reported":1737317306,"current_range_meters":35600,"station_id":"ce4bhnp2rcd13ifvqh0g","pricing_plan_id":"cebpf4jnsgd1na2vs0mg"},{"bike_id":"dcd222ef-bb9b-415a-819d-b50eb1e422d0","system_id":"levelo_inurba_marseille","lat":43.315,"lon":5.37275,"is_reserved":false,"is_disabled":false,"rental_uris":{"android":"levelo://app?vid=dcd222ef-bb9b-415a-819d-b50eb1e422d0","ios":"levelo://app?vid=dcd222ef-bb9b-415a-819d-b50eb1e422d0"},"vehicle_type_id":"4","last_reported":1737317306,"current_range_meters":8800,"station_id":"ce4bgt12rcd13ifvqcd0","pricing_plan_id":"cebpf4jnsgd1na2vs0mg"},{"bike_id":"d90088bf-08e4-481f-8a3a-207373e035b4","system_id":"levelo_inurba_marseille","lat":43.31171,"lon":5.38709,"is_reserved":false,"is_disabled":false,"rental_uris":{"android":"levelo://app?vid=d90088bf-08e4-481f-8a3a-207373e035b4","ios":"levelo://app?vid=d90088bf-08e4-481f-8a3a-207373e035b4"},"vehicle_type_id":"4","last_reported":1737317306,"current_range_meters":37600,"station_id":"ce4bgv12rcd13ifvqcp0","pricing_plan_id":"cebpf4jnsgd1na2vs0mg"},{"bike_id":"50343fe7-b049-4115-b6cd-1d192f0464f8","system_id":"levelo_inurba_marseille","lat":43.25819,"lon":5.39423,"is_reserved":false,"is_disabled":false,"rental_uris":{"android":"levelo://app?vid=50343fe7-b049-4115-b6cd-1d192f0464f8","ios":"levelo://app?vid=50343fe7-b049-4115-b6cd-1d192f0464f8"},"vehicle_type_id":"4","last_reported":1737317306,"current_range_meters":40000,"station_id":"ce4bhip2rcd13ifvqft0","pricing_plan_id":"cebpf4jnsgd1na2vs0mg"},{"bike_id":"2f6c14fb-24c9-4c94-9678-efc4058573ff","system_id":"levelo_inurba_marseille","lat":43.30654,"lon":5.40066,"is_reserved":false,"is_disabled":false,"rental_uris":{"android":"levelo://app?vid=2f6c14fb-24c9-4c94-9678-efc4058573ff","ios":"levelo://app?vid=2f6c14fb-24c9-4c94-9678-efc4058573ff"},"vehicle_type_id":"4","last_reported":1737317306,"current_range_meters":25600,"station_id":"ce4bh112rcd13ifvqda0","pricing_plan_id":"cebpf4jnsgd1na2vs0mg"},{"bike_id":"b79eab69-1d0c-4f14-bd63-8d0285eb77de","system_id":"levelo_inurba_marseille","lat":43.27063,"lon":5.40258,"is_reserved":false,"is_disabled":false,"rental_uris":{"android":"levelo://app?vid=b79eab69-1d0c-4f14-bd63-8d0285eb77de","ios":"levelo://app?vid=b79eab69-1d0c-4f14-bd63-8d0285eb77de"},"vehicle_type_id":"4","last_reported":1737317306,"current_range_meters":24400,"station_id":"ce4bhk92rcd13ifvqgc0","pricing_plan_id":"cebpf4jnsgd1na2vs0mg"},{"bike_id":"1af54bb7-ffde-4a2f-8069-2c68f510e08d","system_id":"levelo_inurba_marseille","lat":43.26934,"lon":5.38915,"is_reserved":false,"is_disabled":false,"rental_uris":{"android":"levelo://app?vid=1af54bb7-ffde-4a2f-8069-2c68f510e08d","ios":"levelo://app?vid=1af54bb7-ffde-4a2f-8069-2c68f510e08d"},"vehicle_type_id":"4","last_reported":1737317306,"current_range_meters":2800,"station_id":"ce4bhhh2rcd13ifvqfl0","pricing_plan_id":"cebpf4jnsgd1na2vs0mg"},{"bike_id":"234d1550-b7dd-465b-9578-32049a642f2b","system_id":"levelo_inurba_marseille","lat":43.2996,"lon":5.4132,"is_reserved":false,"is_disabled":false,"rental_uris":{"android":"levelo://app?vid=234d1550-b7dd-465b-9578-32049a642f2b","ios":"levelo://app?vid=234d1550-b7dd-465b-9578-32049a642f2b"},"vehicle_type_id":"4","last_reported":1737317306,"current_range_meters":34000,"station_id":"ce4bhp12rcd13ifvqh9g","pricing_plan_id":"cebpf4jnsgd1na2vs0mg"},{"bike_id":"430ea2fa-1790-4b7f-919a-4c252284ff0d","system_id":"levelo_inurba_marseille","lat":43.29273,"lon":5.3844,"is_reserved":false,"is_disabled":false,"rental_uris":{"android":"levelo://app?vid=430ea2fa-1790-4b7f-919a-4c252284ff0d","ios":"levelo://app?vid=430ea2fa-1790-4b7f-919a-4c252284ff0d"},"vehicle_type_id":"4","last_reported":1737317306,"current_range_meters":37600,"station_id":"ce4bh692rcd13ifvqea0","pricing_plan_id":"cebpf4jnsgd1na2vs0mg"},{"bike_id":"427adfa9-113c-4817-9db8-65205ccf4edf","system_id":"levelo_inurba_marseille","lat":43.31736,"lon":5.4044,"is_reserved":false,"is_disabled":false,"rental_uris":{"android":"levelo://app?vid=427adfa9-113c-4817-9db8-65205ccf4edf","ios":"levelo://app?vid=427adfa9-113c-4817-9db8-65205ccf4edf"},"vehicle_type_id":"4","last_reported":1737317306,"current_range_meters":38000,"station_id":"ce4bh012rcd13ifvqd00","pricing_plan_id":"cebpf4jnsgd1na2vs0mg"},{"bike_id":"3c1d0c31-c15e-4f85-abdb-f906b8c5ff11","system_id":"levelo_inurba_marseille","lat":43.26946,"lon":5.38637,"is_reserved":false,"is_disabled":false,"rental_uris":{"android":"levelo://app?vid=3c1d0c31-c15e-4f85-abdb-f906b8c5ff11","ios":"levelo://app?vid=3c1d0c31-c15e-4f85-abdb-f906b8c5ff11"},"vehicle_type_id":"4","last_reported":1737317306,"current_range_meters":12800,"station_id":"ce4bhh92rcd13ifvqfh0","pricing_plan_id":"cebpf4jnsgd1na2vs0mg"},{"bike_id":"3ac33cda-7ec1-4d7b-904c-5cacae44cb9d","system_id":"levelo_inurba_marseille","lat":43.287547,"lon":5.388939,"is_reserved":false,"is_disabled":false,"rental_uris":{"android":"levelo://app?vid=3ac33cda-7ec1-4d7b-904c-5cacae44cb9d","ios":"levelo://app?vid=3ac33cda-7ec1-4d7b-904c-5cacae44cb9d"},"vehicle_type_id":"4","last_reported":1737317306,"current_range_meters":21600,"station_id":"ce4bh492rcd13ifvqdug","pricing_plan_id":"cebpf4jnsgd1na2vs0mg"},{"bike_id":"da504497-6fcd-4cba-a3f1-3310d661e5fe","system_id":"levelo_inurba_marseille","lat":43.27306,"lon":5.39082,"is_reserved":false,"is_disabled":false,"rental_uris":{"android":"levelo://app?vid=da504497-6fcd-4cba-a3f1-3310d661e5fe","ios":"levelo://app?vid=da504497-6fcd-4cba-a3f1-3310d661e5fe"},"vehicle_type_id":"4","last_reported":1737317306,"current_range_meters":10800,"station_id":"ce4bhgp2rcd13ifvqfe0","pricing_plan_id":"cebpf4jnsgd1na2vs0mg"},{"bike_id":"a2e709f9-6f94-4c83-b323-d7d411dcacbe","system_id":"levelo_inurba_marseille","lat":43.26786,"lon":5.39412,"is_reserved":false,"is_disabled":false,"rental_uris":{"android":"levelo://app?vid=a2e709f9-6f94-4c83-b323-d7d411dcacbe","ios":"levelo://app?vid=a2e709f9-6f94-4c83-b323-d7d411dcacbe"},"vehicle_type_id":"4","last_reported":1737317306,"current_range_meters":38800,"station_id":"ce4bhh12rcd13ifvqfg0","pricing_plan_id":"cebpf4jnsgd1na2vs0mg"},{"bike_id":"56b8e9bc-f750-4815-bc98-9098414d16db","system_id":"levelo_inurba_marseille","lat":43.23199,"lon":5.35546,"is_reserved":false,"is_disabled":true,"rental_uris":{"android":"levelo://app?vid=56b8e9bc-f750-4815-bc98-9098414d16db","ios":"levelo://app?vid=56b8e9bc-f750-4815-bc98-9098414d16db"},"vehicle_type_id":"4","last_reported":1737317306,"current_range_meters":0,"station_id":"ce4bhu92rcd13ifvqi70","pricing_plan_id":"cebpf4jnsgd1na2vs0mg"},{"bike_id":"0e91b70c-1e42-4d65-a90a-72cbd40954b0","system_id":"levelo_inurba_marseille","lat":43.32365,"lon":5.36769,"is_reserved":false,"is_disabled":false,"rental_uris":{"android":"levelo://app?vid=0e91b70c-1e42-4d65-a90a-72cbd40954b0","ios":"levelo://app?vid=0e91b70c-1e42-4d65-a90a-72cbd40954b0"},"vehicle_type_id":"4","last_reported":1737317306,"current_range_meters":6800,"station_id":"ce4bhsh2rcd13ifvqi2g","pricing_plan_id":"cebpf4jnsgd1na2vs0mg"},{"bike_id":"d88aecff-5460-424b-bf44-6d5f127ca2ac","system_id":"levelo_inurba_marseille","lat":43.2694,"lon":5.40255,"is_reserved":false,"is_disabled":false,"rental_uris":{"android":"levelo://app?vid=d88aecff-5460-424b-bf44-6d5f127ca2ac","ios":"levelo://app?vid=d88aecff-5460-424b-bf44-6d5f127ca2ac"},"vehicle_type_id":"4","last_reported":1737317306,"current_range_meters":7200,"station_id":"cjm6bp8fraef2m0cb0m0","pricing_plan_id":"cebpf4jnsgd1na2vs0mg"},{"bike_id":"fcff8b6e-6484-4e4c-8d98-9ab325ed2e27","system_id":"levelo_inurba_marseille","lat":43.32466,"lon":5.36553,"is_reserved":false,"is_disabled":false,"rental_uris":{"android":"levelo://app?vid=fcff8b6e-6484-4e4c-8d98-9ab325ed2e27","ios":"levelo://app?vid=fcff8b6e-6484-4e4c-8d98-9ab325ed2e27"},"vehicle_type_id":"4","last_reported":1737317306,"current_range_meters":38000,"station_id":"ce4bhs12rcd13ifvqhvg","pricing_plan_id":"cebpf4jnsgd1na2vs0mg"},{"bike_id":"7f6908f7-cfcb-4080-a4c3-d5b221bf885b","system_id":"levelo_inurba_marseille","lat":43.3204,"lon":5.41565,"is_reserved":false,"is_disabled":true,"rental_uris":{"android":"levelo://app?vid=7f6908f7-cfcb-4080-a4c3-d5b221bf885b","ios":"levelo://app?vid=7f6908f7-cfcb-4080-a4c3-d5b221bf885b"},"vehicle_type_id":"4","last_reported":1737317306,"current_range_meters":800,"station_id":"ce4bhq92rcd13ifvqhkg","pricing_plan_id":"cebpf4jnsgd1na2vs0mg"},{"bike_id":"b7d7ca1a-41a3-48c4-b0ac-c73d423d3450","system_id":"levelo_inurba_marseille","lat":43.26786,"lon":5.3941,"is_reserved":false,"is_disabled":false,"rental_uris":{"android":"levelo://app?vid=b7d7ca1a-41a3-48c4-b0ac-c73d423d3450","ios":"levelo://app?vid=b7d7ca1a-41a3-48c4-b0ac-c73d423d3450"},"vehicle_type_id":"4","last_reported":1737317306,"current_range_meters":30000,"station_id":"ce4bhh12rcd13ifvqfg0","pricing_plan_id":"cebpf4jnsgd1na2vs0mg"},{"bike_id":"bdba7b53-e862-45bf-8c9e-57e9f9bc90fe","system_id":"levelo_inurba_marseille","lat":43.29558,"lon":5.39964,"is_reserved":false,"is_disabled":false,"rental_uris":{"android":"levelo://app?vid=bdba7b53-e862-45bf-8c9e-57e9f9bc90fe","ios":"levelo://app?vid=bdba7b53-e862-45bf-8c9e-57e9f9bc90fe"},"vehicle_type_id":"4","last_reported":1737317306,"current_range_meters":32000,"station_id":"ce4bh312rcd13ifvqdj0","pricing_plan_id":"cebpf4jnsgd1na2vs0mg"},{"bike_id":"8ff75af4-f7c6-4467-9183-ca155a200aa2","system_id":"levelo_inurba_marseille","lat":43.26941,"lon":5.4024,"is_reserved":false,"is_disabled":false,"rental_uris":{"android":"levelo://app?vid=8ff75af4-f7c6-4467-9183-ca155a200aa2","ios":"levelo://app?vid=8ff75af4-f7c6-4467-9183-ca155a200aa2"},"vehicle_type_id":"4","last_reported":1737317306,"current_range_meters":16800,"station_id":"cjm6bp8fraef2m0cb0m0","pricing_plan_id":"cebpf4jnsgd1na2vs0mg"},{"bike_id":"b1a75506-186b-4c9c-a730-b2eb76aae481","system_id":"levelo_inurba_marseille","lat":43.27582,"lon":5.38409,"is_reserved":false,"is_disabled":false,"rental_uris":{"android":"levelo://app?vid=b1a75506-186b-4c9c-a730-b2eb76aae481","ios":"levelo://app?vid=b1a75506-186b-4c9c-a730-b2eb76aae481"},"vehicle_type_id":"4","last_reported":1737317306,"current_range_meters":38800,"station_id":"ce4bhh92rcd13ifvqfi0","pricing_plan_id":"cebpf4jnsgd1na2vs0mg"},{"bike_id":"0966a8a8-2d5b-449d-8d62-52bfeeb2bcde","system_id":"levelo_inurba_marseille","lat":43.29705,"lon":5.37695,"is_reserved":false,"is_disabled":true,"rental_uris":{"android":"levelo://app?vid=0966a8a8-2d5b-449d-8d62-52bfeeb2bcde","ios":"levelo://app?vid=0966a8a8-2d5b-449d-8d62-52bfeeb2bcde"},"vehicle_type_id":"4","last_reported":1737317306,"current_range_meters":36800,"station_id":"ce4bgkh2rcd13ifvqbl0","pricing_plan_id":"cebpf4jnsgd1na2vs0mg"},{"bike_id":"22465212-93af-4e0b-b803-6ee82bba56d5","system_id":"levelo_inurba_marseille","lat":43.33759,"lon":5.3748,"is_reserved":false,"is_disabled":false,"rental_uris":{"android":"levelo://app?vid=22465212-93af-4e0b-b803-6ee82bba56d5","ios":"levelo://app?vid=22465212-93af-4e0b-b803-6ee82bba56d5"},"vehicle_type_id":"4","last_reported":1737317306,"current_range_meters":27200,"station_id":"","pricing_plan_id":"cebpf4jnsgd1na2vs0mg"},{"bike_id":"d6d1604c-c524-40c9-b4a5-227697805b64","system_id":"levelo_inurba_marseille","lat":43.29892,"lon":5.39743,"is_reserved":false,"is_disabled":true,"rental_uris":{"android":"levelo://app?vid=d6d1604c-c524-40c9-b4a5-227697805b64","ios":"levelo://app?vid=d6d1604c-c524-40c9-b4a5-227697805b64"},"vehicle_type_id":"4","last_reported":1737317306,"current_range_meters":1200,"station_id":"ce4bh0h2rcd13ifvqd50","pricing_plan_id":"cebpf4jnsgd1na2vs0mg"},{"bike_id":"6bb12ec0-c676-46d7-aa6b-2eb7783240a8","system_id":"levelo_inurba_marseille","lat":43.264935,"lon":5.395415,"is_reserved":false,"is_disabled":false,"rental_uris":{"android":"levelo://app?vid=6bb12ec0-c676-46d7-aa6b-2eb7783240a8","ios":"levelo://app?vid=6bb12ec0-c676-46d7-aa6b-2eb7783240a8"},"vehicle_type_id":"4","last_reported":1737317306,"current_range_meters":30800,"station_id":"ce4bhi12rcd13ifvqfq0","pricing_plan_id":"cebpf4jnsgd1na2vs0mg"},{"bike_id":"7d85b197-7deb-46e3-bee1-f80d396be1d5","system_id":"levelo_inurba_marseille","lat":43.27273,"lon":5.39094,"is_reserved":false,"is_disabled":false,"rental_uris":{"android":"levelo://app?vid=7d85b197-7deb-46e3-bee1-f80d396be1d5","ios":"levelo://app?vid=7d85b197-7deb-46e3-bee1-f80d396be1d5"},"vehicle_type_id":"4","last_reported":1737317306,"current_range_meters":24400,"station_id":"ce4bhgp2rcd13ifvqfe0","pricing_plan_id":"cebpf4jnsgd1na2vs0mg"},{"bike_id":"19fb1931-f075-402c-a076-088e72accb76","system_id":"levelo_inurba_marseille","lat":43.24818,"lon":5.37452,"is_reserved":false,"is_disabled":false,"rental_uris":{"android":"levelo://app?vid=19fb1931-f075-402c-a076-088e72accb76","ios":"levelo://app?vid=19fb1931-f075-402c-a076-088e72accb76"},"vehicle_type_id":"4","last_reported":1737317306,"current_range_meters":9600,"station_id":"ce4bhgh2rcd13ifvqfb0","pricing_plan_id":"cebpf4jnsgd1na2vs0mg"},{"bike_id":"5e2ed0b4-6212-477c-91dc-b88670debb7b","system_id":"levelo_inurba_marseille","lat":43.31758,"lon":5.39011,"is_reserved":false,"is_disabled":false,"rental_uris":{"android":"levelo://app?vid=5e2ed0b4-6212-477c-91dc-b88670debb7b","ios":"levelo://app?vid=5e2ed0b4-6212-477c-91dc-b88670debb7b"},"vehicle_type_id":"4","last_reported":1737317306,"current_range_meters":38800,"station_id":"ce4bhqp2rcd13ifvqhng","pricing_plan_id":"cebpf4jnsgd1na2vs0mg"},{"bike_id":"f50183e4-71ca-412a-b3a0-01a0e393ecef","system_id":"levelo_inurba_marseille","lat":43.28148,"lon":5.4264,"is_reserved":false,"is_disabled":false,"rental_uris":{"android":"levelo://app?vid=f50183e4-71ca-412a-b3a0-01a0e393ecef","ios":"levelo://app?vid=f50183e4-71ca-412a-b3a0-01a0e393ecef"},"vehicle_type_id":"4","last_reported":1737317306,"current_range_meters":28000,"station_id":"ce4bhnh2rcd13ifvqgug","pricing_plan_id":"cebpf4jnsgd1na2vs0mg"},{"bike_id":"2fc60436-4dd2-48e4-8928-717cbebc109f","system_id":"levelo_inurba_marseille","lat":43.28704,"lon":5.37398,"is_reserved":false,"is_disabled":false,"rental_uris":{"android":"levelo://app?vid=2fc60436-4dd2-48e4-8928-717cbebc109f","ios":"levelo://app?vid=2fc60436-4dd2-48e4-8928-717cbebc109f"},"vehicle_type_id":"4","last_reported":1737317306,"current_range_meters":36400,"station_id":"ce4bh3p2rcd13ifvqdq0","pricing_plan_id":"cebpf4jnsgd1na2vs0mg"},{"bike_id":"16a7176a-24c9-4d21-8155-eb4f5f1f837c","system_id":"levelo_inurba_marseille","lat":43.24664,"lon":5.38137,"is_reserved":false,"is_disabled":false,"rental_uris":{"android":"levelo://app?vid=16a7176a-24c9-4d21-8155-eb4f5f1f837c","ios":"levelo://app?vid=16a7176a-24c9-4d21-8155-eb4f5f1f837c"},"vehicle_type_id":"4","last_reported":1737317306,"current_range_meters":37600,"station_id":"ce4bhih2rcd13ifvqfr0","pricing_plan_id":"cebpf4jnsgd1na2vs0mg"},{"bike_id":"598f7c2a-7e85-4067-90c6-b3bc2d305999","system_id":"levelo_inurba_marseille","lat":43.30209,"lon":5.39461,"is_reserved":false,"is_disabled":false,"rental_uris":{"android":"levelo://app?vid=598f7c2a-7e85-4067-90c6-b3bc2d305999","ios":"levelo://app?vid=598f7c2a-7e85-4067-90c6-b3bc2d305999"},"vehicle_type_id":"4","last_reported":1737317306,"current_range_meters":16000,"station_id":"ce4bh0p2rcd13ifvqd70","pricing_plan_id":"cebpf4jnsgd1na2vs0mg"},{"bike_id":"d447af06-3ffa-488a-80bd-7f56da277dbb","system_id":"levelo_inurba_marseille","lat":43.27829,"lon":5.39211,"is_reserved":false,"is_disabled":false,"rental_uris":{"android":"levelo://app?vid=d447af06-3ffa-488a-80bd-7f56da277dbb","ios":"levelo://app?vid=d447af06-3ffa-488a-80bd-7f56da277dbb"},"vehicle_type_id":"4","last_reported":1737317306,"current_range_meters":12800,"station_id":"ce4bhjp2rcd13ifvqga0","pricing_plan_id":"cebpf4jnsgd1na2vs0mg"},{"bike_id":"b6266ca1-f670-469e-913b-183d4fe31096","system_id":"levelo_inurba_marseille","lat":43.23187,"lon":5.39978,"is_reserved":false,"is_disabled":false,"rental_uris":{"android":"levelo://app?vid=b6266ca1-f670-469e-913b-183d4fe31096","ios":"levelo://app?vid=b6266ca1-f670-469e-913b-183d4fe31096"},"vehicle_type_id":"4","last_reported":1737317306,"current_range_meters":22000,"station_id":"ce4bhn12rcd13ifvqgqg","pricing_plan_id":"cebpf4jnsgd1na2vs0mg"},{"bike_id":"45b46742-a62d-4855-9ae3-d6f0621cbfdc","system_id":"levelo_inurba_marseille","lat":43.258307,"lon":5.394437,"is_reserved":false,"is_disabled":true,"rental_uris":{"android":"levelo://app?vid=45b46742-a62d-4855-9ae3-d6f0621cbfdc","ios":"levelo://app?vid=45b46742-a62d-4855-9ae3-d6f0621cbfdc"},"vehicle_type_id":"4","last_reported":1737317306,"current_range_meters":38800,"station_id":"ce4bhip2rcd13ifvqft0","pricing_plan_id":"cebpf4jnsgd1na2vs0mg"},{"bike_id":"2736f76f-af44-46be-98c6-fb90b4c6df43","system_id":"levelo_inurba_marseille","lat":43.31731,"lon":5.40409,"is_reserved":false,"is_disabled":false,"rental_uris":{"android":"levelo://app?vid=2736f76f-af44-46be-98c6-fb90b4c6df43","ios":"levelo://app?vid=2736f76f-af44-46be-98c6-fb90b4c6df43"},"vehicle_type_id":"4","last_reported":1737317306,"current_range_meters":22000,"station_id":"ce4bh012rcd13ifvqd00","pricing_plan_id":"cebpf4jnsgd1na2vs0mg"},{"bike_id":"12d313aa-68bf-4753-a0fb-a5e8c7c367a2","system_id":"levelo_inurba_marseille","lat":43.3148,"lon":5.37312,"is_reserved":false,"is_disabled":false,"rental_uris":{"android":"levelo://app?vid=12d313aa-68bf-4753-a0fb-a5e8c7c367a2","ios":"levelo://app?vid=12d313aa-68bf-4753-a0fb-a5e8c7c367a2"},"vehicle_type_id":"4","last_reported":1737317306,"current_range_meters":32800,"station_id":"ce4bgt12rcd13ifvqcd0","pricing_plan_id":"cebpf4jnsgd1na2vs0mg"},{"bike_id":"69bfca03-9ee6-49c7-b9a2-27fcb6fcb79c","system_id":"levelo_inurba_marseille","lat":43.29253,"lon":5.40899,"is_reserved":false,"is_disabled":false,"rental_uris":{"android":"levelo://app?vid=69bfca03-9ee6-49c7-b9a2-27fcb6fcb79c","ios":"levelo://app?vid=69bfca03-9ee6-49c7-b9a2-27fcb6fcb79c"},"vehicle_type_id":"4","last_reported":1737317306,"current_range_meters":38800,"station_id":"ce4bh192rcd13ifvqdc0","pricing_plan_id":"cebpf4jnsgd1na2vs0mg"},{"bike_id":"b77ee7fc-390e-4ed8-b49e-bed2fd99e5b5","system_id":"levelo_inurba_marseille","lat":43.2657,"lon":5.39009,"is_reserved":false,"is_disabled":false,"rental_uris":{"android":"levelo://app?vid=b77ee7fc-390e-4ed8-b49e-bed2fd99e5b5","ios":"levelo://app?vid=b77ee7fc-390e-4ed8-b49e-bed2fd99e5b5"},"vehicle_type_id":"4","last_reported":1737317306,"current_range_meters":32000,"station_id":"ce4bhe12rcd13ifvqf30","pricing_plan_id":"cebpf4jnsgd1na2vs0mg"},{"bike_id":"925105ed-8763-4209-98ea-825a708568fc","system_id":"levelo_inurba_marseille","lat":43.2963,"lon":5.40594,"is_reserved":false,"is_disabled":false,"rental_uris":{"android":"levelo://app?vid=925105ed-8763-4209-98ea-825a708568fc","ios":"levelo://app?vid=925105ed-8763-4209-98ea-825a708568fc"},"vehicle_type_id":"4","last_reported":1737317306,"current_range_meters":35600,"station_id":"ce4bh0h2rcd13ifvqd60","pricing_plan_id":"cebpf4jnsgd1na2vs0mg"},{"bike_id":"92fa69bb-8d79-4a4e-8892-87ec90c4fac1","system_id":"levelo_inurba_marseille","lat":43.3152,"lon":5.38914,"is_reserved":false,"is_disabled":false,"rental_uris":{"android":"levelo://app?vid=92fa69bb-8d79-4a4e-8892-87ec90c4fac1","ios":"levelo://app?vid=92fa69bb-8d79-4a4e-8892-87ec90c4fac1"},"vehicle_type_id":"4","last_reported":1737317306,"current_range_meters":21600,"station_id":"","pricing_plan_id":"cebpf4jnsgd1na2vs0mg"},{"bike_id":"1a02b04d-f2a4-448a-9bbb-8a76d155fc6c","system_id":"levelo_inurba_marseille","lat":43.30223,"lon":5.39463,"is_reserved":false,"is_disabled":false,"rental_uris":{"android":"levelo://app?vid=1a02b04d-f2a4-448a-9bbb-8a76d155fc6c","ios":"levelo://app?vid=1a02b04d-f2a4-448a-9bbb-8a76d155fc6c"},"vehicle_type_id":"4","last_reported":1737317306,"current_range_meters":38800,"station_id":"ce4bh0p2rcd13ifvqd70","pricing_plan_id":"cebpf4jnsgd1na2vs0mg"},{"bike_id":"3d90394d-7b81-41a4-8382-38f88f2449b5","system_id":"levelo_inurba_marseille","lat":43.26805,"lon":5.40265,"is_reserved":false,"is_disabled":false,"rental_uris":{"android":"levelo://app?vid=3d90394d-7b81-41a4-8382-38f88f2449b5","ios":"levelo://app?vid=3d90394d-7b81-41a4-8382-38f88f2449b5"},"vehicle_type_id":"4","last_reported":1737317306,"current_range_meters":38800,"station_id":"ce501612rcd8frsf0b60","pricing_plan_id":"cebpf4jnsgd1na2vs0mg"},{"bike_id":"f2390374-e060-4fe1-bcfa-cb2711193e58","system_id":"levelo_inurba_marseille","lat":43.25088,"lon":5.39508,"is_reserved":false,"is_disabled":false,"rental_uris":{"android":"levelo://app?vid=f2390374-e060-4fe1-bcfa-cb2711193e58","ios":"levelo://app?vid=f2390374-e060-4fe1-bcfa-cb2711193e58"},"vehicle_type_id":"4","last_reported":1737317306,"current_range_meters":37600,"station_id":"ce4bhm12rcd13ifvqgkg","pricing_plan_id":"cebpf4jnsgd1na2vs0mg"},{"bike_id":"dd22f8e6-4180-4257-8c33-cab9dc2658f8","system_id":"levelo_inurba_marseille","lat":43.27316,"lon":5.39106,"is_reserved":false,"is_disabled":false,"rental_uris":{"android":"levelo://app?vid=dd22f8e6-4180-4257-8c33-cab9dc2658f8","ios":"levelo://app?vid=dd22f8e6-4180-4257-8c33-cab9dc2658f8"},"vehicle_type_id":"4","last_reported":1737317306,"current_range_meters":37600,"station_id":"ce4bhgp2rcd13ifvqfe0","pricing_plan_id":"cebpf4jnsgd1na2vs0mg"},{"bike_id":"591b3bd2-5685-4ec2-843e-e45d69c9aabd","system_id":"levelo_inurba_marseille","lat":43.26065,"lon":5.39428,"is_reserved":false,"is_disabled":false,"rental_uris":{"android":"levelo://app?vid=591b3bd2-5685-4ec2-843e-e45d69c9aabd","ios":"levelo://app?vid=591b3bd2-5685-4ec2-843e-e45d69c9aabd"},"vehicle_type_id":"4","last_reported":1737317306,"current_range_meters":38800,"station_id":"ce4bhh92rcd13ifvqfj0","pricing_plan_id":"cebpf4jnsgd1na2vs0mg"},{"bike_id":"1aa8eecf-96db-4dff-a694-3573ca799e03","system_id":"levelo_inurba_marseille","lat":43.2836,"lon":5.38119,"is_reserved":false,"is_disabled":false,"rental_uris":{"android":"levelo://app?vid=1aa8eecf-96db-4dff-a694-3573ca799e03","ios":"levelo://app?vid=1aa8eecf-96db-4dff-a694-3573ca799e03"},"vehicle_type_id":"4","last_reported":1737317306,"current_range_meters":27200,"station_id":"ce4bh412rcd13ifvqdr0","pricing_plan_id":"cebpf4jnsgd1na2vs0mg"},{"bike_id":"948a0d36-7930-4c83-89da-81f27ad60806","system_id":"levelo_inurba_marseille","lat":43.288555,"lon":5.39335,"is_reserved":false,"is_disabled":true,"rental_uris":{"android":"levelo://app?vid=948a0d36-7930-4c83-89da-81f27ad60806","ios":"levelo://app?vid=948a0d36-7930-4c83-89da-81f27ad60806"},"vehicle_type_id":"4","last_reported":1737317306,"current_range_meters":6400,"station_id":"ce4bh2p2rcd13ifvqdi0","pricing_plan_id":"cebpf4jnsgd1na2vs0mg"},{"bike_id":"f64999f5-996d-4197-afe6-61b2936cb9bb","system_id":"levelo_inurba_marseille","lat":43.28702,"lon":5.37388,"is_reserved":false,"is_disabled":false,"rental_uris":{"android":"levelo://app?vid=f64999f5-996d-4197-afe6-61b2936cb9bb","ios":"levelo://app?vid=f64999f5-996d-4197-afe6-61b2936cb9bb"},"vehicle_type_id":"4","last_reported":1737317306,"current_range_meters":38800,"station_id":"ce4bh3p2rcd13ifvqdq0","pricing_plan_id":"cebpf4jnsgd1na2vs0mg"},{"bike_id":"d4cd17d3-bbab-47d1-8a9c-569245fe1f38","system_id":"levelo_inurba_marseille","lat":43.299212,"lon":5.381608,"is_reserved":false,"is_disabled":false,"rental_uris":{"android":"levelo://app?vid=d4cd17d3-bbab-47d1-8a9c-569245fe1f38","ios":"levelo://app?vid=d4cd17d3-bbab-47d1-8a9c-569245fe1f38"},"vehicle_type_id":"4","last_reported":1737317306,"current_range_meters":30000,"station_id":"ce4bgj12rcd13ifvqbc0","pricing_plan_id":"cebpf4jnsgd1na2vs0mg"},{"bike_id":"0aa4a416-5ca3-4c2e-b222-394c6f697f31","system_id":"levelo_inurba_marseille","lat":43.31361,"lon":5.36695,"is_reserved":false,"is_disabled":false,"rental_uris":{"android":"levelo://app?vid=0aa4a416-5ca3-4c2e-b222-394c6f697f31","ios":"levelo://app?vid=0aa4a416-5ca3-4c2e-b222-394c6f697f31"},"vehicle_type_id":"4","last_reported":1737317306,"current_range_meters":38800,"station_id":"ce4bgr92rcd13ifvqc6g","pricing_plan_id":"cebpf4jnsgd1na2vs0mg"},{"bike_id":"b1792166-9059-45be-98a8-3792f24b3a0b","system_id":"levelo_inurba_marseille","lat":43.29271,"lon":5.38446,"is_reserved":false,"is_disabled":false,"rental_uris":{"android":"levelo://app?vid=b1792166-9059-45be-98a8-3792f24b3a0b","ios":"levelo://app?vid=b1792166-9059-45be-98a8-3792f24b3a0b"},"vehicle_type_id":"4","last_reported":1737317306,"current_range_meters":38800,"station_id":"ce4bh692rcd13ifvqea0","pricing_plan_id":"cebpf4jnsgd1na2vs0mg"},{"bike_id":"7ae9e016-bc58-43a5-8600-247c50eaad8b","system_id":"levelo_inurba_marseille","lat":43.26928,"lon":5.38641,"is_reserved":false,"is_disabled":false,"rental_uris":{"android":"levelo://app?vid=7ae9e016-bc58-43a5-8600-247c50eaad8b","ios":"levelo://app?vid=7ae9e016-bc58-43a5-8600-247c50eaad8b"},"vehicle_type_id":"4","last_reported":1737317306,"current_range_meters":28400,"station_id":"ce4bhh92rcd13ifvqfh0","pricing_plan_id":"cebpf4jnsgd1na2vs0mg"},{"bike_id":"5e41664c-4f46-4389-ba96-5ad7c0974d23","system_id":"levelo_inurba_marseille","lat":43.28463,"lon":5.38432,"is_reserved":false,"is_disabled":true,"rental_uris":{"android":"levelo://app?vid=5e41664c-4f46-4389-ba96-5ad7c0974d23","ios":"levelo://app?vid=5e41664c-4f46-4389-ba96-5ad7c0974d23"},"vehicle_type_id":"4","last_reported":1737317306,"current_range_meters":400,"station_id":"ce4bh512rcd13ifvqe3g","pricing_plan_id":"cebpf4jnsgd1na2vs0mg"},{"bike_id":"a95248e8-7ba2-479e-9b5c-9fb4d8e98c2b","system_id":"levelo_inurba_marseille","lat":43.28098,"lon":5.4217,"is_reserved":false,"is_disabled":true,"rental_uris":{"android":"levelo://app?vid=a95248e8-7ba2-479e-9b5c-9fb4d8e98c2b","ios":"levelo://app?vid=a95248e8-7ba2-479e-9b5c-9fb4d8e98c2b"},"vehicle_type_id":"4","last_reported":1737317306,"current_range_meters":0,"station_id":"","pricing_plan_id":"cebpf4jnsgd1na2vs0mg"},{"bike_id":"246f2aa1-d855-40ee-b8e2-0e541013d632","system_id":"levelo_inurba_marseille","lat":43.27812,"lon":5.40713,"is_reserved":false,"is_disabled":true,"rental_uris":{"android":"levelo://app?vid=246f2aa1-d855-40ee-b8e2-0e541013d632","ios":"levelo://app?vid=246f2aa1-d855-40ee-b8e2-0e541013d632"},"vehicle_type_id":"4","last_reported":1737317306,"current_range_meters":0,"station_id":"ce4bhnh2rcd13ifvqgtg","pricing_plan_id":"cebpf4jnsgd1na2vs0mg"},{"bike_id":"1296c22a-fd06-464a-9422-375c040fd819","system_id":"levelo_inurba_marseille","lat":43.31491,"lon":5.37299,"is_reserved":false,"is_disabled":false,"rental_uris":{"android":"levelo://app?vid=1296c22a-fd06-464a-9422-375c040fd819","ios":"levelo://app?vid=1296c22a-fd06-464a-9422-375c040fd819"},"vehicle_type_id":"4","last_reported":1737317306,"current_range_meters":38400,"station_id":"ce4bgt12rcd13ifvqcd0","pricing_plan_id":"cebpf4jnsgd1na2vs0mg"},{"bike_id":"490838b6-f744-4b79-ac77-a247533aa296","system_id":"levelo_inurba_marseille","lat":43.31723,"lon":5.40458,"is_reserved":false,"is_disabled":false,"rental_uris":{"android":"levelo://app?vid=490838b6-f744-4b79-ac77-a247533aa296","ios":"levelo://app?vid=490838b6-f744-4b79-ac77-a247533aa296"},"vehicle_type_id":"4","last_reported":1737317306,"current_range_meters":38800,"station_id":"ce4bh012rcd13ifvqd00","pricing_plan_id":"cebpf4jnsgd1na2vs0mg"},{"bike_id":"c406e2bd-23ff-4e1f-a222-e3b1c1d85894","system_id":"levelo_inurba_marseille","lat":43.31708,"lon":5.37734,"is_reserved":false,"is_disabled":false,"rental_uris":{"android":"levelo://app?vid=c406e2bd-23ff-4e1f-a222-e3b1c1d85894","ios":"levelo://app?vid=c406e2bd-23ff-4e1f-a222-e3b1c1d85894"},"vehicle_type_id":"4","last_reported":1737317306,"current_range_meters":36800,"station_id":"ce4bgth2rcd13ifvqch0","pricing_plan_id":"cebpf4jnsgd1na2vs0mg"},{"bike_id":"88ce3a2b-343a-48fa-9bfd-c30ff1dbe4e5","system_id":"levelo_inurba_marseille","lat":43.25086,"lon":5.39508,"is_reserved":false,"is_disabled":false,"rental_uris":{"android":"levelo://app?vid=88ce3a2b-343a-48fa-9bfd-c30ff1dbe4e5","ios":"levelo://app?vid=88ce3a2b-343a-48fa-9bfd-c30ff1dbe4e5"},"vehicle_type_id":"4","last_reported":1737317306,"current_range_meters":12800,"station_id":"ce4bhm12rcd13ifvqgkg","pricing_plan_id":"cebpf4jnsgd1na2vs0mg"},{"bike_id":"091a7b8b-06a2-4f69-95f0-3170bf0df85d","system_id":"levelo_inurba_marseille","lat":43.27059,"lon":5.4027,"is_reserved":false,"is_disabled":false,"rental_uris":{"android":"levelo://app?vid=091a7b8b-06a2-4f69-95f0-3170bf0df85d","ios":"levelo://app?vid=091a7b8b-06a2-4f69-95f0-3170bf0df85d"},"vehicle_type_id":"4","last_reported":1737317306,"current_range_meters":28400,"station_id":"ce4bhk92rcd13ifvqgc0","pricing_plan_id":"cebpf4jnsgd1na2vs0mg"},{"bike_id":"cd8878bc-1591-44b3-afe3-fbf9140f9fb5","system_id":"levelo_inurba_marseille","lat":43.26806,"lon":5.40262,"is_reserved":false,"is_disabled":false,"rental_uris":{"android":"levelo://app?vid=cd8878bc-1591-44b3-afe3-fbf9140f9fb5","ios":"levelo://app?vid=cd8878bc-1591-44b3-afe3-fbf9140f9fb5"},"vehicle_type_id":"4","last_reported":1737317306,"current_range_meters":14000,"station_id":"ce501612rcd8frsf0b60","pricing_plan_id":"cebpf4jnsgd1na2vs0mg"},{"bike_id":"acd80385-89a9-42c5-9858-345e2b1cdd8f","system_id":"levelo_inurba_marseille","lat":43.27422,"lon":5.39439,"is_reserved":false,"is_disabled":false,"rental_uris":{"android":"levelo://app?vid=acd80385-89a9-42c5-9858-345e2b1cdd8f","ios":"levelo://app?vid=acd80385-89a9-42c5-9858-345e2b1cdd8f"},"vehicle_type_id":"4","last_reported":1737317306,"current_range_meters":37600,"station_id":"ce4bhdp2rcd13ifvqf20","pricing_plan_id":"cebpf4jnsgd1na2vs0mg"},{"bike_id":"2189f33e-4cfd-4f76-9d91-913095d551c4","system_id":"levelo_inurba_marseille","lat":43.30354,"lon":5.39095,"is_reserved":false,"is_disabled":true,"rental_uris":{"android":"levelo://app?vid=2189f33e-4cfd-4f76-9d91-913095d551c4","ios":"levelo://app?vid=2189f33e-4cfd-4f76-9d91-913095d551c4"},"vehicle_type_id":"4","last_reported":1737317306,"current_range_meters":0,"station_id":"","pricing_plan_id":"cebpf4jnsgd1na2vs0mg"},{"bike_id":"2e59cf0e-e98c-4240-9965-76351b5f4055","system_id":"levelo_inurba_marseille","lat":43.249963,"lon":5.389336,"is_reserved":false,"is_disabled":false,"rental_uris":{"android":"levelo://app?vid=2e59cf0e-e98c-4240-9965-76351b5f4055","ios":"levelo://app?vid=2e59cf0e-e98c-4240-9965-76351b5f4055"},"vehicle_type_id":"4","last_reported":1737317306,"current_range_meters":38800,"station_id":"ce4bhgp2rcd13ifvqfd0","pricing_plan_id":"cebpf4jnsgd1na2vs0mg"},{"bike_id":"20ef9b62-d698-4f47-b65d-e26cd9307540","system_id":"levelo_inurba_marseille","lat":43.30254,"lon":5.40074,"is_reserved":false,"is_disabled":false,"rental_uris":{"android":"levelo://app?vid=20ef9b62-d698-4f47-b65d-e26cd9307540","ios":"levelo://app?vid=20ef9b62-d698-4f47-b65d-e26cd9307540"},"vehicle_type_id":"4","last_reported":1737317306,"current_range_meters":36000,"station_id":"ce4bgvh2rcd13ifvqcs0","pricing_plan_id":"cebpf4jnsgd1na2vs0mg"},{"bike_id":"668f9767-c78d-438a-96bb-c0760f782967","system_id":"levelo_inurba_marseille","lat":43.2616,"lon":5.38024,"is_reserved":false,"is_disabled":false,"rental_uris":{"android":"levelo://app?vid=668f9767-c78d-438a-96bb-c0760f782967","ios":"levelo://app?vid=668f9767-c78d-438a-96bb-c0760f782967"},"vehicle_type_id":"4","last_reported":1737317306,"current_range_meters":35600,"station_id":"ce4bhjp2rcd13ifvqg90","pricing_plan_id":"cebpf4jnsgd1na2vs0mg"},{"bike_id":"586a2bd6-4cc6-4de1-ae08-15494b2cc2c5","system_id":"levelo_inurba_marseille","lat":43.2797,"lon":5.38736,"is_reserved":false,"is_disabled":false,"rental_uris":{"android":"levelo://app?vid=586a2bd6-4cc6-4de1-ae08-15494b2cc2c5","ios":"levelo://app?vid=586a2bd6-4cc6-4de1-ae08-15494b2cc2c5"},"vehicle_type_id":"4","last_reported":1737317306,"current_range_meters":33600,"station_id":"ce4bhg12rcd13ifvqf80","pricing_plan_id":"cebpf4jnsgd1na2vs0mg"},{"bike_id":"c3c71d80-b128-41f2-8336-986dc23c0ea0","system_id":"levelo_inurba_marseille","lat":43.30233,"lon":5.40064,"is_reserved":false,"is_disabled":false,"rental_uris":{"android":"levelo://app?vid=c3c71d80-b128-41f2-8336-986dc23c0ea0","ios":"levelo://app?vid=c3c71d80-b128-41f2-8336-986dc23c0ea0"},"vehicle_type_id":"4","last_reported":1737317306,"current_range_meters":37600,"station_id":"ce4bgvh2rcd13ifvqcs0","pricing_plan_id":"cebpf4jnsgd1na2vs0mg"},{"bike_id":"b1856928-93a4-4a7b-85f0-5bc76125f62d","system_id":"levelo_inurba_marseille","lat":43.29259,"lon":5.38442,"is_reserved":false,"is_disabled":false,"rental_uris":{"android":"levelo://app?vid=b1856928-93a4-4a7b-85f0-5bc76125f62d","ios":"levelo://app?vid=b1856928-93a4-4a7b-85f0-5bc76125f62d"},"vehicle_type_id":"4","last_reported":1737317306,"current_range_meters":26800,"station_id":"ce4bh692rcd13ifvqea0","pricing_plan_id":"cebpf4jnsgd1na2vs0mg"},{"bike_id":"1921f9ea-da91-44f8-bf04-2ddb7715d061","system_id":"levelo_inurba_marseille","lat":43.26808,"lon":5.3944,"is_reserved":false,"is_disabled":false,"rental_uris":{"android":"levelo://app?vid=1921f9ea-da91-44f8-bf04-2ddb7715d061","ios":"levelo://app?vid=1921f9ea-da91-44f8-bf04-2ddb7715d061"},"vehicle_type_id":"4","last_reported":1737317306,"current_range_meters":34800,"station_id":"ce4bhh12rcd13ifvqfg0","pricing_plan_id":"cebpf4jnsgd1na2vs0mg"},{"bike_id":"0d5bf58b-8962-4322-87c4-754920ec04ac","system_id":"levelo_inurba_marseille","lat":43.31232,"lon":5.38646,"is_reserved":false,"is_disabled":true,"rental_uris":{"android":"levelo://app?vid=0d5bf58b-8962-4322-87c4-754920ec04ac","ios":"levelo://app?vid=0d5bf58b-8962-4322-87c4-754920ec04ac"},"vehicle_type_id":"4","last_reported":1737317306,"current_range_meters":30000,"station_id":"","pricing_plan_id":"cebpf4jnsgd1na2vs0mg"},{"bike_id":"c92cbb9f-5a8c-4f30-b00a-221ba31b944d","system_id":"levelo_inurba_marseille","lat":43.28412,"lon":5.34983,"is_reserved":false,"is_disabled":true,"rental_uris":{"android":"levelo://app?vid=c92cbb9f-5a8c-4f30-b00a-221ba31b944d","ios":"levelo://app?vid=c92cbb9f-5a8c-4f30-b00a-221ba31b944d"},"vehicle_type_id":"4","last_reported":1737317306,"current_range_meters":30000,"station_id":"ce4bhbh2rcd13ifvqepg","pricing_plan_id":"cebpf4jnsgd1na2vs0mg"},{"bike_id":"0959c4c1-584b-411b-b7bb-e592fadb6799","system_id":"levelo_inurba_marseille","lat":43.29202,"lon":5.39322,"is_reserved":false,"is_disabled":false,"rental_uris":{"android":"levelo://app?vid=0959c4c1-584b-411b-b7bb-e592fadb6799","ios":"levelo://app?vid=0959c4c1-584b-411b-b7bb-e592fadb6799"},"vehicle_type_id":"4","last_reported":1737317306,"current_range_meters":2800,"station_id":"ce4bh192rcd13ifvqdd0","pricing_plan_id":"cebpf4jnsgd1na2vs0mg"},{"bike_id":"86b57124-6019-4f93-8e8b-374d80eb494f","system_id":"levelo_inurba_marseille","lat":43.27325,"lon":5.39109,"is_reserved":false,"is_disabled":false,"rental_uris":{"android":"levelo://app?vid=86b57124-6019-4f93-8e8b-374d80eb494f","ios":"levelo://app?vid=86b57124-6019-4f93-8e8b-374d80eb494f"},"vehicle_type_id":"4","last_reported":1737317306,"current_range_meters":20400,"station_id":"ce4bhgp2rcd13ifvqfe0","pricing_plan_id":"cebpf4jnsgd1na2vs0mg"},{"bike_id":"21637858-a348-428f-9ef5-301cfab0b2cd","system_id":"levelo_inurba_marseille","lat":43.27049,"lon":5.40262,"is_reserved":false,"is_disabled":false,"rental_uris":{"android":"levelo://app?vid=21637858-a348-428f-9ef5-301cfab0b2cd","ios":"levelo://app?vid=21637858-a348-428f-9ef5-301cfab0b2cd"},"vehicle_type_id":"4","last_reported":1737317306,"current_range_meters":30000,"station_id":"ce4bhk92rcd13ifvqgc0","pricing_plan_id":"cebpf4jnsgd1na2vs0mg"},{"bike_id":"fe90f7a6-3920-456a-9451-50d213b7000f","system_id":"levelo_inurba_marseille","lat":43.2849,"lon":5.38458,"is_reserved":false,"is_disabled":true,"rental_uris":{"android":"levelo://app?vid=fe90f7a6-3920-456a-9451-50d213b7000f","ios":"levelo://app?vid=fe90f7a6-3920-456a-9451-50d213b7000f"},"vehicle_type_id":"4","last_reported":1737317306,"current_range_meters":30800,"station_id":"ce4bh512rcd13ifvqe3g","pricing_plan_id":"cebpf4jnsgd1na2vs0mg"},{"bike_id":"67fe5a2e-d8fb-4c79-a771-ee3875d3a660","system_id":"levelo_inurba_marseille","lat":43.33726,"lon":5.39173,"is_reserved":false,"is_disabled":false,"rental_uris":{"android":"levelo://app?vid=67fe5a2e-d8fb-4c79-a771-ee3875d3a660","ios":"levelo://app?vid=67fe5a2e-d8fb-4c79-a771-ee3875d3a660"},"vehicle_type_id":"4","last_reported":1737317306,"current_range_meters":38800,"station_id":"ce4bhr92rcd13ifvqhsg","pricing_plan_id":"cebpf4jnsgd1na2vs0mg"},{"bike_id":"a5e54fff-92da-48a5-b188-02794fc4460d","system_id":"levelo_inurba_marseille","lat":43.31271,"lon":5.40143,"is_reserved":false,"is_disabled":false,"rental_uris":{"android":"levelo://app?vid=a5e54fff-92da-48a5-b188-02794fc4460d","ios":"levelo://app?vid=a5e54fff-92da-48a5-b188-02794fc4460d"},"vehicle_type_id":"4","last_reported":1737317306,"current_range_meters":38800,"station_id":"ce4bh092rcd13ifvqd30","pricing_plan_id":"cebpf4jnsgd1na2vs0mg"},{"bike_id":"f980d9d6-10d5-45b3-8fee-867bf8270c6f","system_id":"levelo_inurba_marseille","lat":43.29879,"lon":5.38897,"is_reserved":false,"is_disabled":false,"rental_uris":{"android":"levelo://app?vid=f980d9d6-10d5-45b3-8fee-867bf8270c6f","ios":"levelo://app?vid=f980d9d6-10d5-45b3-8fee-867bf8270c6f"},"vehicle_type_id":"4","last_reported":1737317306,"current_range_meters":36800,"station_id":"ce4bh392rcd13ifvqdl0","pricing_plan_id":"cebpf4jnsgd1na2vs0mg"},{"bike_id":"aeeb7245-8a7c-4b79-b9ac-efca69f7818a","system_id":"levelo_inurba_marseille","lat":43.32085,"lon":5.36788,"is_reserved":false,"is_disabled":false,"rental_uris":{"android":"levelo://app?vid=aeeb7245-8a7c-4b79-b9ac-efca69f7818a","ios":"levelo://app?vid=aeeb7245-8a7c-4b79-b9ac-efca69f7818a"},"vehicle_type_id":"4","last_reported":1737317306,"current_range_meters":19200,"station_id":"ce4bhrh2rcd13ifvqhug","pricing_plan_id":"cebpf4jnsgd1na2vs0mg"},{"bike_id":"a0e1f522-20af-4612-861b-ffde02893b17","system_id":"levelo_inurba_marseille","lat":43.26496,"lon":5.39535,"is_reserved":false,"is_disabled":false,"rental_uris":{"android":"levelo://app?vid=a0e1f522-20af-4612-861b-ffde02893b17","ios":"levelo://app?vid=a0e1f522-20af-4612-861b-ffde02893b17"},"vehicle_type_id":"4","last_reported":1737317306,"current_range_meters":34000,"station_id":"ce4bhi12rcd13ifvqfq0","pricing_plan_id":"cebpf4jnsgd1na2vs0mg"},{"bike_id":"d7ebea74-ea94-4f72-85c3-775497bc315c","system_id":"levelo_inurba_marseille","lat":43.32276,"lon":5.38286,"is_reserved":false,"is_disabled":false,"rental_uris":{"android":"levelo://app?vid=d7ebea74-ea94-4f72-85c3-775497bc315c","ios":"levelo://app?vid=d7ebea74-ea94-4f72-85c3-775497bc315c"},"vehicle_type_id":"4","last_reported":1737317306,"current_range_meters":38800,"station_id":"ce4bhr12rcd13ifvqhqg","pricing_plan_id":"cebpf4jnsgd1na2vs0mg"},{"bike_id":"7b52e969-7498-42fb-aafb-034e09ca2f2a","system_id":"levelo_inurba_marseille","lat":43.30845,"lon":5.43579,"is_reserved":false,"is_disabled":false,"rental_uris":{"android":"levelo://app?vid=7b52e969-7498-42fb-aafb-034e09ca2f2a","ios":"levelo://app?vid=7b52e969-7498-42fb-aafb-034e09ca2f2a"},"vehicle_type_id":"4","last_reported":1737317306,"current_range_meters":28800,"station_id":"","pricing_plan_id":"cebpf4jnsgd1na2vs0mg"},{"bike_id":"2033d980-497c-47b0-a0f1-11be25dc8853","system_id":"levelo_inurba_marseille","lat":43.29284,"lon":5.40122,"is_reserved":false,"is_disabled":false,"rental_uris":{"android":"levelo://app?vid=2033d980-497c-47b0-a0f1-11be25dc8853","ios":"levelo://app?vid=2033d980-497c-47b0-a0f1-11be25dc8853"},"vehicle_type_id":"4","last_reported":1737317306,"current_range_meters":17600,"station_id":"ce4bh312rcd13ifvqdk0","pricing_plan_id":"cebpf4jnsgd1na2vs0mg"},{"bike_id":"9eb335b9-be9e-4d87-ab11-b7aad1d486a4","system_id":"levelo_inurba_marseille","lat":43.23156,"lon":5.43718,"is_reserved":false,"is_disabled":true,"rental_uris":{"android":"levelo://app?vid=9eb335b9-be9e-4d87-ab11-b7aad1d486a4","ios":"levelo://app?vid=9eb335b9-be9e-4d87-ab11-b7aad1d486a4"},"vehicle_type_id":"4","last_reported":1737317306,"current_range_meters":0,"station_id":"ce4bhmp2rcd13ifvqgog","pricing_plan_id":"cebpf4jnsgd1na2vs0mg"},{"bike_id":"af7a856b-270b-4bf7-8c2f-4b76a38948fa","system_id":"levelo_inurba_marseille","lat":43.23172,"lon":5.40027,"is_reserved":false,"is_disabled":false,"rental_uris":{"android":"levelo://app?vid=af7a856b-270b-4bf7-8c2f-4b76a38948fa","ios":"levelo://app?vid=af7a856b-270b-4bf7-8c2f-4b76a38948fa"},"vehicle_type_id":"4","last_reported":1737317306,"current_range_meters":18000,"station_id":"ce4bhn12rcd13ifvqgqg","pricing_plan_id":"cebpf4jnsgd1na2vs0mg"},{"bike_id":"7178fc2f-3aca-445a-88df-6c91bba05a98","system_id":"levelo_inurba_marseille","lat":43.31274,"lon":5.40164,"is_reserved":false,"is_disabled":false,"rental_uris":{"android":"levelo://app?vid=7178fc2f-3aca-445a-88df-6c91bba05a98","ios":"levelo://app?vid=7178fc2f-3aca-445a-88df-6c91bba05a98"},"vehicle_type_id":"4","last_reported":1737317306,"current_range_meters":3200,"station_id":"ce4bh092rcd13ifvqd30","pricing_plan_id":"cebpf4jnsgd1na2vs0mg"},{"bike_id":"c152fc79-1cd4-48b6-9683-75e37b136f35","system_id":"levelo_inurba_marseille","lat":43.25015,"lon":5.38902,"is_reserved":false,"is_disabled":false,"rental_uris":{"android":"levelo://app?vid=c152fc79-1cd4-48b6-9683-75e37b136f35","ios":"levelo://app?vid=c152fc79-1cd4-48b6-9683-75e37b136f35"},"vehicle_type_id":"4","last_reported":1737317306,"current_range_meters":38800,"station_id":"ce4bhgp2rcd13ifvqfd0","pricing_plan_id":"cebpf4jnsgd1na2vs0mg"},{"bike_id":"63a0c470-0e3d-4f46-a361-302d7a67e5d2","system_id":"levelo_inurba_marseille","lat":43.24815,"lon":5.37451,"is_reserved":false,"is_disabled":true,"rental_uris":{"android":"levelo://app?vid=63a0c470-0e3d-4f46-a361-302d7a67e5d2","ios":"levelo://app?vid=63a0c470-0e3d-4f46-a361-302d7a67e5d2"},"vehicle_type_id":"4","last_reported":1737317306,"current_range_meters":37600,"station_id":"ce4bhgh2rcd13ifvqfb0","pricing_plan_id":"cebpf4jnsgd1na2vs0mg"},{"bike_id":"d5a4b84a-471f-4edb-a016-4dd0af7e2137","system_id":"levelo_inurba_marseille","lat":43.25873,"lon":5.39913,"is_reserved":false,"is_disabled":false,"rental_uris":{"android":"levelo://app?vid=d5a4b84a-471f-4edb-a016-4dd0af7e2137","ios":"levelo://app?vid=d5a4b84a-471f-4edb-a016-4dd0af7e2137"},"vehicle_type_id":"4","last_reported":1737317306,"current_range_meters":37600,"station_id":"ce4bhl92rcd13ifvqghg","pricing_plan_id":"cebpf4jnsgd1na2vs0mg"},{"bike_id":"62b7df12-4600-425b-aa4a-540d007dcc18","system_id":"levelo_inurba_marseille","lat":43.24549,"lon":5.39517,"is_reserved":false,"is_disabled":false,"rental_uris":{"android":"levelo://app?vid=62b7df12-4600-425b-aa4a-540d007dcc18","ios":"levelo://app?vid=62b7df12-4600-425b-aa4a-540d007dcc18"},"vehicle_type_id":"4","last_reported":1737317306,"current_range_meters":38800,"station_id":"ce4bhlp2rcd13ifvqgjg","pricing_plan_id":"cebpf4jnsgd1na2vs0mg"},{"bike_id":"50267a36-8428-4ee1-ac27-ac6a771a71af","system_id":"levelo_inurba_marseille","lat":43.33699,"lon":5.35584,"is_reserved":false,"is_disabled":false,"rental_uris":{"android":"levelo://app?vid=50267a36-8428-4ee1-ac27-ac6a771a71af","ios":"levelo://app?vid=50267a36-8428-4ee1-ac27-ac6a771a71af"},"vehicle_type_id":"4","last_reported":1737317306,"current_range_meters":4800,"station_id":"","pricing_plan_id":"cebpf4jnsgd1na2vs0mg"},{"bike_id":"2cef2865-0807-4dc7-8de7-877b0e8475e4","system_id":"levelo_inurba_marseille","lat":43.29013,"lon":5.38636,"is_reserved":false,"is_disabled":false,"rental_uris":{"android":"levelo://app?vid=2cef2865-0807-4dc7-8de7-877b0e8475e4","ios":"levelo://app?vid=2cef2865-0807-4dc7-8de7-877b0e8475e4"},"vehicle_type_id":"4","last_reported":1737317306,"current_range_meters":32800,"station_id":"ce4bh4p2rcd13ifvqe0g","pricing_plan_id":"cebpf4jnsgd1na2vs0mg"},{"bike_id":"f5863b18-13a1-4c6e-92de-5668ea912ad3","system_id":"levelo_inurba_marseille","lat":43.26234,"lon":5.40439,"is_reserved":false,"is_disabled":true,"rental_uris":{"android":"levelo://app?vid=f5863b18-13a1-4c6e-92de-5668ea912ad3","ios":"levelo://app?vid=f5863b18-13a1-4c6e-92de-5668ea912ad3"},"vehicle_type_id":"4","last_reported":1737317306,"current_range_meters":0,"station_id":"","pricing_plan_id":"cebpf4jnsgd1na2vs0mg"},{"bike_id":"f211a452-8fbe-4547-85cb-a0536e7e3587","system_id":"levelo_inurba_marseille","lat":43.2967,"lon":5.37285,"is_reserved":false,"is_disabled":false,"rental_uris":{"android":"levelo://app?vid=f211a452-8fbe-4547-85cb-a0536e7e3587","ios":"levelo://app?vid=f211a452-8fbe-4547-85cb-a0536e7e3587"},