{"last_updated":1743192663,"ttl":60,"version":"2.2","data":{"bikes":[{"bike_id":"bf6d3711-68f5-4721-8ea8-2d0601182f38","system_id":"levelo_inurba_marseille","lat":43.33746,"lon":5.3745,"is_reserved":false,"is_disabled":true,"rental_uris":{"android":"levelo://app?vid=bf6d3711-68f5-4721-8ea8-2d0601182f38","ios":"levelo://app?vid=bf6d3711-68f5-4721-8ea8-2d0601182f38"},"vehicle_type_id":"4","last_reported":1743192663,"current_range_meters":0,"station_id":"","pricing_plan_id":"cebpf4jnsgd1na2vs0mg"},{"bike_id":"fc8e8371-f4e9-4721-bc19-563801e389dc","system_id":"levelo_inurba_marseille","lat":43.337444,"lon":5.374475,"is_reserved":false,"is_disabled":false,"rental_uris":{"android":"levelo://app?vid=fc8e8371-f4e9-4721-bc19-563801e389dc","ios":"levelo://app?vid=fc8e8371-f4e9-4721-bc19-563801e389dc"},"vehicle_type_id":"4","last_reported":1743192663,"current_range_meters":5600,"station_id":"","pricing_plan_id":"cebpf4jnsgd1na2vs0mg"},{"bike_id":"481ca44c-7ba4-4e6e-a331-1f34f5395971","system_id":"levelo_inurba_marseille","lat":43.27909,"lon":5.38704,"is_reserved":false,"is_disabled":true,"rental_uris":{"android":"levelo://app?vid=481ca44c-7ba4-4e6e-a331-1f34f5395971","ios":"levelo://app?vid=481ca44c-7ba4-4e6e-a331-1f34f5395971"},"vehicle_type_id":"4","last_reported":1743192663,"current_range_meters":0,"station_id":"","pricing_plan_id":"cebpf4jnsgd1na2vs0mg"},{"bike_id":"be6725c0-5c09-4663-99b8-0b7371d27e21","system_id":"levelo_inurba_marseille","lat":43.2544,"lon":5.37517,"is_reserved":false,"is_disabled":true,"rental_uris":{"android":"levelo://app?vid=be6725c0-5c09-4663-99b8-0b7371d27e21","ios":"levelo://app?vid=be6725c0-5c09-4663-99b8-0b7371d27e21"},"vehicle_type_id":"4","last_reported":1743192663,"current_range_meters":0,"station_id":"","pricing_plan_id":"cebpf4jnsgd1na2vs0mg"},{"bike_id":"efb462a8-0c6c-4b02-8e1c-515bf9a5d7f5","system_id":"levelo_inurba_marseille","lat":43.34329,"lon":5.34828,"is_reserved":false,"is_disabled":true,"rental_uris":{"android":"levelo://app?vid=efb462a8-0c6c-4b02-8e1c-515bf9a5d7f5","ios":"levelo://app?vid=efb462a8-0c6c-4b02-8e1c-515bf9a5d7f5"},"vehicle_type_id":"4","last_reported":1743192663,"current_range_meters":0,"station_id":"","pricing_plan_id":"cebpf4jnsgd1na2vs0mg"},{"bike_id":"72e5db2b-9562-475e-acb8-d0f54f5a254a","system_id":"levelo_inurba_marseille","lat":43.26075,"lon":5.41579,"is_reserved":false,"is_disabled":true,"rental_uris":{"android":"levelo://app?vid=72e5db2b-9562-475e-acb8-d0f54f5a254a","ios":"levelo://app?vid=72e5db2b-9562-475e-acb8-d0f54f5a254a"},"vehicle_type_id":"4","last_reported":1743192663,"current_range_meters":0,"station_id":"","pricing_plan_id":"cebpf4jnsgd1na2vs0mg"},{"bike_id":"ecca6846-27c2-4501-b6a2-dc11c1676e55","system_id":"levelo_inurba_marseille","lat":43.29969,"lon":5.38485,"is_reserved":false,"is_disabled":true,"rental_uris":{"android":"levelo://app?vid=ecca6846-27c2-4501-b6a2-dc11c1676e55","ios":"levelo://app?vid=ecca6846-27c2-4501-b6a2-dc11c1676e55"},"vehicle_type_id":"4","last_reported":1743192663,"current_range_meters":0,"station_id":"ce4bgj92rcd13ifvqbd0","pricing_plan_id":"cebpf4jnsgd1na2vs0mg"},{"bike_id":"00a550bb-e7eb-41c6-a693-7307af985e62","system_id":"levelo_inurba_marseille","lat":43.30942,"lon":5.39049,"is_reserved":false,"is_disabled":true,"rental_uris":{"android":"levelo://app?vid=00a550bb-e7eb-41c6-a693-7307af985e62","ios":"levelo://app?vid=00a550bb-e7eb-41c6-a693-7307af985e62"},"vehicle_type_id":"4","last_reported":1743192663,"current_range_meters":0,"station_id":"ce4bgup2rcd13ifvqco0","pricing_plan_id":"cebpf4jnsgd1na2vs0mg"},{"bike_id":"59922d38-33f1-4035-a107-85f1b203330c","system_id":"levelo_inurba_marseille","lat":43.31208,"lon":5.38715,"is_reserved":false,"is_disabled":true,"rental_uris":{"android":"levelo://app?vid=59922d38-33f1-4035-a107-85f1b203330c","ios":"levelo://app?vid=59922d38-33f1-4035-a107-85f1b203330c"},"vehicle_type_id":"4","last_reported":1743192663,"current_range_meters":0,"station_id":"ce4bgv12rcd13ifvqcp0","pricing_plan_id":"cebpf4jnsgd1na2vs0mg"},{"bike_id":"9cb24f3f-9626-4c51-84b7-75cb66c27a81","system_id":"levelo_inurba_marseille","lat":43.30934,"lon":5.40172,"is_reserved":false,"is_disabled":true,"rental_uris":{"android":"levelo://app?vid=9cb24f3f-9626-4c51-84b7-75cb66c27a81","ios":"levelo://app?vid=9cb24f3f-9626-4c51-84b7-75cb66c27a81"},"vehicle_type_id":"4","last_reported":1743192663,"current_range_meters":0,"station_id":"ce4bgvp2rcd13ifvqct0","pricing_plan_id":"cebpf4jnsgd1na2vs0mg"},{"bike_id":"803bfec5-1205-452c-a5a6-fb5615761f11","system_id":"levelo_inurba_marseille","lat":43.29619,"lon":5.40636,"is_reserved":false,"is_disabled":true,"rental_uris":{"android":"levelo://app?vid=803bfec5-1205-452c-a5a6-fb5615761f11","ios":"levelo://app?vid=803bfec5-1205-452c-a5a6-fb5615761f11"},"vehicle_type_id":"4","last_reported":1743192663,"current_range_meters":0,"station_id":"ce4bh0h2rcd13ifvqd60","pricing_plan_id":"cebpf4jnsgd1na2vs0mg"},{"bike_id":"834c75ee-5700-4f23-976f-ae349a34804a","system_id":"levelo_inurba_marseille","lat":43.30639,"lon":5.40084,"is_reserved":false,"is_disabled":true,"rental_uris":{"android":"levelo://app?vid=834c75ee-5700-4f23-976f-ae349a34804a","ios":"levelo://app?vid=834c75ee-5700-4f23-976f-ae349a34804a"},"vehicle_type_id":"4","last_reported":1743192663,"current_range_meters":0,"station_id":"ce4bh112rcd13ifvqda0","pricing_plan_id":"cebpf4jnsgd1na2vs0mg"},{"bike_id":"48d44dac-ba2c-4aa4-ba7e-8d4780cf5a1a","system_id":"levelo_inurba_marseille","lat":43.2989,"lon":5.38885,"is_reserved":false,"is_disabled":true,"rental_uris":{"android":"levelo://app?vid=48d44dac-ba2c-4aa4-ba7e-8d4780cf5a1a","ios":"levelo://app?vid=48d44dac-ba2c-4aa4-ba7e-8d4780cf5a1a"},"vehicle_type_id":"4","last_reported":1743192663,"current_range_meters":0,"station_id":"ce4bh392rcd13ifvqdl0","pricing_plan_id":"cebpf4jnsgd1na2vs0mg"},{"bike_id":"434093bc-90dc-4b38-8477-d67fa10e865f","system_id":"levelo_inurba_marseille","lat":43.289259,"lon":5.384099,"is_reserved":false,"is_disabled":true,"rental_uris":{"android":"levelo://app?vid=434093bc-90dc-4b38-8477-d67fa10e865f","ios":"levelo://app?vid=434093bc-90dc-4b38-8477-d67fa10e865f"},"vehicle_type_id":"4","last_reported":1743192663,"current_range_meters":0,"station_id":"ce4bh612rcd13ifvqe6g","pricing_plan_id":"cebpf4jnsgd1na2vs0mg"},{"bike_id":"fc74f541-d062-4bb3-911e-e95ed203d673","system_id":"levelo_inurba_marseille","lat":43.26931,"lon":5.3864,"is_reserved":false,"is_disabled":true,"rental_uris":{"android":"levelo://app?vid=fc74f541-d062-4bb3-911e-e95ed203d673","ios":"levelo://app?vid=fc74f541-d062-4bb3-911e-e95ed203d673"},"vehicle_type_id":"4","last_reported":1743192663,"current_range_meters":0,"station_id":"ce4bhh92rcd13ifvqfh0","pricing_plan_id":"cebpf4jnsgd1na2vs0mg"},{"bike_id":"6bb775f2-2d8e-42a1-ab08-7d48a7f4152e","system_id":"levelo_inurba_marseille","lat":43.33603,"lon":5.41027,"is_reserved":false,"is_disabled":true,"rental_uris":{"android":"levelo://app?vid=6bb775f2-2d8e-42a1-ab08-7d48a7f4152e","ios":"levelo://app?vid=6bb775f2-2d8e-42a1-ab08-7d48a7f4152e"},"vehicle_type_id":"4","last_reported":1743192663,"current_range_meters":0,"station_id":"ce4bhqh2rcd13ifvqhmg","pricing_plan_id":"cebpf4jnsgd1na2vs0mg"},{"bike_id":"1a5f9db6-d475-4baf-98d5-e001a4649ec4","system_id":"levelo_inurba_marseille","lat":43.32599,"lon":5.42977,"is_reserved":false,"is_disabled":true,"rental_uris":{"android":"levelo://app?vid=1a5f9db6-d475-4baf-98d5-e001a4649ec4","ios":"levelo://app?vid=1a5f9db6-d475-4baf-98d5-e001a4649ec4"},"vehicle_type_id":"4","last_reported":1743192663,"current_range_meters":400,"station_id":"","pricing_plan_id":"cebpf4jnsgd1na2vs0mg"},{"bike_id":"da39ece7-6783-4ef4-b957-afb6b3a46859","system_id":"levelo_inurba_marseille","lat":43.30137,"lon":5.39872,"is_reserved":false,"is_disabled":true,"rental_uris":{"android":"levelo://app?vid=da39ece7-6783-4ef4-b957-afb6b3a46859","ios":"levelo://app?vid=da39ece7-6783-4ef4-b957-afb6b3a46859"},"vehicle_type_id":"4","last_reported":1743192663,"current_range_meters":400,"station_id":"ce4bh0h2rcd13ifvqd40","pricing_plan_id":"cebpf4jnsgd1na2vs0mg"},{"bike_id":"3a31a3b9-8d91-48b1-9587-fc8940106188","system_id":"levelo_inurba_marseille","lat":43.2926,"lon":5.38432,"is_reserved":false,"is_disabled":true,"rental_uris":{"android":"levelo://app?vid=3a31a3b9-8d91-48b1-9587-fc8940106188","ios":"levelo://app?vid=3a31a3b9-8d91-48b1-9587-fc8940106188"},"vehicle_type_id":"4","last_reported":1743192663,"current_range_meters":400,"station_id":"ce4bh692rcd13ifvqea0","pricing_plan_id":"cebpf4jnsgd1na2vs0mg"},{"bike_id":"330cbe84-c53d-4bfd-8f14-6be40b853939","system_id":"levelo_inurba_marseille","lat":43.32369,"lon":5.3675,"is_reserved":false,"is_disabled":true,"rental_uris":{"android":"levelo://app?vid=330cbe84-c53d-4bfd-8f14-6be40b853939","ios":"levelo://app?vid=330cbe84-c53d-4bfd-8f14-6be40b853939"},"vehicle_type_id":"4","last_reported":1743192663,"current_range_meters":400,"station_id":"ce4bhsh2rcd13ifvqi2g","pricing_plan_id":"cebpf4jnsgd1na2vs0mg"},{"bike_id":"9e1c8e56-0d13-46a9-82bc-e69210f8f350","system_id":"levelo_inurba_marseille","lat":43.29853,"lon":5.3629,"is_reserved":false,"is_disabled":true,"rental_uris":{"android":"levelo://app?vid=9e1c8e56-0d13-46a9-82bc-e69210f8f350","ios":"levelo://app?vid=9e1c8e56-0d13-46a9-82bc-e69210f8f350"},"vehicle_type_id":"4","last_reported":1743192663,"current_range_meters":800,"station_id":"ce4bgpp2rcd13ifvqc3g","pricing_plan_id":"cebpf4jnsgd1na2vs0mg"},{"bike_id":"5a2d42c7-c7b2-48cb-ba91-819605a98c81","system_id":"levelo_inurba_marseille","lat":43.29522,"lon":5.39024,"is_reserved":false,"is_disabled":true,"rental_uris":{"android":"levelo://app?vid=5a2d42c7-c7b2-48cb-ba91-819605a98c81","ios":"levelo://app?vid=5a2d42c7-c7b2-48cb-ba91-819605a98c81"},"vehicle_type_id":"4","last_reported":1743192663,"current_range_meters":800,"station_id":"ce4bh3p2rcd13ifvqdp0","pricing_plan_id":"cebpf4jnsgd1na2vs0mg"},{"bike_id":"0507b844-0495-4912-9209-a2546abfaa3c","system_id":"levelo_inurba_marseille","lat":43.29098,"lon":5.38133,"is_reserved":false,"is_disabled":true,"rental_uris":{"android":"levelo://app?vid=0507b844-0495-4912-9209-a2546abfaa3c","ios":"levelo://app?vid=0507b844-0495-4912-9209-a2546abfaa3c"},"vehicle_type_id":"4","last_reported":1743192663,"current_range_meters":800,"station_id":"ce4bh512rcd13ifvqe2g","pricing_plan_id":"cebpf4jnsgd1na2vs0mg"},{"bike_id":"9ff5eec6-1394-4d7a-aec4-72b5c56c4faa","system_id":"levelo_inurba_marseille","lat":43.28484,"lon":5.38416,"is_reserved":false,"is_disabled":true,"rental_uris":{"android":"levelo://app?vid=9ff5eec6-1394-4d7a-aec4-72b5c56c4faa","ios":"levelo://app?vid=9ff5eec6-1394-4d7a-aec4-72b5c56c4faa"},"vehicle_type_id":"4","last_reported":1743192663,"current_range_meters":800,"station_id":"ce4bh512rcd13ifvqe3g","pricing_plan_id":"cebpf4jnsgd1na2vs0mg"},{"bike_id":"1ed8ae56-046b-42d3-90d2-fd2f53876cd6","system_id":"levelo_inurba_marseille","lat":43.27568,"lon":5.38429,"is_reserved":false,"is_disabled":true,"rental_uris":{"android":"levelo://app?vid=1ed8ae56-046b-42d3-90d2-fd2f53876cd6","ios":"levelo://app?vid=1ed8ae56-046b-42d3-90d2-fd2f53876cd6"},"vehicle_type_id":"4","last_reported":1743192663,"current_range_meters":800,"station_id":"ce4bhh92rcd13ifvqfi0","pricing_plan_id":"cebpf4jnsgd1na2vs0mg"},{"bike_id":"d8149f63-2e3f-4325-862f-bbb8d9e4825c","system_id":"levelo_inurba_marseille","lat":43.3079,"lon":5.43526,"is_reserved":false,"is_disabled":true,"rental_uris":{"android":"levelo://app?vid=d8149f63-2e3f-4325-862f-bbb8d9e4825c","ios":"levelo://app?vid=d8149f63-2e3f-4325-862f-bbb8d9e4825c"},"vehicle_type_id":"4","last_reported":1743192663,"current_range_meters":800,"station_id":"ce4bhph2rcd13ifvqheg","pricing_plan_id":"cebpf4jnsgd1na2vs0mg"},{"bike_id":"c11e3f3c-e429-42b5-b95b-1e3709835253","system_id":"levelo_inurba_marseille","lat":43.306396,"lon":5.401036,"is_reserved":false,"is_disabled":true,"rental_uris":{"android":"levelo://app?vid=c11e3f3c-e429-42b5-b95b-1e3709835253","ios":"levelo://app?vid=c11e3f3c-e429-42b5-b95b-1e3709835253"},"vehicle_type_id":"4","last_reported":1743192663,"current_range_meters":1200,"station_id":"ce4bh112rcd13ifvqda0","pricing_plan_id":"cebpf4jnsgd1na2vs0mg"},{"bike_id":"c7129f5f-9783-4ee1-b382-81011ff00592","system_id":"levelo_inurba_marseille","lat":43.28348,"lon":5.38096,"is_reserved":false,"is_disabled":true,"rental_uris":{"android":"levelo://app?vid=c7129f5f-9783-4ee1-b382-81011ff00592","ios":"levelo://app?vid=c7129f5f-9783-4ee1-b382-81011ff00592"},"vehicle_type_id":"4","last_reported":1743192663,"current_range_meters":1200,"station_id":"ce4bh412rcd13ifvqdr0","pricing_plan_id":"cebpf4jnsgd1na2vs0mg"},{"bike_id":"41179c45-198b-41ce-82c1-33fbdfaca666","system_id":"levelo_inurba_marseille","lat":43.28401,"lon":5.37529,"is_reserved":false,"is_disabled":true,"rental_uris":{"android":"levelo://app?vid=41179c45-198b-41ce-82c1-33fbdfaca666","ios":"levelo://app?vid=41179c45-198b-41ce-82c1-33fbdfaca666"},"vehicle_type_id":"4","last_reported":1743192663,"current_range_meters":1200,"station_id":"ce4bh412rcd13ifvqds0","pricing_plan_id":"cebpf4jnsgd1na2vs0mg"},{"bike_id":"513b1e47-84ce-4d4d-8c69-76b821b6dd6f","system_id":"levelo_inurba_marseille","lat":43.28624,"lon":5.35108,"is_reserved":false,"is_disabled":true,"rental_uris":{"android":"levelo://app?vid=513b1e47-84ce-4d4d-8c69-76b821b6dd6f","ios":"levelo://app?vid=513b1e47-84ce-4d4d-8c69-76b821b6dd6f"},"vehicle_type_id":"4","last_reported":1743192663,"current_range_meters":1200,"station_id":"ce4bhch2rcd13ifvqeug","pricing_plan_id":"cebpf4jnsgd1na2vs0mg"},{"bike_id":"400a4ba1-4e93-4c9c-becf-05e2799dba6a","system_id":"levelo_inurba_marseille","lat":43.290197,"lon":5.399852,"is_reserved":false,"is_disabled":true,"rental_uris":{"android":"levelo://app?vid=400a4ba1-4e93-4c9c-becf-05e2799dba6a","ios":"levelo://app?vid=400a4ba1-4e93-4c9c-becf-05e2799dba6a"},"vehicle_type_id":"4","last_reported":1743192663,"current_range_meters":1600,"station_id":"","pricing_plan_id":"cebpf4jnsgd1na2vs0mg"},{"bike_id":"515faa86-fa39-46ff-930a-2fe51eead6f6","system_id":"levelo_inurba_marseille","lat":43.26598,"lon":5.39349,"is_reserved":false,"is_disabled":true,"rental_uris":{"android":"levelo://app?vid=515faa86-fa39-46ff-930a-2fe51eead6f6","ios":"levelo://app?vid=515faa86-fa39-46ff-930a-2fe51eead6f6"},"vehicle_type_id":"4","last_reported":1743192663,"current_range_meters":1600,"station_id":"","pricing_plan_id":"cebpf4jnsgd1na2vs0mg"},{"bike_id":"6432d69b-664f-4b4b-ab30-3ebbaccf14db","system_id":"levelo_inurba_marseille","lat":43.3107,"lon":5.38367,"is_reserved":false,"is_disabled":true,"rental_uris":{"android":"levelo://app?vid=6432d69b-664f-4b4b-ab30-3ebbaccf14db","ios":"levelo://app?vid=6432d69b-664f-4b4b-ab30-3ebbaccf14db"},"vehicle_type_id":"4","last_reported":1743192663,"current_range_meters":1600,"station_id":"ce4bgv92rcd13ifvqcr0","pricing_plan_id":"cebpf4jnsgd1na2vs0mg"},{"bike_id":"980ff761-ef4f-469b-8661-624f949ac9ec","system_id":"levelo_inurba_marseille","lat":43.25819,"lon":5.39431,"is_reserved":false,"is_disabled":true,"rental_uris":{"android":"levelo://app?vid=980ff761-ef4f-469b-8661-624f949ac9ec","ios":"levelo://app?vid=980ff761-ef4f-469b-8661-624f949ac9ec"},"vehicle_type_id":"4","last_reported":1743192663,"current_range_meters":1600,"station_id":"ce4bhip2rcd13ifvqft0","pricing_plan_id":"cebpf4jnsgd1na2vs0mg"},{"bike_id":"60a7ab42-f517-491c-8edb-0d4bdffa495e","system_id":"levelo_inurba_marseille","lat":43.29846,"lon":5.36273,"is_reserved":false,"is_disabled":true,"rental_uris":{"android":"levelo://app?vid=60a7ab42-f517-491c-8edb-0d4bdffa495e","ios":"levelo://app?vid=60a7ab42-f517-491c-8edb-0d4bdffa495e"},"vehicle_type_id":"4","last_reported":1743192663,"current_range_meters":2000,"station_id":"ce4bgpp2rcd13ifvqc3g","pricing_plan_id":"cebpf4jnsgd1na2vs0mg"},{"bike_id":"f04e3607-4fe7-4d6d-a654-3c27e343dcff","system_id":"levelo_inurba_marseille","lat":43.24808,"lon":5.37458,"is_reserved":false,"is_disabled":true,"rental_uris":{"android":"levelo://app?vid=f04e3607-4fe7-4d6d-a654-3c27e343dcff","ios":"levelo://app?vid=f04e3607-4fe7-4d6d-a654-3c27e343dcff"},"vehicle_type_id":"4","last_reported":1743192663,"current_range_meters":2000,"station_id":"ce4bhgh2rcd13ifvqfb0","pricing_plan_id":"cebpf4jnsgd1na2vs0mg"},{"bike_id":"0304e589-1056-4d2b-ac62-5b01c487b6ab","system_id":"levelo_inurba_marseille","lat":43.25819,"lon":5.39431,"is_reserved":false,"is_disabled":false,"rental_uris":{"android":"levelo://app?vid=0304e589-1056-4d2b-ac62-5b01c487b6ab","ios":"levelo://app?vid=0304e589-1056-4d2b-ac62-5b01c487b6ab"},"vehicle_type_id":"4","last_reported":1743192663,"current_range_meters":2000,"station_id":"ce4bhip2rcd13ifvqft0","pricing_plan_id":"cebpf4jnsgd1na2vs0mg"},{"bike_id":"df680603-7e7a-4306-baa9-dbb5d5ec46e8","system_id":"levelo_inurba_marseille","lat":43.28618,"lon":5.35113,"is_reserved":false,"is_disabled":false,"rental_uris":{"android":"levelo://app?vid=df680603-7e7a-4306-baa9-dbb5d5ec46e8","ios":"levelo://app?vid=df680603-7e7a-4306-baa9-dbb5d5ec46e8"},"vehicle_type_id":"4","last_reported":1743192663,"current_range_meters":2800,"station_id":"ce4bhch2rcd13ifvqeug","pricing_plan_id":"cebpf4jnsgd1na2vs0mg"},{"bike_id":"53d9725d-2286-41ed-9842-a5ea9ce17946","system_id":"levelo_inurba_marseille","lat":43.30823,"lon":5.4353,"is_reserved":false,"is_disabled":false,"rental_uris":{"android":"levelo://app?vid=53d9725d-2286-41ed-9842-a5ea9ce17946","ios":"levelo://app?vid=53d9725d-2286-41ed-9842-a5ea9ce17946"},"vehicle_type_id":"4","last_reported":1743192663,"current_range_meters":2800,"station_id":"ce4bhph2rcd13ifvqheg","pricing_plan_id":"cebpf4jnsgd1na2vs0mg"},{"bike_id":"07dd4ab0-4bf8-4127-a74a-5c72c1f133a4","system_id":"levelo_inurba_marseille","lat":43.31741,"lon":5.40406,"is_reserved":false,"is_disabled":false,"rental_uris":{"android":"levelo://app?vid=07dd4ab0-4bf8-4127-a74a-5c72c1f133a4","ios":"levelo://app?vid=07dd4ab0-4bf8-4127-a74a-5c72c1f133a4"},"vehicle_type_id":"4","last_reported":1743192663,"current_range_meters":3200,"station_id":"","pricing_plan_id":"cebpf4jnsgd1na2vs0mg"},{"bike_id":"3b6642fb-9a62-434c-9a78-b0bd182fc628","system_id":"levelo_inurba_marseille","lat":43.279,"lon":5.41249,"is_reserved":false,"is_disabled":false,"rental_uris":{"android":"levelo://app?vid=3b6642fb-9a62-434c-9a78-b0bd182fc628","ios":"levelo://app?vid=3b6642fb-9a62-434c-9a78-b0bd182fc628"},"vehicle_type_id":"4","last_reported":1743192663,"current_range_meters":3200,"station_id":"","pricing_plan_id":"cebpf4jnsgd1na2vs0mg"},{"bike_id":"0edcb2c0-eb03-452a-b9aa-c1b558a90e44","system_id":"levelo_inurba_marseille","lat":43.29621,"lon":5.37722,"is_reserved":false,"is_disabled":false,"rental_uris":{"android":"levelo://app?vid=0edcb2c0-eb03-452a-b9aa-c1b558a90e44","ios":"levelo://app?vid=0edcb2c0-eb03-452a-b9aa-c1b558a90e44"},"vehicle_type_id":"4","last_reported":1743192663,"current_range_meters":3200,"station_id":"ce4bgi92rcd13ifvqb90","pricing_plan_id":"cebpf4jnsgd1na2vs0mg"},{"bike_id":"27779e6e-b850-4dc9-97b3-f2bb7392514f","system_id":"levelo_inurba_marseille","lat":43.28944,"lon":5.36634,"is_reserved":false,"is_disabled":false,"rental_uris":{"android":"levelo://app?vid=27779e6e-b850-4dc9-97b3-f2bb7392514f","ios":"levelo://app?vid=27779e6e-b850-4dc9-97b3-f2bb7392514f"},"vehicle_type_id":"4","last_reported":1743192663,"current_range_meters":3200,"station_id":"ce4bhap2rcd13ifvqek0","pricing_plan_id":"cebpf4jnsgd1na2vs0mg"},{"bike_id":"7b64bb1d-93e2-4a2a-b4c0-2d4dec2a67de","system_id":"levelo_inurba_marseille","lat":43.28,"lon":5.40011,"is_reserved":false,"is_disabled":false,"rental_uris":{"android":"levelo://app?vid=7b64bb1d-93e2-4a2a-b4c0-2d4dec2a67de","ios":"levelo://app?vid=7b64bb1d-93e2-4a2a-b4c0-2d4dec2a67de"},"vehicle_type_id":"4","last_reported":1743192663,"current_range_meters":3200,"station_id":"ce4bho92rcd13ifvqh4g","pricing_plan_id":"cebpf4jnsgd1na2vs0mg"},{"bike_id":"b1eec6d9-c753-4417-ac2c-88a049c213ee","system_id":"levelo_inurba_marseille","lat":43.31759,"lon":5.39023,"is_reserved":false,"is_disabled":false,"rental_uris":{"android":"levelo://app?vid=b1eec6d9-c753-4417-ac2c-88a049c213ee","ios":"levelo://app?vid=b1eec6d9-c753-4417-ac2c-88a049c213ee"},"vehicle_type_id":"4","last_reported":1743192663,"current_range_meters":3200,"station_id":"ce4bhqp2rcd13ifvqhng","pricing_plan_id":"cebpf4jnsgd1na2vs0mg"},{"bike_id":"dfc9f138-f7a7-49b6-9085-bc32826f2714","system_id":"levelo_inurba_marseille","lat":43.30436,"lon":5.39739,"is_reserved":false,"is_disabled":false,"rental_uris":{"android":"levelo://app?vid=dfc9f138-f7a7-49b6-9085-bc32826f2714","ios":"levelo://app?vid=dfc9f138-f7a7-49b6-9085-bc32826f2714"},"vehicle_type_id":"4","last_reported":1743192663,"current_range_meters":3600,"station_id":"ce4bh092rcd13ifvqd20","pricing_plan_id":"cebpf4jnsgd1na2vs0mg"},{"bike_id":"fa301892-584e-4a9c-8a96-6dcb606156c3","system_id":"levelo_inurba_marseille","lat":43.28997,"lon":5.35617,"is_reserved":false,"is_disabled":false,"rental_uris":{"android":"levelo://app?vid=fa301892-584e-4a9c-8a96-6dcb606156c3","ios":"levelo://app?vid=fa301892-584e-4a9c-8a96-6dcb606156c3"},"vehicle_type_id":"4","last_reported":1743192663,"current_range_meters":3600,"station_id":"ce4bhb92rcd13ifvqen0","pricing_plan_id":"cebpf4jnsgd1na2vs0mg"},{"bike_id":"d7c9935c-a166-460f-8f7b-3628e95db83a","system_id":"levelo_inurba_marseille","lat":43.27901,"lon":5.38001,"is_reserved":false,"is_disabled":false,"rental_uris":{"android":"levelo://app?vid=d7c9935c-a166-460f-8f7b-3628e95db83a","ios":"levelo://app?vid=d7c9935c-a166-460f-8f7b-3628e95db83a"},"vehicle_type_id":"4","last_reported":1743192663,"current_range_meters":3600,"station_id":"ce4bhf92rcd13ifvqf50","pricing_plan_id":"cebpf4jnsgd1na2vs0mg"},{"bike_id":"c18155db-65c7-4d5a-8c5b-923eb75c675d","system_id":"levelo_inurba_marseille","lat":43.32104,"lon":5.36763,"is_reserved":false,"is_disabled":false,"rental_uris":{"android":"levelo://app?vid=c18155db-65c7-4d5a-8c5b-923eb75c675d","ios":"levelo://app?vid=c18155db-65c7-4d5a-8c5b-923eb75c675d"},"vehicle_type_id":"4","last_reported":1743192663,"current_range_meters":3600,"station_id":"ce4bhrh2rcd13ifvqhug","pricing_plan_id":"cebpf4jnsgd1na2vs0mg"},{"bike_id":"37feb872-afb0-4162-9d8b-3b6f53cae9f7","system_id":"levelo_inurba_marseille","lat":43.31326,"lon":5.39715,"is_reserved":false,"is_disabled":false,"rental_uris":{"android":"levelo://app?vid=37feb872-afb0-4162-9d8b-3b6f53cae9f7","ios":"levelo://app?vid=37feb872-afb0-4162-9d8b-3b6f53cae9f7"},"vehicle_type_id":"4","last_reported":1743192663,"current_range_meters":4000,"station_id":"ce4bgvp2rcd13ifvqcu0","pricing_plan_id":"cebpf4jnsgd1na2vs0mg"},{"bike_id":"e5915009-d92f-4964-866d-74b2a7e05f97","system_id":"levelo_inurba_marseille","lat":43.31698,"lon":5.40456,"is_reserved":false,"is_disabled":false,"rental_uris":{"android":"levelo://app?vid=e5915009-d92f-4964-866d-74b2a7e05f97","ios":"levelo://app?vid=e5915009-d92f-4964-866d-74b2a7e05f97"},"vehicle_type_id":"4","last_reported":1743192663,"current_range_meters":4000,"station_id":"ce4bh012rcd13ifvqd00","pricing_plan_id":"cebpf4jnsgd1na2vs0mg"},{"bike_id":"5659761b-ea88-422b-a3bc-91fe14db4b3d","system_id":"levelo_inurba_marseille","lat":43.30128,"lon":5.39867,"is_reserved":false,"is_disabled":false,"rental_uris":{"android":"levelo://app?vid=5659761b-ea88-422b-a3bc-91fe14db4b3d","ios":"levelo://app?vid=5659761b-ea88-422b-a3bc-91fe14db4b3d"},"vehicle_type_id":"4","last_reported":1743192663,"current_range_meters":4000,"station_id":"ce4bh0h2rcd13ifvqd40","pricing_plan_id":"cebpf4jnsgd1na2vs0mg"},{"bike_id":"f47bfad7-6794-48a1-88e5-03d5f2ce4b30","system_id":"levelo_inurba_marseille","lat":43.30095,"lon":5.39068,"is_reserved":false,"is_disabled":false,"rental_uris":{"android":"levelo://app?vid=f47bfad7-6794-48a1-88e5-03d5f2ce4b30","ios":"levelo://app?vid=f47bfad7-6794-48a1-88e5-03d5f2ce4b30"},"vehicle_type_id":"4","last_reported":1743192663,"current_range_meters":4000,"station_id":"ce4bh192rcd13ifvqdb0","pricing_plan_id":"cebpf4jnsgd1na2vs0mg"},{"bike_id":"2b45f6c9-0ebb-45a8-bfb2-4ed30e443a13","system_id":"levelo_inurba_marseille","lat":43.28934,"lon":5.36633,"is_reserved":false,"is_disabled":false,"rental_uris":{"android":"levelo://app?vid=2b45f6c9-0ebb-45a8-bfb2-4ed30e443a13","ios":"levelo://app?vid=2b45f6c9-0ebb-45a8-bfb2-4ed30e443a13"},"vehicle_type_id":"4","last_reported":1743192663,"current_range_meters":4000,"station_id":"ce4bhap2rcd13ifvqek0","pricing_plan_id":"cebpf4jnsgd1na2vs0mg"},{"bike_id":"0d1de0c6-f507-4876-8169-5c518b3c0118","system_id":"levelo_inurba_marseille","lat":43.29291,"lon":5.37453,"is_reserved":false,"is_disabled":false,"rental_uris":{"android":"levelo://app?vid=0d1de0c6-f507-4876-8169-5c518b3c0118","ios":"levelo://app?vid=0d1de0c6-f507-4876-8169-5c518b3c0118"},"vehicle_type_id":"4","last_reported":1743192663,"current_range_meters":4400,"station_id":"ce4bgi12rcd13ifvqb70","pricing_plan_id":"cebpf4jnsgd1na2vs0mg"},{"bike_id":"23fa518d-7be8-44f7-b6f2-f161ce326fe8","system_id":"levelo_inurba_marseille","lat":43.31361,"lon":5.38505,"is_reserved":false,"is_disabled":false,"rental_uris":{"android":"levelo://app?vid=23fa518d-7be8-44f7-b6f2-f161ce326fe8","ios":"levelo://app?vid=23fa518d-7be8-44f7-b6f2-f161ce326fe8"},"vehicle_type_id":"4","last_reported":1743192663,"current_range_meters":4400,"station_id":"ce4bgt92rcd13ifvqcf0","pricing_plan_id":"cebpf4jnsgd1na2vs0mg"},{"bike_id":"d5ac49e6-6ed1-4aad-9078-f34704f49956","system_id":"levelo_inurba_marseille","lat":43.2987,"lon":5.39732,"is_reserved":false,"is_disabled":false,"rental_uris":{"android":"levelo://app?vid=d5ac49e6-6ed1-4aad-9078-f34704f49956","ios":"levelo://app?vid=d5ac49e6-6ed1-4aad-9078-f34704f49956"},"vehicle_type_id":"4","last_reported":1743192663,"current_range_meters":4400,"station_id":"ce4bh0h2rcd13ifvqd50","pricing_plan_id":"cebpf4jnsgd1na2vs0mg"},{"bike_id":"d43b2a86-10ae-42b3-8b7e-8bb72fd0fb1c","system_id":"levelo_inurba_marseille","lat":43.28841,"lon":5.35829,"is_reserved":false,"is_disabled":false,"rental_uris":{"android":"levelo://app?vid=d43b2a86-10ae-42b3-8b7e-8bb72fd0fb1c","ios":"levelo://app?vid=d43b2a86-10ae-42b3-8b7e-8bb72fd0fb1c"},"vehicle_type_id":"4","last_reported":1743192663,"current_range_meters":4400,"station_id":"ce4bhb12rcd13ifvqem0","pricing_plan_id":"cebpf4jnsgd1na2vs0mg"},{"bike_id":"a9aa0d18-3c00-4e4c-9d52-2b08729cd5d9","system_id":"levelo_inurba_marseille","lat":43.27906,"lon":5.38004,"is_reserved":false,"is_disabled":false,"rental_uris":{"android":"levelo://app?vid=a9aa0d18-3c00-4e4c-9d52-2b08729cd5d9","ios":"levelo://app?vid=a9aa0d18-3c00-4e4c-9d52-2b08729cd5d9"},"vehicle_type_id":"4","last_reported":1743192663,"current_range_meters":4400,"station_id":"ce4bhf92rcd13ifvqf50","pricing_plan_id":"cebpf4jnsgd1na2vs0mg"},{"bike_id":"e0bd8552-eaef-4342-bdcd-1df755c00099","system_id":"levelo_inurba_marseille","lat":43.26192,"lon":5.42067,"is_reserved":false,"is_disabled":false,"rental_uris":{"android":"levelo://app?vid=e0bd8552-eaef-4342-bdcd-1df755c00099","ios":"levelo://app?vid=e0bd8552-eaef-4342-bdcd-1df755c00099"},"vehicle_type_id":"4","last_reported":1743192663,"current_range_meters":4800,"station_id":"","pricing_plan_id":"cebpf4jnsgd1na2vs0mg"},{"bike_id":"ee054ecc-11db-469b-a361-0b3836a86812","system_id":"levelo_inurba_marseille","lat":43.28084,"lon":5.43991,"is_reserved":false,"is_disabled":false,"rental_uris":{"android":"levelo://app?vid=ee054ecc-11db-469b-a361-0b3836a86812","ios":"levelo://app?vid=ee054ecc-11db-469b-a361-0b3836a86812"},"vehicle_type_id":"4","last_reported":1743192663,"current_range_meters":4800,"station_id":"","pricing_plan_id":"cebpf4jnsgd1na2vs0mg"},{"bike_id":"8610c0a7-54e0-46b6-b97c-eb43fd27f9ca","system_id":"levelo_inurba_marseille","lat":43.29611,"lon":5.37989,"is_reserved":false,"is_disabled":false,"rental_uris":{"android":"levelo://app?vid=8610c0a7-54e0-46b6-b97c-eb43fd27f9ca","ios":"levelo://app?vid=8610c0a7-54e0-46b6-b97c-eb43fd27f9ca"},"vehicle_type_id":"4","last_reported":1743192663,"current_range_meters":4800,"station_id":"","pricing_plan_id":"cebpf4jnsgd1na2vs0mg"},{"bike_id":"5108acd2-4946-4532-86b0-ec6feec79213","system_id":"levelo_inurba_marseille","lat":43.2997,"lon":5.38498,"is_reserved":false,"is_disabled":false,"rental_uris":{"android":"levelo://app?vid=5108acd2-4946-4532-86b0-ec6feec79213","ios":"levelo://app?vid=5108acd2-4946-4532-86b0-ec6feec79213"},"vehicle_type_id":"4","last_reported":1743192663,"current_range_meters":4800,"station_id":"ce4bgj92rcd13ifvqbd0","pricing_plan_id":"cebpf4jnsgd1na2vs0mg"},{"bike_id":"bc99ebd0-8d83-4ae8-b282-70a471cd8c2b","system_id":"levelo_inurba_marseille","lat":43.29035,"lon":5.38644,"is_reserved":false,"is_disabled":false,"rental_uris":{"android":"levelo://app?vid=bc99ebd0-8d83-4ae8-b282-70a471cd8c2b","ios":"levelo://app?vid=bc99ebd0-8d83-4ae8-b282-70a471cd8c2b"},"vehicle_type_id":"4","last_reported":1743192663,"current_range_meters":4800,"station_id":"ce4bh4p2rcd13ifvqe0g","pricing_plan_id":"cebpf4jnsgd1na2vs0mg"},{"bike_id":"633ece5c-ec93-48b3-a472-f7dd03177551","system_id":"levelo_inurba_marseille","lat":43.3043,"lon":5.41297,"is_reserved":false,"is_disabled":false,"rental_uris":{"android":"levelo://app?vid=633ece5c-ec93-48b3-a472-f7dd03177551","ios":"levelo://app?vid=633ece5c-ec93-48b3-a472-f7dd03177551"},"vehicle_type_id":"4","last_reported":1743192663,"current_range_meters":4800,"station_id":"ce4bhop2rcd13ifvqh8g","pricing_plan_id":"cebpf4jnsgd1na2vs0mg"},{"bike_id":"319b2b3a-29b9-484f-8b56-77b050f07ca8","system_id":"levelo_inurba_marseille","lat":43.32115,"lon":5.36779,"is_reserved":false,"is_disabled":false,"rental_uris":{"android":"levelo://app?vid=319b2b3a-29b9-484f-8b56-77b050f07ca8","ios":"levelo://app?vid=319b2b3a-29b9-484f-8b56-77b050f07ca8"},"vehicle_type_id":"4","last_reported":1743192663,"current_range_meters":4800,"station_id":"ce4bhrh2rcd13ifvqhug","pricing_plan_id":"cebpf4jnsgd1na2vs0mg"},{"bike_id":"25359bf3-5c4b-490a-abd6-ebea17d165d3","system_id":"levelo_inurba_marseille","lat":43.29843,"lon":5.36277,"is_reserved":false,"is_disabled":false,"rental_uris":{"android":"levelo://app?vid=25359bf3-5c4b-490a-abd6-ebea17d165d3","ios":"levelo://app?vid=25359bf3-5c4b-490a-abd6-ebea17d165d3"},"vehicle_type_id":"4","last_reported":1743192663,"current_range_meters":5600,"station_id":"ce4bgpp2rcd13ifvqc3g","pricing_plan_id":"cebpf4jnsgd1na2vs0mg"},{"bike_id":"2b5c6895-bcc5-4734-9b04-d72364115e37","system_id":"levelo_inurba_marseille","lat":43.31354,"lon":5.38485,"is_reserved":false,"is_disabled":false,"rental_uris":{"android":"levelo://app?vid=2b5c6895-bcc5-4734-9b04-d72364115e37","ios":"levelo://app?vid=2b5c6895-bcc5-4734-9b04-d72364115e37"},"vehicle_type_id":"4","last_reported":1743192663,"current_range_meters":5600,"station_id":"ce4bgt92rcd13ifvqcf0","pricing_plan_id":"cebpf4jnsgd1na2vs0mg"},{"bike_id":"01df9f53-82f0-443f-9088-43e667c1a144","system_id":"levelo_inurba_marseille","lat":43.29018,"lon":5.38658,"is_reserved":false,"is_disabled":false,"rental_uris":{"android":"levelo://app?vid=01df9f53-82f0-443f-9088-43e667c1a144","ios":"levelo://app?vid=01df9f53-82f0-443f-9088-43e667c1a144"},"vehicle_type_id":"4","last_reported":1743192663,"current_range_meters":5600,"station_id":"ce4bh4p2rcd13ifvqe0g","pricing_plan_id":"cebpf4jnsgd1na2vs0mg"},{"bike_id":"1b49afde-e8c6-4a37-95eb-caa7d76f7ff4","system_id":"levelo_inurba_marseille","lat":43.29282,"lon":5.38428,"is_reserved":false,"is_disabled":false,"rental_uris":{"android":"levelo://app?vid=1b49afde-e8c6-4a37-95eb-caa7d76f7ff4","ios":"levelo://app?vid=1b49afde-e8c6-4a37-95eb-caa7d76f7ff4"},"vehicle_type_id":"4","last_reported":1743192663,"current_range_meters":5600,"station_id":"ce4bh692rcd13ifvqea0","pricing_plan_id":"cebpf4jnsgd1na2vs0mg"},{"bike_id":"cf49318e-b0f4-4cea-92f2-6aff2f4e5c78","system_id":"levelo_inurba_marseille","lat":43.29214,"lon":5.35795,"is_reserved":false,"is_disabled":false,"rental_uris":{"android":"levelo://app?vid=cf49318e-b0f4-4cea-92f2-6aff2f4e5c78","ios":"levelo://app?vid=cf49318e-b0f4-4cea-92f2-6aff2f4e5c78"},"vehicle_type_id":"4","last_reported":1743192663,"current_range_meters":5600,"station_id":"ce4bhb12rcd13ifvqel0","pricing_plan_id":"cebpf4jnsgd1na2vs0mg"},{"bike_id":"0d6bcd4a-cc3e-45e8-b346-3c808caddca8","system_id":"levelo_inurba_marseille","lat":43.29776,"lon":5.39313,"is_reserved":false,"is_disabled":false,"rental_uris":{"android":"levelo://app?vid=0d6bcd4a-cc3e-45e8-b346-3c808caddca8","ios":"levelo://app?vid=0d6bcd4a-cc3e-45e8-b346-3c808caddca8"},"vehicle_type_id":"4","last_reported":1743192663,"current_range_meters":5600,"station_id":"chh1huq6cuj3fo74tm60","pricing_plan_id":"cebpf4jnsgd1na2vs0mg"},{"bike_id":"3e902ab3-ff20-4477-86ac-c45289de600e","system_id":"levelo_inurba_marseille","lat":43.32284,"lon":5.38329,"is_reserved":false,"is_disabled":false,"rental_uris":{"android":"levelo://app?vid=3e902ab3-ff20-4477-86ac-c45289de600e","ios":"levelo://app?vid=3e902ab3-ff20-4477-86ac-c45289de600e"},"vehicle_type_id":"4","last_reported":1743192663,"current_range_meters":6000,"station_id":"ce4bhr12rcd13ifvqhqg","pricing_plan_id":"cebpf4jnsgd1na2vs0mg"},{"bike_id":"d1d06c45-3e72-4ab3-bb24-5a06ae51f370","system_id":"levelo_inurba_marseille","lat":43.32285,"lon":5.38278,"is_reserved":false,"is_disabled":false,"rental_uris":{"android":"levelo://app?vid=d1d06c45-3e72-4ab3-bb24-5a06ae51f370","ios":"levelo://app?vid=d1d06c45-3e72-4ab3-bb24-5a06ae51f370"},"vehicle_type_id":"4","last_reported":1743192663,"current_range_meters":6000,"station_id":"ce4bhr12rcd13ifvqhqg","pricing_plan_id":"cebpf4jnsgd1na2vs0mg"},{"bike_id":"19221227-42ec-4f4b-8f04-42a0818e22f5","system_id":"levelo_inurba_marseille","lat":43.32107,"lon":5.36768,"is_reserved":false,"is_disabled":false,"rental_uris":{"android":"levelo://app?vid=19221227-42ec-4f4b-8f04-42a0818e22f5","ios":"levelo://app?vid=19221227-42ec-4f4b-8f04-42a0818e22f5"},"vehicle_type_id":"4","last_reported":1743192663,"current_range_meters":6000,"station_id":"ce4bhrh2rcd13ifvqhug","pricing_plan_id":"cebpf4jnsgd1na2vs0mg"},{"bike_id":"8306ff47-284b-460f-888b-6204683b7222","system_id":"levelo_inurba_marseille","lat":43.28727,"lon":5.36098,"is_reserved":false,"is_disabled":false,"rental_uris":{"android":"levelo://app?vid=8306ff47-284b-460f-888b-6204683b7222","ios":"levelo://app?vid=8306ff47-284b-460f-888b-6204683b7222"},"vehicle_type_id":"4","last_reported":1743192663,"current_range_meters":6000,"station_id":"cki0cbj6b192h4jlfktg","pricing_plan_id":"cebpf4jnsgd1na2vs0mg"},{"bike_id":"c74872dc-dc65-44a4-a73e-254461016d3a","system_id":"levelo_inurba_marseille","lat":43.28165,"lon":5.42442,"is_reserved":false,"is_disabled":false,"rental_uris":{"android":"levelo://app?vid=c74872dc-dc65-44a4-a73e-254461016d3a","ios":"levelo://app?vid=c74872dc-dc65-44a4-a73e-254461016d3a"},"vehicle_type_id":"4","last_reported":1743192663,"current_range_meters":6400,"station_id":"","pricing_plan_id":"cebpf4jnsgd1na2vs0mg"},{"bike_id":"05c19c64-cc46-42af-9a28-2e6ea7df66e1","system_id":"levelo_inurba_marseille","lat":43.29302,"lon":5.37169,"is_reserved":false,"is_disabled":false,"rental_uris":{"android":"levelo://app?vid=05c19c64-cc46-42af-9a28-2e6ea7df66e1","ios":"levelo://app?vid=05c19c64-cc46-42af-9a28-2e6ea7df66e1"},"vehicle_type_id":"4","last_reported":1743192663,"current_range_meters":6400,"station_id":"ce4bgh92rcd13ifvqb40","pricing_plan_id":"cebpf4jnsgd1na2vs0mg"},{"bike_id":"bda40fca-e0b2-43dd-bd3a-5030fcd9cb48","system_id":"levelo_inurba_marseille","lat":43.2991,"lon":5.38145,"is_reserved":false,"is_disabled":false,"rental_uris":{"android":"levelo://app?vid=bda40fca-e0b2-43dd-bd3a-5030fcd9cb48","ios":"levelo://app?vid=bda40fca-e0b2-43dd-bd3a-5030fcd9cb48"},"vehicle_type_id":"4","last_reported":1743192663,"current_range_meters":6400,"station_id":"ce4bgj12rcd13ifvqbc0","pricing_plan_id":"cebpf4jnsgd1na2vs0mg"},{"bike_id":"e56fc6d4-8a01-410c-8ca0-cf6f6516d20f","system_id":"levelo_inurba_marseille","lat":43.28942,"lon":5.39636,"is_reserved":false,"is_disabled":false,"rental_uris":{"android":"levelo://app?vid=e56fc6d4-8a01-410c-8ca0-cf6f6516d20f","ios":"levelo://app?vid=e56fc6d4-8a01-410c-8ca0-cf6f6516d20f"},"vehicle_type_id":"4","last_reported":1743192663,"current_range_meters":6400,"station_id":"ce4bh3h2rcd13ifvqdn0","pricing_plan_id":"cebpf4jnsgd1na2vs0mg"},{"bike_id":"d42bb67d-e5ee-4d54-84c8-14b9b8d0a140","system_id":"levelo_inurba_marseille","lat":43.2927,"lon":5.38435,"is_reserved":false,"is_disabled":false,"rental_uris":{"android":"levelo://app?vid=d42bb67d-e5ee-4d54-84c8-14b9b8d0a140","ios":"levelo://app?vid=d42bb67d-e5ee-4d54-84c8-14b9b8d0a140"},"vehicle_type_id":"4","last_reported":1743192663,"current_range_meters":6400,"station_id":"ce4bh692rcd13ifvqea0","pricing_plan_id":"cebpf4jnsgd1na2vs0mg"},{"bike_id":"67a1a2f2-eb76-40dd-b124-62581646fa46","system_id":"levelo_inurba_marseille","lat":43.28032,"lon":5.3695,"is_reserved":false,"is_disabled":false,"rental_uris":{"android":"levelo://app?vid=67a1a2f2-eb76-40dd-b124-62581646fa46","ios":"levelo://app?vid=67a1a2f2-eb76-40dd-b124-62581646fa46"},"vehicle_type_id":"4","last_reported":1743192663,"current_range_meters":6400,"station_id":"ce4bha12rcd13ifvqef0","pricing_plan_id":"cebpf4jnsgd1na2vs0mg"},{"bike_id":"653f4403-c5cd-4032-b5a8-482768e38f5f","system_id":"levelo_inurba_marseille","lat":43.23959,"lon":5.36625,"is_reserved":false,"is_disabled":false,"rental_uris":{"android":"levelo://app?vid=653f4403-c5cd-4032-b5a8-482768e38f5f","ios":"levelo://app?vid=653f4403-c5cd-4032-b5a8-482768e38f5f"},"vehicle_type_id":"4","last_reported":1743192663,"current_range_meters":6400,"station_id":"ce4bhi12rcd13ifvqfp0","pricing_plan_id":"cebpf4jnsgd1na2vs0mg"},{"bike_id":"6bafa499-8c44-454b-b224-e663939dbfed","system_id":"levelo_inurba_marseille","lat":43.27944,"lon":5.41047,"is_reserved":false,"is_disabled":false,"rental_uris":{"android":"levelo://app?vid=6bafa499-8c44-454b-b224-e663939dbfed","ios":"levelo://app?vid=6bafa499-8c44-454b-b224-e663939dbfed"},"vehicle_type_id":"4","last_reported":1743192663,"current_range_meters":6400,"station_id":"ce4bhnp2rcd13ifvqh0g","pricing_plan_id":"cebpf4jnsgd1na2vs0mg"},{"bike_id":"fd3421f3-9336-4d90-b616-c4936932ff9c","system_id":"levelo_inurba_marseille","lat":43.33036,"lon":5.39185,"is_reserved":false,"is_disabled":false,"rental_uris":{"android":"levelo://app?vid=fd3421f3-9336-4d90-b616-c4936932ff9c","ios":"levelo://app?vid=fd3421f3-9336-4d90-b616-c4936932ff9c"},"vehicle_type_id":"4","last_reported":1743192663,"current_range_meters":6800,"station_id":"","pricing_plan_id":"cebpf4jnsgd1na2vs0mg"},{"bike_id":"1cb0a525-92c8-41f8-b63f-7b8f1bf72f71","system_id":"levelo_inurba_marseille","lat":43.29907,"lon":5.38122,"is_reserved":false,"is_disabled":false,"rental_uris":{"android":"levelo://app?vid=1cb0a525-92c8-41f8-b63f-7b8f1bf72f71","ios":"levelo://app?vid=1cb0a525-92c8-41f8-b63f-7b8f1bf72f71"},"vehicle_type_id":"4","last_reported":1743192663,"current_range_meters":6800,"station_id":"ce4bgj12rcd13ifvqbc0","pricing_plan_id":"cebpf4jnsgd1na2vs0mg"},{"bike_id":"328e4e4d-c144-4de9-bdab-633e9bd1e568","system_id":"levelo_inurba_marseille","lat":43.29589,"lon":5.38091,"is_reserved":false,"is_disabled":false,"rental_uris":{"android":"levelo://app?vid=328e4e4d-c144-4de9-bdab-633e9bd1e568","ios":"levelo://app?vid=328e4e4d-c144-4de9-bdab-633e9bd1e568"},"vehicle_type_id":"4","last_reported":1743192663,"current_range_meters":6800,"station_id":"ce4bgl12rcd13ifvqbo0","pricing_plan_id":"cebpf4jnsgd1na2vs0mg"},{"bike_id":"3034b26f-dff0-4da1-ba74-c8ceeee5f46a","system_id":"levelo_inurba_marseille","lat":43.298442,"lon":5.362797,"is_reserved":false,"is_disabled":false,"rental_uris":{"android":"levelo://app?vid=3034b26f-dff0-4da1-ba74-c8ceeee5f46a","ios":"levelo://app?vid=3034b26f-dff0-4da1-ba74-c8ceeee5f46a"},"vehicle_type_id":"4","last_reported":1743192663,"current_range_meters":6800,"station_id":"ce4bgpp2rcd13ifvqc3g","pricing_plan_id":"cebpf4jnsgd1na2vs0mg"},{"bike_id":"ec940620-2a09-4eae-aace-1a0a72b62180","system_id":"levelo_inurba_marseille","lat":43.30284,"lon":5.40081,"is_reserved":false,"is_disabled":false,"rental_uris":{"android":"levelo://app?vid=ec940620-2a09-4eae-aace-1a0a72b62180","ios":"levelo://app?vid=ec940620-2a09-4eae-aace-1a0a72b62180"},"vehicle_type_id":"4","last_reported":1743192663,"current_range_meters":6800,"station_id":"ce4bgvh2rcd13ifvqcs0","pricing_plan_id":"cebpf4jnsgd1na2vs0mg"},{"bike_id":"2d7a6635-0543-46a3-94a0-962e607376b2","system_id":"levelo_inurba_marseille","lat":43.30139,"lon":5.39865,"is_reserved":false,"is_disabled":false,"rental_uris":{"android":"levelo://app?vid=2d7a6635-0543-46a3-94a0-962e607376b2","ios":"levelo://app?vid=2d7a6635-0543-46a3-94a0-962e607376b2"},"vehicle_type_id":"4","last_reported":1743192663,"current_range_meters":6800,"station_id":"ce4bh0h2rcd13ifvqd40","pricing_plan_id":"cebpf4jnsgd1na2vs0mg"},{"bike_id":"d63e2156-ac1b-4900-bb16-230df8a087b6","system_id":"levelo_inurba_marseille","lat":43.30093,"lon":5.39069,"is_reserved":false,"is_disabled":false,"rental_uris":{"android":"levelo://app?vid=d63e2156-ac1b-4900-bb16-230df8a087b6","ios":"levelo://app?vid=d63e2156-ac1b-4900-bb16-230df8a087b6"},"vehicle_type_id":"4","last_reported":1743192663,"current_range_meters":6800,"station_id":"ce4bh192rcd13ifvqdb0","pricing_plan_id":"cebpf4jnsgd1na2vs0mg"},{"bike_id":"637381b6-9a30-466b-9208-22bc7b0d414d","system_id":"levelo_inurba_marseille","lat":43.29421,"lon":5.3863,"is_reserved":false,"is_disabled":false,"rental_uris":{"android":"levelo://app?vid=637381b6-9a30-466b-9208-22bc7b0d414d","ios":"levelo://app?vid=637381b6-9a30-466b-9208-22bc7b0d414d"},"vehicle_type_id":"4","last_reported":1743192663,"current_range_meters":6800,"station_id":"ce4bh2h2rcd13ifvqdh0","pricing_plan_id":"cebpf4jnsgd1na2vs0mg"},{"bike_id":"7c1ef1ce-52f0-4a07-b1f7-781b10fa8817","system_id":"levelo_inurba_marseille","lat":43.298767,"lon":5.389032,"is_reserved":false,"is_disabled":false,"rental_uris":{"android":"levelo://app?vid=7c1ef1ce-52f0-4a07-b1f7-781b10fa8817","ios":"levelo://app?vid=7c1ef1ce-52f0-4a07-b1f7-781b10fa8817"},"vehicle_type_id":"4","last_reported":1743192663,"current_range_meters":6800,"station_id":"ce4bh392rcd13ifvqdl0","pricing_plan_id":"cebpf4jnsgd1na2vs0mg"},{"bike_id":"c74a2dc2-aa31-4c6d-ada8-0d28ee6aedb4","system_id":"levelo_inurba_marseille","lat":43.2842,"lon":5.34984,"is_reserved":false,"is_disabled":false,"rental_uris":{"android":"levelo://app?vid=c74a2dc2-aa31-4c6d-ada8-0d28ee6aedb4","ios":"levelo://app?vid=c74a2dc2-aa31-4c6d-ada8-0d28ee6aedb4"},"vehicle_type_id":"4","last_reported":1743192663,"current_range_meters":6800,"station_id":"ce4bhbh2rcd13ifvqepg","pricing_plan_id":"cebpf4jnsgd1na2vs0mg"},{"bike_id":"da3eb438-3d64-4408-a000-004cd5b861d5","system_id":"levelo_inurba_marseille","lat":43.27489,"lon":5.42458,"is_reserved":false,"is_disabled":false,"rental_uris":{"android":"levelo://app?vid=da3eb438-3d64-4408-a000-004cd5b861d5","ios":"levelo://app?vid=da3eb438-3d64-4408-a000-004cd5b861d5"},"vehicle_type_id":"4","last_reported":1743192663,"current_range_meters":6800,"station_id":"ce4bhn92rcd13ifvqgrg","pricing_plan_id":"cebpf4jnsgd1na2vs0mg"},{"bike_id":"7800b143-6001-41ab-9506-09d69b7b315d","system_id":"levelo_inurba_marseille","lat":43.28157,"lon":5.42645,"is_reserved":false,"is_disabled":false,"rental_uris":{"android":"levelo://app?vid=7800b143-6001-41ab-9506-09d69b7b315d","ios":"levelo://app?vid=7800b143-6001-41ab-9506-09d69b7b315d"},"vehicle_type_id":"4","last_reported":1743192663,"current_range_meters":6800,"station_id":"ce4bhnh2rcd13ifvqgug","pricing_plan_id":"cebpf4jnsgd1na2vs0mg"},{"bike_id":"0ac88cdf-dd3a-494f-aaa5-2b24d1ce393f","system_id":"levelo_inurba_marseille","lat":43.2319,"lon":5.35555,"is_reserved":false,"is_disabled":false,"rental_uris":{"android":"levelo://app?vid=0ac88cdf-dd3a-494f-aaa5-2b24d1ce393f","ios":"levelo://app?vid=0ac88cdf-dd3a-494f-aaa5-2b24d1ce393f"},"vehicle_type_id":"4","last_reported":1743192663,"current_range_meters":6800,"station_id":"ce4bhu92rcd13ifvqi70","pricing_plan_id":"cebpf4jnsgd1na2vs0mg"},{"bike_id":"30c561f5-e806-4a3b-a487-d86b1107eb2a","system_id":"levelo_inurba_marseille","lat":43.29292,"lon":5.37458,"is_reserved":false,"is_disabled":false,"rental_uris":{"android":"levelo://app?vid=30c561f5-e806-4a3b-a487-d86b1107eb2a","ios":"levelo://app?vid=30c561f5-e806-4a3b-a487-d86b1107eb2a"},"vehicle_type_id":"4","last_reported":1743192663,"current_range_meters":7200,"station_id":"ce4bgi12rcd13ifvqb70","pricing_plan_id":"cebpf4jnsgd1na2vs0mg"},{"bike_id":"68fd5281-5560-4e95-928d-8ca254af7c8c","system_id":"levelo_inurba_marseille","lat":43.29846,"lon":5.36275,"is_reserved":false,"is_disabled":false,"rental_uris":{"android":"levelo://app?vid=68fd5281-5560-4e95-928d-8ca254af7c8c","ios":"levelo://app?vid=68fd5281-5560-4e95-928d-8ca254af7c8c"},"vehicle_type_id":"4","last_reported":1743192663,"current_range_meters":7200,"station_id":"ce4bgpp2rcd13ifvqc3g","pricing_plan_id":"cebpf4jnsgd1na2vs0mg"},{"bike_id":"0f9862fa-3aea-4a9f-b2bf-c003735a4d06","system_id":"levelo_inurba_marseille","lat":43.29037,"lon":5.38656,"is_reserved":false,"is_disabled":false,"rental_uris":{"android":"levelo://app?vid=0f9862fa-3aea-4a9f-b2bf-c003735a4d06","ios":"levelo://app?vid=0f9862fa-3aea-4a9f-b2bf-c003735a4d06"},"vehicle_type_id":"4","last_reported":1743192663,"current_range_meters":7200,"station_id":"ce4bh4p2rcd13ifvqe0g","pricing_plan_id":"cebpf4jnsgd1na2vs0mg"},{"bike_id":"efec2e4f-7291-4336-a1f2-33d2f7cba36f","system_id":"levelo_inurba_marseille","lat":43.29269,"lon":5.38442,"is_reserved":false,"is_disabled":false,"rental_uris":{"android":"levelo://app?vid=efec2e4f-7291-4336-a1f2-33d2f7cba36f","ios":"levelo://app?vid=efec2e4f-7291-4336-a1f2-33d2f7cba36f"},"vehicle_type_id":"4","last_reported":1743192663,"current_range_meters":7200,"station_id":"ce4bh692rcd13ifvqea0","pricing_plan_id":"cebpf4jnsgd1na2vs0mg"},{"bike_id":"0dd576f4-2e6b-4da4-b288-35feebf8c995","system_id":"levelo_inurba_marseille","lat":43.273748,"lon":5.362614,"is_reserved":false,"is_disabled":false,"rental_uris":{"android":"levelo://app?vid=0dd576f4-2e6b-4da4-b288-35feebf8c995","ios":"levelo://app?vid=0dd576f4-2e6b-4da4-b288-35feebf8c995"},"vehicle_type_id":"4","last_reported":1743192663,"current_range_meters":7200,"station_id":"ce4bhbh2rcd13ifvqeo0","pricing_plan_id":"cebpf4jnsgd1na2vs0mg"},{"bike_id":"d0c2ba62-325f-42ee-b4c5-fe6707aa69d7","system_id":"levelo_inurba_marseille","lat":43.24818,"lon":5.37449,"is_reserved":false,"is_disabled":false,"rental_uris":{"android":"levelo://app?vid=d0c2ba62-325f-42ee-b4c5-fe6707aa69d7","ios":"levelo://app?vid=d0c2ba62-325f-42ee-b4c5-fe6707aa69d7"},"vehicle_type_id":"4","last_reported":1743192663,"current_range_meters":7200,"station_id":"ce4bhgh2rcd13ifvqfb0","pricing_plan_id":"cebpf4jnsgd1na2vs0mg"},{"bike_id":"6026f9b7-25ae-4d64-8648-76338e9b1c4c","system_id":"levelo_inurba_marseille","lat":43.32358,"lon":5.3888,"is_reserved":false,"is_disabled":false,"rental_uris":{"android":"levelo://app?vid=6026f9b7-25ae-4d64-8648-76338e9b1c4c","ios":"levelo://app?vid=6026f9b7-25ae-4d64-8648-76338e9b1c4c"},"vehicle_type_id":"4","last_reported":1743192663,"current_range_meters":7200,"station_id":"ce4bhqp2rcd13ifvqhog","pricing_plan_id":"cebpf4jnsgd1na2vs0mg"},{"bike_id":"b2fd8e70-5b37-4865-bf49-d30da2481695","system_id":"levelo_inurba_marseille","lat":43.23195,"lon":5.3556,"is_reserved":false,"is_disabled":false,"rental_uris":{"android":"levelo://app?vid=b2fd8e70-5b37-4865-bf49-d30da2481695","ios":"levelo://app?vid=b2fd8e70-5b37-4865-bf49-d30da2481695"},"vehicle_type_id":"4","last_reported":1743192663,"current_range_meters":7200,"station_id":"ce4bhu92rcd13ifvqi70","pricing_plan_id":"cebpf4jnsgd1na2vs0mg"},{"bike_id":"961245ca-8d90-4d71-b735-61afea929100","system_id":"levelo_inurba_marseille","lat":43.24163,"lon":5.36402,"is_reserved":false,"is_disabled":false,"rental_uris":{"android":"levelo://app?vid=961245ca-8d90-4d71-b735-61afea929100","ios":"levelo://app?vid=961245ca-8d90-4d71-b735-61afea929100"},"vehicle_type_id":"4","last_reported":1743192663,"current_range_meters":7200,"station_id":"cpo36qri1sfpv3e86is0","pricing_plan_id":"cebpf4jnsgd1na2vs0mg"},{"bike_id":"d9540813-5ede-493e-8b83-9a1f29b1c5e2","system_id":"levelo_inurba_marseille","lat":43.29844,"lon":5.36278,"is_reserved":false,"is_disabled":false,"rental_uris":{"android":"levelo://app?vid=d9540813-5ede-493e-8b83-9a1f29b1c5e2","ios":"levelo://app?vid=d9540813-5ede-493e-8b83-9a1f29b1c5e2"},"vehicle_type_id":"4","last_reported":1743192663,"current_range_meters":8000,"station_id":"ce4bgpp2rcd13ifvqc3g","pricing_plan_id":"cebpf4jnsgd1na2vs0mg"},{"bike_id":"90f3d319-5c7b-4e00-ad82-4bf379d19cb3","system_id":"levelo_inurba_marseille","lat":43.29843,"lon":5.36282,"is_reserved":false,"is_disabled":false,"rental_uris":{"android":"levelo://app?vid=90f3d319-5c7b-4e00-ad82-4bf379d19cb3","ios":"levelo://app?vid=90f3d319-5c7b-4e00-ad82-4bf379d19cb3"},"vehicle_type_id":"4","last_reported":1743192663,"current_range_meters":8000,"station_id":"ce4bgpp2rcd13ifvqc3g","pricing_plan_id":"cebpf4jnsgd1na2vs0mg"},{"bike_id":"7cf1ab86-6627-40ea-9381-242fc247eae5","system_id":"levelo_inurba_marseille","lat":43.28629,"lon":5.35087,"is_reserved":false,"is_disabled":false,"rental_uris":{"android":"levelo://app?vid=7cf1ab86-6627-40ea-9381-242fc247eae5","ios":"levelo://app?vid=7cf1ab86-6627-40ea-9381-242fc247eae5"},"vehicle_type_id":"4","last_reported":1743192663,"current_range_meters":8000,"station_id":"ce4bhch2rcd13ifvqeug","pricing_plan_id":"cebpf4jnsgd1na2vs0mg"},{"bike_id":"fbf23545-878e-46e0-b77f-1457e0849656","system_id":"levelo_inurba_marseille","lat":43.28607,"lon":5.35099,"is_reserved":false,"is_disabled":false,"rental_uris":{"android":"levelo://app?vid=fbf23545-878e-46e0-b77f-1457e0849656","ios":"levelo://app?vid=fbf23545-878e-46e0-b77f-1457e0849656"},"vehicle_type_id":"4","last_reported":1743192663,"current_range_meters":8000,"station_id":"ce4bhch2rcd13ifvqeug","pricing_plan_id":"cebpf4jnsgd1na2vs0mg"},{"bike_id":"fd134268-1499-401e-bb83-137ea2b7a695","system_id":"levelo_inurba_marseille","lat":43.23967,"lon":5.36635,"is_reserved":false,"is_disabled":false,"rental_uris":{"android":"levelo://app?vid=fd134268-1499-401e-bb83-137ea2b7a695","ios":"levelo://app?vid=fd134268-1499-401e-bb83-137ea2b7a695"},"vehicle_type_id":"4","last_reported":1743192663,"current_range_meters":8000,"station_id":"ce4bhi12rcd13ifvqfp0","pricing_plan_id":"cebpf4jnsgd1na2vs0mg"},{"bike_id":"422a75c2-467f-4b23-9c54-3e84a1bf2eb6","system_id":"levelo_inurba_marseille","lat":43.33023,"lon":5.39045,"is_reserved":false,"is_disabled":false,"rental_uris":{"android":"levelo://app?vid=422a75c2-467f-4b23-9c54-3e84a1bf2eb6","ios":"levelo://app?vid=422a75c2-467f-4b23-9c54-3e84a1bf2eb6"},"vehicle_type_id":"4","last_reported":1743192663,"current_range_meters":8000,"station_id":"ce4bhr92rcd13ifvqhrg","pricing_plan_id":"cebpf4jnsgd1na2vs0mg"},{"bike_id":"813634ed-e21d-4b9e-88e8-aa8b87581eb3","system_id":"levelo_inurba_marseille","lat":43.32115,"lon":5.36774,"is_reserved":false,"is_disabled":false,"rental_uris":{"android":"levelo://app?vid=813634ed-e21d-4b9e-88e8-aa8b87581eb3","ios":"levelo://app?vid=813634ed-e21d-4b9e-88e8-aa8b87581eb3"},"vehicle_type_id":"4","last_reported":1743192663,"current_range_meters":8000,"station_id":"ce4bhrh2rcd13ifvqhug","pricing_plan_id":"cebpf4jnsgd1na2vs0mg"},{"bike_id":"72306c25-607d-47ff-961d-9623d9041085","system_id":"levelo_inurba_marseille","lat":43.29805,"lon":5.38081,"is_reserved":false,"is_disabled":false,"rental_uris":{"android":"levelo://app?vid=72306c25-607d-47ff-961d-9623d9041085","ios":"levelo://app?vid=72306c25-607d-47ff-961d-9623d9041085"},"vehicle_type_id":"4","last_reported":1743192663,"current_range_meters":8400,"station_id":"ce4bgip2rcd13ifvqbb0","pricing_plan_id":"cebpf4jnsgd1na2vs0mg"},{"bike_id":"2575a33d-db9b-4fea-8da3-eff25d16ccff","system_id":"levelo_inurba_marseille","lat":43.30245,"lon":5.4005,"is_reserved":false,"is_disabled":false,"rental_uris":{"android":"levelo://app?vid=2575a33d-db9b-4fea-8da3-eff25d16ccff","ios":"levelo://app?vid=2575a33d-db9b-4fea-8da3-eff25d16ccff"},"vehicle_type_id":"4","last_reported":1743192663,"current_range_meters":8400,"station_id":"ce4bgvh2rcd13ifvqcs0","pricing_plan_id":"cebpf4jnsgd1na2vs0mg"},{"bike_id":"89208f21-4a3a-4714-b849-92ace6610d17","system_id":"levelo_inurba_marseille","lat":43.29018,"lon":5.38648,"is_reserved":false,"is_disabled":false,"rental_uris":{"android":"levelo://app?vid=89208f21-4a3a-4714-b849-92ace6610d17","ios":"levelo://app?vid=89208f21-4a3a-4714-b849-92ace6610d17"},"vehicle_type_id":"4","last_reported":1743192663,"current_range_meters":8400,"station_id":"ce4bh4p2rcd13ifvqe0g","pricing_plan_id":"cebpf4jnsgd1na2vs0mg"},{"bike_id":"e9af4250-7582-4b4f-b8b5-e79f038710ab","system_id":"levelo_inurba_marseille","lat":43.29256,"lon":5.3844,"is_reserved":false,"is_disabled":false,"rental_uris":{"android":"levelo://app?vid=e9af4250-7582-4b4f-b8b5-e79f038710ab","ios":"levelo://app?vid=e9af4250-7582-4b4f-b8b5-e79f038710ab"},"vehicle_type_id":"4","last_reported":1743192663,"current_range_meters":8400,"station_id":"ce4bh692rcd13ifvqea0","pricing_plan_id":"cebpf4jnsgd1na2vs0mg"},{"bike_id":"df6ce8dc-4123-4a4d-87e0-ef07c773a6c7","system_id":"levelo_inurba_marseille","lat":43.29226,"lon":5.36056,"is_reserved":false,"is_disabled":false,"rental_uris":{"android":"levelo://app?vid=df6ce8dc-4123-4a4d-87e0-ef07c773a6c7","ios":"levelo://app?vid=df6ce8dc-4123-4a4d-87e0-ef07c773a6c7"},"vehicle_type_id":"4","last_reported":1743192663,"current_range_meters":8400,"station_id":"ce4bhbh2rcd13ifvqeqg","pricing_plan_id":"cebpf4jnsgd1na2vs0mg"},{"bike_id":"fb9b5d83-e13d-407b-b838-22cd645caa9b","system_id":"levelo_inurba_marseille","lat":43.28628,"lon":5.35104,"is_reserved":false,"is_disabled":false,"rental_uris":{"android":"levelo://app?vid=fb9b5d83-e13d-407b-b838-22cd645caa9b","ios":"levelo://app?vid=fb9b5d83-e13d-407b-b838-22cd645caa9b"},"vehicle_type_id":"4","last_reported":1743192663,"current_range_meters":8400,"station_id":"ce4bhch2rcd13ifvqeug","pricing_plan_id":"cebpf4jnsgd1na2vs0mg"},{"bike_id":"6a5faf51-2bec-4782-8a8f-e039ed407c9b","system_id":"levelo_inurba_marseille","lat":43.25085,"lon":5.39529,"is_reserved":false,"is_disabled":false,"rental_uris":{"android":"levelo://app?vid=6a5faf51-2bec-4782-8a8f-e039ed407c9b","ios":"levelo://app?vid=6a5faf51-2bec-4782-8a8f-e039ed407c9b"},"vehicle_type_id":"4","last_reported":1743192663,"current_range_meters":8400,"station_id":"ce4bhm12rcd13ifvqgkg","pricing_plan_id":"cebpf4jnsgd1na2vs0mg"},{"bike_id":"2e919ca5-ce98-4c47-a9d7-66e6ab7584e4","system_id":"levelo_inurba_marseille","lat":43.3211,"lon":5.36774,"is_reserved":false,"is_disabled":false,"rental_uris":{"android":"levelo://app?vid=2e919ca5-ce98-4c47-a9d7-66e6ab7584e4","ios":"levelo://app?vid=2e919ca5-ce98-4c47-a9d7-66e6ab7584e4"},"vehicle_type_id":"4","last_reported":1743192663,"current_range_meters":8400,"station_id":"ce4bhrh2rcd13ifvqhug","pricing_plan_id":"cebpf4jnsgd1na2vs0mg"},{"bike_id":"e81ca1f3-1e85-406c-b9aa-ecf6e69b906d","system_id":"levelo_inurba_marseille","lat":43.28607,"lon":5.37066,"is_reserved":false,"is_disabled":false,"rental_uris":{"android":"levelo://app?vid=e81ca1f3-1e85-406c-b9aa-ecf6e69b906d","ios":"levelo://app?vid=e81ca1f3-1e85-406c-b9aa-ecf6e69b906d"},"vehicle_type_id":"4","last_reported":1743192663,"current_range_meters":8400,"station_id":"ce4bht12rcd13ifvqi60","pricing_plan_id":"cebpf4jnsgd1na2vs0mg"},{"bike_id":"a3514274-c949-4c91-b768-3857fda27d00","system_id":"levelo_inurba_marseille","lat":43.28624,"lon":5.3706,"is_reserved":false,"is_disabled":false,"rental_uris":{"android":"levelo://app?vid=a3514274-c949-4c91-b768-3857fda27d00","ios":"levelo://app?vid=a3514274-c949-4c91-b768-3857fda27d00"},"vehicle_type_id":"4","last_reported":1743192663,"current_range_meters":8400,"station_id":"ce4bht12rcd13ifvqi60","pricing_plan_id":"cebpf4jnsgd1na2vs0mg"},{"bike_id":"861ae205-c318-4688-ac53-947993e1b65f","system_id":"levelo_inurba_marseille","lat":43.24155,"lon":5.36411,"is_reserved":false,"is_disabled":false,"rental_uris":{"android":"levelo://app?vid=861ae205-c318-4688-ac53-947993e1b65f","ios":"levelo://app?vid=861ae205-c318-4688-ac53-947993e1b65f"},"vehicle_type_id":"4","last_reported":1743192663,"current_range_meters":8400,"station_id":"cpo36qri1sfpv3e86is0","pricing_plan_id":"cebpf4jnsgd1na2vs0mg"},{"bike_id":"753631d8-bdcd-4ee5-81cb-24997a92d4eb","system_id":"levelo_inurba_marseille","lat":43.29845,"lon":5.36275,"is_reserved":false,"is_disabled":false,"rental_uris":{"android":"levelo://app?vid=753631d8-bdcd-4ee5-81cb-24997a92d4eb","ios":"levelo://app?vid=753631d8-bdcd-4ee5-81cb-24997a92d4eb"},"vehicle_type_id":"4","last_reported":1743192663,"current_range_meters":8800,"station_id":"ce4bgpp2rcd13ifvqc3g","pricing_plan_id":"cebpf4jnsgd1na2vs0mg"},{"bike_id":"c527e224-a9b8-44ca-9995-b4eac024e1b6","system_id":"levelo_inurba_marseille","lat":43.29847,"lon":5.36286,"is_reserved":false,"is_disabled":false,"rental_uris":{"android":"levelo://app?vid=c527e224-a9b8-44ca-9995-b4eac024e1b6","ios":"levelo://app?vid=c527e224-a9b8-44ca-9995-b4eac024e1b6"},"vehicle_type_id":"4","last_reported":1743192663,"current_range_meters":8800,"station_id":"ce4bgpp2rcd13ifvqc3g","pricing_plan_id":"cebpf4jnsgd1na2vs0mg"},{"bike_id":"0f2f6ea1-7363-466e-9121-0246b2fdd337","system_id":"levelo_inurba_marseille","lat":43.31078,"lon":5.38354,"is_reserved":false,"is_disabled":false,"rental_uris":{"android":"levelo://app?vid=0f2f6ea1-7363-466e-9121-0246b2fdd337","ios":"levelo://app?vid=0f2f6ea1-7363-466e-9121-0246b2fdd337"},"vehicle_type_id":"4","last_reported":1743192663,"current_range_meters":8800,"station_id":"ce4bgv92rcd13ifvqcr0","pricing_plan_id":"cebpf4jnsgd1na2vs0mg"},{"bike_id":"8489e4b8-7251-466a-98ef-b6dcd82094be","system_id":"levelo_inurba_marseille","lat":43.29421,"lon":5.38623,"is_reserved":false,"is_disabled":false,"rental_uris":{"android":"levelo://app?vid=8489e4b8-7251-466a-98ef-b6dcd82094be","ios":"levelo://app?vid=8489e4b8-7251-466a-98ef-b6dcd82094be"},"vehicle_type_id":"4","last_reported":1743192663,"current_range_meters":8800,"station_id":"ce4bh2h2rcd13ifvqdh0","pricing_plan_id":"cebpf4jnsgd1na2vs0mg"},{"bike_id":"6db825b4-8be2-4bda-b96c-822e345da3bb","system_id":"levelo_inurba_marseille","lat":43.29024,"lon":5.38641,"is_reserved":false,"is_disabled":false,"rental_uris":{"android":"levelo://app?vid=6db825b4-8be2-4bda-b96c-822e345da3bb","ios":"levelo://app?vid=6db825b4-8be2-4bda-b96c-822e345da3bb"},"vehicle_type_id":"4","last_reported":1743192663,"current_range_meters":8800,"station_id":"ce4bh4p2rcd13ifvqe0g","pricing_plan_id":"cebpf4jnsgd1na2vs0mg"},{"bike_id":"f0e27e89-7189-48e7-8fa7-1c5343d181a6","system_id":"levelo_inurba_marseille","lat":43.29261,"lon":5.38431,"is_reserved":false,"is_disabled":false,"rental_uris":{"android":"levelo://app?vid=f0e27e89-7189-48e7-8fa7-1c5343d181a6","ios":"levelo://app?vid=f0e27e89-7189-48e7-8fa7-1c5343d181a6"},"vehicle_type_id":"4","last_reported":1743192663,"current_range_meters":8800,"station_id":"ce4bh692rcd13ifvqea0","pricing_plan_id":"cebpf4jnsgd1na2vs0mg"},{"bike_id":"424417c8-67c1-4c27-bf29-2d271899c7c0","system_id":"levelo_inurba_marseille","lat":43.29267,"lon":5.38448,"is_reserved":false,"is_disabled":false,"rental_uris":{"android":"levelo://app?vid=424417c8-67c1-4c27-bf29-2d271899c7c0","ios":"levelo://app?vid=424417c8-67c1-4c27-bf29-2d271899c7c0"},"vehicle_type_id":"4","last_reported":1743192663,"current_range_meters":8800,"station_id":"ce4bh692rcd13ifvqea0","pricing_plan_id":"cebpf4jnsgd1na2vs0mg"},{"bike_id":"9ee402e7-1a17-4a4f-8096-bc833bafbd6b","system_id":"levelo_inurba_marseille","lat":43.28933,"lon":5.36638,"is_reserved":false,"is_disabled":false,"rental_uris":{"android":"levelo://app?vid=9ee402e7-1a17-4a4f-8096-bc833bafbd6b","ios":"levelo://app?vid=9ee402e7-1a17-4a4f-8096-bc833bafbd6b"},"vehicle_type_id":"4","last_reported":1743192663,"current_range_meters":8800,"station_id":"ce4bhap2rcd13ifvqek0","pricing_plan_id":"cebpf4jnsgd1na2vs0mg"},{"bike_id":"8915cea1-4fbc-4246-af3f-c16cc934b731","system_id":"levelo_inurba_marseille","lat":43.2893,"lon":5.36628,"is_reserved":false,"is_disabled":false,"rental_uris":{"android":"levelo://app?vid=8915cea1-4fbc-4246-af3f-c16cc934b731","ios":"levelo://app?vid=8915cea1-4fbc-4246-af3f-c16cc934b731"},"vehicle_type_id":"4","last_reported":1743192663,"current_range_meters":8800,"station_id":"ce4bhap2rcd13ifvqek0","pricing_plan_id":"cebpf4jnsgd1na2vs0mg"},{"bike_id":"56a72db2-99df-4092-9a02-605add4f9600","system_id":"levelo_inurba_marseille","lat":43.28855,"lon":5.35854,"is_reserved":false,"is_disabled":false,"rental_uris":{"android":"levelo://app?vid=56a72db2-99df-4092-9a02-605add4f9600","ios":"levelo://app?vid=56a72db2-99df-4092-9a02-605add4f9600"},"vehicle_type_id":"4","last_reported":1743192663,"current_range_meters":8800,"station_id":"ce4bhb12rcd13ifvqem0","pricing_plan_id":"cebpf4jnsgd1na2vs0mg"},{"bike_id":"cd380cdd-753d-4062-9634-b246a5e93ebc","system_id":"levelo_inurba_marseille","lat":43.29234,"lon":5.36052,"is_reserved":false,"is_disabled":false,"rental_uris":{"android":"levelo://app?vid=cd380cdd-753d-4062-9634-b246a5e93ebc","ios":"levelo://app?vid=cd380cdd-753d-4062-9634-b246a5e93ebc"},"vehicle_type_id":"4","last_reported":1743192663,"current_range_meters":8800,"station_id":"ce4bhbh2rcd13ifvqeqg","pricing_plan_id":"cebpf4jnsgd1na2vs0mg"},{"bike_id":"c6b682a7-e903-4363-967f-d69957e8f7ed","system_id":"levelo_inurba_marseille","lat":43.28617,"lon":5.35125,"is_reserved":false,"is_disabled":false,"rental_uris":{"android":"levelo://app?vid=c6b682a7-e903-4363-967f-d69957e8f7ed","ios":"levelo://app?vid=c6b682a7-e903-4363-967f-d69957e8f7ed"},"vehicle_type_id":"4","last_reported":1743192663,"current_range_meters":8800,"station_id":"ce4bhch2rcd13ifvqeug","pricing_plan_id":"cebpf4jnsgd1na2vs0mg"},{"bike_id":"c1d0feef-0e32-4668-aeb9-ddda8d5056dd","system_id":"levelo_inurba_marseille","lat":43.27995,"lon":5.40023,"is_reserved":false,"is_disabled":false,"rental_uris":{"android":"levelo://app?vid=c1d0feef-0e32-4668-aeb9-ddda8d5056dd","ios":"levelo://app?vid=c1d0feef-0e32-4668-aeb9-ddda8d5056dd"},"vehicle_type_id":"4","last_reported":1743192663,"current_range_meters":8800,"station_id":"ce4bho92rcd13ifvqh4g","pricing_plan_id":"cebpf4jnsgd1na2vs0mg"},{"bike_id":"1c14bf9c-ada4-4a36-8853-740a1a2c000a","system_id":"levelo_inurba_marseille","lat":43.23184,"lon":5.35568,"is_reserved":false,"is_disabled":false,"rental_uris":{"android":"levelo://app?vid=1c14bf9c-ada4-4a36-8853-740a1a2c000a","ios":"levelo://app?vid=1c14bf9c-ada4-4a36-8853-740a1a2c000a"},"vehicle_type_id":"4","last_reported":1743192663,"current_range_meters":8800,"station_id":"ce4bhu92rcd13ifvqi70","pricing_plan_id":"cebpf4jnsgd1na2vs0mg"},{"bike_id":"3a62358d-acc7-4d29-8480-8115ff151fbd","system_id":"levelo_inurba_marseille","lat":43.27617,"lon":5.36115,"is_reserved":false,"is_disabled":false,"rental_uris":{"android":"levelo://app?vid=3a62358d-acc7-4d29-8480-8115ff151fbd","ios":"levelo://app?vid=3a62358d-acc7-4d29-8480-8115ff151fbd"},"vehicle_type_id":"4","last_reported":1743192663,"current_range_meters":9200,"station_id":"ce4bgj92rcd13ifvqbe0","pricing_plan_id":"cebpf4jnsgd1na2vs0mg"},{"bike_id":"7120f45a-dd67-4197-bf90-c4b3d554bf25","system_id":"levelo_inurba_marseille","lat":43.29249,"lon":5.3842,"is_reserved":false,"is_disabled":false,"rental_uris":{"android":"levelo://app?vid=7120f45a-dd67-4197-bf90-c4b3d554bf25","ios":"levelo://app?vid=7120f45a-dd67-4197-bf90-c4b3d554bf25"},"vehicle_type_id":"4","last_reported":1743192663,"current_range_meters":9200,"station_id":"ce4bh692rcd13ifvqea0","pricing_plan_id":"cebpf4jnsgd1na2vs0mg"},{"bike_id":"70cb17f5-cdf1-47fa-b901-00068bb5e719","system_id":"levelo_inurba_marseille","lat":43.29251,"lon":5.38429,"is_reserved":false,"is_disabled":false,"rental_uris":{"android":"levelo://app?vid=70cb17f5-cdf1-47fa-b901-00068bb5e719","ios":"levelo://app?vid=70cb17f5-cdf1-47fa-b901-00068bb5e719"},"vehicle_type_id":"4","last_reported":1743192663,"current_range_meters":9200,"station_id":"ce4bh692rcd13ifvqea0","pricing_plan_id":"cebpf4jnsgd1na2vs0mg"},{"bike_id":"7d0cff64-3ce4-4e4d-acda-987ba42cb48a","system_id":"levelo_inurba_marseille","lat":43.28267,"lon":5.35085,"is_reserved":false,"is_disabled":false,"rental_uris":{"android":"levelo://app?vid=7d0cff64-3ce4-4e4d-acda-987ba42cb48a","ios":"levelo://app?vid=7d0cff64-3ce4-4e4d-acda-987ba42cb48a"},"vehicle_type_id":"4","last_reported":1743192663,"current_range_meters":9200,"station_id":"ce4bhbp2rcd13ifvqerg","pricing_plan_id":"cebpf4jnsgd1na2vs0mg"},{"bike_id":"90df0f14-f996-423e-b605-53c2c708242e","system_id":"levelo_inurba_marseille","lat":43.31735,"lon":5.40473,"is_reserved":false,"is_disabled":false,"rental_uris":{"android":"levelo://app?vid=90df0f14-f996-423e-b605-53c2c708242e","ios":"levelo://app?vid=90df0f14-f996-423e-b605-53c2c708242e"},"vehicle_type_id":"4","last_reported":1743192663,"current_range_meters":9600,"station_id":"","pricing_plan_id":"cebpf4jnsgd1na2vs0mg"},{"bike_id":"e532a8a1-6482-49f6-b903-ffb6aba6dc76","system_id":"levelo_inurba_marseille","lat":43.29804,"lon":5.38093,"is_reserved":false,"is_disabled":false,"rental_uris":{"android":"levelo://app?vid=e532a8a1-6482-49f6-b903-ffb6aba6dc76","ios":"levelo://app?vid=e532a8a1-6482-49f6-b903-ffb6aba6dc76"},"vehicle_type_id":"4","last_reported":1743192663,"current_range_meters":9600,"station_id":"ce4bgip2rcd13ifvqbb0","pricing_plan_id":"cebpf4jnsgd1na2vs0mg"},{"bike_id":"a52bf551-957a-4bdf-b437-1b0027c2f52f","system_id":"levelo_inurba_marseille","lat":43.3079,"lon":5.38154,"is_reserved":false,"is_disabled":false,"rental_uris":{"android":"levelo://app?vid=a52bf551-957a-4bdf-b437-1b0027c2f52f","ios":"levelo://app?vid=a52bf551-957a-4bdf-b437-1b0027c2f52f"},"vehicle_type_id":"4","last_reported":1743192663,"current_range_meters":9600,"station_id":"ce4bgt12rcd13ifvqce0","pricing_plan_id":"cebpf4jnsgd1na2vs0mg"},{"bike_id":"f4ff9ebe-1d2f-4117-b6b1-96722b12e2e8","system_id":"levelo_inurba_marseille","lat":43.29274,"lon":5.38425,"is_reserved":false,"is_disabled":false,"rental_uris":{"android":"levelo://app?vid=f4ff9ebe-1d2f-4117-b6b1-96722b12e2e8","ios":"levelo://app?vid=f4ff9ebe-1d2f-4117-b6b1-96722b12e2e8"},"vehicle_type_id":"4","last_reported":1743192663,"current_range_meters":9600,"station_id":"ce4bh692rcd13ifvqea0","pricing_plan_id":"cebpf4jnsgd1na2vs0mg"},{"bike_id":"cd33a25c-6d5d-458c-b963-f07a263b824c","system_id":"levelo_inurba_marseille","lat":43.25118,"lon":5.40316,"is_reserved":false,"is_disabled":false,"rental_uris":{"android":"levelo://app?vid=cd33a25c-6d5d-458c-b963-f07a263b824c","ios":"levelo://app?vid=cd33a25c-6d5d-458c-b963-f07a263b824c"},"vehicle_type_id":"4","last_reported":1743192663,"current_range_meters":9600,"station_id":"ce4bhlh2rcd13ifvqgig","pricing_plan_id":"cebpf4jnsgd1na2vs0mg"},{"bike_id":"3aef662d-5d7c-4327-bb36-18903bc0eda6","system_id":"levelo_inurba_marseille","lat":43.28156,"lon":5.42655,"is_reserved":false,"is_disabled":false,"rental_uris":{"android":"levelo://app?vid=3aef662d-5d7c-4327-bb36-18903bc0eda6","ios":"levelo://app?vid=3aef662d-5d7c-4327-bb36-18903bc0eda6"},"vehicle_type_id":"4","last_reported":1743192663,"current_range_meters":9600,"station_id":"ce4bhnh2rcd13ifvqgug","pricing_plan_id":"cebpf4jnsgd1na2vs0mg"},{"bike_id":"3fbcdfd8-5176-471d-aa84-e8e20bb4418e","system_id":"levelo_inurba_marseille","lat":43.32128,"lon":5.36803,"is_reserved":false,"is_disabled":false,"rental_uris":{"android":"levelo://app?vid=3fbcdfd8-5176-471d-aa84-e8e20bb4418e","ios":"levelo://app?vid=3fbcdfd8-5176-471d-aa84-e8e20bb4418e"},"vehicle_type_id":"4","last_reported":1743192663,"current_range_meters":9600,"station_id":"ce4bhrh2rcd13ifvqhug","pricing_plan_id":"cebpf4jnsgd1na2vs0mg"},{"bike_id":"cbe177f9-7359-4495-b99f-8a1700a0286f","system_id":"levelo_inurba_marseille","lat":43.28741,"lon":5.36081,"is_reserved":false,"is_disabled":false,"rental_uris":{"android":"levelo://app?vid=cbe177f9-7359-4495-b99f-8a1700a0286f","ios":"levelo://app?vid=cbe177f9-7359-4495-b99f-8a1700a0286f"},"vehicle_type_id":"4","last_reported":1743192663,"current_range_meters":9600,"station_id":"cki0cbj6b192h4jlfktg","pricing_plan_id":"cebpf4jnsgd1na2vs0mg"},{"bike_id":"e2e16a49-dd19-4746-9045-eb050a26d400","system_id":"levelo_inurba_marseille","lat":43.29972,"lon":5.3849,"is_reserved":false,"is_disabled":false,"rental_uris":{"android":"levelo://app?vid=e2e16a49-dd19-4746-9045-eb050a26d400","ios":"levelo://app?vid=e2e16a49-dd19-4746-9045-eb050a26d400"},"vehicle_type_id":"4","last_reported":1743192663,"current_range_meters":10000,"station_id":"ce4bgj92rcd13ifvqbd0","pricing_plan_id":"cebpf4jnsgd1na2vs0mg"},{"bike_id":"257a3215-90dc-43b8-ba29-fad98546383f","system_id":"levelo_inurba_marseille","lat":43.30094,"lon":5.39074,"is_reserved":false,"is_disabled":false,"rental_uris":{"android":"levelo://app?vid=257a3215-90dc-43b8-ba29-fad98546383f","ios":"levelo://app?vid=257a3215-90dc-43b8-ba29-fad98546383f"},"vehicle_type_id":"4","last_reported":1743192663,"current_range_meters":10000,"station_id":"ce4bh192rcd13ifvqdb0","pricing_plan_id":"cebpf4jnsgd1na2vs0mg"},{"bike_id":"dc050fee-4831-491a-867e-a64f70c001d2","system_id":"levelo_inurba_marseille","lat":43.29419,"lon":5.38629,"is_reserved":false,"is_disabled":false,"rental_uris":{"android":"levelo://app?vid=dc050fee-4831-491a-867e-a64f70c001d2","ios":"levelo://app?vid=dc050fee-4831-491a-867e-a64f70c001d2"},"vehicle_type_id":"4","last_reported":1743192663,"current_range_meters":10000,"station_id":"ce4bh2h2rcd13ifvqdh0","pricing_plan_id":"cebpf4jnsgd1na2vs0mg"},{"bike_id":"34ae0ba7-df2d-4cbb-b1c2-989b6ad43b3c","system_id":"levelo_inurba_marseille","lat":43.29024,"lon":5.37558,"is_reserved":false,"is_disabled":false,"rental_uris":{"android":"levelo://app?vid=34ae0ba7-df2d-4cbb-b1c2-989b6ad43b3c","ios":"levelo://app?vid=34ae0ba7-df2d-4cbb-b1c2-989b6ad43b3c"},"vehicle_type_id":"4","last_reported":1743192663,"current_range_meters":10000,"station_id":"ce4bh692rcd13ifvqe90","pricing_plan_id":"cebpf4jnsgd1na2vs0mg"},{"bike_id":"aee1fd5c-393f-458f-b141-c65382c05cf2","system_id":"levelo_inurba_marseille","lat":43.28464,"lon":5.35869,"is_reserved":false,"is_disabled":false,"rental_uris":{"android":"levelo://app?vid=aee1fd5c-393f-458f-b141-c65382c05cf2","ios":"levelo://app?vid=aee1fd5c-393f-458f-b141-c65382c05cf2"},"vehicle_type_id":"4","last_reported":1743192663,"current_range_meters":10000,"station_id":"ce4bhah2rcd13ifvqei0","pricing_plan_id":"cebpf4jnsgd1na2vs0mg"},{"bike_id":"661fa6de-24e3-4832-9e18-3d3a5339528f","system_id":"levelo_inurba_marseille","lat":43.28415,"lon":5.35003,"is_reserved":false,"is_disabled":false,"rental_uris":{"android":"levelo://app?vid=661fa6de-24e3-4832-9e18-3d3a5339528f","ios":"levelo://app?vid=661fa6de-24e3-4832-9e18-3d3a5339528f"},"vehicle_type_id":"4","last_reported":1743192663,"current_range_meters":10000,"station_id":"ce4bhbh2rcd13ifvqepg","pricing_plan_id":"cebpf4jnsgd1na2vs0mg"},{"bike_id":"b4fcfee0-93be-466a-a152-1bfb7e2ea288","system_id":"levelo_inurba_marseille","lat":43.24815,"lon":5.37451,"is_reserved":false,"is_disabled":false,"rental_uris":{"android":"levelo://app?vid=b4fcfee0-93be-466a-a152-1bfb7e2ea288","ios":"levelo://app?vid=b4fcfee0-93be-466a-a152-1bfb7e2ea288"},"vehicle_type_id":"4","last_reported":1743192663,"current_range_meters":10000,"station_id":"ce4bhgh2rcd13ifvqfb0","pricing_plan_id":"cebpf4jnsgd1na2vs0mg"},{"bike_id":"68e9fc26-8998-4bf7-8da8-af47209f9b7c","system_id":"levelo_inurba_marseille","lat":43.321101,"lon":5.367861,"is_reserved":false,"is_disabled":false,"rental_uris":{"android":"levelo://app?vid=68e9fc26-8998-4bf7-8da8-af47209f9b7c","ios":"levelo://app?vid=68e9fc26-8998-4bf7-8da8-af47209f9b7c"},"vehicle_type_id":"4","last_reported":1743192663,"current_range_meters":10000,"station_id":"ce4bhrh2rcd13ifvqhug","pricing_plan_id":"cebpf4jnsgd1na2vs0mg"},{"bike_id":"65c86302-8ef0-46f4-ab6e-bac7149a2865","system_id":"levelo_inurba_marseille","lat":43.32107,"lon":5.368,"is_reserved":false,"is_disabled":false,"rental_uris":{"android":"levelo://app?vid=65c86302-8ef0-46f4-ab6e-bac7149a2865","ios":"levelo://app?vid=65c86302-8ef0-46f4-ab6e-bac7149a2865"},"vehicle_type_id":"4","last_reported":1743192663,"current_range_meters":10000,"station_id":"ce4bhrh2rcd13ifvqhug","pricing_plan_id":"cebpf4jnsgd1na2vs0mg"},{"bike_id":"17d2c56a-04b7-4565-828e-4e8647a3dd59","system_id":"levelo_inurba_marseille","lat":43.23192,"lon":5.35564,"is_reserved":false,"is_disabled":false,"rental_uris":{"android":"levelo://app?vid=17d2c56a-04b7-4565-828e-4e8647a3dd59","ios":"levelo://app?vid=17d2c56a-04b7-4565-828e-4e8647a3dd59"},"vehicle_type_id":"4","last_reported":1743192663,"current_range_meters":10000,"station_id":"ce4bhu92rcd13ifvqi70","pricing_plan_id":"cebpf4jnsgd1na2vs0mg"},{"bike_id":"eef75a29-8f94-45b0-b9d9-6991a77efccc","system_id":"levelo_inurba_marseille","lat":43.292558,"lon":5.37616,"is_reserved":false,"is_disabled":false,"rental_uris":{"android":"levelo://app?vid=eef75a29-8f94-45b0-b9d9-6991a77efccc","ios":"levelo://app?vid=eef75a29-8f94-45b0-b9d9-6991a77efccc"},"vehicle_type_id":"4","last_reported":1743192663,"current_range_meters":10800,"station_id":"ce4bgi12rcd13ifvqb80","pricing_plan_id":"cebpf4jnsgd1na2vs0mg"},{"bike_id":"2b2d794b-3957-45b0-af78-89e50fff8d07","system_id":"levelo_inurba_marseille","lat":43.29611,"lon":5.38102,"is_reserved":false,"is_disabled":false,"rental_uris":{"android":"levelo://app?vid=2b2d794b-3957-45b0-af78-89e50fff8d07","ios":"levelo://app?vid=2b2d794b-3957-45b0-af78-89e50fff8d07"},"vehicle_type_id":"4","last_reported":1743192663,"current_range_meters":10800,"station_id":"ce4bgl12rcd13ifvqbo0","pricing_plan_id":"cebpf4jnsgd1na2vs0mg"},{"bike_id":"e3d3b79b-f749-45fc-843c-b28d4931e9e1","system_id":"levelo_inurba_marseille","lat":43.29937,"lon":5.36539,"is_reserved":false,"is_disabled":false,"rental_uris":{"android":"levelo://app?vid=e3d3b79b-f749-45fc-843c-b28d4931e9e1","ios":"levelo://app?vid=e3d3b79b-f749-45fc-843c-b28d4931e9e1"},"vehicle_type_id":"4","last_reported":1743192663,"current_range_meters":10800,"station_id":"ce4bgm92rcd13ifvqbr0","pricing_plan_id":"cebpf4jnsgd1na2vs0mg"},{"bike_id":"1c71b01c-8c90-4b90-84da-0ce75e1f9712","system_id":"levelo_inurba_marseille","lat":43.29425,"lon":5.38635,"is_reserved":false,"is_disabled":false,"rental_uris":{"android":"levelo://app?vid=1c71b01c-8c90-4b90-84da-0ce75e1f9712","ios":"levelo://app?vid=1c71b01c-8c90-4b90-84da-0ce75e1f9712"},"vehicle_type_id":"4","last_reported":1743192663,"current_range_meters":10800,"station_id":"ce4bh2h2rcd13ifvqdh0","pricing_plan_id":"cebpf4jnsgd1na2vs0mg"},{"bike_id":"dee53596-0ae8-4296-a138-f88d1609df6d","system_id":"levelo_inurba_marseille","lat":43.29542,"lon":5.3903,"is_reserved":false,"is_disabled":false,"rental_uris":{"android":"levelo://app?vid=dee53596-0ae8-4296-a138-f88d1609df6d","ios":"levelo://app?vid=dee53596-0ae8-4296-a138-f88d1609df6d"},"vehicle_type_id":"4","last_reported":1743192663,"current_range_meters":10800,"station_id":"ce4bh3p2rcd13ifvqdp0","pricing_plan_id":"cebpf4jnsgd1na2vs0mg"},{"bike_id":"d2be6ce3-8e79-4804-b0d3-008c875e7b9d","system_id":"levelo_inurba_marseille","lat":43.26219,"lon":5.37932,"is_reserved":false,"is_disabled":false,"rental_uris":{"android":"levelo://app?vid=d2be6ce3-8e79-4804-b0d3-008c875e7b9d","ios":"levelo://app?vid=d2be6ce3-8e79-4804-b0d3-008c875e7b9d"},"vehicle_type_id":"4","last_reported":1743192663,"current_range_meters":10800,"station_id":"ce4bhjp2rcd13ifvqg90","pricing_plan_id":"cebpf4jnsgd1na2vs0mg"},{"bike_id":"fb348b09-6abb-47a4-a266-91f2eeaee291","system_id":"levelo_inurba_marseille","lat":43.32122,"lon":5.36773,"is_reserved":false,"is_disabled":false,"rental_uris":{"android":"levelo://app?vid=fb348b09-6abb-47a4-a266-91f2eeaee291","ios":"levelo://app?vid=fb348b09-6abb-47a4-a266-91f2eeaee291"},"vehicle_type_id":"4","last_reported":1743192663,"current_range_meters":10800,"station_id":"ce4bhrh2rcd13ifvqhug","pricing_plan_id":"cebpf4jnsgd1na2vs0mg"},{"bike_id":"c6c8fb31-86de-4758-859b-e74b70125ab7","system_id":"levelo_inurba_marseille","lat":43.32117,"lon":5.36771,"is_reserved":false,"is_disabled":false,"rental_uris":{"android":"levelo://app?vid=c6c8fb31-86de-4758-859b-e74b70125ab7","ios":"levelo://app?vid=c6c8fb31-86de-4758-859b-e74b70125ab7"},"vehicle_type_id":"4","last_reported":1743192663,"current_range_meters":10800,"station_id":"ce4bhrh2rcd13ifvqhug","pricing_plan_id":"cebpf4jnsgd1na2vs0mg"},{"bike_id":"263d52b8-cacf-4cf5-a16a-6f78666a43b5","system_id":"levelo_inurba_marseille","lat":43.29544,"lon":5.38543,"is_reserved":false,"is_disabled":false,"rental_uris":{"android":"levelo://app?vid=263d52b8-cacf-4cf5-a16a-6f78666a43b5","ios":"levelo://app?vid=263d52b8-cacf-4cf5-a16a-6f78666a43b5"},"vehicle_type_id":"4","last_reported":1743192663,"current_range_meters":11200,"station_id":"ce4bgih2rcd13ifvqba0","pricing_plan_id":"cebpf4jnsgd1na2vs0mg"},{"bike_id":"703c6035-7db6-48af-a14b-885bc497dbc7","system_id":"levelo_inurba_marseille","lat":43.29845,"lon":5.36263,"is_reserved":false,"is_disabled":false,"rental_uris":{"android":"levelo://app?vid=703c6035-7db6-48af-a14b-885bc497dbc7","ios":"levelo://app?vid=703c6035-7db6-48af-a14b-885bc497dbc7"},"vehicle_type_id":"4","last_reported":1743192663,"current_range_meters":11200,"station_id":"ce4bgpp2rcd13ifvqc3g","pricing_plan_id":"cebpf4jnsgd1na2vs0mg"},{"bike_id":"6eb17d77-eb01-432d-9390-792c7b677cec","system_id":"levelo_inurba_marseille","lat":43.305635,"lon":5.367348,"is_reserved":false,"is_disabled":false,"rental_uris":{"android":"levelo://app?vid=6eb17d77-eb01-432d-9390-792c7b677cec","ios":"levelo://app?vid=6eb17d77-eb01-432d-9390-792c7b677cec"},"vehicle_type_id":"4","last_reported":1743192663,"current_range_meters":11200,"station_id":"ce4bgrp2rcd13ifvqc9g","pricing_plan_id":"cebpf4jnsgd1na2vs0mg"},{"bike_id":"04974724-db2c-4968-859f-11e6296e82a0","system_id":"levelo_inurba_marseille","lat":43.29425,"lon":5.38617,"is_reserved":false,"is_disabled":false,"rental_uris":{"android":"levelo://app?vid=04974724-db2c-4968-859f-11e6296e82a0","ios":"levelo://app?vid=04974724-db2c-4968-859f-11e6296e82a0"},"vehicle_type_id":"4","last_reported":1743192663,"current_range_meters":11200,"station_id":"ce4bh2h2rcd13ifvqdh0","pricing_plan_id":"cebpf4jnsgd1na2vs0mg"},{"bike_id":"d2e09374-abe8-461b-9700-808c73f07463","system_id":"levelo_inurba_marseille","lat":43.29261,"lon":5.38431,"is_reserved":false,"is_disabled":false,"rental_uris":{"android":"levelo://app?vid=d2e09374-abe8-461b-9700-808c73f07463","ios":"levelo://app?vid=d2e09374-abe8-461b-9700-808c73f07463"},"vehicle_type_id":"4","last_reported":1743192663,"current_range_meters":11200,"station_id":"ce4bh692rcd13ifvqea0","pricing_plan_id":"cebpf4jnsgd1na2vs0mg"},{"bike_id":"1e823cb9-816f-4a9f-b83a-8338f55a075c","system_id":"levelo_inurba_marseille","lat":43.2926,"lon":5.38422,"is_reserved":false,"is_disabled":false,"rental_uris":{"android":"levelo://app?vid=1e823cb9-816f-4a9f-b83a-8338f55a075c","ios":"levelo://app?vid=1e823cb9-816f-4a9f-b83a-8338f55a075c"},"vehicle_type_id":"4","last_reported":1743192663,"current_range_meters":11200,"station_id":"ce4bh692rcd13ifvqea0","pricing_plan_id":"cebpf4jnsgd1na2vs0mg"},{"bike_id":"9fca3360-8e7b-45c5-b38d-719a2530d1b8","system_id":"levelo_inurba_marseille","lat":43.28422,"lon":5.34993,"is_reserved":false,"is_disabled":false,"rental_uris":{"android":"levelo://app?vid=9fca3360-8e7b-45c5-b38d-719a2530d1b8","ios":"levelo://app?vid=9fca3360-8e7b-45c5-b38d-719a2530d1b8"},"vehicle_type_id":"4","last_reported":1743192663,"current_range_meters":11200,"station_id":"ce4bhbh2rcd13ifvqepg","pricing_plan_id":"cebpf4jnsgd1na2vs0mg"},{"bike_id":"a6ebace5-a253-4591-9463-093f9b78f7fe","system_id":"levelo_inurba_marseille","lat":43.24806,"lon":5.37456,"is_reserved":false,"is_disabled":false,"rental_uris":{"android":"levelo://app?vid=a6ebace5-a253-4591-9463-093f9b78f7fe","ios":"levelo://app?vid=a6ebace5-a253-4591-9463-093f9b78f7fe"},"vehicle_type_id":"4","last_reported":1743192663,"current_range_meters":11200,"station_id":"ce4bhgh2rcd13ifvqfb0","pricing_plan_id":"cebpf4jnsgd1na2vs0mg"},{"bike_id":"8bc2cbde-34c8-4c06-962a-d2135c8869d7","system_id":"levelo_inurba_marseille","lat":43.23954,"lon":5.36669,"is_reserved":false,"is_disabled":false,"rental_uris":{"android":"levelo://app?vid=8bc2cbde-34c8-4c06-962a-d2135c8869d7","ios":"levelo://app?vid=8bc2cbde-34c8-4c06-962a-d2135c8869d7"},"vehicle_type_id":"4","last_reported":1743192663,"current_range_meters":11200,"station_id":"ce4bhi12rcd13ifvqfp0","pricing_plan_id":"cebpf4jnsgd1na2vs0mg"},{"bike_id":"38b7167f-c8da-40ff-a746-ea0a65a1dc4b","system_id":"levelo_inurba_marseille","lat":43.24174,"lon":5.39727,"is_reserved":false,"is_disabled":false,"rental_uris":{"android":"levelo://app?vid=38b7167f-c8da-40ff-a746-ea0a65a1dc4b","ios":"levelo://app?vid=38b7167f-c8da-40ff-a746-ea0a65a1dc4b"},"vehicle_type_id":"4","last_reported":1743192663,"current_range_meters":11200,"station_id":"ce4bhn12rcd13ifvqgpg","pricing_plan_id":"cebpf4jnsgd1na2vs0mg"},{"bike_id":"d14cdd1e-f0b3-48a5-be5e-77128af69a2d","system_id":"levelo_inurba_marseille","lat":43.28674,"lon":5.35109,"is_reserved":false,"is_disabled":false,"rental_uris":{"android":"levelo://app?vid=d14cdd1e-f0b3-48a5-be5e-77128af69a2d","ios":"levelo://app?vid=d14cdd1e-f0b3-48a5-be5e-77128af69a2d"},"vehicle_type_id":"4","last_reported":1743192663,"current_range_meters":11600,"station_id":"","pricing_plan_id":"cebpf4jnsgd1na2vs0mg"},{"bike_id":"1a8c646f-d974-4990-9a65-b94f780161ce","system_id":"levelo_inurba_marseille","lat":43.29624,"lon":5.37709,"is_reserved":false,"is_disabled":false,"rental_uris":{"android":"levelo://app?vid=1a8c646f-d974-4990-9a65-b94f780161ce","ios":"levelo://app?vid=1a8c646f-d974-4990-9a65-b94f780161ce"},"vehicle_type_id":"4","last_reported":1743192663,"current_range_meters":11600,"station_id":"ce4bgi92rcd13ifvqb90","pricing_plan_id":"cebpf4jnsgd1na2vs0mg"},{"bike_id":"93b87167-d56c-4756-aad5-25376b7daf19","system_id":"levelo_inurba_marseille","lat":43.30172,"lon":5.366208,"is_reserved":false,"is_disabled":false,"rental_uris":{"android":"levelo://app?vid=93b87167-d56c-4756-aad5-25376b7daf19","ios":"levelo://app?vid=93b87167-d56c-4756-aad5-25376b7daf19"},"vehicle_type_id":"4","last_reported":1743192663,"current_range_meters":11600,"station_id":"ce4bgrh2rcd13ifvqc8g","pricing_plan_id":"cebpf4jnsgd1na2vs0mg"},{"bike_id":"e26bd7a6-f34f-474b-a37f-df5a0a3fb053","system_id":"levelo_inurba_marseille","lat":43.305251,"lon":5.366945,"is_reserved":false,"is_disabled":false,"rental_uris":{"android":"levelo://app?vid=e26bd7a6-f34f-474b-a37f-df5a0a3fb053","ios":"levelo://app?vid=e26bd7a6-f34f-474b-a37f-df5a0a3fb053"},"vehicle_type_id":"4","last_reported":1743192663,"current_range_meters":11600,"station_id":"ce4bgrp2rcd13ifvqc9g","pricing_plan_id":"cebpf4jnsgd1na2vs0mg"},{"bike_id":"d110ea9c-afe8-47f1-b008-e66bc6e44a55","system_id":"levelo_inurba_marseille","lat":43.2842,"lon":5.34995,"is_reserved":false,"is_disabled":false,"rental_uris":{"android":"levelo://app?vid=d110ea9c-afe8-47f1-b008-e66bc6e44a55","ios":"levelo://app?vid=d110ea9c-afe8-47f1-b008-e66bc6e44a55"},"vehicle_type_id":"4","last_reported":1743192663,"current_range_meters":11600,"station_id":"ce4bhbh2rcd13ifvqepg","pricing_plan_id":"cebpf4jnsgd1na2vs0mg"},{"bike_id":"676aa410-285a-48fa-832f-41d35fee7288","system_id":"levelo_inurba_marseille","lat":43.28602,"lon":5.37085,"is_reserved":false,"is_disabled":false,"rental_uris":{"android":"levelo://app?vid=676aa410-285a-48fa-832f-41d35fee7288","ios":"levelo://app?vid=676aa410-285a-48fa-832f-41d35fee7288"},"vehicle_type_id":"4","last_reported":1743192663,"current_range_meters":11600,"station_id":"ce4bht12rcd13ifvqi60","pricing_plan_id":"cebpf4jnsgd1na2vs0mg"},{"bike_id":"78879d72-d868-43c9-a743-a6ab48dd9b11","system_id":"levelo_inurba_marseille","lat":43.28728,"lon":5.3608,"is_reserved":false,"is_disabled":false,"rental_uris":{"android":"levelo://app?vid=78879d72-d868-43c9-a743-a6ab48dd9b11","ios":"levelo://app?vid=78879d72-d868-43c9-a743-a6ab48dd9b11"},"vehicle_type_id":"4","last_reported":1743192663,"current_range_meters":11600,"station_id":"cki0cbj6b192h4jlfktg","pricing_plan_id":"cebpf4jnsgd1na2vs0mg"},{"bike_id":"c86009dd-b91b-41cb-87cd-f7e664bc9af6","system_id":"levelo_inurba_marseille","lat":43.31327,"lon":5.39689,"is_reserved":false,"is_disabled":false,"rental_uris":{"android":"levelo://app?vid=c86009dd-b91b-41cb-87cd-f7e664bc9af6","ios":"levelo://app?vid=c86009dd-b91b-41cb-87cd-f7e664bc9af6"},"vehicle_type_id":"4","last_reported":1743192663,"current_range_meters":12000,"station_id":"ce4bgvp2rcd13ifvqcu0","pricing_plan_id":"cebpf4jnsgd1na2vs0mg"},{"bike_id":"db137494-dea9-481b-9e8c-04a26ceaaed1","system_id":"levelo_inurba_marseille","lat":43.29414,"lon":5.38634,"is_reserved":false,"is_disabled":false,"rental_uris":{"android":"levelo://app?vid=db137494-dea9-481b-9e8c-04a26ceaaed1","ios":"levelo://app?vid=db137494-dea9-481b-9e8c-04a26ceaaed1"},"vehicle_type_id":"4","last_reported":1743192663,"current_range_meters":12000,"station_id":"ce4bh2h2rcd13ifvqdh0","pricing_plan_id":"cebpf4jnsgd1na2vs0mg"},{"bike_id":"08664c3d-c475-47e5-b091-2db417347431","system_id":"levelo_inurba_marseille","lat":43.29276,"lon":5.38432,"is_reserved":false,"is_disabled":false,"rental_uris":{"android":"levelo://app?vid=08664c3d-c475-47e5-b091-2db417347431","ios":"levelo://app?vid=08664c3d-c475-47e5-b091-2db417347431"},"vehicle_type_id":"4","last_reported":1743192663,"current_range_meters":12000,"station_id":"ce4bh692rcd13ifvqea0","pricing_plan_id":"cebpf4jnsgd1na2vs0mg"},{"bike_id":"c5b98171-7d4f-46ff-a16b-29d4415d0fe6","system_id":"levelo_inurba_marseille","lat":43.29258,"lon":5.38448,"is_reserved":false,"is_disabled":false,"rental_uris":{"android":"levelo://app?vid=c5b98171-7d4f-46ff-a16b-29d4415d0fe6","ios":"levelo://app?vid=c5b98171-7d4f-46ff-a16b-29d4415d0fe6"},"vehicle_type_id":"4","last_reported":1743192663,"current_range_meters":12000,"station_id":"ce4bh692rcd13ifvqea0","pricing_plan_id":"cebpf4jnsgd1na2vs0mg"},{"bike_id":"9a7b4e6a-fd8e-4005-b1f1-d848e9b15f63","system_id":"levelo_inurba_marseille","lat":43.29198,"lon":5.35813,"is_reserved":false,"is_disabled":false,"rental_uris":{"android":"levelo://app?vid=9a7b4e6a-fd8e-4005-b1f1-d848e9b15f63","ios":"levelo://app?vid=9a7b4e6a-fd8e-4005-b1f1-d848e9b15f63"},"vehicle_type_id":"4","last_reported":1743192663,"current_range_meters":12000,"station_id":"ce4bhb12rcd13ifvqel0","pricing_plan_id":"cebpf4jnsgd1na2vs0mg"},{"bike_id":"178ac6ab-bc5f-404a-a9a8-2cfa8cc490e5","system_id":"levelo_inurba_marseille","lat":43.24072,"lon":5.37761,"is_reserved":false,"is_disabled":false,"rental_uris":{"android":"levelo://app?vid=178ac6ab-bc5f-404a-a9a8-2cfa8cc490e5","ios":"levelo://app?vid=178ac6ab-bc5f-404a-a9a8-2cfa8cc490e5"},"vehicle_type_id":"4","last_reported":1743192663,"current_range_meters":12000,"station_id":"ce4bhnp2rcd13ifvqgvg","pricing_plan_id":"cebpf4jnsgd1na2vs0mg"},{"bike_id":"983c4c9f-ee1a-4d13-8ce7-bfd36c479f46","system_id":"levelo_inurba_marseille","lat":43.24169,"lon":5.36399,"is_reserved":false,"is_disabled":false,"rental_uris":{"android":"levelo://app?vid=983c4c9f-ee1a-4d13-8ce7-bfd36c479f46","ios":"levelo://app?vid=983c4c9f-ee1a-4d13-8ce7-bfd36c479f46"},"vehicle_type_id":"4","last_reported":1743192663,"current_range_meters":12000,"station_id":"cpo36qri1sfpv3e86is0","pricing_plan_id":"cebpf4jnsgd1na2vs0mg"},{"bike_id":"5fe8135d-6cb6-4c84-9e8b-3ebe0ead72c2","system_id":"levelo_inurba_marseille","lat":43.29367,"lon":5.37838,"is_reserved":false,"is_disabled":false,"rental_uris":{"android":"levelo://app?vid=5fe8135d-6cb6-4c84-9e8b-3ebe0ead72c2","ios":"levelo://app?vid=5fe8135d-6cb6-4c84-9e8b-3ebe0ead72c2"},"vehicle_type_id":"4","last_reported":1743192663,"current_range_meters":12400,"station_id":"ce4bgjh2rcd13ifvqbf0","pricing_plan_id":"cebpf4jnsgd1na2vs0mg"},{"bike_id":"431d89a9-e059-4bfa-9872-94f21f705fed","system_id":"levelo_inurba_marseille","lat":43.30145,"lon":5.38061,"is_reserved":false,"is_disabled":false,"rental_uris":{"android":"levelo://app?vid=431d89a9-e059-4bfa-9872-94f21f705fed","ios":"levelo://app?vid=431d89a9-e059-4bfa-9872-94f21f705fed"},"vehicle_type_id":"4","last_reported":1743192663,"current_range_meters":12400,"station_id":"ce4bgjp2rcd13ifvqbh0","pricing_plan_id":"cebpf4jnsgd1na2vs0mg"},{"bike_id":"9537a049-5e6a-43a0-ba98-832a87bc36fd","system_id":"levelo_inurba_marseille","lat":43.29577,"lon":5.36737,"is_reserved":false,"is_disabled":false,"rental_uris":{"android":"levelo://app?vid=9537a049-5e6a-43a0-ba98-832a87bc36fd","ios":"levelo://app?vid=9537a049-5e6a-43a0-ba98-832a87bc36fd"},"vehicle_type_id":"4","last_reported":1743192663,"current_range_meters":12400,"station_id":"ce4bgph2rcd13ifvqc2g","pricing_plan_id":"cebpf4jnsgd1na2vs0mg"},{"bike_id":"e63f80ea-8db7-4525-adb2-f4ea19583b67","system_id":"levelo_inurba_marseille","lat":43.30588,"lon":5.37227,"is_reserved":false,"is_disabled":false,"rental_uris":{"android":"levelo://app?vid=e63f80ea-8db7-4525-adb2-f4ea19583b67","ios":"levelo://app?vid=e63f80ea-8db7-4525-adb2-f4ea19583b67"},"vehicle_type_id":"4","last_reported":1743192663,"current_range_meters":12400,"station_id":"ce4bgqh2rcd13ifvqc4g","pricing_plan_id":"cebpf4jnsgd1na2vs0mg"},{"bike_id":"b110dfb2-022b-4e8c-ab6d-b3f221ddeb7d","system_id":"levelo_inurba_marseille","lat":43.30094,"lon":5.3907,"is_reserved":false,"is_disabled":false,"rental_uris":{"android":"levelo://app?vid=b110dfb2-022b-4e8c-ab6d-b3f221ddeb7d","ios":"levelo://app?vid=b110dfb2-022b-4e8c-ab6d-b3f221ddeb7d"},"vehicle_type_id":"4","last_reported":1743192663,"current_range_meters":12400,"station_id":"ce4bh192rcd13ifvqdb0","pricing_plan_id":"cebpf4jnsgd1na2vs0mg"},{"bike_id":"a860888b-15d6-4b4f-b90b-a653f2b938fa","system_id":"levelo_inurba_marseille","lat":43.28947,"lon":5.38392,"is_reserved":false,"is_disabled":false,"rental_uris":{"android":"levelo://app?vid=a860888b-15d6-4b4f-b90b-a653f2b938fa","ios":"levelo://app?vid=a860888b-15d6-4b4f-b90b-a653f2b938fa"},"vehicle_type_id":"4","last_reported":1743192663,"current_range_meters":12400,"station_id":"ce4bh612rcd13ifvqe6g","pricing_plan_id":"cebpf4jnsgd1na2vs0mg"},{"bike_id":"7680016d-b77c-40d0-a11d-0baacd945436","system_id":"levelo_inurba_marseille","lat":43.29263,"lon":5.38438,"is_reserved":false,"is_disabled":false,"rental_uris":{"android":"levelo://app?vid=7680016d-b77c-40d0-a11d-0baacd945436","ios":"levelo://app?vid=7680016d-b77c-40d0-a11d-0baacd945436"},"vehicle_type_id":"4","last_reported":1743192663,"current_range_meters":12400,"station_id":"ce4bh692rcd13ifvqea0","pricing_plan_id":"cebpf4jnsgd1na2vs0mg"},{"bike_id":"b1ecd358-38ec-4753-8af1-9b87454b444a","system_id":"levelo_inurba_marseille","lat":43.28618,"lon":5.35096,"is_reserved":false,"is_disabled":false,"rental_uris":{"android":"levelo://app?vid=b1ecd358-38ec-4753-8af1-9b87454b444a","ios":"levelo://app?vid=b1ecd358-38ec-4753-8af1-9b87454b444a"},"vehicle_type_id":"4","last_reported":1743192663,"current_range_meters":12400,"station_id":"ce4bhch2rcd13ifvqeug","pricing_plan_id":"cebpf4jnsgd1na2vs0mg"},{"bike_id":"980b1b8d-c114-4f00-88f8-a0ddccb8fb71","system_id":"levelo_inurba_marseille","lat":43.28616,"lon":5.3512,"is_reserved":false,"is_disabled":false,"rental_uris":{"android":"levelo://app?vid=980b1b8d-c114-4f00-88f8-a0ddccb8fb71","ios":"levelo://app?vid=980b1b8d-c114-4f00-88f8-a0ddccb8fb71"},"vehicle_type_id":"4","last_reported":1743192663,"current_range_meters":12400,"station_id":"ce4bhch2rcd13ifvqeug","pricing_plan_id":"cebpf4jnsgd1na2vs0mg"},{"bike_id":"9f2583cf-461d-4d57-8c37-99ef1e89cade","system_id":"levelo_inurba_marseille","lat":43.23202,"lon":5.35545,"is_reserved":false,"is_disabled":false,"rental_uris":{"android":"levelo://app?vid=9f2583cf-461d-4d57-8c37-99ef1e89cade","ios":"levelo://app?vid=9f2583cf-461d-4d57-8c37-99ef1e89cade"},"vehicle_type_id":"4","last_reported":1743192663,"current_range_meters":12400,"station_id":"ce4bhu92rcd13ifvqi70","pricing_plan_id":"cebpf4jnsgd1na2vs0mg"},{"bike_id":"ad095ff6-2192-4acf-9d3b-75082cfc78be","system_id":"levelo_inurba_marseille","lat":43.29234,"lon":5.37707,"is_reserved":false,"is_disabled":false,"rental_uris":{"android":"levelo://app?vid=ad095ff6-2192-4acf-9d3b-75082cfc78be","ios":"levelo://app?vid=ad095ff6-2192-4acf-9d3b-75082cfc78be"},"vehicle_type_id":"4","last_reported":1743192663,"current_range_meters":12800,"station_id":"","pricing_plan_id":"cebpf4jnsgd1na2vs0mg"},{"bike_id":"10889af7-0a23-4c81-8084-a3ca3c971e5c","system_id":"levelo_inurba_marseille","lat":43.29581,"lon":5.36749,"is_reserved":false,"is_disabled":false,"rental_uris":{"android":"levelo://app?vid=10889af7-0a23-4c81-8084-a3ca3c971e5c","ios":"levelo://app?vid=10889af7-0a23-4c81-8084-a3ca3c971e5c"},"vehicle_type_id":"4","last_reported":1743192663,"current_range_meters":12800,"station_id":"ce4bgph2rcd13ifvqc2g","pricing_plan_id":"cebpf4jnsgd1na2vs0mg"},{"bike_id":"4e251f24-93aa-4959-b14c-07fb3902889e","system_id":"levelo_inurba_marseille","lat":43.294,"lon":5.38632,"is_reserved":false,"is_disabled":false,"rental_uris":{"android":"levelo://app?vid=4e251f24-93aa-4959-b14c-07fb3902889e","ios":"levelo://app?vid=4e251f24-93aa-4959-b14c-07fb3902889e"},"vehicle_type_id":"4","last_reported":1743192663,"current_range_meters":12800,"station_id":"ce4bh2h2rcd13ifvqdh0","pricing_plan_id":"cebpf4jnsgd1na2vs0mg"},{"bike_id":"b097cdf6-2d56-4689-98e8-a2fedfc637f7","system_id":"levelo_inurba_marseille","lat":43.29249,"lon":5.38431,"is_reserved":false,"is_disabled":false,"rental_uris":{"android":"levelo://app?vid=b097cdf6-2d56-4689-98e8-a2fedfc637f7","ios":"levelo://app?vid=b097cdf6-2d56-4689-98e8-a2fedfc637f7"},"vehicle_type_id":"4","last_reported":1743192663,"current_range_meters":12800,"station_id":"ce4bh692rcd13ifvqea0","pricing_plan_id":"cebpf4jnsgd1na2vs0mg"},{"bike_id":"2e2fc79c-87bd-4d88-908e-bdd987ac041b","system_id":"levelo_inurba_marseille","lat":43.29267,"lon":5.38434,"is_reserved":false,"is_disabled":false,"rental_uris":{"android":"levelo://app?vid=2e2fc79c-87bd-4d88-908e-bdd987ac041b","ios":"levelo://app?vid=2e2fc79c-87bd-4d88-908e-bdd987ac041b"},"vehicle_type_id":"4","last_reported":1743192663,"current_range_meters":12800,"station_id":"ce4bh692rcd13ifvqea0","pricing_plan_id":"cebpf4jnsgd1na2vs0mg"},{"bike_id":"1cebea5c-cfeb-4552-a2b6-bf6db1cff8b1","system_id":"levelo_inurba_marseille","lat":43.29206,"lon":5.35811,"is_reserved":false,"is_disabled":false,"rental_uris":{"android":"levelo://app?vid=1cebea5c-cfeb-4552-a2b6-bf6db1cff8b1","ios":"levelo://app?vid=1cebea5c-cfeb-4552-a2b6-bf6db1cff8b1"},"vehicle_type_id":"4","last_reported":1743192663,"current_range_meters":12800,"station_id":"ce4bhb12rcd13ifvqel0","pricing_plan_id":"cebpf4jnsgd1na2vs0mg"},{"bike_id":"5019f289-324d-44e2-9540-a8f0207b8761","system_id":"levelo_inurba_marseille","lat":43.298837,"lon":5.363945,"is_reserved":false,"is_disabled":false,"rental_uris":{"android":"levelo://app?vid=5019f289-324d-44e2-9540-a8f0207b8761","ios":"levelo://app?vid=5019f289-324d-44e2-9540-a8f0207b8761"},"vehicle_type_id":"4","last_reported":1743192663,"current_range_meters":13600,"station_id":"ce4bgpp2rcd13ifvqc3g","pricing_plan_id":"cebpf4jnsgd1na2vs0mg"},{"bike_id":"94d65f6b-69b8-4734-b70d-8e10efd9e66c","system_id":"levelo_inurba_marseille","lat":43.29849,"lon":5.36269,"is_reserved":false,"is_disabled":false,"rental_uris":{"android":"levelo://app?vid=94d65f6b-69b8-4734-b70d-8e10efd9e66c","ios":"levelo://app?vid=94d65f6b-69b8-4734-b70d-8e10efd9e66c"},"vehicle_type_id":"4","last_reported":1743192663,"current_range_meters":13600,"station_id":"ce4bgpp2rcd13ifvqc3g","pricing_plan_id":"cebpf4jnsgd1na2vs0mg"},{"bike_id":"a1f36ca3-7077-4235-adb8-8ead169ba95d","system_id":"levelo_inurba_marseille","lat":43.29419,"lon":5.38631,"is_reserved":false,"is_disabled":false,"rental_uris":{"android":"levelo://app?vid=a1f36ca3-7077-4235-adb8-8ead169ba95d","ios":"levelo://app?vid=a1f36ca3-7077-4235-adb8-8ead169ba95d"},"vehicle_type_id":"4","last_reported":1743192663,"current_range_meters":13600,"station_id":"ce4bh2h2rcd13ifvqdh0","pricing_plan_id":"cebpf4jnsgd1na2vs0mg"},{"bike_id":"c62b25f2-48e0-435e-97de-761e7cec02a7","system_id":"levelo_inurba_marseille","lat":43.29412,"lon":5.38638,"is_reserved":false,"is_disabled":false,"rental_uris":{"android":"levelo://app?vid=c62b25f2-48e0-435e-97de-761e7cec02a7","ios":"levelo://app?vid=c62b25f2-48e0-435e-97de-761e7cec02a7"},"vehicle_type_id":"4","last_reported":1743192663,"current_range_meters":13600,"station_id":"ce4bh2h2rcd13ifvqdh0","pricing_plan_id":"cebpf4jnsgd1na2vs0mg"},{"bike_id":"3c090496-14c8-4b9f-b8a0-ed23625e6df8","system_id":"levelo_inurba_marseille","lat":43.29265,"lon":5.38429,"is_reserved":false,"is_disabled":false,"rental_uris":{"android":"levelo://app?vid=3c090496-14c8-4b9f-b8a0-ed23625e6df8","ios":"levelo://app?vid=3c090496-14c8-4b9f-b8a0-ed23625e6df8"},"vehicle_type_id":"4","last_reported":1743192663,"current_range_meters":13600,"station_id":"ce4bh692rcd13ifvqea0","pricing_plan_id":"cebpf4jnsgd1na2vs0mg"},{"bike_id":"622f16e1-15db-4a50-8d47-ed9b01c6f6b8","system_id":"levelo_inurba_marseille","lat":43.29238,"lon":5.36058,"is_reserved":false,"is_disabled":false,"rental_uris":{"android":"levelo://app?vid=622f16e1-15db-4a50-8d47-ed9b01c6f6b8","ios":"levelo://app?vid=622f16e1-15db-4a50-8d47-ed9b01c6f6b8"},"vehicle_type_id":"4","last_reported":1743192663,"current_range_meters":13600,"station_id":"ce4bhbh2rcd13ifvqeqg","pricing_plan_id":"cebpf4jnsgd1na2vs0mg"},{"bike_id":"155e332a-c049-4751-86fe-5bebf51556dc","system_id":"levelo_inurba_marseille","lat":43.24187,"lon":5.39738,"is_reserved":false,"is_disabled":false,"rental_uris":{"android":"levelo://app?vid=155e332a-c049-4751-86fe-5bebf51556dc","ios":"levelo://app?vid=155e332a-c049-4751-86fe-5bebf51556dc"},"vehicle_type_id":"4","last_reported":1743192663,"current_range_meters":13600,"station_id":"ce4bhn12rcd13ifvqgpg","pricing_plan_id":"cebpf4jnsgd1na2vs0mg"},{"bike_id":"3a2e35ff-67f7-42a4-b09b-1fe3ef6e95d8","system_id":"levelo_inurba_marseille","lat":43.22939,"lon":5.35381,"is_reserved":false,"is_disabled":false,"rental_uris":{"android":"levelo://app?vid=3a2e35ff-67f7-42a4-b09b-1fe3ef6e95d8","ios":"levelo://app?vid=3a2e35ff-67f7-42a4-b09b-1fe3ef6e95d8"},"vehicle_type_id":"4","last_reported":1743192663,"current_range_meters":13600,"station_id":"cpo3532slgdg3j2ikp40","pricing_plan_id":"cebpf4jnsgd1na2vs0mg"},{"bike_id":"4bdb6cca-1f6e-49e6-bca3-138ebd6d29d1","system_id":"levelo_inurba_marseille","lat":43.29619,"lon":5.37705,"is_reserved":false,"is_disabled":false,"rental_uris":{"android":"levelo://app?vid=4bdb6cca-1f6e-49e6-bca3-138ebd6d29d1","ios":"levelo://app?vid=4bdb6cca-1f6e-49e6-bca3-138ebd6d29d1"},"vehicle_type_id":"4","last_reported":1743192663,"current_range_meters":14000,"station_id":"ce4bgi92rcd13ifvqb90","pricing_plan_id":"cebpf4jnsgd1na2vs0mg"},{"bike_id":"af711b28-9bc1-4b24-a6ea-2f85ebe1403e","system_id":"levelo_inurba_marseille","lat":43.2936,"lon":5.37842,"is_reserved":false,"is_disabled":false,"rental_uris":{"android":"levelo://app?vid=af711b28-9bc1-4b24-a6ea-2f85ebe1403e","ios":"levelo://app?vid=af711b28-9bc1-4b24-a6ea-2f85ebe1403e"},"vehicle_type_id":"4","last_reported":1743192663,"current_range_meters":14000,"station_id":"ce4bgjh2rcd13ifvqbf0","pricing_plan_id":"cebpf4jnsgd1na2vs0mg"},{"bike_id":"bc029669-eeb2-4839-be1a-8312e37a4d09","system_id":"levelo_inurba_marseille","lat":43.29441,"lon":5.38629,"is_reserved":false,"is_disabled":false,"rental_uris":{"android":"levelo://app?vid=bc029669-eeb2-4839-be1a-8312e37a4d09","ios":"levelo://app?vid=bc029669-eeb2-4839-be1a-8312e37a4d09"},"vehicle_type_id":"4","last_reported":1743192663,"current_range_meters":14000,"station_id":"ce4bh2h2rcd13ifvqdh0","pricing_plan_id":"cebpf4jnsgd1na2vs0mg"},{"bike_id":"ba01c666-662c-417b-ad1f-a72205149f11","system_id":"levelo_inurba_marseille","lat":43.27556,"lon":5.38424,"is_reserved":false,"is_disabled":false,"rental_uris":{"android":"levelo://app?vid=ba01c666-662c-417b-ad1f-a72205149f11","ios":"levelo://app?vid=ba01c666-662c-417b-ad1f-a72205149f11"},"vehicle_type_id":"4","last_reported":1743192663,"current_range_meters":14000,"station_id":"ce4bhh92rcd13ifvqfi0","pricing_plan_id":"cebpf4jnsgd1na2vs0mg"},