{"last_updated":1744204924,"ttl":60,"version":"2.2","data":{"bikes":[{"bike_id":"4b0d5814-cb0a-438b-abaa-a074e55830dd","system_id":"levelo_inurba_marseille","lat":43.32483,"lon":5.36554,"is_reserved":false,"is_disabled":false,"rental_uris":{"android":"levelo://app?vid=4b0d5814-cb0a-438b-abaa-a074e55830dd","ios":"levelo://app?vid=4b0d5814-cb0a-438b-abaa-a074e55830dd"},"vehicle_type_id":"4","last_reported":1744204924,"current_range_meters":2000,"station_id":"ce4bhs12rcd13ifvqhvg","pricing_plan_id":"cebpf4jnsgd1na2vs0mg"},{"bike_id":"831f90cf-1e14-46c9-b921-7d27dd726e89","system_id":"levelo_inurba_marseille","lat":43.24073,"lon":5.37767,"is_reserved":false,"is_disabled":false,"rental_uris":{"android":"levelo://app?vid=831f90cf-1e14-46c9-b921-7d27dd726e89","ios":"levelo://app?vid=831f90cf-1e14-46c9-b921-7d27dd726e89"},"vehicle_type_id":"4","last_reported":1744204924,"current_range_meters":3200,"station_id":"ce4bhnp2rcd13ifvqgvg","pricing_plan_id":"cebpf4jnsgd1na2vs0mg"},{"bike_id":"3ddfb6aa-9918-4dec-96bc-04c3501dd3e3","system_id":"levelo_inurba_marseille","lat":43.27704,"lon":5.38903,"is_reserved":false,"is_disabled":false,"rental_uris":{"android":"levelo://app?vid=3ddfb6aa-9918-4dec-96bc-04c3501dd3e3","ios":"levelo://app?vid=3ddfb6aa-9918-4dec-96bc-04c3501dd3e3"},"vehicle_type_id":"4","last_reported":1744204924,"current_range_meters":3200,"station_id":"ce4bhi12rcd13ifvqfo0","pricing_plan_id":"cebpf4jnsgd1na2vs0mg"},{"bike_id":"8977ebe5-4902-48dd-8548-6b942d324c92","system_id":"levelo_inurba_marseille","lat":43.27833,"lon":5.39212,"is_reserved":false,"is_disabled":false,"rental_uris":{"android":"levelo://app?vid=8977ebe5-4902-48dd-8548-6b942d324c92","ios":"levelo://app?vid=8977ebe5-4902-48dd-8548-6b942d324c92"},"vehicle_type_id":"4","last_reported":1744204924,"current_range_meters":3600,"station_id":"ce4bhjp2rcd13ifvqga0","pricing_plan_id":"cebpf4jnsgd1na2vs0mg"},{"bike_id":"8c4143e2-8229-440a-b1d5-a03e5ba114ed","system_id":"levelo_inurba_marseille","lat":43.25003,"lon":5.389397,"is_reserved":false,"is_disabled":false,"rental_uris":{"android":"levelo://app?vid=8c4143e2-8229-440a-b1d5-a03e5ba114ed","ios":"levelo://app?vid=8c4143e2-8229-440a-b1d5-a03e5ba114ed"},"vehicle_type_id":"4","last_reported":1744204924,"current_range_meters":3600,"station_id":"ce4bhgp2rcd13ifvqfd0","pricing_plan_id":"cebpf4jnsgd1na2vs0mg"},{"bike_id":"f39be6f5-2f69-4c37-b021-559d20b299a4","system_id":"levelo_inurba_marseille","lat":43.30004,"lon":5.37655,"is_reserved":false,"is_disabled":false,"rental_uris":{"android":"levelo://app?vid=f39be6f5-2f69-4c37-b021-559d20b299a4","ios":"levelo://app?vid=f39be6f5-2f69-4c37-b021-559d20b299a4"},"vehicle_type_id":"4","last_reported":1744204924,"current_range_meters":3600,"station_id":"","pricing_plan_id":"cebpf4jnsgd1na2vs0mg"},{"bike_id":"ab754397-c78c-42a6-aa5a-6162406951ef","system_id":"levelo_inurba_marseille","lat":43.27615,"lon":5.36113,"is_reserved":false,"is_disabled":false,"rental_uris":{"android":"levelo://app?vid=ab754397-c78c-42a6-aa5a-6162406951ef","ios":"levelo://app?vid=ab754397-c78c-42a6-aa5a-6162406951ef"},"vehicle_type_id":"4","last_reported":1744204924,"current_range_meters":3200,"station_id":"ce4bgj92rcd13ifvqbe0","pricing_plan_id":"cebpf4jnsgd1na2vs0mg"},{"bike_id":"04ea21db-9998-4cdc-8b93-e4b23b0ed540","system_id":"levelo_inurba_marseille","lat":43.26115,"lon":5.39571,"is_reserved":false,"is_disabled":false,"rental_uris":{"android":"levelo://app?vid=04ea21db-9998-4cdc-8b93-e4b23b0ed540","ios":"levelo://app?vid=04ea21db-9998-4cdc-8b93-e4b23b0ed540"},"vehicle_type_id":"4","last_reported":1744204924,"current_range_meters":3600,"station_id":"","pricing_plan_id":"cebpf4jnsgd1na2vs0mg"},{"bike_id":"3576b946-70b3-456f-a60a-d98e227f015c","system_id":"levelo_inurba_marseille","lat":43.30127,"lon":5.38228,"is_reserved":false,"is_disabled":false,"rental_uris":{"android":"levelo://app?vid=3576b946-70b3-456f-a60a-d98e227f015c","ios":"levelo://app?vid=3576b946-70b3-456f-a60a-d98e227f015c"},"vehicle_type_id":"4","last_reported":1744204924,"current_range_meters":4000,"station_id":"","pricing_plan_id":"cebpf4jnsgd1na2vs0mg"},{"bike_id":"918fbbb9-9d8e-4989-bb5d-8ff2da945c3b","system_id":"levelo_inurba_marseille","lat":43.26205,"lon":5.37933,"is_reserved":false,"is_disabled":false,"rental_uris":{"android":"levelo://app?vid=918fbbb9-9d8e-4989-bb5d-8ff2da945c3b","ios":"levelo://app?vid=918fbbb9-9d8e-4989-bb5d-8ff2da945c3b"},"vehicle_type_id":"4","last_reported":1744204924,"current_range_meters":4000,"station_id":"ce4bhjp2rcd13ifvqg90","pricing_plan_id":"cebpf4jnsgd1na2vs0mg"},{"bike_id":"d5466edd-97c7-46c9-9ff4-def78a25ae73","system_id":"levelo_inurba_marseille","lat":43.29373,"lon":5.37848,"is_reserved":false,"is_disabled":false,"rental_uris":{"android":"levelo://app?vid=d5466edd-97c7-46c9-9ff4-def78a25ae73","ios":"levelo://app?vid=d5466edd-97c7-46c9-9ff4-def78a25ae73"},"vehicle_type_id":"4","last_reported":1744204924,"current_range_meters":4400,"station_id":"ce4bgjh2rcd13ifvqbf0","pricing_plan_id":"cebpf4jnsgd1na2vs0mg"},{"bike_id":"3dacb78c-23e8-43c0-b367-cfdc8b13b4d5","system_id":"levelo_inurba_marseille","lat":43.25936,"lon":5.40912,"is_reserved":false,"is_disabled":false,"rental_uris":{"android":"levelo://app?vid=3dacb78c-23e8-43c0-b367-cfdc8b13b4d5","ios":"levelo://app?vid=3dacb78c-23e8-43c0-b367-cfdc8b13b4d5"},"vehicle_type_id":"4","last_reported":1744204924,"current_range_meters":4400,"station_id":"ce4bhm92rcd13ifvqglg","pricing_plan_id":"cebpf4jnsgd1na2vs0mg"},{"bike_id":"f1400516-f3e9-4a89-b0a4-876cb8e08004","system_id":"levelo_inurba_marseille","lat":43.31997,"lon":5.38162,"is_reserved":false,"is_disabled":false,"rental_uris":{"android":"levelo://app?vid=f1400516-f3e9-4a89-b0a4-876cb8e08004","ios":"levelo://app?vid=f1400516-f3e9-4a89-b0a4-876cb8e08004"},"vehicle_type_id":"4","last_reported":1744204924,"current_range_meters":4400,"station_id":"ce4bhr12rcd13ifvqhpg","pricing_plan_id":"cebpf4jnsgd1na2vs0mg"},{"bike_id":"923ba46d-39df-4e3e-aad5-a520a79e3ef9","system_id":"levelo_inurba_marseille","lat":43.275,"lon":5.42459,"is_reserved":false,"is_disabled":false,"rental_uris":{"android":"levelo://app?vid=923ba46d-39df-4e3e-aad5-a520a79e3ef9","ios":"levelo://app?vid=923ba46d-39df-4e3e-aad5-a520a79e3ef9"},"vehicle_type_id":"4","last_reported":1744204924,"current_range_meters":4800,"station_id":"ce4bhn92rcd13ifvqgrg","pricing_plan_id":"cebpf4jnsgd1na2vs0mg"},{"bike_id":"b0e70e48-f0ae-4e70-acf1-d92ac7d0b960","system_id":"levelo_inurba_marseille","lat":43.23153,"lon":5.43718,"is_reserved":false,"is_disabled":false,"rental_uris":{"android":"levelo://app?vid=b0e70e48-f0ae-4e70-acf1-d92ac7d0b960","ios":"levelo://app?vid=b0e70e48-f0ae-4e70-acf1-d92ac7d0b960"},"vehicle_type_id":"4","last_reported":1744204924,"current_range_meters":4800,"station_id":"ce4bhmp2rcd13ifvqgog","pricing_plan_id":"cebpf4jnsgd1na2vs0mg"},{"bike_id":"9c15422c-5b43-4d5c-a90c-20e7633df8bc","system_id":"levelo_inurba_marseille","lat":43.30302,"lon":5.39213,"is_reserved":false,"is_disabled":false,"rental_uris":{"android":"levelo://app?vid=9c15422c-5b43-4d5c-a90c-20e7633df8bc","ios":"levelo://app?vid=9c15422c-5b43-4d5c-a90c-20e7633df8bc"},"vehicle_type_id":"4","last_reported":1744204924,"current_range_meters":4800,"station_id":"ce4bgkh2rcd13ifvqbk0","pricing_plan_id":"cebpf4jnsgd1na2vs0mg"},{"bike_id":"61faeab7-d3b1-42ea-8185-a6bb834269b2","system_id":"levelo_inurba_marseille","lat":43.27122,"lon":5.41456,"is_reserved":false,"is_disabled":false,"rental_uris":{"android":"levelo://app?vid=61faeab7-d3b1-42ea-8185-a6bb834269b2","ios":"levelo://app?vid=61faeab7-d3b1-42ea-8185-a6bb834269b2"},"vehicle_type_id":"4","last_reported":1744204924,"current_range_meters":4800,"station_id":"","pricing_plan_id":"cebpf4jnsgd1na2vs0mg"},{"bike_id":"099d4db5-1866-4498-8fca-410ebd49592e","system_id":"levelo_inurba_marseille","lat":43.24404,"lon":5.37004,"is_reserved":false,"is_disabled":false,"rental_uris":{"android":"levelo://app?vid=099d4db5-1866-4498-8fca-410ebd49592e","ios":"levelo://app?vid=099d4db5-1866-4498-8fca-410ebd49592e"},"vehicle_type_id":"4","last_reported":1744204924,"current_range_meters":4800,"station_id":"ce4bhhh2rcd13ifvqfk0","pricing_plan_id":"cebpf4jnsgd1na2vs0mg"},{"bike_id":"da97dde4-bac9-4075-bc83-4de773e527b9","system_id":"levelo_inurba_marseille","lat":43.24074,"lon":5.37764,"is_reserved":false,"is_disabled":false,"rental_uris":{"android":"levelo://app?vid=da97dde4-bac9-4075-bc83-4de773e527b9","ios":"levelo://app?vid=da97dde4-bac9-4075-bc83-4de773e527b9"},"vehicle_type_id":"4","last_reported":1744204924,"current_range_meters":5600,"station_id":"ce4bhnp2rcd13ifvqgvg","pricing_plan_id":"cebpf4jnsgd1na2vs0mg"},{"bike_id":"622aed83-162c-45ed-af90-8668ff7674c5","system_id":"levelo_inurba_marseille","lat":43.285851,"lon":5.394846,"is_reserved":false,"is_disabled":false,"rental_uris":{"android":"levelo://app?vid=622aed83-162c-45ed-af90-8668ff7674c5","ios":"levelo://app?vid=622aed83-162c-45ed-af90-8668ff7674c5"},"vehicle_type_id":"4","last_reported":1744204924,"current_range_meters":5600,"station_id":"ce4bhph2rcd13ifvqhdg","pricing_plan_id":"cebpf4jnsgd1na2vs0mg"},{"bike_id":"92a7db0e-78d8-4644-87c9-23be55a2a2b9","system_id":"levelo_inurba_marseille","lat":43.30154,"lon":5.38102,"is_reserved":false,"is_disabled":false,"rental_uris":{"android":"levelo://app?vid=92a7db0e-78d8-4644-87c9-23be55a2a2b9","ios":"levelo://app?vid=92a7db0e-78d8-4644-87c9-23be55a2a2b9"},"vehicle_type_id":"4","last_reported":1744204924,"current_range_meters":6000,"station_id":"ce4bgjp2rcd13ifvqbh0","pricing_plan_id":"cebpf4jnsgd1na2vs0mg"},{"bike_id":"4b01fa19-ef7c-4526-90e1-4b6fa78d5926","system_id":"levelo_inurba_marseille","lat":43.262115,"lon":5.374402,"is_reserved":false,"is_disabled":false,"rental_uris":{"android":"levelo://app?vid=4b01fa19-ef7c-4526-90e1-4b6fa78d5926","ios":"levelo://app?vid=4b01fa19-ef7c-4526-90e1-4b6fa78d5926"},"vehicle_type_id":"4","last_reported":1744204924,"current_range_meters":6400,"station_id":"ce4bhgp2rcd13ifvqfc0","pricing_plan_id":"cebpf4jnsgd1na2vs0mg"},{"bike_id":"46c21e63-da81-4e0b-8ed7-18f9612ee19c","system_id":"levelo_inurba_marseille","lat":43.2418,"lon":5.39739,"is_reserved":false,"is_disabled":false,"rental_uris":{"android":"levelo://app?vid=46c21e63-da81-4e0b-8ed7-18f9612ee19c","ios":"levelo://app?vid=46c21e63-da81-4e0b-8ed7-18f9612ee19c"},"vehicle_type_id":"4","last_reported":1744204924,"current_range_meters":6400,"station_id":"ce4bhn12rcd13ifvqgpg","pricing_plan_id":"cebpf4jnsgd1na2vs0mg"},{"bike_id":"ec41b842-c84f-4ab1-894c-fc6101e00efb","system_id":"levelo_inurba_marseille","lat":43.31713,"lon":5.40295,"is_reserved":false,"is_disabled":false,"rental_uris":{"android":"levelo://app?vid=ec41b842-c84f-4ab1-894c-fc6101e00efb","ios":"levelo://app?vid=ec41b842-c84f-4ab1-894c-fc6101e00efb"},"vehicle_type_id":"4","last_reported":1744204924,"current_range_meters":6400,"station_id":"","pricing_plan_id":"cebpf4jnsgd1na2vs0mg"},{"bike_id":"c602ac29-c6be-4d30-91e5-e37dd276b28d","system_id":"levelo_inurba_marseille","lat":43.25585,"lon":5.38249,"is_reserved":false,"is_disabled":false,"rental_uris":{"android":"levelo://app?vid=c602ac29-c6be-4d30-91e5-e37dd276b28d","ios":"levelo://app?vid=c602ac29-c6be-4d30-91e5-e37dd276b28d"},"vehicle_type_id":"4","last_reported":1744204924,"current_range_meters":6400,"station_id":"ce4bhih2rcd13ifvqfs0","pricing_plan_id":"cebpf4jnsgd1na2vs0mg"},{"bike_id":"70810d3e-9936-4863-b211-84f880613e88","system_id":"levelo_inurba_marseille","lat":43.312923,"lon":5.373256,"is_reserved":false,"is_disabled":false,"rental_uris":{"android":"levelo://app?vid=70810d3e-9936-4863-b211-84f880613e88","ios":"levelo://app?vid=70810d3e-9936-4863-b211-84f880613e88"},"vehicle_type_id":"4","last_reported":1744204924,"current_range_meters":6800,"station_id":"","pricing_plan_id":"cebpf4jnsgd1na2vs0mg"},{"bike_id":"b9ffbb9f-ac9f-43be-864d-4deb50df05a9","system_id":"levelo_inurba_marseille","lat":43.3171,"lon":5.43702,"is_reserved":false,"is_disabled":false,"rental_uris":{"android":"levelo://app?vid=b9ffbb9f-ac9f-43be-864d-4deb50df05a9","ios":"levelo://app?vid=b9ffbb9f-ac9f-43be-864d-4deb50df05a9"},"vehicle_type_id":"4","last_reported":1744204924,"current_range_meters":6800,"station_id":"ce4bhp92rcd13ifvqhcg","pricing_plan_id":"cebpf4jnsgd1na2vs0mg"},{"bike_id":"5d0eb38d-4aa4-4cc0-a934-61a1654e5fa0","system_id":"levelo_inurba_marseille","lat":43.28745,"lon":5.39952,"is_reserved":false,"is_disabled":false,"rental_uris":{"android":"levelo://app?vid=5d0eb38d-4aa4-4cc0-a934-61a1654e5fa0","ios":"levelo://app?vid=5d0eb38d-4aa4-4cc0-a934-61a1654e5fa0"},"vehicle_type_id":"4","last_reported":1744204924,"current_range_meters":6800,"station_id":"ce4bho92rcd13ifvqh3g","pricing_plan_id":"cebpf4jnsgd1na2vs0mg"},{"bike_id":"3d0cae43-5b75-4aac-b7cb-471ce1151dd5","system_id":"levelo_inurba_marseille","lat":43.33043,"lon":5.39524,"is_reserved":false,"is_disabled":false,"rental_uris":{"android":"levelo://app?vid=3d0cae43-5b75-4aac-b7cb-471ce1151dd5","ios":"levelo://app?vid=3d0cae43-5b75-4aac-b7cb-471ce1151dd5"},"vehicle_type_id":"4","last_reported":1744204924,"current_range_meters":7200,"station_id":"","pricing_plan_id":"cebpf4jnsgd1na2vs0mg"},{"bike_id":"5e6ad826-38da-4531-b4ba-2eda8622ede3","system_id":"levelo_inurba_marseille","lat":43.31098,"lon":5.40466,"is_reserved":false,"is_disabled":false,"rental_uris":{"android":"levelo://app?vid=5e6ad826-38da-4531-b4ba-2eda8622ede3","ios":"levelo://app?vid=5e6ad826-38da-4531-b4ba-2eda8622ede3"},"vehicle_type_id":"4","last_reported":1744204924,"current_range_meters":7200,"station_id":"","pricing_plan_id":"cebpf4jnsgd1na2vs0mg"},{"bike_id":"2ea82f47-91e0-401f-a1b7-7b33c75af7f3","system_id":"levelo_inurba_marseille","lat":43.2951,"lon":5.39046,"is_reserved":false,"is_disabled":false,"rental_uris":{"android":"levelo://app?vid=2ea82f47-91e0-401f-a1b7-7b33c75af7f3","ios":"levelo://app?vid=2ea82f47-91e0-401f-a1b7-7b33c75af7f3"},"vehicle_type_id":"4","last_reported":1744204924,"current_range_meters":7200,"station_id":"ce4bh3p2rcd13ifvqdp0","pricing_plan_id":"cebpf4jnsgd1na2vs0mg"},{"bike_id":"68d1cc33-0218-451e-8e10-d32225c21263","system_id":"levelo_inurba_marseille","lat":43.23153,"lon":5.43688,"is_reserved":false,"is_disabled":true,"rental_uris":{"android":"levelo://app?vid=68d1cc33-0218-451e-8e10-d32225c21263","ios":"levelo://app?vid=68d1cc33-0218-451e-8e10-d32225c21263"},"vehicle_type_id":"4","last_reported":1744204924,"current_range_meters":8000,"station_id":"ce4bhmp2rcd13ifvqgog","pricing_plan_id":"cebpf4jnsgd1na2vs0mg"},{"bike_id":"23babc0c-2473-4b4c-ad96-508f8f2db285","system_id":"levelo_inurba_marseille","lat":43.28417,"lon":5.3498,"is_reserved":false,"is_disabled":false,"rental_uris":{"android":"levelo://app?vid=23babc0c-2473-4b4c-ad96-508f8f2db285","ios":"levelo://app?vid=23babc0c-2473-4b4c-ad96-508f8f2db285"},"vehicle_type_id":"4","last_reported":1744204924,"current_range_meters":8400,"station_id":"ce4bhbh2rcd13ifvqepg","pricing_plan_id":"cebpf4jnsgd1na2vs0mg"},{"bike_id":"99d6d7ba-d46f-4435-aa62-78ae6f6f2994","system_id":"levelo_inurba_marseille","lat":43.289866,"lon":5.378304,"is_reserved":false,"is_disabled":false,"rental_uris":{"android":"levelo://app?vid=99d6d7ba-d46f-4435-aa62-78ae6f6f2994","ios":"levelo://app?vid=99d6d7ba-d46f-4435-aa62-78ae6f6f2994"},"vehicle_type_id":"4","last_reported":1744204924,"current_range_meters":8400,"station_id":"ce4bh9p2rcd13ifvqed0","pricing_plan_id":"cebpf4jnsgd1na2vs0mg"},{"bike_id":"e928b71c-b3eb-42b5-ad6c-eaecbb58e874","system_id":"levelo_inurba_marseille","lat":43.24668,"lon":5.3817,"is_reserved":false,"is_disabled":false,"rental_uris":{"android":"levelo://app?vid=e928b71c-b3eb-42b5-ad6c-eaecbb58e874","ios":"levelo://app?vid=e928b71c-b3eb-42b5-ad6c-eaecbb58e874"},"vehicle_type_id":"4","last_reported":1744204924,"current_range_meters":8000,"station_id":"ce4bhih2rcd13ifvqfr0","pricing_plan_id":"cebpf4jnsgd1na2vs0mg"},{"bike_id":"5bbe05f9-56ef-4551-9c27-b4dfafd89121","system_id":"levelo_inurba_marseille","lat":43.29004,"lon":5.35611,"is_reserved":false,"is_disabled":false,"rental_uris":{"android":"levelo://app?vid=5bbe05f9-56ef-4551-9c27-b4dfafd89121","ios":"levelo://app?vid=5bbe05f9-56ef-4551-9c27-b4dfafd89121"},"vehicle_type_id":"4","last_reported":1744204924,"current_range_meters":8400,"station_id":"ce4bhb92rcd13ifvqen0","pricing_plan_id":"cebpf4jnsgd1na2vs0mg"},{"bike_id":"2316a27d-e8bc-4c82-90fe-4120ccb0ef4b","system_id":"levelo_inurba_marseille","lat":43.23149,"lon":5.43711,"is_reserved":false,"is_disabled":false,"rental_uris":{"android":"levelo://app?vid=2316a27d-e8bc-4c82-90fe-4120ccb0ef4b","ios":"levelo://app?vid=2316a27d-e8bc-4c82-90fe-4120ccb0ef4b"},"vehicle_type_id":"4","last_reported":1744204924,"current_range_meters":8400,"station_id":"ce4bhmp2rcd13ifvqgog","pricing_plan_id":"cebpf4jnsgd1na2vs0mg"},{"bike_id":"80663e12-6b64-446d-88c9-20255bde1a8a","system_id":"levelo_inurba_marseille","lat":43.308951,"lon":5.396346,"is_reserved":false,"is_disabled":true,"rental_uris":{"android":"levelo://app?vid=80663e12-6b64-446d-88c9-20255bde1a8a","ios":"levelo://app?vid=80663e12-6b64-446d-88c9-20255bde1a8a"},"vehicle_type_id":"4","last_reported":1744204924,"current_range_meters":8800,"station_id":"ce4bh012rcd13ifvqcv0","pricing_plan_id":"cebpf4jnsgd1na2vs0mg"},{"bike_id":"a566336b-6133-47a6-ad7f-74f32862e29a","system_id":"levelo_inurba_marseille","lat":43.30389,"lon":5.42502,"is_reserved":false,"is_disabled":false,"rental_uris":{"android":"levelo://app?vid=a566336b-6133-47a6-ad7f-74f32862e29a","ios":"levelo://app?vid=a566336b-6133-47a6-ad7f-74f32862e29a"},"vehicle_type_id":"4","last_reported":1744204924,"current_range_meters":8800,"station_id":"ce4bhoh2rcd13ifvqh6g","pricing_plan_id":"cebpf4jnsgd1na2vs0mg"},{"bike_id":"08f9c0c8-8b33-4578-8a03-20f44d582241","system_id":"levelo_inurba_marseille","lat":43.3058,"lon":5.37157,"is_reserved":false,"is_disabled":false,"rental_uris":{"android":"levelo://app?vid=08f9c0c8-8b33-4578-8a03-20f44d582241","ios":"levelo://app?vid=08f9c0c8-8b33-4578-8a03-20f44d582241"},"vehicle_type_id":"4","last_reported":1744204924,"current_range_meters":8800,"station_id":"","pricing_plan_id":"cebpf4jnsgd1na2vs0mg"},{"bike_id":"feca3d9e-12e9-4a3a-8f8a-211aa953b3fa","system_id":"levelo_inurba_marseille","lat":43.29319,"lon":5.41144,"is_reserved":false,"is_disabled":false,"rental_uris":{"android":"levelo://app?vid=feca3d9e-12e9-4a3a-8f8a-211aa953b3fa","ios":"levelo://app?vid=feca3d9e-12e9-4a3a-8f8a-211aa953b3fa"},"vehicle_type_id":"4","last_reported":1744204924,"current_range_meters":8800,"station_id":"","pricing_plan_id":"cebpf4jnsgd1na2vs0mg"},{"bike_id":"a3c271f8-4669-4f80-889c-81d556c2876e","system_id":"levelo_inurba_marseille","lat":43.28925,"lon":5.38408,"is_reserved":false,"is_disabled":false,"rental_uris":{"android":"levelo://app?vid=a3c271f8-4669-4f80-889c-81d556c2876e","ios":"levelo://app?vid=a3c271f8-4669-4f80-889c-81d556c2876e"},"vehicle_type_id":"4","last_reported":1744204924,"current_range_meters":8800,"station_id":"ce4bh612rcd13ifvqe6g","pricing_plan_id":"cebpf4jnsgd1na2vs0mg"},{"bike_id":"b397701f-0d3d-44bf-ab3e-3ccc7e74fb2e","system_id":"levelo_inurba_marseille","lat":43.26453,"lon":5.42248,"is_reserved":false,"is_disabled":false,"rental_uris":{"android":"levelo://app?vid=b397701f-0d3d-44bf-ab3e-3ccc7e74fb2e","ios":"levelo://app?vid=b397701f-0d3d-44bf-ab3e-3ccc7e74fb2e"},"vehicle_type_id":"4","last_reported":1744204924,"current_range_meters":8800,"station_id":"","pricing_plan_id":"cebpf4jnsgd1na2vs0mg"},{"bike_id":"ad212075-aa88-4f52-8b77-40fff53ff563","system_id":"levelo_inurba_marseille","lat":43.30372,"lon":5.42486,"is_reserved":false,"is_disabled":false,"rental_uris":{"android":"levelo://app?vid=ad212075-aa88-4f52-8b77-40fff53ff563","ios":"levelo://app?vid=ad212075-aa88-4f52-8b77-40fff53ff563"},"vehicle_type_id":"4","last_reported":1744204924,"current_range_meters":8800,"station_id":"ce4bhoh2rcd13ifvqh6g","pricing_plan_id":"cebpf4jnsgd1na2vs0mg"},{"bike_id":"8386773b-06c3-4390-9da3-18aa2d27d571","system_id":"levelo_inurba_marseille","lat":43.21195,"lon":5.35077,"is_reserved":false,"is_disabled":false,"rental_uris":{"android":"levelo://app?vid=8386773b-06c3-4390-9da3-18aa2d27d571","ios":"levelo://app?vid=8386773b-06c3-4390-9da3-18aa2d27d571"},"vehicle_type_id":"4","last_reported":1744204924,"current_range_meters":9200,"station_id":"st_cvj6sg6p6f1abm77japg","pricing_plan_id":"cebpf4jnsgd1na2vs0mg"},{"bike_id":"b96be04a-adcd-4816-8c18-ee76dccce0e8","system_id":"levelo_inurba_marseille","lat":43.24169,"lon":5.36395,"is_reserved":false,"is_disabled":false,"rental_uris":{"android":"levelo://app?vid=b96be04a-adcd-4816-8c18-ee76dccce0e8","ios":"levelo://app?vid=b96be04a-adcd-4816-8c18-ee76dccce0e8"},"vehicle_type_id":"4","last_reported":1744204924,"current_range_meters":9200,"station_id":"cpo36qri1sfpv3e86is0","pricing_plan_id":"cebpf4jnsgd1na2vs0mg"},{"bike_id":"99622fe2-da7f-481d-a8c9-0ec52cf642db","system_id":"levelo_inurba_marseille","lat":43.2893,"lon":5.38401,"is_reserved":false,"is_disabled":false,"rental_uris":{"android":"levelo://app?vid=99622fe2-da7f-481d-a8c9-0ec52cf642db","ios":"levelo://app?vid=99622fe2-da7f-481d-a8c9-0ec52cf642db"},"vehicle_type_id":"4","last_reported":1744204924,"current_range_meters":9200,"station_id":"ce4bh612rcd13ifvqe6g","pricing_plan_id":"cebpf4jnsgd1na2vs0mg"},{"bike_id":"0074a9c5-7a7c-47dc-9dd1-3974b940d14a","system_id":"levelo_inurba_marseille","lat":43.26232,"lon":5.40455,"is_reserved":false,"is_disabled":false,"rental_uris":{"android":"levelo://app?vid=0074a9c5-7a7c-47dc-9dd1-3974b940d14a","ios":"levelo://app?vid=0074a9c5-7a7c-47dc-9dd1-3974b940d14a"},"vehicle_type_id":"4","last_reported":1744204924,"current_range_meters":9200,"station_id":"ce4bhmh2rcd13ifvqgmg","pricing_plan_id":"cebpf4jnsgd1na2vs0mg"},{"bike_id":"277e6f5c-d8ad-44e7-a12d-443a0c0a77ee","system_id":"levelo_inurba_marseille","lat":43.29098,"lon":5.38131,"is_reserved":false,"is_disabled":false,"rental_uris":{"android":"levelo://app?vid=277e6f5c-d8ad-44e7-a12d-443a0c0a77ee","ios":"levelo://app?vid=277e6f5c-d8ad-44e7-a12d-443a0c0a77ee"},"vehicle_type_id":"4","last_reported":1744204924,"current_range_meters":9200,"station_id":"ce4bh512rcd13ifvqe2g","pricing_plan_id":"cebpf4jnsgd1na2vs0mg"},{"bike_id":"ec1e7ef0-7d4f-48d7-ab8d-e97c85a31b8d","system_id":"levelo_inurba_marseille","lat":43.31174,"lon":5.38719,"is_reserved":false,"is_disabled":false,"rental_uris":{"android":"levelo://app?vid=ec1e7ef0-7d4f-48d7-ab8d-e97c85a31b8d","ios":"levelo://app?vid=ec1e7ef0-7d4f-48d7-ab8d-e97c85a31b8d"},"vehicle_type_id":"4","last_reported":1744204924,"current_range_meters":9200,"station_id":"ce4bgv12rcd13ifvqcp0","pricing_plan_id":"cebpf4jnsgd1na2vs0mg"},{"bike_id":"d5f58dc4-b1b3-47ca-92bc-8452490c4ba1","system_id":"levelo_inurba_marseille","lat":43.2992,"lon":5.3746,"is_reserved":false,"is_disabled":false,"rental_uris":{"android":"levelo://app?vid=d5f58dc4-b1b3-47ca-92bc-8452490c4ba1","ios":"levelo://app?vid=d5f58dc4-b1b3-47ca-92bc-8452490c4ba1"},"vehicle_type_id":"4","last_reported":1744204924,"current_range_meters":9600,"station_id":"ce4bgjh2rcd13ifvqbg0","pricing_plan_id":"cebpf4jnsgd1na2vs0mg"},{"bike_id":"d6f371a4-f8aa-4bb3-9811-78985d1c85f5","system_id":"levelo_inurba_marseille","lat":43.28103,"lon":5.37832,"is_reserved":false,"is_disabled":false,"rental_uris":{"android":"levelo://app?vid=d6f371a4-f8aa-4bb3-9811-78985d1c85f5","ios":"levelo://app?vid=d6f371a4-f8aa-4bb3-9811-78985d1c85f5"},"vehicle_type_id":"4","last_reported":1744204924,"current_range_meters":9600,"station_id":"ce4bha12rcd13ifvqee0","pricing_plan_id":"cebpf4jnsgd1na2vs0mg"},{"bike_id":"ce0fd5b8-478f-4f08-869c-935a7a4c659f","system_id":"levelo_inurba_marseille","lat":43.33273,"lon":5.37975,"is_reserved":false,"is_disabled":false,"rental_uris":{"android":"levelo://app?vid=ce0fd5b8-478f-4f08-869c-935a7a4c659f","ios":"levelo://app?vid=ce0fd5b8-478f-4f08-869c-935a7a4c659f"},"vehicle_type_id":"4","last_reported":1744204924,"current_range_meters":9600,"station_id":"","pricing_plan_id":"cebpf4jnsgd1na2vs0mg"},{"bike_id":"9e06eb9e-6294-43df-b8a3-17186ee086c3","system_id":"levelo_inurba_marseille","lat":43.24388,"lon":5.37056,"is_reserved":false,"is_disabled":false,"rental_uris":{"android":"levelo://app?vid=9e06eb9e-6294-43df-b8a3-17186ee086c3","ios":"levelo://app?vid=9e06eb9e-6294-43df-b8a3-17186ee086c3"},"vehicle_type_id":"4","last_reported":1744204924,"current_range_meters":9600,"station_id":"ce4bhhh2rcd13ifvqfk0","pricing_plan_id":"cebpf4jnsgd1na2vs0mg"},{"bike_id":"57965f83-5085-46a6-a177-1744be026756","system_id":"levelo_inurba_marseille","lat":43.28856,"lon":5.35861,"is_reserved":false,"is_disabled":false,"rental_uris":{"android":"levelo://app?vid=57965f83-5085-46a6-a177-1744be026756","ios":"levelo://app?vid=57965f83-5085-46a6-a177-1744be026756"},"vehicle_type_id":"4","last_reported":1744204924,"current_range_meters":9600,"station_id":"ce4bhb12rcd13ifvqem0","pricing_plan_id":"cebpf4jnsgd1na2vs0mg"},{"bike_id":"a26c8be7-2380-4aab-8ce4-a3f8c74820d9","system_id":"levelo_inurba_marseille","lat":43.30813,"lon":5.38154,"is_reserved":false,"is_disabled":false,"rental_uris":{"android":"levelo://app?vid=a26c8be7-2380-4aab-8ce4-a3f8c74820d9","ios":"levelo://app?vid=a26c8be7-2380-4aab-8ce4-a3f8c74820d9"},"vehicle_type_id":"4","last_reported":1744204924,"current_range_meters":9600,"station_id":"ce4bgt12rcd13ifvqce0","pricing_plan_id":"cebpf4jnsgd1na2vs0mg"},{"bike_id":"800cc588-7a6b-4d8f-ac3d-de2cee9fba3f","system_id":"levelo_inurba_marseille","lat":43.28455,"lon":5.35885,"is_reserved":false,"is_disabled":false,"rental_uris":{"android":"levelo://app?vid=800cc588-7a6b-4d8f-ac3d-de2cee9fba3f","ios":"levelo://app?vid=800cc588-7a6b-4d8f-ac3d-de2cee9fba3f"},"vehicle_type_id":"4","last_reported":1744204924,"current_range_meters":10000,"station_id":"ce4bhah2rcd13ifvqei0","pricing_plan_id":"cebpf4jnsgd1na2vs0mg"},{"bike_id":"a05aa4c3-d88e-43ec-806a-f90131c2363b","system_id":"levelo_inurba_marseille","lat":43.245532,"lon":5.395204,"is_reserved":false,"is_disabled":false,"rental_uris":{"android":"levelo://app?vid=a05aa4c3-d88e-43ec-806a-f90131c2363b","ios":"levelo://app?vid=a05aa4c3-d88e-43ec-806a-f90131c2363b"},"vehicle_type_id":"4","last_reported":1744204924,"current_range_meters":9600,"station_id":"ce4bhlp2rcd13ifvqgjg","pricing_plan_id":"cebpf4jnsgd1na2vs0mg"},{"bike_id":"1180a7b1-52e4-45a6-a35d-3a6133d07906","system_id":"levelo_inurba_marseille","lat":43.30135,"lon":5.37427,"is_reserved":false,"is_disabled":false,"rental_uris":{"android":"levelo://app?vid=1180a7b1-52e4-45a6-a35d-3a6133d07906","ios":"levelo://app?vid=1180a7b1-52e4-45a6-a35d-3a6133d07906"},"vehicle_type_id":"4","last_reported":1744204924,"current_range_meters":10000,"station_id":"ce4bgs92rcd13ifvqcc0","pricing_plan_id":"cebpf4jnsgd1na2vs0mg"},{"bike_id":"7360df43-e04e-4cff-b435-fb615ae1ecf1","system_id":"levelo_inurba_marseille","lat":43.28272,"lon":5.35059,"is_reserved":false,"is_disabled":false,"rental_uris":{"android":"levelo://app?vid=7360df43-e04e-4cff-b435-fb615ae1ecf1","ios":"levelo://app?vid=7360df43-e04e-4cff-b435-fb615ae1ecf1"},"vehicle_type_id":"4","last_reported":1744204924,"current_range_meters":10000,"station_id":"ce4bhbp2rcd13ifvqerg","pricing_plan_id":"cebpf4jnsgd1na2vs0mg"},{"bike_id":"38c43302-d0f3-42c8-89fb-a9374ff631e5","system_id":"levelo_inurba_marseille","lat":43.30517,"lon":5.36527,"is_reserved":false,"is_disabled":false,"rental_uris":{"android":"levelo://app?vid=38c43302-d0f3-42c8-89fb-a9374ff631e5","ios":"levelo://app?vid=38c43302-d0f3-42c8-89fb-a9374ff631e5"},"vehicle_type_id":"4","last_reported":1744204924,"current_range_meters":10000,"station_id":"","pricing_plan_id":"cebpf4jnsgd1na2vs0mg"},{"bike_id":"58e8190f-cded-4bd0-8488-a02552cd7e3b","system_id":"levelo_inurba_marseille","lat":43.3053,"lon":5.36525,"is_reserved":false,"is_disabled":false,"rental_uris":{"android":"levelo://app?vid=58e8190f-cded-4bd0-8488-a02552cd7e3b","ios":"levelo://app?vid=58e8190f-cded-4bd0-8488-a02552cd7e3b"},"vehicle_type_id":"4","last_reported":1744204924,"current_range_meters":10000,"station_id":"ce4bgs12rcd13ifvqcag","pricing_plan_id":"cebpf4jnsgd1na2vs0mg"},{"bike_id":"0b0ea558-fa75-4e5c-8cad-9f35d63664bc","system_id":"levelo_inurba_marseille","lat":43.25119,"lon":5.4032,"is_reserved":false,"is_disabled":false,"rental_uris":{"android":"levelo://app?vid=0b0ea558-fa75-4e5c-8cad-9f35d63664bc","ios":"levelo://app?vid=0b0ea558-fa75-4e5c-8cad-9f35d63664bc"},"vehicle_type_id":"4","last_reported":1744204924,"current_range_meters":10800,"station_id":"ce4bhlh2rcd13ifvqgig","pricing_plan_id":"cebpf4jnsgd1na2vs0mg"},{"bike_id":"b47960c6-0205-4b83-a76d-013331f6c916","system_id":"levelo_inurba_marseille","lat":43.24399,"lon":5.37061,"is_reserved":false,"is_disabled":false,"rental_uris":{"android":"levelo://app?vid=b47960c6-0205-4b83-a76d-013331f6c916","ios":"levelo://app?vid=b47960c6-0205-4b83-a76d-013331f6c916"},"vehicle_type_id":"4","last_reported":1744204924,"current_range_meters":10800,"station_id":"ce4bhhh2rcd13ifvqfk0","pricing_plan_id":"cebpf4jnsgd1na2vs0mg"},{"bike_id":"a1427e17-31fc-46e9-84d6-c1feb5cc4e23","system_id":"levelo_inurba_marseille","lat":43.29572,"lon":5.37504,"is_reserved":false,"is_disabled":false,"rental_uris":{"android":"levelo://app?vid=a1427e17-31fc-46e9-84d6-c1feb5cc4e23","ios":"levelo://app?vid=a1427e17-31fc-46e9-84d6-c1feb5cc4e23"},"vehicle_type_id":"4","last_reported":1744204924,"current_range_meters":10800,"station_id":"ce4bgh92rcd13ifvqb50","pricing_plan_id":"cebpf4jnsgd1na2vs0mg"},{"bike_id":"dad855de-93e4-4284-9b13-db07d91df72a","system_id":"levelo_inurba_marseille","lat":43.21743,"lon":5.34632,"is_reserved":false,"is_disabled":false,"rental_uris":{"android":"levelo://app?vid=dad855de-93e4-4284-9b13-db07d91df72a","ios":"levelo://app?vid=dad855de-93e4-4284-9b13-db07d91df72a"},"vehicle_type_id":"4","last_reported":1744204924,"current_range_meters":10800,"station_id":"st_cvj6r9ubvosntc0bgbag","pricing_plan_id":"cebpf4jnsgd1na2vs0mg"},{"bike_id":"8706c33f-80cd-46a7-8b22-342dd09e877d","system_id":"levelo_inurba_marseille","lat":43.27961,"lon":5.38742,"is_reserved":false,"is_disabled":false,"rental_uris":{"android":"levelo://app?vid=8706c33f-80cd-46a7-8b22-342dd09e877d","ios":"levelo://app?vid=8706c33f-80cd-46a7-8b22-342dd09e877d"},"vehicle_type_id":"4","last_reported":1744204924,"current_range_meters":10000,"station_id":"ce4bhg12rcd13ifvqf80","pricing_plan_id":"cebpf4jnsgd1na2vs0mg"},{"bike_id":"7b93593f-2287-4ff3-b37c-09b3db7209c1","system_id":"levelo_inurba_marseille","lat":43.26219,"lon":5.3743,"is_reserved":false,"is_disabled":false,"rental_uris":{"android":"levelo://app?vid=7b93593f-2287-4ff3-b37c-09b3db7209c1","ios":"levelo://app?vid=7b93593f-2287-4ff3-b37c-09b3db7209c1"},"vehicle_type_id":"4","last_reported":1744204924,"current_range_meters":11200,"station_id":"ce4bhgp2rcd13ifvqfc0","pricing_plan_id":"cebpf4jnsgd1na2vs0mg"},{"bike_id":"6c38fa60-0c01-4a2c-98e1-4fbe14462594","system_id":"levelo_inurba_marseille","lat":43.30081,"lon":5.39101,"is_reserved":false,"is_disabled":false,"rental_uris":{"android":"levelo://app?vid=6c38fa60-0c01-4a2c-98e1-4fbe14462594","ios":"levelo://app?vid=6c38fa60-0c01-4a2c-98e1-4fbe14462594"},"vehicle_type_id":"4","last_reported":1744204924,"current_range_meters":11600,"station_id":"ce4bh192rcd13ifvqdb0","pricing_plan_id":"cebpf4jnsgd1na2vs0mg"},{"bike_id":"4032e7b6-86b5-4f2e-b95d-59f1430294af","system_id":"levelo_inurba_marseille","lat":43.26787,"lon":5.39425,"is_reserved":false,"is_disabled":false,"rental_uris":{"android":"levelo://app?vid=4032e7b6-86b5-4f2e-b95d-59f1430294af","ios":"levelo://app?vid=4032e7b6-86b5-4f2e-b95d-59f1430294af"},"vehicle_type_id":"4","last_reported":1744204924,"current_range_meters":11600,"station_id":"ce4bhh12rcd13ifvqfg0","pricing_plan_id":"cebpf4jnsgd1na2vs0mg"},{"bike_id":"eac184d5-3b33-4466-ac75-014bb5c47147","system_id":"levelo_inurba_marseille","lat":43.26558,"lon":5.3901,"is_reserved":false,"is_disabled":false,"rental_uris":{"android":"levelo://app?vid=eac184d5-3b33-4466-ac75-014bb5c47147","ios":"levelo://app?vid=eac184d5-3b33-4466-ac75-014bb5c47147"},"vehicle_type_id":"4","last_reported":1744204924,"current_range_meters":11600,"station_id":"ce4bhe12rcd13ifvqf30","pricing_plan_id":"cebpf4jnsgd1na2vs0mg"},{"bike_id":"5f492624-d375-444d-a73b-81fe3bfd48a6","system_id":"levelo_inurba_marseille","lat":43.26686,"lon":5.38276,"is_reserved":false,"is_disabled":false,"rental_uris":{"android":"levelo://app?vid=5f492624-d375-444d-a73b-81fe3bfd48a6","ios":"levelo://app?vid=5f492624-d375-444d-a73b-81fe3bfd48a6"},"vehicle_type_id":"4","last_reported":1744204924,"current_range_meters":11600,"station_id":"ce4bhg92rcd13ifvqf90","pricing_plan_id":"cebpf4jnsgd1na2vs0mg"},{"bike_id":"af2ce993-c35c-4fa5-ad76-46decf8a8ed3","system_id":"levelo_inurba_marseille","lat":43.28861,"lon":5.35859,"is_reserved":false,"is_disabled":false,"rental_uris":{"android":"levelo://app?vid=af2ce993-c35c-4fa5-ad76-46decf8a8ed3","ios":"levelo://app?vid=af2ce993-c35c-4fa5-ad76-46decf8a8ed3"},"vehicle_type_id":"4","last_reported":1744204924,"current_range_meters":12000,"station_id":"ce4bhb12rcd13ifvqem0","pricing_plan_id":"cebpf4jnsgd1na2vs0mg"},{"bike_id":"3b2272c1-6cdc-42aa-926d-ac2ffe9454a1","system_id":"levelo_inurba_marseille","lat":43.30462,"lon":5.37906,"is_reserved":false,"is_disabled":false,"rental_uris":{"android":"levelo://app?vid=3b2272c1-6cdc-42aa-926d-ac2ffe9454a1","ios":"levelo://app?vid=3b2272c1-6cdc-42aa-926d-ac2ffe9454a1"},"vehicle_type_id":"4","last_reported":1744204924,"current_range_meters":12000,"station_id":"ce4bgup2rcd13ifvqcn0","pricing_plan_id":"cebpf4jnsgd1na2vs0mg"},{"bike_id":"e82d3cbf-6990-4eca-9743-6a7db542c284","system_id":"levelo_inurba_marseille","lat":43.32337,"lon":5.40626,"is_reserved":false,"is_disabled":false,"rental_uris":{"android":"levelo://app?vid=e82d3cbf-6990-4eca-9743-6a7db542c284","ios":"levelo://app?vid=e82d3cbf-6990-4eca-9743-6a7db542c284"},"vehicle_type_id":"4","last_reported":1744204924,"current_range_meters":12000,"station_id":"ce4bhq92rcd13ifvqhjg","pricing_plan_id":"cebpf4jnsgd1na2vs0mg"},{"bike_id":"0b03c891-511a-4fa0-90ec-3217cabc6581","system_id":"levelo_inurba_marseille","lat":43.31134,"lon":5.37824,"is_reserved":false,"is_disabled":false,"rental_uris":{"android":"levelo://app?vid=0b03c891-511a-4fa0-90ec-3217cabc6581","ios":"levelo://app?vid=0b03c891-511a-4fa0-90ec-3217cabc6581"},"vehicle_type_id":"4","last_reported":1744204924,"current_range_meters":12000,"station_id":"","pricing_plan_id":"cebpf4jnsgd1na2vs0mg"},{"bike_id":"1c98d87f-7412-4091-bf9a-5fdf4799f905","system_id":"levelo_inurba_marseille","lat":43.23066,"lon":5.35499,"is_reserved":false,"is_disabled":false,"rental_uris":{"android":"levelo://app?vid=1c98d87f-7412-4091-bf9a-5fdf4799f905","ios":"levelo://app?vid=1c98d87f-7412-4091-bf9a-5fdf4799f905"},"vehicle_type_id":"4","last_reported":1744204924,"current_range_meters":12400,"station_id":"cpo3342slgdg3j2ifvpg","pricing_plan_id":"cebpf4jnsgd1na2vs0mg"},{"bike_id":"d2950cda-3cfd-4b42-aec9-e72bed7736c1","system_id":"levelo_inurba_marseille","lat":43.29977,"lon":5.38489,"is_reserved":false,"is_disabled":false,"rental_uris":{"android":"levelo://app?vid=d2950cda-3cfd-4b42-aec9-e72bed7736c1","ios":"levelo://app?vid=d2950cda-3cfd-4b42-aec9-e72bed7736c1"},"vehicle_type_id":"4","last_reported":1744204924,"current_range_meters":12000,"station_id":"ce4bgj92rcd13ifvqbd0","pricing_plan_id":"cebpf4jnsgd1na2vs0mg"},{"bike_id":"5f30a5a4-de9f-499e-b151-b811ebb3b43a","system_id":"levelo_inurba_marseille","lat":43.31067,"lon":5.38365,"is_reserved":false,"is_disabled":true,"rental_uris":{"android":"levelo://app?vid=5f30a5a4-de9f-499e-b151-b811ebb3b43a","ios":"levelo://app?vid=5f30a5a4-de9f-499e-b151-b811ebb3b43a"},"vehicle_type_id":"4","last_reported":1744204924,"current_range_meters":12400,"station_id":"ce4bgv92rcd13ifvqcr0","pricing_plan_id":"cebpf4jnsgd1na2vs0mg"},{"bike_id":"21ad85cb-fd01-4f4b-a5e7-06320eee0f8b","system_id":"levelo_inurba_marseille","lat":43.24663,"lon":5.38899,"is_reserved":false,"is_disabled":false,"rental_uris":{"android":"levelo://app?vid=21ad85cb-fd01-4f4b-a5e7-06320eee0f8b","ios":"levelo://app?vid=21ad85cb-fd01-4f4b-a5e7-06320eee0f8b"},"vehicle_type_id":"4","last_reported":1744204924,"current_range_meters":12400,"station_id":"ce4bhg12rcd13ifvqf60","pricing_plan_id":"cebpf4jnsgd1na2vs0mg"},{"bike_id":"9ff4e94b-5dd6-4544-9580-673106cba76f","system_id":"levelo_inurba_marseille","lat":43.29373,"lon":5.37845,"is_reserved":false,"is_disabled":false,"rental_uris":{"android":"levelo://app?vid=9ff4e94b-5dd6-4544-9580-673106cba76f","ios":"levelo://app?vid=9ff4e94b-5dd6-4544-9580-673106cba76f"},"vehicle_type_id":"4","last_reported":1744204924,"current_range_meters":12800,"station_id":"ce4bgjh2rcd13ifvqbf0","pricing_plan_id":"cebpf4jnsgd1na2vs0mg"},{"bike_id":"517e53d3-a080-42c2-90c1-38508287294c","system_id":"levelo_inurba_marseille","lat":43.297119,"lon":5.366155,"is_reserved":false,"is_disabled":false,"rental_uris":{"android":"levelo://app?vid=517e53d3-a080-42c2-90c1-38508287294c","ios":"levelo://app?vid=517e53d3-a080-42c2-90c1-38508287294c"},"vehicle_type_id":"4","last_reported":1744204924,"current_range_meters":15200,"station_id":"ce4bgn12rcd13ifvqbt0","pricing_plan_id":"cebpf4jnsgd1na2vs0mg"},{"bike_id":"91c85598-0c0b-42bf-9388-e5e9b7c7702f","system_id":"levelo_inurba_marseille","lat":43.31413,"lon":5.36686,"is_reserved":false,"is_disabled":false,"rental_uris":{"android":"levelo://app?vid=91c85598-0c0b-42bf-9388-e5e9b7c7702f","ios":"levelo://app?vid=91c85598-0c0b-42bf-9388-e5e9b7c7702f"},"vehicle_type_id":"4","last_reported":1744204924,"current_range_meters":12800,"station_id":"ce4bgr92rcd13ifvqc6g","pricing_plan_id":"cebpf4jnsgd1na2vs0mg"},{"bike_id":"df9bd667-b38a-4b68-adec-fd6077bbc5b9","system_id":"levelo_inurba_marseille","lat":43.2175,"lon":5.34615,"is_reserved":false,"is_disabled":false,"rental_uris":{"android":"levelo://app?vid=df9bd667-b38a-4b68-adec-fd6077bbc5b9","ios":"levelo://app?vid=df9bd667-b38a-4b68-adec-fd6077bbc5b9"},"vehicle_type_id":"4","last_reported":1744204924,"current_range_meters":12800,"station_id":"st_cvj6r9ubvosntc0bgbag","pricing_plan_id":"cebpf4jnsgd1na2vs0mg"},{"bike_id":"61ad2f19-d511-44f0-944e-9576e28f5f14","system_id":"levelo_inurba_marseille","lat":43.305979,"lon":5.393592,"is_reserved":false,"is_disabled":false,"rental_uris":{"android":"levelo://app?vid=61ad2f19-d511-44f0-944e-9576e28f5f14","ios":"levelo://app?vid=61ad2f19-d511-44f0-944e-9576e28f5f14"},"vehicle_type_id":"4","last_reported":1744204924,"current_range_meters":13600,"station_id":"ce4bh0p2rcd13ifvqd80","pricing_plan_id":"cebpf4jnsgd1na2vs0mg"},{"bike_id":"8aca47b8-dcba-4e10-a490-7acd73bde0df","system_id":"levelo_inurba_marseille","lat":43.30587,"lon":5.36524,"is_reserved":false,"is_disabled":false,"rental_uris":{"android":"levelo://app?vid=8aca47b8-dcba-4e10-a490-7acd73bde0df","ios":"levelo://app?vid=8aca47b8-dcba-4e10-a490-7acd73bde0df"},"vehicle_type_id":"4","last_reported":1744204924,"current_range_meters":13600,"station_id":"ce4bgs12rcd13ifvqcag","pricing_plan_id":"cebpf4jnsgd1na2vs0mg"},{"bike_id":"f147c6df-27ae-4e7a-90c0-6893ba89129c","system_id":"levelo_inurba_marseille","lat":43.30562,"lon":5.36534,"is_reserved":false,"is_disabled":false,"rental_uris":{"android":"levelo://app?vid=f147c6df-27ae-4e7a-90c0-6893ba89129c","ios":"levelo://app?vid=f147c6df-27ae-4e7a-90c0-6893ba89129c"},"vehicle_type_id":"4","last_reported":1744204924,"current_range_meters":13600,"station_id":"ce4bgs12rcd13ifvqcag","pricing_plan_id":"cebpf4jnsgd1na2vs0mg"},{"bike_id":"afbd60bb-cf14-4807-a4fe-759be14cdd93","system_id":"levelo_inurba_marseille","lat":43.30554,"lon":5.36551,"is_reserved":false,"is_disabled":false,"rental_uris":{"android":"levelo://app?vid=afbd60bb-cf14-4807-a4fe-759be14cdd93","ios":"levelo://app?vid=afbd60bb-cf14-4807-a4fe-759be14cdd93"},"vehicle_type_id":"4","last_reported":1744204924,"current_range_meters":13600,"station_id":"ce4bgs12rcd13ifvqcag","pricing_plan_id":"cebpf4jnsgd1na2vs0mg"},{"bike_id":"b336900a-56d9-404d-9747-da025e975154","system_id":"levelo_inurba_marseille","lat":43.2926,"lon":5.38455,"is_reserved":false,"is_disabled":false,"rental_uris":{"android":"levelo://app?vid=b336900a-56d9-404d-9747-da025e975154","ios":"levelo://app?vid=b336900a-56d9-404d-9747-da025e975154"},"vehicle_type_id":"4","last_reported":1744204924,"current_range_meters":14000,"station_id":"ce4bh692rcd13ifvqea0","pricing_plan_id":"cebpf4jnsgd1na2vs0mg"},{"bike_id":"c49d26c4-541a-41d7-a0cb-ac68f37a7a96","system_id":"levelo_inurba_marseille","lat":43.30315,"lon":5.36877,"is_reserved":false,"is_disabled":false,"rental_uris":{"android":"levelo://app?vid=c49d26c4-541a-41d7-a0cb-ac68f37a7a96","ios":"levelo://app?vid=c49d26c4-541a-41d7-a0cb-ac68f37a7a96"},"vehicle_type_id":"4","last_reported":1744204924,"current_range_meters":14000,"station_id":"ce4bgqh2rcd13ifvqc5g","pricing_plan_id":"cebpf4jnsgd1na2vs0mg"},{"bike_id":"0b8f68c6-e7d2-4cdc-9307-05b2cdd9d9a7","system_id":"levelo_inurba_marseille","lat":43.28361,"lon":5.38117,"is_reserved":false,"is_disabled":false,"rental_uris":{"android":"levelo://app?vid=0b8f68c6-e7d2-4cdc-9307-05b2cdd9d9a7","ios":"levelo://app?vid=0b8f68c6-e7d2-4cdc-9307-05b2cdd9d9a7"},"vehicle_type_id":"4","last_reported":1744204924,"current_range_meters":14000,"station_id":"ce4bh412rcd13ifvqdr0","pricing_plan_id":"cebpf4jnsgd1na2vs0mg"},{"bike_id":"261c6cd1-f555-4019-a780-58eb554865b1","system_id":"levelo_inurba_marseille","lat":43.305427,"lon":5.367092,"is_reserved":false,"is_disabled":false,"rental_uris":{"android":"levelo://app?vid=261c6cd1-f555-4019-a780-58eb554865b1","ios":"levelo://app?vid=261c6cd1-f555-4019-a780-58eb554865b1"},"vehicle_type_id":"4","last_reported":1744204924,"current_range_meters":13600,"station_id":"ce4bgjp2rcd13ifvqbh0","pricing_plan_id":"cebpf4jnsgd1na2vs0mg"},{"bike_id":"a7b1039b-9b21-4776-980d-48a24f4d1e2e","system_id":"levelo_inurba_marseille","lat":43.29884,"lon":5.38899,"is_reserved":false,"is_disabled":false,"rental_uris":{"android":"levelo://app?vid=a7b1039b-9b21-4776-980d-48a24f4d1e2e","ios":"levelo://app?vid=a7b1039b-9b21-4776-980d-48a24f4d1e2e"},"vehicle_type_id":"4","last_reported":1744204924,"current_range_meters":13600,"station_id":"ce4bh392rcd13ifvqdl0","pricing_plan_id":"cebpf4jnsgd1na2vs0mg"},{"bike_id":"53fb0077-3a65-43ca-a501-d7c36dc0627d","system_id":"levelo_inurba_marseille","lat":43.31769,"lon":5.38805,"is_reserved":false,"is_disabled":false,"rental_uris":{"android":"levelo://app?vid=53fb0077-3a65-43ca-a501-d7c36dc0627d","ios":"levelo://app?vid=53fb0077-3a65-43ca-a501-d7c36dc0627d"},"vehicle_type_id":"4","last_reported":1744204924,"current_range_meters":14400,"station_id":"","pricing_plan_id":"cebpf4jnsgd1na2vs0mg"},{"bike_id":"9fce7fb9-26b6-4832-9f96-ea1b75c489f0","system_id":"levelo_inurba_marseille","lat":43.212,"lon":5.35077,"is_reserved":false,"is_disabled":false,"rental_uris":{"android":"levelo://app?vid=9fce7fb9-26b6-4832-9f96-ea1b75c489f0","ios":"levelo://app?vid=9fce7fb9-26b6-4832-9f96-ea1b75c489f0"},"vehicle_type_id":"4","last_reported":1744204924,"current_range_meters":14400,"station_id":"st_cvj6sg6p6f1abm77japg","pricing_plan_id":"cebpf4jnsgd1na2vs0mg"},{"bike_id":"b4b93a64-d083-4ab2-bbd0-53609c602fb5","system_id":"levelo_inurba_marseille","lat":43.30924,"lon":5.40148,"is_reserved":false,"is_disabled":true,"rental_uris":{"android":"levelo://app?vid=b4b93a64-d083-4ab2-bbd0-53609c602fb5","ios":"levelo://app?vid=b4b93a64-d083-4ab2-bbd0-53609c602fb5"},"vehicle_type_id":"4","last_reported":1744204924,"current_range_meters":14400,"station_id":"ce4bgvp2rcd13ifvqct0","pricing_plan_id":"cebpf4jnsgd1na2vs0mg"},{"bike_id":"d44ff2b9-417e-4368-bebb-1fc974db3122","system_id":"levelo_inurba_marseille","lat":43.33641,"lon":5.39753,"is_reserved":false,"is_disabled":false,"rental_uris":{"android":"levelo://app?vid=d44ff2b9-417e-4368-bebb-1fc974db3122","ios":"levelo://app?vid=d44ff2b9-417e-4368-bebb-1fc974db3122"},"vehicle_type_id":"4","last_reported":1744204924,"current_range_meters":14400,"station_id":"","pricing_plan_id":"cebpf4jnsgd1na2vs0mg"},{"bike_id":"33f3e8ce-7d8b-47b2-bcf3-c908436e6b92","system_id":"levelo_inurba_marseille","lat":43.318906,"lon":5.385943,"is_reserved":false,"is_disabled":false,"rental_uris":{"android":"levelo://app?vid=33f3e8ce-7d8b-47b2-bcf3-c908436e6b92","ios":"levelo://app?vid=33f3e8ce-7d8b-47b2-bcf3-c908436e6b92"},"vehicle_type_id":"4","last_reported":1744204924,"current_range_meters":14400,"station_id":"ce4bgvh2rcd13ifvqcs0","pricing_plan_id":"cebpf4jnsgd1na2vs0mg"},{"bike_id":"1d258ce2-2d7f-4514-9cf5-9b9790ac6e60","system_id":"levelo_inurba_marseille","lat":43.2862,"lon":5.35111,"is_reserved":false,"is_disabled":false,"rental_uris":{"android":"levelo://app?vid=1d258ce2-2d7f-4514-9cf5-9b9790ac6e60","ios":"levelo://app?vid=1d258ce2-2d7f-4514-9cf5-9b9790ac6e60"},"vehicle_type_id":"4","last_reported":1744204924,"current_range_meters":14800,"station_id":"ce4bhch2rcd13ifvqeug","pricing_plan_id":"cebpf4jnsgd1na2vs0mg"},{"bike_id":"8854a7e0-75ab-4cbe-b3ed-671619ffe228","system_id":"levelo_inurba_marseille","lat":43.22502,"lon":5.34791,"is_reserved":false,"is_disabled":true,"rental_uris":{"android":"levelo://app?vid=8854a7e0-75ab-4cbe-b3ed-671619ffe228","ios":"levelo://app?vid=8854a7e0-75ab-4cbe-b3ed-671619ffe228"},"vehicle_type_id":"4","last_reported":1744204924,"current_range_meters":14800,"station_id":"st_cvj5dfep6f1abm77gieg","pricing_plan_id":"cebpf4jnsgd1na2vs0mg"},{"bike_id":"247d5a9c-d116-4083-b4f9-2b397ff7553d","system_id":"levelo_inurba_marseille","lat":43.301464,"lon":5.37433,"is_reserved":false,"is_disabled":false,"rental_uris":{"android":"levelo://app?vid=247d5a9c-d116-4083-b4f9-2b397ff7553d","ios":"levelo://app?vid=247d5a9c-d116-4083-b4f9-2b397ff7553d"},"vehicle_type_id":"4","last_reported":1744204924,"current_range_meters":15200,"station_id":"ce4bgs92rcd13ifvqcc0","pricing_plan_id":"cebpf4jnsgd1na2vs0mg"},{"bike_id":"b85640d9-9881-47e2-8a2e-3e2c66522a49","system_id":"levelo_inurba_marseille","lat":43.26568,"lon":5.3901,"is_reserved":false,"is_disabled":false,"rental_uris":{"android":"levelo://app?vid=b85640d9-9881-47e2-8a2e-3e2c66522a49","ios":"levelo://app?vid=b85640d9-9881-47e2-8a2e-3e2c66522a49"},"vehicle_type_id":"4","last_reported":1744204924,"current_range_meters":15200,"station_id":"ce4bhe12rcd13ifvqf30","pricing_plan_id":"cebpf4jnsgd1na2vs0mg"},{"bike_id":"fa6d595e-7ae5-4ece-aed5-2bd8303fb67e","system_id":"levelo_inurba_marseille","lat":43.29684,"lon":5.37297,"is_reserved":false,"is_disabled":false,"rental_uris":{"android":"levelo://app?vid=fa6d595e-7ae5-4ece-aed5-2bd8303fb67e","ios":"levelo://app?vid=fa6d595e-7ae5-4ece-aed5-2bd8303fb67e"},"vehicle_type_id":"4","last_reported":1744204924,"current_range_meters":15200,"station_id":"ce4bgk12rcd13ifvqbj0","pricing_plan_id":"cebpf4jnsgd1na2vs0mg"},{"bike_id":"cc23f386-e027-4abe-bbdd-5e252c76d169","system_id":"levelo_inurba_marseille","lat":43.23153,"lon":5.43709,"is_reserved":false,"is_disabled":false,"rental_uris":{"android":"levelo://app?vid=cc23f386-e027-4abe-bbdd-5e252c76d169","ios":"levelo://app?vid=cc23f386-e027-4abe-bbdd-5e252c76d169"},"vehicle_type_id":"4","last_reported":1744204924,"current_range_meters":15200,"station_id":"ce4bhmp2rcd13ifvqgog","pricing_plan_id":"cebpf4jnsgd1na2vs0mg"},{"bike_id":"eac5c2cf-fed2-451e-a55c-58b0b56ec481","system_id":"levelo_inurba_marseille","lat":43.285925,"lon":5.360291,"is_reserved":false,"is_disabled":false,"rental_uris":{"android":"levelo://app?vid=eac5c2cf-fed2-451e-a55c-58b0b56ec481","ios":"levelo://app?vid=eac5c2cf-fed2-451e-a55c-58b0b56ec481"},"vehicle_type_id":"4","last_reported":1744204924,"current_range_meters":16000,"station_id":"ce4bhah2rcd13ifvqei0","pricing_plan_id":"cebpf4jnsgd1na2vs0mg"},{"bike_id":"7aa9d0af-2058-4fa9-9214-be5c5e5c5fe8","system_id":"levelo_inurba_marseille","lat":43.28401,"lon":5.37535,"is_reserved":false,"is_disabled":false,"rental_uris":{"android":"levelo://app?vid=7aa9d0af-2058-4fa9-9214-be5c5e5c5fe8","ios":"levelo://app?vid=7aa9d0af-2058-4fa9-9214-be5c5e5c5fe8"},"vehicle_type_id":"4","last_reported":1744204924,"current_range_meters":16000,"station_id":"ce4bh412rcd13ifvqds0","pricing_plan_id":"cebpf4jnsgd1na2vs0mg"},{"bike_id":"51220fd5-275f-44db-a81e-280c0ca810af","system_id":"levelo_inurba_marseille","lat":43.32217,"lon":5.38799,"is_reserved":false,"is_disabled":false,"rental_uris":{"android":"levelo://app?vid=51220fd5-275f-44db-a81e-280c0ca810af","ios":"levelo://app?vid=51220fd5-275f-44db-a81e-280c0ca810af"},"vehicle_type_id":"4","last_reported":1744204924,"current_range_meters":16000,"station_id":"","pricing_plan_id":"cebpf4jnsgd1na2vs0mg"},{"bike_id":"71a3919b-8525-4f47-a6df-5e0d6eec871b","system_id":"levelo_inurba_marseille","lat":43.32349,"lon":5.4062,"is_reserved":false,"is_disabled":false,"rental_uris":{"android":"levelo://app?vid=71a3919b-8525-4f47-a6df-5e0d6eec871b","ios":"levelo://app?vid=71a3919b-8525-4f47-a6df-5e0d6eec871b"},"vehicle_type_id":"4","last_reported":1744204924,"current_range_meters":16000,"station_id":"ce4bhq92rcd13ifvqhjg","pricing_plan_id":"cebpf4jnsgd1na2vs0mg"},{"bike_id":"db8b5b6b-9307-4c39-bc30-db5a125557e8","system_id":"levelo_inurba_marseille","lat":43.29775,"lon":5.37105,"is_reserved":false,"is_disabled":false,"rental_uris":{"android":"levelo://app?vid=db8b5b6b-9307-4c39-bc30-db5a125557e8","ios":"levelo://app?vid=db8b5b6b-9307-4c39-bc30-db5a125557e8"},"vehicle_type_id":"4","last_reported":1744204924,"current_range_meters":16400,"station_id":"ce4bgop2rcd13ifvqc1g","pricing_plan_id":"cebpf4jnsgd1na2vs0mg"},{"bike_id":"b84b1d45-729e-47db-8c7e-e88abe2948fb","system_id":"levelo_inurba_marseille","lat":43.31721,"lon":5.42408,"is_reserved":false,"is_disabled":false,"rental_uris":{"android":"levelo://app?vid=b84b1d45-729e-47db-8c7e-e88abe2948fb","ios":"levelo://app?vid=b84b1d45-729e-47db-8c7e-e88abe2948fb"},"vehicle_type_id":"4","last_reported":1744204924,"current_range_meters":16400,"station_id":"ce4bhp92rcd13ifvqhbg","pricing_plan_id":"cebpf4jnsgd1na2vs0mg"},{"bike_id":"d3a30278-1fc8-438b-a6b9-b6523acb13c6","system_id":"levelo_inurba_marseille","lat":43.3128,"lon":5.36839,"is_reserved":false,"is_disabled":false,"rental_uris":{"android":"levelo://app?vid=d3a30278-1fc8-438b-a6b9-b6523acb13c6","ios":"levelo://app?vid=d3a30278-1fc8-438b-a6b9-b6523acb13c6"},"vehicle_type_id":"4","last_reported":1744204924,"current_range_meters":16400,"station_id":"ce4bgl92rcd13ifvqbq0","pricing_plan_id":"cebpf4jnsgd1na2vs0mg"},{"bike_id":"d006ca66-248a-41b5-b78f-3ea1568e361f","system_id":"levelo_inurba_marseille","lat":43.30547,"lon":5.36545,"is_reserved":false,"is_disabled":false,"rental_uris":{"android":"levelo://app?vid=d006ca66-248a-41b5-b78f-3ea1568e361f","ios":"levelo://app?vid=d006ca66-248a-41b5-b78f-3ea1568e361f"},"vehicle_type_id":"4","last_reported":1744204924,"current_range_meters":16800,"station_id":"ce4bgs12rcd13ifvqcag","pricing_plan_id":"cebpf4jnsgd1na2vs0mg"},{"bike_id":"875883da-a830-4c1a-8530-93fae3774448","system_id":"levelo_inurba_marseille","lat":43.30544,"lon":5.36517,"is_reserved":false,"is_disabled":false,"rental_uris":{"android":"levelo://app?vid=875883da-a830-4c1a-8530-93fae3774448","ios":"levelo://app?vid=875883da-a830-4c1a-8530-93fae3774448"},"vehicle_type_id":"4","last_reported":1744204924,"current_range_meters":16800,"station_id":"ce4bgs12rcd13ifvqcag","pricing_plan_id":"cebpf4jnsgd1na2vs0mg"},{"bike_id":"a9a1a4e2-6c28-47a4-b7bb-f9f3b3144184","system_id":"levelo_inurba_marseille","lat":43.31232,"lon":5.36861,"is_reserved":false,"is_disabled":false,"rental_uris":{"android":"levelo://app?vid=a9a1a4e2-6c28-47a4-b7bb-f9f3b3144184","ios":"levelo://app?vid=a9a1a4e2-6c28-47a4-b7bb-f9f3b3144184"},"vehicle_type_id":"4","last_reported":1744204924,"current_range_meters":16800,"station_id":"ce4bgl92rcd13ifvqbq0","pricing_plan_id":"cebpf4jnsgd1na2vs0mg"},{"bike_id":"42c1fdc6-38af-4ea1-a910-702e15d5a9b4","system_id":"levelo_inurba_marseille","lat":43.3092,"lon":5.40164,"is_reserved":false,"is_disabled":true,"rental_uris":{"android":"levelo://app?vid=42c1fdc6-38af-4ea1-a910-702e15d5a9b4","ios":"levelo://app?vid=42c1fdc6-38af-4ea1-a910-702e15d5a9b4"},"vehicle_type_id":"4","last_reported":1744204924,"current_range_meters":16800,"station_id":"ce4bgvp2rcd13ifvqct0","pricing_plan_id":"cebpf4jnsgd1na2vs0mg"},{"bike_id":"9b707f39-8a91-47a1-afe5-0c6d90ae57f5","system_id":"levelo_inurba_marseille","lat":43.30537,"lon":5.36539,"is_reserved":false,"is_disabled":false,"rental_uris":{"android":"levelo://app?vid=9b707f39-8a91-47a1-afe5-0c6d90ae57f5","ios":"levelo://app?vid=9b707f39-8a91-47a1-afe5-0c6d90ae57f5"},"vehicle_type_id":"4","last_reported":1744204924,"current_range_meters":16800,"station_id":"ce4bgs12rcd13ifvqcag","pricing_plan_id":"cebpf4jnsgd1na2vs0mg"},{"bike_id":"c55184d3-fbbd-4f0a-a6fc-c4d88e36e900","system_id":"levelo_inurba_marseille","lat":43.30536,"lon":5.36532,"is_reserved":false,"is_disabled":false,"rental_uris":{"android":"levelo://app?vid=c55184d3-fbbd-4f0a-a6fc-c4d88e36e900","ios":"levelo://app?vid=c55184d3-fbbd-4f0a-a6fc-c4d88e36e900"},"vehicle_type_id":"4","last_reported":1744204924,"current_range_meters":16800,"station_id":"ce4bgs12rcd13ifvqcag","pricing_plan_id":"cebpf4jnsgd1na2vs0mg"},{"bike_id":"33c6f353-0166-4c8c-af82-a2e0d1d8c75d","system_id":"levelo_inurba_marseille","lat":43.33004,"lon":5.43882,"is_reserved":false,"is_disabled":false,"rental_uris":{"android":"levelo://app?vid=33c6f353-0166-4c8c-af82-a2e0d1d8c75d","ios":"levelo://app?vid=33c6f353-0166-4c8c-af82-a2e0d1d8c75d"},"vehicle_type_id":"4","last_reported":1744204924,"current_range_meters":16800,"station_id":"","pricing_plan_id":"cebpf4jnsgd1na2vs0mg"},{"bike_id":"09bddc24-4c9d-460f-8967-e90ee5c88b43","system_id":"levelo_inurba_marseille","lat":43.313294,"lon":5.397021,"is_reserved":false,"is_disabled":true,"rental_uris":{"android":"levelo://app?vid=09bddc24-4c9d-460f-8967-e90ee5c88b43","ios":"levelo://app?vid=09bddc24-4c9d-460f-8967-e90ee5c88b43"},"vehicle_type_id":"4","last_reported":1744204924,"current_range_meters":16800,"station_id":"ce4bgvp2rcd13ifvqcu0","pricing_plan_id":"cebpf4jnsgd1na2vs0mg"},{"bike_id":"711d1ed3-a25f-439f-a882-7b3dfea96c9d","system_id":"levelo_inurba_marseille","lat":43.294407,"lon":5.386279,"is_reserved":false,"is_disabled":false,"rental_uris":{"android":"levelo://app?vid=711d1ed3-a25f-439f-a882-7b3dfea96c9d","ios":"levelo://app?vid=711d1ed3-a25f-439f-a882-7b3dfea96c9d"},"vehicle_type_id":"4","last_reported":1744204924,"current_range_meters":16800,"station_id":"ce4bh2h2rcd13ifvqdh0","pricing_plan_id":"cebpf4jnsgd1na2vs0mg"},{"bike_id":"ac0a1725-aee7-4a39-9dc5-8c7d05433e65","system_id":"levelo_inurba_marseille","lat":43.2439,"lon":5.37061,"is_reserved":false,"is_disabled":false,"rental_uris":{"android":"levelo://app?vid=ac0a1725-aee7-4a39-9dc5-8c7d05433e65","ios":"levelo://app?vid=ac0a1725-aee7-4a39-9dc5-8c7d05433e65"},"vehicle_type_id":"4","last_reported":1744204924,"current_range_meters":17200,"station_id":"ce4bhhh2rcd13ifvqfk0","pricing_plan_id":"cebpf4jnsgd1na2vs0mg"},{"bike_id":"1a3cd0ab-ec77-41b3-982c-74e5093499a8","system_id":"levelo_inurba_marseille","lat":43.30431,"lon":5.38904,"is_reserved":false,"is_disabled":true,"rental_uris":{"android":"levelo://app?vid=1a3cd0ab-ec77-41b3-982c-74e5093499a8","ios":"levelo://app?vid=1a3cd0ab-ec77-41b3-982c-74e5093499a8"},"vehicle_type_id":"4","last_reported":1744204924,"current_range_meters":17200,"station_id":"ce4bgk12rcd13ifvqbi0","pricing_plan_id":"cebpf4jnsgd1na2vs0mg"},{"bike_id":"d1efadb9-f3e8-4a47-9049-9b68bdfbd4ca","system_id":"levelo_inurba_marseille","lat":43.28938,"lon":5.36634,"is_reserved":false,"is_disabled":false,"rental_uris":{"android":"levelo://app?vid=d1efadb9-f3e8-4a47-9049-9b68bdfbd4ca","ios":"levelo://app?vid=d1efadb9-f3e8-4a47-9049-9b68bdfbd4ca"},"vehicle_type_id":"4","last_reported":1744204924,"current_range_meters":17200,"station_id":"ce4bhap2rcd13ifvqek0","pricing_plan_id":"cebpf4jnsgd1na2vs0mg"},{"bike_id":"b0e7c080-9b32-4fb1-ae6b-91b2f1cae096","system_id":"levelo_inurba_marseille","lat":43.305597,"lon":5.365569,"is_reserved":false,"is_disabled":false,"rental_uris":{"android":"levelo://app?vid=b0e7c080-9b32-4fb1-ae6b-91b2f1cae096","ios":"levelo://app?vid=b0e7c080-9b32-4fb1-ae6b-91b2f1cae096"},"vehicle_type_id":"4","last_reported":1744204924,"current_range_meters":17600,"station_id":"ce4bgs12rcd13ifvqcag","pricing_plan_id":"cebpf4jnsgd1na2vs0mg"},{"bike_id":"b50a5946-205e-4b40-9f40-1380f1d1c613","system_id":"levelo_inurba_marseille","lat":43.30537,"lon":5.36539,"is_reserved":false,"is_disabled":false,"rental_uris":{"android":"levelo://app?vid=b50a5946-205e-4b40-9f40-1380f1d1c613","ios":"levelo://app?vid=b50a5946-205e-4b40-9f40-1380f1d1c613"},"vehicle_type_id":"4","last_reported":1744204924,"current_range_meters":17600,"station_id":"ce4bgs12rcd13ifvqcag","pricing_plan_id":"cebpf4jnsgd1na2vs0mg"},{"bike_id":"776a98b2-bad8-49da-9f25-e5924cc43c54","system_id":"levelo_inurba_marseille","lat":43.29795,"lon":5.37117,"is_reserved":false,"is_disabled":false,"rental_uris":{"android":"levelo://app?vid=776a98b2-bad8-49da-9f25-e5924cc43c54","ios":"levelo://app?vid=776a98b2-bad8-49da-9f25-e5924cc43c54"},"vehicle_type_id":"4","last_reported":1744204924,"current_range_meters":17600,"station_id":"ce4bgop2rcd13ifvqc1g","pricing_plan_id":"cebpf4jnsgd1na2vs0mg"},{"bike_id":"7b67b0b8-c773-464a-83c9-47466b1f39d1","system_id":"levelo_inurba_marseille","lat":43.28352,"lon":5.38103,"is_reserved":false,"is_disabled":false,"rental_uris":{"android":"levelo://app?vid=7b67b0b8-c773-464a-83c9-47466b1f39d1","ios":"levelo://app?vid=7b67b0b8-c773-464a-83c9-47466b1f39d1"},"vehicle_type_id":"4","last_reported":1744204924,"current_range_meters":17200,"station_id":"ce4bh412rcd13ifvqdr0","pricing_plan_id":"cebpf4jnsgd1na2vs0mg"},{"bike_id":"64ba7c57-11a7-4f4e-a9da-f57e5ef48d57","system_id":"levelo_inurba_marseille","lat":43.24386,"lon":5.3706,"is_reserved":false,"is_disabled":false,"rental_uris":{"android":"levelo://app?vid=64ba7c57-11a7-4f4e-a9da-f57e5ef48d57","ios":"levelo://app?vid=64ba7c57-11a7-4f4e-a9da-f57e5ef48d57"},"vehicle_type_id":"4","last_reported":1744204924,"current_range_meters":17600,"station_id":"ce4bhhh2rcd13ifvqfk0","pricing_plan_id":"cebpf4jnsgd1na2vs0mg"},{"bike_id":"ceb42bda-17b0-473f-a990-ea6bbdd336ff","system_id":"levelo_inurba_marseille","lat":43.21755,"lon":5.34604,"is_reserved":false,"is_disabled":false,"rental_uris":{"android":"levelo://app?vid=ceb42bda-17b0-473f-a990-ea6bbdd336ff","ios":"levelo://app?vid=ceb42bda-17b0-473f-a990-ea6bbdd336ff"},"vehicle_type_id":"4","last_reported":1744204924,"current_range_meters":17600,"station_id":"","pricing_plan_id":"cebpf4jnsgd1na2vs0mg"},{"bike_id":"086256fc-244c-489d-89d6-6eac45ef4df2","system_id":"levelo_inurba_marseille","lat":43.337444,"lon":5.374475,"is_reserved":false,"is_disabled":false,"rental_uris":{"android":"levelo://app?vid=086256fc-244c-489d-89d6-6eac45ef4df2","ios":"levelo://app?vid=086256fc-244c-489d-89d6-6eac45ef4df2"},"vehicle_type_id":"4","last_reported":1744204924,"current_range_meters":17600,"station_id":"","pricing_plan_id":"cebpf4jnsgd1na2vs0mg"},{"bike_id":"0a698d41-ade8-4db1-9f07-c82da1b9f441","system_id":"levelo_inurba_marseille","lat":43.31232,"lon":5.36858,"is_reserved":false,"is_disabled":false,"rental_uris":{"android":"levelo://app?vid=0a698d41-ade8-4db1-9f07-c82da1b9f441","ios":"levelo://app?vid=0a698d41-ade8-4db1-9f07-c82da1b9f441"},"vehicle_type_id":"4","last_reported":1744204924,"current_range_meters":18000,"station_id":"ce4bgl92rcd13ifvqbq0","pricing_plan_id":"cebpf4jnsgd1na2vs0mg"},{"bike_id":"85992112-5e27-40c9-87b0-23ffea54dc5c","system_id":"levelo_inurba_marseille","lat":43.28004,"lon":5.41666,"is_reserved":false,"is_disabled":false,"rental_uris":{"android":"levelo://app?vid=85992112-5e27-40c9-87b0-23ffea54dc5c","ios":"levelo://app?vid=85992112-5e27-40c9-87b0-23ffea54dc5c"},"vehicle_type_id":"4","last_reported":1744204924,"current_range_meters":18000,"station_id":"ce4bho12rcd13ifvqh1g","pricing_plan_id":"cebpf4jnsgd1na2vs0mg"},{"bike_id":"2ab54020-df93-4f6b-8cd1-9b0e84795bda","system_id":"levelo_inurba_marseille","lat":43.30518,"lon":5.36544,"is_reserved":false,"is_disabled":false,"rental_uris":{"android":"levelo://app?vid=2ab54020-df93-4f6b-8cd1-9b0e84795bda","ios":"levelo://app?vid=2ab54020-df93-4f6b-8cd1-9b0e84795bda"},"vehicle_type_id":"4","last_reported":1744204924,"current_range_meters":18000,"station_id":"","pricing_plan_id":"cebpf4jnsgd1na2vs0mg"},{"bike_id":"7759660f-9053-4941-a6a8-3a1efcb10bb3","system_id":"levelo_inurba_marseille","lat":43.30803,"lon":5.38167,"is_reserved":false,"is_disabled":false,"rental_uris":{"android":"levelo://app?vid=7759660f-9053-4941-a6a8-3a1efcb10bb3","ios":"levelo://app?vid=7759660f-9053-4941-a6a8-3a1efcb10bb3"},"vehicle_type_id":"4","last_reported":1744204924,"current_range_meters":18000,"station_id":"ce4bgt12rcd13ifvqce0","pricing_plan_id":"cebpf4jnsgd1na2vs0mg"},{"bike_id":"c58b0f1b-b717-472a-9ff1-8b8ac9b8c79f","system_id":"levelo_inurba_marseille","lat":43.30146,"lon":5.38079,"is_reserved":false,"is_disabled":false,"rental_uris":{"android":"levelo://app?vid=c58b0f1b-b717-472a-9ff1-8b8ac9b8c79f","ios":"levelo://app?vid=c58b0f1b-b717-472a-9ff1-8b8ac9b8c79f"},"vehicle_type_id":"4","last_reported":1744204924,"current_range_meters":18800,"station_id":"ce4bgjp2rcd13ifvqbh0","pricing_plan_id":"cebpf4jnsgd1na2vs0mg"},{"bike_id":"1af74420-1aea-48a6-9ffd-723b90d38905","system_id":"levelo_inurba_marseille","lat":43.29038,"lon":5.39981,"is_reserved":false,"is_disabled":false,"rental_uris":{"android":"levelo://app?vid=1af74420-1aea-48a6-9ffd-723b90d38905","ios":"levelo://app?vid=1af74420-1aea-48a6-9ffd-723b90d38905"},"vehicle_type_id":"4","last_reported":1744204924,"current_range_meters":18000,"station_id":"ce4bh392rcd13ifvqdm0","pricing_plan_id":"cebpf4jnsgd1na2vs0mg"},{"bike_id":"98e9f00a-d2b2-4f7b-852b-c420795d50d3","system_id":"levelo_inurba_marseille","lat":43.33026,"lon":5.39047,"is_reserved":false,"is_disabled":false,"rental_uris":{"android":"levelo://app?vid=98e9f00a-d2b2-4f7b-852b-c420795d50d3","ios":"levelo://app?vid=98e9f00a-d2b2-4f7b-852b-c420795d50d3"},"vehicle_type_id":"4","last_reported":1744204924,"current_range_meters":18000,"station_id":"ce4bhr92rcd13ifvqhrg","pricing_plan_id":"cebpf4jnsgd1na2vs0mg"},{"bike_id":"e3c3a051-8134-4ed3-913b-374aa217874c","system_id":"levelo_inurba_marseille","lat":43.2559,"lon":5.40455,"is_reserved":false,"is_disabled":false,"rental_uris":{"android":"levelo://app?vid=e3c3a051-8134-4ed3-913b-374aa217874c","ios":"levelo://app?vid=e3c3a051-8134-4ed3-913b-374aa217874c"},"vehicle_type_id":"4","last_reported":1744204924,"current_range_meters":18800,"station_id":"","pricing_plan_id":"cebpf4jnsgd1na2vs0mg"},{"bike_id":"ed32de37-66e8-4fe8-b613-74f9e5810cd6","system_id":"levelo_inurba_marseille","lat":43.31164,"lon":5.37502,"is_reserved":false,"is_disabled":false,"rental_uris":{"android":"levelo://app?vid=ed32de37-66e8-4fe8-b613-74f9e5810cd6","ios":"levelo://app?vid=ed32de37-66e8-4fe8-b613-74f9e5810cd6"},"vehicle_type_id":"4","last_reported":1744204924,"current_range_meters":18800,"station_id":"","pricing_plan_id":"cebpf4jnsgd1na2vs0mg"},{"bike_id":"d1f92f28-9609-4256-bd4a-880c7b09d4e8","system_id":"levelo_inurba_marseille","lat":43.29326,"lon":5.411588,"is_reserved":false,"is_disabled":false,"rental_uris":{"android":"levelo://app?vid=d1f92f28-9609-4256-bd4a-880c7b09d4e8","ios":"levelo://app?vid=d1f92f28-9609-4256-bd4a-880c7b09d4e8"},"vehicle_type_id":"4","last_reported":1744204924,"current_range_meters":18800,"station_id":"","pricing_plan_id":"cebpf4jnsgd1na2vs0mg"},{"bike_id":"5a735fa3-ab7b-4367-ae7e-20ca155a5f05","system_id":"levelo_inurba_marseille","lat":43.26212,"lon":5.37445,"is_reserved":false,"is_disabled":false,"rental_uris":{"android":"levelo://app?vid=5a735fa3-ab7b-4367-ae7e-20ca155a5f05","ios":"levelo://app?vid=5a735fa3-ab7b-4367-ae7e-20ca155a5f05"},"vehicle_type_id":"4","last_reported":1744204924,"current_range_meters":19200,"station_id":"ce4bhgp2rcd13ifvqfc0","pricing_plan_id":"cebpf4jnsgd1na2vs0mg"},{"bike_id":"5aa23b06-878b-4958-8ed6-355e1d3b9516","system_id":"levelo_inurba_marseille","lat":43.30769,"lon":5.37664,"is_reserved":false,"is_disabled":false,"rental_uris":{"android":"levelo://app?vid=5aa23b06-878b-4958-8ed6-355e1d3b9516","ios":"levelo://app?vid=5aa23b06-878b-4958-8ed6-355e1d3b9516"},"vehicle_type_id":"4","last_reported":1744204924,"current_range_meters":19200,"station_id":"ce4bgv92rcd13ifvqcq0","pricing_plan_id":"cebpf4jnsgd1na2vs0mg"},{"bike_id":"477c7062-d5bc-4345-9474-578cc956d616","system_id":"levelo_inurba_marseille","lat":43.29099,"lon":5.38133,"is_reserved":false,"is_disabled":false,"rental_uris":{"android":"levelo://app?vid=477c7062-d5bc-4345-9474-578cc956d616","ios":"levelo://app?vid=477c7062-d5bc-4345-9474-578cc956d616"},"vehicle_type_id":"4","last_reported":1744204924,"current_range_meters":18800,"station_id":"ce4bh512rcd13ifvqe2g","pricing_plan_id":"cebpf4jnsgd1na2vs0mg"},{"bike_id":"72817d45-2d43-46c5-9d2b-3f3146cf296d","system_id":"levelo_inurba_marseille","lat":43.25585,"lon":5.38243,"is_reserved":false,"is_disabled":false,"rental_uris":{"android":"levelo://app?vid=72817d45-2d43-46c5-9d2b-3f3146cf296d","ios":"levelo://app?vid=72817d45-2d43-46c5-9d2b-3f3146cf296d"},"vehicle_type_id":"4","last_reported":1744204924,"current_range_meters":19600,"station_id":"ce4bhih2rcd13ifvqfs0","pricing_plan_id":"cebpf4jnsgd1na2vs0mg"},{"bike_id":"ef291804-1477-432e-b153-82ea15725418","system_id":"levelo_inurba_marseille","lat":43.33751,"lon":5.37487,"is_reserved":false,"is_disabled":false,"rental_uris":{"android":"levelo://app?vid=ef291804-1477-432e-b153-82ea15725418","ios":"levelo://app?vid=ef291804-1477-432e-b153-82ea15725418"},"vehicle_type_id":"4","last_reported":1744204924,"current_range_meters":19200,"station_id":"","pricing_plan_id":"cebpf4jnsgd1na2vs0mg"},{"bike_id":"39d569f2-804d-4c1f-93cb-ffdd8bba0563","system_id":"levelo_inurba_marseille","lat":43.30535,"lon":5.3844,"is_reserved":false,"is_disabled":true,"rental_uris":{"android":"levelo://app?vid=39d569f2-804d-4c1f-93cb-ffdd8bba0563","ios":"levelo://app?vid=39d569f2-804d-4c1f-93cb-ffdd8bba0563"},"vehicle_type_id":"4","last_reported":1744204924,"current_range_meters":19600,"station_id":"ce4bgg92rcd13ifvqb30","pricing_plan_id":"cebpf4jnsgd1na2vs0mg"},{"bike_id":"e4e0ba0b-d869-44f1-9c6e-48e52e6f223e","system_id":"levelo_inurba_marseille","lat":43.27318,"lon":5.39077,"is_reserved":false,"is_disabled":false,"rental_uris":{"android":"levelo://app?vid=e4e0ba0b-d869-44f1-9c6e-48e52e6f223e","ios":"levelo://app?vid=e4e0ba0b-d869-44f1-9c6e-48e52e6f223e"},"vehicle_type_id":"4","last_reported":1744204924,"current_range_meters":19600,"station_id":"ce4bhgp2rcd13ifvqfe0","pricing_plan_id":"cebpf4jnsgd1na2vs0mg"},{"bike_id":"a71f2a5a-68cc-4ba4-ba37-497c0c906866","system_id":"levelo_inurba_marseille","lat":43.26241,"lon":5.40452,"is_reserved":false,"is_disabled":false,"rental_uris":{"android":"levelo://app?vid=a71f2a5a-68cc-4ba4-ba37-497c0c906866","ios":"levelo://app?vid=a71f2a5a-68cc-4ba4-ba37-497c0c906866"},"vehicle_type_id":"4","last_reported":1744204924,"current_range_meters":19600,"station_id":"ce4bhmh2rcd13ifvqgmg","pricing_plan_id":"cebpf4jnsgd1na2vs0mg"},{"bike_id":"235b58d6-2d65-4303-b7eb-9d245b6da72a","system_id":"levelo_inurba_marseille","lat":43.30247,"lon":5.40064,"is_reserved":false,"is_disabled":false,"rental_uris":{"android":"levelo://app?vid=235b58d6-2d65-4303-b7eb-9d245b6da72a","ios":"levelo://app?vid=235b58d6-2d65-4303-b7eb-9d245b6da72a"},"vehicle_type_id":"4","last_reported":1744204924,"current_range_meters":19600,"station_id":"ce4bgvh2rcd13ifvqcs0","pricing_plan_id":"cebpf4jnsgd1na2vs0mg"},{"bike_id":"3730c2de-7762-4a74-b536-360d72ebdc40","system_id":"levelo_inurba_marseille","lat":43.30539,"lon":5.36544,"is_reserved":false,"is_disabled":false,"rental_uris":{"android":"levelo://app?vid=3730c2de-7762-4a74-b536-360d72ebdc40","ios":"levelo://app?vid=3730c2de-7762-4a74-b536-360d72ebdc40"},"vehicle_type_id":"4","last_reported":1744204924,"current_range_meters":19600,"station_id":"ce4bgs12rcd13ifvqcag","pricing_plan_id":"cebpf4jnsgd1na2vs0mg"},{"bike_id":"231aaa88-1e79-4a74-a543-651d8fd5a027","system_id":"levelo_inurba_marseille","lat":43.33082,"lon":5.40509,"is_reserved":false,"is_disabled":false,"rental_uris":{"android":"levelo://app?vid=231aaa88-1e79-4a74-a543-651d8fd5a027","ios":"levelo://app?vid=231aaa88-1e79-4a74-a543-651d8fd5a027"},"vehicle_type_id":"4","last_reported":1744204924,"current_range_meters":19600,"station_id":"","pricing_plan_id":"cebpf4jnsgd1na2vs0mg"},{"bike_id":"f70b3269-becf-4a05-b7c6-a351e4429c5e","system_id":"levelo_inurba_marseille","lat":43.29038,"lon":5.39962,"is_reserved":false,"is_disabled":false,"rental_uris":{"android":"levelo://app?vid=f70b3269-becf-4a05-b7c6-a351e4429c5e","ios":"levelo://app?vid=f70b3269-becf-4a05-b7c6-a351e4429c5e"},"vehicle_type_id":"4","last_reported":1744204924,"current_range_meters":19600,"station_id":"ce4bh392rcd13ifvqdm0","pricing_plan_id":"cebpf4jnsgd1na2vs0mg"},{"bike_id":"77e20d6c-a38d-4e9d-9ad9-b1ee30d126e9","system_id":"levelo_inurba_marseille","lat":43.30436,"lon":5.36758,"is_reserved":false,"is_disabled":false,"rental_uris":{"android":"levelo://app?vid=77e20d6c-a38d-4e9d-9ad9-b1ee30d126e9","ios":"levelo://app?vid=77e20d6c-a38d-4e9d-9ad9-b1ee30d126e9"},"vehicle_type_id":"4","last_reported":1744204924,"current_range_meters":19600,"station_id":"","pricing_plan_id":"cebpf4jnsgd1na2vs0mg"},{"bike_id":"5b0d5c8c-8809-437e-8d13-6c5444b83f2b","system_id":"levelo_inurba_marseille","lat":43.29034,"lon":5.39968,"is_reserved":false,"is_disabled":false,"rental_uris":{"android":"levelo://app?vid=5b0d5c8c-8809-437e-8d13-6c5444b83f2b","ios":"levelo://app?vid=5b0d5c8c-8809-437e-8d13-6c5444b83f2b"},"vehicle_type_id":"4","last_reported":1744204924,"current_range_meters":19600,"station_id":"ce4bh392rcd13ifvqdm0","pricing_plan_id":"cebpf4jnsgd1na2vs0mg"},{"bike_id":"842b7dd8-eec6-4566-aae6-00557caaf3ae","system_id":"levelo_inurba_marseille","lat":43.30137,"lon":5.37409,"is_reserved":false,"is_disabled":false,"rental_uris":{"android":"levelo://app?vid=842b7dd8-eec6-4566-aae6-00557caaf3ae","ios":"levelo://app?vid=842b7dd8-eec6-4566-aae6-00557caaf3ae"},"vehicle_type_id":"4","last_reported":1744204924,"current_range_meters":19600,"station_id":"","pricing_plan_id":"cebpf4jnsgd1na2vs0mg"},{"bike_id":"01e8afc9-b963-4a9d-8f00-0de96c1dfc93","system_id":"levelo_inurba_marseille","lat":43.24182,"lon":5.36406,"is_reserved":false,"is_disabled":false,"rental_uris":{"android":"levelo://app?vid=01e8afc9-b963-4a9d-8f00-0de96c1dfc93","ios":"levelo://app?vid=01e8afc9-b963-4a9d-8f00-0de96c1dfc93"},"vehicle_type_id":"4","last_reported":1744204924,"current_range_meters":19600,"station_id":"cpo36qri1sfpv3e86is0","pricing_plan_id":"cebpf4jnsgd1na2vs0mg"},{"bike_id":"17afa5d6-bbb4-44c3-ab58-653427c8e78c","system_id":"levelo_inurba_marseille","lat":43.30244,"lon":5.40051,"is_reserved":false,"is_disabled":false,"rental_uris":{"android":"levelo://app?vid=17afa5d6-bbb4-44c3-ab58-653427c8e78c","ios":"levelo://app?vid=17afa5d6-bbb4-44c3-ab58-653427c8e78c"},"vehicle_type_id":"4","last_reported":1744204924,"current_range_meters":19600,"station_id":"ce4bgvh2rcd13ifvqcs0","pricing_plan_id":"cebpf4jnsgd1na2vs0mg"},{"bike_id":"cceb9408-3833-4b13-b051-f722d4d94a78","system_id":"levelo_inurba_marseille","lat":43.3035,"lon":5.4188,"is_reserved":false,"is_disabled":false,"rental_uris":{"android":"levelo://app?vid=cceb9408-3833-4b13-b051-f722d4d94a78","ios":"levelo://app?vid=cceb9408-3833-4b13-b051-f722d4d94a78"},"vehicle_type_id":"4","last_reported":1744204924,"current_range_meters":20000,"station_id":"ce4bhop2rcd13ifvqh7g","pricing_plan_id":"cebpf4jnsgd1na2vs0mg"},{"bike_id":"6037c51f-0ddf-4e65-b005-827372e72710","system_id":"levelo_inurba_marseille","lat":43.31478,"lon":5.37301,"is_reserved":false,"is_disabled":false,"rental_uris":{"android":"levelo://app?vid=6037c51f-0ddf-4e65-b005-827372e72710","ios":"levelo://app?vid=6037c51f-0ddf-4e65-b005-827372e72710"},"vehicle_type_id":"4","last_reported":1744204924,"current_range_meters":20000,"station_id":"ce4bgt12rcd13ifvqcd0","pricing_plan_id":"cebpf4jnsgd1na2vs0mg"},{"bike_id":"d2a9b194-900c-4955-a797-9693279a6cc2","system_id":"levelo_inurba_marseille","lat":43.24388,"lon":5.37056,"is_reserved":false,"is_disabled":false,"rental_uris":{"android":"levelo://app?vid=d2a9b194-900c-4955-a797-9693279a6cc2","ios":"levelo://app?vid=d2a9b194-900c-4955-a797-9693279a6cc2"},"vehicle_type_id":"4","last_reported":1744204924,"current_range_meters":19600,"station_id":"ce4bhhh2rcd13ifvqfk0","pricing_plan_id":"cebpf4jnsgd1na2vs0mg"},{"bike_id":"2b54a496-5bb2-42c4-bb01-6f1e5c2215a7","system_id":"levelo_inurba_marseille","lat":43.30817,"lon":5.3768,"is_reserved":false,"is_disabled":true,"rental_uris":{"android":"levelo://app?vid=2b54a496-5bb2-42c4-bb01-6f1e5c2215a7","ios":"levelo://app?vid=2b54a496-5bb2-42c4-bb01-6f1e5c2215a7"},"vehicle_type_id":"4","last_reported":1744204924,"current_range_meters":20000,"station_id":"ce4bgv92rcd13ifvqcq0","pricing_plan_id":"cebpf4jnsgd1na2vs0mg"},{"bike_id":"07c9e7ed-78f1-4c9b-82d2-ad403b42dd03","system_id":"levelo_inurba_marseille","lat":43.31008,"lon":5.38975,"is_reserved":false,"is_disabled":false,"rental_uris":{"android":"levelo://app?vid=07c9e7ed-78f1-4c9b-82d2-ad403b42dd03","ios":"levelo://app?vid=07c9e7ed-78f1-4c9b-82d2-ad403b42dd03"},"vehicle_type_id":"4","last_reported":1744204924,"current_range_meters":20000,"station_id":"","pricing_plan_id":"cebpf4jnsgd1na2vs0mg"},{"bike_id":"42ce62b3-93f6-4ae0-ba70-304b92e5186f","system_id":"levelo_inurba_marseille","lat":43.29097,"lon":5.38123,"is_reserved":false,"is_disabled":false,"rental_uris":{"android":"levelo://app?vid=42ce62b3-93f6-4ae0-ba70-304b92e5186f","ios":"levelo://app?vid=42ce62b3-93f6-4ae0-ba70-304b92e5186f"},"vehicle_type_id":"4","last_reported":1744204924,"current_range_meters":20400,"station_id":"ce4bh512rcd13ifvqe2g","pricing_plan_id":"cebpf4jnsgd1na2vs0mg"},{"bike_id":"6c63e1cd-38d4-4380-9c7d-06de55597b25","system_id":"levelo_inurba_marseille","lat":43.23141,"lon":5.43755,"is_reserved":false,"is_disabled":false,"rental_uris":{"android":"levelo://app?vid=6c63e1cd-38d4-4380-9c7d-06de55597b25","ios":"levelo://app?vid=6c63e1cd-38d4-4380-9c7d-06de55597b25"},"vehicle_type_id":"4","last_reported":1744204924,"current_range_meters":20400,"station_id":"","pricing_plan_id":"cebpf4jnsgd1na2vs0mg"},{"bike_id":"b0935832-4dc1-4f9b-b9b1-58aeaae4bc50","system_id":"levelo_inurba_marseille","lat":43.25935,"lon":5.408976,"is_reserved":false,"is_disabled":false,"rental_uris":{"android":"levelo://app?vid=b0935832-4dc1-4f9b-b9b1-58aeaae4bc50","ios":"levelo://app?vid=b0935832-4dc1-4f9b-b9b1-58aeaae4bc50"},"vehicle_type_id":"4","last_reported":1744204924,"current_range_meters":20400,"station_id":"ce4bhm92rcd13ifvqglg","pricing_plan_id":"cebpf4jnsgd1na2vs0mg"},{"bike_id":"a4d5e0c2-e074-4a8d-a831-414a917ce45d","system_id":"levelo_inurba_marseille","lat":43.26215,"lon":5.37441,"is_reserved":false,"is_disabled":false,"rental_uris":{"android":"levelo://app?vid=a4d5e0c2-e074-4a8d-a831-414a917ce45d","ios":"levelo://app?vid=a4d5e0c2-e074-4a8d-a831-414a917ce45d"},"vehicle_type_id":"4","last_reported":1744204924,"current_range_meters":20400,"station_id":"ce4bhgp2rcd13ifvqfc0","pricing_plan_id":"cebpf4jnsgd1na2vs0mg"},{"bike_id":"bdcde776-a18f-41ca-b39f-ea8dd8735b33","system_id":"levelo_inurba_marseille","lat":43.26204,"lon":5.37928,"is_reserved":false,"is_disabled":false,"rental_uris":{"android":"levelo://app?vid=bdcde776-a18f-41ca-b39f-ea8dd8735b33","ios":"levelo://app?vid=bdcde776-a18f-41ca-b39f-ea8dd8735b33"},"vehicle_type_id":"4","last_reported":1744204924,"current_range_meters":20400,"station_id":"ce4bhjp2rcd13ifvqg90","pricing_plan_id":"cebpf4jnsgd1na2vs0mg"},{"bike_id":"9ce5afc0-fc64-48b5-b28e-91b4f59b0030","system_id":"levelo_inurba_marseille","lat":43.31175,"lon":5.38725,"is_reserved":false,"is_disabled":false,"rental_uris":{"android":"levelo://app?vid=9ce5afc0-fc64-48b5-b28e-91b4f59b0030","ios":"levelo://app?vid=9ce5afc0-fc64-48b5-b28e-91b4f59b0030"},"vehicle_type_id":"4","last_reported":1744204924,"current_range_meters":20400,"station_id":"ce4bgv12rcd13ifvqcp0","pricing_plan_id":"cebpf4jnsgd1na2vs0mg"},{"bike_id":"e3a37a8f-75f1-42ff-9a14-2260097403ad","system_id":"levelo_inurba_marseille","lat":43.24548,"lon":5.39527,"is_reserved":false,"is_disabled":false,"rental_uris":{"android":"levelo://app?vid=e3a37a8f-75f1-42ff-9a14-2260097403ad","ios":"levelo://app?vid=e3a37a8f-75f1-42ff-9a14-2260097403ad"},"vehicle_type_id":"4","last_reported":1744204924,"current_range_meters":20400,"station_id":"ce4bhlp2rcd13ifvqgjg","pricing_plan_id":"cebpf4jnsgd1na2vs0mg"},{"bike_id":"7a8425a2-77b9-415b-8ca0-968976ceb490","system_id":"levelo_inurba_marseille","lat":43.28854,"lon":5.3586,"is_reserved":false,"is_disabled":false,"rental_uris":{"android":"levelo://app?vid=7a8425a2-77b9-415b-8ca0-968976ceb490","ios":"levelo://app?vid=7a8425a2-77b9-415b-8ca0-968976ceb490"},"vehicle_type_id":"4","last_reported":1744204924,"current_range_meters":20400,"station_id":"ce4bhb12rcd13ifvqem0","pricing_plan_id":"cebpf4jnsgd1na2vs0mg"},{"bike_id":"dcf2b0fd-e733-460c-90f0-8a7f9526959a","system_id":"levelo_inurba_marseille","lat":43.29606,"lon":5.37057,"is_reserved":false,"is_disabled":false,"rental_uris":{"android":"levelo://app?vid=dcf2b0fd-e733-460c-90f0-8a7f9526959a","ios":"levelo://app?vid=dcf2b0fd-e733-460c-90f0-8a7f9526959a"},"vehicle_type_id":"4","last_reported":1744204924,"current_range_meters":20400,"station_id":"","pricing_plan_id":"cebpf4jnsgd1na2vs0mg"},{"bike_id":"d371cdc8-784b-41f5-803e-eb56f0baf003","system_id":"levelo_inurba_marseille","lat":43.29576,"lon":5.37524,"is_reserved":false,"is_disabled":false,"rental_uris":{"android":"levelo://app?vid=d371cdc8-784b-41f5-803e-eb56f0baf003","ios":"levelo://app?vid=d371cdc8-784b-41f5-803e-eb56f0baf003"},"vehicle_type_id":"4","last_reported":1744204924,"current_range_meters":20800,"station_id":"ce4bgh92rcd13ifvqb50","pricing_plan_id":"cebpf4jnsgd1na2vs0mg"},{"bike_id":"9cf65c3b-f1a2-432c-b40f-26f465e6d52c","system_id":"levelo_inurba_marseille","lat":43.29595,"lon":5.38103,"is_reserved":false,"is_disabled":false,"rental_uris":{"android":"levelo://app?vid=9cf65c3b-f1a2-432c-b40f-26f465e6d52c","ios":"levelo://app?vid=9cf65c3b-f1a2-432c-b40f-26f465e6d52c"},"vehicle_type_id":"4","last_reported":1744204924,"current_range_meters":20800,"station_id":"ce4bgl12rcd13ifvqbo0","pricing_plan_id":"cebpf4jnsgd1na2vs0mg"},{"bike_id":"d27bdb94-3aef-41c1-a26c-5f29dd85ea38","system_id":"levelo_inurba_marseille","lat":43.28931,"lon":5.38395,"is_reserved":false,"is_disabled":false,"rental_uris":{"android":"levelo://app?vid=d27bdb94-3aef-41c1-a26c-5f29dd85ea38","ios":"levelo://app?vid=d27bdb94-3aef-41c1-a26c-5f29dd85ea38"},"vehicle_type_id":"4","last_reported":1744204924,"current_range_meters":20800,"station_id":"ce4bh612rcd13ifvqe6g","pricing_plan_id":"cebpf4jnsgd1na2vs0mg"},{"bike_id":"d64648ad-988e-4859-9e47-00782dbc6c22","system_id":"levelo_inurba_marseille","lat":43.23144,"lon":5.4374,"is_reserved":false,"is_disabled":false,"rental_uris":{"android":"levelo://app?vid=d64648ad-988e-4859-9e47-00782dbc6c22","ios":"levelo://app?vid=d64648ad-988e-4859-9e47-00782dbc6c22"},"vehicle_type_id":"4","last_reported":1744204924,"current_range_meters":20800,"station_id":"ce4bhmp2rcd13ifvqgog","pricing_plan_id":"cebpf4jnsgd1na2vs0mg"},{"bike_id":"58614e41-e503-4cc5-9b17-a7e323f88756","system_id":"levelo_inurba_marseille","lat":43.29228,"lon":5.36063,"is_reserved":false,"is_disabled":false,"rental_uris":{"android":"levelo://app?vid=58614e41-e503-4cc5-9b17-a7e323f88756","ios":"levelo://app?vid=58614e41-e503-4cc5-9b17-a7e323f88756"},"vehicle_type_id":"4","last_reported":1744204924,"current_range_meters":20800,"station_id":"ce4bhbh2rcd13ifvqeqg","pricing_plan_id":"cebpf4jnsgd1na2vs0mg"},{"bike_id":"f9fde33d-3e05-4f24-9670-2ad2d1cacdc1","system_id":"levelo_inurba_marseille","lat":43.2885,"lon":5.37266,"is_reserved":false,"is_disabled":false,"rental_uris":{"android":"levelo://app?vid=f9fde33d-3e05-4f24-9670-2ad2d1cacdc1","ios":"levelo://app?vid=f9fde33d-3e05-4f24-9670-2ad2d1cacdc1"},"vehicle_type_id":"4","last_reported":1744204924,"current_range_meters":20800,"station_id":"","pricing_plan_id":"cebpf4jnsgd1na2vs0mg"},{"bike_id":"32c95e61-6e67-4ed8-9801-68d996859457","system_id":"levelo_inurba_marseille","lat":43.29696,"lon":5.37294,"is_reserved":false,"is_disabled":false,"rental_uris":{"android":"levelo://app?vid=32c95e61-6e67-4ed8-9801-68d996859457","ios":"levelo://app?vid=32c95e61-6e67-4ed8-9801-68d996859457"},"vehicle_type_id":"4","last_reported":1744204924,"current_range_meters":21600,"station_id":"ce4bgk12rcd13ifvqbj0","pricing_plan_id":"cebpf4jnsgd1na2vs0mg"},{"bike_id":"aa67d4db-87c4-4bee-8769-8bda0e5d9b56","system_id":"levelo_inurba_marseille","lat":43.29219,"lon":5.36076,"is_reserved":false,"is_disabled":false,"rental_uris":{"android":"levelo://app?vid=aa67d4db-87c4-4bee-8769-8bda0e5d9b56","ios":"levelo://app?vid=aa67d4db-87c4-4bee-8769-8bda0e5d9b56"},"vehicle_type_id":"4","last_reported":1744204924,"current_range_meters":21600,"station_id":"ce4bhbh2rcd13ifvqeqg","pricing_plan_id":"cebpf4jnsgd1na2vs0mg"},{"bike_id":"6d0afb17-39ad-4e32-b029-64c345a20149","system_id":"levelo_inurba_marseille","lat":43.31487,"lon":5.37313,"is_reserved":false,"is_disabled":false,"rental_uris":{"android":"levelo://app?vid=6d0afb17-39ad-4e32-b029-64c345a20149","ios":"levelo://app?vid=6d0afb17-39ad-4e32-b029-64c345a20149"},"vehicle_type_id":"4","last_reported":1744204924,"current_range_meters":21600,"station_id":"ce4bgt12rcd13ifvqcd0","pricing_plan_id":"cebpf4jnsgd1na2vs0mg"},{"bike_id":"794cfea5-2a58-4c44-856b-f6df08449153","system_id":"levelo_inurba_marseille","lat":43.30554,"lon":5.36694,"is_reserved":false,"is_disabled":false,"rental_uris":{"android":"levelo://app?vid=794cfea5-2a58-4c44-856b-f6df08449153","ios":"levelo://app?vid=794cfea5-2a58-4c44-856b-f6df08449153"},"vehicle_type_id":"4","last_reported":1744204924,"current_range_meters":21600,"station_id":"ce4bgrp2rcd13ifvqc9g","pricing_plan_id":"cebpf4jnsgd1na2vs0mg"},{"bike_id":"46d9a071-4df0-4aeb-b5bd-842cdb7e9e6f","system_id":"levelo_inurba_marseille","lat":43.29807,"lon":5.38122,"is_reserved":false,"is_disabled":false,"rental_uris":{"android":"levelo://app?vid=46d9a071-4df0-4aeb-b5bd-842cdb7e9e6f","ios":"levelo://app?vid=46d9a071-4df0-4aeb-b5bd-842cdb7e9e6f"},"vehicle_type_id":"4","last_reported":1744204924,"current_range_meters":21600,"station_id":"ce4bgip2rcd13ifvqbb0","pricing_plan_id":"cebpf4jnsgd1na2vs0mg"},{"bike_id":"593cc697-220e-4df3-9f2b-b1793070fa32","system_id":"levelo_inurba_marseille","lat":43.305644,"lon":5.365299,"is_reserved":false,"is_disabled":true,"rental_uris":{"android":"levelo://app?vid=593cc697-220e-4df3-9f2b-b1793070fa32","ios":"levelo://app?vid=593cc697-220e-4df3-9f2b-b1793070fa32"},"vehicle_type_id":"4","last_reported":1744204924,"current_range_meters":22000,"station_id":"ce4bgs12rcd13ifvqcag","pricing_plan_id":"cebpf4jnsgd1na2vs0mg"},{"bike_id":"010f156a-a502-440a-862d-2e9e9769487b","system_id":"levelo_inurba_marseille","lat":43.33022,"lon":5.39046,"is_reserved":false,"is_disabled":false,"rental_uris":{"android":"levelo://app?vid=010f156a-a502-440a-862d-2e9e9769487b","ios":"levelo://app?vid=010f156a-a502-440a-862d-2e9e9769487b"},"vehicle_type_id":"4","last_reported":1744204924,"current_range_meters":22000,"station_id":"ce4bhr92rcd13ifvqhrg","pricing_plan_id":"cebpf4jnsgd1na2vs0mg"},{"bike_id":"2d1d22f2-01e6-4fe3-85fb-795513aa8548","system_id":"levelo_inurba_marseille","lat":43.29538,"lon":5.365354,"is_reserved":false,"is_disabled":false,"rental_uris":{"android":"levelo://app?vid=2d1d22f2-01e6-4fe3-85fb-795513aa8548","ios":"levelo://app?vid=2d1d22f2-01e6-4fe3-85fb-795513aa8548"},"vehicle_type_id":"4","last_reported":1744204924,"current_range_meters":22000,"station_id":"ce4bhi12rcd13ifvqfo0","pricing_plan_id":"cebpf4jnsgd1na2vs0mg"},{"bike_id":"248e6f2f-2e1e-4e0a-bdb3-badd9dc01398","system_id":"levelo_inurba_marseille","lat":43.2804,"lon":5.40877,"is_reserved":false,"is_disabled":false,"rental_uris":{"android":"levelo://app?vid=248e6f2f-2e1e-4e0a-bdb3-badd9dc01398","ios":"levelo://app?vid=248e6f2f-2e1e-4e0a-bdb3-badd9dc01398"},"vehicle_type_id":"4","last_reported":1744204924,"current_range_meters":22000,"station_id":"","pricing_plan_id":"cebpf4jnsgd1na2vs0mg"},{"bike_id":"fd657266-66d1-4871-84fa-fd73eddd163d","system_id":"levelo_inurba_marseille","lat":43.29262,"lon":5.40904,"is_reserved":false,"is_disabled":false,"rental_uris":{"android":"levelo://app?vid=fd657266-66d1-4871-84fa-fd73eddd163d","ios":"levelo://app?vid=fd657266-66d1-4871-84fa-fd73eddd163d"},"vehicle_type_id":"4","last_reported":1744204924,"current_range_meters":21600,"station_id":"ce4bh192rcd13ifvqdc0","pricing_plan_id":"cebpf4jnsgd1na2vs0mg"},{"bike_id":"ffce77da-945b-4916-b7bc-1a6f08a0e6ae","system_id":"levelo_inurba_marseille","lat":43.32368,"lon":5.38887,"is_reserved":false,"is_disabled":false,"rental_uris":{"android":"levelo://app?vid=ffce77da-945b-4916-b7bc-1a6f08a0e6ae","ios":"levelo://app?vid=ffce77da-945b-4916-b7bc-1a6f08a0e6ae"},"vehicle_type_id":"4","last_reported":1744204924,"current_range_meters":22000,"station_id":"ce4bhqp2rcd13ifvqhog","pricing_plan_id":"cebpf4jnsgd1na2vs0mg"},{"bike_id":"50deb72e-5960-4e77-b6ad-907fdfa7b57d","system_id":"levelo_inurba_marseille","lat":43.29571,"lon":5.37499,"is_reserved":false,"is_disabled":true,"rental_uris":{"android":"levelo://app?vid=50deb72e-5960-4e77-b6ad-907fdfa7b57d","ios":"levelo://app?vid=50deb72e-5960-4e77-b6ad-907fdfa7b57d"},"vehicle_type_id":"4","last_reported":1744204924,"current_range_meters":22000,"station_id":"ce4bgh92rcd13ifvqb50","pricing_plan_id":"cebpf4jnsgd1na2vs0mg"},{"bike_id":"2ec54f12-19f9-4dea-ad69-0719aa2b8616","system_id":"levelo_inurba_marseille","lat":43.25119,"lon":5.40329,"is_reserved":false,"is_disabled":false,"rental_uris":{"android":"levelo://app?vid=2ec54f12-19f9-4dea-ad69-0719aa2b8616","ios":"levelo://app?vid=2ec54f12-19f9-4dea-ad69-0719aa2b8616"},"vehicle_type_id":"4","last_reported":1744204924,"current_range_meters":21600,"station_id":"ce4bhlh2rcd13ifvqgig","pricing_plan_id":"cebpf4jnsgd1na2vs0mg"},{"bike_id":"1ebc9024-8241-4af2-95a9-e4837b78b34f","system_id":"levelo_inurba_marseille","lat":43.25,"lon":5.38933,"is_reserved":false,"is_disabled":false,"rental_uris":{"android":"levelo://app?vid=1ebc9024-8241-4af2-95a9-e4837b78b34f","ios":"levelo://app?vid=1ebc9024-8241-4af2-95a9-e4837b78b34f"},"vehicle_type_id":"4","last_reported":1744204924,"current_range_meters":22000,"station_id":"ce4bhgp2rcd13ifvqfd0","pricing_plan_id":"cebpf4jnsgd1na2vs0mg"},{"bike_id":"94590b05-1f78-4e0c-a0ef-8831514a32e3","system_id":"levelo_inurba_marseille","lat":43.30551,"lon":5.36522,"is_reserved":false,"is_disabled":false,"rental_uris":{"android":"levelo://app?vid=94590b05-1f78-4e0c-a0ef-8831514a32e3","ios":"levelo://app?vid=94590b05-1f78-4e0c-a0ef-8831514a32e3"},"vehicle_type_id":"4","last_reported":1744204924,"current_range_meters":22400,"station_id":"ce4bgs12rcd13ifvqcag","pricing_plan_id":"cebpf4jnsgd1na2vs0mg"},{"bike_id":"0acb625f-2924-4ebf-85c9-bce0b723a790","system_id":"levelo_inurba_marseille","lat":43.290375,"lon":5.399617,"is_reserved":false,"is_disabled":false,"rental_uris":{"android":"levelo://app?vid=0acb625f-2924-4ebf-85c9-bce0b723a790","ios":"levelo://app?vid=0acb625f-2924-4ebf-85c9-bce0b723a790"},"vehicle_type_id":"4","last_reported":1744204924,"current_range_meters":22400,"station_id":"ce4bh2p2rcd13ifvqdi0","pricing_plan_id":"cebpf4jnsgd1na2vs0mg"},{"bike_id":"509b175b-3c7c-49aa-9e2c-ce922a8006af","system_id":"levelo_inurba_marseille","lat":43.23153,"lon":5.4372,"is_reserved":false,"is_disabled":false,"rental_uris":{"android":"levelo://app?vid=509b175b-3c7c-49aa-9e2c-ce922a8006af","ios":"levelo://app?vid=509b175b-3c7c-49aa-9e2c-ce922a8006af"},"vehicle_type_id":"4","last_reported":1744204924,"current_range_meters":22400,"station_id":"ce4bhmp2rcd13ifvqgog","pricing_plan_id":"cebpf4jnsgd1na2vs0mg"},{"bike_id":"f7159a8d-3903-4513-bfcd-9d9e2fa626e6","system_id":"levelo_inurba_marseille","lat":43.29259,"lon":5.38441,"is_reserved":false,"is_disabled":false,"rental_uris":{"android":"levelo://app?vid=f7159a8d-3903-4513-bfcd-9d9e2fa626e6","ios":"levelo://app?vid=f7159a8d-3903-4513-bfcd-9d9e2fa626e6"},"vehicle_type_id":"4","last_reported":1744204924,"current_range_meters":22400,"station_id":"ce4bh692rcd13ifvqea0","pricing_plan_id":"cebpf4jnsgd1na2vs0mg"},{"bike_id":"ef9d3643-c0f3-4ac3-a8af-62d494ce2353","system_id":"levelo_inurba_marseille","lat":43.28438,"lon":5.37542,"is_reserved":false,"is_disabled":false,"rental_uris":{"android":"levelo://app?vid=ef9d3643-c0f3-4ac3-a8af-62d494ce2353","ios":"levelo://app?vid=ef9d3643-c0f3-4ac3-a8af-62d494ce2353"},"vehicle_type_id":"4","last_reported":1744204924,"current_range_meters":22400,"station_id":"ce4bh412rcd13ifvqds0","pricing_plan_id":"cebpf4jnsgd1na2vs0mg"},{"bike_id":"eab6cbfa-cb8e-47d7-b0d6-226ab7facec7","system_id":"levelo_inurba_marseille","lat":43.31717,"lon":5.42408,"is_reserved":false,"is_disabled":true,"rental_uris":{"android":"levelo://app?vid=eab6cbfa-cb8e-47d7-b0d6-226ab7facec7","ios":"levelo://app?vid=eab6cbfa-cb8e-47d7-b0d6-226ab7facec7"},"vehicle_type_id":"4","last_reported":1744204924,"current_range_meters":22400,"station_id":"ce4bhp92rcd13ifvqhbg","pricing_plan_id":"cebpf4jnsgd1na2vs0mg"},{"bike_id":"fc7d8702-4ac7-4356-9fee-5e937c3bafec","system_id":"levelo_inurba_marseille","lat":43.25499,"lon":5.37655,"is_reserved":false,"is_disabled":false,"rental_uris":{"android":"levelo://app?vid=fc7d8702-4ac7-4356-9fee-5e937c3bafec","ios":"levelo://app?vid=fc7d8702-4ac7-4356-9fee-5e937c3bafec"},"vehicle_type_id":"4","last_reported":1744204924,"current_range_meters":22000,"station_id":"ce4bhh12rcd13ifvqff0","pricing_plan_id":"cebpf4jnsgd1na2vs0mg"},{"bike_id":"e6fa49cc-9b46-41e1-ade5-1bc92bf56fa6","system_id":"levelo_inurba_marseille","lat":43.295258,"lon":5.385428,"is_reserved":false,"is_disabled":false,"rental_uris":{"android":"levelo://app?vid=e6fa49cc-9b46-41e1-ade5-1bc92bf56fa6","ios":"levelo://app?vid=e6fa49cc-9b46-41e1-ade5-1bc92bf56fa6"},"vehicle_type_id":"4","last_reported":1744204924,"current_range_meters":22400,"station_id":"ce4bgjh2rcd13ifvqbg0","pricing_plan_id":"cebpf4jnsgd1na2vs0mg"},{"bike_id":"32347e01-e11f-4a07-8ccd-ff406087a28f","system_id":"levelo_inurba_marseille","lat":43.31224,"lon":5.36855,"is_reserved":false,"is_disabled":false,"rental_uris":{"android":"levelo://app?vid=32347e01-e11f-4a07-8ccd-ff406087a28f","ios":"levelo://app?vid=32347e01-e11f-4a07-8ccd-ff406087a28f"},"vehicle_type_id":"4","last_reported":1744204924,"current_range_meters":22800,"station_id":"ce4bgl92rcd13ifvqbq0","pricing_plan_id":"cebpf4jnsgd1na2vs0mg"},{"bike_id":"86c09796-436c-4277-9510-d181add87a25","system_id":"levelo_inurba_marseille","lat":43.31247,"lon":5.36894,"is_reserved":false,"is_disabled":false,"rental_uris":{"android":"levelo://app?vid=86c09796-436c-4277-9510-d181add87a25","ios":"levelo://app?vid=86c09796-436c-4277-9510-d181add87a25"},"vehicle_type_id":"4","last_reported":1744204924,"current_range_meters":22800,"station_id":"ce4bgl92rcd13ifvqbq0","pricing_plan_id":"cebpf4jnsgd1na2vs0mg"},{"bike_id":"1f96790d-9c80-414b-8543-ad735c3c628a","system_id":"levelo_inurba_marseille","lat":43.30265,"lon":5.40084,"is_reserved":false,"is_disabled":false,"rental_uris":{"android":"levelo://app?vid=1f96790d-9c80-414b-8543-ad735c3c628a","ios":"levelo://app?vid=1f96790d-9c80-414b-8543-ad735c3c628a"},"vehicle_type_id":"4","last_reported":1744204924,"current_range_meters":22800,"station_id":"ce4bhn92rcd13ifvqgrg","pricing_plan_id":"cebpf4jnsgd1na2vs0mg"},{"bike_id":"289b71bf-67f7-4b6a-bd7f-a3c4f6281872","system_id":"levelo_inurba_marseille","lat":43.295822,"lon":5.375229,"is_reserved":false,"is_disabled":false,"rental_uris":{"android":"levelo://app?vid=289b71bf-67f7-4b6a-bd7f-a3c4f6281872","ios":"levelo://app?vid=289b71bf-67f7-4b6a-bd7f-a3c4f6281872"},"vehicle_type_id":"4","last_reported":1744204924,"current_range_meters":22400,"station_id":"ce4bh692rcd13ifvqea0","pricing_plan_id":"cebpf4jnsgd1na2vs0mg"},{"bike_id":"097f271b-5530-40bc-b12d-1c5c092fa245","system_id":"levelo_inurba_marseille","lat":43.32483,"lon":5.36562,"is_reserved":false,"is_disabled":false,"rental_uris":{"android":"levelo://app?vid=097f271b-5530-40bc-b12d-1c5c092fa245","ios":"levelo://app?vid=097f271b-5530-40bc-b12d-1c5c092fa245"},"vehicle_type_id":"4","last_reported":1744204924,"current_range_meters":22800,"station_id":"ce4bhs12rcd13ifvqhvg","pricing_plan_id":"cebpf4jnsgd1na2vs0mg"},{"bike_id":"56f5474d-0ad3-4508-93fc-96babfc984e8","system_id":"levelo_inurba_marseille","lat":43.28351,"lon":5.38101,"is_reserved":false,"is_disabled":false,"rental_uris":{"android":"levelo://app?vid=56f5474d-0ad3-4508-93fc-96babfc984e8","ios":"levelo://app?vid=56f5474d-0ad3-4508-93fc-96babfc984e8"},"vehicle_type_id":"4","last_reported":1744204924,"current_range_meters":22800,"station_id":"ce4bh412rcd13ifvqdr0","pricing_plan_id":"cebpf4jnsgd1na2vs0mg"},{"bike_id":"dcb723b4-7ceb-4183-9f69-a90f74089230","system_id":"levelo_inurba_marseille","lat":43.28845,"lon":5.35849,"is_reserved":false,"is_disabled":false,"rental_uris":{"android":"levelo://app?vid=dcb723b4-7ceb-4183-9f69-a90f74089230","ios":"levelo://app?vid=dcb723b4-7ceb-4183-9f69-a90f74089230"},"vehicle_type_id":"4","last_reported":1744204924,"current_range_meters":22800,"station_id":"ce4bhb12rcd13ifvqem0","pricing_plan_id":"cebpf4jnsgd1na2vs0mg"},{"bike_id":"560b73b2-c27b-4cfe-a69d-c093c96650ce","system_id":"levelo_inurba_marseille","lat":43.30275,"lon":5.37709,"is_reserved":false,"is_disabled":false,"rental_uris":{"android":"levelo://app?vid=560b73b2-c27b-4cfe-a69d-c093c96650ce","ios":"levelo://app?vid=560b73b2-c27b-4cfe-a69d-c093c96650ce"},"vehicle_type_id":"4","last_reported":1744204924,"current_range_meters":22800,"station_id":"ce4bguh2rcd13ifvqcj0","pricing_plan_id":"cebpf4jnsgd1na2vs0mg"},{"bike_id":"ec71824f-66d8-4c73-9328-262c264b4051","system_id":"levelo_inurba_marseille","lat":43.32212,"lon":5.38828,"is_reserved":false,"is_disabled":false,"rental_uris":{"android":"levelo://app?vid=ec71824f-66d8-4c73-9328-262c264b4051","ios":"levelo://app?vid=ec71824f-66d8-4c73-9328-262c264b4051"},"vehicle_type_id":"4","last_reported":1744204924,"current_range_meters":22800,"station_id":"","pricing_plan_id":"cebpf4jnsgd1na2vs0mg"},{"bike_id":"182650a6-9433-4951-80ba-44b6e3878dab","system_id":"levelo_inurba_marseille","lat":43.30542,"lon":5.38443,"is_reserved":false,"is_disabled":true,"rental_uris":{"android":"levelo://app?vid=182650a6-9433-4951-80ba-44b6e3878dab","ios":"levelo://app?vid=182650a6-9433-4951-80ba-44b6e3878dab"},"vehicle_type_id":"4","last_reported":1744204924,"current_range_meters":22800,"station_id":"ce4bgg92rcd13ifvqb30","pricing_plan_id":"cebpf4jnsgd1na2vs0mg"},{"bike_id":"7f2bb863-9cb5-4ee1-bb56-707d3def9649","system_id":"levelo_inurba_marseille","lat":43.30153,"lon":5.37402,"is_reserved":false,"is_disabled":false,"rental_uris":{"android":"levelo://app?vid=7f2bb863-9cb5-4ee1-bb56-707d3def9649","ios":"levelo://app?vid=7f2bb863-9cb5-4ee1-bb56-707d3def9649"},"vehicle_type_id":"4","last_reported":1744204924,"current_range_meters":22800,"station_id":"ce4bgs92rcd13ifvqcc0","pricing_plan_id":"cebpf4jnsgd1na2vs0mg"},{"bike_id":"99e87052-a34b-450e-b401-a9cbee0200a3","system_id":"levelo_inurba_marseille","lat":43.28865,"lon":5.35833,"is_reserved":false,"is_disabled":false,"rental_uris":{"android":"levelo://app?vid=99e87052-a34b-450e-b401-a9cbee0200a3","ios":"levelo://app?vid=99e87052-a34b-450e-b401-a9cbee0200a3"},"vehicle_type_id":"4","last_reported":1744204924,"current_range_meters":22800,"station_id":"ce4bhb12rcd13ifvqem0","pricing_plan_id":"cebpf4jnsgd1na2vs0mg"},{"bike_id":"17e04d16-a197-48f6-828a-78c3e250db07","system_id":"levelo_inurba_marseille","lat":43.29366,"lon":5.3785,"is_reserved":false,"is_disabled":false,"rental_uris":{"android":"levelo://app?vid=17e04d16-a197-48f6-828a-78c3e250db07","ios":"levelo://app?vid=17e04d16-a197-48f6-828a-78c3e250db07"},"vehicle_type_id":"4","last_reported":1744204924,"current_range_meters":22800,"station_id":"ce4bgjh2rcd13ifvqbf0","pricing_plan_id":"cebpf4jnsgd1na2vs0mg"},{"bike_id":"8418e2fa-a5ee-4b9c-b0b8-03615e5c0e7a","system_id":"levelo_inurba_marseille","lat":43.27929,"lon":5.39587,"is_reserved":false,"is_disabled":false,"rental_uris":{"android":"levelo://app?vid=8418e2fa-a5ee-4b9c-b0b8-03615e5c0e7a","ios":"levelo://app?vid=8418e2fa-a5ee-4b9c-b0b8-03615e5c0e7a"},"vehicle_type_id":"4","last_reported":1744204924,"current_range_meters":23200,"station_id":"ce4bhf92rcd13ifvqf40","pricing_plan_id":"cebpf4jnsgd1na2vs0mg"},{"bike_id":"c89bae1f-da09-46a3-94b1-e12c843e1455","system_id":"levelo_inurba_marseille","lat":43.28671,"lon":5.36361,"is_reserved":false,"is_disabled":false,"rental_uris":{"android":"levelo://app?vid=c89bae1f-da09-46a3-94b1-e12c843e1455","ios":"levelo://app?vid=c89bae1f-da09-46a3-94b1-e12c843e1455"},"vehicle_type_id":"4","last_reported":1744204924,"current_range_meters":22800,"station_id":"ce4bhah2rcd13ifvqej0","pricing_plan_id":"cebpf4jnsgd1na2vs0mg"},{"bike_id":"23718e9a-5ce7-4d28-99a5-8f754f56e13c","system_id":"levelo_inurba_marseille","lat":43.22501,"lon":5.34782,"is_reserved":false,"is_disabled":false,"rental_uris":{"android":"levelo://app?vid=23718e9a-5ce7-4d28-99a5-8f754f56e13c","ios":"levelo://app?vid=23718e9a-5ce7-4d28-99a5-8f754f56e13c"},"vehicle_type_id":"4","last_reported":1744204924,"current_range_meters":23200,"station_id":"","pricing_plan_id":"cebpf4jnsgd1na2vs0mg"},{"bike_id":"eaf68990-d336-4b74-a4f5-6fb02fbb8de9","system_id":"levelo_inurba_marseille","lat":43.30247,"lon":5.40056,"is_reserved":false,"is_disabled":false,"rental_uris":{"android":"levelo://app?vid=eaf68990-d336-4b74-a4f5-6fb02fbb8de9","ios":"levelo://app?vid=eaf68990-d336-4b74-a4f5-6fb02fbb8de9"},"vehicle_type_id":"4","last_reported":1744204924,"current_range_meters":23200,"station_id":"ce4bgvh2rcd13ifvqcs0","pricing_plan_id":"cebpf4jnsgd1na2vs0mg"},{"bike_id":"e7a19d1e-443c-4e1c-9782-a7a2893cae01","system_id":"levelo_inurba_marseille","lat":43.26216,"lon":5.37441,"is_reserved":false,"is_disabled":false,"rental_uris":{"android":"levelo://app?vid=e7a19d1e-443c-4e1c-9782-a7a2893cae01","ios":"levelo://app?vid=e7a19d1e-443c-4e1c-9782-a7a2893cae01"},"vehicle_type_id":"4","last_reported":1744204924,"current_range_meters":23200,"station_id":"ce4bhgp2rcd13ifvqfc0","pricing_plan_id":"cebpf4jnsgd1na2vs0mg"},{"bike_id":"651ebb6d-1401-4455-852d-d5179f27c483","system_id":"levelo_inurba_marseille","lat":43.30534,"lon":5.36522,"is_reserved":false,"is_disabled":false,"rental_uris":{"android":"levelo://app?vid=651ebb6d-1401-4455-852d-d5179f27c483","ios":"levelo://app?vid=651ebb6d-1401-4455-852d-d5179f27c483"},"vehicle_type_id":"4","last_reported":1744204924,"current_range_meters":23200,"station_id":"ce4bgs12rcd13ifvqcag","pricing_plan_id":"cebpf4jnsgd1na2vs0mg"},{"bike_id":"28e3645d-aabb-4335-907e-e39d07228180","system_id":"levelo_inurba_marseille","lat":43.31724,"lon":5.4241,"is_reserved":false,"is_disabled":false,"rental_uris":{"android":"levelo://app?vid=28e3645d-aabb-4335-907e-e39d07228180","ios":"levelo://app?vid=28e3645d-aabb-4335-907e-e39d07228180"},"vehicle_type_id":"4","last_reported":1744204924,"current_range_meters":23200,"station_id":"ce4bhp92rcd13ifvqhbg","pricing_plan_id":"cebpf4jnsgd1na2vs0mg"},{"bike_id":"6125ddfd-95ef-4a70-a9b9-c5500f0917b8","system_id":"levelo_inurba_marseille","lat":43.31286,"lon":5.38681,"is_reserved":false,"is_disabled":false,"rental_uris":{"android":"levelo://app?vid=6125ddfd-95ef-4a70-a9b9-c5500f0917b8","ios":"levelo://app?vid=6125ddfd-95ef-4a70-a9b9-c5500f0917b8"},"vehicle_type_id":"4","last_reported":1744204924,"current_range_meters":23200,"station_id":"","pricing_plan_id":"cebpf4jnsgd1na2vs0mg"},