{"last_updated":1735229419,"ttl":60,"version":"2.2","data":{"bikes":[{"bike_id":"c985a2a1-d237-4fe7-95b3-19029cff86f2","system_id":"levelo_inurba_marseille","lat":43.29848,"lon":5.36279,"is_reserved":false,"is_disabled":false,"rental_uris":{"android":"levelo://app?vid=c985a2a1-d237-4fe7-95b3-19029cff86f2","ios":"levelo://app?vid=c985a2a1-d237-4fe7-95b3-19029cff86f2"},"vehicle_type_id":"4","last_reported":1735229419,"current_range_meters":25200,"station_id":"ce4bgpp2rcd13ifvqc3g","pricing_plan_id":"cebpf4jnsgd1na2vs0mg"},{"bike_id":"4bc056d6-3f02-43d5-b2d6-15558ae66aa8","system_id":"levelo_inurba_marseille","lat":43.2952,"lon":5.3854,"is_reserved":false,"is_disabled":false,"rental_uris":{"android":"levelo://app?vid=4bc056d6-3f02-43d5-b2d6-15558ae66aa8","ios":"levelo://app?vid=4bc056d6-3f02-43d5-b2d6-15558ae66aa8"},"vehicle_type_id":"4","last_reported":1735229419,"current_range_meters":21600,"station_id":"ce4bgih2rcd13ifvqba0","pricing_plan_id":"cebpf4jnsgd1na2vs0mg"},{"bike_id":"015f3506-0edf-4591-879e-490275f7a7d2","system_id":"levelo_inurba_marseille","lat":43.239628,"lon":5.36626,"is_reserved":false,"is_disabled":false,"rental_uris":{"android":"levelo://app?vid=015f3506-0edf-4591-879e-490275f7a7d2","ios":"levelo://app?vid=015f3506-0edf-4591-879e-490275f7a7d2"},"vehicle_type_id":"4","last_reported":1735229419,"current_range_meters":30000,"station_id":"ce4bhi12rcd13ifvqfp0","pricing_plan_id":"cebpf4jnsgd1na2vs0mg"},{"bike_id":"b09c5416-8f2b-4a41-b23f-99ed8ff57b3f","system_id":"levelo_inurba_marseille","lat":43.25098,"lon":5.39502,"is_reserved":false,"is_disabled":false,"rental_uris":{"android":"levelo://app?vid=b09c5416-8f2b-4a41-b23f-99ed8ff57b3f","ios":"levelo://app?vid=b09c5416-8f2b-4a41-b23f-99ed8ff57b3f"},"vehicle_type_id":"4","last_reported":1735229419,"current_range_meters":36400,"station_id":"ce4bhm12rcd13ifvqgkg","pricing_plan_id":"cebpf4jnsgd1na2vs0mg"},{"bike_id":"1f14806d-ae11-4061-998c-72dada3be529","system_id":"levelo_inurba_marseille","lat":43.28035,"lon":5.36954,"is_reserved":false,"is_disabled":false,"rental_uris":{"android":"levelo://app?vid=1f14806d-ae11-4061-998c-72dada3be529","ios":"levelo://app?vid=1f14806d-ae11-4061-998c-72dada3be529"},"vehicle_type_id":"4","last_reported":1735229419,"current_range_meters":38800,"station_id":"ce4bha12rcd13ifvqef0","pricing_plan_id":"cebpf4jnsgd1na2vs0mg"},{"bike_id":"ab8d3c57-679e-4c04-9e09-be55492c247c","system_id":"levelo_inurba_marseille","lat":43.29706,"lon":5.37697,"is_reserved":false,"is_disabled":false,"rental_uris":{"android":"levelo://app?vid=ab8d3c57-679e-4c04-9e09-be55492c247c","ios":"levelo://app?vid=ab8d3c57-679e-4c04-9e09-be55492c247c"},"vehicle_type_id":"4","last_reported":1735229419,"current_range_meters":27200,"station_id":"ce4bgkh2rcd13ifvqbl0","pricing_plan_id":"cebpf4jnsgd1na2vs0mg"},{"bike_id":"d8c854c6-f7ad-479f-bd7b-eeaa7e4fcc66","system_id":"levelo_inurba_marseille","lat":43.28378,"lon":5.38636,"is_reserved":false,"is_disabled":false,"rental_uris":{"android":"levelo://app?vid=d8c854c6-f7ad-479f-bd7b-eeaa7e4fcc66","ios":"levelo://app?vid=d8c854c6-f7ad-479f-bd7b-eeaa7e4fcc66"},"vehicle_type_id":"4","last_reported":1735229419,"current_range_meters":38800,"station_id":"ce4bh492rcd13ifvqdvg","pricing_plan_id":"cebpf4jnsgd1na2vs0mg"},{"bike_id":"28bbf108-a424-46c1-8013-f3b7dbb55b3e","system_id":"levelo_inurba_marseille","lat":43.32064,"lon":5.41527,"is_reserved":false,"is_disabled":false,"rental_uris":{"android":"levelo://app?vid=28bbf108-a424-46c1-8013-f3b7dbb55b3e","ios":"levelo://app?vid=28bbf108-a424-46c1-8013-f3b7dbb55b3e"},"vehicle_type_id":"4","last_reported":1735229419,"current_range_meters":38400,"station_id":"ce4bhq92rcd13ifvqhkg","pricing_plan_id":"cebpf4jnsgd1na2vs0mg"},{"bike_id":"d0bd85f8-be15-4d35-b411-aa7db25104d6","system_id":"levelo_inurba_marseille","lat":43.24547,"lon":5.39523,"is_reserved":false,"is_disabled":false,"rental_uris":{"android":"levelo://app?vid=d0bd85f8-be15-4d35-b411-aa7db25104d6","ios":"levelo://app?vid=d0bd85f8-be15-4d35-b411-aa7db25104d6"},"vehicle_type_id":"4","last_reported":1735229419,"current_range_meters":38800,"station_id":"ce4bhlp2rcd13ifvqgjg","pricing_plan_id":"cebpf4jnsgd1na2vs0mg"},{"bike_id":"ba6d85e2-7207-425d-898a-b7b3093733b9","system_id":"levelo_inurba_marseille","lat":43.27079,"lon":5.42279,"is_reserved":false,"is_disabled":false,"rental_uris":{"android":"levelo://app?vid=ba6d85e2-7207-425d-898a-b7b3093733b9","ios":"levelo://app?vid=ba6d85e2-7207-425d-898a-b7b3093733b9"},"vehicle_type_id":"4","last_reported":1735229419,"current_range_meters":27600,"station_id":"ce4bhk92rcd13ifvqgb0","pricing_plan_id":"cebpf4jnsgd1na2vs0mg"},{"bike_id":"a14d744f-7e07-417c-ab27-34286df72687","system_id":"levelo_inurba_marseille","lat":43.23199,"lon":5.35549,"is_reserved":false,"is_disabled":false,"rental_uris":{"android":"levelo://app?vid=a14d744f-7e07-417c-ab27-34286df72687","ios":"levelo://app?vid=a14d744f-7e07-417c-ab27-34286df72687"},"vehicle_type_id":"4","last_reported":1735229419,"current_range_meters":7200,"station_id":"ce4bhu92rcd13ifvqi70","pricing_plan_id":"cebpf4jnsgd1na2vs0mg"},{"bike_id":"457c1d78-7478-4ded-bf01-2390777e376d","system_id":"levelo_inurba_marseille","lat":43.27428,"lon":5.39415,"is_reserved":false,"is_disabled":false,"rental_uris":{"android":"levelo://app?vid=457c1d78-7478-4ded-bf01-2390777e376d","ios":"levelo://app?vid=457c1d78-7478-4ded-bf01-2390777e376d"},"vehicle_type_id":"4","last_reported":1735229419,"current_range_meters":37600,"station_id":"ce4bhdp2rcd13ifvqf20","pricing_plan_id":"cebpf4jnsgd1na2vs0mg"},{"bike_id":"005093bd-bc75-4130-9b81-85c3a4edf08f","system_id":"levelo_inurba_marseille","lat":43.27223,"lon":5.39167,"is_reserved":false,"is_disabled":false,"rental_uris":{"android":"levelo://app?vid=005093bd-bc75-4130-9b81-85c3a4edf08f","ios":"levelo://app?vid=005093bd-bc75-4130-9b81-85c3a4edf08f"},"vehicle_type_id":"4","last_reported":1735229419,"current_range_meters":35600,"station_id":"ce4bhhp2rcd13ifvqfm0","pricing_plan_id":"cebpf4jnsgd1na2vs0mg"},{"bike_id":"23267f0c-d6e2-43b6-8e8d-d55180155fcc","system_id":"levelo_inurba_marseille","lat":43.29931,"lon":5.37486,"is_reserved":false,"is_disabled":false,"rental_uris":{"android":"levelo://app?vid=23267f0c-d6e2-43b6-8e8d-d55180155fcc","ios":"levelo://app?vid=23267f0c-d6e2-43b6-8e8d-d55180155fcc"},"vehicle_type_id":"4","last_reported":1735229419,"current_range_meters":26800,"station_id":"ce4bgjh2rcd13ifvqbg0","pricing_plan_id":"cebpf4jnsgd1na2vs0mg"},{"bike_id":"50866b1e-bdf4-4915-a30e-77bef7ee5d66","system_id":"levelo_inurba_marseille","lat":43.312218,"lon":5.368422,"is_reserved":false,"is_disabled":false,"rental_uris":{"android":"levelo://app?vid=50866b1e-bdf4-4915-a30e-77bef7ee5d66","ios":"levelo://app?vid=50866b1e-bdf4-4915-a30e-77bef7ee5d66"},"vehicle_type_id":"4","last_reported":1735229419,"current_range_meters":38800,"station_id":"ce4bgl92rcd13ifvqbq0","pricing_plan_id":"cebpf4jnsgd1na2vs0mg"},{"bike_id":"d4663405-bee1-476b-a9e6-b188d9eda682","system_id":"levelo_inurba_marseille","lat":43.30529,"lon":5.36706,"is_reserved":false,"is_disabled":false,"rental_uris":{"android":"levelo://app?vid=d4663405-bee1-476b-a9e6-b188d9eda682","ios":"levelo://app?vid=d4663405-bee1-476b-a9e6-b188d9eda682"},"vehicle_type_id":"4","last_reported":1735229419,"current_range_meters":36000,"station_id":"ce4bgrp2rcd13ifvqc9g","pricing_plan_id":"cebpf4jnsgd1na2vs0mg"},{"bike_id":"d738dcc0-dcb3-4279-a221-a0d2fe0266cf","system_id":"levelo_inurba_marseille","lat":43.2862,"lon":5.35104,"is_reserved":false,"is_disabled":false,"rental_uris":{"android":"levelo://app?vid=d738dcc0-dcb3-4279-a221-a0d2fe0266cf","ios":"levelo://app?vid=d738dcc0-dcb3-4279-a221-a0d2fe0266cf"},"vehicle_type_id":"4","last_reported":1735229419,"current_range_meters":36400,"station_id":"ce4bhch2rcd13ifvqeug","pricing_plan_id":"cebpf4jnsgd1na2vs0mg"},{"bike_id":"f73ca4ca-7ee5-49ee-a13f-4c38cd424d82","system_id":"levelo_inurba_marseille","lat":43.30894,"lon":5.37188,"is_reserved":false,"is_disabled":false,"rental_uris":{"android":"levelo://app?vid=f73ca4ca-7ee5-49ee-a13f-4c38cd424d82","ios":"levelo://app?vid=f73ca4ca-7ee5-49ee-a13f-4c38cd424d82"},"vehicle_type_id":"4","last_reported":1735229419,"current_range_meters":14800,"station_id":"ce4bguh2rcd13ifvqckg","pricing_plan_id":"cebpf4jnsgd1na2vs0mg"},{"bike_id":"ff891e39-252b-4d4e-8692-37efe0bea514","system_id":"levelo_inurba_marseille","lat":43.27946,"lon":5.41046,"is_reserved":false,"is_disabled":true,"rental_uris":{"android":"levelo://app?vid=ff891e39-252b-4d4e-8692-37efe0bea514","ios":"levelo://app?vid=ff891e39-252b-4d4e-8692-37efe0bea514"},"vehicle_type_id":"4","last_reported":1735229419,"current_range_meters":0,"station_id":"ce4bhnp2rcd13ifvqh0g","pricing_plan_id":"cebpf4jnsgd1na2vs0mg"},{"bike_id":"bd0964ee-a72b-4b5c-a9a3-f1f9243ad39d","system_id":"levelo_inurba_marseille","lat":43.29012,"lon":5.35605,"is_reserved":false,"is_disabled":false,"rental_uris":{"android":"levelo://app?vid=bd0964ee-a72b-4b5c-a9a3-f1f9243ad39d","ios":"levelo://app?vid=bd0964ee-a72b-4b5c-a9a3-f1f9243ad39d"},"vehicle_type_id":"4","last_reported":1735229419,"current_range_meters":36400,"station_id":"ce4bhb92rcd13ifvqen0","pricing_plan_id":"cebpf4jnsgd1na2vs0mg"},{"bike_id":"54e82adf-653a-40bc-8212-b0e67d34d16f","system_id":"levelo_inurba_marseille","lat":43.29934,"lon":5.36532,"is_reserved":false,"is_disabled":false,"rental_uris":{"android":"levelo://app?vid=54e82adf-653a-40bc-8212-b0e67d34d16f","ios":"levelo://app?vid=54e82adf-653a-40bc-8212-b0e67d34d16f"},"vehicle_type_id":"4","last_reported":1735229419,"current_range_meters":12800,"station_id":"ce4bgm92rcd13ifvqbr0","pricing_plan_id":"cebpf4jnsgd1na2vs0mg"},{"bike_id":"7bf56867-f147-4165-89ee-4c8ea1ec9c93","system_id":"levelo_inurba_marseille","lat":43.2992,"lon":5.43658,"is_reserved":false,"is_disabled":false,"rental_uris":{"android":"levelo://app?vid=7bf56867-f147-4165-89ee-4c8ea1ec9c93","ios":"levelo://app?vid=7bf56867-f147-4165-89ee-4c8ea1ec9c93"},"vehicle_type_id":"4","last_reported":1735229419,"current_range_meters":38000,"station_id":"ce4bhpp2rcd13ifvqhfg","pricing_plan_id":"cebpf4jnsgd1na2vs0mg"},{"bike_id":"857344dd-6be1-4d34-90e7-6f62afbbef2e","system_id":"levelo_inurba_marseille","lat":43.32111,"lon":5.36775,"is_reserved":false,"is_disabled":false,"rental_uris":{"android":"levelo://app?vid=857344dd-6be1-4d34-90e7-6f62afbbef2e","ios":"levelo://app?vid=857344dd-6be1-4d34-90e7-6f62afbbef2e"},"vehicle_type_id":"4","last_reported":1735229419,"current_range_meters":10800,"station_id":"ce4bhrh2rcd13ifvqhug","pricing_plan_id":"cebpf4jnsgd1na2vs0mg"},{"bike_id":"8bb784aa-04c9-4996-8ca8-ea4b00c12859","system_id":"levelo_inurba_marseille","lat":43.30194,"lon":5.36609,"is_reserved":false,"is_disabled":false,"rental_uris":{"android":"levelo://app?vid=8bb784aa-04c9-4996-8ca8-ea4b00c12859","ios":"levelo://app?vid=8bb784aa-04c9-4996-8ca8-ea4b00c12859"},"vehicle_type_id":"4","last_reported":1735229419,"current_range_meters":38400,"station_id":"ce4bgrh2rcd13ifvqc8g","pricing_plan_id":"cebpf4jnsgd1na2vs0mg"},{"bike_id":"951a83bc-231c-4e2b-af1d-5ef0d5c3ed80","system_id":"levelo_inurba_marseille","lat":43.29024,"lon":5.38137,"is_reserved":false,"is_disabled":false,"rental_uris":{"android":"levelo://app?vid=951a83bc-231c-4e2b-af1d-5ef0d5c3ed80","ios":"levelo://app?vid=951a83bc-231c-4e2b-af1d-5ef0d5c3ed80"},"vehicle_type_id":"4","last_reported":1735229419,"current_range_meters":38800,"station_id":"ce4bh4p2rcd13ifvqe1g","pricing_plan_id":"cebpf4jnsgd1na2vs0mg"},{"bike_id":"f3aa85d1-5b96-49f5-a947-7c68fe96a831","system_id":"levelo_inurba_marseille","lat":43.31268,"lon":5.40165,"is_reserved":false,"is_disabled":false,"rental_uris":{"android":"levelo://app?vid=f3aa85d1-5b96-49f5-a947-7c68fe96a831","ios":"levelo://app?vid=f3aa85d1-5b96-49f5-a947-7c68fe96a831"},"vehicle_type_id":"4","last_reported":1735229419,"current_range_meters":16800,"station_id":"ce4bh092rcd13ifvqd30","pricing_plan_id":"cebpf4jnsgd1na2vs0mg"},{"bike_id":"339e8ad4-791e-4eed-95f5-5daf1624bc49","system_id":"levelo_inurba_marseille","lat":43.28932,"lon":5.36635,"is_reserved":false,"is_disabled":false,"rental_uris":{"android":"levelo://app?vid=339e8ad4-791e-4eed-95f5-5daf1624bc49","ios":"levelo://app?vid=339e8ad4-791e-4eed-95f5-5daf1624bc49"},"vehicle_type_id":"4","last_reported":1735229419,"current_range_meters":32000,"station_id":"ce4bhap2rcd13ifvqek0","pricing_plan_id":"cebpf4jnsgd1na2vs0mg"},{"bike_id":"7b937713-f03e-4c7d-991e-8f9ccabc7439","system_id":"levelo_inurba_marseille","lat":43.24172,"lon":5.3639,"is_reserved":false,"is_disabled":false,"rental_uris":{"android":"levelo://app?vid=7b937713-f03e-4c7d-991e-8f9ccabc7439","ios":"levelo://app?vid=7b937713-f03e-4c7d-991e-8f9ccabc7439"},"vehicle_type_id":"4","last_reported":1735229419,"current_range_meters":8000,"station_id":"cpo36qri1sfpv3e86is0","pricing_plan_id":"cebpf4jnsgd1na2vs0mg"},{"bike_id":"d8ea974a-4a73-4aa7-892d-99d6b6bac9b7","system_id":"levelo_inurba_marseille","lat":43.29512,"lon":5.38536,"is_reserved":false,"is_disabled":false,"rental_uris":{"android":"levelo://app?vid=d8ea974a-4a73-4aa7-892d-99d6b6bac9b7","ios":"levelo://app?vid=d8ea974a-4a73-4aa7-892d-99d6b6bac9b7"},"vehicle_type_id":"4","last_reported":1735229419,"current_range_meters":24800,"station_id":"ce4bgih2rcd13ifvqba0","pricing_plan_id":"cebpf4jnsgd1na2vs0mg"},{"bike_id":"ad66ce9d-e2b2-4064-ae7f-fe87403c632b","system_id":"levelo_inurba_marseille","lat":43.23064,"lon":5.35493,"is_reserved":false,"is_disabled":false,"rental_uris":{"android":"levelo://app?vid=ad66ce9d-e2b2-4064-ae7f-fe87403c632b","ios":"levelo://app?vid=ad66ce9d-e2b2-4064-ae7f-fe87403c632b"},"vehicle_type_id":"4","last_reported":1735229419,"current_range_meters":28400,"station_id":"cpo3342slgdg3j2ifvpg","pricing_plan_id":"cebpf4jnsgd1na2vs0mg"},{"bike_id":"67bcc128-08c2-4bfd-b7d0-8acd4de18b90","system_id":"levelo_inurba_marseille","lat":43.30541,"lon":5.36701,"is_reserved":false,"is_disabled":false,"rental_uris":{"android":"levelo://app?vid=67bcc128-08c2-4bfd-b7d0-8acd4de18b90","ios":"levelo://app?vid=67bcc128-08c2-4bfd-b7d0-8acd4de18b90"},"vehicle_type_id":"4","last_reported":1735229419,"current_range_meters":36800,"station_id":"ce4bgrp2rcd13ifvqc9g","pricing_plan_id":"cebpf4jnsgd1na2vs0mg"},{"bike_id":"f4f4cf0b-4365-4c24-ac21-869fc54e35ee","system_id":"levelo_inurba_marseille","lat":43.30265,"lon":5.37717,"is_reserved":false,"is_disabled":false,"rental_uris":{"android":"levelo://app?vid=f4f4cf0b-4365-4c24-ac21-869fc54e35ee","ios":"levelo://app?vid=f4f4cf0b-4365-4c24-ac21-869fc54e35ee"},"vehicle_type_id":"4","last_reported":1735229419,"current_range_meters":38000,"station_id":"ce4bguh2rcd13ifvqcj0","pricing_plan_id":"cebpf4jnsgd1na2vs0mg"},{"bike_id":"8dc7feae-e456-496f-bc14-7216ececc50e","system_id":"levelo_inurba_marseille","lat":43.29562,"lon":5.37494,"is_reserved":false,"is_disabled":false,"rental_uris":{"android":"levelo://app?vid=8dc7feae-e456-496f-bc14-7216ececc50e","ios":"levelo://app?vid=8dc7feae-e456-496f-bc14-7216ececc50e"},"vehicle_type_id":"4","last_reported":1735229419,"current_range_meters":19200,"station_id":"ce4bgh92rcd13ifvqb50","pricing_plan_id":"cebpf4jnsgd1na2vs0mg"},{"bike_id":"8ab0ad23-4f07-492e-b982-7ebc88ff1d74","system_id":"levelo_inurba_marseille","lat":43.29029,"lon":5.38646,"is_reserved":false,"is_disabled":false,"rental_uris":{"android":"levelo://app?vid=8ab0ad23-4f07-492e-b982-7ebc88ff1d74","ios":"levelo://app?vid=8ab0ad23-4f07-492e-b982-7ebc88ff1d74"},"vehicle_type_id":"4","last_reported":1735229419,"current_range_meters":26800,"station_id":"ce4bh4p2rcd13ifvqe0g","pricing_plan_id":"cebpf4jnsgd1na2vs0mg"},{"bike_id":"cde5a6f0-d593-42b1-864e-b923ad3f4516","system_id":"levelo_inurba_marseille","lat":43.30598,"lon":5.39345,"is_reserved":false,"is_disabled":false,"rental_uris":{"android":"levelo://app?vid=cde5a6f0-d593-42b1-864e-b923ad3f4516","ios":"levelo://app?vid=cde5a6f0-d593-42b1-864e-b923ad3f4516"},"vehicle_type_id":"4","last_reported":1735229419,"current_range_meters":38800,"station_id":"ce4bh0p2rcd13ifvqd80","pricing_plan_id":"cebpf4jnsgd1na2vs0mg"},{"bike_id":"d0533ccb-11ce-46dc-9cca-daa9f7a4985a","system_id":"levelo_inurba_marseille","lat":43.29561,"lon":5.42279,"is_reserved":false,"is_disabled":false,"rental_uris":{"android":"levelo://app?vid=d0533ccb-11ce-46dc-9cca-daa9f7a4985a","ios":"levelo://app?vid=d0533ccb-11ce-46dc-9cca-daa9f7a4985a"},"vehicle_type_id":"4","last_reported":1735229419,"current_range_meters":38800,"station_id":"ce4bhph2rcd13ifvqhdg","pricing_plan_id":"cebpf4jnsgd1na2vs0mg"},{"bike_id":"70736600-4e4d-4f00-8b12-c697e0da57c9","system_id":"levelo_inurba_marseille","lat":43.29583,"lon":5.37504,"is_reserved":false,"is_disabled":false,"rental_uris":{"android":"levelo://app?vid=70736600-4e4d-4f00-8b12-c697e0da57c9","ios":"levelo://app?vid=70736600-4e4d-4f00-8b12-c697e0da57c9"},"vehicle_type_id":"4","last_reported":1735229419,"current_range_meters":36000,"station_id":"ce4bgh92rcd13ifvqb50","pricing_plan_id":"cebpf4jnsgd1na2vs0mg"},{"bike_id":"08113a8a-76f0-47a7-9509-5368daeeece7","system_id":"levelo_inurba_marseille","lat":43.29537,"lon":5.38547,"is_reserved":false,"is_disabled":false,"rental_uris":{"android":"levelo://app?vid=08113a8a-76f0-47a7-9509-5368daeeece7","ios":"levelo://app?vid=08113a8a-76f0-47a7-9509-5368daeeece7"},"vehicle_type_id":"4","last_reported":1735229419,"current_range_meters":35600,"station_id":"ce4bgih2rcd13ifvqba0","pricing_plan_id":"cebpf4jnsgd1na2vs0mg"},{"bike_id":"648f7b41-6558-4508-9484-4305a1485141","system_id":"levelo_inurba_marseille","lat":43.30431,"lon":5.38889,"is_reserved":false,"is_disabled":false,"rental_uris":{"android":"levelo://app?vid=648f7b41-6558-4508-9484-4305a1485141","ios":"levelo://app?vid=648f7b41-6558-4508-9484-4305a1485141"},"vehicle_type_id":"4","last_reported":1735229419,"current_range_meters":28000,"station_id":"ce4bgk12rcd13ifvqbi0","pricing_plan_id":"cebpf4jnsgd1na2vs0mg"},{"bike_id":"b32fb18a-c8a8-4404-98aa-9a585746a89d","system_id":"levelo_inurba_marseille","lat":43.32032,"lon":5.4154,"is_reserved":false,"is_disabled":false,"rental_uris":{"android":"levelo://app?vid=b32fb18a-c8a8-4404-98aa-9a585746a89d","ios":"levelo://app?vid=b32fb18a-c8a8-4404-98aa-9a585746a89d"},"vehicle_type_id":"4","last_reported":1735229419,"current_range_meters":32000,"station_id":"ce4bhq92rcd13ifvqhkg","pricing_plan_id":"cebpf4jnsgd1na2vs0mg"},{"bike_id":"186ab767-dd05-4b5f-9fb0-dc469dc690ba","system_id":"levelo_inurba_marseille","lat":43.24548,"lon":5.39544,"is_reserved":false,"is_disabled":false,"rental_uris":{"android":"levelo://app?vid=186ab767-dd05-4b5f-9fb0-dc469dc690ba","ios":"levelo://app?vid=186ab767-dd05-4b5f-9fb0-dc469dc690ba"},"vehicle_type_id":"4","last_reported":1735229419,"current_range_meters":38800,"station_id":"ce4bhlp2rcd13ifvqgjg","pricing_plan_id":"cebpf4jnsgd1na2vs0mg"},{"bike_id":"7ca2e3d6-4ca3-4d99-b34e-9fb53337dde8","system_id":"levelo_inurba_marseille","lat":43.24165,"lon":5.36401,"is_reserved":false,"is_disabled":false,"rental_uris":{"android":"levelo://app?vid=7ca2e3d6-4ca3-4d99-b34e-9fb53337dde8","ios":"levelo://app?vid=7ca2e3d6-4ca3-4d99-b34e-9fb53337dde8"},"vehicle_type_id":"4","last_reported":1735229419,"current_range_meters":11600,"station_id":"cpo36qri1sfpv3e86is0","pricing_plan_id":"cebpf4jnsgd1na2vs0mg"},{"bike_id":"61b6d437-e950-46a2-8cbf-76c4bc393d6f","system_id":"levelo_inurba_marseille","lat":43.27072,"lon":5.42277,"is_reserved":false,"is_disabled":false,"rental_uris":{"android":"levelo://app?vid=61b6d437-e950-46a2-8cbf-76c4bc393d6f","ios":"levelo://app?vid=61b6d437-e950-46a2-8cbf-76c4bc393d6f"},"vehicle_type_id":"4","last_reported":1735229419,"current_range_meters":9200,"station_id":"ce4bhk92rcd13ifvqgb0","pricing_plan_id":"cebpf4jnsgd1na2vs0mg"},{"bike_id":"708391b3-36c8-4884-938c-40ac8ddeb2d4","system_id":"levelo_inurba_marseille","lat":43.30213,"lon":5.39473,"is_reserved":false,"is_disabled":false,"rental_uris":{"android":"levelo://app?vid=708391b3-36c8-4884-938c-40ac8ddeb2d4","ios":"levelo://app?vid=708391b3-36c8-4884-938c-40ac8ddeb2d4"},"vehicle_type_id":"4","last_reported":1735229419,"current_range_meters":36800,"station_id":"ce4bh0p2rcd13ifvqd70","pricing_plan_id":"cebpf4jnsgd1na2vs0mg"},{"bike_id":"417a3b93-35ae-43df-b252-fc6e1dccb29d","system_id":"levelo_inurba_marseille","lat":43.30137,"lon":5.39874,"is_reserved":false,"is_disabled":false,"rental_uris":{"android":"levelo://app?vid=417a3b93-35ae-43df-b252-fc6e1dccb29d","ios":"levelo://app?vid=417a3b93-35ae-43df-b252-fc6e1dccb29d"},"vehicle_type_id":"4","last_reported":1735229419,"current_range_meters":39200,"station_id":"ce4bh0h2rcd13ifvqd40","pricing_plan_id":"cebpf4jnsgd1na2vs0mg"},{"bike_id":"e60c706a-a648-49b2-b3fe-e1966e73fe0e","system_id":"levelo_inurba_marseille","lat":43.29009,"lon":5.35612,"is_reserved":false,"is_disabled":false,"rental_uris":{"android":"levelo://app?vid=e60c706a-a648-49b2-b3fe-e1966e73fe0e","ios":"levelo://app?vid=e60c706a-a648-49b2-b3fe-e1966e73fe0e"},"vehicle_type_id":"4","last_reported":1735229419,"current_range_meters":9200,"station_id":"ce4bhb92rcd13ifvqen0","pricing_plan_id":"cebpf4jnsgd1na2vs0mg"},{"bike_id":"2b08ca99-c6f3-4395-ab2d-aeebc3305aa4","system_id":"levelo_inurba_marseille","lat":43.33751,"lon":5.3748,"is_reserved":false,"is_disabled":false,"rental_uris":{"android":"levelo://app?vid=2b08ca99-c6f3-4395-ab2d-aeebc3305aa4","ios":"levelo://app?vid=2b08ca99-c6f3-4395-ab2d-aeebc3305aa4"},"vehicle_type_id":"4","last_reported":1735229419,"current_range_meters":36400,"station_id":"","pricing_plan_id":"cebpf4jnsgd1na2vs0mg"},{"bike_id":"23e25e04-dd29-4836-8ab5-f117edae0dca","system_id":"levelo_inurba_marseille","lat":43.30159,"lon":5.37425,"is_reserved":false,"is_disabled":false,"rental_uris":{"android":"levelo://app?vid=23e25e04-dd29-4836-8ab5-f117edae0dca","ios":"levelo://app?vid=23e25e04-dd29-4836-8ab5-f117edae0dca"},"vehicle_type_id":"4","last_reported":1735229419,"current_range_meters":38800,"station_id":"ce4bgs92rcd13ifvqcc0","pricing_plan_id":"cebpf4jnsgd1na2vs0mg"},{"bike_id":"dbe70d38-abd2-4f61-8ff9-dab515c26a03","system_id":"levelo_inurba_marseille","lat":43.286567,"lon":5.386543,"is_reserved":false,"is_disabled":false,"rental_uris":{"android":"levelo://app?vid=dbe70d38-abd2-4f61-8ff9-dab515c26a03","ios":"levelo://app?vid=dbe70d38-abd2-4f61-8ff9-dab515c26a03"},"vehicle_type_id":"4","last_reported":1735229419,"current_range_meters":26000,"station_id":"ce4bh492rcd13ifvqdug","pricing_plan_id":"cebpf4jnsgd1na2vs0mg"},{"bike_id":"c97e8bb4-ad61-447a-855c-97d32844b185","system_id":"levelo_inurba_marseille","lat":43.28867,"lon":5.35863,"is_reserved":false,"is_disabled":false,"rental_uris":{"android":"levelo://app?vid=c97e8bb4-ad61-447a-855c-97d32844b185","ios":"levelo://app?vid=c97e8bb4-ad61-447a-855c-97d32844b185"},"vehicle_type_id":"4","last_reported":1735229419,"current_range_meters":33600,"station_id":"ce4bhb12rcd13ifvqem0","pricing_plan_id":"cebpf4jnsgd1na2vs0mg"},{"bike_id":"1173be34-905a-42b5-8430-5777748e6244","system_id":"levelo_inurba_marseille","lat":43.27664,"lon":5.38881,"is_reserved":false,"is_disabled":false,"rental_uris":{"android":"levelo://app?vid=1173be34-905a-42b5-8430-5777748e6244","ios":"levelo://app?vid=1173be34-905a-42b5-8430-5777748e6244"},"vehicle_type_id":"4","last_reported":1735229419,"current_range_meters":37600,"station_id":"ce4bhi12rcd13ifvqfo0","pricing_plan_id":"cebpf4jnsgd1na2vs0mg"},{"bike_id":"33e4c278-497a-4992-9269-3f4bd7a2ca60","system_id":"levelo_inurba_marseille","lat":43.29913,"lon":5.37475,"is_reserved":false,"is_disabled":false,"rental_uris":{"android":"levelo://app?vid=33e4c278-497a-4992-9269-3f4bd7a2ca60","ios":"levelo://app?vid=33e4c278-497a-4992-9269-3f4bd7a2ca60"},"vehicle_type_id":"4","last_reported":1735229419,"current_range_meters":32000,"station_id":"ce4bgjh2rcd13ifvqbg0","pricing_plan_id":"cebpf4jnsgd1na2vs0mg"},{"bike_id":"9a33687b-39b8-439c-977e-aab32c098640","system_id":"levelo_inurba_marseille","lat":43.32037,"lon":5.41561,"is_reserved":false,"is_disabled":false,"rental_uris":{"android":"levelo://app?vid=9a33687b-39b8-439c-977e-aab32c098640","ios":"levelo://app?vid=9a33687b-39b8-439c-977e-aab32c098640"},"vehicle_type_id":"4","last_reported":1735229419,"current_range_meters":22400,"station_id":"ce4bhq92rcd13ifvqhkg","pricing_plan_id":"cebpf4jnsgd1na2vs0mg"},{"bike_id":"a758cb60-4620-46d5-b0a9-a9a8ea8957ea","system_id":"levelo_inurba_marseille","lat":43.29521,"lon":5.39397,"is_reserved":false,"is_disabled":false,"rental_uris":{"android":"levelo://app?vid=a758cb60-4620-46d5-b0a9-a9a8ea8957ea","ios":"levelo://app?vid=a758cb60-4620-46d5-b0a9-a9a8ea8957ea"},"vehicle_type_id":"4","last_reported":1735229419,"current_range_meters":19600,"station_id":"ce4bh292rcd13ifvqdf0","pricing_plan_id":"cebpf4jnsgd1na2vs0mg"},{"bike_id":"aefc4ad1-7b2f-4fcb-a9c2-71d08d505f0e","system_id":"levelo_inurba_marseille","lat":43.246651,"lon":5.381596,"is_reserved":false,"is_disabled":false,"rental_uris":{"android":"levelo://app?vid=aefc4ad1-7b2f-4fcb-a9c2-71d08d505f0e","ios":"levelo://app?vid=aefc4ad1-7b2f-4fcb-a9c2-71d08d505f0e"},"vehicle_type_id":"4","last_reported":1735229419,"current_range_meters":38800,"station_id":"ce4bhih2rcd13ifvqfr0","pricing_plan_id":"cebpf4jnsgd1na2vs0mg"},{"bike_id":"9ccaa4cf-7f52-4e7a-ac41-d006c6ea9293","system_id":"levelo_inurba_marseille","lat":43.27377,"lon":5.36255,"is_reserved":false,"is_disabled":false,"rental_uris":{"android":"levelo://app?vid=9ccaa4cf-7f52-4e7a-ac41-d006c6ea9293","ios":"levelo://app?vid=9ccaa4cf-7f52-4e7a-ac41-d006c6ea9293"},"vehicle_type_id":"4","last_reported":1735229419,"current_range_meters":20800,"station_id":"ce4bhbh2rcd13ifvqeo0","pricing_plan_id":"cebpf4jnsgd1na2vs0mg"},{"bike_id":"a0898d4b-2086-47da-9ba0-4953b8186d9a","system_id":"levelo_inurba_marseille","lat":43.23961,"lon":5.36635,"is_reserved":false,"is_disabled":false,"rental_uris":{"android":"levelo://app?vid=a0898d4b-2086-47da-9ba0-4953b8186d9a","ios":"levelo://app?vid=a0898d4b-2086-47da-9ba0-4953b8186d9a"},"vehicle_type_id":"4","last_reported":1735229419,"current_range_meters":20400,"station_id":"ce4bhi12rcd13ifvqfp0","pricing_plan_id":"cebpf4jnsgd1na2vs0mg"},{"bike_id":"3484b42b-fb92-4df7-950c-ba5afdfbc366","system_id":"levelo_inurba_marseille","lat":43.2801,"lon":5.40012,"is_reserved":false,"is_disabled":false,"rental_uris":{"android":"levelo://app?vid=3484b42b-fb92-4df7-950c-ba5afdfbc366","ios":"levelo://app?vid=3484b42b-fb92-4df7-950c-ba5afdfbc366"},"vehicle_type_id":"4","last_reported":1735229419,"current_range_meters":23200,"station_id":"ce4bho92rcd13ifvqh4g","pricing_plan_id":"cebpf4jnsgd1na2vs0mg"},{"bike_id":"b5d62212-20a0-4e84-b1ab-de7b86e281ef","system_id":"levelo_inurba_marseille","lat":43.29918,"lon":5.37477,"is_reserved":false,"is_disabled":false,"rental_uris":{"android":"levelo://app?vid=b5d62212-20a0-4e84-b1ab-de7b86e281ef","ios":"levelo://app?vid=b5d62212-20a0-4e84-b1ab-de7b86e281ef"},"vehicle_type_id":"4","last_reported":1735229419,"current_range_meters":27200,"station_id":"ce4bgjh2rcd13ifvqbg0","pricing_plan_id":"cebpf4jnsgd1na2vs0mg"},{"bike_id":"3cae62ab-49f2-410c-a0d8-298dc830ea00","system_id":"levelo_inurba_marseille","lat":43.2694,"lon":5.40252,"is_reserved":false,"is_disabled":false,"rental_uris":{"android":"levelo://app?vid=3cae62ab-49f2-410c-a0d8-298dc830ea00","ios":"levelo://app?vid=3cae62ab-49f2-410c-a0d8-298dc830ea00"},"vehicle_type_id":"4","last_reported":1735229419,"current_range_meters":30000,"station_id":"cjm6bp8fraef2m0cb0m0","pricing_plan_id":"cebpf4jnsgd1na2vs0mg"},{"bike_id":"097fbffe-cfb2-4bd3-9cee-c3e24274bce5","system_id":"levelo_inurba_marseille","lat":43.30203,"lon":5.39466,"is_reserved":false,"is_disabled":false,"rental_uris":{"android":"levelo://app?vid=097fbffe-cfb2-4bd3-9cee-c3e24274bce5","ios":"levelo://app?vid=097fbffe-cfb2-4bd3-9cee-c3e24274bce5"},"vehicle_type_id":"4","last_reported":1735229419,"current_range_meters":38800,"station_id":"ce4bh0p2rcd13ifvqd70","pricing_plan_id":"cebpf4jnsgd1na2vs0mg"},{"bike_id":"590b7c25-ee0d-40fc-8461-b30f501ed803","system_id":"levelo_inurba_marseille","lat":43.28474,"lon":5.38558,"is_reserved":false,"is_disabled":false,"rental_uris":{"android":"levelo://app?vid=590b7c25-ee0d-40fc-8461-b30f501ed803","ios":"levelo://app?vid=590b7c25-ee0d-40fc-8461-b30f501ed803"},"vehicle_type_id":"4","last_reported":1735229419,"current_range_meters":32400,"station_id":"ce4bh8p2rcd13ifvqeb0","pricing_plan_id":"cebpf4jnsgd1na2vs0mg"},{"bike_id":"8ec28cf9-fdc7-48e4-9622-6ac063c99bb2","system_id":"levelo_inurba_marseille","lat":43.29269,"lon":5.36846,"is_reserved":false,"is_disabled":false,"rental_uris":{"android":"levelo://app?vid=8ec28cf9-fdc7-48e4-9622-6ac063c99bb2","ios":"levelo://app?vid=8ec28cf9-fdc7-48e4-9622-6ac063c99bb2"},"vehicle_type_id":"4","last_reported":1735229419,"current_range_meters":38400,"station_id":"ce4bhbp2rcd13ifvqesg","pricing_plan_id":"cebpf4jnsgd1na2vs0mg"},{"bike_id":"90e103e3-4010-4a90-94a2-20462da7c0a3","system_id":"levelo_inurba_marseille","lat":43.3015,"lon":5.3742,"is_reserved":false,"is_disabled":false,"rental_uris":{"android":"levelo://app?vid=90e103e3-4010-4a90-94a2-20462da7c0a3","ios":"levelo://app?vid=90e103e3-4010-4a90-94a2-20462da7c0a3"},"vehicle_type_id":"4","last_reported":1735229419,"current_range_meters":36800,"station_id":"ce4bgs92rcd13ifvqcc0","pricing_plan_id":"cebpf4jnsgd1na2vs0mg"},{"bike_id":"45a39e5d-53bd-464c-aa2f-8ff68f75c34c","system_id":"levelo_inurba_marseille","lat":43.29418,"lon":5.38627,"is_reserved":false,"is_disabled":false,"rental_uris":{"android":"levelo://app?vid=45a39e5d-53bd-464c-aa2f-8ff68f75c34c","ios":"levelo://app?vid=45a39e5d-53bd-464c-aa2f-8ff68f75c34c"},"vehicle_type_id":"4","last_reported":1735229419,"current_range_meters":39200,"station_id":"ce4bh2h2rcd13ifvqdh0","pricing_plan_id":"cebpf4jnsgd1na2vs0mg"},{"bike_id":"5f8a76e6-d34b-4171-ae8b-f316ea07c0e1","system_id":"levelo_inurba_marseille","lat":43.25501,"lon":5.3765,"is_reserved":false,"is_disabled":false,"rental_uris":{"android":"levelo://app?vid=5f8a76e6-d34b-4171-ae8b-f316ea07c0e1","ios":"levelo://app?vid=5f8a76e6-d34b-4171-ae8b-f316ea07c0e1"},"vehicle_type_id":"4","last_reported":1735229419,"current_range_meters":28400,"station_id":"ce4bhh12rcd13ifvqff0","pricing_plan_id":"cebpf4jnsgd1na2vs0mg"},{"bike_id":"86ae6257-84fd-4e32-b674-f23a136ab287","system_id":"levelo_inurba_marseille","lat":43.28945,"lon":5.39621,"is_reserved":false,"is_disabled":false,"rental_uris":{"android":"levelo://app?vid=86ae6257-84fd-4e32-b674-f23a136ab287","ios":"levelo://app?vid=86ae6257-84fd-4e32-b674-f23a136ab287"},"vehicle_type_id":"4","last_reported":1735229419,"current_range_meters":39200,"station_id":"ce4bh3h2rcd13ifvqdn0","pricing_plan_id":"cebpf4jnsgd1na2vs0mg"},{"bike_id":"09898dd2-84ad-4911-a21d-d1f0823964b3","system_id":"levelo_inurba_marseille","lat":43.2964,"lon":5.37742,"is_reserved":false,"is_disabled":false,"rental_uris":{"android":"levelo://app?vid=09898dd2-84ad-4911-a21d-d1f0823964b3","ios":"levelo://app?vid=09898dd2-84ad-4911-a21d-d1f0823964b3"},"vehicle_type_id":"4","last_reported":1735229419,"current_range_meters":38800,"station_id":"ce4bgi92rcd13ifvqb90","pricing_plan_id":"cebpf4jnsgd1na2vs0mg"},{"bike_id":"60968da4-eb7b-45c8-944b-65c3601ac59f","system_id":"levelo_inurba_marseille","lat":43.2961,"lon":5.38098,"is_reserved":false,"is_disabled":false,"rental_uris":{"android":"levelo://app?vid=60968da4-eb7b-45c8-944b-65c3601ac59f","ios":"levelo://app?vid=60968da4-eb7b-45c8-944b-65c3601ac59f"},"vehicle_type_id":"4","last_reported":1735229419,"current_range_meters":26800,"station_id":"ce4bgl12rcd13ifvqbo0","pricing_plan_id":"cebpf4jnsgd1na2vs0mg"},{"bike_id":"280a2d8e-0091-49b8-beab-ee950b68e6eb","system_id":"levelo_inurba_marseille","lat":43.25472,"lon":5.37654,"is_reserved":false,"is_disabled":false,"rental_uris":{"android":"levelo://app?vid=280a2d8e-0091-49b8-beab-ee950b68e6eb","ios":"levelo://app?vid=280a2d8e-0091-49b8-beab-ee950b68e6eb"},"vehicle_type_id":"4","last_reported":1735229419,"current_range_meters":29600,"station_id":"ce4bhh12rcd13ifvqff0","pricing_plan_id":"cebpf4jnsgd1na2vs0mg"},{"bike_id":"730b2463-23b8-4c94-a5b0-6809b9786587","system_id":"levelo_inurba_marseille","lat":43.29263,"lon":5.38443,"is_reserved":false,"is_disabled":false,"rental_uris":{"android":"levelo://app?vid=730b2463-23b8-4c94-a5b0-6809b9786587","ios":"levelo://app?vid=730b2463-23b8-4c94-a5b0-6809b9786587"},"vehicle_type_id":"4","last_reported":1735229419,"current_range_meters":27200,"station_id":"ce4bh692rcd13ifvqea0","pricing_plan_id":"cebpf4jnsgd1na2vs0mg"},{"bike_id":"038af3fc-3082-4aae-94ad-d0ead92a965d","system_id":"levelo_inurba_marseille","lat":43.28126,"lon":5.37848,"is_reserved":false,"is_disabled":false,"rental_uris":{"android":"levelo://app?vid=038af3fc-3082-4aae-94ad-d0ead92a965d","ios":"levelo://app?vid=038af3fc-3082-4aae-94ad-d0ead92a965d"},"vehicle_type_id":"4","last_reported":1735229419,"current_range_meters":38800,"station_id":"ce4bha12rcd13ifvqee0","pricing_plan_id":"cebpf4jnsgd1na2vs0mg"},{"bike_id":"8234143f-b9f7-4ac0-9282-4fef28733928","system_id":"levelo_inurba_marseille","lat":43.2782,"lon":5.39208,"is_reserved":false,"is_disabled":false,"rental_uris":{"android":"levelo://app?vid=8234143f-b9f7-4ac0-9282-4fef28733928","ios":"levelo://app?vid=8234143f-b9f7-4ac0-9282-4fef28733928"},"vehicle_type_id":"4","last_reported":1735229419,"current_range_meters":39200,"station_id":"ce4bhjp2rcd13ifvqga0","pricing_plan_id":"cebpf4jnsgd1na2vs0mg"},{"bike_id":"6fc39219-982d-4feb-9b3b-e1ba4db40afe","system_id":"levelo_inurba_marseille","lat":43.29622,"lon":5.38102,"is_reserved":false,"is_disabled":false,"rental_uris":{"android":"levelo://app?vid=6fc39219-982d-4feb-9b3b-e1ba4db40afe","ios":"levelo://app?vid=6fc39219-982d-4feb-9b3b-e1ba4db40afe"},"vehicle_type_id":"4","last_reported":1735229419,"current_range_meters":38800,"station_id":"ce4bgl12rcd13ifvqbo0","pricing_plan_id":"cebpf4jnsgd1na2vs0mg"},{"bike_id":"e73e6057-e6e9-407b-a17e-f4e119a96aba","system_id":"levelo_inurba_marseille","lat":43.32108,"lon":5.36777,"is_reserved":false,"is_disabled":false,"rental_uris":{"android":"levelo://app?vid=e73e6057-e6e9-407b-a17e-f4e119a96aba","ios":"levelo://app?vid=e73e6057-e6e9-407b-a17e-f4e119a96aba"},"vehicle_type_id":"4","last_reported":1735229419,"current_range_meters":26800,"station_id":"ce4bhrh2rcd13ifvqhug","pricing_plan_id":"cebpf4jnsgd1na2vs0mg"},{"bike_id":"ab22365c-bdba-4f7c-81a5-7e7ddb1ecf11","system_id":"levelo_inurba_marseille","lat":43.29314,"lon":5.37168,"is_reserved":false,"is_disabled":false,"rental_uris":{"android":"levelo://app?vid=ab22365c-bdba-4f7c-81a5-7e7ddb1ecf11","ios":"levelo://app?vid=ab22365c-bdba-4f7c-81a5-7e7ddb1ecf11"},"vehicle_type_id":"4","last_reported":1735229419,"current_range_meters":28400,"station_id":"ce4bgh92rcd13ifvqb40","pricing_plan_id":"cebpf4jnsgd1na2vs0mg"},{"bike_id":"3a35ef55-5f87-4653-9781-2dccf0957853","system_id":"levelo_inurba_marseille","lat":43.29011,"lon":5.35611,"is_reserved":false,"is_disabled":false,"rental_uris":{"android":"levelo://app?vid=3a35ef55-5f87-4653-9781-2dccf0957853","ios":"levelo://app?vid=3a35ef55-5f87-4653-9781-2dccf0957853"},"vehicle_type_id":"4","last_reported":1735229419,"current_range_meters":31200,"station_id":"ce4bhb92rcd13ifvqen0","pricing_plan_id":"cebpf4jnsgd1na2vs0mg"},{"bike_id":"b786f355-3e00-4ab0-80ba-2fbf7d5081fd","system_id":"levelo_inurba_marseille","lat":43.2863,"lon":5.35097,"is_reserved":false,"is_disabled":false,"rental_uris":{"android":"levelo://app?vid=b786f355-3e00-4ab0-80ba-2fbf7d5081fd","ios":"levelo://app?vid=b786f355-3e00-4ab0-80ba-2fbf7d5081fd"},"vehicle_type_id":"4","last_reported":1735229419,"current_range_meters":16000,"station_id":"ce4bhch2rcd13ifvqeug","pricing_plan_id":"cebpf4jnsgd1na2vs0mg"},{"bike_id":"6bdfc4aa-16d8-4b7f-b151-e7dd309fc3ee","system_id":"levelo_inurba_marseille","lat":43.2999,"lon":5.37187,"is_reserved":false,"is_disabled":false,"rental_uris":{"android":"levelo://app?vid=6bdfc4aa-16d8-4b7f-b151-e7dd309fc3ee","ios":"levelo://app?vid=6bdfc4aa-16d8-4b7f-b151-e7dd309fc3ee"},"vehicle_type_id":"4","last_reported":1735229419,"current_range_meters":39200,"station_id":"ce4bgr92rcd13ifvqc7g","pricing_plan_id":"cebpf4jnsgd1na2vs0mg"},{"bike_id":"93126cef-6229-4773-a248-5f868029e2ef","system_id":"levelo_inurba_marseille","lat":43.28255,"lon":5.35062,"is_reserved":false,"is_disabled":false,"rental_uris":{"android":"levelo://app?vid=93126cef-6229-4773-a248-5f868029e2ef","ios":"levelo://app?vid=93126cef-6229-4773-a248-5f868029e2ef"},"vehicle_type_id":"4","last_reported":1735229419,"current_range_meters":38800,"station_id":"ce4bhbp2rcd13ifvqerg","pricing_plan_id":"cebpf4jnsgd1na2vs0mg"},{"bike_id":"a019add0-d0a3-45ce-8293-9f44e8e7a821","system_id":"levelo_inurba_marseille","lat":43.32542,"lon":5.41447,"is_reserved":false,"is_disabled":false,"rental_uris":{"android":"levelo://app?vid=a019add0-d0a3-45ce-8293-9f44e8e7a821","ios":"levelo://app?vid=a019add0-d0a3-45ce-8293-9f44e8e7a821"},"vehicle_type_id":"4","last_reported":1735229419,"current_range_meters":36400,"station_id":"ce4bhq12rcd13ifvqhhg","pricing_plan_id":"cebpf4jnsgd1na2vs0mg"},{"bike_id":"e3055757-4e5c-471b-bc49-10de19223f16","system_id":"levelo_inurba_marseille","lat":43.3205,"lon":5.41573,"is_reserved":false,"is_disabled":false,"rental_uris":{"android":"levelo://app?vid=e3055757-4e5c-471b-bc49-10de19223f16","ios":"levelo://app?vid=e3055757-4e5c-471b-bc49-10de19223f16"},"vehicle_type_id":"4","last_reported":1735229419,"current_range_meters":38800,"station_id":"ce4bhq92rcd13ifvqhkg","pricing_plan_id":"cebpf4jnsgd1na2vs0mg"},{"bike_id":"4cac333c-d1dd-4143-9d9b-28dca58be05d","system_id":"levelo_inurba_marseille","lat":43.28922,"lon":5.36394,"is_reserved":false,"is_disabled":false,"rental_uris":{"android":"levelo://app?vid=4cac333c-d1dd-4143-9d9b-28dca58be05d","ios":"levelo://app?vid=4cac333c-d1dd-4143-9d9b-28dca58be05d"},"vehicle_type_id":"4","last_reported":1735229419,"current_range_meters":17200,"station_id":"ce4bhc92rcd13ifvqetg","pricing_plan_id":"cebpf4jnsgd1na2vs0mg"},{"bike_id":"ad6846a3-993b-4a0c-b78a-246d0ebd7556","system_id":"levelo_inurba_marseille","lat":43.29354,"lon":5.37842,"is_reserved":false,"is_disabled":false,"rental_uris":{"android":"levelo://app?vid=ad6846a3-993b-4a0c-b78a-246d0ebd7556","ios":"levelo://app?vid=ad6846a3-993b-4a0c-b78a-246d0ebd7556"},"vehicle_type_id":"4","last_reported":1735229419,"current_range_meters":10000,"station_id":"ce4bgjh2rcd13ifvqbf0","pricing_plan_id":"cebpf4jnsgd1na2vs0mg"},{"bike_id":"6d25a30b-30d6-41bb-9eba-44bccb93801a","system_id":"levelo_inurba_marseille","lat":43.29202,"lon":5.39326,"is_reserved":false,"is_disabled":false,"rental_uris":{"android":"levelo://app?vid=6d25a30b-30d6-41bb-9eba-44bccb93801a","ios":"levelo://app?vid=6d25a30b-30d6-41bb-9eba-44bccb93801a"},"vehicle_type_id":"4","last_reported":1735229419,"current_range_meters":9200,"station_id":"ce4bh192rcd13ifvqdd0","pricing_plan_id":"cebpf4jnsgd1na2vs0mg"},{"bike_id":"1e7b217a-b027-4110-90d3-48819f0dec1b","system_id":"levelo_inurba_marseille","lat":43.28424,"lon":5.34985,"is_reserved":false,"is_disabled":false,"rental_uris":{"android":"levelo://app?vid=1e7b217a-b027-4110-90d3-48819f0dec1b","ios":"levelo://app?vid=1e7b217a-b027-4110-90d3-48819f0dec1b"},"vehicle_type_id":"4","last_reported":1735229419,"current_range_meters":18000,"station_id":"ce4bhbh2rcd13ifvqepg","pricing_plan_id":"cebpf4jnsgd1na2vs0mg"},{"bike_id":"50e9988d-8c66-43a7-82cb-9818dcb38114","system_id":"levelo_inurba_marseille","lat":43.304269,"lon":5.397529,"is_reserved":false,"is_disabled":false,"rental_uris":{"android":"levelo://app?vid=50e9988d-8c66-43a7-82cb-9818dcb38114","ios":"levelo://app?vid=50e9988d-8c66-43a7-82cb-9818dcb38114"},"vehicle_type_id":"4","last_reported":1735229419,"current_range_meters":38800,"station_id":"ce4bh092rcd13ifvqd20","pricing_plan_id":"cebpf4jnsgd1na2vs0mg"},{"bike_id":"d31240d3-9979-449f-a2b4-47db9b31346e","system_id":"levelo_inurba_marseille","lat":43.28473,"lon":5.38543,"is_reserved":false,"is_disabled":false,"rental_uris":{"android":"levelo://app?vid=d31240d3-9979-449f-a2b4-47db9b31346e","ios":"levelo://app?vid=d31240d3-9979-449f-a2b4-47db9b31346e"},"vehicle_type_id":"4","last_reported":1735229419,"current_range_meters":28400,"station_id":"ce4bh8p2rcd13ifvqeb0","pricing_plan_id":"cebpf4jnsgd1na2vs0mg"},{"bike_id":"90bcfe0a-0251-48b9-b280-a465c9bf2e2c","system_id":"levelo_inurba_marseille","lat":43.26209,"lon":5.37442,"is_reserved":false,"is_disabled":false,"rental_uris":{"android":"levelo://app?vid=90bcfe0a-0251-48b9-b280-a465c9bf2e2c","ios":"levelo://app?vid=90bcfe0a-0251-48b9-b280-a465c9bf2e2c"},"vehicle_type_id":"4","last_reported":1735229419,"current_range_meters":12800,"station_id":"ce4bhgp2rcd13ifvqfc0","pricing_plan_id":"cebpf4jnsgd1na2vs0mg"},{"bike_id":"dad6db58-f5bc-4da2-b0b4-3d5d1002166b","system_id":"levelo_inurba_marseille","lat":43.32113,"lon":5.36771,"is_reserved":false,"is_disabled":false,"rental_uris":{"android":"levelo://app?vid=dad6db58-f5bc-4da2-b0b4-3d5d1002166b","ios":"levelo://app?vid=dad6db58-f5bc-4da2-b0b4-3d5d1002166b"},"vehicle_type_id":"4","last_reported":1735229419,"current_range_meters":20800,"station_id":"ce4bhrh2rcd13ifvqhug","pricing_plan_id":"cebpf4jnsgd1na2vs0mg"},{"bike_id":"d215e6a3-2dbb-4240-82c4-dbdd5ce5595f","system_id":"levelo_inurba_marseille","lat":43.29899,"lon":5.3815,"is_reserved":false,"is_disabled":false,"rental_uris":{"android":"levelo://app?vid=d215e6a3-2dbb-4240-82c4-dbdd5ce5595f","ios":"levelo://app?vid=d215e6a3-2dbb-4240-82c4-dbdd5ce5595f"},"vehicle_type_id":"4","last_reported":1735229419,"current_range_meters":38000,"station_id":"ce4bgj12rcd13ifvqbc0","pricing_plan_id":"cebpf4jnsgd1na2vs0mg"},{"bike_id":"5288de5a-7b5d-49f6-a273-76e383ab7ff0","system_id":"levelo_inurba_marseille","lat":43.30306,"lon":5.39187,"is_reserved":false,"is_disabled":false,"rental_uris":{"android":"levelo://app?vid=5288de5a-7b5d-49f6-a273-76e383ab7ff0","ios":"levelo://app?vid=5288de5a-7b5d-49f6-a273-76e383ab7ff0"},"vehicle_type_id":"4","last_reported":1735229419,"current_range_meters":15200,"station_id":"ce4bgkh2rcd13ifvqbk0","pricing_plan_id":"cebpf4jnsgd1na2vs0mg"},{"bike_id":"34c891ca-d880-487f-86cd-38d0d84454a2","system_id":"levelo_inurba_marseille","lat":43.29253,"lon":5.38442,"is_reserved":false,"is_disabled":false,"rental_uris":{"android":"levelo://app?vid=34c891ca-d880-487f-86cd-38d0d84454a2","ios":"levelo://app?vid=34c891ca-d880-487f-86cd-38d0d84454a2"},"vehicle_type_id":"4","last_reported":1735229419,"current_range_meters":26800,"station_id":"ce4bh692rcd13ifvqea0","pricing_plan_id":"cebpf4jnsgd1na2vs0mg"},{"bike_id":"87617f22-d63f-4159-b76c-20f590ceaa9a","system_id":"levelo_inurba_marseille","lat":43.27209,"lon":5.39179,"is_reserved":false,"is_disabled":false,"rental_uris":{"android":"levelo://app?vid=87617f22-d63f-4159-b76c-20f590ceaa9a","ios":"levelo://app?vid=87617f22-d63f-4159-b76c-20f590ceaa9a"},"vehicle_type_id":"4","last_reported":1735229419,"current_range_meters":28000,"station_id":"ce4bhhp2rcd13ifvqfm0","pricing_plan_id":"cebpf4jnsgd1na2vs0mg"},{"bike_id":"c880705e-1b0a-4ec8-9ef6-ece26fe220cc","system_id":"levelo_inurba_marseille","lat":43.30879,"lon":5.37185,"is_reserved":false,"is_disabled":false,"rental_uris":{"android":"levelo://app?vid=c880705e-1b0a-4ec8-9ef6-ece26fe220cc","ios":"levelo://app?vid=c880705e-1b0a-4ec8-9ef6-ece26fe220cc"},"vehicle_type_id":"4","last_reported":1735229419,"current_range_meters":30000,"station_id":"ce4bguh2rcd13ifvqckg","pricing_plan_id":"cebpf4jnsgd1na2vs0mg"},{"bike_id":"4ffd7b60-3c47-45bc-8928-6a2fd1f7ad0e","system_id":"levelo_inurba_marseille","lat":43.29716,"lon":5.37694,"is_reserved":false,"is_disabled":false,"rental_uris":{"android":"levelo://app?vid=4ffd7b60-3c47-45bc-8928-6a2fd1f7ad0e","ios":"levelo://app?vid=4ffd7b60-3c47-45bc-8928-6a2fd1f7ad0e"},"vehicle_type_id":"4","last_reported":1735229419,"current_range_meters":38800,"station_id":"ce4bgkh2rcd13ifvqbl0","pricing_plan_id":"cebpf4jnsgd1na2vs0mg"},{"bike_id":"cb110b53-9ba7-4d84-966e-01041503cc76","system_id":"levelo_inurba_marseille","lat":43.25728,"lon":5.41107,"is_reserved":false,"is_disabled":false,"rental_uris":{"android":"levelo://app?vid=cb110b53-9ba7-4d84-966e-01041503cc76","ios":"levelo://app?vid=cb110b53-9ba7-4d84-966e-01041503cc76"},"vehicle_type_id":"4","last_reported":1735229419,"current_range_meters":28400,"station_id":"ce4bhkp2rcd13ifvqgd0","pricing_plan_id":"cebpf4jnsgd1na2vs0mg"},{"bike_id":"9fcbe1f3-6673-4eff-b8fc-e10a07d4bde9","system_id":"levelo_inurba_marseille","lat":43.29539,"lon":5.39397,"is_reserved":false,"is_disabled":false,"rental_uris":{"android":"levelo://app?vid=9fcbe1f3-6673-4eff-b8fc-e10a07d4bde9","ios":"levelo://app?vid=9fcbe1f3-6673-4eff-b8fc-e10a07d4bde9"},"vehicle_type_id":"4","last_reported":1735229419,"current_range_meters":26800,"station_id":"ce4bh292rcd13ifvqdf0","pricing_plan_id":"cebpf4jnsgd1na2vs0mg"},{"bike_id":"b3c64b96-1ff3-44dc-906f-703a0c530226","system_id":"levelo_inurba_marseille","lat":43.30143,"lon":5.37427,"is_reserved":false,"is_disabled":true,"rental_uris":{"android":"levelo://app?vid=b3c64b96-1ff3-44dc-906f-703a0c530226","ios":"levelo://app?vid=b3c64b96-1ff3-44dc-906f-703a0c530226"},"vehicle_type_id":"4","last_reported":1735229419,"current_range_meters":400,"station_id":"ce4bgs92rcd13ifvqcc0","pricing_plan_id":"cebpf4jnsgd1na2vs0mg"},{"bike_id":"383bf036-0049-4dff-9cd1-bbd04a84035c","system_id":"levelo_inurba_marseille","lat":43.30563,"lon":5.36542,"is_reserved":false,"is_disabled":false,"rental_uris":{"android":"levelo://app?vid=383bf036-0049-4dff-9cd1-bbd04a84035c","ios":"levelo://app?vid=383bf036-0049-4dff-9cd1-bbd04a84035c"},"vehicle_type_id":"4","last_reported":1735229419,"current_range_meters":38000,"station_id":"ce4bgs12rcd13ifvqcag","pricing_plan_id":"cebpf4jnsgd1na2vs0mg"},{"bike_id":"1866340a-45b4-4bd2-ac73-392a4ecb2e72","system_id":"levelo_inurba_marseille","lat":43.29843,"lon":5.36269,"is_reserved":false,"is_disabled":false,"rental_uris":{"android":"levelo://app?vid=1866340a-45b4-4bd2-ac73-392a4ecb2e72","ios":"levelo://app?vid=1866340a-45b4-4bd2-ac73-392a4ecb2e72"},"vehicle_type_id":"4","last_reported":1735229419,"current_range_meters":38800,"station_id":"ce4bgpp2rcd13ifvqc3g","pricing_plan_id":"cebpf4jnsgd1na2vs0mg"},{"bike_id":"356fdf04-5389-4dea-9842-bb9771f47806","system_id":"levelo_inurba_marseille","lat":43.2961,"lon":5.37725,"is_reserved":false,"is_disabled":false,"rental_uris":{"android":"levelo://app?vid=356fdf04-5389-4dea-9842-bb9771f47806","ios":"levelo://app?vid=356fdf04-5389-4dea-9842-bb9771f47806"},"vehicle_type_id":"4","last_reported":1735229419,"current_range_meters":38800,"station_id":"ce4bgi92rcd13ifvqb90","pricing_plan_id":"cebpf4jnsgd1na2vs0mg"},{"bike_id":"252c52e9-5d50-47ae-9a50-b59bf370b810","system_id":"levelo_inurba_marseille","lat":43.29322,"lon":5.37161,"is_reserved":false,"is_disabled":false,"rental_uris":{"android":"levelo://app?vid=252c52e9-5d50-47ae-9a50-b59bf370b810","ios":"levelo://app?vid=252c52e9-5d50-47ae-9a50-b59bf370b810"},"vehicle_type_id":"4","last_reported":1735229419,"current_range_meters":39200,"station_id":"ce4bgh92rcd13ifvqb40","pricing_plan_id":"cebpf4jnsgd1na2vs0mg"},{"bike_id":"ff152d6a-b6bc-406b-998e-dbf3ad51a72e","system_id":"levelo_inurba_marseille","lat":43.25572,"lon":5.38238,"is_reserved":false,"is_disabled":false,"rental_uris":{"android":"levelo://app?vid=ff152d6a-b6bc-406b-998e-dbf3ad51a72e","ios":"levelo://app?vid=ff152d6a-b6bc-406b-998e-dbf3ad51a72e"},"vehicle_type_id":"4","last_reported":1735229419,"current_range_meters":35600,"station_id":"ce4bhih2rcd13ifvqfs0","pricing_plan_id":"cebpf4jnsgd1na2vs0mg"},{"bike_id":"72f4433a-b028-4e45-ab59-31d664b14844","system_id":"levelo_inurba_marseille","lat":43.27215,"lon":5.39177,"is_reserved":false,"is_disabled":false,"rental_uris":{"android":"levelo://app?vid=72f4433a-b028-4e45-ab59-31d664b14844","ios":"levelo://app?vid=72f4433a-b028-4e45-ab59-31d664b14844"},"vehicle_type_id":"4","last_reported":1735229419,"current_range_meters":30000,"station_id":"ce4bhhp2rcd13ifvqfm0","pricing_plan_id":"cebpf4jnsgd1na2vs0mg"},{"bike_id":"c6834b76-82f1-466a-8b2d-118839d142cc","system_id":"levelo_inurba_marseille","lat":43.29908,"lon":5.43674,"is_reserved":false,"is_disabled":false,"rental_uris":{"android":"levelo://app?vid=c6834b76-82f1-466a-8b2d-118839d142cc","ios":"levelo://app?vid=c6834b76-82f1-466a-8b2d-118839d142cc"},"vehicle_type_id":"4","last_reported":1735229419,"current_range_meters":38800,"station_id":"ce4bhpp2rcd13ifvqhfg","pricing_plan_id":"cebpf4jnsgd1na2vs0mg"},{"bike_id":"13c39096-92de-47dd-a9ee-5b5cda0c5bbc","system_id":"levelo_inurba_marseille","lat":43.246517,"lon":5.388918,"is_reserved":false,"is_disabled":false,"rental_uris":{"android":"levelo://app?vid=13c39096-92de-47dd-a9ee-5b5cda0c5bbc","ios":"levelo://app?vid=13c39096-92de-47dd-a9ee-5b5cda0c5bbc"},"vehicle_type_id":"4","last_reported":1735229419,"current_range_meters":22800,"station_id":"ce4bhg12rcd13ifvqf60","pricing_plan_id":"cebpf4jnsgd1na2vs0mg"},{"bike_id":"1107b56a-98a5-4a01-8449-9eba086fee5a","system_id":"levelo_inurba_marseille","lat":43.29122,"lon":5.3976,"is_reserved":false,"is_disabled":false,"rental_uris":{"android":"levelo://app?vid=1107b56a-98a5-4a01-8449-9eba086fee5a","ios":"levelo://app?vid=1107b56a-98a5-4a01-8449-9eba086fee5a"},"vehicle_type_id":"4","last_reported":1735229419,"current_range_meters":21600,"station_id":"","pricing_plan_id":"cebpf4jnsgd1na2vs0mg"},{"bike_id":"4e4277ec-b79e-43a1-bae0-d0f951c20956","system_id":"levelo_inurba_marseille","lat":43.29799,"lon":5.3934,"is_reserved":false,"is_disabled":false,"rental_uris":{"android":"levelo://app?vid=4e4277ec-b79e-43a1-bae0-d0f951c20956","ios":"levelo://app?vid=4e4277ec-b79e-43a1-bae0-d0f951c20956"},"vehicle_type_id":"4","last_reported":1735229419,"current_range_meters":38800,"station_id":"chh1huq6cuj3fo74tm60","pricing_plan_id":"cebpf4jnsgd1na2vs0mg"},{"bike_id":"6f68edfd-fb24-4919-b968-971a44d10505","system_id":"levelo_inurba_marseille","lat":43.337318,"lon":5.391834,"is_reserved":false,"is_disabled":false,"rental_uris":{"android":"levelo://app?vid=6f68edfd-fb24-4919-b968-971a44d10505","ios":"levelo://app?vid=6f68edfd-fb24-4919-b968-971a44d10505"},"vehicle_type_id":"4","last_reported":1735229419,"current_range_meters":38800,"station_id":"ce4bhr92rcd13ifvqhsg","pricing_plan_id":"cebpf4jnsgd1na2vs0mg"},{"bike_id":"0960ce4c-3534-45b1-8854-2e2e349a3e38","system_id":"levelo_inurba_marseille","lat":43.30303,"lon":5.39213,"is_reserved":false,"is_disabled":false,"rental_uris":{"android":"levelo://app?vid=0960ce4c-3534-45b1-8854-2e2e349a3e38","ios":"levelo://app?vid=0960ce4c-3534-45b1-8854-2e2e349a3e38"},"vehicle_type_id":"4","last_reported":1735229419,"current_range_meters":37600,"station_id":"ce4bgkh2rcd13ifvqbk0","pricing_plan_id":"cebpf4jnsgd1na2vs0mg"},{"bike_id":"829a8493-6629-4d17-98c2-ad2e8619b0f1","system_id":"levelo_inurba_marseille","lat":43.29579,"lon":5.36739,"is_reserved":false,"is_disabled":false,"rental_uris":{"android":"levelo://app?vid=829a8493-6629-4d17-98c2-ad2e8619b0f1","ios":"levelo://app?vid=829a8493-6629-4d17-98c2-ad2e8619b0f1"},"vehicle_type_id":"4","last_reported":1735229419,"current_range_meters":11200,"station_id":"ce4bgph2rcd13ifvqc2g","pricing_plan_id":"cebpf4jnsgd1na2vs0mg"},{"bike_id":"e00dfb05-17e3-4fe6-bb2e-302de9c485a7","system_id":"levelo_inurba_marseille","lat":43.29606,"lon":5.38102,"is_reserved":false,"is_disabled":false,"rental_uris":{"android":"levelo://app?vid=e00dfb05-17e3-4fe6-bb2e-302de9c485a7","ios":"levelo://app?vid=e00dfb05-17e3-4fe6-bb2e-302de9c485a7"},"vehicle_type_id":"4","last_reported":1735229419,"current_range_meters":36400,"station_id":"ce4bgl12rcd13ifvqbo0","pricing_plan_id":"cebpf4jnsgd1na2vs0mg"},{"bike_id":"5608df94-b66e-460e-9f45-682a8f36b500","system_id":"levelo_inurba_marseille","lat":43.26967,"lon":5.38961,"is_reserved":false,"is_disabled":false,"rental_uris":{"android":"levelo://app?vid=5608df94-b66e-460e-9f45-682a8f36b500","ios":"levelo://app?vid=5608df94-b66e-460e-9f45-682a8f36b500"},"vehicle_type_id":"4","last_reported":1735229419,"current_range_meters":38400,"station_id":"ce4bhhh2rcd13ifvqfl0","pricing_plan_id":"cebpf4jnsgd1na2vs0mg"},{"bike_id":"4e6d0ca2-6374-490a-b48e-6cba90785a4f","system_id":"levelo_inurba_marseille","lat":43.24642,"lon":5.38907,"is_reserved":false,"is_disabled":false,"rental_uris":{"android":"levelo://app?vid=4e6d0ca2-6374-490a-b48e-6cba90785a4f","ios":"levelo://app?vid=4e6d0ca2-6374-490a-b48e-6cba90785a4f"},"vehicle_type_id":"4","last_reported":1735229419,"current_range_meters":10800,"station_id":"ce4bhg12rcd13ifvqf60","pricing_plan_id":"cebpf4jnsgd1na2vs0mg"},{"bike_id":"963b50d8-757b-4c39-84ed-9fb9fa9d8d9e","system_id":"levelo_inurba_marseille","lat":43.29251,"lon":5.36085,"is_reserved":false,"is_disabled":false,"rental_uris":{"android":"levelo://app?vid=963b50d8-757b-4c39-84ed-9fb9fa9d8d9e","ios":"levelo://app?vid=963b50d8-757b-4c39-84ed-9fb9fa9d8d9e"},"vehicle_type_id":"4","last_reported":1735229419,"current_range_meters":26800,"station_id":"ce4bhbh2rcd13ifvqeqg","pricing_plan_id":"cebpf4jnsgd1na2vs0mg"},{"bike_id":"cf71366f-be23-4797-93cf-6dfe19a14fb0","system_id":"levelo_inurba_marseille","lat":43.29787,"lon":5.38084,"is_reserved":false,"is_disabled":false,"rental_uris":{"android":"levelo://app?vid=cf71366f-be23-4797-93cf-6dfe19a14fb0","ios":"levelo://app?vid=cf71366f-be23-4797-93cf-6dfe19a14fb0"},"vehicle_type_id":"4","last_reported":1735229419,"current_range_meters":32400,"station_id":"ce4bgip2rcd13ifvqbb0","pricing_plan_id":"cebpf4jnsgd1na2vs0mg"},{"bike_id":"797752e9-9b8c-41c6-b3b4-1c43170cd15b","system_id":"levelo_inurba_marseille","lat":43.23148,"lon":5.43712,"is_reserved":false,"is_disabled":false,"rental_uris":{"android":"levelo://app?vid=797752e9-9b8c-41c6-b3b4-1c43170cd15b","ios":"levelo://app?vid=797752e9-9b8c-41c6-b3b4-1c43170cd15b"},"vehicle_type_id":"4","last_reported":1735229419,"current_range_meters":16800,"station_id":"ce4bhmp2rcd13ifvqgog","pricing_plan_id":"cebpf4jnsgd1na2vs0mg"},{"bike_id":"40604247-8679-4b68-9682-619d18eba1e2","system_id":"levelo_inurba_marseille","lat":43.26935,"lon":5.40258,"is_reserved":false,"is_disabled":false,"rental_uris":{"android":"levelo://app?vid=40604247-8679-4b68-9682-619d18eba1e2","ios":"levelo://app?vid=40604247-8679-4b68-9682-619d18eba1e2"},"vehicle_type_id":"4","last_reported":1735229419,"current_range_meters":38800,"station_id":"cjm6bp8fraef2m0cb0m0","pricing_plan_id":"cebpf4jnsgd1na2vs0mg"},{"bike_id":"5ca093cb-437c-4e7d-bc7e-09c7ab1b0f93","system_id":"levelo_inurba_marseille","lat":43.299183,"lon":5.374699,"is_reserved":false,"is_disabled":false,"rental_uris":{"android":"levelo://app?vid=5ca093cb-437c-4e7d-bc7e-09c7ab1b0f93","ios":"levelo://app?vid=5ca093cb-437c-4e7d-bc7e-09c7ab1b0f93"},"vehicle_type_id":"4","last_reported":1735229419,"current_range_meters":36800,"station_id":"ce4bgjh2rcd13ifvqbg0","pricing_plan_id":"cebpf4jnsgd1na2vs0mg"},{"bike_id":"41e441a8-4ad2-4bf0-81ba-96c35feaf6d8","system_id":"levelo_inurba_marseille","lat":43.28152,"lon":5.42635,"is_reserved":false,"is_disabled":false,"rental_uris":{"android":"levelo://app?vid=41e441a8-4ad2-4bf0-81ba-96c35feaf6d8","ios":"levelo://app?vid=41e441a8-4ad2-4bf0-81ba-96c35feaf6d8"},"vehicle_type_id":"4","last_reported":1735229419,"current_range_meters":8800,"station_id":"ce4bhnh2rcd13ifvqgug","pricing_plan_id":"cebpf4jnsgd1na2vs0mg"},{"bike_id":"59f73a4a-b007-4a53-a925-c0d467b8df9c","system_id":"levelo_inurba_marseille","lat":43.29629,"lon":5.38096,"is_reserved":false,"is_disabled":false,"rental_uris":{"android":"levelo://app?vid=59f73a4a-b007-4a53-a925-c0d467b8df9c","ios":"levelo://app?vid=59f73a4a-b007-4a53-a925-c0d467b8df9c"},"vehicle_type_id":"4","last_reported":1735229419,"current_range_meters":36400,"station_id":"ce4bgl12rcd13ifvqbo0","pricing_plan_id":"cebpf4jnsgd1na2vs0mg"},{"bike_id":"f22af626-1be6-4e4e-a83f-5427fbb55b95","system_id":"levelo_inurba_marseille","lat":43.27202,"lon":5.39178,"is_reserved":false,"is_disabled":false,"rental_uris":{"android":"levelo://app?vid=f22af626-1be6-4e4e-a83f-5427fbb55b95","ios":"levelo://app?vid=f22af626-1be6-4e4e-a83f-5427fbb55b95"},"vehicle_type_id":"4","last_reported":1735229419,"current_range_meters":19200,"station_id":"ce4bhhp2rcd13ifvqfm0","pricing_plan_id":"cebpf4jnsgd1na2vs0mg"},{"bike_id":"4e04e3c8-bad8-47c2-a784-0c5eba8b5d4f","system_id":"levelo_inurba_marseille","lat":43.27077,"lon":5.42288,"is_reserved":false,"is_disabled":false,"rental_uris":{"android":"levelo://app?vid=4e04e3c8-bad8-47c2-a784-0c5eba8b5d4f","ios":"levelo://app?vid=4e04e3c8-bad8-47c2-a784-0c5eba8b5d4f"},"vehicle_type_id":"4","last_reported":1735229419,"current_range_meters":34800,"station_id":"ce4bhk92rcd13ifvqgb0","pricing_plan_id":"cebpf4jnsgd1na2vs0mg"},{"bike_id":"aa6ce8e8-9ef3-4eb0-8e38-4499327ca64f","system_id":"levelo_inurba_marseille","lat":43.29898,"lon":5.38904,"is_reserved":false,"is_disabled":false,"rental_uris":{"android":"levelo://app?vid=aa6ce8e8-9ef3-4eb0-8e38-4499327ca64f","ios":"levelo://app?vid=aa6ce8e8-9ef3-4eb0-8e38-4499327ca64f"},"vehicle_type_id":"4","last_reported":1735229419,"current_range_meters":38000,"station_id":"ce4bh392rcd13ifvqdl0","pricing_plan_id":"cebpf4jnsgd1na2vs0mg"},{"bike_id":"b3f7c1d6-8123-4d01-aa9c-fa3c8f407264","system_id":"levelo_inurba_marseille","lat":43.29027,"lon":5.38642,"is_reserved":false,"is_disabled":false,"rental_uris":{"android":"levelo://app?vid=b3f7c1d6-8123-4d01-aa9c-fa3c8f407264","ios":"levelo://app?vid=b3f7c1d6-8123-4d01-aa9c-fa3c8f407264"},"vehicle_type_id":"4","last_reported":1735229419,"current_range_meters":38400,"station_id":"ce4bh4p2rcd13ifvqe0g","pricing_plan_id":"cebpf4jnsgd1na2vs0mg"},{"bike_id":"2ea2828b-4054-4613-b03c-004a3cdbc7d6","system_id":"levelo_inurba_marseille","lat":43.29918,"lon":5.36512,"is_reserved":false,"is_disabled":false,"rental_uris":{"android":"levelo://app?vid=2ea2828b-4054-4613-b03c-004a3cdbc7d6","ios":"levelo://app?vid=2ea2828b-4054-4613-b03c-004a3cdbc7d6"},"vehicle_type_id":"4","last_reported":1735229419,"current_range_meters":37600,"station_id":"ce4bgm92rcd13ifvqbr0","pricing_plan_id":"cebpf4jnsgd1na2vs0mg"},{"bike_id":"235c02dd-a81a-4614-b09e-8ecbb664a04b","system_id":"levelo_inurba_marseille","lat":43.24557,"lon":5.39534,"is_reserved":false,"is_disabled":false,"rental_uris":{"android":"levelo://app?vid=235c02dd-a81a-4614-b09e-8ecbb664a04b","ios":"levelo://app?vid=235c02dd-a81a-4614-b09e-8ecbb664a04b"},"vehicle_type_id":"4","last_reported":1735229419,"current_range_meters":38800,"station_id":"ce4bhlp2rcd13ifvqgjg","pricing_plan_id":"cebpf4jnsgd1na2vs0mg"},{"bike_id":"b9e24016-64c9-40c7-9813-9e5697a1c91c","system_id":"levelo_inurba_marseille","lat":43.2922,"lon":5.36066,"is_reserved":false,"is_disabled":false,"rental_uris":{"android":"levelo://app?vid=b9e24016-64c9-40c7-9813-9e5697a1c91c","ios":"levelo://app?vid=b9e24016-64c9-40c7-9813-9e5697a1c91c"},"vehicle_type_id":"4","last_reported":1735229419,"current_range_meters":16000,"station_id":"ce4bhbh2rcd13ifvqeqg","pricing_plan_id":"cebpf4jnsgd1na2vs0mg"},{"bike_id":"acad3d79-9316-40c1-956d-a5642bbfdd9d","system_id":"levelo_inurba_marseille","lat":43.29587,"lon":5.36713,"is_reserved":false,"is_disabled":false,"rental_uris":{"android":"levelo://app?vid=acad3d79-9316-40c1-956d-a5642bbfdd9d","ios":"levelo://app?vid=acad3d79-9316-40c1-956d-a5642bbfdd9d"},"vehicle_type_id":"4","last_reported":1735229419,"current_range_meters":16400,"station_id":"ce4bgph2rcd13ifvqc2g","pricing_plan_id":"cebpf4jnsgd1na2vs0mg"},{"bike_id":"55f367c1-71c1-4390-b4a3-b526235e9e25","system_id":"levelo_inurba_marseille","lat":43.30194,"lon":5.36597,"is_reserved":false,"is_disabled":false,"rental_uris":{"android":"levelo://app?vid=55f367c1-71c1-4390-b4a3-b526235e9e25","ios":"levelo://app?vid=55f367c1-71c1-4390-b4a3-b526235e9e25"},"vehicle_type_id":"4","last_reported":1735229419,"current_range_meters":38000,"station_id":"ce4bgrh2rcd13ifvqc8g","pricing_plan_id":"cebpf4jnsgd1na2vs0mg"},{"bike_id":"e4a76d8a-c043-48e2-98da-cb404299cd75","system_id":"levelo_inurba_marseille","lat":43.26784,"lon":5.39419,"is_reserved":false,"is_disabled":false,"rental_uris":{"android":"levelo://app?vid=e4a76d8a-c043-48e2-98da-cb404299cd75","ios":"levelo://app?vid=e4a76d8a-c043-48e2-98da-cb404299cd75"},"vehicle_type_id":"4","last_reported":1735229419,"current_range_meters":38000,"station_id":"ce4bhh12rcd13ifvqfg0","pricing_plan_id":"cebpf4jnsgd1na2vs0mg"},{"bike_id":"affaff11-df12-4166-bf6b-e6dfd0c68b23","system_id":"levelo_inurba_marseille","lat":43.30539,"lon":5.36695,"is_reserved":false,"is_disabled":false,"rental_uris":{"android":"levelo://app?vid=affaff11-df12-4166-bf6b-e6dfd0c68b23","ios":"levelo://app?vid=affaff11-df12-4166-bf6b-e6dfd0c68b23"},"vehicle_type_id":"4","last_reported":1735229419,"current_range_meters":28000,"station_id":"ce4bgrp2rcd13ifvqc9g","pricing_plan_id":"cebpf4jnsgd1na2vs0mg"},{"bike_id":"ca03aedf-34b9-409f-83e1-c4a657ccba70","system_id":"levelo_inurba_marseille","lat":43.26218,"lon":5.37447,"is_reserved":false,"is_disabled":false,"rental_uris":{"android":"levelo://app?vid=ca03aedf-34b9-409f-83e1-c4a657ccba70","ios":"levelo://app?vid=ca03aedf-34b9-409f-83e1-c4a657ccba70"},"vehicle_type_id":"4","last_reported":1735229419,"current_range_meters":22400,"station_id":"ce4bhgp2rcd13ifvqfc0","pricing_plan_id":"cebpf4jnsgd1na2vs0mg"},{"bike_id":"f12eb93c-d258-40bc-ba9f-19d77f84b7cd","system_id":"levelo_inurba_marseille","lat":43.30245,"lon":5.40074,"is_reserved":false,"is_disabled":false,"rental_uris":{"android":"levelo://app?vid=f12eb93c-d258-40bc-ba9f-19d77f84b7cd","ios":"levelo://app?vid=f12eb93c-d258-40bc-ba9f-19d77f84b7cd"},"vehicle_type_id":"4","last_reported":1735229419,"current_range_meters":36800,"station_id":"ce4bgvh2rcd13ifvqcs0","pricing_plan_id":"cebpf4jnsgd1na2vs0mg"},{"bike_id":"afa1ff45-7503-4146-b21a-bfc51c88b9da","system_id":"levelo_inurba_marseille","lat":43.29577,"lon":5.37504,"is_reserved":false,"is_disabled":false,"rental_uris":{"android":"levelo://app?vid=afa1ff45-7503-4146-b21a-bfc51c88b9da","ios":"levelo://app?vid=afa1ff45-7503-4146-b21a-bfc51c88b9da"},"vehicle_type_id":"4","last_reported":1735229419,"current_range_meters":22800,"station_id":"ce4bgh92rcd13ifvqb50","pricing_plan_id":"cebpf4jnsgd1na2vs0mg"},{"bike_id":"509d6939-a055-4cab-b606-fdeee6645c66","system_id":"levelo_inurba_marseille","lat":43.26501,"lon":5.39554,"is_reserved":false,"is_disabled":false,"rental_uris":{"android":"levelo://app?vid=509d6939-a055-4cab-b606-fdeee6645c66","ios":"levelo://app?vid=509d6939-a055-4cab-b606-fdeee6645c66"},"vehicle_type_id":"4","last_reported":1735229419,"current_range_meters":26000,"station_id":"ce4bhi12rcd13ifvqfq0","pricing_plan_id":"cebpf4jnsgd1na2vs0mg"},{"bike_id":"f9d7a6aa-83a7-4384-8969-5637dd508436","system_id":"levelo_inurba_marseille","lat":43.27818,"lon":5.40716,"is_reserved":false,"is_disabled":false,"rental_uris":{"android":"levelo://app?vid=f9d7a6aa-83a7-4384-8969-5637dd508436","ios":"levelo://app?vid=f9d7a6aa-83a7-4384-8969-5637dd508436"},"vehicle_type_id":"4","last_reported":1735229419,"current_range_meters":38800,"station_id":"ce4bhnh2rcd13ifvqgtg","pricing_plan_id":"cebpf4jnsgd1na2vs0mg"},{"bike_id":"c2e4bfcb-4330-4a44-a7a7-d9f03bd2cccf","system_id":"levelo_inurba_marseille","lat":43.30307,"lon":5.39201,"is_reserved":false,"is_disabled":false,"rental_uris":{"android":"levelo://app?vid=c2e4bfcb-4330-4a44-a7a7-d9f03bd2cccf","ios":"levelo://app?vid=c2e4bfcb-4330-4a44-a7a7-d9f03bd2cccf"},"vehicle_type_id":"4","last_reported":1735229419,"current_range_meters":28800,"station_id":"ce4bgkh2rcd13ifvqbk0","pricing_plan_id":"cebpf4jnsgd1na2vs0mg"},{"bike_id":"673ed0fe-3027-4e1f-9efc-2804b0e32190","system_id":"levelo_inurba_marseille","lat":43.26687,"lon":5.38272,"is_reserved":false,"is_disabled":false,"rental_uris":{"android":"levelo://app?vid=673ed0fe-3027-4e1f-9efc-2804b0e32190","ios":"levelo://app?vid=673ed0fe-3027-4e1f-9efc-2804b0e32190"},"vehicle_type_id":"4","last_reported":1735229419,"current_range_meters":24400,"station_id":"ce4bhg92rcd13ifvqf90","pricing_plan_id":"cebpf4jnsgd1na2vs0mg"},{"bike_id":"8383b770-0a68-43d5-b3f5-5338128961cb","system_id":"levelo_inurba_marseille","lat":43.29936,"lon":5.36535,"is_reserved":false,"is_disabled":false,"rental_uris":{"android":"levelo://app?vid=8383b770-0a68-43d5-b3f5-5338128961cb","ios":"levelo://app?vid=8383b770-0a68-43d5-b3f5-5338128961cb"},"vehicle_type_id":"4","last_reported":1735229419,"current_range_meters":22400,"station_id":"ce4bgm92rcd13ifvqbr0","pricing_plan_id":"cebpf4jnsgd1na2vs0mg"},{"bike_id":"2e48270a-c773-45cd-b6b6-1f931f6c2627","system_id":"levelo_inurba_marseille","lat":43.29897,"lon":5.38906,"is_reserved":false,"is_disabled":false,"rental_uris":{"android":"levelo://app?vid=2e48270a-c773-45cd-b6b6-1f931f6c2627","ios":"levelo://app?vid=2e48270a-c773-45cd-b6b6-1f931f6c2627"},"vehicle_type_id":"4","last_reported":1735229419,"current_range_meters":38800,"station_id":"ce4bh392rcd13ifvqdl0","pricing_plan_id":"cebpf4jnsgd1na2vs0mg"},{"bike_id":"669093f3-9e30-4f27-a07e-489670469d1a","system_id":"levelo_inurba_marseille","lat":43.27922,"lon":5.39591,"is_reserved":false,"is_disabled":false,"rental_uris":{"android":"levelo://app?vid=669093f3-9e30-4f27-a07e-489670469d1a","ios":"levelo://app?vid=669093f3-9e30-4f27-a07e-489670469d1a"},"vehicle_type_id":"4","last_reported":1735229419,"current_range_meters":35600,"station_id":"ce4bhf92rcd13ifvqf40","pricing_plan_id":"cebpf4jnsgd1na2vs0mg"},{"bike_id":"521d3800-ebef-4075-8124-d01a8949d70c","system_id":"levelo_inurba_marseille","lat":43.29616,"lon":5.377273,"is_reserved":false,"is_disabled":false,"rental_uris":{"android":"levelo://app?vid=521d3800-ebef-4075-8124-d01a8949d70c","ios":"levelo://app?vid=521d3800-ebef-4075-8124-d01a8949d70c"},"vehicle_type_id":"4","last_reported":1735229419,"current_range_meters":38800,"station_id":"ce4bgi92rcd13ifvqb90","pricing_plan_id":"cebpf4jnsgd1na2vs0mg"},{"bike_id":"4e3ec7a4-2c0f-419c-b4af-b681beb75cc8","system_id":"levelo_inurba_marseille","lat":43.30412,"lon":5.41288,"is_reserved":false,"is_disabled":false,"rental_uris":{"android":"levelo://app?vid=4e3ec7a4-2c0f-419c-b4af-b681beb75cc8","ios":"levelo://app?vid=4e3ec7a4-2c0f-419c-b4af-b681beb75cc8"},"vehicle_type_id":"4","last_reported":1735229419,"current_range_meters":38800,"station_id":"ce4bhop2rcd13ifvqh8g","pricing_plan_id":"cebpf4jnsgd1na2vs0mg"},{"bike_id":"58dc5504-ef4f-4e84-b7a2-972ab72f0bea","system_id":"levelo_inurba_marseille","lat":43.31372,"lon":5.38498,"is_reserved":false,"is_disabled":false,"rental_uris":{"android":"levelo://app?vid=58dc5504-ef4f-4e84-b7a2-972ab72f0bea","ios":"levelo://app?vid=58dc5504-ef4f-4e84-b7a2-972ab72f0bea"},"vehicle_type_id":"4","last_reported":1735229419,"current_range_meters":34000,"station_id":"ce4bgt92rcd13ifvqcf0","pricing_plan_id":"cebpf4jnsgd1na2vs0mg"},{"bike_id":"cadf8335-6df2-49c1-9678-5228c753266c","system_id":"levelo_inurba_marseille","lat":43.28076,"lon":5.39656,"is_reserved":false,"is_disabled":false,"rental_uris":{"android":"levelo://app?vid=cadf8335-6df2-49c1-9678-5228c753266c","ios":"levelo://app?vid=cadf8335-6df2-49c1-9678-5228c753266c"},"vehicle_type_id":"4","last_reported":1735229419,"current_range_meters":6800,"station_id":"ce4bho12rcd13ifvqh2g","pricing_plan_id":"cebpf4jnsgd1na2vs0mg"},{"bike_id":"f853feaa-74a9-4e49-aec5-cbc8f52dd356","system_id":"levelo_inurba_marseille","lat":43.31491,"lon":5.37307,"is_reserved":false,"is_disabled":false,"rental_uris":{"android":"levelo://app?vid=f853feaa-74a9-4e49-aec5-cbc8f52dd356","ios":"levelo://app?vid=f853feaa-74a9-4e49-aec5-cbc8f52dd356"},"vehicle_type_id":"4","last_reported":1735229419,"current_range_meters":38400,"station_id":"ce4bgt12rcd13ifvqcd0","pricing_plan_id":"cebpf4jnsgd1na2vs0mg"},{"bike_id":"36c94d29-a143-4ca2-8a11-fcf2b617451d","system_id":"levelo_inurba_marseille","lat":43.24804,"lon":5.37453,"is_reserved":false,"is_disabled":false,"rental_uris":{"android":"levelo://app?vid=36c94d29-a143-4ca2-8a11-fcf2b617451d","ios":"levelo://app?vid=36c94d29-a143-4ca2-8a11-fcf2b617451d"},"vehicle_type_id":"4","last_reported":1735229419,"current_range_meters":17200,"station_id":"ce4bhgh2rcd13ifvqfb0","pricing_plan_id":"cebpf4jnsgd1na2vs0mg"},{"bike_id":"0d356a97-93db-4905-a410-a6d23d3b385c","system_id":"levelo_inurba_marseille","lat":43.28855,"lon":5.35851,"is_reserved":false,"is_disabled":false,"rental_uris":{"android":"levelo://app?vid=0d356a97-93db-4905-a410-a6d23d3b385c","ios":"levelo://app?vid=0d356a97-93db-4905-a410-a6d23d3b385c"},"vehicle_type_id":"4","last_reported":1735229419,"current_range_meters":19600,"station_id":"ce4bhb12rcd13ifvqem0","pricing_plan_id":"cebpf4jnsgd1na2vs0mg"},{"bike_id":"6556df2a-0e73-47d2-b43c-151912c9038b","system_id":"levelo_inurba_marseille","lat":43.24536,"lon":5.39482,"is_reserved":false,"is_disabled":false,"rental_uris":{"android":"levelo://app?vid=6556df2a-0e73-47d2-b43c-151912c9038b","ios":"levelo://app?vid=6556df2a-0e73-47d2-b43c-151912c9038b"},"vehicle_type_id":"4","last_reported":1735229419,"current_range_meters":37600,"station_id":"ce4bhlp2rcd13ifvqgjg","pricing_plan_id":"cebpf4jnsgd1na2vs0mg"},{"bike_id":"0089825d-bdd9-4c40-bf0e-57b3cbb36429","system_id":"levelo_inurba_marseille","lat":43.305406,"lon":5.366965,"is_reserved":false,"is_disabled":false,"rental_uris":{"android":"levelo://app?vid=0089825d-bdd9-4c40-bf0e-57b3cbb36429","ios":"levelo://app?vid=0089825d-bdd9-4c40-bf0e-57b3cbb36429"},"vehicle_type_id":"4","last_reported":1735229419,"current_range_meters":38800,"station_id":"ce4bgrp2rcd13ifvqc9g","pricing_plan_id":"cebpf4jnsgd1na2vs0mg"},{"bike_id":"dbe6a0e7-5d44-41eb-b0ab-6557395df924","system_id":"levelo_inurba_marseille","lat":43.29622,"lon":5.37727,"is_reserved":false,"is_disabled":false,"rental_uris":{"android":"levelo://app?vid=dbe6a0e7-5d44-41eb-b0ab-6557395df924","ios":"levelo://app?vid=dbe6a0e7-5d44-41eb-b0ab-6557395df924"},"vehicle_type_id":"4","last_reported":1735229419,"current_range_meters":38800,"station_id":"ce4bgi92rcd13ifvqb90","pricing_plan_id":"cebpf4jnsgd1na2vs0mg"},{"bike_id":"f365e967-1692-4ffa-a5cb-b55a04ba86be","system_id":"levelo_inurba_marseille","lat":43.25481,"lon":5.37617,"is_reserved":false,"is_disabled":false,"rental_uris":{"android":"levelo://app?vid=f365e967-1692-4ffa-a5cb-b55a04ba86be","ios":"levelo://app?vid=f365e967-1692-4ffa-a5cb-b55a04ba86be"},"vehicle_type_id":"4","last_reported":1735229419,"current_range_meters":15200,"station_id":"ce4bhh12rcd13ifvqff0","pricing_plan_id":"cebpf4jnsgd1na2vs0mg"},{"bike_id":"d36bb8df-822e-49e3-adc4-c36f4503a77d","system_id":"levelo_inurba_marseille","lat":43.27493,"lon":5.42453,"is_reserved":false,"is_disabled":false,"rental_uris":{"android":"levelo://app?vid=d36bb8df-822e-49e3-adc4-c36f4503a77d","ios":"levelo://app?vid=d36bb8df-822e-49e3-adc4-c36f4503a77d"},"vehicle_type_id":"4","last_reported":1735229419,"current_range_meters":10800,"station_id":"ce4bhn92rcd13ifvqgrg","pricing_plan_id":"cebpf4jnsgd1na2vs0mg"},{"bike_id":"1621a986-e41d-45bf-834a-f6c7fb7fded1","system_id":"levelo_inurba_marseille","lat":43.29257,"lon":5.40897,"is_reserved":false,"is_disabled":false,"rental_uris":{"android":"levelo://app?vid=1621a986-e41d-45bf-834a-f6c7fb7fded1","ios":"levelo://app?vid=1621a986-e41d-45bf-834a-f6c7fb7fded1"},"vehicle_type_id":"4","last_reported":1735229419,"current_range_meters":25600,"station_id":"ce4bh192rcd13ifvqdc0","pricing_plan_id":"cebpf4jnsgd1na2vs0mg"},{"bike_id":"4f5db02c-99f9-460e-a880-3ca7100df048","system_id":"levelo_inurba_marseille","lat":43.27437,"lon":5.39414,"is_reserved":false,"is_disabled":false,"rental_uris":{"android":"levelo://app?vid=4f5db02c-99f9-460e-a880-3ca7100df048","ios":"levelo://app?vid=4f5db02c-99f9-460e-a880-3ca7100df048"},"vehicle_type_id":"4","last_reported":1735229419,"current_range_meters":38800,"station_id":"ce4bhdp2rcd13ifvqf20","pricing_plan_id":"cebpf4jnsgd1na2vs0mg"},{"bike_id":"d92ce413-4a40-4ff0-95ab-ebe054e256bf","system_id":"levelo_inurba_marseille","lat":43.27941,"lon":5.41046,"is_reserved":false,"is_disabled":true,"rental_uris":{"android":"levelo://app?vid=d92ce413-4a40-4ff0-95ab-ebe054e256bf","ios":"levelo://app?vid=d92ce413-4a40-4ff0-95ab-ebe054e256bf"},"vehicle_type_id":"4","last_reported":1735229419,"current_range_meters":400,"station_id":"ce4bhnp2rcd13ifvqh0g","pricing_plan_id":"cebpf4jnsgd1na2vs0mg"},{"bike_id":"fe73862b-8c55-4fc9-8d05-70c0d05c8069","system_id":"levelo_inurba_marseille","lat":43.309026,"lon":5.396569,"is_reserved":false,"is_disabled":false,"rental_uris":{"android":"levelo://app?vid=fe73862b-8c55-4fc9-8d05-70c0d05c8069","ios":"levelo://app?vid=fe73862b-8c55-4fc9-8d05-70c0d05c8069"},"vehicle_type_id":"4","last_reported":1735229419,"current_range_meters":38800,"station_id":"ce4bh012rcd13ifvqcv0","pricing_plan_id":"cebpf4jnsgd1na2vs0mg"},{"bike_id":"7a519144-206a-401e-ac5a-51065853ad87","system_id":"levelo_inurba_marseille","lat":43.29559,"lon":5.37512,"is_reserved":false,"is_disabled":false,"rental_uris":{"android":"levelo://app?vid=7a519144-206a-401e-ac5a-51065853ad87","ios":"levelo://app?vid=7a519144-206a-401e-ac5a-51065853ad87"},"vehicle_type_id":"4","last_reported":1735229419,"current_range_meters":28800,"station_id":"ce4bgh92rcd13ifvqb50","pricing_plan_id":"cebpf4jnsgd1na2vs0mg"},{"bike_id":"edfbfc7b-2ac3-4ee6-b706-13360b72c354","system_id":"levelo_inurba_marseille","lat":43.28618,"lon":5.35103,"is_reserved":false,"is_disabled":false,"rental_uris":{"android":"levelo://app?vid=edfbfc7b-2ac3-4ee6-b706-13360b72c354","ios":"levelo://app?vid=edfbfc7b-2ac3-4ee6-b706-13360b72c354"},"vehicle_type_id":"4","last_reported":1735229419,"current_range_meters":23200,"station_id":"ce4bhch2rcd13ifvqeug","pricing_plan_id":"cebpf4jnsgd1na2vs0mg"},{"bike_id":"be913148-f7c7-4ad3-ae5a-f2ec4be3d194","system_id":"levelo_inurba_marseille","lat":43.29253,"lon":5.40917,"is_reserved":false,"is_disabled":false,"rental_uris":{"android":"levelo://app?vid=be913148-f7c7-4ad3-ae5a-f2ec4be3d194","ios":"levelo://app?vid=be913148-f7c7-4ad3-ae5a-f2ec4be3d194"},"vehicle_type_id":"4","last_reported":1735229419,"current_range_meters":38800,"station_id":"ce4bh192rcd13ifvqdc0","pricing_plan_id":"cebpf4jnsgd1na2vs0mg"},{"bike_id":"f48a31c5-7ac5-4db9-a487-f29d0d3d18d7","system_id":"levelo_inurba_marseille","lat":43.29799,"lon":5.38082,"is_reserved":false,"is_disabled":false,"rental_uris":{"android":"levelo://app?vid=f48a31c5-7ac5-4db9-a487-f29d0d3d18d7","ios":"levelo://app?vid=f48a31c5-7ac5-4db9-a487-f29d0d3d18d7"},"vehicle_type_id":"4","last_reported":1735229419,"current_range_meters":18000,"station_id":"ce4bgip2rcd13ifvqbb0","pricing_plan_id":"cebpf4jnsgd1na2vs0mg"},{"bike_id":"b07e0204-2c57-49d1-a1f7-320de8610e25","system_id":"levelo_inurba_marseille","lat":43.29402,"lon":5.37344,"is_reserved":false,"is_disabled":true,"rental_uris":{"android":"levelo://app?vid=b07e0204-2c57-49d1-a1f7-320de8610e25","ios":"levelo://app?vid=b07e0204-2c57-49d1-a1f7-320de8610e25"},"vehicle_type_id":"4","last_reported":1735229419,"current_range_meters":10000,"station_id":"","pricing_plan_id":"cebpf4jnsgd1na2vs0mg"},{"bike_id":"288a9011-95b6-4421-825b-ee0e5deb880f","system_id":"levelo_inurba_marseille","lat":43.28673,"lon":5.3867,"is_reserved":false,"is_disabled":false,"rental_uris":{"android":"levelo://app?vid=288a9011-95b6-4421-825b-ee0e5deb880f","ios":"levelo://app?vid=288a9011-95b6-4421-825b-ee0e5deb880f"},"vehicle_type_id":"4","last_reported":1735229419,"current_range_meters":38400,"station_id":"ce4bh492rcd13ifvqdug","pricing_plan_id":"cebpf4jnsgd1na2vs0mg"},{"bike_id":"9d49c05f-0fd6-43f7-973f-c7f9dbb8dd66","system_id":"levelo_inurba_marseille","lat":43.30522,"lon":5.36715,"is_reserved":false,"is_disabled":false,"rental_uris":{"android":"levelo://app?vid=9d49c05f-0fd6-43f7-973f-c7f9dbb8dd66","ios":"levelo://app?vid=9d49c05f-0fd6-43f7-973f-c7f9dbb8dd66"},"vehicle_type_id":"4","last_reported":1735229419,"current_range_meters":30400,"station_id":"ce4bgrp2rcd13ifvqc9g","pricing_plan_id":"cebpf4jnsgd1na2vs0mg"},{"bike_id":"05790929-d9fc-4028-a48a-4e32c1d392ca","system_id":"levelo_inurba_marseille","lat":43.26215,"lon":5.37447,"is_reserved":false,"is_disabled":false,"rental_uris":{"android":"levelo://app?vid=05790929-d9fc-4028-a48a-4e32c1d392ca","ios":"levelo://app?vid=05790929-d9fc-4028-a48a-4e32c1d392ca"},"vehicle_type_id":"4","last_reported":1735229419,"current_range_meters":25200,"station_id":"ce4bhgp2rcd13ifvqfc0","pricing_plan_id":"cebpf4jnsgd1na2vs0mg"},{"bike_id":"d051bf13-7445-45ad-86d7-0bc2c858622c","system_id":"levelo_inurba_marseille","lat":43.29185,"lon":5.35805,"is_reserved":false,"is_disabled":false,"rental_uris":{"android":"levelo://app?vid=d051bf13-7445-45ad-86d7-0bc2c858622c","ios":"levelo://app?vid=d051bf13-7445-45ad-86d7-0bc2c858622c"},"vehicle_type_id":"4","last_reported":1735229419,"current_range_meters":27600,"station_id":"ce4bhb12rcd13ifvqel0","pricing_plan_id":"cebpf4jnsgd1na2vs0mg"},{"bike_id":"1786334d-2721-40c5-be60-f94ab6a924f7","system_id":"levelo_inurba_marseille","lat":43.26201,"lon":5.37932,"is_reserved":false,"is_disabled":false,"rental_uris":{"android":"levelo://app?vid=1786334d-2721-40c5-be60-f94ab6a924f7","ios":"levelo://app?vid=1786334d-2721-40c5-be60-f94ab6a924f7"},"vehicle_type_id":"4","last_reported":1735229419,"current_range_meters":39200,"station_id":"ce4bhjp2rcd13ifvqg90","pricing_plan_id":"cebpf4jnsgd1na2vs0mg"},{"bike_id":"43f7e734-263c-460e-a5d5-9f3194a8a7de","system_id":"levelo_inurba_marseille","lat":43.30139,"lon":5.39864,"is_reserved":false,"is_disabled":false,"rental_uris":{"android":"levelo://app?vid=43f7e734-263c-460e-a5d5-9f3194a8a7de","ios":"levelo://app?vid=43f7e734-263c-460e-a5d5-9f3194a8a7de"},"vehicle_type_id":"4","last_reported":1735229419,"current_range_meters":39200,"station_id":"ce4bh0h2rcd13ifvqd40","pricing_plan_id":"cebpf4jnsgd1na2vs0mg"},{"bike_id":"71160096-1f78-4a01-8bd7-5e65b9e0ac95","system_id":"levelo_inurba_marseille","lat":43.26201,"lon":5.37929,"is_reserved":false,"is_disabled":false,"rental_uris":{"android":"levelo://app?vid=71160096-1f78-4a01-8bd7-5e65b9e0ac95","ios":"levelo://app?vid=71160096-1f78-4a01-8bd7-5e65b9e0ac95"},"vehicle_type_id":"4","last_reported":1735229419,"current_range_meters":10800,"station_id":"ce4bhjp2rcd13ifvqg90","pricing_plan_id":"cebpf4jnsgd1na2vs0mg"},{"bike_id":"2413451f-2ee2-4697-9d5a-589620387b39","system_id":"levelo_inurba_marseille","lat":43.31059,"lon":5.3835,"is_reserved":false,"is_disabled":false,"rental_uris":{"android":"levelo://app?vid=2413451f-2ee2-4697-9d5a-589620387b39","ios":"levelo://app?vid=2413451f-2ee2-4697-9d5a-589620387b39"},"vehicle_type_id":"4","last_reported":1735229419,"current_range_meters":20400,"station_id":"ce4bgv92rcd13ifvqcr0","pricing_plan_id":"cebpf4jnsgd1na2vs0mg"},{"bike_id":"1b2bbfd1-8ca8-47cd-a173-a751cba2f0e1","system_id":"levelo_inurba_marseille","lat":43.30451,"lon":5.39754,"is_reserved":false,"is_disabled":false,"rental_uris":{"android":"levelo://app?vid=1b2bbfd1-8ca8-47cd-a173-a751cba2f0e1","ios":"levelo://app?vid=1b2bbfd1-8ca8-47cd-a173-a751cba2f0e1"},"vehicle_type_id":"4","last_reported":1735229419,"current_range_meters":32400,"station_id":"ce4bh092rcd13ifvqd20","pricing_plan_id":"cebpf4jnsgd1na2vs0mg"},{"bike_id":"4990ba29-9c74-4f5d-95ae-56879b259f2a","system_id":"levelo_inurba_marseille","lat":43.29527,"lon":5.3854,"is_reserved":false,"is_disabled":false,"rental_uris":{"android":"levelo://app?vid=4990ba29-9c74-4f5d-95ae-56879b259f2a","ios":"levelo://app?vid=4990ba29-9c74-4f5d-95ae-56879b259f2a"},"vehicle_type_id":"4","last_reported":1735229419,"current_range_meters":16400,"station_id":"ce4bgih2rcd13ifvqba0","pricing_plan_id":"cebpf4jnsgd1na2vs0mg"},{"bike_id":"dda65ac8-8d64-45c8-923b-7c11f156fdc0","system_id":"levelo_inurba_marseille","lat":43.241754,"lon":5.397343,"is_reserved":false,"is_disabled":false,"rental_uris":{"android":"levelo://app?vid=dda65ac8-8d64-45c8-923b-7c11f156fdc0","ios":"levelo://app?vid=dda65ac8-8d64-45c8-923b-7c11f156fdc0"},"vehicle_type_id":"4","last_reported":1735229419,"current_range_meters":36400,"station_id":"ce4bhn12rcd13ifvqgpg","pricing_plan_id":"cebpf4jnsgd1na2vs0mg"},{"bike_id":"a96ca1ed-aa70-41be-bad5-156bb77650c2","system_id":"levelo_inurba_marseille","lat":43.28833,"lon":5.39313,"is_reserved":false,"is_disabled":false,"rental_uris":{"android":"levelo://app?vid=a96ca1ed-aa70-41be-bad5-156bb77650c2","ios":"levelo://app?vid=a96ca1ed-aa70-41be-bad5-156bb77650c2"},"vehicle_type_id":"4","last_reported":1735229419,"current_range_meters":39200,"station_id":"ce4bh2p2rcd13ifvqdi0","pricing_plan_id":"cebpf4jnsgd1na2vs0mg"},{"bike_id":"6fddf6a9-b5c4-4b31-ab3d-6a64a29448f0","system_id":"levelo_inurba_marseille","lat":43.29309,"lon":5.37178,"is_reserved":false,"is_disabled":false,"rental_uris":{"android":"levelo://app?vid=6fddf6a9-b5c4-4b31-ab3d-6a64a29448f0","ios":"levelo://app?vid=6fddf6a9-b5c4-4b31-ab3d-6a64a29448f0"},"vehicle_type_id":"4","last_reported":1735229419,"current_range_meters":17600,"station_id":"ce4bgh92rcd13ifvqb40","pricing_plan_id":"cebpf4jnsgd1na2vs0mg"},{"bike_id":"4344e0d8-d4f9-4528-93ac-9e29fe2e8f7d","system_id":"levelo_inurba_marseille","lat":43.30536,"lon":5.36706,"is_reserved":false,"is_disabled":false,"rental_uris":{"android":"levelo://app?vid=4344e0d8-d4f9-4528-93ac-9e29fe2e8f7d","ios":"levelo://app?vid=4344e0d8-d4f9-4528-93ac-9e29fe2e8f7d"},"vehicle_type_id":"4","last_reported":1735229419,"current_range_meters":31200,"station_id":"ce4bgrp2rcd13ifvqc9g","pricing_plan_id":"cebpf4jnsgd1na2vs0mg"},{"bike_id":"526c3b21-f659-466e-a14d-5675dcf072b5","system_id":"levelo_inurba_marseille","lat":43.27075,"lon":5.42281,"is_reserved":false,"is_disabled":false,"rental_uris":{"android":"levelo://app?vid=526c3b21-f659-466e-a14d-5675dcf072b5","ios":"levelo://app?vid=526c3b21-f659-466e-a14d-5675dcf072b5"},"vehicle_type_id":"4","last_reported":1735229419,"current_range_meters":30400,"station_id":"ce4bhk92rcd13ifvqgb0","pricing_plan_id":"cebpf4jnsgd1na2vs0mg"},{"bike_id":"6882da18-50dc-4a58-b492-e62917a7ffc4","system_id":"levelo_inurba_marseille","lat":43.29624,"lon":5.37149,"is_reserved":false,"is_disabled":false,"rental_uris":{"android":"levelo://app?vid=6882da18-50dc-4a58-b492-e62917a7ffc4","ios":"levelo://app?vid=6882da18-50dc-4a58-b492-e62917a7ffc4"},"vehicle_type_id":"4","last_reported":1735229419,"current_range_meters":38400,"station_id":"ce4bgnh2rcd13ifvqc0g","pricing_plan_id":"cebpf4jnsgd1na2vs0mg"},{"bike_id":"0f9921f0-e587-4ca1-b6b0-08a1851313ae","system_id":"levelo_inurba_marseille","lat":43.28409,"lon":5.37506,"is_reserved":false,"is_disabled":false,"rental_uris":{"android":"levelo://app?vid=0f9921f0-e587-4ca1-b6b0-08a1851313ae","ios":"levelo://app?vid=0f9921f0-e587-4ca1-b6b0-08a1851313ae"},"vehicle_type_id":"4","last_reported":1735229419,"current_range_meters":16400,"station_id":"ce4bh412rcd13ifvqds0","pricing_plan_id":"cebpf4jnsgd1na2vs0mg"},{"bike_id":"e21de414-f290-4ca8-aba3-0da9154d1645","system_id":"levelo_inurba_marseille","lat":43.2928,"lon":5.36847,"is_reserved":false,"is_disabled":true,"rental_uris":{"android":"levelo://app?vid=e21de414-f290-4ca8-aba3-0da9154d1645","ios":"levelo://app?vid=e21de414-f290-4ca8-aba3-0da9154d1645"},"vehicle_type_id":"4","last_reported":1735229419,"current_range_meters":400,"station_id":"ce4bhbp2rcd13ifvqesg","pricing_plan_id":"cebpf4jnsgd1na2vs0mg"},{"bike_id":"137f6041-7402-4720-b8e3-8360c38100c9","system_id":"levelo_inurba_marseille","lat":43.2694,"lon":5.40254,"is_reserved":false,"is_disabled":false,"rental_uris":{"android":"levelo://app?vid=137f6041-7402-4720-b8e3-8360c38100c9","ios":"levelo://app?vid=137f6041-7402-4720-b8e3-8360c38100c9"},"vehicle_type_id":"4","last_reported":1735229419,"current_range_meters":38000,"station_id":"cjm6bp8fraef2m0cb0m0","pricing_plan_id":"cebpf4jnsgd1na2vs0mg"},{"bike_id":"abb6f3f1-c9e4-4600-bf62-12f84f815612","system_id":"levelo_inurba_marseille","lat":43.28357,"lon":5.38099,"is_reserved":false,"is_disabled":false,"rental_uris":{"android":"levelo://app?vid=abb6f3f1-c9e4-4600-bf62-12f84f815612","ios":"levelo://app?vid=abb6f3f1-c9e4-4600-bf62-12f84f815612"},"vehicle_type_id":"4","last_reported":1735229419,"current_range_meters":38800,"station_id":"ce4bh412rcd13ifvqdr0","pricing_plan_id":"cebpf4jnsgd1na2vs0mg"},{"bike_id":"aaa78394-0f83-4d1b-bc11-2e06bb634e07","system_id":"levelo_inurba_marseille","lat":43.28165,"lon":5.42667,"is_reserved":false,"is_disabled":false,"rental_uris":{"android":"levelo://app?vid=aaa78394-0f83-4d1b-bc11-2e06bb634e07","ios":"levelo://app?vid=aaa78394-0f83-4d1b-bc11-2e06bb634e07"},"vehicle_type_id":"4","last_reported":1735229419,"current_range_meters":20000,"station_id":"ce4bhnh2rcd13ifvqgug","pricing_plan_id":"cebpf4jnsgd1na2vs0mg"},{"bike_id":"9e0ce3af-2e3c-435a-8c4f-d3ce16f81c59","system_id":"levelo_inurba_marseille","lat":43.292346,"lon":5.360473,"is_reserved":false,"is_disabled":true,"rental_uris":{"android":"levelo://app?vid=9e0ce3af-2e3c-435a-8c4f-d3ce16f81c59","ios":"levelo://app?vid=9e0ce3af-2e3c-435a-8c4f-d3ce16f81c59"},"vehicle_type_id":"4","last_reported":1735229419,"current_range_meters":19600,"station_id":"ce4bhbh2rcd13ifvqeqg","pricing_plan_id":"cebpf4jnsgd1na2vs0mg"},{"bike_id":"20f5bddb-5202-4aaf-80d1-d51eec425276","system_id":"levelo_inurba_marseille","lat":43.25154,"lon":5.40401,"is_reserved":false,"is_disabled":false,"rental_uris":{"android":"levelo://app?vid=20f5bddb-5202-4aaf-80d1-d51eec425276","ios":"levelo://app?vid=20f5bddb-5202-4aaf-80d1-d51eec425276"},"vehicle_type_id":"4","last_reported":1735229419,"current_range_meters":36000,"station_id":"ce4bhlh2rcd13ifvqgig","pricing_plan_id":"cebpf4jnsgd1na2vs0mg"},{"bike_id":"50a2ab2c-7a16-437e-9842-7264dc906eba","system_id":"levelo_inurba_marseille","lat":43.25003,"lon":5.38934,"is_reserved":false,"is_disabled":false,"rental_uris":{"android":"levelo://app?vid=50a2ab2c-7a16-437e-9842-7264dc906eba","ios":"levelo://app?vid=50a2ab2c-7a16-437e-9842-7264dc906eba"},"vehicle_type_id":"4","last_reported":1735229419,"current_range_meters":24400,"station_id":"ce4bhgp2rcd13ifvqfd0","pricing_plan_id":"cebpf4jnsgd1na2vs0mg"},{"bike_id":"fad884c6-644e-4487-ac86-54c3a21f09a4","system_id":"levelo_inurba_marseille","lat":43.26559,"lon":5.37309,"is_reserved":false,"is_disabled":false,"rental_uris":{"android":"levelo://app?vid=fad884c6-644e-4487-ac86-54c3a21f09a4","ios":"levelo://app?vid=fad884c6-644e-4487-ac86-54c3a21f09a4"},"vehicle_type_id":"4","last_reported":1735229419,"current_range_meters":36400,"station_id":"ce4bhg12rcd13ifvqf70","pricing_plan_id":"cebpf4jnsgd1na2vs0mg"},{"bike_id":"4117fc55-82d1-4923-887f-6f07cca8f8ed","system_id":"levelo_inurba_marseille","lat":43.29197,"lon":5.35816,"is_reserved":false,"is_disabled":false,"rental_uris":{"android":"levelo://app?vid=4117fc55-82d1-4923-887f-6f07cca8f8ed","ios":"levelo://app?vid=4117fc55-82d1-4923-887f-6f07cca8f8ed"},"vehicle_type_id":"4","last_reported":1735229419,"current_range_meters":32400,"station_id":"ce4bhb12rcd13ifvqel0","pricing_plan_id":"cebpf4jnsgd1na2vs0mg"},{"bike_id":"99b1a51d-f858-498e-af8b-1fd360c8cfcf","system_id":"levelo_inurba_marseille","lat":43.25582,"lon":5.38234,"is_reserved":false,"is_disabled":false,"rental_uris":{"android":"levelo://app?vid=99b1a51d-f858-498e-af8b-1fd360c8cfcf","ios":"levelo://app?vid=99b1a51d-f858-498e-af8b-1fd360c8cfcf"},"vehicle_type_id":"4","last_reported":1735229419,"current_range_meters":38000,"station_id":"ce4bhih2rcd13ifvqfs0","pricing_plan_id":"cebpf4jnsgd1na2vs0mg"},{"bike_id":"4e80fb69-89fc-4bc8-b1e4-f13a99f2e910","system_id":"levelo_inurba_marseille","lat":43.28498,"lon":5.38535,"is_reserved":false,"is_disabled":false,"rental_uris":{"android":"levelo://app?vid=4e80fb69-89fc-4bc8-b1e4-f13a99f2e910","ios":"levelo://app?vid=4e80fb69-89fc-4bc8-b1e4-f13a99f2e910"},"vehicle_type_id":"4","last_reported":1735229419,"current_range_meters":37600,"station_id":"ce4bh8p2rcd13ifvqeb0","pricing_plan_id":"cebpf4jnsgd1na2vs0mg"},{"bike_id":"ec3f8186-a764-4e8c-a21b-2f9464123659","system_id":"levelo_inurba_marseille","lat":43.29243,"lon":5.36087,"is_reserved":false,"is_disabled":false,"rental_uris":{"android":"levelo://app?vid=ec3f8186-a764-4e8c-a21b-2f9464123659","ios":"levelo://app?vid=ec3f8186-a764-4e8c-a21b-2f9464123659"},"vehicle_type_id":"4","last_reported":1735229419,"current_range_meters":10800,"station_id":"ce4bhbh2rcd13ifvqeqg","pricing_plan_id":"cebpf4jnsgd1na2vs0mg"},{"bike_id":"4f0978bb-2568-4421-9860-b196c4f6425f","system_id":"levelo_inurba_marseille","lat":43.29269,"lon":5.36853,"is_reserved":false,"is_disabled":false,"rental_uris":{"android":"levelo://app?vid=4f0978bb-2568-4421-9860-b196c4f6425f","ios":"levelo://app?vid=4f0978bb-2568-4421-9860-b196c4f6425f"},"vehicle_type_id":"4","last_reported":1735229419,"current_range_meters":25200,"station_id":"ce4bhbp2rcd13ifvqesg","pricing_plan_id":"cebpf4jnsgd1na2vs0mg"},{"bike_id":"2cca7a4c-2861-4c49-80ab-3fd5edea29ec","system_id":"levelo_inurba_marseille","lat":43.29556,"lon":5.37373,"is_reserved":false,"is_disabled":false,"rental_uris":{"android":"levelo://app?vid=2cca7a4c-2861-4c49-80ab-3fd5edea29ec","ios":"levelo://app?vid=2cca7a4c-2861-4c49-80ab-3fd5edea29ec"},"vehicle_type_id":"4","last_reported":1735229419,"current_range_meters":22000,"station_id":"","pricing_plan_id":"cebpf4jnsgd1na2vs0mg"},{"bike_id":"da80f352-cec4-4197-9a76-b9ae15c4dd6e","system_id":"levelo_inurba_marseille","lat":43.30292,"lon":5.37695,"is_reserved":false,"is_disabled":false,"rental_uris":{"android":"levelo://app?vid=da80f352-cec4-4197-9a76-b9ae15c4dd6e","ios":"levelo://app?vid=da80f352-cec4-4197-9a76-b9ae15c4dd6e"},"vehicle_type_id":"4","last_reported":1735229419,"current_range_meters":36800,"station_id":"ce4bguh2rcd13ifvqcj0","pricing_plan_id":"cebpf4jnsgd1na2vs0mg"},{"bike_id":"4e7c8620-84dc-4bc7-8f9b-4ff4d2d3c951","system_id":"levelo_inurba_marseille","lat":43.27372,"lon":5.36257,"is_reserved":false,"is_disabled":false,"rental_uris":{"android":"levelo://app?vid=4e7c8620-84dc-4bc7-8f9b-4ff4d2d3c951","ios":"levelo://app?vid=4e7c8620-84dc-4bc7-8f9b-4ff4d2d3c951"},"vehicle_type_id":"4","last_reported":1735229419,"current_range_meters":35200,"station_id":"ce4bhbh2rcd13ifvqeo0","pricing_plan_id":"cebpf4jnsgd1na2vs0mg"},{"bike_id":"a450bb19-89f6-4484-a042-d7bf82f69476","system_id":"levelo_inurba_marseille","lat":43.30887,"lon":5.3718,"is_reserved":false,"is_disabled":false,"rental_uris":{"android":"levelo://app?vid=a450bb19-89f6-4484-a042-d7bf82f69476","ios":"levelo://app?vid=a450bb19-89f6-4484-a042-d7bf82f69476"},"vehicle_type_id":"4","last_reported":1735229419,"current_range_meters":38800,"station_id":"ce4bguh2rcd13ifvqckg","pricing_plan_id":"cebpf4jnsgd1na2vs0mg"},{"bike_id":"521088f6-0c53-4e84-8cbb-119456ab6846","system_id":"levelo_inurba_marseille","lat":43.30134,"lon":5.38776,"is_reserved":false,"is_disabled":false,"rental_uris":{"android":"levelo://app?vid=521088f6-0c53-4e84-8cbb-119456ab6846","ios":"levelo://app?vid=521088f6-0c53-4e84-8cbb-119456ab6846"},"vehicle_type_id":"4","last_reported":1735229419,"current_range_meters":22800,"station_id":"ce4bhoh2rcd13ifvqh6g","pricing_plan_id":"cebpf4jnsgd1na2vs0mg"},{"bike_id":"5deaa22c-231b-42aa-a015-9ebe85f20cdb","system_id":"levelo_inurba_marseille","lat":43.26556,"lon":5.37283,"is_reserved":false,"is_disabled":false,"rental_uris":{"android":"levelo://app?vid=5deaa22c-231b-42aa-a015-9ebe85f20cdb","ios":"levelo://app?vid=5deaa22c-231b-42aa-a015-9ebe85f20cdb"},"vehicle_type_id":"4","last_reported":1735229419,"current_range_meters":35200,"station_id":"ce4bhg12rcd13ifvqf70","pricing_plan_id":"cebpf4jnsgd1na2vs0mg"},{"bike_id":"11205b8c-6d2e-4974-8305-cd1c172b1103","system_id":"levelo_inurba_marseille","lat":43.23199,"lon":5.35555,"is_reserved":false,"is_disabled":false,"rental_uris":{"android":"levelo://app?vid=11205b8c-6d2e-4974-8305-cd1c172b1103","ios":"levelo://app?vid=11205b8c-6d2e-4974-8305-cd1c172b1103"},"vehicle_type_id":"4","last_reported":1735229419,"current_range_meters":37600,"station_id":"ce4bhu92rcd13ifvqi70","pricing_plan_id":"cebpf4jnsgd1na2vs0mg"},{"bike_id":"114ea62f-840b-4108-8cd1-e5edeb792239","system_id":"levelo_inurba_marseille","lat":43.28456,"lon":5.38413,"is_reserved":false,"is_disabled":false,"rental_uris":{"android":"levelo://app?vid=114ea62f-840b-4108-8cd1-e5edeb792239","ios":"levelo://app?vid=114ea62f-840b-4108-8cd1-e5edeb792239"},"vehicle_type_id":"4","last_reported":1735229419,"current_range_meters":8800,"station_id":"ce4bh512rcd13ifvqe3g","pricing_plan_id":"cebpf4jnsgd1na2vs0mg"},{"bike_id":"b0a18d06-1002-4baf-906d-b04071543c58","system_id":"levelo_inurba_marseille","lat":43.30501,"lon":5.36524,"is_reserved":false,"is_disabled":false,"rental_uris":{"android":"levelo://app?vid=b0a18d06-1002-4baf-906d-b04071543c58","ios":"levelo://app?vid=b0a18d06-1002-4baf-906d-b04071543c58"},"vehicle_type_id":"4","last_reported":1735229419,"current_range_meters":28800,"station_id":"","pricing_plan_id":"cebpf4jnsgd1na2vs0mg"},{"bike_id":"fd58f640-221e-4e0f-a64c-3c9eb37f99af","system_id":"levelo_inurba_marseille","lat":43.303,"lon":5.36901,"is_reserved":false,"is_disabled":false,"rental_uris":{"android":"levelo://app?vid=fd58f640-221e-4e0f-a64c-3c9eb37f99af","ios":"levelo://app?vid=fd58f640-221e-4e0f-a64c-3c9eb37f99af"},"vehicle_type_id":"4","last_reported":1735229419,"current_range_meters":38800,"station_id":"ce4bgqh2rcd13ifvqc5g","pricing_plan_id":"cebpf4jnsgd1na2vs0mg"},{"bike_id":"8489053c-46c5-4e78-9708-8c7f2f0c9a79","system_id":"levelo_inurba_marseille","lat":43.30598,"lon":5.39353,"is_reserved":false,"is_disabled":false,"rental_uris":{"android":"levelo://app?vid=8489053c-46c5-4e78-9708-8c7f2f0c9a79","ios":"levelo://app?vid=8489053c-46c5-4e78-9708-8c7f2f0c9a79"},"vehicle_type_id":"4","last_reported":1735229419,"current_range_meters":36800,"station_id":"ce4bh0p2rcd13ifvqd80","pricing_plan_id":"cebpf4jnsgd1na2vs0mg"},{"bike_id":"441c8311-0c47-449c-9802-2d24792eb261","system_id":"levelo_inurba_marseille","lat":43.30437,"lon":5.39753,"is_reserved":false,"is_disabled":false,"rental_uris":{"android":"levelo://app?vid=441c8311-0c47-449c-9802-2d24792eb261","ios":"levelo://app?vid=441c8311-0c47-449c-9802-2d24792eb261"},"vehicle_type_id":"4","last_reported":1735229419,"current_range_meters":38800,"station_id":"ce4bh092rcd13ifvqd20","pricing_plan_id":"cebpf4jnsgd1na2vs0mg"},{"bike_id":"74a2a451-5a23-46fc-a74d-fd1bec465276","system_id":"levelo_inurba_marseille","lat":43.30159,"lon":5.37409,"is_reserved":false,"is_disabled":false,"rental_uris":{"android":"levelo://app?vid=74a2a451-5a23-46fc-a74d-fd1bec465276","ios":"levelo://app?vid=74a2a451-5a23-46fc-a74d-fd1bec465276"},"vehicle_type_id":"4","last_reported":1735229419,"current_range_meters":17600,"station_id":"ce4bgs92rcd13ifvqcc0","pricing_plan_id":"cebpf4jnsgd1na2vs0mg"},{"bike_id":"1b732f27-a851-4d12-ac02-3b86e3dc8a61","system_id":"levelo_inurba_marseille","lat":43.26208,"lon":5.37432,"is_reserved":false,"is_disabled":false,"rental_uris":{"android":"levelo://app?vid=1b732f27-a851-4d12-ac02-3b86e3dc8a61","ios":"levelo://app?vid=1b732f27-a851-4d12-ac02-3b86e3dc8a61"},"vehicle_type_id":"4","last_reported":1735229419,"current_range_meters":26800,"station_id":"ce4bhgp2rcd13ifvqfc0","pricing_plan_id":"cebpf4jnsgd1na2vs0mg"},{"bike_id":"7b24f2f4-e3c0-4c8f-8ee1-3f46bbf2f116","system_id":"levelo_inurba_marseille","lat":43.31763,"lon":5.38998,"is_reserved":false,"is_disabled":false,"rental_uris":{"android":"levelo://app?vid=7b24f2f4-e3c0-4c8f-8ee1-3f46bbf2f116","ios":"levelo://app?vid=7b24f2f4-e3c0-4c8f-8ee1-3f46bbf2f116"},"vehicle_type_id":"4","last_reported":1735229419,"current_range_meters":38800,"station_id":"ce4bhqp2rcd13ifvqhng","pricing_plan_id":"cebpf4jnsgd1na2vs0mg"},{"bike_id":"491a606a-5a0e-411b-9789-9c74b8b5e4f2","system_id":"levelo_inurba_marseille","lat":43.25826,"lon":5.39434,"is_reserved":false,"is_disabled":false,"rental_uris":{"android":"levelo://app?vid=491a606a-5a0e-411b-9789-9c74b8b5e4f2","ios":"levelo://app?vid=491a606a-5a0e-411b-9789-9c74b8b5e4f2"},"vehicle_type_id":"4","last_reported":1735229419,"current_range_meters":38800,"station_id":"ce4bhip2rcd13ifvqft0","pricing_plan_id":"cebpf4jnsgd1na2vs0mg"},{"bike_id":"dac94ecf-3203-4c89-acc0-21c14e979588","system_id":"levelo_inurba_marseille","lat":43.26701,"lon":5.38274,"is_reserved":false,"is_disabled":false,"rental_uris":{"android":"levelo://app?vid=dac94ecf-3203-4c89-acc0-21c14e979588","ios":"levelo://app?vid=dac94ecf-3203-4c89-acc0-21c14e979588"},"vehicle_type_id":"4","last_reported":1735229419,"current_range_meters":6000,"station_id":"ce4bhg92rcd13ifvqf90","pricing_plan_id":"cebpf4jnsgd1na2vs0mg"},{"bike_id":"f0cafae0-f29d-4301-add9-cbd6aefdfe71","system_id":"levelo_inurba_marseille","lat":43.27072,"lon":5.42269,"is_reserved":false,"is_disabled":false,"rental_uris":{"android":"levelo://app?vid=f0cafae0-f29d-4301-add9-cbd6aefdfe71","ios":"levelo://app?vid=f0cafae0-f29d-4301-add9-cbd6aefdfe71"},"vehicle_type_id":"4","last_reported":1735229419,"current_range_meters":32000,"station_id":"ce4bhk92rcd13ifvqgb0","pricing_plan_id":"cebpf4jnsgd1na2vs0mg"},{"bike_id":"c4d6c87e-a64a-4f12-b2f9-100c3d544939","system_id":"levelo_inurba_marseille","lat":43.28924,"lon":5.38396,"is_reserved":false,"is_disabled":false,"rental_uris":{"android":"levelo://app?vid=c4d6c87e-a64a-4f12-b2f9-100c3d544939","ios":"levelo://app?vid=c4d6c87e-a64a-4f12-b2f9-100c3d544939"},"vehicle_type_id":"4","last_reported":1735229419,"current_range_meters":38800,"station_id":"ce4bh612rcd13ifvqe6g","pricing_plan_id":"cebpf4jnsgd1na2vs0mg"},{"bike_id":"f6161732-001f-4be6-95c2-7b80c999ea4f","system_id":"levelo_inurba_marseille","lat":43.30609,"lon":5.37205,"is_reserved":false,"is_disabled":false,"rental_uris":{"android":"levelo://app?vid=f6161732-001f-4be6-95c2-7b80c999ea4f","ios":"levelo://app?vid=f6161732-001f-4be6-95c2-7b80c999ea4f"},"vehicle_type_id":"4","last_reported":1735229419,"current_range_meters":39200,"station_id":"ce4bgqh2rcd13ifvqc4g","pricing_plan_id":"cebpf4jnsgd1na2vs0mg"},{"bike_id":"71992619-6fe8-4f76-b36b-288c95633568","system_id":"levelo_inurba_marseille","lat":43.298099,"lon":5.372715,"is_reserved":false,"is_disabled":false,"rental_uris":{"android":"levelo://app?vid=71992619-6fe8-4f76-b36b-288c95633568","ios":"levelo://app?vid=71992619-6fe8-4f76-b36b-288c95633568"},"vehicle_type_id":"4","last_reported":1735229419,"current_range_meters":8400,"station_id":"","pricing_plan_id":"cebpf4jnsgd1na2vs0mg"},{"bike_id":"d02ad9e6-a3e9-4e68-90d4-ff4e1b7f7299","system_id":"levelo_inurba_marseille","lat":43.28692,"lon":5.38678,"is_reserved":false,"is_disabled":false,"rental_uris":{"android":"levelo://app?vid=d02ad9e6-a3e9-4e68-90d4-ff4e1b7f7299","ios":"levelo://app?vid=d02ad9e6-a3e9-4e68-90d4-ff4e1b7f7299"},"vehicle_type_id":"4","last_reported":1735229419,"current_range_meters":27600,"station_id":"ce4bh492rcd13ifvqdug","pricing_plan_id":"cebpf4jnsgd1na2vs0mg"},{"bike_id":"7b1c41a3-6a2e-4420-a856-9b0139eb480b","system_id":"levelo_inurba_marseille","lat":43.27501,"lon":5.42444,"is_reserved":false,"is_disabled":true,"rental_uris":{"android":"levelo://app?vid=7b1c41a3-6a2e-4420-a856-9b0139eb480b","ios":"levelo://app?vid=7b1c41a3-6a2e-4420-a856-9b0139eb480b"},"vehicle_type_id":"4","last_reported":1735229419,"current_range_meters":0,"station_id":"ce4bhn92rcd13ifvqgrg","pricing_plan_id":"cebpf4jnsgd1na2vs0mg"},{"bike_id":"a316364b-115e-4bcd-918a-67c9f933048a","system_id":"levelo_inurba_marseille","lat":43.27996,"lon":5.40012,"is_reserved":false,"is_disabled":false,"rental_uris":{"android":"levelo://app?vid=a316364b-115e-4bcd-918a-67c9f933048a","ios":"levelo://app?vid=a316364b-115e-4bcd-918a-67c9f933048a"},"vehicle_type_id":"4","last_reported":1735229419,"current_range_meters":28000,"station_id":"ce4bho92rcd13ifvqh4g","pricing_plan_id":"cebpf4jnsgd1na2vs0mg"},{"bike_id":"012a7886-754a-458d-baaa-135571da9a55","system_id":"levelo_inurba_marseille","lat":43.337444,"lon":5.374475,"is_reserved":false,"is_disabled":false,"rental_uris":{"android":"levelo://app?vid=012a7886-754a-458d-baaa-135571da9a55","ios":"levelo://app?vid=012a7886-754a-458d-baaa-135571da9a55"},"vehicle_type_id":"4","last_reported":1735229419,"current_range_meters":18800,"station_id":"","pricing_plan_id":"cebpf4jnsgd1na2vs0mg"},