{"last_updated":1769357624,"ttl":60,"version":"2.2","data":{"bikes":[{"bike_id":"7a1b6b69-5f61-4e11-91d3-12cf02858ca8","system_id":"levelo_inurba_marseille","lat":43.24397,"lon":5.37066,"is_reserved":false,"is_disabled":false,"rental_uris":{"android":"levelo://app?vid=7a1b6b69-5f61-4e11-91d3-12cf02858ca8","ios":"levelo://app?vid=7a1b6b69-5f61-4e11-91d3-12cf02858ca8"},"vehicle_type_id":"4","last_reported":1769357625,"current_range_meters":2800,"station_id":"ce4bhhh2rcd13ifvqfk0","pricing_plan_id":"cebpf4jnsgd1na2vs0mg"},{"bike_id":"15452556-6485-4e88-9807-b934303a2400","system_id":"levelo_inurba_marseille","lat":43.30213,"lon":5.39462,"is_reserved":false,"is_disabled":false,"rental_uris":{"android":"levelo://app?vid=15452556-6485-4e88-9807-b934303a2400","ios":"levelo://app?vid=15452556-6485-4e88-9807-b934303a2400"},"vehicle_type_id":"4","last_reported":1769357625,"current_range_meters":2800,"station_id":"ce4bh0p2rcd13ifvqd70","pricing_plan_id":"cebpf4jnsgd1na2vs0mg"},{"bike_id":"7c7cc252-7f4f-4ac1-8175-44f20e46ac77","system_id":"levelo_inurba_marseille","lat":43.26743,"lon":5.4016,"is_reserved":false,"is_disabled":false,"rental_uris":{"android":"levelo://app?vid=7c7cc252-7f4f-4ac1-8175-44f20e46ac77","ios":"levelo://app?vid=7c7cc252-7f4f-4ac1-8175-44f20e46ac77"},"vehicle_type_id":"4","last_reported":1769357625,"current_range_meters":2800,"station_id":"","pricing_plan_id":"cebpf4jnsgd1na2vs0mg"},{"bike_id":"fb63610a-fe72-4b54-a4d5-a50dc0fb0118","system_id":"levelo_inurba_marseille","lat":43.24654,"lon":5.3815,"is_reserved":false,"is_disabled":false,"rental_uris":{"android":"levelo://app?vid=fb63610a-fe72-4b54-a4d5-a50dc0fb0118","ios":"levelo://app?vid=fb63610a-fe72-4b54-a4d5-a50dc0fb0118"},"vehicle_type_id":"4","last_reported":1769357625,"current_range_meters":2800,"station_id":"ce4bhih2rcd13ifvqfr0","pricing_plan_id":"cebpf4jnsgd1na2vs0mg"},{"bike_id":"89d2f176-9210-47d4-8e8a-9009973231fc","system_id":"levelo_inurba_marseille","lat":43.3132,"lon":5.36705,"is_reserved":false,"is_disabled":false,"rental_uris":{"android":"levelo://app?vid=89d2f176-9210-47d4-8e8a-9009973231fc","ios":"levelo://app?vid=89d2f176-9210-47d4-8e8a-9009973231fc"},"vehicle_type_id":"4","last_reported":1769357625,"current_range_meters":2800,"station_id":"ce4bgr92rcd13ifvqc6g","pricing_plan_id":"cebpf4jnsgd1na2vs0mg"},{"bike_id":"c6ae9e02-f2c9-425a-ac89-bd9f46b594d9","system_id":"levelo_inurba_marseille","lat":43.26062,"lon":5.394,"is_reserved":false,"is_disabled":false,"rental_uris":{"android":"levelo://app?vid=c6ae9e02-f2c9-425a-ac89-bd9f46b594d9","ios":"levelo://app?vid=c6ae9e02-f2c9-425a-ac89-bd9f46b594d9"},"vehicle_type_id":"4","last_reported":1769357625,"current_range_meters":2800,"station_id":"ce4bhh92rcd13ifvqfj0","pricing_plan_id":"cebpf4jnsgd1na2vs0mg"},{"bike_id":"46f6d162-ffca-4e57-bdbb-6f67217dd43b","system_id":"levelo_inurba_marseille","lat":43.24955,"lon":5.40475,"is_reserved":false,"is_disabled":false,"rental_uris":{"android":"levelo://app?vid=46f6d162-ffca-4e57-bdbb-6f67217dd43b","ios":"levelo://app?vid=46f6d162-ffca-4e57-bdbb-6f67217dd43b"},"vehicle_type_id":"4","last_reported":1769357625,"current_range_meters":2800,"station_id":"st_d2ngiaodas8pm72gd1h0","pricing_plan_id":"cebpf4jnsgd1na2vs0mg"},{"bike_id":"1f7084f8-912f-4a76-89b7-c64bcf535784","system_id":"levelo_inurba_marseille","lat":43.28656,"lon":5.36346,"is_reserved":false,"is_disabled":true,"rental_uris":{"android":"levelo://app?vid=1f7084f8-912f-4a76-89b7-c64bcf535784","ios":"levelo://app?vid=1f7084f8-912f-4a76-89b7-c64bcf535784"},"vehicle_type_id":"4","last_reported":1769357625,"current_range_meters":2800,"station_id":"ce4bhah2rcd13ifvqej0","pricing_plan_id":"cebpf4jnsgd1na2vs0mg"},{"bike_id":"b1b24ff6-a16a-49d4-8c80-da38825e8615","system_id":"levelo_inurba_marseille","lat":43.24391,"lon":5.370601,"is_reserved":false,"is_disabled":false,"rental_uris":{"android":"levelo://app?vid=b1b24ff6-a16a-49d4-8c80-da38825e8615","ios":"levelo://app?vid=b1b24ff6-a16a-49d4-8c80-da38825e8615"},"vehicle_type_id":"4","last_reported":1769357625,"current_range_meters":2800,"station_id":"ce4bhhh2rcd13ifvqfk0","pricing_plan_id":"cebpf4jnsgd1na2vs0mg"},{"bike_id":"b96bdbeb-b6b3-4d83-b9d0-412d01c5c9e9","system_id":"levelo_inurba_marseille","lat":43.24821,"lon":5.37445,"is_reserved":false,"is_disabled":false,"rental_uris":{"android":"levelo://app?vid=b96bdbeb-b6b3-4d83-b9d0-412d01c5c9e9","ios":"levelo://app?vid=b96bdbeb-b6b3-4d83-b9d0-412d01c5c9e9"},"vehicle_type_id":"4","last_reported":1769357625,"current_range_meters":2800,"station_id":"ce4bhgh2rcd13ifvqfb0","pricing_plan_id":"cebpf4jnsgd1na2vs0mg"},{"bike_id":"54247625-5421-4985-8cfb-4f29ba1ac252","system_id":"levelo_inurba_marseille","lat":43.31688,"lon":5.37676,"is_reserved":false,"is_disabled":false,"rental_uris":{"android":"levelo://app?vid=54247625-5421-4985-8cfb-4f29ba1ac252","ios":"levelo://app?vid=54247625-5421-4985-8cfb-4f29ba1ac252"},"vehicle_type_id":"4","last_reported":1769357625,"current_range_meters":2800,"station_id":"","pricing_plan_id":"cebpf4jnsgd1na2vs0mg"},{"bike_id":"a54b1528-f4fe-45a5-b051-2aaa46322cd1","system_id":"levelo_inurba_marseille","lat":43.31117,"lon":5.3775,"is_reserved":false,"is_disabled":false,"rental_uris":{"android":"levelo://app?vid=a54b1528-f4fe-45a5-b051-2aaa46322cd1","ios":"levelo://app?vid=a54b1528-f4fe-45a5-b051-2aaa46322cd1"},"vehicle_type_id":"4","last_reported":1769357625,"current_range_meters":2800,"station_id":"ce4bgt92rcd13ifvqcg0","pricing_plan_id":"cebpf4jnsgd1na2vs0mg"},{"bike_id":"3732e97f-1be9-4072-8f4b-539eefaf5f41","system_id":"levelo_inurba_marseille","lat":43.23145,"lon":5.4369,"is_reserved":false,"is_disabled":false,"rental_uris":{"android":"levelo://app?vid=3732e97f-1be9-4072-8f4b-539eefaf5f41","ios":"levelo://app?vid=3732e97f-1be9-4072-8f4b-539eefaf5f41"},"vehicle_type_id":"4","last_reported":1769357625,"current_range_meters":3200,"station_id":"ce4bhmp2rcd13ifvqgog","pricing_plan_id":"cebpf4jnsgd1na2vs0mg"},{"bike_id":"b3768a85-952c-4963-b142-cf72dfe9eb35","system_id":"levelo_inurba_marseille","lat":43.30594,"lon":5.39379,"is_reserved":false,"is_disabled":false,"rental_uris":{"android":"levelo://app?vid=b3768a85-952c-4963-b142-cf72dfe9eb35","ios":"levelo://app?vid=b3768a85-952c-4963-b142-cf72dfe9eb35"},"vehicle_type_id":"4","last_reported":1769357625,"current_range_meters":3200,"station_id":"ce4bh0p2rcd13ifvqd80","pricing_plan_id":"cebpf4jnsgd1na2vs0mg"},{"bike_id":"dd410bee-34e0-43f3-874f-d5f5bf47e3ee","system_id":"levelo_inurba_marseille","lat":43.25115,"lon":5.402941,"is_reserved":false,"is_disabled":false,"rental_uris":{"android":"levelo://app?vid=dd410bee-34e0-43f3-874f-d5f5bf47e3ee","ios":"levelo://app?vid=dd410bee-34e0-43f3-874f-d5f5bf47e3ee"},"vehicle_type_id":"4","last_reported":1769357625,"current_range_meters":3200,"station_id":"ce4bhlh2rcd13ifvqgig","pricing_plan_id":"cebpf4jnsgd1na2vs0mg"},{"bike_id":"695ba03e-aa60-4a16-ad44-0d1b43b21bd5","system_id":"levelo_inurba_marseille","lat":43.22581,"lon":5.41627,"is_reserved":false,"is_disabled":false,"rental_uris":{"android":"levelo://app?vid=695ba03e-aa60-4a16-ad44-0d1b43b21bd5","ios":"levelo://app?vid=695ba03e-aa60-4a16-ad44-0d1b43b21bd5"},"vehicle_type_id":"4","last_reported":1769357625,"current_range_meters":3200,"station_id":"st_d2o4gvlbi1j2169b742g","pricing_plan_id":"cebpf4jnsgd1na2vs0mg"},{"bike_id":"cec3d567-45ba-493b-896c-141aea2fa40d","system_id":"levelo_inurba_marseille","lat":43.26789,"lon":5.39408,"is_reserved":false,"is_disabled":false,"rental_uris":{"android":"levelo://app?vid=cec3d567-45ba-493b-896c-141aea2fa40d","ios":"levelo://app?vid=cec3d567-45ba-493b-896c-141aea2fa40d"},"vehicle_type_id":"4","last_reported":1769357625,"current_range_meters":3200,"station_id":"ce4bhh12rcd13ifvqfg0","pricing_plan_id":"cebpf4jnsgd1na2vs0mg"},{"bike_id":"4810fd71-a84c-4b31-8c60-58f233465606","system_id":"levelo_inurba_marseille","lat":43.29281,"lon":5.36834,"is_reserved":false,"is_disabled":false,"rental_uris":{"android":"levelo://app?vid=4810fd71-a84c-4b31-8c60-58f233465606","ios":"levelo://app?vid=4810fd71-a84c-4b31-8c60-58f233465606"},"vehicle_type_id":"4","last_reported":1769357625,"current_range_meters":3200,"station_id":"ce4bhbp2rcd13ifvqesg","pricing_plan_id":"cebpf4jnsgd1na2vs0mg"},{"bike_id":"a61d27d0-16b8-4d8d-8303-b3aea6b195a3","system_id":"levelo_inurba_marseille","lat":43.27678,"lon":5.38868,"is_reserved":false,"is_disabled":false,"rental_uris":{"android":"levelo://app?vid=a61d27d0-16b8-4d8d-8303-b3aea6b195a3","ios":"levelo://app?vid=a61d27d0-16b8-4d8d-8303-b3aea6b195a3"},"vehicle_type_id":"4","last_reported":1769357625,"current_range_meters":3200,"station_id":"ce4bhi12rcd13ifvqfo0","pricing_plan_id":"cebpf4jnsgd1na2vs0mg"},{"bike_id":"387d7740-676c-4cd2-8a5d-59752e7e6b9b","system_id":"levelo_inurba_marseille","lat":43.26381,"lon":5.41069,"is_reserved":false,"is_disabled":false,"rental_uris":{"android":"levelo://app?vid=387d7740-676c-4cd2-8a5d-59752e7e6b9b","ios":"levelo://app?vid=387d7740-676c-4cd2-8a5d-59752e7e6b9b"},"vehicle_type_id":"4","last_reported":1769357625,"current_range_meters":3200,"station_id":"st_d4e5ca6na9uc73bfl5fg","pricing_plan_id":"cebpf4jnsgd1na2vs0mg"},{"bike_id":"0ca50414-b22f-4e75-aa54-cfd808d06083","system_id":"levelo_inurba_marseille","lat":43.33117,"lon":5.37638,"is_reserved":false,"is_disabled":false,"rental_uris":{"android":"levelo://app?vid=0ca50414-b22f-4e75-aa54-cfd808d06083","ios":"levelo://app?vid=0ca50414-b22f-4e75-aa54-cfd808d06083"},"vehicle_type_id":"4","last_reported":1769357625,"current_range_meters":3200,"station_id":"","pricing_plan_id":"cebpf4jnsgd1na2vs0mg"},{"bike_id":"85072794-aec2-4704-942c-9902ef2e249d","system_id":"levelo_inurba_marseille","lat":43.297898,"lon":5.380993,"is_reserved":false,"is_disabled":false,"rental_uris":{"android":"levelo://app?vid=85072794-aec2-4704-942c-9902ef2e249d","ios":"levelo://app?vid=85072794-aec2-4704-942c-9902ef2e249d"},"vehicle_type_id":"4","last_reported":1769357625,"current_range_meters":3200,"station_id":"","pricing_plan_id":"cebpf4jnsgd1na2vs0mg"},{"bike_id":"d9e7742c-ad30-41dc-bcc6-ef3f77b1285a","system_id":"levelo_inurba_marseille","lat":43.24395,"lon":5.37062,"is_reserved":false,"is_disabled":false,"rental_uris":{"android":"levelo://app?vid=d9e7742c-ad30-41dc-bcc6-ef3f77b1285a","ios":"levelo://app?vid=d9e7742c-ad30-41dc-bcc6-ef3f77b1285a"},"vehicle_type_id":"4","last_reported":1769357625,"current_range_meters":3200,"station_id":"ce4bhhh2rcd13ifvqfk0","pricing_plan_id":"cebpf4jnsgd1na2vs0mg"},{"bike_id":"524e5c32-cc52-44d7-b75b-ed948a46ef7c","system_id":"levelo_inurba_marseille","lat":43.29216,"lon":5.36045,"is_reserved":false,"is_disabled":false,"rental_uris":{"android":"levelo://app?vid=524e5c32-cc52-44d7-b75b-ed948a46ef7c","ios":"levelo://app?vid=524e5c32-cc52-44d7-b75b-ed948a46ef7c"},"vehicle_type_id":"4","last_reported":1769357625,"current_range_meters":3200,"station_id":"ce4bhbh2rcd13ifvqeqg","pricing_plan_id":"cebpf4jnsgd1na2vs0mg"},{"bike_id":"35aa0340-ff49-4021-a825-7a285831e7ca","system_id":"levelo_inurba_marseille","lat":43.258671,"lon":5.398976,"is_reserved":false,"is_disabled":false,"rental_uris":{"android":"levelo://app?vid=35aa0340-ff49-4021-a825-7a285831e7ca","ios":"levelo://app?vid=35aa0340-ff49-4021-a825-7a285831e7ca"},"vehicle_type_id":"4","last_reported":1769357625,"current_range_meters":3200,"station_id":"ce4bhl92rcd13ifvqghg","pricing_plan_id":"cebpf4jnsgd1na2vs0mg"},{"bike_id":"29fe33eb-2f98-4a7b-878e-adcc7abb5ecb","system_id":"levelo_inurba_marseille","lat":43.30553,"lon":5.36544,"is_reserved":false,"is_disabled":false,"rental_uris":{"android":"levelo://app?vid=29fe33eb-2f98-4a7b-878e-adcc7abb5ecb","ios":"levelo://app?vid=29fe33eb-2f98-4a7b-878e-adcc7abb5ecb"},"vehicle_type_id":"4","last_reported":1769357625,"current_range_meters":3200,"station_id":"ce4bgs12rcd13ifvqcag","pricing_plan_id":"cebpf4jnsgd1na2vs0mg"},{"bike_id":"a496ebe7-ccac-4488-aaab-05e0abf8729e","system_id":"levelo_inurba_marseille","lat":43.24819,"lon":5.37447,"is_reserved":false,"is_disabled":false,"rental_uris":{"android":"levelo://app?vid=a496ebe7-ccac-4488-aaab-05e0abf8729e","ios":"levelo://app?vid=a496ebe7-ccac-4488-aaab-05e0abf8729e"},"vehicle_type_id":"4","last_reported":1769357625,"current_range_meters":3200,"station_id":"ce4bhgh2rcd13ifvqfb0","pricing_plan_id":"cebpf4jnsgd1na2vs0mg"},{"bike_id":"b1fc719e-f9d4-4bf0-aea8-36aa7ed768bd","system_id":"levelo_inurba_marseille","lat":43.28143,"lon":5.42673,"is_reserved":false,"is_disabled":false,"rental_uris":{"android":"levelo://app?vid=b1fc719e-f9d4-4bf0-aea8-36aa7ed768bd","ios":"levelo://app?vid=b1fc719e-f9d4-4bf0-aea8-36aa7ed768bd"},"vehicle_type_id":"4","last_reported":1769357625,"current_range_meters":3600,"station_id":"ce4bhnh2rcd13ifvqgug","pricing_plan_id":"cebpf4jnsgd1na2vs0mg"},{"bike_id":"d1dacd96-19ac-49d7-b852-46d6fd78088b","system_id":"levelo_inurba_marseille","lat":43.27368,"lon":5.36245,"is_reserved":false,"is_disabled":false,"rental_uris":{"android":"levelo://app?vid=d1dacd96-19ac-49d7-b852-46d6fd78088b","ios":"levelo://app?vid=d1dacd96-19ac-49d7-b852-46d6fd78088b"},"vehicle_type_id":"4","last_reported":1769357625,"current_range_meters":3600,"station_id":"ce4bhbh2rcd13ifvqeo0","pricing_plan_id":"cebpf4jnsgd1na2vs0mg"},{"bike_id":"35cb4238-cf4b-49e3-86ac-b1281b01969f","system_id":"levelo_inurba_marseille","lat":43.2991,"lon":5.3749,"is_reserved":false,"is_disabled":false,"rental_uris":{"android":"levelo://app?vid=35cb4238-cf4b-49e3-86ac-b1281b01969f","ios":"levelo://app?vid=35cb4238-cf4b-49e3-86ac-b1281b01969f"},"vehicle_type_id":"4","last_reported":1769357625,"current_range_meters":3600,"station_id":"ce4bgjh2rcd13ifvqbg0","pricing_plan_id":"cebpf4jnsgd1na2vs0mg"},{"bike_id":"377639e4-4fac-4759-af3b-e341921e8dff","system_id":"levelo_inurba_marseille","lat":43.21207,"lon":5.35055,"is_reserved":false,"is_disabled":false,"rental_uris":{"android":"levelo://app?vid=377639e4-4fac-4759-af3b-e341921e8dff","ios":"levelo://app?vid=377639e4-4fac-4759-af3b-e341921e8dff"},"vehicle_type_id":"4","last_reported":1769357625,"current_range_meters":3600,"station_id":"st_cvj6sg6p6f1abm77japg","pricing_plan_id":"cebpf4jnsgd1na2vs0mg"},{"bike_id":"63e71ea2-d067-43c9-9f87-92dd832ad4e3","system_id":"levelo_inurba_marseille","lat":43.25583,"lon":5.38227,"is_reserved":false,"is_disabled":false,"rental_uris":{"android":"levelo://app?vid=63e71ea2-d067-43c9-9f87-92dd832ad4e3","ios":"levelo://app?vid=63e71ea2-d067-43c9-9f87-92dd832ad4e3"},"vehicle_type_id":"4","last_reported":1769357625,"current_range_meters":3600,"station_id":"ce4bhih2rcd13ifvqfs0","pricing_plan_id":"cebpf4jnsgd1na2vs0mg"},{"bike_id":"e40c7cca-9b46-456c-a02c-d2fd1fbf516a","system_id":"levelo_inurba_marseille","lat":43.29514,"lon":5.39401,"is_reserved":false,"is_disabled":true,"rental_uris":{"android":"levelo://app?vid=e40c7cca-9b46-456c-a02c-d2fd1fbf516a","ios":"levelo://app?vid=e40c7cca-9b46-456c-a02c-d2fd1fbf516a"},"vehicle_type_id":"4","last_reported":1769357625,"current_range_meters":3600,"station_id":"ce4bh292rcd13ifvqdf0","pricing_plan_id":"cebpf4jnsgd1na2vs0mg"},{"bike_id":"a02f2e5a-7191-40fa-86c0-b0ed576ef2b0","system_id":"levelo_inurba_marseille","lat":43.26546,"lon":5.3728,"is_reserved":false,"is_disabled":false,"rental_uris":{"android":"levelo://app?vid=a02f2e5a-7191-40fa-86c0-b0ed576ef2b0","ios":"levelo://app?vid=a02f2e5a-7191-40fa-86c0-b0ed576ef2b0"},"vehicle_type_id":"4","last_reported":1769357625,"current_range_meters":3600,"station_id":"ce4bhg12rcd13ifvqf70","pricing_plan_id":"cebpf4jnsgd1na2vs0mg"},{"bike_id":"d23e957b-30e5-4310-998d-191d81d5f962","system_id":"levelo_inurba_marseille","lat":43.28453,"lon":5.38825,"is_reserved":false,"is_disabled":false,"rental_uris":{"android":"levelo://app?vid=d23e957b-30e5-4310-998d-191d81d5f962","ios":"levelo://app?vid=d23e957b-30e5-4310-998d-191d81d5f962"},"vehicle_type_id":"4","last_reported":1769357625,"current_range_meters":3600,"station_id":"","pricing_plan_id":"cebpf4jnsgd1na2vs0mg"},{"bike_id":"fd9b2d1b-cdfa-4bcd-a2db-0d90de0d6b64","system_id":"levelo_inurba_marseille","lat":43.23149,"lon":5.43701,"is_reserved":false,"is_disabled":false,"rental_uris":{"android":"levelo://app?vid=fd9b2d1b-cdfa-4bcd-a2db-0d90de0d6b64","ios":"levelo://app?vid=fd9b2d1b-cdfa-4bcd-a2db-0d90de0d6b64"},"vehicle_type_id":"4","last_reported":1769357625,"current_range_meters":4000,"station_id":"ce4bhmp2rcd13ifvqgog","pricing_plan_id":"cebpf4jnsgd1na2vs0mg"},{"bike_id":"2143e1a4-986a-4cdc-8446-303e90396f4e","system_id":"levelo_inurba_marseille","lat":43.297048,"lon":5.366266,"is_reserved":false,"is_disabled":false,"rental_uris":{"android":"levelo://app?vid=2143e1a4-986a-4cdc-8446-303e90396f4e","ios":"levelo://app?vid=2143e1a4-986a-4cdc-8446-303e90396f4e"},"vehicle_type_id":"4","last_reported":1769357625,"current_range_meters":4000,"station_id":"ce4bgn12rcd13ifvqbt0","pricing_plan_id":"cebpf4jnsgd1na2vs0mg"},{"bike_id":"eed94034-a43d-4007-9bec-542daeb81a58","system_id":"levelo_inurba_marseille","lat":43.23783,"lon":5.36634,"is_reserved":false,"is_disabled":false,"rental_uris":{"android":"levelo://app?vid=eed94034-a43d-4007-9bec-542daeb81a58","ios":"levelo://app?vid=eed94034-a43d-4007-9bec-542daeb81a58"},"vehicle_type_id":"4","last_reported":1769357625,"current_range_meters":4000,"station_id":"st_d3nk18o9ro0c73en2l3g","pricing_plan_id":"cebpf4jnsgd1na2vs0mg"},{"bike_id":"446c8074-6557-4bcc-ac69-5c4d7010fa02","system_id":"levelo_inurba_marseille","lat":43.305607,"lon":5.365384,"is_reserved":false,"is_disabled":false,"rental_uris":{"android":"levelo://app?vid=446c8074-6557-4bcc-ac69-5c4d7010fa02","ios":"levelo://app?vid=446c8074-6557-4bcc-ac69-5c4d7010fa02"},"vehicle_type_id":"4","last_reported":1769357625,"current_range_meters":4000,"station_id":"ce4bgs12rcd13ifvqcag","pricing_plan_id":"cebpf4jnsgd1na2vs0mg"},{"bike_id":"f5ac4918-0ec2-4761-b7b6-0929b50d8bfd","system_id":"levelo_inurba_marseille","lat":43.2848,"lon":5.48387,"is_reserved":false,"is_disabled":false,"rental_uris":{"android":"levelo://app?vid=f5ac4918-0ec2-4761-b7b6-0929b50d8bfd","ios":"levelo://app?vid=f5ac4918-0ec2-4761-b7b6-0929b50d8bfd"},"vehicle_type_id":"4","last_reported":1769357625,"current_range_meters":4000,"station_id":"st_d3svhcjqgbts73a3dn0g","pricing_plan_id":"cebpf4jnsgd1na2vs0mg"},{"bike_id":"58d2ae64-d77b-49b0-aa64-83302e76931b","system_id":"levelo_inurba_marseille","lat":43.24652,"lon":5.43115,"is_reserved":false,"is_disabled":false,"rental_uris":{"android":"levelo://app?vid=58d2ae64-d77b-49b0-aa64-83302e76931b","ios":"levelo://app?vid=58d2ae64-d77b-49b0-aa64-83302e76931b"},"vehicle_type_id":"4","last_reported":1769357625,"current_range_meters":4000,"station_id":"st_d2m6c4gdas8pm72e190g","pricing_plan_id":"cebpf4jnsgd1na2vs0mg"},{"bike_id":"808f4e53-a8b8-4744-be76-00d5bcf647cd","system_id":"levelo_inurba_marseille","lat":43.297658,"lon":5.427691,"is_reserved":false,"is_disabled":false,"rental_uris":{"android":"levelo://app?vid=808f4e53-a8b8-4744-be76-00d5bcf647cd","ios":"levelo://app?vid=808f4e53-a8b8-4744-be76-00d5bcf647cd"},"vehicle_type_id":"4","last_reported":1769357625,"current_range_meters":4000,"station_id":"st_d3md5207bmas73dh9klg","pricing_plan_id":"cebpf4jnsgd1na2vs0mg"},{"bike_id":"a646072a-fa73-4383-afeb-7969ad030c56","system_id":"levelo_inurba_marseille","lat":43.30152,"lon":5.38065,"is_reserved":false,"is_disabled":true,"rental_uris":{"android":"levelo://app?vid=a646072a-fa73-4383-afeb-7969ad030c56","ios":"levelo://app?vid=a646072a-fa73-4383-afeb-7969ad030c56"},"vehicle_type_id":"4","last_reported":1769357625,"current_range_meters":4400,"station_id":"ce4bgjp2rcd13ifvqbh0","pricing_plan_id":"cebpf4jnsgd1na2vs0mg"},{"bike_id":"7a4e3005-837e-4425-a268-ddb5f45bb9f3","system_id":"levelo_inurba_marseille","lat":43.24623,"lon":5.431,"is_reserved":false,"is_disabled":false,"rental_uris":{"android":"levelo://app?vid=7a4e3005-837e-4425-a268-ddb5f45bb9f3","ios":"levelo://app?vid=7a4e3005-837e-4425-a268-ddb5f45bb9f3"},"vehicle_type_id":"4","last_reported":1769357625,"current_range_meters":4400,"station_id":"st_d2m6c4gdas8pm72e190g","pricing_plan_id":"cebpf4jnsgd1na2vs0mg"},{"bike_id":"72a8802b-65bc-4c36-9d2b-f030b6bf5bcb","system_id":"levelo_inurba_marseille","lat":43.28689,"lon":5.3864,"is_reserved":false,"is_disabled":false,"rental_uris":{"android":"levelo://app?vid=72a8802b-65bc-4c36-9d2b-f030b6bf5bcb","ios":"levelo://app?vid=72a8802b-65bc-4c36-9d2b-f030b6bf5bcb"},"vehicle_type_id":"4","last_reported":1769357625,"current_range_meters":4400,"station_id":"ce4bh492rcd13ifvqdug","pricing_plan_id":"cebpf4jnsgd1na2vs0mg"},{"bike_id":"2762ef31-30af-4622-8a7b-f8bc59330d3d","system_id":"levelo_inurba_marseille","lat":43.30182,"lon":5.37446,"is_reserved":false,"is_disabled":false,"rental_uris":{"android":"levelo://app?vid=2762ef31-30af-4622-8a7b-f8bc59330d3d","ios":"levelo://app?vid=2762ef31-30af-4622-8a7b-f8bc59330d3d"},"vehicle_type_id":"4","last_reported":1769357625,"current_range_meters":4400,"station_id":"","pricing_plan_id":"cebpf4jnsgd1na2vs0mg"},{"bike_id":"60b6fefc-4fad-4e17-b7b7-9a9bb822d822","system_id":"levelo_inurba_marseille","lat":43.31715,"lon":5.42419,"is_reserved":false,"is_disabled":false,"rental_uris":{"android":"levelo://app?vid=60b6fefc-4fad-4e17-b7b7-9a9bb822d822","ios":"levelo://app?vid=60b6fefc-4fad-4e17-b7b7-9a9bb822d822"},"vehicle_type_id":"4","last_reported":1769357625,"current_range_meters":4400,"station_id":"ce4bhp92rcd13ifvqhbg","pricing_plan_id":"cebpf4jnsgd1na2vs0mg"},{"bike_id":"3770c2e9-8904-416b-a171-2857d4f07466","system_id":"levelo_inurba_marseille","lat":43.24394,"lon":5.37073,"is_reserved":false,"is_disabled":false,"rental_uris":{"android":"levelo://app?vid=3770c2e9-8904-416b-a171-2857d4f07466","ios":"levelo://app?vid=3770c2e9-8904-416b-a171-2857d4f07466"},"vehicle_type_id":"4","last_reported":1769357625,"current_range_meters":4400,"station_id":"ce4bhhh2rcd13ifvqfk0","pricing_plan_id":"cebpf4jnsgd1na2vs0mg"},{"bike_id":"03b61984-dac4-4ced-a986-9e849b051f6f","system_id":"levelo_inurba_marseille","lat":43.29807,"lon":5.38108,"is_reserved":false,"is_disabled":false,"rental_uris":{"android":"levelo://app?vid=03b61984-dac4-4ced-a986-9e849b051f6f","ios":"levelo://app?vid=03b61984-dac4-4ced-a986-9e849b051f6f"},"vehicle_type_id":"4","last_reported":1769357625,"current_range_meters":4400,"station_id":"ce4bgip2rcd13ifvqbb0","pricing_plan_id":"cebpf4jnsgd1na2vs0mg"},{"bike_id":"012bca97-766c-41aa-991c-65c916ac1f12","system_id":"levelo_inurba_marseille","lat":43.25497,"lon":5.37662,"is_reserved":false,"is_disabled":false,"rental_uris":{"android":"levelo://app?vid=012bca97-766c-41aa-991c-65c916ac1f12","ios":"levelo://app?vid=012bca97-766c-41aa-991c-65c916ac1f12"},"vehicle_type_id":"4","last_reported":1769357625,"current_range_meters":4400,"station_id":"ce4bhh12rcd13ifvqff0","pricing_plan_id":"cebpf4jnsgd1na2vs0mg"},{"bike_id":"b04e7884-8213-43f7-8e3e-177d9f63fddf","system_id":"levelo_inurba_marseille","lat":43.28686,"lon":5.38652,"is_reserved":false,"is_disabled":false,"rental_uris":{"android":"levelo://app?vid=b04e7884-8213-43f7-8e3e-177d9f63fddf","ios":"levelo://app?vid=b04e7884-8213-43f7-8e3e-177d9f63fddf"},"vehicle_type_id":"4","last_reported":1769357625,"current_range_meters":4400,"station_id":"ce4bh492rcd13ifvqdug","pricing_plan_id":"cebpf4jnsgd1na2vs0mg"},{"bike_id":"9f7221d5-be36-4fa3-8c8c-be7fcbca1599","system_id":"levelo_inurba_marseille","lat":43.27392,"lon":5.36255,"is_reserved":false,"is_disabled":false,"rental_uris":{"android":"levelo://app?vid=9f7221d5-be36-4fa3-8c8c-be7fcbca1599","ios":"levelo://app?vid=9f7221d5-be36-4fa3-8c8c-be7fcbca1599"},"vehicle_type_id":"4","last_reported":1769357625,"current_range_meters":4400,"station_id":"ce4bhbh2rcd13ifvqeo0","pricing_plan_id":"cebpf4jnsgd1na2vs0mg"},{"bike_id":"262ecccb-dd05-4ff1-b38f-caeafc2621e2","system_id":"levelo_inurba_marseille","lat":43.2176,"lon":5.346,"is_reserved":false,"is_disabled":false,"rental_uris":{"android":"levelo://app?vid=262ecccb-dd05-4ff1-b38f-caeafc2621e2","ios":"levelo://app?vid=262ecccb-dd05-4ff1-b38f-caeafc2621e2"},"vehicle_type_id":"4","last_reported":1769357625,"current_range_meters":4400,"station_id":"st_cvj6r9ubvosntc0bgbag","pricing_plan_id":"cebpf4jnsgd1na2vs0mg"},{"bike_id":"d29df1d1-37d2-4810-a67d-1ac252fcb4e8","system_id":"levelo_inurba_marseille","lat":43.2418,"lon":5.36406,"is_reserved":false,"is_disabled":false,"rental_uris":{"android":"levelo://app?vid=d29df1d1-37d2-4810-a67d-1ac252fcb4e8","ios":"levelo://app?vid=d29df1d1-37d2-4810-a67d-1ac252fcb4e8"},"vehicle_type_id":"4","last_reported":1769357625,"current_range_meters":4400,"station_id":"cpo36qri1sfpv3e86is0","pricing_plan_id":"cebpf4jnsgd1na2vs0mg"},{"bike_id":"ba883ae6-41d0-430b-b2c5-fa8f015c672b","system_id":"levelo_inurba_marseille","lat":43.30479,"lon":5.41041,"is_reserved":false,"is_disabled":false,"rental_uris":{"android":"levelo://app?vid=ba883ae6-41d0-430b-b2c5-fa8f015c672b","ios":"levelo://app?vid=ba883ae6-41d0-430b-b2c5-fa8f015c672b"},"vehicle_type_id":"4","last_reported":1769357625,"current_range_meters":4400,"station_id":"","pricing_plan_id":"cebpf4jnsgd1na2vs0mg"},{"bike_id":"e46d8a17-af5a-42e0-b036-cb3c86080336","system_id":"levelo_inurba_marseille","lat":43.24483,"lon":5.42532,"is_reserved":false,"is_disabled":false,"rental_uris":{"android":"levelo://app?vid=e46d8a17-af5a-42e0-b036-cb3c86080336","ios":"levelo://app?vid=e46d8a17-af5a-42e0-b036-cb3c86080336"},"vehicle_type_id":"4","last_reported":1769357625,"current_range_meters":4800,"station_id":"st_d4a3vfp97mjs738cd8kg","pricing_plan_id":"cebpf4jnsgd1na2vs0mg"},{"bike_id":"48f40c82-bbad-4ae0-9613-f836906f3c71","system_id":"levelo_inurba_marseille","lat":43.28114,"lon":5.43176,"is_reserved":false,"is_disabled":false,"rental_uris":{"android":"levelo://app?vid=48f40c82-bbad-4ae0-9613-f836906f3c71","ios":"levelo://app?vid=48f40c82-bbad-4ae0-9613-f836906f3c71"},"vehicle_type_id":"4","last_reported":1769357625,"current_range_meters":4800,"station_id":"","pricing_plan_id":"cebpf4jnsgd1na2vs0mg"},{"bike_id":"c8f043c8-a1cd-4533-8ac5-09a3aac34519","system_id":"levelo_inurba_marseille","lat":43.2657,"lon":5.37271,"is_reserved":false,"is_disabled":false,"rental_uris":{"android":"levelo://app?vid=c8f043c8-a1cd-4533-8ac5-09a3aac34519","ios":"levelo://app?vid=c8f043c8-a1cd-4533-8ac5-09a3aac34519"},"vehicle_type_id":"4","last_reported":1769357625,"current_range_meters":4800,"station_id":"ce4bhg12rcd13ifvqf70","pricing_plan_id":"cebpf4jnsgd1na2vs0mg"},{"bike_id":"3018bd0f-1eb9-47af-8fda-422f2be35d9a","system_id":"levelo_inurba_marseille","lat":43.211936,"lon":5.350738,"is_reserved":false,"is_disabled":false,"rental_uris":{"android":"levelo://app?vid=3018bd0f-1eb9-47af-8fda-422f2be35d9a","ios":"levelo://app?vid=3018bd0f-1eb9-47af-8fda-422f2be35d9a"},"vehicle_type_id":"4","last_reported":1769357625,"current_range_meters":4800,"station_id":"st_cvj6sg6p6f1abm77japg","pricing_plan_id":"cebpf4jnsgd1na2vs0mg"},{"bike_id":"090d68fd-b8f6-42aa-a688-f39ed4d39c2d","system_id":"levelo_inurba_marseille","lat":43.22568,"lon":5.41632,"is_reserved":false,"is_disabled":false,"rental_uris":{"android":"levelo://app?vid=090d68fd-b8f6-42aa-a688-f39ed4d39c2d","ios":"levelo://app?vid=090d68fd-b8f6-42aa-a688-f39ed4d39c2d"},"vehicle_type_id":"4","last_reported":1769357625,"current_range_meters":4800,"station_id":"st_d2o4gvlbi1j2169b742g","pricing_plan_id":"cebpf4jnsgd1na2vs0mg"},{"bike_id":"a5c23cb4-437e-48b1-b139-2ef4a50607e4","system_id":"levelo_inurba_marseille","lat":43.295712,"lon":5.3752,"is_reserved":false,"is_disabled":false,"rental_uris":{"android":"levelo://app?vid=a5c23cb4-437e-48b1-b139-2ef4a50607e4","ios":"levelo://app?vid=a5c23cb4-437e-48b1-b139-2ef4a50607e4"},"vehicle_type_id":"4","last_reported":1769357625,"current_range_meters":4800,"station_id":"","pricing_plan_id":"cebpf4jnsgd1na2vs0mg"},{"bike_id":"7629252c-156a-4bf1-863c-32eb0412afe3","system_id":"levelo_inurba_marseille","lat":43.28263,"lon":5.3508,"is_reserved":false,"is_disabled":false,"rental_uris":{"android":"levelo://app?vid=7629252c-156a-4bf1-863c-32eb0412afe3","ios":"levelo://app?vid=7629252c-156a-4bf1-863c-32eb0412afe3"},"vehicle_type_id":"4","last_reported":1769357625,"current_range_meters":4800,"station_id":"ce4bhbp2rcd13ifvqerg","pricing_plan_id":"cebpf4jnsgd1na2vs0mg"},{"bike_id":"627484a0-96e5-46ea-8b11-4a9f09e54be7","system_id":"levelo_inurba_marseille","lat":43.2435,"lon":5.3705,"is_reserved":false,"is_disabled":false,"rental_uris":{"android":"levelo://app?vid=627484a0-96e5-46ea-8b11-4a9f09e54be7","ios":"levelo://app?vid=627484a0-96e5-46ea-8b11-4a9f09e54be7"},"vehicle_type_id":"4","last_reported":1769357625,"current_range_meters":4800,"station_id":"ce4bhhh2rcd13ifvqfk0","pricing_plan_id":"cebpf4jnsgd1na2vs0mg"},{"bike_id":"f277f11d-2e0a-416e-bf4a-2ee655d9464c","system_id":"levelo_inurba_marseille","lat":43.29529,"lon":5.39397,"is_reserved":false,"is_disabled":false,"rental_uris":{"android":"levelo://app?vid=f277f11d-2e0a-416e-bf4a-2ee655d9464c","ios":"levelo://app?vid=f277f11d-2e0a-416e-bf4a-2ee655d9464c"},"vehicle_type_id":"4","last_reported":1769357625,"current_range_meters":4800,"station_id":"ce4bh292rcd13ifvqdf0","pricing_plan_id":"cebpf4jnsgd1na2vs0mg"},{"bike_id":"ad0c68ff-1b4b-4539-86bb-575a390e84ff","system_id":"levelo_inurba_marseille","lat":43.22936,"lon":5.35365,"is_reserved":false,"is_disabled":false,"rental_uris":{"android":"levelo://app?vid=ad0c68ff-1b4b-4539-86bb-575a390e84ff","ios":"levelo://app?vid=ad0c68ff-1b4b-4539-86bb-575a390e84ff"},"vehicle_type_id":"4","last_reported":1769357625,"current_range_meters":4800,"station_id":"cpo3532slgdg3j2ikp40","pricing_plan_id":"cebpf4jnsgd1na2vs0mg"},{"bike_id":"df4a0462-e4e4-4ed8-b26b-50628d43d8dd","system_id":"levelo_inurba_marseille","lat":43.3105,"lon":5.37175,"is_reserved":false,"is_disabled":false,"rental_uris":{"android":"levelo://app?vid=df4a0462-e4e4-4ed8-b26b-50628d43d8dd","ios":"levelo://app?vid=df4a0462-e4e4-4ed8-b26b-50628d43d8dd"},"vehicle_type_id":"4","last_reported":1769357625,"current_range_meters":4800,"station_id":"st_d4kl2rp97mjs73e7tdfg","pricing_plan_id":"cebpf4jnsgd1na2vs0mg"},{"bike_id":"fb8b8022-f7ec-4a21-afb5-2574fcaf2f7b","system_id":"levelo_inurba_marseille","lat":43.31376,"lon":5.38483,"is_reserved":false,"is_disabled":false,"rental_uris":{"android":"levelo://app?vid=fb8b8022-f7ec-4a21-afb5-2574fcaf2f7b","ios":"levelo://app?vid=fb8b8022-f7ec-4a21-afb5-2574fcaf2f7b"},"vehicle_type_id":"4","last_reported":1769357625,"current_range_meters":5600,"station_id":"ce4bgt92rcd13ifvqcf0","pricing_plan_id":"cebpf4jnsgd1na2vs0mg"},{"bike_id":"e6236211-7997-47fe-8339-bd605e5c0a1a","system_id":"levelo_inurba_marseille","lat":43.29909,"lon":5.38137,"is_reserved":false,"is_disabled":false,"rental_uris":{"android":"levelo://app?vid=e6236211-7997-47fe-8339-bd605e5c0a1a","ios":"levelo://app?vid=e6236211-7997-47fe-8339-bd605e5c0a1a"},"vehicle_type_id":"4","last_reported":1769357625,"current_range_meters":5600,"station_id":"ce4bgj12rcd13ifvqbc0","pricing_plan_id":"cebpf4jnsgd1na2vs0mg"},{"bike_id":"104053da-3b96-42a0-93f4-03a3bdb1e06f","system_id":"levelo_inurba_marseille","lat":43.232,"lon":5.35546,"is_reserved":false,"is_disabled":false,"rental_uris":{"android":"levelo://app?vid=104053da-3b96-42a0-93f4-03a3bdb1e06f","ios":"levelo://app?vid=104053da-3b96-42a0-93f4-03a3bdb1e06f"},"vehicle_type_id":"4","last_reported":1769357625,"current_range_meters":5600,"station_id":"ce4bhu92rcd13ifvqi70","pricing_plan_id":"cebpf4jnsgd1na2vs0mg"},{"bike_id":"93ab0b09-3788-4ed0-9e09-5a2c1171d432","system_id":"levelo_inurba_marseille","lat":43.295837,"lon":5.367393,"is_reserved":false,"is_disabled":false,"rental_uris":{"android":"levelo://app?vid=93ab0b09-3788-4ed0-9e09-5a2c1171d432","ios":"levelo://app?vid=93ab0b09-3788-4ed0-9e09-5a2c1171d432"},"vehicle_type_id":"4","last_reported":1769357625,"current_range_meters":5600,"station_id":"ce4bgph2rcd13ifvqc2g","pricing_plan_id":"cebpf4jnsgd1na2vs0mg"},{"bike_id":"6ebd8131-5347-4093-8c87-e0c7d5276e14","system_id":"levelo_inurba_marseille","lat":43.22559,"lon":5.41627,"is_reserved":false,"is_disabled":false,"rental_uris":{"android":"levelo://app?vid=6ebd8131-5347-4093-8c87-e0c7d5276e14","ios":"levelo://app?vid=6ebd8131-5347-4093-8c87-e0c7d5276e14"},"vehicle_type_id":"4","last_reported":1769357625,"current_range_meters":5600,"station_id":"st_d2o4gvlbi1j2169b742g","pricing_plan_id":"cebpf4jnsgd1na2vs0mg"},{"bike_id":"c95e6f4f-dea5-4c8f-900f-ccf591c989cb","system_id":"levelo_inurba_marseille","lat":43.25844,"lon":5.39428,"is_reserved":false,"is_disabled":false,"rental_uris":{"android":"levelo://app?vid=c95e6f4f-dea5-4c8f-900f-ccf591c989cb","ios":"levelo://app?vid=c95e6f4f-dea5-4c8f-900f-ccf591c989cb"},"vehicle_type_id":"4","last_reported":1769357625,"current_range_meters":5600,"station_id":"ce4bhip2rcd13ifvqft0","pricing_plan_id":"cebpf4jnsgd1na2vs0mg"},{"bike_id":"7fbd08ac-4873-40ce-8348-00e50d4fd738","system_id":"levelo_inurba_marseille","lat":43.272,"lon":5.41008,"is_reserved":false,"is_disabled":false,"rental_uris":{"android":"levelo://app?vid=7fbd08ac-4873-40ce-8348-00e50d4fd738","ios":"levelo://app?vid=7fbd08ac-4873-40ce-8348-00e50d4fd738"},"vehicle_type_id":"4","last_reported":1769357625,"current_range_meters":5600,"station_id":"ce4bhl12rcd13ifvqgf0","pricing_plan_id":"cebpf4jnsgd1na2vs0mg"},{"bike_id":"b18b7c7b-dbe2-44bf-813a-828aad8a41bb","system_id":"levelo_inurba_marseille","lat":43.28264,"lon":5.35042,"is_reserved":false,"is_disabled":false,"rental_uris":{"android":"levelo://app?vid=b18b7c7b-dbe2-44bf-813a-828aad8a41bb","ios":"levelo://app?vid=b18b7c7b-dbe2-44bf-813a-828aad8a41bb"},"vehicle_type_id":"4","last_reported":1769357625,"current_range_meters":5600,"station_id":"","pricing_plan_id":"cebpf4jnsgd1na2vs0mg"},{"bike_id":"531078e9-e6ae-426d-a507-48f287cdb17b","system_id":"levelo_inurba_marseille","lat":43.24668,"lon":5.38148,"is_reserved":false,"is_disabled":false,"rental_uris":{"android":"levelo://app?vid=531078e9-e6ae-426d-a507-48f287cdb17b","ios":"levelo://app?vid=531078e9-e6ae-426d-a507-48f287cdb17b"},"vehicle_type_id":"4","last_reported":1769357625,"current_range_meters":5600,"station_id":"ce4bhih2rcd13ifvqfr0","pricing_plan_id":"cebpf4jnsgd1na2vs0mg"},{"bike_id":"cf07d78c-e8c8-4728-bda7-cf372d96cebb","system_id":"levelo_inurba_marseille","lat":43.225324,"lon":5.34835,"is_reserved":false,"is_disabled":false,"rental_uris":{"android":"levelo://app?vid=cf07d78c-e8c8-4728-bda7-cf372d96cebb","ios":"levelo://app?vid=cf07d78c-e8c8-4728-bda7-cf372d96cebb"},"vehicle_type_id":"4","last_reported":1769357625,"current_range_meters":5600,"station_id":"","pricing_plan_id":"cebpf4jnsgd1na2vs0mg"},{"bike_id":"a0c33308-b90a-484c-a006-c19b20a52375","system_id":"levelo_inurba_marseille","lat":43.26214,"lon":5.4044,"is_reserved":false,"is_disabled":false,"rental_uris":{"android":"levelo://app?vid=a0c33308-b90a-484c-a006-c19b20a52375","ios":"levelo://app?vid=a0c33308-b90a-484c-a006-c19b20a52375"},"vehicle_type_id":"4","last_reported":1769357625,"current_range_meters":5600,"station_id":"ce4bhmh2rcd13ifvqgmg","pricing_plan_id":"cebpf4jnsgd1na2vs0mg"},{"bike_id":"e13f6a8e-86e8-477b-b542-d255367d7e2b","system_id":"levelo_inurba_marseille","lat":43.24063,"lon":5.37723,"is_reserved":false,"is_disabled":false,"rental_uris":{"android":"levelo://app?vid=e13f6a8e-86e8-477b-b542-d255367d7e2b","ios":"levelo://app?vid=e13f6a8e-86e8-477b-b542-d255367d7e2b"},"vehicle_type_id":"4","last_reported":1769357625,"current_range_meters":5600,"station_id":"ce4bhnp2rcd13ifvqgvg","pricing_plan_id":"cebpf4jnsgd1na2vs0mg"},{"bike_id":"711b6451-3b81-4dd2-8591-37e710d5b943","system_id":"levelo_inurba_marseille","lat":43.28474,"lon":5.48399,"is_reserved":false,"is_disabled":false,"rental_uris":{"android":"levelo://app?vid=711b6451-3b81-4dd2-8591-37e710d5b943","ios":"levelo://app?vid=711b6451-3b81-4dd2-8591-37e710d5b943"},"vehicle_type_id":"4","last_reported":1769357625,"current_range_meters":5600,"station_id":"","pricing_plan_id":"cebpf4jnsgd1na2vs0mg"},{"bike_id":"45ce9adf-9f3f-4b86-87a0-c5564feb0027","system_id":"levelo_inurba_marseille","lat":43.31125,"lon":5.37762,"is_reserved":false,"is_disabled":false,"rental_uris":{"android":"levelo://app?vid=45ce9adf-9f3f-4b86-87a0-c5564feb0027","ios":"levelo://app?vid=45ce9adf-9f3f-4b86-87a0-c5564feb0027"},"vehicle_type_id":"4","last_reported":1769357625,"current_range_meters":5600,"station_id":"ce4bgt92rcd13ifvqcg0","pricing_plan_id":"cebpf4jnsgd1na2vs0mg"},{"bike_id":"1906cfd6-0491-4f4c-8803-1bc14c902586","system_id":"levelo_inurba_marseille","lat":43.287247,"lon":5.360737,"is_reserved":false,"is_disabled":false,"rental_uris":{"android":"levelo://app?vid=1906cfd6-0491-4f4c-8803-1bc14c902586","ios":"levelo://app?vid=1906cfd6-0491-4f4c-8803-1bc14c902586"},"vehicle_type_id":"4","last_reported":1769357625,"current_range_meters":5600,"station_id":"cki0cbj6b192h4jlfktg","pricing_plan_id":"cebpf4jnsgd1na2vs0mg"},{"bike_id":"b63362d9-5612-4ee2-9f31-83089fb30059","system_id":"levelo_inurba_marseille","lat":43.299817,"lon":5.371799,"is_reserved":false,"is_disabled":false,"rental_uris":{"android":"levelo://app?vid=b63362d9-5612-4ee2-9f31-83089fb30059","ios":"levelo://app?vid=b63362d9-5612-4ee2-9f31-83089fb30059"},"vehicle_type_id":"4","last_reported":1769357625,"current_range_meters":5600,"station_id":"ce4bgr92rcd13ifvqc7g","pricing_plan_id":"cebpf4jnsgd1na2vs0mg"},{"bike_id":"7fd9d486-b7b6-4435-aa48-2f18282f67d1","system_id":"levelo_inurba_marseille","lat":43.29618,"lon":5.37712,"is_reserved":false,"is_disabled":false,"rental_uris":{"android":"levelo://app?vid=7fd9d486-b7b6-4435-aa48-2f18282f67d1","ios":"levelo://app?vid=7fd9d486-b7b6-4435-aa48-2f18282f67d1"},"vehicle_type_id":"4","last_reported":1769357625,"current_range_meters":5600,"station_id":"ce4bgi92rcd13ifvqb90","pricing_plan_id":"cebpf4jnsgd1na2vs0mg"},{"bike_id":"3ac31546-aa7b-41f3-973e-d2564447229a","system_id":"levelo_inurba_marseille","lat":43.296151,"lon":5.377011,"is_reserved":false,"is_disabled":false,"rental_uris":{"android":"levelo://app?vid=3ac31546-aa7b-41f3-973e-d2564447229a","ios":"levelo://app?vid=3ac31546-aa7b-41f3-973e-d2564447229a"},"vehicle_type_id":"4","last_reported":1769357625,"current_range_meters":6000,"station_id":"ce4bgi92rcd13ifvqb90","pricing_plan_id":"cebpf4jnsgd1na2vs0mg"},{"bike_id":"5e28a5e5-f567-4c36-b67f-acdca97b38cf","system_id":"levelo_inurba_marseille","lat":43.27811,"lon":5.40716,"is_reserved":false,"is_disabled":false,"rental_uris":{"android":"levelo://app?vid=5e28a5e5-f567-4c36-b67f-acdca97b38cf","ios":"levelo://app?vid=5e28a5e5-f567-4c36-b67f-acdca97b38cf"},"vehicle_type_id":"4","last_reported":1769357625,"current_range_meters":6000,"station_id":"ce4bhnh2rcd13ifvqgtg","pricing_plan_id":"cebpf4jnsgd1na2vs0mg"},{"bike_id":"f8d6a6e0-1d68-4650-a94d-f633bf8c4370","system_id":"levelo_inurba_marseille","lat":43.23796,"lon":5.36621,"is_reserved":false,"is_disabled":false,"rental_uris":{"android":"levelo://app?vid=f8d6a6e0-1d68-4650-a94d-f633bf8c4370","ios":"levelo://app?vid=f8d6a6e0-1d68-4650-a94d-f633bf8c4370"},"vehicle_type_id":"4","last_reported":1769357625,"current_range_meters":6000,"station_id":"st_d3nk18o9ro0c73en2l3g","pricing_plan_id":"cebpf4jnsgd1na2vs0mg"},{"bike_id":"3280b8e4-10d6-4ed2-b323-4ba5cc066069","system_id":"levelo_inurba_marseille","lat":43.26228,"lon":5.37421,"is_reserved":false,"is_disabled":false,"rental_uris":{"android":"levelo://app?vid=3280b8e4-10d6-4ed2-b323-4ba5cc066069","ios":"levelo://app?vid=3280b8e4-10d6-4ed2-b323-4ba5cc066069"},"vehicle_type_id":"4","last_reported":1769357625,"current_range_meters":6000,"station_id":"","pricing_plan_id":"cebpf4jnsgd1na2vs0mg"},{"bike_id":"e07e68dd-c898-432c-ba3f-2dae4d6b1eb0","system_id":"levelo_inurba_marseille","lat":43.2606,"lon":5.39393,"is_reserved":false,"is_disabled":false,"rental_uris":{"android":"levelo://app?vid=e07e68dd-c898-432c-ba3f-2dae4d6b1eb0","ios":"levelo://app?vid=e07e68dd-c898-432c-ba3f-2dae4d6b1eb0"},"vehicle_type_id":"4","last_reported":1769357625,"current_range_meters":6000,"station_id":"ce4bhh92rcd13ifvqfj0","pricing_plan_id":"cebpf4jnsgd1na2vs0mg"},{"bike_id":"3235332e-62b7-4af0-86cc-1c50d37c92c8","system_id":"levelo_inurba_marseille","lat":43.29577,"lon":5.37519,"is_reserved":false,"is_disabled":false,"rental_uris":{"android":"levelo://app?vid=3235332e-62b7-4af0-86cc-1c50d37c92c8","ios":"levelo://app?vid=3235332e-62b7-4af0-86cc-1c50d37c92c8"},"vehicle_type_id":"4","last_reported":1769357625,"current_range_meters":6000,"station_id":"ce4bgh92rcd13ifvqb50","pricing_plan_id":"cebpf4jnsgd1na2vs0mg"},{"bike_id":"516bc6f5-cefa-49ed-9200-40b0ccd2b2a8","system_id":"levelo_inurba_marseille","lat":43.31485,"lon":5.37308,"is_reserved":false,"is_disabled":false,"rental_uris":{"android":"levelo://app?vid=516bc6f5-cefa-49ed-9200-40b0ccd2b2a8","ios":"levelo://app?vid=516bc6f5-cefa-49ed-9200-40b0ccd2b2a8"},"vehicle_type_id":"4","last_reported":1769357625,"current_range_meters":6000,"station_id":"ce4bgt12rcd13ifvqcd0","pricing_plan_id":"cebpf4jnsgd1na2vs0mg"},{"bike_id":"30154970-94c6-4a36-ac5d-d02ce2b1d0c4","system_id":"levelo_inurba_marseille","lat":43.244719,"lon":5.42539,"is_reserved":false,"is_disabled":false,"rental_uris":{"android":"levelo://app?vid=30154970-94c6-4a36-ac5d-d02ce2b1d0c4","ios":"levelo://app?vid=30154970-94c6-4a36-ac5d-d02ce2b1d0c4"},"vehicle_type_id":"4","last_reported":1769357625,"current_range_meters":6000,"station_id":"st_d4a3vfp97mjs738cd8kg","pricing_plan_id":"cebpf4jnsgd1na2vs0mg"},{"bike_id":"af2642a2-396d-4f56-af4e-4fe2d802b51e","system_id":"levelo_inurba_marseille","lat":43.31226,"lon":5.4027,"is_reserved":false,"is_disabled":false,"rental_uris":{"android":"levelo://app?vid=af2642a2-396d-4f56-af4e-4fe2d802b51e","ios":"levelo://app?vid=af2642a2-396d-4f56-af4e-4fe2d802b51e"},"vehicle_type_id":"4","last_reported":1769357625,"current_range_meters":6000,"station_id":"","pricing_plan_id":"cebpf4jnsgd1na2vs0mg"},{"bike_id":"e336a442-3795-46b7-b3aa-60feff443ec2","system_id":"levelo_inurba_marseille","lat":43.25114,"lon":5.40323,"is_reserved":false,"is_disabled":true,"rental_uris":{"android":"levelo://app?vid=e336a442-3795-46b7-b3aa-60feff443ec2","ios":"levelo://app?vid=e336a442-3795-46b7-b3aa-60feff443ec2"},"vehicle_type_id":"4","last_reported":1769357625,"current_range_meters":6000,"station_id":"ce4bhlh2rcd13ifvqgig","pricing_plan_id":"cebpf4jnsgd1na2vs0mg"},{"bike_id":"2183c868-18bc-43ee-94a6-b4cdb3d84f43","system_id":"levelo_inurba_marseille","lat":43.2903,"lon":5.38121,"is_reserved":false,"is_disabled":true,"rental_uris":{"android":"levelo://app?vid=2183c868-18bc-43ee-94a6-b4cdb3d84f43","ios":"levelo://app?vid=2183c868-18bc-43ee-94a6-b4cdb3d84f43"},"vehicle_type_id":"4","last_reported":1769357625,"current_range_meters":6000,"station_id":"ce4bh4p2rcd13ifvqe1g","pricing_plan_id":"cebpf4jnsgd1na2vs0mg"},{"bike_id":"dd369fb3-6a29-4c8b-9c32-c4dbeada70f4","system_id":"levelo_inurba_marseille","lat":43.22547,"lon":5.41642,"is_reserved":false,"is_disabled":false,"rental_uris":{"android":"levelo://app?vid=dd369fb3-6a29-4c8b-9c32-c4dbeada70f4","ios":"levelo://app?vid=dd369fb3-6a29-4c8b-9c32-c4dbeada70f4"},"vehicle_type_id":"4","last_reported":1769357625,"current_range_meters":6000,"station_id":"st_d2o4gvlbi1j2169b742g","pricing_plan_id":"cebpf4jnsgd1na2vs0mg"},{"bike_id":"4b61dc4d-18dc-4d4f-89ba-f3d6dd7633e1","system_id":"levelo_inurba_marseille","lat":43.23145,"lon":5.43714,"is_reserved":false,"is_disabled":false,"rental_uris":{"android":"levelo://app?vid=4b61dc4d-18dc-4d4f-89ba-f3d6dd7633e1","ios":"levelo://app?vid=4b61dc4d-18dc-4d4f-89ba-f3d6dd7633e1"},"vehicle_type_id":"4","last_reported":1769357625,"current_range_meters":6000,"station_id":"ce4bhmp2rcd13ifvqgog","pricing_plan_id":"cebpf4jnsgd1na2vs0mg"},{"bike_id":"daa5a134-e210-441e-8f8a-a2d3f2f2bbfd","system_id":"levelo_inurba_marseille","lat":43.2979,"lon":5.3809,"is_reserved":false,"is_disabled":false,"rental_uris":{"android":"levelo://app?vid=daa5a134-e210-441e-8f8a-a2d3f2f2bbfd","ios":"levelo://app?vid=daa5a134-e210-441e-8f8a-a2d3f2f2bbfd"},"vehicle_type_id":"4","last_reported":1769357625,"current_range_meters":6000,"station_id":"ce4bgip2rcd13ifvqbb0","pricing_plan_id":"cebpf4jnsgd1na2vs0mg"},{"bike_id":"07209bfa-cb39-47f8-aa05-b962ff8efecd","system_id":"levelo_inurba_marseille","lat":43.26562,"lon":5.39007,"is_reserved":false,"is_disabled":false,"rental_uris":{"android":"levelo://app?vid=07209bfa-cb39-47f8-aa05-b962ff8efecd","ios":"levelo://app?vid=07209bfa-cb39-47f8-aa05-b962ff8efecd"},"vehicle_type_id":"4","last_reported":1769357625,"current_range_meters":6400,"station_id":"ce4bhe12rcd13ifvqf30","pricing_plan_id":"cebpf4jnsgd1na2vs0mg"},{"bike_id":"78d0833c-00f3-4da5-b926-a39f1e6d1de1","system_id":"levelo_inurba_marseille","lat":43.27619,"lon":5.36107,"is_reserved":false,"is_disabled":false,"rental_uris":{"android":"levelo://app?vid=78d0833c-00f3-4da5-b926-a39f1e6d1de1","ios":"levelo://app?vid=78d0833c-00f3-4da5-b926-a39f1e6d1de1"},"vehicle_type_id":"4","last_reported":1769357625,"current_range_meters":6400,"station_id":"ce4bgj92rcd13ifvqbe0","pricing_plan_id":"cebpf4jnsgd1na2vs0mg"},{"bike_id":"8d6d8bb4-7f8c-4d88-9ca1-3482e7346b79","system_id":"levelo_inurba_marseille","lat":43.30814,"lon":5.38151,"is_reserved":false,"is_disabled":false,"rental_uris":{"android":"levelo://app?vid=8d6d8bb4-7f8c-4d88-9ca1-3482e7346b79","ios":"levelo://app?vid=8d6d8bb4-7f8c-4d88-9ca1-3482e7346b79"},"vehicle_type_id":"4","last_reported":1769357625,"current_range_meters":6400,"station_id":"ce4bgt12rcd13ifvqce0","pricing_plan_id":"cebpf4jnsgd1na2vs0mg"},{"bike_id":"45f2dae3-47ea-42d1-b786-fb73f88efb15","system_id":"levelo_inurba_marseille","lat":43.26779,"lon":5.39419,"is_reserved":false,"is_disabled":false,"rental_uris":{"android":"levelo://app?vid=45f2dae3-47ea-42d1-b786-fb73f88efb15","ios":"levelo://app?vid=45f2dae3-47ea-42d1-b786-fb73f88efb15"},"vehicle_type_id":"4","last_reported":1769357625,"current_range_meters":6400,"station_id":"ce4bhh12rcd13ifvqfg0","pricing_plan_id":"cebpf4jnsgd1na2vs0mg"},{"bike_id":"dfd6e247-5919-4a9a-abee-4100f8c1e094","system_id":"levelo_inurba_marseille","lat":43.2901,"lon":5.35615,"is_reserved":false,"is_disabled":false,"rental_uris":{"android":"levelo://app?vid=dfd6e247-5919-4a9a-abee-4100f8c1e094","ios":"levelo://app?vid=dfd6e247-5919-4a9a-abee-4100f8c1e094"},"vehicle_type_id":"4","last_reported":1769357625,"current_range_meters":6400,"station_id":"ce4bhb92rcd13ifvqen0","pricing_plan_id":"cebpf4jnsgd1na2vs0mg"},{"bike_id":"beaf6404-9429-46bc-9deb-19ea94aebd8a","system_id":"levelo_inurba_marseille","lat":43.26405,"lon":5.41038,"is_reserved":false,"is_disabled":false,"rental_uris":{"android":"levelo://app?vid=beaf6404-9429-46bc-9deb-19ea94aebd8a","ios":"levelo://app?vid=beaf6404-9429-46bc-9deb-19ea94aebd8a"},"vehicle_type_id":"4","last_reported":1769357625,"current_range_meters":6400,"station_id":"","pricing_plan_id":"cebpf4jnsgd1na2vs0mg"},{"bike_id":"27e4d06b-4fc4-41e8-8090-114b4eec9e10","system_id":"levelo_inurba_marseille","lat":43.30139,"lon":5.39865,"is_reserved":false,"is_disabled":false,"rental_uris":{"android":"levelo://app?vid=27e4d06b-4fc4-41e8-8090-114b4eec9e10","ios":"levelo://app?vid=27e4d06b-4fc4-41e8-8090-114b4eec9e10"},"vehicle_type_id":"4","last_reported":1769357625,"current_range_meters":6400,"station_id":"ce4bh0h2rcd13ifvqd40","pricing_plan_id":"cebpf4jnsgd1na2vs0mg"},{"bike_id":"87005f03-fc73-4208-a64b-c273dadff764","system_id":"levelo_inurba_marseille","lat":43.24649,"lon":5.3889,"is_reserved":false,"is_disabled":false,"rental_uris":{"android":"levelo://app?vid=87005f03-fc73-4208-a64b-c273dadff764","ios":"levelo://app?vid=87005f03-fc73-4208-a64b-c273dadff764"},"vehicle_type_id":"4","last_reported":1769357625,"current_range_meters":6400,"station_id":"ce4bhg12rcd13ifvqf60","pricing_plan_id":"cebpf4jnsgd1na2vs0mg"},{"bike_id":"d7503130-10c8-43b2-8297-d9e107b1270f","system_id":"levelo_inurba_marseille","lat":43.30531,"lon":5.36657,"is_reserved":false,"is_disabled":false,"rental_uris":{"android":"levelo://app?vid=d7503130-10c8-43b2-8297-d9e107b1270f","ios":"levelo://app?vid=d7503130-10c8-43b2-8297-d9e107b1270f"},"vehicle_type_id":"4","last_reported":1769357625,"current_range_meters":6400,"station_id":"ce4bgrp2rcd13ifvqc9g","pricing_plan_id":"cebpf4jnsgd1na2vs0mg"},{"bike_id":"67a80a29-3730-47f9-a49d-4110e1150c8d","system_id":"levelo_inurba_marseille","lat":43.25104,"lon":5.40299,"is_reserved":false,"is_disabled":false,"rental_uris":{"android":"levelo://app?vid=67a80a29-3730-47f9-a49d-4110e1150c8d","ios":"levelo://app?vid=67a80a29-3730-47f9-a49d-4110e1150c8d"},"vehicle_type_id":"4","last_reported":1769357625,"current_range_meters":6400,"station_id":"ce4bhlh2rcd13ifvqgig","pricing_plan_id":"cebpf4jnsgd1na2vs0mg"},{"bike_id":"7e036456-a386-4efb-94df-0183fba99584","system_id":"levelo_inurba_marseille","lat":43.24664,"lon":5.38158,"is_reserved":false,"is_disabled":false,"rental_uris":{"android":"levelo://app?vid=7e036456-a386-4efb-94df-0183fba99584","ios":"levelo://app?vid=7e036456-a386-4efb-94df-0183fba99584"},"vehicle_type_id":"4","last_reported":1769357625,"current_range_meters":6400,"station_id":"ce4bhih2rcd13ifvqfr0","pricing_plan_id":"cebpf4jnsgd1na2vs0mg"},{"bike_id":"7deffa0a-3ebd-4903-9e0d-eeb5b5a6279f","system_id":"levelo_inurba_marseille","lat":43.23196,"lon":5.35544,"is_reserved":false,"is_disabled":false,"rental_uris":{"android":"levelo://app?vid=7deffa0a-3ebd-4903-9e0d-eeb5b5a6279f","ios":"levelo://app?vid=7deffa0a-3ebd-4903-9e0d-eeb5b5a6279f"},"vehicle_type_id":"4","last_reported":1769357625,"current_range_meters":6400,"station_id":"ce4bhu92rcd13ifvqi70","pricing_plan_id":"cebpf4jnsgd1na2vs0mg"},{"bike_id":"70b69e2c-3a2e-4470-a76a-d6e19e5dde52","system_id":"levelo_inurba_marseille","lat":43.23168,"lon":5.4371,"is_reserved":false,"is_disabled":false,"rental_uris":{"android":"levelo://app?vid=70b69e2c-3a2e-4470-a76a-d6e19e5dde52","ios":"levelo://app?vid=70b69e2c-3a2e-4470-a76a-d6e19e5dde52"},"vehicle_type_id":"4","last_reported":1769357625,"current_range_meters":6400,"station_id":"ce4bhmp2rcd13ifvqgog","pricing_plan_id":"cebpf4jnsgd1na2vs0mg"},{"bike_id":"d4e5a8bc-56ca-4b1e-9368-1c6ba53f48cb","system_id":"levelo_inurba_marseille","lat":43.28564,"lon":5.39474,"is_reserved":false,"is_disabled":true,"rental_uris":{"android":"levelo://app?vid=d4e5a8bc-56ca-4b1e-9368-1c6ba53f48cb","ios":"levelo://app?vid=d4e5a8bc-56ca-4b1e-9368-1c6ba53f48cb"},"vehicle_type_id":"4","last_reported":1769357625,"current_range_meters":6800,"station_id":"ce4bh292rcd13ifvqdg0","pricing_plan_id":"cebpf4jnsgd1na2vs0mg"},{"bike_id":"c101c5e7-a92c-4262-9de4-730cf3520d3e","system_id":"levelo_inurba_marseille","lat":43.24387,"lon":5.37044,"is_reserved":false,"is_disabled":false,"rental_uris":{"android":"levelo://app?vid=c101c5e7-a92c-4262-9de4-730cf3520d3e","ios":"levelo://app?vid=c101c5e7-a92c-4262-9de4-730cf3520d3e"},"vehicle_type_id":"4","last_reported":1769357625,"current_range_meters":6800,"station_id":"ce4bhhh2rcd13ifvqfk0","pricing_plan_id":"cebpf4jnsgd1na2vs0mg"},{"bike_id":"677ec20b-f7d8-44df-8a04-d7f0a2daa65b","system_id":"levelo_inurba_marseille","lat":43.28867,"lon":5.42509,"is_reserved":false,"is_disabled":false,"rental_uris":{"android":"levelo://app?vid=677ec20b-f7d8-44df-8a04-d7f0a2daa65b","ios":"levelo://app?vid=677ec20b-f7d8-44df-8a04-d7f0a2daa65b"},"vehicle_type_id":"4","last_reported":1769357625,"current_range_meters":6800,"station_id":"st_d3b462108ojc7389ooeg","pricing_plan_id":"cebpf4jnsgd1na2vs0mg"},{"bike_id":"993c6494-f17c-4ae2-b2c9-33e36265140e","system_id":"levelo_inurba_marseille","lat":43.24401,"lon":5.37062,"is_reserved":false,"is_disabled":false,"rental_uris":{"android":"levelo://app?vid=993c6494-f17c-4ae2-b2c9-33e36265140e","ios":"levelo://app?vid=993c6494-f17c-4ae2-b2c9-33e36265140e"},"vehicle_type_id":"4","last_reported":1769357625,"current_range_meters":6800,"station_id":"ce4bhhh2rcd13ifvqfk0","pricing_plan_id":"cebpf4jnsgd1na2vs0mg"},{"bike_id":"6198701f-a82a-45bd-8cb9-fd2866a455c2","system_id":"levelo_inurba_marseille","lat":43.288553,"lon":5.39315,"is_reserved":false,"is_disabled":false,"rental_uris":{"android":"levelo://app?vid=6198701f-a82a-45bd-8cb9-fd2866a455c2","ios":"levelo://app?vid=6198701f-a82a-45bd-8cb9-fd2866a455c2"},"vehicle_type_id":"4","last_reported":1769357625,"current_range_meters":6800,"station_id":"ce4bh2p2rcd13ifvqdi0","pricing_plan_id":"cebpf4jnsgd1na2vs0mg"},{"bike_id":"28820609-d4f9-4f12-ae32-2cb1905ac29b","system_id":"levelo_inurba_marseille","lat":43.24388,"lon":5.37047,"is_reserved":false,"is_disabled":false,"rental_uris":{"android":"levelo://app?vid=28820609-d4f9-4f12-ae32-2cb1905ac29b","ios":"levelo://app?vid=28820609-d4f9-4f12-ae32-2cb1905ac29b"},"vehicle_type_id":"4","last_reported":1769357625,"current_range_meters":6800,"station_id":"ce4bhhh2rcd13ifvqfk0","pricing_plan_id":"cebpf4jnsgd1na2vs0mg"},{"bike_id":"241471d4-ea22-4707-b9cb-9d7a28477cee","system_id":"levelo_inurba_marseille","lat":43.30687,"lon":5.36304,"is_reserved":false,"is_disabled":false,"rental_uris":{"android":"levelo://app?vid=241471d4-ea22-4707-b9cb-9d7a28477cee","ios":"levelo://app?vid=241471d4-ea22-4707-b9cb-9d7a28477cee"},"vehicle_type_id":"4","last_reported":1769357625,"current_range_meters":6800,"station_id":"","pricing_plan_id":"cebpf4jnsgd1na2vs0mg"},{"bike_id":"875e4077-5f8f-414d-8e4e-1d309239e541","system_id":"levelo_inurba_marseille","lat":43.23061,"lon":5.35482,"is_reserved":false,"is_disabled":false,"rental_uris":{"android":"levelo://app?vid=875e4077-5f8f-414d-8e4e-1d309239e541","ios":"levelo://app?vid=875e4077-5f8f-414d-8e4e-1d309239e541"},"vehicle_type_id":"4","last_reported":1769357625,"current_range_meters":6800,"station_id":"cpo3342slgdg3j2ifvpg","pricing_plan_id":"cebpf4jnsgd1na2vs0mg"},{"bike_id":"9596f630-a277-4b6a-a9aa-2677d5cc298d","system_id":"levelo_inurba_marseille","lat":43.24204,"lon":5.39638,"is_reserved":false,"is_disabled":false,"rental_uris":{"android":"levelo://app?vid=9596f630-a277-4b6a-a9aa-2677d5cc298d","ios":"levelo://app?vid=9596f630-a277-4b6a-a9aa-2677d5cc298d"},"vehicle_type_id":"4","last_reported":1769357625,"current_range_meters":6800,"station_id":"","pricing_plan_id":"cebpf4jnsgd1na2vs0mg"},{"bike_id":"abc3a781-f3d6-481a-9f61-a5b4b605dfec","system_id":"levelo_inurba_marseille","lat":43.32365,"lon":5.36755,"is_reserved":false,"is_disabled":false,"rental_uris":{"android":"levelo://app?vid=abc3a781-f3d6-481a-9f61-a5b4b605dfec","ios":"levelo://app?vid=abc3a781-f3d6-481a-9f61-a5b4b605dfec"},"vehicle_type_id":"4","last_reported":1769357625,"current_range_meters":6800,"station_id":"ce4bhsh2rcd13ifvqi2g","pricing_plan_id":"cebpf4jnsgd1na2vs0mg"},{"bike_id":"10d9e279-fe7a-471e-97ab-fc14b4dd07f8","system_id":"levelo_inurba_marseille","lat":43.26566,"lon":5.37282,"is_reserved":false,"is_disabled":false,"rental_uris":{"android":"levelo://app?vid=10d9e279-fe7a-471e-97ab-fc14b4dd07f8","ios":"levelo://app?vid=10d9e279-fe7a-471e-97ab-fc14b4dd07f8"},"vehicle_type_id":"4","last_reported":1769357625,"current_range_meters":6800,"station_id":"ce4bhg12rcd13ifvqf70","pricing_plan_id":"cebpf4jnsgd1na2vs0mg"},{"bike_id":"5fa896a8-aba8-4143-b23e-82d35adec35e","system_id":"levelo_inurba_marseille","lat":43.265564,"lon":5.372869,"is_reserved":false,"is_disabled":false,"rental_uris":{"android":"levelo://app?vid=5fa896a8-aba8-4143-b23e-82d35adec35e","ios":"levelo://app?vid=5fa896a8-aba8-4143-b23e-82d35adec35e"},"vehicle_type_id":"4","last_reported":1769357625,"current_range_meters":6800,"station_id":"ce4bhg12rcd13ifvqf70","pricing_plan_id":"cebpf4jnsgd1na2vs0mg"},{"bike_id":"2dcd0cb2-2a98-4c11-89ae-b2a8fc35ad5b","system_id":"levelo_inurba_marseille","lat":43.25106,"lon":5.40328,"is_reserved":false,"is_disabled":false,"rental_uris":{"android":"levelo://app?vid=2dcd0cb2-2a98-4c11-89ae-b2a8fc35ad5b","ios":"levelo://app?vid=2dcd0cb2-2a98-4c11-89ae-b2a8fc35ad5b"},"vehicle_type_id":"4","last_reported":1769357625,"current_range_meters":6800,"station_id":"ce4bhlh2rcd13ifvqgig","pricing_plan_id":"cebpf4jnsgd1na2vs0mg"},{"bike_id":"b9917ecd-02a8-40e9-a0d0-4758759eb040","system_id":"levelo_inurba_marseille","lat":43.24553,"lon":5.373471,"is_reserved":false,"is_disabled":false,"rental_uris":{"android":"levelo://app?vid=b9917ecd-02a8-40e9-a0d0-4758759eb040","ios":"levelo://app?vid=b9917ecd-02a8-40e9-a0d0-4758759eb040"},"vehicle_type_id":"4","last_reported":1769357625,"current_range_meters":6800,"station_id":"","pricing_plan_id":"cebpf4jnsgd1na2vs0mg"},{"bike_id":"5fc0beb5-4f31-4401-80db-196c9af2213a","system_id":"levelo_inurba_marseille","lat":43.26773,"lon":5.39422,"is_reserved":false,"is_disabled":true,"rental_uris":{"android":"levelo://app?vid=5fc0beb5-4f31-4401-80db-196c9af2213a","ios":"levelo://app?vid=5fc0beb5-4f31-4401-80db-196c9af2213a"},"vehicle_type_id":"4","last_reported":1769357625,"current_range_meters":6800,"station_id":"ce4bhh12rcd13ifvqfg0","pricing_plan_id":"cebpf4jnsgd1na2vs0mg"},{"bike_id":"bc2b87d5-088d-43c7-b078-08fbab6dc57d","system_id":"levelo_inurba_marseille","lat":43.26063,"lon":5.394,"is_reserved":false,"is_disabled":false,"rental_uris":{"android":"levelo://app?vid=bc2b87d5-088d-43c7-b078-08fbab6dc57d","ios":"levelo://app?vid=bc2b87d5-088d-43c7-b078-08fbab6dc57d"},"vehicle_type_id":"4","last_reported":1769357625,"current_range_meters":6800,"station_id":"ce4bhh92rcd13ifvqfj0","pricing_plan_id":"cebpf4jnsgd1na2vs0mg"},{"bike_id":"43ace758-19e2-45f5-81d3-4d0e67cb2c4e","system_id":"levelo_inurba_marseille","lat":43.2378,"lon":5.36625,"is_reserved":false,"is_disabled":false,"rental_uris":{"android":"levelo://app?vid=43ace758-19e2-45f5-81d3-4d0e67cb2c4e","ios":"levelo://app?vid=43ace758-19e2-45f5-81d3-4d0e67cb2c4e"},"vehicle_type_id":"4","last_reported":1769357625,"current_range_meters":6800,"station_id":"st_d3nk18o9ro0c73en2l3g","pricing_plan_id":"cebpf4jnsgd1na2vs0mg"},{"bike_id":"66002e1d-82f0-4fd8-87fd-61c490058f83","system_id":"levelo_inurba_marseille","lat":43.296224,"lon":5.377005,"is_reserved":false,"is_disabled":false,"rental_uris":{"android":"levelo://app?vid=66002e1d-82f0-4fd8-87fd-61c490058f83","ios":"levelo://app?vid=66002e1d-82f0-4fd8-87fd-61c490058f83"},"vehicle_type_id":"4","last_reported":1769357625,"current_range_meters":6800,"station_id":"","pricing_plan_id":"cebpf4jnsgd1na2vs0mg"},{"bike_id":"f4d5846c-646c-4d8e-923f-075604db61e5","system_id":"levelo_inurba_marseille","lat":43.24685,"lon":5.38155,"is_reserved":false,"is_disabled":false,"rental_uris":{"android":"levelo://app?vid=f4d5846c-646c-4d8e-923f-075604db61e5","ios":"levelo://app?vid=f4d5846c-646c-4d8e-923f-075604db61e5"},"vehicle_type_id":"4","last_reported":1769357625,"current_range_meters":6800,"station_id":"ce4bhih2rcd13ifvqfr0","pricing_plan_id":"cebpf4jnsgd1na2vs0mg"},{"bike_id":"b7b68940-6e50-4a74-9685-2e0e8b628270","system_id":"levelo_inurba_marseille","lat":43.30633,"lon":5.36536,"is_reserved":false,"is_disabled":false,"rental_uris":{"android":"levelo://app?vid=b7b68940-6e50-4a74-9685-2e0e8b628270","ios":"levelo://app?vid=b7b68940-6e50-4a74-9685-2e0e8b628270"},"vehicle_type_id":"4","last_reported":1769357625,"current_range_meters":6800,"station_id":"","pricing_plan_id":"cebpf4jnsgd1na2vs0mg"},{"bike_id":"e8d34882-7f70-40bc-9b52-f523df157e01","system_id":"levelo_inurba_marseille","lat":43.23963,"lon":5.36613,"is_reserved":false,"is_disabled":false,"rental_uris":{"android":"levelo://app?vid=e8d34882-7f70-40bc-9b52-f523df157e01","ios":"levelo://app?vid=e8d34882-7f70-40bc-9b52-f523df157e01"},"vehicle_type_id":"4","last_reported":1769357625,"current_range_meters":7200,"station_id":"ce4bhi12rcd13ifvqfp0","pricing_plan_id":"cebpf4jnsgd1na2vs0mg"},{"bike_id":"414937c3-22ca-4ac8-a6d1-0b2223c3f608","system_id":"levelo_inurba_marseille","lat":43.25834,"lon":5.39435,"is_reserved":false,"is_disabled":false,"rental_uris":{"android":"levelo://app?vid=414937c3-22ca-4ac8-a6d1-0b2223c3f608","ios":"levelo://app?vid=414937c3-22ca-4ac8-a6d1-0b2223c3f608"},"vehicle_type_id":"4","last_reported":1769357625,"current_range_meters":7200,"station_id":"ce4bhip2rcd13ifvqft0","pricing_plan_id":"cebpf4jnsgd1na2vs0mg"},{"bike_id":"965df6b7-673a-4e5d-9ee5-eda9741e28cb","system_id":"levelo_inurba_marseille","lat":43.30318,"lon":5.36888,"is_reserved":false,"is_disabled":false,"rental_uris":{"android":"levelo://app?vid=965df6b7-673a-4e5d-9ee5-eda9741e28cb","ios":"levelo://app?vid=965df6b7-673a-4e5d-9ee5-eda9741e28cb"},"vehicle_type_id":"4","last_reported":1769357625,"current_range_meters":7200,"station_id":"ce4bgqh2rcd13ifvqc5g","pricing_plan_id":"cebpf4jnsgd1na2vs0mg"},{"bike_id":"77a8d6f7-8520-4e5a-a0e7-89573d4a6a77","system_id":"levelo_inurba_marseille","lat":43.237806,"lon":5.366264,"is_reserved":false,"is_disabled":false,"rental_uris":{"android":"levelo://app?vid=77a8d6f7-8520-4e5a-a0e7-89573d4a6a77","ios":"levelo://app?vid=77a8d6f7-8520-4e5a-a0e7-89573d4a6a77"},"vehicle_type_id":"4","last_reported":1769357625,"current_range_meters":7200,"station_id":"st_d3nk18o9ro0c73en2l3g","pricing_plan_id":"cebpf4jnsgd1na2vs0mg"},{"bike_id":"a8c7adad-ae27-467b-936e-e5e482408cf3","system_id":"levelo_inurba_marseille","lat":43.31042,"lon":5.39312,"is_reserved":false,"is_disabled":false,"rental_uris":{"android":"levelo://app?vid=a8c7adad-ae27-467b-936e-e5e482408cf3","ios":"levelo://app?vid=a8c7adad-ae27-467b-936e-e5e482408cf3"},"vehicle_type_id":"4","last_reported":1769357625,"current_range_meters":7200,"station_id":"","pricing_plan_id":"cebpf4jnsgd1na2vs0mg"},{"bike_id":"5cfd7260-21a3-4346-b554-3744fc7c6072","system_id":"levelo_inurba_marseille","lat":43.29544,"lon":5.4227,"is_reserved":false,"is_disabled":false,"rental_uris":{"android":"levelo://app?vid=5cfd7260-21a3-4346-b554-3744fc7c6072","ios":"levelo://app?vid=5cfd7260-21a3-4346-b554-3744fc7c6072"},"vehicle_type_id":"4","last_reported":1769357625,"current_range_meters":7200,"station_id":"ce4bhph2rcd13ifvqhdg","pricing_plan_id":"cebpf4jnsgd1na2vs0mg"},{"bike_id":"c1aeaa10-dc7f-4501-b461-bb241314d426","system_id":"levelo_inurba_marseille","lat":43.23204,"lon":5.35534,"is_reserved":false,"is_disabled":false,"rental_uris":{"android":"levelo://app?vid=c1aeaa10-dc7f-4501-b461-bb241314d426","ios":"levelo://app?vid=c1aeaa10-dc7f-4501-b461-bb241314d426"},"vehicle_type_id":"4","last_reported":1769357625,"current_range_meters":7200,"station_id":"ce4bhu92rcd13ifvqi70","pricing_plan_id":"cebpf4jnsgd1na2vs0mg"},{"bike_id":"a0465d4f-9ced-4178-ad4c-29e5c29e87ff","system_id":"levelo_inurba_marseille","lat":43.284853,"lon":5.48385,"is_reserved":false,"is_disabled":false,"rental_uris":{"android":"levelo://app?vid=a0465d4f-9ced-4178-ad4c-29e5c29e87ff","ios":"levelo://app?vid=a0465d4f-9ced-4178-ad4c-29e5c29e87ff"},"vehicle_type_id":"4","last_reported":1769357625,"current_range_meters":7200,"station_id":"","pricing_plan_id":"cebpf4jnsgd1na2vs0mg"},{"bike_id":"0c16fd9f-27e4-4df5-a3f5-66328c64053c","system_id":"levelo_inurba_marseille","lat":43.2991,"lon":5.37444,"is_reserved":false,"is_disabled":false,"rental_uris":{"android":"levelo://app?vid=0c16fd9f-27e4-4df5-a3f5-66328c64053c","ios":"levelo://app?vid=0c16fd9f-27e4-4df5-a3f5-66328c64053c"},"vehicle_type_id":"4","last_reported":1769357625,"current_range_meters":7200,"station_id":"ce4bgjh2rcd13ifvqbg0","pricing_plan_id":"cebpf4jnsgd1na2vs0mg"},{"bike_id":"760fba55-bff9-4a6f-82fd-8945891103a0","system_id":"levelo_inurba_marseille","lat":43.21745,"lon":5.34597,"is_reserved":false,"is_disabled":false,"rental_uris":{"android":"levelo://app?vid=760fba55-bff9-4a6f-82fd-8945891103a0","ios":"levelo://app?vid=760fba55-bff9-4a6f-82fd-8945891103a0"},"vehicle_type_id":"4","last_reported":1769357625,"current_range_meters":7200,"station_id":"st_cvj6r9ubvosntc0bgbag","pricing_plan_id":"cebpf4jnsgd1na2vs0mg"},{"bike_id":"cefc0408-08b4-45e0-8592-a44786197f49","system_id":"levelo_inurba_marseille","lat":43.22572,"lon":5.41612,"is_reserved":false,"is_disabled":false,"rental_uris":{"android":"levelo://app?vid=cefc0408-08b4-45e0-8592-a44786197f49","ios":"levelo://app?vid=cefc0408-08b4-45e0-8592-a44786197f49"},"vehicle_type_id":"4","last_reported":1769357625,"current_range_meters":7200,"station_id":"st_d2o4gvlbi1j2169b742g","pricing_plan_id":"cebpf4jnsgd1na2vs0mg"},{"bike_id":"6161fc2c-c0e2-4657-aed2-256d60c15d9b","system_id":"levelo_inurba_marseille","lat":43.29796,"lon":5.38114,"is_reserved":false,"is_disabled":false,"rental_uris":{"android":"levelo://app?vid=6161fc2c-c0e2-4657-aed2-256d60c15d9b","ios":"levelo://app?vid=6161fc2c-c0e2-4657-aed2-256d60c15d9b"},"vehicle_type_id":"4","last_reported":1769357625,"current_range_meters":7200,"station_id":"ce4bgip2rcd13ifvqbb0","pricing_plan_id":"cebpf4jnsgd1na2vs0mg"},{"bike_id":"876ac817-c1de-4d59-a160-e12114ae46c0","system_id":"levelo_inurba_marseille","lat":43.31313,"lon":5.36862,"is_reserved":false,"is_disabled":false,"rental_uris":{"android":"levelo://app?vid=876ac817-c1de-4d59-a160-e12114ae46c0","ios":"levelo://app?vid=876ac817-c1de-4d59-a160-e12114ae46c0"},"vehicle_type_id":"4","last_reported":1769357625,"current_range_meters":7200,"station_id":"","pricing_plan_id":"cebpf4jnsgd1na2vs0mg"},{"bike_id":"0c11bc30-1254-4e35-b530-31f7fd6a4b39","system_id":"levelo_inurba_marseille","lat":43.30003,"lon":5.37343,"is_reserved":false,"is_disabled":false,"rental_uris":{"android":"levelo://app?vid=0c11bc30-1254-4e35-b530-31f7fd6a4b39","ios":"levelo://app?vid=0c11bc30-1254-4e35-b530-31f7fd6a4b39"},"vehicle_type_id":"4","last_reported":1769357625,"current_range_meters":7200,"station_id":"","pricing_plan_id":"cebpf4jnsgd1na2vs0mg"},{"bike_id":"4e8fb272-4881-4fd0-9f58-3796236a95e4","system_id":"levelo_inurba_marseille","lat":43.29565,"lon":5.37476,"is_reserved":false,"is_disabled":false,"rental_uris":{"android":"levelo://app?vid=4e8fb272-4881-4fd0-9f58-3796236a95e4","ios":"levelo://app?vid=4e8fb272-4881-4fd0-9f58-3796236a95e4"},"vehicle_type_id":"4","last_reported":1769357625,"current_range_meters":7200,"station_id":"ce4bgh92rcd13ifvqb50","pricing_plan_id":"cebpf4jnsgd1na2vs0mg"},{"bike_id":"a24632ee-4927-4469-95f2-336c50e24291","system_id":"levelo_inurba_marseille","lat":43.31087,"lon":5.4242,"is_reserved":false,"is_disabled":false,"rental_uris":{"android":"levelo://app?vid=a24632ee-4927-4469-95f2-336c50e24291","ios":"levelo://app?vid=a24632ee-4927-4469-95f2-336c50e24291"},"vehicle_type_id":"4","last_reported":1769357625,"current_range_meters":7200,"station_id":"ce4bhp92rcd13ifvqhag","pricing_plan_id":"cebpf4jnsgd1na2vs0mg"},{"bike_id":"2489dbb0-fbf3-43ee-818b-e714a7a761f4","system_id":"levelo_inurba_marseille","lat":43.2961,"lon":5.36736,"is_reserved":false,"is_disabled":false,"rental_uris":{"android":"levelo://app?vid=2489dbb0-fbf3-43ee-818b-e714a7a761f4","ios":"levelo://app?vid=2489dbb0-fbf3-43ee-818b-e714a7a761f4"},"vehicle_type_id":"4","last_reported":1769357625,"current_range_meters":7200,"station_id":"ce4bgph2rcd13ifvqc2g","pricing_plan_id":"cebpf4jnsgd1na2vs0mg"},{"bike_id":"cc77ab8d-f6fe-4e5f-b2b5-a4170aed5189","system_id":"levelo_inurba_marseille","lat":43.24951,"lon":5.40468,"is_reserved":false,"is_disabled":false,"rental_uris":{"android":"levelo://app?vid=cc77ab8d-f6fe-4e5f-b2b5-a4170aed5189","ios":"levelo://app?vid=cc77ab8d-f6fe-4e5f-b2b5-a4170aed5189"},"vehicle_type_id":"4","last_reported":1769357625,"current_range_meters":7200,"station_id":"st_d2ngiaodas8pm72gd1h0","pricing_plan_id":"cebpf4jnsgd1na2vs0mg"},{"bike_id":"2e46861b-c9e2-4124-8fb2-9f2e778640d7","system_id":"levelo_inurba_marseille","lat":43.21733,"lon":5.34602,"is_reserved":false,"is_disabled":false,"rental_uris":{"android":"levelo://app?vid=2e46861b-c9e2-4124-8fb2-9f2e778640d7","ios":"levelo://app?vid=2e46861b-c9e2-4124-8fb2-9f2e778640d7"},"vehicle_type_id":"4","last_reported":1769357625,"current_range_meters":8000,"station_id":"st_cvj6r9ubvosntc0bgbag","pricing_plan_id":"cebpf4jnsgd1na2vs0mg"},{"bike_id":"0de5032e-148a-468e-969e-fb644458ceae","system_id":"levelo_inurba_marseille","lat":43.25088,"lon":5.4046,"is_reserved":false,"is_disabled":false,"rental_uris":{"android":"levelo://app?vid=0de5032e-148a-468e-969e-fb644458ceae","ios":"levelo://app?vid=0de5032e-148a-468e-969e-fb644458ceae"},"vehicle_type_id":"4","last_reported":1769357625,"current_range_meters":8000,"station_id":"","pricing_plan_id":"cebpf4jnsgd1na2vs0mg"},{"bike_id":"4ecf6c12-33e8-4135-b4a4-e6c4ddb448fc","system_id":"levelo_inurba_marseille","lat":43.24076,"lon":5.37748,"is_reserved":false,"is_disabled":false,"rental_uris":{"android":"levelo://app?vid=4ecf6c12-33e8-4135-b4a4-e6c4ddb448fc","ios":"levelo://app?vid=4ecf6c12-33e8-4135-b4a4-e6c4ddb448fc"},"vehicle_type_id":"4","last_reported":1769357625,"current_range_meters":8000,"station_id":"ce4bhnp2rcd13ifvqgvg","pricing_plan_id":"cebpf4jnsgd1na2vs0mg"},{"bike_id":"a31d4b1b-7a61-4655-ae18-d5254ed9b3a3","system_id":"levelo_inurba_marseille","lat":43.28551,"lon":5.44091,"is_reserved":false,"is_disabled":false,"rental_uris":{"android":"levelo://app?vid=a31d4b1b-7a61-4655-ae18-d5254ed9b3a3","ios":"levelo://app?vid=a31d4b1b-7a61-4655-ae18-d5254ed9b3a3"},"vehicle_type_id":"4","last_reported":1769357625,"current_range_meters":8000,"station_id":"st_d3j3df2ikq2c7380ej80","pricing_plan_id":"cebpf4jnsgd1na2vs0mg"},{"bike_id":"fe8f16c0-7c2c-4db5-9830-9c506d68052e","system_id":"levelo_inurba_marseille","lat":43.25116,"lon":5.4033,"is_reserved":false,"is_disabled":false,"rental_uris":{"android":"levelo://app?vid=fe8f16c0-7c2c-4db5-9830-9c506d68052e","ios":"levelo://app?vid=fe8f16c0-7c2c-4db5-9830-9c506d68052e"},"vehicle_type_id":"4","last_reported":1769357625,"current_range_meters":8000,"station_id":"ce4bhlh2rcd13ifvqgig","pricing_plan_id":"cebpf4jnsgd1na2vs0mg"},{"bike_id":"9c199edb-7776-46d6-9857-d3885ef6d599","system_id":"levelo_inurba_marseille","lat":43.27213,"lon":5.39179,"is_reserved":false,"is_disabled":false,"rental_uris":{"android":"levelo://app?vid=9c199edb-7776-46d6-9857-d3885ef6d599","ios":"levelo://app?vid=9c199edb-7776-46d6-9857-d3885ef6d599"},"vehicle_type_id":"4","last_reported":1769357625,"current_range_meters":8000,"station_id":"ce4bhhp2rcd13ifvqfm0","pricing_plan_id":"cebpf4jnsgd1na2vs0mg"},{"bike_id":"b1d59cca-e28a-4678-b838-1155b378cd48","system_id":"levelo_inurba_marseille","lat":43.33545,"lon":5.37472,"is_reserved":false,"is_disabled":false,"rental_uris":{"android":"levelo://app?vid=b1d59cca-e28a-4678-b838-1155b378cd48","ios":"levelo://app?vid=b1d59cca-e28a-4678-b838-1155b378cd48"},"vehicle_type_id":"4","last_reported":1769357625,"current_range_meters":8000,"station_id":"st_d46tts09ee8s73dlu43g","pricing_plan_id":"cebpf4jnsgd1na2vs0mg"},{"bike_id":"b075d711-d93d-4120-85f9-64fa0a4a9a99","system_id":"levelo_inurba_marseille","lat":43.22565,"lon":5.41619,"is_reserved":false,"is_disabled":false,"rental_uris":{"android":"levelo://app?vid=b075d711-d93d-4120-85f9-64fa0a4a9a99","ios":"levelo://app?vid=b075d711-d93d-4120-85f9-64fa0a4a9a99"},"vehicle_type_id":"4","last_reported":1769357625,"current_range_meters":8000,"station_id":"st_d2o4gvlbi1j2169b742g","pricing_plan_id":"cebpf4jnsgd1na2vs0mg"},{"bike_id":"bce6909b-6414-4542-8a72-6633241c9b07","system_id":"levelo_inurba_marseille","lat":43.26579,"lon":5.40338,"is_reserved":false,"is_disabled":false,"rental_uris":{"android":"levelo://app?vid=bce6909b-6414-4542-8a72-6633241c9b07","ios":"levelo://app?vid=bce6909b-6414-4542-8a72-6633241c9b07"},"vehicle_type_id":"4","last_reported":1769357625,"current_range_meters":8000,"station_id":"ce4bhmp2rcd13ifvqgng","pricing_plan_id":"cebpf4jnsgd1na2vs0mg"},{"bike_id":"500a807b-2dab-4995-a78d-d98aedb6eb89","system_id":"levelo_inurba_marseille","lat":43.271875,"lon":5.409891,"is_reserved":false,"is_disabled":false,"rental_uris":{"android":"levelo://app?vid=500a807b-2dab-4995-a78d-d98aedb6eb89","ios":"levelo://app?vid=500a807b-2dab-4995-a78d-d98aedb6eb89"},"vehicle_type_id":"4","last_reported":1769357625,"current_range_meters":8000,"station_id":"ce4bhl12rcd13ifvqgf0","pricing_plan_id":"cebpf4jnsgd1na2vs0mg"},{"bike_id":"a7d2959e-278b-41d6-9192-a644114b55de","system_id":"levelo_inurba_marseille","lat":43.237876,"lon":5.366303,"is_reserved":false,"is_disabled":false,"rental_uris":{"android":"levelo://app?vid=a7d2959e-278b-41d6-9192-a644114b55de","ios":"levelo://app?vid=a7d2959e-278b-41d6-9192-a644114b55de"},"vehicle_type_id":"4","last_reported":1769357625,"current_range_meters":8000,"station_id":"st_d3nk18o9ro0c73en2l3g","pricing_plan_id":"cebpf4jnsgd1na2vs0mg"},{"bike_id":"ea53cb96-b018-4a32-8207-3b5118a7a50d","system_id":"levelo_inurba_marseille","lat":43.32113,"lon":5.36766,"is_reserved":false,"is_disabled":false,"rental_uris":{"android":"levelo://app?vid=ea53cb96-b018-4a32-8207-3b5118a7a50d","ios":"levelo://app?vid=ea53cb96-b018-4a32-8207-3b5118a7a50d"},"vehicle_type_id":"4","last_reported":1769357625,"current_range_meters":8000,"station_id":"ce4bhrh2rcd13ifvqhug","pricing_plan_id":"cebpf4jnsgd1na2vs0mg"},{"bike_id":"b3e41a5b-31a6-4200-a63d-4b5f237ab708","system_id":"levelo_inurba_marseille","lat":43.31717,"lon":5.43704,"is_reserved":false,"is_disabled":false,"rental_uris":{"android":"levelo://app?vid=b3e41a5b-31a6-4200-a63d-4b5f237ab708","ios":"levelo://app?vid=b3e41a5b-31a6-4200-a63d-4b5f237ab708"},"vehicle_type_id":"4","last_reported":1769357625,"current_range_meters":8000,"station_id":"ce4bhp92rcd13ifvqhcg","pricing_plan_id":"cebpf4jnsgd1na2vs0mg"},{"bike_id":"02473359-6a78-421a-957a-269a831863ef","system_id":"levelo_inurba_marseille","lat":43.29575,"lon":5.37518,"is_reserved":false,"is_disabled":false,"rental_uris":{"android":"levelo://app?vid=02473359-6a78-421a-957a-269a831863ef","ios":"levelo://app?vid=02473359-6a78-421a-957a-269a831863ef"},"vehicle_type_id":"4","last_reported":1769357625,"current_range_meters":8000,"station_id":"ce4bgh92rcd13ifvqb50","pricing_plan_id":"cebpf4jnsgd1na2vs0mg"},{"bike_id":"e5fe8fc0-4bf9-49a6-8f77-de7661d7bac1","system_id":"levelo_inurba_marseille","lat":43.330243,"lon":5.390436,"is_reserved":false,"is_disabled":false,"rental_uris":{"android":"levelo://app?vid=e5fe8fc0-4bf9-49a6-8f77-de7661d7bac1","ios":"levelo://app?vid=e5fe8fc0-4bf9-49a6-8f77-de7661d7bac1"},"vehicle_type_id":"4","last_reported":1769357625,"current_range_meters":8000,"station_id":"ce4bhr92rcd13ifvqhrg","pricing_plan_id":"cebpf4jnsgd1na2vs0mg"},{"bike_id":"911f0371-0df0-45e8-a323-aedfe8ac7407","system_id":"levelo_inurba_marseille","lat":43.33172,"lon":5.37687,"is_reserved":false,"is_disabled":false,"rental_uris":{"android":"levelo://app?vid=911f0371-0df0-45e8-a323-aedfe8ac7407","ios":"levelo://app?vid=911f0371-0df0-45e8-a323-aedfe8ac7407"},"vehicle_type_id":"4","last_reported":1769357625,"current_range_meters":8000,"station_id":"st_d46cu089ee8s73dldbu0","pricing_plan_id":"cebpf4jnsgd1na2vs0mg"},{"bike_id":"ca006b1c-64f2-4772-acb4-e94321165aec","system_id":"levelo_inurba_marseille","lat":43.305489,"lon":5.367403,"is_reserved":false,"is_disabled":false,"rental_uris":{"android":"levelo://app?vid=ca006b1c-64f2-4772-acb4-e94321165aec","ios":"levelo://app?vid=ca006b1c-64f2-4772-acb4-e94321165aec"},"vehicle_type_id":"4","last_reported":1769357625,"current_range_meters":8000,"station_id":"ce4bgn92rcd13ifvqbvg","pricing_plan_id":"cebpf4jnsgd1na2vs0mg"},{"bike_id":"9f7ae3d4-c970-4270-8ae8-2dff34371b33","system_id":"levelo_inurba_marseille","lat":43.29569,"lon":5.39972,"is_reserved":false,"is_disabled":false,"rental_uris":{"android":"levelo://app?vid=9f7ae3d4-c970-4270-8ae8-2dff34371b33","ios":"levelo://app?vid=9f7ae3d4-c970-4270-8ae8-2dff34371b33"},"vehicle_type_id":"4","last_reported":1769357625,"current_range_meters":8000,"station_id":"ce4bh312rcd13ifvqdj0","pricing_plan_id":"cebpf4jnsgd1na2vs0mg"},{"bike_id":"3ce0fbf9-3853-4b7d-802e-15d45fe9db9a","system_id":"levelo_inurba_marseille","lat":43.26212,"lon":5.37913,"is_reserved":false,"is_disabled":false,"rental_uris":{"android":"levelo://app?vid=3ce0fbf9-3853-4b7d-802e-15d45fe9db9a","ios":"levelo://app?vid=3ce0fbf9-3853-4b7d-802e-15d45fe9db9a"},"vehicle_type_id":"4","last_reported":1769357625,"current_range_meters":8000,"station_id":"ce4bhjp2rcd13ifvqg90","pricing_plan_id":"cebpf4jnsgd1na2vs0mg"},{"bike_id":"9b0b4c94-e4cc-40f3-9fb0-2317d7f869e8","system_id":"levelo_inurba_marseille","lat":43.29314,"lon":5.37189,"is_reserved":false,"is_disabled":false,"rental_uris":{"android":"levelo://app?vid=9b0b4c94-e4cc-40f3-9fb0-2317d7f869e8","ios":"levelo://app?vid=9b0b4c94-e4cc-40f3-9fb0-2317d7f869e8"},"vehicle_type_id":"4","last_reported":1769357625,"current_range_meters":8000,"station_id":"ce4bgh92rcd13ifvqb40","pricing_plan_id":"cebpf4jnsgd1na2vs0mg"},{"bike_id":"23e8e2b5-e425-472a-bc08-b0b79ef75ac3","system_id":"levelo_inurba_marseille","lat":43.285344,"lon":5.440922,"is_reserved":false,"is_disabled":false,"rental_uris":{"android":"levelo://app?vid=23e8e2b5-e425-472a-bc08-b0b79ef75ac3","ios":"levelo://app?vid=23e8e2b5-e425-472a-bc08-b0b79ef75ac3"},"vehicle_type_id":"4","last_reported":1769357625,"current_range_meters":8000,"station_id":"st_d3j3df2ikq2c7380ej80","pricing_plan_id":"cebpf4jnsgd1na2vs0mg"},{"bike_id":"6c29796b-91a7-4fca-91ba-1f981077ace9","system_id":"levelo_inurba_marseille","lat":43.23161,"lon":5.43693,"is_reserved":false,"is_disabled":false,"rental_uris":{"android":"levelo://app?vid=6c29796b-91a7-4fca-91ba-1f981077ace9","ios":"levelo://app?vid=6c29796b-91a7-4fca-91ba-1f981077ace9"},"vehicle_type_id":"4","last_reported":1769357625,"current_range_meters":8000,"station_id":"ce4bhmp2rcd13ifvqgog","pricing_plan_id":"cebpf4jnsgd1na2vs0mg"},{"bike_id":"ae4e992a-eb37-4dc7-9aba-00b8edffe743","system_id":"levelo_inurba_marseille","lat":43.24065,"lon":5.37765,"is_reserved":false,"is_disabled":false,"rental_uris":{"android":"levelo://app?vid=ae4e992a-eb37-4dc7-9aba-00b8edffe743","ios":"levelo://app?vid=ae4e992a-eb37-4dc7-9aba-00b8edffe743"},"vehicle_type_id":"4","last_reported":1769357625,"current_range_meters":8000,"station_id":"ce4bhnp2rcd13ifvqgvg","pricing_plan_id":"cebpf4jnsgd1na2vs0mg"},{"bike_id":"e19418ad-aa76-4b1d-a53d-977a549e82e9","system_id":"levelo_inurba_marseille","lat":43.23191,"lon":5.35524,"is_reserved":false,"is_disabled":false,"rental_uris":{"android":"levelo://app?vid=e19418ad-aa76-4b1d-a53d-977a549e82e9","ios":"levelo://app?vid=e19418ad-aa76-4b1d-a53d-977a549e82e9"},"vehicle_type_id":"4","last_reported":1769357625,"current_range_meters":8000,"station_id":"ce4bhu92rcd13ifvqi70","pricing_plan_id":"cebpf4jnsgd1na2vs0mg"},{"bike_id":"d1e25448-2e31-4e19-8030-592c7102b143","system_id":"levelo_inurba_marseille","lat":43.31078,"lon":5.3835,"is_reserved":false,"is_disabled":false,"rental_uris":{"android":"levelo://app?vid=d1e25448-2e31-4e19-8030-592c7102b143","ios":"levelo://app?vid=d1e25448-2e31-4e19-8030-592c7102b143"},"vehicle_type_id":"4","last_reported":1769357625,"current_range_meters":8000,"station_id":"ce4bgv92rcd13ifvqcr0","pricing_plan_id":"cebpf4jnsgd1na2vs0mg"},{"bike_id":"dbf02342-dd3c-4a35-a4ad-2560cfa2e190","system_id":"levelo_inurba_marseille","lat":43.2174,"lon":5.3461,"is_reserved":false,"is_disabled":false,"rental_uris":{"android":"levelo://app?vid=dbf02342-dd3c-4a35-a4ad-2560cfa2e190","ios":"levelo://app?vid=dbf02342-dd3c-4a35-a4ad-2560cfa2e190"},"vehicle_type_id":"4","last_reported":1769357625,"current_range_meters":8000,"station_id":"st_cvj6r9ubvosntc0bgbag","pricing_plan_id":"cebpf4jnsgd1na2vs0mg"},{"bike_id":"281c13db-7575-4f01-8cb4-ab2b2ff0bb6c","system_id":"levelo_inurba_marseille","lat":43.23067,"lon":5.35504,"is_reserved":false,"is_disabled":false,"rental_uris":{"android":"levelo://app?vid=281c13db-7575-4f01-8cb4-ab2b2ff0bb6c","ios":"levelo://app?vid=281c13db-7575-4f01-8cb4-ab2b2ff0bb6c"},"vehicle_type_id":"4","last_reported":1769357625,"current_range_meters":8000,"station_id":"cpo3342slgdg3j2ifvpg","pricing_plan_id":"cebpf4jnsgd1na2vs0mg"},{"bike_id":"6e1251ad-7e69-4a42-b062-9dac631f4a14","system_id":"levelo_inurba_marseille","lat":43.29015,"lon":5.3562,"is_reserved":false,"is_disabled":false,"rental_uris":{"android":"levelo://app?vid=6e1251ad-7e69-4a42-b062-9dac631f4a14","ios":"levelo://app?vid=6e1251ad-7e69-4a42-b062-9dac631f4a14"},"vehicle_type_id":"4","last_reported":1769357625,"current_range_meters":8000,"station_id":"ce4bhb92rcd13ifvqen0","pricing_plan_id":"cebpf4jnsgd1na2vs0mg"},{"bike_id":"99bc9e46-2a2d-4354-b606-97e38b1b91d7","system_id":"levelo_inurba_marseille","lat":43.23939,"lon":5.37587,"is_reserved":false,"is_disabled":false,"rental_uris":{"android":"levelo://app?vid=99bc9e46-2a2d-4354-b606-97e38b1b91d7","ios":"levelo://app?vid=99bc9e46-2a2d-4354-b606-97e38b1b91d7"},"vehicle_type_id":"4","last_reported":1769357625,"current_range_meters":8000,"station_id":"","pricing_plan_id":"cebpf4jnsgd1na2vs0mg"},{"bike_id":"723a7e52-1760-4e7c-8685-8958d6c6b044","system_id":"levelo_inurba_marseille","lat":43.31124,"lon":5.37767,"is_reserved":false,"is_disabled":false,"rental_uris":{"android":"levelo://app?vid=723a7e52-1760-4e7c-8685-8958d6c6b044","ios":"levelo://app?vid=723a7e52-1760-4e7c-8685-8958d6c6b044"},"vehicle_type_id":"4","last_reported":1769357625,"current_range_meters":8400,"station_id":"ce4bgt92rcd13ifvqcg0","pricing_plan_id":"cebpf4jnsgd1na2vs0mg"},{"bike_id":"16ac6a98-72f5-44f8-b1d4-83d2f7e68694","system_id":"levelo_inurba_marseille","lat":43.24053,"lon":5.37731,"is_reserved":false,"is_disabled":false,"rental_uris":{"android":"levelo://app?vid=16ac6a98-72f5-44f8-b1d4-83d2f7e68694","ios":"levelo://app?vid=16ac6a98-72f5-44f8-b1d4-83d2f7e68694"},"vehicle_type_id":"4","last_reported":1769357625,"current_range_meters":8400,"station_id":"ce4bhnp2rcd13ifvqgvg","pricing_plan_id":"cebpf4jnsgd1na2vs0mg"},{"bike_id":"367a6bfa-022d-4ac7-9a7a-fafdb9ad5966","system_id":"levelo_inurba_marseille","lat":43.23199,"lon":5.3999,"is_reserved":false,"is_disabled":true,"rental_uris":{"android":"levelo://app?vid=367a6bfa-022d-4ac7-9a7a-fafdb9ad5966","ios":"levelo://app?vid=367a6bfa-022d-4ac7-9a7a-fafdb9ad5966"},"vehicle_type_id":"4","last_reported":1769357625,"current_range_meters":8400,"station_id":"ce4bhn12rcd13ifvqgqg","pricing_plan_id":"cebpf4jnsgd1na2vs0mg"},{"bike_id":"91d94f8f-bf04-4f53-b0a2-ffd68db2b3e5","system_id":"levelo_inurba_marseille","lat":43.29628,"lon":5.37154,"is_reserved":false,"is_disabled":false,"rental_uris":{"android":"levelo://app?vid=91d94f8f-bf04-4f53-b0a2-ffd68db2b3e5","ios":"levelo://app?vid=91d94f8f-bf04-4f53-b0a2-ffd68db2b3e5"},"vehicle_type_id":"4","last_reported":1769357625,"current_range_meters":8400,"station_id":"ce4bgnh2rcd13ifvqc0g","pricing_plan_id":"cebpf4jnsgd1na2vs0mg"},{"bike_id":"47492743-489d-45ae-8cd5-a690ce98ece0","system_id":"levelo_inurba_marseille","lat":43.25586,"lon":5.38227,"is_reserved":false,"is_disabled":false,"rental_uris":{"android":"levelo://app?vid=47492743-489d-45ae-8cd5-a690ce98ece0","ios":"levelo://app?vid=47492743-489d-45ae-8cd5-a690ce98ece0"},"vehicle_type_id":"4","last_reported":1769357625,"current_range_meters":8400,"station_id":"ce4bhih2rcd13ifvqfs0","pricing_plan_id":"cebpf4jnsgd1na2vs0mg"},{"bike_id":"0a9315ef-49dd-4e1c-90ba-9ac1028ca5d9","system_id":"levelo_inurba_marseille","lat":43.321092,"lon":5.36766,"is_reserved":false,"is_disabled":false,"rental_uris":{"android":"levelo://app?vid=0a9315ef-49dd-4e1c-90ba-9ac1028ca5d9","ios":"levelo://app?vid=0a9315ef-49dd-4e1c-90ba-9ac1028ca5d9"},"vehicle_type_id":"4","last_reported":1769357625,"current_range_meters":8400,"station_id":"ce4bhrh2rcd13ifvqhug","pricing_plan_id":"cebpf4jnsgd1na2vs0mg"},{"bike_id":"f4fb2262-4c53-411a-80f0-edefef28f751","system_id":"levelo_inurba_marseille","lat":43.30594,"lon":5.39358,"is_reserved":false,"is_disabled":false,"rental_uris":{"android":"levelo://app?vid=f4fb2262-4c53-411a-80f0-edefef28f751","ios":"levelo://app?vid=f4fb2262-4c53-411a-80f0-edefef28f751"},"vehicle_type_id":"4","last_reported":1769357625,"current_range_meters":8400,"station_id":"ce4bh0p2rcd13ifvqd80","pricing_plan_id":"cebpf4jnsgd1na2vs0mg"},{"bike_id":"2c348b0f-2e47-42f6-9bac-ee7e27da0f65","system_id":"levelo_inurba_marseille","lat":43.28705,"lon":5.3998,"is_reserved":false,"is_disabled":false,"rental_uris":{"android":"levelo://app?vid=2c348b0f-2e47-42f6-9bac-ee7e27da0f65","ios":"levelo://app?vid=2c348b0f-2e47-42f6-9bac-ee7e27da0f65"},"vehicle_type_id":"4","last_reported":1769357625,"current_range_meters":8400,"station_id":"ce4bho92rcd13ifvqh3g","pricing_plan_id":"cebpf4jnsgd1na2vs0mg"},{"bike_id":"5d411b85-7b12-4358-9445-6cfeeebcda1f","system_id":"levelo_inurba_marseille","lat":43.27619,"lon":5.36106,"is_reserved":false,"is_disabled":false,"rental_uris":{"android":"levelo://app?vid=5d411b85-7b12-4358-9445-6cfeeebcda1f","ios":"levelo://app?vid=5d411b85-7b12-4358-9445-6cfeeebcda1f"},"vehicle_type_id":"4","last_reported":1769357625,"current_range_meters":8400,"station_id":"ce4bgj92rcd13ifvqbe0","pricing_plan_id":"cebpf4jnsgd1na2vs0mg"},{"bike_id":"fa11a93c-3b00-4dc4-86f6-194b855df82f","system_id":"levelo_inurba_marseille","lat":43.21206,"lon":5.35055,"is_reserved":false,"is_disabled":false,"rental_uris":{"android":"levelo://app?vid=fa11a93c-3b00-4dc4-86f6-194b855df82f","ios":"levelo://app?vid=fa11a93c-3b00-4dc4-86f6-194b855df82f"},"vehicle_type_id":"4","last_reported":1769357625,"current_range_meters":8400,"station_id":"st_cvj6sg6p6f1abm77japg","pricing_plan_id":"cebpf4jnsgd1na2vs0mg"},{"bike_id":"39febb2d-a402-440c-a637-c5b1307d4b3c","system_id":"levelo_inurba_marseille","lat":43.29928,"lon":5.36503,"is_reserved":false,"is_disabled":false,"rental_uris":{"android":"levelo://app?vid=39febb2d-a402-440c-a637-c5b1307d4b3c","ios":"levelo://app?vid=39febb2d-a402-440c-a637-c5b1307d4b3c"},"vehicle_type_id":"4","last_reported":1769357625,"current_range_meters":8400,"station_id":"ce4bgm92rcd13ifvqbr0","pricing_plan_id":"cebpf4jnsgd1na2vs0mg"},{"bike_id":"5620fd0b-568e-406e-8104-b0555da61e8a","system_id":"levelo_inurba_marseille","lat":43.28471,"lon":5.48443,"is_reserved":false,"is_disabled":false,"rental_uris":{"android":"levelo://app?vid=5620fd0b-568e-406e-8104-b0555da61e8a","ios":"levelo://app?vid=5620fd0b-568e-406e-8104-b0555da61e8a"},"vehicle_type_id":"4","last_reported":1769357625,"current_range_meters":8400,"station_id":"st_d3svhcjqgbts73a3dn0g","pricing_plan_id":"cebpf4jnsgd1na2vs0mg"},{"bike_id":"94f0e610-db77-4234-9107-d4f7aa303985","system_id":"levelo_inurba_marseille","lat":43.29845,"lon":5.36264,"is_reserved":false,"is_disabled":false,"rental_uris":{"android":"levelo://app?vid=94f0e610-db77-4234-9107-d4f7aa303985","ios":"levelo://app?vid=94f0e610-db77-4234-9107-d4f7aa303985"},"vehicle_type_id":"4","last_reported":1769357625,"current_range_meters":8400,"station_id":"ce4bgpp2rcd13ifvqc3g","pricing_plan_id":"cebpf4jnsgd1na2vs0mg"},{"bike_id":"6b03ada9-beb1-4397-aab8-27781ac0b0d3","system_id":"levelo_inurba_marseille","lat":43.25142,"lon":5.40307,"is_reserved":false,"is_disabled":false,"rental_uris":{"android":"levelo://app?vid=6b03ada9-beb1-4397-aab8-27781ac0b0d3","ios":"levelo://app?vid=6b03ada9-beb1-4397-aab8-27781ac0b0d3"},"vehicle_type_id":"4","last_reported":1769357625,"current_range_meters":8400,"station_id":"ce4bhlh2rcd13ifvqgig","pricing_plan_id":"cebpf4jnsgd1na2vs0mg"},{"bike_id":"9536a92a-01ab-4017-8488-26a8fa6880af","system_id":"levelo_inurba_marseille","lat":43.25909,"lon":5.40882,"is_reserved":false,"is_disabled":false,"rental_uris":{"android":"levelo://app?vid=9536a92a-01ab-4017-8488-26a8fa6880af","ios":"levelo://app?vid=9536a92a-01ab-4017-8488-26a8fa6880af"},"vehicle_type_id":"4","last_reported":1769357625,"current_range_meters":8400,"station_id":"ce4bhm92rcd13ifvqglg","pricing_plan_id":"cebpf4jnsgd1na2vs0mg"},{"bike_id":"b38867f4-1afb-4c6b-839b-7857a9af7a0e","system_id":"levelo_inurba_marseille","lat":43.31201,"lon":5.4244,"is_reserved":false,"is_disabled":false,"rental_uris":{"android":"levelo://app?vid=b38867f4-1afb-4c6b-839b-7857a9af7a0e","ios":"levelo://app?vid=b38867f4-1afb-4c6b-839b-7857a9af7a0e"},"vehicle_type_id":"4","last_reported":1769357625,"current_range_meters":8400,"station_id":"","pricing_plan_id":"cebpf4jnsgd1na2vs0mg"},{"bike_id":"e583aa8c-b22b-4d80-84b4-4fd298208578","system_id":"levelo_inurba_marseille","lat":43.30957,"lon":5.39021,"is_reserved":false,"is_disabled":false,"rental_uris":{"android":"levelo://app?vid=e583aa8c-b22b-4d80-84b4-4fd298208578","ios":"levelo://app?vid=e583aa8c-b22b-4d80-84b4-4fd298208578"},"vehicle_type_id":"4","last_reported":1769357625,"current_range_meters":8400,"station_id":"ce4bgup2rcd13ifvqco0","pricing_plan_id":"cebpf4jnsgd1na2vs0mg"},{"bike_id":"202f1104-5acd-4ad3-972a-1bdbd896c535","system_id":"levelo_inurba_marseille","lat":43.32362,"lon":5.36761,"is_reserved":false,"is_disabled":false,"rental_uris":{"android":"levelo://app?vid=202f1104-5acd-4ad3-972a-1bdbd896c535","ios":"levelo://app?vid=202f1104-5acd-4ad3-972a-1bdbd896c535"},"vehicle_type_id":"4","last_reported":1769357625,"current_range_meters":8400,"station_id":"ce4bhsh2rcd13ifvqi2g","pricing_plan_id":"cebpf4jnsgd1na2vs0mg"},{"bike_id":"660fc124-e51d-471b-9418-e058d12512e3","system_id":"levelo_inurba_marseille","lat":43.29545,"lon":5.37482,"is_reserved":false,"is_disabled":false,"rental_uris":{"android":"levelo://app?vid=660fc124-e51d-471b-9418-e058d12512e3","ios":"levelo://app?vid=660fc124-e51d-471b-9418-e058d12512e3"},"vehicle_type_id":"4","last_reported":1769357625,"current_range_meters":8400,"station_id":"ce4bgkp2rcd13ifvqbmg","pricing_plan_id":"cebpf4jnsgd1na2vs0mg"},{"bike_id":"76f15ad4-d2a1-4e04-beac-26f7234bdc21","system_id":"levelo_inurba_marseille","lat":43.29887,"lon":5.365358,"is_reserved":false,"is_disabled":false,"rental_uris":{"android":"levelo://app?vid=76f15ad4-d2a1-4e04-beac-26f7234bdc21","ios":"levelo://app?vid=76f15ad4-d2a1-4e04-beac-26f7234bdc21"},"vehicle_type_id":"4","last_reported":1769357625,"current_range_meters":8400,"station_id":"","pricing_plan_id":"cebpf4jnsgd1na2vs0mg"},{"bike_id":"18e98ae4-b83a-46b0-9102-ef5def8cbba3","system_id":"levelo_inurba_marseille","lat":43.253416,"lon":5.421746,"is_reserved":false,"is_disabled":false,"rental_uris":{"android":"levelo://app?vid=18e98ae4-b83a-46b0-9102-ef5def8cbba3","ios":"levelo://app?vid=18e98ae4-b83a-46b0-9102-ef5def8cbba3"},"vehicle_type_id":"4","last_reported":1769357625,"current_range_meters":8400,"station_id":"st_d2m65c5bi1j21697t3ng","pricing_plan_id":"cebpf4jnsgd1na2vs0mg"},{"bike_id":"3394e21c-4a0c-43a5-950b-7ebd070cb1b0","system_id":"levelo_inurba_marseille","lat":43.29629,"lon":5.37689,"is_reserved":false,"is_disabled":false,"rental_uris":{"android":"levelo://app?vid=3394e21c-4a0c-43a5-950b-7ebd070cb1b0","ios":"levelo://app?vid=3394e21c-4a0c-43a5-950b-7ebd070cb1b0"},"vehicle_type_id":"4","last_reported":1769357625,"current_range_meters":8400,"station_id":"ce4bgi92rcd13ifvqb90","pricing_plan_id":"cebpf4jnsgd1na2vs0mg"},{"bike_id":"872ca787-ea41-43ac-9081-3181ff9b1e3b","system_id":"levelo_inurba_marseille","lat":43.27381,"lon":5.3625,"is_reserved":false,"is_disabled":false,"rental_uris":{"android":"levelo://app?vid=872ca787-ea41-43ac-9081-3181ff9b1e3b","ios":"levelo://app?vid=872ca787-ea41-43ac-9081-3181ff9b1e3b"},"vehicle_type_id":"4","last_reported":1769357625,"current_range_meters":8400,"station_id":"ce4bhbh2rcd13ifvqeo0","pricing_plan_id":"cebpf4jnsgd1na2vs0mg"},{"bike_id":"ffb6a194-260f-4933-8da9-320ddd27531e","system_id":"levelo_inurba_marseille","lat":43.25084,"lon":5.39508,"is_reserved":false,"is_disabled":false,"rental_uris":{"android":"levelo://app?vid=ffb6a194-260f-4933-8da9-320ddd27531e","ios":"levelo://app?vid=ffb6a194-260f-4933-8da9-320ddd27531e"},"vehicle_type_id":"4","last_reported":1769357625,"current_range_meters":8400,"station_id":"ce4bhm12rcd13ifvqgkg","pricing_plan_id":"cebpf4jnsgd1na2vs0mg"},{"bike_id":"7d6232c1-2c3f-4ac7-80ff-eb6d21c5143b","system_id":"levelo_inurba_marseille","lat":43.25512,"lon":5.37665,"is_reserved":false,"is_disabled":false,"rental_uris":{"android":"levelo://app?vid=7d6232c1-2c3f-4ac7-80ff-eb6d21c5143b","ios":"levelo://app?vid=7d6232c1-2c3f-4ac7-80ff-eb6d21c5143b"},"vehicle_type_id":"4","last_reported":1769357625,"current_range_meters":8400,"station_id":"ce4bhh12rcd13ifvqff0","pricing_plan_id":"cebpf4jnsgd1na2vs0mg"},{"bike_id":"af1a3621-d057-4ad0-b71e-c2bbcd71736a","system_id":"levelo_inurba_marseille","lat":43.30189,"lon":5.36623,"is_reserved":false,"is_disabled":true,"rental_uris":{"android":"levelo://app?vid=af1a3621-d057-4ad0-b71e-c2bbcd71736a","ios":"levelo://app?vid=af1a3621-d057-4ad0-b71e-c2bbcd71736a"},"vehicle_type_id":"4","last_reported":1769357625,"current_range_meters":8800,"station_id":"ce4bgrh2rcd13ifvqc8g","pricing_plan_id":"cebpf4jnsgd1na2vs0mg"},{"bike_id":"dea969c0-1e1e-4f04-aa1c-2420f6f01cf2","system_id":"levelo_inurba_marseille","lat":43.21747,"lon":5.34596,"is_reserved":false,"is_disabled":false,"rental_uris":{"android":"levelo://app?vid=dea969c0-1e1e-4f04-aa1c-2420f6f01cf2","ios":"levelo://app?vid=dea969c0-1e1e-4f04-aa1c-2420f6f01cf2"},"vehicle_type_id":"4","last_reported":1769357625,"current_range_meters":8800,"station_id":"st_cvj6r9ubvosntc0bgbag","pricing_plan_id":"cebpf4jnsgd1na2vs0mg"},{"bike_id":"6252b5bc-7f21-4a5c-90b2-fb54de33b122","system_id":"levelo_inurba_marseille","lat":43.24401,"lon":5.37051,"is_reserved":false,"is_disabled":false,"rental_uris":{"android":"levelo://app?vid=6252b5bc-7f21-4a5c-90b2-fb54de33b122","ios":"levelo://app?vid=6252b5bc-7f21-4a5c-90b2-fb54de33b122"},"vehicle_type_id":"4","last_reported":1769357625,"current_range_meters":8800,"station_id":"ce4bhhh2rcd13ifvqfk0","pricing_plan_id":"cebpf4jnsgd1na2vs0mg"},{"bike_id":"35de4117-1885-471d-ae81-ebbd7b148d3a","system_id":"levelo_inurba_marseille","lat":43.28158,"lon":5.42641,"is_reserved":false,"is_disabled":false,"rental_uris":{"android":"levelo://app?vid=35de4117-1885-471d-ae81-ebbd7b148d3a","ios":"levelo://app?vid=35de4117-1885-471d-ae81-ebbd7b148d3a"},"vehicle_type_id":"4","last_reported":1769357625,"current_range_meters":8800,"station_id":"ce4bhnh2rcd13ifvqgug","pricing_plan_id":"cebpf4jnsgd1na2vs0mg"},{"bike_id":"b0d2c80e-ed15-4930-af0a-5bfc09a11396","system_id":"levelo_inurba_marseille","lat":43.22934,"lon":5.35377,"is_reserved":false,"is_disabled":false,"rental_uris":{"android":"levelo://app?vid=b0d2c80e-ed15-4930-af0a-5bfc09a11396","ios":"levelo://app?vid=b0d2c80e-ed15-4930-af0a-5bfc09a11396"},"vehicle_type_id":"4","last_reported":1769357625,"current_range_meters":8800,"station_id":"cpo3532slgdg3j2ikp40","pricing_plan_id":"cebpf4jnsgd1na2vs0mg"},{"bike_id":"a15856db-9ac7-49b1-8876-30be7c45105f","system_id":"levelo_inurba_marseille","lat":43.25018,"lon":5.38958,"is_reserved":false,"is_disabled":false,"rental_uris":{"android":"levelo://app?vid=a15856db-9ac7-49b1-8876-30be7c45105f","ios":"levelo://app?vid=a15856db-9ac7-49b1-8876-30be7c45105f"},"vehicle_type_id":"4","last_reported":1769357625,"current_range_meters":8800,"station_id":"ce4bhgp2rcd13ifvqfd0","pricing_plan_id":"cebpf4jnsgd1na2vs0mg"},{"bike_id":"61165f3e-209e-47fa-857a-de8b3622f669","system_id":"levelo_inurba_marseille","lat":43.29618,"lon":5.3772,"is_reserved":false,"is_disabled":false,"rental_uris":{"android":"levelo://app?vid=61165f3e-209e-47fa-857a-de8b3622f669","ios":"levelo://app?vid=61165f3e-209e-47fa-857a-de8b3622f669"},"vehicle_type_id":"4","last_reported":1769357625,"current_range_meters":8800,"station_id":"ce4bgi92rcd13ifvqb90","pricing_plan_id":"cebpf4jnsgd1na2vs0mg"},{"bike_id":"fdd9efc7-53e9-441d-b99b-586302834715","system_id":"levelo_inurba_marseille","lat":43.29708,"lon":5.3729,"is_reserved":false,"is_disabled":false,"rental_uris":{"android":"levelo://app?vid=fdd9efc7-53e9-441d-b99b-586302834715","ios":"levelo://app?vid=fdd9efc7-53e9-441d-b99b-586302834715"},"vehicle_type_id":"4","last_reported":1769357625,"current_range_meters":8800,"station_id":"ce4bgk12rcd13ifvqbj0","pricing_plan_id":"cebpf4jnsgd1na2vs0mg"},{"bike_id":"0cb11f49-fd12-4588-8331-049df29e4932","system_id":"levelo_inurba_marseille","lat":43.23783,"lon":5.36628,"is_reserved":false,"is_disabled":false,"rental_uris":{"android":"levelo://app?vid=0cb11f49-fd12-4588-8331-049df29e4932","ios":"levelo://app?vid=0cb11f49-fd12-4588-8331-049df29e4932"},"vehicle_type_id":"4","last_reported":1769357625,"current_range_meters":8800,"station_id":"st_d3nk18o9ro0c73en2l3g","pricing_plan_id":"cebpf4jnsgd1na2vs0mg"},{"bike_id":"c0313abf-12fb-419d-943d-7cc5fd78e7ca","system_id":"levelo_inurba_marseille","lat":43.31231,"lon":5.36634,"is_reserved":false,"is_disabled":false,"rental_uris":{"android":"levelo://app?vid=c0313abf-12fb-419d-943d-7cc5fd78e7ca","ios":"levelo://app?vid=c0313abf-12fb-419d-943d-7cc5fd78e7ca"},"vehicle_type_id":"4","last_reported":1769357625,"current_range_meters":8800,"station_id":"","pricing_plan_id":"cebpf4jnsgd1na2vs0mg"},{"bike_id":"14a0bf97-5da9-4224-8def-de9f4b384230","system_id":"levelo_inurba_marseille","lat":43.2535,"lon":5.42152,"is_reserved":false,"is_disabled":false,"rental_uris":{"android":"levelo://app?vid=14a0bf97-5da9-4224-8def-de9f4b384230","ios":"levelo://app?vid=14a0bf97-5da9-4224-8def-de9f4b384230"},"vehicle_type_id":"4","last_reported":1769357625,"current_range_meters":8800,"station_id":"st_d2m65c5bi1j21697t3ng","pricing_plan_id":"cebpf4jnsgd1na2vs0mg"},{"bike_id":"5790f69f-3566-47eb-a22a-5db09c68b579","system_id":"levelo_inurba_marseille","lat":43.28621,"lon":5.35109,"is_reserved":false,"is_disabled":false,"rental_uris":{"android":"levelo://app?vid=5790f69f-3566-47eb-a22a-5db09c68b579","ios":"levelo://app?vid=5790f69f-3566-47eb-a22a-5db09c68b579"},"vehicle_type_id":"4","last_reported":1769357625,"current_range_meters":8800,"station_id":"ce4bhch2rcd13ifvqeug","pricing_plan_id":"cebpf4jnsgd1na2vs0mg"},{"bike_id":"d473e75c-bade-4c4c-89ec-a18e219fef3e","system_id":"levelo_inurba_marseille","lat":43.24187,"lon":5.39725,"is_reserved":false,"is_disabled":false,"rental_uris":{"android":"levelo://app?vid=d473e75c-bade-4c4c-89ec-a18e219fef3e","ios":"levelo://app?vid=d473e75c-bade-4c4c-89ec-a18e219fef3e"},"vehicle_type_id":"4","last_reported":1769357625,"current_range_meters":8800,"station_id":"ce4bhn12rcd13ifvqgpg","pricing_plan_id":"cebpf4jnsgd1na2vs0mg"},{"bike_id":"4e1ea1cf-b58b-46f4-b385-98f553a0e86f","system_id":"levelo_inurba_marseille","lat":43.28158,"lon":5.42633,"is_reserved":false,"is_disabled":false,"rental_uris":{"android":"levelo://app?vid=4e1ea1cf-b58b-46f4-b385-98f553a0e86f","ios":"levelo://app?vid=4e1ea1cf-b58b-46f4-b385-98f553a0e86f"},"vehicle_type_id":"4","last_reported":1769357625,"current_range_meters":8800,"station_id":"ce4bhnh2rcd13ifvqgug","pricing_plan_id":"cebpf4jnsgd1na2vs0mg"},{"bike_id":"3707ebc5-fb41-462f-801e-d8b0339eac2b","system_id":"levelo_inurba_marseille","lat":43.305272,"lon":5.36578,"is_reserved":false,"is_disabled":false,"rental_uris":{"android":"levelo://app?vid=3707ebc5-fb41-462f-801e-d8b0339eac2b","ios":"levelo://app?vid=3707ebc5-fb41-462f-801e-d8b0339eac2b"},"vehicle_type_id":"4","last_reported":1769357625,"current_range_meters":8800,"station_id":"","pricing_plan_id":"cebpf4jnsgd1na2vs0mg"},{"bike_id":"9d4ba36e-7f59-4f55-a4b4-f63e2ab21272","system_id":"levelo_inurba_marseille","lat":43.29915,"lon":5.37454,"is_reserved":false,"is_disabled":false,"rental_uris":{"android":"levelo://app?vid=9d4ba36e-7f59-4f55-a4b4-f63e2ab21272","ios":"levelo://app?vid=9d4ba36e-7f59-4f55-a4b4-f63e2ab21272"},"vehicle_type_id":"4","last_reported":1769357625,"current_range_meters":8800,"station_id":"ce4bgjh2rcd13ifvqbg0","pricing_plan_id":"cebpf4jnsgd1na2vs0mg"},{"bike_id":"53198413-049a-45a9-8cde-151eda89e50c","system_id":"levelo_inurba_marseille","lat":43.29719,"lon":5.37664,"is_reserved":false,"is_disabled":false,"rental_uris":{"android":"levelo://app?vid=53198413-049a-45a9-8cde-151eda89e50c","ios":"levelo://app?vid=53198413-049a-45a9-8cde-151eda89e50c"},"vehicle_type_id":"4","last_reported":1769357625,"current_range_meters":8800,"station_id":"ce4bgkh2rcd13ifvqbl0","pricing_plan_id":"cebpf4jnsgd1na2vs0mg"},{"bike_id":"d9afd374-790a-426e-b386-c9a0a325b893","system_id":"levelo_inurba_marseille","lat":43.30555,"lon":5.36542,"is_reserved":false,"is_disabled":false,"rental_uris":{"android":"levelo://app?vid=d9afd374-790a-426e-b386-c9a0a325b893","ios":"levelo://app?vid=d9afd374-790a-426e-b386-c9a0a325b893"},"vehicle_type_id":"4","last_reported":1769357625,"current_range_meters":8800,"station_id":"ce4bgs12rcd13ifvqcag","pricing_plan_id":"cebpf4jnsgd1na2vs0mg"},