{"last_updated":1731528567,"ttl":60,"version":"2.2","data":{"bikes":[{"bike_id":"e56d8ebf-051a-4562-849f-7540614a43b9","system_id":"levelo_inurba_marseille","lat":43.28941,"lon":5.39632,"is_reserved":false,"is_disabled":false,"rental_uris":{"android":"levelo://app?vid=e56d8ebf-051a-4562-849f-7540614a43b9","ios":"levelo://app?vid=e56d8ebf-051a-4562-849f-7540614a43b9"},"vehicle_type_id":"4","last_reported":1731528567,"current_range_meters":6800,"station_id":"ce4bh3h2rcd13ifvqdn0","pricing_plan_id":"cebpf4jnsgd1na2vs0mg"},{"bike_id":"4c6f81c8-c2ea-4292-aa7a-9ac037143110","system_id":"levelo_inurba_marseille","lat":43.28942,"lon":5.36406,"is_reserved":false,"is_disabled":false,"rental_uris":{"android":"levelo://app?vid=4c6f81c8-c2ea-4292-aa7a-9ac037143110","ios":"levelo://app?vid=4c6f81c8-c2ea-4292-aa7a-9ac037143110"},"vehicle_type_id":"4","last_reported":1731528567,"current_range_meters":38800,"station_id":"ce4bhc92rcd13ifvqetg","pricing_plan_id":"cebpf4jnsgd1na2vs0mg"},{"bike_id":"2d85a8c9-73cd-4fa7-9d24-3a50ba732dcc","system_id":"levelo_inurba_marseille","lat":43.23962,"lon":5.366303,"is_reserved":false,"is_disabled":false,"rental_uris":{"android":"levelo://app?vid=2d85a8c9-73cd-4fa7-9d24-3a50ba732dcc","ios":"levelo://app?vid=2d85a8c9-73cd-4fa7-9d24-3a50ba732dcc"},"vehicle_type_id":"4","last_reported":1731528567,"current_range_meters":18000,"station_id":"ce4bhi12rcd13ifvqfp0","pricing_plan_id":"cebpf4jnsgd1na2vs0mg"},{"bike_id":"a8523969-7310-41b8-ba95-7f5054b6a770","system_id":"levelo_inurba_marseille","lat":43.32661,"lon":5.4099,"is_reserved":false,"is_disabled":false,"rental_uris":{"android":"levelo://app?vid=a8523969-7310-41b8-ba95-7f5054b6a770","ios":"levelo://app?vid=a8523969-7310-41b8-ba95-7f5054b6a770"},"vehicle_type_id":"4","last_reported":1731528567,"current_range_meters":32000,"station_id":"ce4bhpp2rcd13ifvqhgg","pricing_plan_id":"cebpf4jnsgd1na2vs0mg"},{"bike_id":"50deb091-61cf-46a5-a572-02dfcaf7443c","system_id":"levelo_inurba_marseille","lat":43.26793,"lon":5.4027,"is_reserved":false,"is_disabled":false,"rental_uris":{"android":"levelo://app?vid=50deb091-61cf-46a5-a572-02dfcaf7443c","ios":"levelo://app?vid=50deb091-61cf-46a5-a572-02dfcaf7443c"},"vehicle_type_id":"4","last_reported":1731528567,"current_range_meters":24800,"station_id":"ce501612rcd8frsf0b60","pricing_plan_id":"cebpf4jnsgd1na2vs0mg"},{"bike_id":"eb66c83e-9c22-451e-9a96-11fcf0b6a22c","system_id":"levelo_inurba_marseille","lat":43.3181,"lon":5.38991,"is_reserved":false,"is_disabled":false,"rental_uris":{"android":"levelo://app?vid=eb66c83e-9c22-451e-9a96-11fcf0b6a22c","ios":"levelo://app?vid=eb66c83e-9c22-451e-9a96-11fcf0b6a22c"},"vehicle_type_id":"4","last_reported":1731528567,"current_range_meters":38800,"station_id":"","pricing_plan_id":"cebpf4jnsgd1na2vs0mg"},{"bike_id":"a809c138-fd8b-4171-b770-b916fa7d466d","system_id":"levelo_inurba_marseille","lat":43.2903,"lon":5.38138,"is_reserved":false,"is_disabled":false,"rental_uris":{"android":"levelo://app?vid=a809c138-fd8b-4171-b770-b916fa7d466d","ios":"levelo://app?vid=a809c138-fd8b-4171-b770-b916fa7d466d"},"vehicle_type_id":"4","last_reported":1731528567,"current_range_meters":25600,"station_id":"ce4bh4p2rcd13ifvqe1g","pricing_plan_id":"cebpf4jnsgd1na2vs0mg"},{"bike_id":"9bc8383d-73ba-4f65-999c-aeef63d49bba","system_id":"levelo_inurba_marseille","lat":43.29297,"lon":5.37463,"is_reserved":false,"is_disabled":false,"rental_uris":{"android":"levelo://app?vid=9bc8383d-73ba-4f65-999c-aeef63d49bba","ios":"levelo://app?vid=9bc8383d-73ba-4f65-999c-aeef63d49bba"},"vehicle_type_id":"4","last_reported":1731528567,"current_range_meters":6000,"station_id":"ce4bgi12rcd13ifvqb70","pricing_plan_id":"cebpf4jnsgd1na2vs0mg"},{"bike_id":"701e6149-1989-449d-93d2-2dd8b1910c23","system_id":"levelo_inurba_marseille","lat":43.27997,"lon":5.41657,"is_reserved":false,"is_disabled":false,"rental_uris":{"android":"levelo://app?vid=701e6149-1989-449d-93d2-2dd8b1910c23","ios":"levelo://app?vid=701e6149-1989-449d-93d2-2dd8b1910c23"},"vehicle_type_id":"4","last_reported":1731528567,"current_range_meters":38800,"station_id":"ce4bho12rcd13ifvqh1g","pricing_plan_id":"cebpf4jnsgd1na2vs0mg"},{"bike_id":"052f9b93-6cd6-4b1f-acb9-36b85dbc4923","system_id":"levelo_inurba_marseille","lat":43.2846,"lon":5.35896,"is_reserved":false,"is_disabled":false,"rental_uris":{"android":"levelo://app?vid=052f9b93-6cd6-4b1f-acb9-36b85dbc4923","ios":"levelo://app?vid=052f9b93-6cd6-4b1f-acb9-36b85dbc4923"},"vehicle_type_id":"4","last_reported":1731528567,"current_range_meters":11200,"station_id":"ce4bhah2rcd13ifvqei0","pricing_plan_id":"cebpf4jnsgd1na2vs0mg"},{"bike_id":"ae292185-8e91-4db6-a612-c3563674c7fa","system_id":"levelo_inurba_marseille","lat":43.31763,"lon":5.39018,"is_reserved":false,"is_disabled":false,"rental_uris":{"android":"levelo://app?vid=ae292185-8e91-4db6-a612-c3563674c7fa","ios":"levelo://app?vid=ae292185-8e91-4db6-a612-c3563674c7fa"},"vehicle_type_id":"4","last_reported":1731528567,"current_range_meters":24400,"station_id":"ce4bhqp2rcd13ifvqhng","pricing_plan_id":"cebpf4jnsgd1na2vs0mg"},{"bike_id":"e284bf0f-8cbf-463b-a39e-6af10373216e","system_id":"levelo_inurba_marseille","lat":43.27805,"lon":5.40712,"is_reserved":false,"is_disabled":false,"rental_uris":{"android":"levelo://app?vid=e284bf0f-8cbf-463b-a39e-6af10373216e","ios":"levelo://app?vid=e284bf0f-8cbf-463b-a39e-6af10373216e"},"vehicle_type_id":"4","last_reported":1731528567,"current_range_meters":23200,"station_id":"ce4bhnh2rcd13ifvqgtg","pricing_plan_id":"cebpf4jnsgd1na2vs0mg"},{"bike_id":"c875716a-a538-487f-883d-c524570339a9","system_id":"levelo_inurba_marseille","lat":43.29004,"lon":5.35606,"is_reserved":false,"is_disabled":false,"rental_uris":{"android":"levelo://app?vid=c875716a-a538-487f-883d-c524570339a9","ios":"levelo://app?vid=c875716a-a538-487f-883d-c524570339a9"},"vehicle_type_id":"4","last_reported":1731528567,"current_range_meters":36000,"station_id":"ce4bhb92rcd13ifvqen0","pricing_plan_id":"cebpf4jnsgd1na2vs0mg"},{"bike_id":"4d824078-01a9-4885-a9c0-73e7217a8f8b","system_id":"levelo_inurba_marseille","lat":43.28931,"lon":5.3664,"is_reserved":false,"is_disabled":false,"rental_uris":{"android":"levelo://app?vid=4d824078-01a9-4885-a9c0-73e7217a8f8b","ios":"levelo://app?vid=4d824078-01a9-4885-a9c0-73e7217a8f8b"},"vehicle_type_id":"4","last_reported":1731528567,"current_range_meters":28400,"station_id":"ce4bhap2rcd13ifvqek0","pricing_plan_id":"cebpf4jnsgd1na2vs0mg"},{"bike_id":"3141bbeb-d84f-42bb-86ef-e7e1602fe4d2","system_id":"levelo_inurba_marseille","lat":43.29771,"lon":5.37103,"is_reserved":false,"is_disabled":false,"rental_uris":{"android":"levelo://app?vid=3141bbeb-d84f-42bb-86ef-e7e1602fe4d2","ios":"levelo://app?vid=3141bbeb-d84f-42bb-86ef-e7e1602fe4d2"},"vehicle_type_id":"4","last_reported":1731528567,"current_range_meters":18000,"station_id":"ce4bgop2rcd13ifvqc1g","pricing_plan_id":"cebpf4jnsgd1na2vs0mg"},{"bike_id":"d9c902c9-ceb4-4faa-92db-38f2e5e1d341","system_id":"levelo_inurba_marseille","lat":43.25823,"lon":5.39443,"is_reserved":false,"is_disabled":false,"rental_uris":{"android":"levelo://app?vid=d9c902c9-ceb4-4faa-92db-38f2e5e1d341","ios":"levelo://app?vid=d9c902c9-ceb4-4faa-92db-38f2e5e1d341"},"vehicle_type_id":"4","last_reported":1731528567,"current_range_meters":6000,"station_id":"ce4bhip2rcd13ifvqft0","pricing_plan_id":"cebpf4jnsgd1na2vs0mg"},{"bike_id":"98298814-5182-45c6-82d2-fb0c804b7f65","system_id":"levelo_inurba_marseille","lat":43.265759,"lon":5.39001,"is_reserved":false,"is_disabled":false,"rental_uris":{"android":"levelo://app?vid=98298814-5182-45c6-82d2-fb0c804b7f65","ios":"levelo://app?vid=98298814-5182-45c6-82d2-fb0c804b7f65"},"vehicle_type_id":"4","last_reported":1731528567,"current_range_meters":38800,"station_id":"ce4bhe12rcd13ifvqf30","pricing_plan_id":"cebpf4jnsgd1na2vs0mg"},{"bike_id":"0bd3f242-8340-44a3-84e6-ee4dcef6127b","system_id":"levelo_inurba_marseille","lat":43.2893,"lon":5.36627,"is_reserved":false,"is_disabled":false,"rental_uris":{"android":"levelo://app?vid=0bd3f242-8340-44a3-84e6-ee4dcef6127b","ios":"levelo://app?vid=0bd3f242-8340-44a3-84e6-ee4dcef6127b"},"vehicle_type_id":"4","last_reported":1731528567,"current_range_meters":32400,"station_id":"ce4bhap2rcd13ifvqek0","pricing_plan_id":"cebpf4jnsgd1na2vs0mg"},{"bike_id":"9c6000a7-fa4d-4bfa-a50a-5d3f670753c4","system_id":"levelo_inurba_marseille","lat":43.29265,"lon":5.38444,"is_reserved":false,"is_disabled":false,"rental_uris":{"android":"levelo://app?vid=9c6000a7-fa4d-4bfa-a50a-5d3f670753c4","ios":"levelo://app?vid=9c6000a7-fa4d-4bfa-a50a-5d3f670753c4"},"vehicle_type_id":"4","last_reported":1731528567,"current_range_meters":3200,"station_id":"ce4bh692rcd13ifvqea0","pricing_plan_id":"cebpf4jnsgd1na2vs0mg"},{"bike_id":"6f0d2b21-fcda-4dc6-85a8-6f9933474482","system_id":"levelo_inurba_marseille","lat":43.25861,"lon":5.39892,"is_reserved":false,"is_disabled":false,"rental_uris":{"android":"levelo://app?vid=6f0d2b21-fcda-4dc6-85a8-6f9933474482","ios":"levelo://app?vid=6f0d2b21-fcda-4dc6-85a8-6f9933474482"},"vehicle_type_id":"4","last_reported":1731528567,"current_range_meters":22400,"station_id":"ce4bhl92rcd13ifvqghg","pricing_plan_id":"cebpf4jnsgd1na2vs0mg"},{"bike_id":"955710c8-768d-4e59-9a97-d3797676d0f1","system_id":"levelo_inurba_marseille","lat":43.28664,"lon":5.36344,"is_reserved":false,"is_disabled":false,"rental_uris":{"android":"levelo://app?vid=955710c8-768d-4e59-9a97-d3797676d0f1","ios":"levelo://app?vid=955710c8-768d-4e59-9a97-d3797676d0f1"},"vehicle_type_id":"4","last_reported":1731528567,"current_range_meters":14000,"station_id":"ce4bhah2rcd13ifvqej0","pricing_plan_id":"cebpf4jnsgd1na2vs0mg"},{"bike_id":"c0b4cf1d-9420-4498-85d3-d2dbd7034bab","system_id":"levelo_inurba_marseille","lat":43.29098,"lon":5.3811,"is_reserved":false,"is_disabled":false,"rental_uris":{"android":"levelo://app?vid=c0b4cf1d-9420-4498-85d3-d2dbd7034bab","ios":"levelo://app?vid=c0b4cf1d-9420-4498-85d3-d2dbd7034bab"},"vehicle_type_id":"4","last_reported":1731528567,"current_range_meters":28400,"station_id":"ce4bh512rcd13ifvqe2g","pricing_plan_id":"cebpf4jnsgd1na2vs0mg"},{"bike_id":"1cfb36c9-5ab6-4e6d-a739-23a3cf6a1aac","system_id":"levelo_inurba_marseille","lat":43.291687,"lon":5.371566,"is_reserved":false,"is_disabled":false,"rental_uris":{"android":"levelo://app?vid=1cfb36c9-5ab6-4e6d-a739-23a3cf6a1aac","ios":"levelo://app?vid=1cfb36c9-5ab6-4e6d-a739-23a3cf6a1aac"},"vehicle_type_id":"4","last_reported":1731528567,"current_range_meters":27200,"station_id":"ce4bha92rcd13ifvqeh0","pricing_plan_id":"cebpf4jnsgd1na2vs0mg"},{"bike_id":"af23c437-9c01-4e48-a6af-488f0359b3d8","system_id":"levelo_inurba_marseille","lat":43.239636,"lon":5.366292,"is_reserved":false,"is_disabled":false,"rental_uris":{"android":"levelo://app?vid=af23c437-9c01-4e48-a6af-488f0359b3d8","ios":"levelo://app?vid=af23c437-9c01-4e48-a6af-488f0359b3d8"},"vehicle_type_id":"4","last_reported":1731528567,"current_range_meters":28000,"station_id":"ce4bhi12rcd13ifvqfp0","pricing_plan_id":"cebpf4jnsgd1na2vs0mg"},{"bike_id":"d0733b5e-6bfa-4bdb-8b6a-792a1167a5b8","system_id":"levelo_inurba_marseille","lat":43.31161,"lon":5.38724,"is_reserved":false,"is_disabled":false,"rental_uris":{"android":"levelo://app?vid=d0733b5e-6bfa-4bdb-8b6a-792a1167a5b8","ios":"levelo://app?vid=d0733b5e-6bfa-4bdb-8b6a-792a1167a5b8"},"vehicle_type_id":"4","last_reported":1731528567,"current_range_meters":38800,"station_id":"ce4bgv12rcd13ifvqcp0","pricing_plan_id":"cebpf4jnsgd1na2vs0mg"},{"bike_id":"467bc632-7193-445e-a590-9d6c7df77378","system_id":"levelo_inurba_marseille","lat":43.30594,"lon":5.39348,"is_reserved":false,"is_disabled":false,"rental_uris":{"android":"levelo://app?vid=467bc632-7193-445e-a590-9d6c7df77378","ios":"levelo://app?vid=467bc632-7193-445e-a590-9d6c7df77378"},"vehicle_type_id":"4","last_reported":1731528567,"current_range_meters":24400,"station_id":"ce4bh0p2rcd13ifvqd80","pricing_plan_id":"cebpf4jnsgd1na2vs0mg"},{"bike_id":"4a74f469-1d99-48ee-a8ca-9199898c00a4","system_id":"levelo_inurba_marseille","lat":43.23192,"lon":5.35542,"is_reserved":false,"is_disabled":false,"rental_uris":{"android":"levelo://app?vid=4a74f469-1d99-48ee-a8ca-9199898c00a4","ios":"levelo://app?vid=4a74f469-1d99-48ee-a8ca-9199898c00a4"},"vehicle_type_id":"4","last_reported":1731528567,"current_range_meters":25600,"station_id":"ce4bhu92rcd13ifvqi70","pricing_plan_id":"cebpf4jnsgd1na2vs0mg"},{"bike_id":"77849bd5-5bfe-4445-8191-82da714d15fa","system_id":"levelo_inurba_marseille","lat":43.27813,"lon":5.4071,"is_reserved":false,"is_disabled":false,"rental_uris":{"android":"levelo://app?vid=77849bd5-5bfe-4445-8191-82da714d15fa","ios":"levelo://app?vid=77849bd5-5bfe-4445-8191-82da714d15fa"},"vehicle_type_id":"4","last_reported":1731528567,"current_range_meters":36400,"station_id":"ce4bhnh2rcd13ifvqgtg","pricing_plan_id":"cebpf4jnsgd1na2vs0mg"},{"bike_id":"665699a5-6b6c-4677-82d6-c491fd2c4a6f","system_id":"levelo_inurba_marseille","lat":43.26566,"lon":5.390069,"is_reserved":false,"is_disabled":false,"rental_uris":{"android":"levelo://app?vid=665699a5-6b6c-4677-82d6-c491fd2c4a6f","ios":"levelo://app?vid=665699a5-6b6c-4677-82d6-c491fd2c4a6f"},"vehicle_type_id":"4","last_reported":1731528567,"current_range_meters":38800,"station_id":"ce4bhe12rcd13ifvqf30","pricing_plan_id":"cebpf4jnsgd1na2vs0mg"},{"bike_id":"baeed238-b5b4-482c-9e5c-2accf4da025a","system_id":"levelo_inurba_marseille","lat":43.28023,"lon":5.36938,"is_reserved":false,"is_disabled":false,"rental_uris":{"android":"levelo://app?vid=baeed238-b5b4-482c-9e5c-2accf4da025a","ios":"levelo://app?vid=baeed238-b5b4-482c-9e5c-2accf4da025a"},"vehicle_type_id":"4","last_reported":1731528567,"current_range_meters":28000,"station_id":"ce4bha12rcd13ifvqef0","pricing_plan_id":"cebpf4jnsgd1na2vs0mg"},{"bike_id":"32d3f844-515b-41ab-91c8-63e08ca917cf","system_id":"levelo_inurba_marseille","lat":43.316101,"lon":5.388925,"is_reserved":false,"is_disabled":false,"rental_uris":{"android":"levelo://app?vid=32d3f844-515b-41ab-91c8-63e08ca917cf","ios":"levelo://app?vid=32d3f844-515b-41ab-91c8-63e08ca917cf"},"vehicle_type_id":"4","last_reported":1731528567,"current_range_meters":29600,"station_id":"ce4bhpp2rcd13ifvqhfg","pricing_plan_id":"cebpf4jnsgd1na2vs0mg"},{"bike_id":"2e960e80-c112-410b-90d9-633f97743a4c","system_id":"levelo_inurba_marseille","lat":43.29799,"lon":5.38088,"is_reserved":false,"is_disabled":false,"rental_uris":{"android":"levelo://app?vid=2e960e80-c112-410b-90d9-633f97743a4c","ios":"levelo://app?vid=2e960e80-c112-410b-90d9-633f97743a4c"},"vehicle_type_id":"4","last_reported":1731528567,"current_range_meters":38800,"station_id":"ce4bgip2rcd13ifvqbb0","pricing_plan_id":"cebpf4jnsgd1na2vs0mg"},{"bike_id":"15af60d0-2bc4-4ab5-aaff-d64def88b153","system_id":"levelo_inurba_marseille","lat":43.3136,"lon":5.38491,"is_reserved":false,"is_disabled":false,"rental_uris":{"android":"levelo://app?vid=15af60d0-2bc4-4ab5-aaff-d64def88b153","ios":"levelo://app?vid=15af60d0-2bc4-4ab5-aaff-d64def88b153"},"vehicle_type_id":"4","last_reported":1731528567,"current_range_meters":27600,"station_id":"ce4bgt92rcd13ifvqcf0","pricing_plan_id":"cebpf4jnsgd1na2vs0mg"},{"bike_id":"77ff319c-086a-45f0-b515-acafabcb1ec9","system_id":"levelo_inurba_marseille","lat":43.30796,"lon":5.43522,"is_reserved":false,"is_disabled":false,"rental_uris":{"android":"levelo://app?vid=77ff319c-086a-45f0-b515-acafabcb1ec9","ios":"levelo://app?vid=77ff319c-086a-45f0-b515-acafabcb1ec9"},"vehicle_type_id":"4","last_reported":1731528567,"current_range_meters":33600,"station_id":"ce4bhph2rcd13ifvqheg","pricing_plan_id":"cebpf4jnsgd1na2vs0mg"},{"bike_id":"0f48a494-55e9-4db7-a419-b24787456936","system_id":"levelo_inurba_marseille","lat":43.29021,"lon":5.38632,"is_reserved":false,"is_disabled":false,"rental_uris":{"android":"levelo://app?vid=0f48a494-55e9-4db7-a419-b24787456936","ios":"levelo://app?vid=0f48a494-55e9-4db7-a419-b24787456936"},"vehicle_type_id":"4","last_reported":1731528567,"current_range_meters":2800,"station_id":"ce4bh4p2rcd13ifvqe0g","pricing_plan_id":"cebpf4jnsgd1na2vs0mg"},{"bike_id":"d90d861b-f246-48e4-b5c6-8f100bd8f91c","system_id":"levelo_inurba_marseille","lat":43.25081,"lon":5.39507,"is_reserved":false,"is_disabled":false,"rental_uris":{"android":"levelo://app?vid=d90d861b-f246-48e4-b5c6-8f100bd8f91c","ios":"levelo://app?vid=d90d861b-f246-48e4-b5c6-8f100bd8f91c"},"vehicle_type_id":"4","last_reported":1731528567,"current_range_meters":27200,"station_id":"ce4bhm12rcd13ifvqgkg","pricing_plan_id":"cebpf4jnsgd1na2vs0mg"},{"bike_id":"263d9352-745d-4496-b9ba-001591edf2fa","system_id":"levelo_inurba_marseille","lat":43.25505,"lon":5.37648,"is_reserved":false,"is_disabled":false,"rental_uris":{"android":"levelo://app?vid=263d9352-745d-4496-b9ba-001591edf2fa","ios":"levelo://app?vid=263d9352-745d-4496-b9ba-001591edf2fa"},"vehicle_type_id":"4","last_reported":1731528567,"current_range_meters":32400,"station_id":"ce4bhh12rcd13ifvqff0","pricing_plan_id":"cebpf4jnsgd1na2vs0mg"},{"bike_id":"5a62bbf4-0c11-40cf-814d-301fd0a3a13c","system_id":"levelo_inurba_marseille","lat":43.28,"lon":5.40018,"is_reserved":false,"is_disabled":false,"rental_uris":{"android":"levelo://app?vid=5a62bbf4-0c11-40cf-814d-301fd0a3a13c","ios":"levelo://app?vid=5a62bbf4-0c11-40cf-814d-301fd0a3a13c"},"vehicle_type_id":"4","last_reported":1731528567,"current_range_meters":38400,"station_id":"ce4bho92rcd13ifvqh4g","pricing_plan_id":"cebpf4jnsgd1na2vs0mg"},{"bike_id":"486ae6c9-bf71-448f-9ead-132d0c5845c1","system_id":"levelo_inurba_marseille","lat":43.30088,"lon":5.39084,"is_reserved":false,"is_disabled":false,"rental_uris":{"android":"levelo://app?vid=486ae6c9-bf71-448f-9ead-132d0c5845c1","ios":"levelo://app?vid=486ae6c9-bf71-448f-9ead-132d0c5845c1"},"vehicle_type_id":"4","last_reported":1731528567,"current_range_meters":14400,"station_id":"ce4bh192rcd13ifvqdb0","pricing_plan_id":"cebpf4jnsgd1na2vs0mg"},{"bike_id":"58ba5ea2-470c-498b-b318-3980922fb046","system_id":"levelo_inurba_marseille","lat":43.30903,"lon":5.3718,"is_reserved":false,"is_disabled":false,"rental_uris":{"android":"levelo://app?vid=58ba5ea2-470c-498b-b318-3980922fb046","ios":"levelo://app?vid=58ba5ea2-470c-498b-b318-3980922fb046"},"vehicle_type_id":"4","last_reported":1731528567,"current_range_meters":6000,"station_id":"ce4bguh2rcd13ifvqckg","pricing_plan_id":"cebpf4jnsgd1na2vs0mg"},{"bike_id":"44376c3b-e62c-4341-acee-1fb0b2497c4c","system_id":"levelo_inurba_marseille","lat":43.23958,"lon":5.36664,"is_reserved":false,"is_disabled":false,"rental_uris":{"android":"levelo://app?vid=44376c3b-e62c-4341-acee-1fb0b2497c4c","ios":"levelo://app?vid=44376c3b-e62c-4341-acee-1fb0b2497c4c"},"vehicle_type_id":"4","last_reported":1731528567,"current_range_meters":35600,"station_id":"ce4bhi12rcd13ifvqfp0","pricing_plan_id":"cebpf4jnsgd1na2vs0mg"},{"bike_id":"45865806-bc2c-4c6c-8332-c61b5ccd45c4","system_id":"levelo_inurba_marseille","lat":43.3153,"lon":5.3802,"is_reserved":false,"is_disabled":false,"rental_uris":{"android":"levelo://app?vid=45865806-bc2c-4c6c-8332-c61b5ccd45c4","ios":"levelo://app?vid=45865806-bc2c-4c6c-8332-c61b5ccd45c4"},"vehicle_type_id":"4","last_reported":1731528567,"current_range_meters":39200,"station_id":"ce4bhsp2rcd13ifvqi50","pricing_plan_id":"cebpf4jnsgd1na2vs0mg"},{"bike_id":"e8c29f09-ca6d-40ba-8178-db92cf2e907e","system_id":"levelo_inurba_marseille","lat":43.28861,"lon":5.39314,"is_reserved":false,"is_disabled":false,"rental_uris":{"android":"levelo://app?vid=e8c29f09-ca6d-40ba-8178-db92cf2e907e","ios":"levelo://app?vid=e8c29f09-ca6d-40ba-8178-db92cf2e907e"},"vehicle_type_id":"4","last_reported":1731528567,"current_range_meters":38800,"station_id":"ce4bh2p2rcd13ifvqdi0","pricing_plan_id":"cebpf4jnsgd1na2vs0mg"},{"bike_id":"dbbecf2f-0cb9-4679-a1bc-19b1f856f9c9","system_id":"levelo_inurba_marseille","lat":43.28667,"lon":5.3635,"is_reserved":false,"is_disabled":false,"rental_uris":{"android":"levelo://app?vid=dbbecf2f-0cb9-4679-a1bc-19b1f856f9c9","ios":"levelo://app?vid=dbbecf2f-0cb9-4679-a1bc-19b1f856f9c9"},"vehicle_type_id":"4","last_reported":1731528567,"current_range_meters":13600,"station_id":"ce4bhah2rcd13ifvqej0","pricing_plan_id":"cebpf4jnsgd1na2vs0mg"},{"bike_id":"f7b15652-a829-488d-89b2-58cb9377f30c","system_id":"levelo_inurba_marseille","lat":43.27993,"lon":5.4002,"is_reserved":false,"is_disabled":false,"rental_uris":{"android":"levelo://app?vid=f7b15652-a829-488d-89b2-58cb9377f30c","ios":"levelo://app?vid=f7b15652-a829-488d-89b2-58cb9377f30c"},"vehicle_type_id":"4","last_reported":1731528567,"current_range_meters":14400,"station_id":"ce4bho92rcd13ifvqh4g","pricing_plan_id":"cebpf4jnsgd1na2vs0mg"},{"bike_id":"558355e9-bfb9-4b65-9aa9-8b11f75a01f6","system_id":"levelo_inurba_marseille","lat":43.32482,"lon":5.36556,"is_reserved":false,"is_disabled":false,"rental_uris":{"android":"levelo://app?vid=558355e9-bfb9-4b65-9aa9-8b11f75a01f6","ios":"levelo://app?vid=558355e9-bfb9-4b65-9aa9-8b11f75a01f6"},"vehicle_type_id":"4","last_reported":1731528567,"current_range_meters":8400,"station_id":"ce4bhs12rcd13ifvqhvg","pricing_plan_id":"cebpf4jnsgd1na2vs0mg"},{"bike_id":"e7dba591-5900-402e-97ff-bd9dd1890971","system_id":"levelo_inurba_marseille","lat":43.29883,"lon":5.3972,"is_reserved":false,"is_disabled":false,"rental_uris":{"android":"levelo://app?vid=e7dba591-5900-402e-97ff-bd9dd1890971","ios":"levelo://app?vid=e7dba591-5900-402e-97ff-bd9dd1890971"},"vehicle_type_id":"4","last_reported":1731528567,"current_range_meters":38800,"station_id":"ce4bh0h2rcd13ifvqd50","pricing_plan_id":"cebpf4jnsgd1na2vs0mg"},{"bike_id":"4e10d3d1-06de-4b84-a31a-b5e01f1d09a4","system_id":"levelo_inurba_marseille","lat":43.32483,"lon":5.36557,"is_reserved":false,"is_disabled":false,"rental_uris":{"android":"levelo://app?vid=4e10d3d1-06de-4b84-a31a-b5e01f1d09a4","ios":"levelo://app?vid=4e10d3d1-06de-4b84-a31a-b5e01f1d09a4"},"vehicle_type_id":"4","last_reported":1731528567,"current_range_meters":35200,"station_id":"ce4bhs12rcd13ifvqhvg","pricing_plan_id":"cebpf4jnsgd1na2vs0mg"},{"bike_id":"72a3122b-3968-42df-88c4-71eec312046a","system_id":"levelo_inurba_marseille","lat":43.30949,"lon":5.40133,"is_reserved":false,"is_disabled":false,"rental_uris":{"android":"levelo://app?vid=72a3122b-3968-42df-88c4-71eec312046a","ios":"levelo://app?vid=72a3122b-3968-42df-88c4-71eec312046a"},"vehicle_type_id":"4","last_reported":1731528567,"current_range_meters":38000,"station_id":"ce4bgvp2rcd13ifvqct0","pricing_plan_id":"cebpf4jnsgd1na2vs0mg"},{"bike_id":"dbf0c71b-3447-46e7-a41e-4d6040f58a01","system_id":"levelo_inurba_marseille","lat":43.29254,"lon":5.40893,"is_reserved":false,"is_disabled":false,"rental_uris":{"android":"levelo://app?vid=dbf0c71b-3447-46e7-a41e-4d6040f58a01","ios":"levelo://app?vid=dbf0c71b-3447-46e7-a41e-4d6040f58a01"},"vehicle_type_id":"4","last_reported":1731528567,"current_range_meters":8000,"station_id":"ce4bh192rcd13ifvqdc0","pricing_plan_id":"cebpf4jnsgd1na2vs0mg"},{"bike_id":"12817c99-3b1a-40e0-be55-c1f1ccfaedd7","system_id":"levelo_inurba_marseille","lat":43.27808,"lon":5.40713,"is_reserved":false,"is_disabled":false,"rental_uris":{"android":"levelo://app?vid=12817c99-3b1a-40e0-be55-c1f1ccfaedd7","ios":"levelo://app?vid=12817c99-3b1a-40e0-be55-c1f1ccfaedd7"},"vehicle_type_id":"4","last_reported":1731528567,"current_range_meters":38800,"station_id":"ce4bhnh2rcd13ifvqgtg","pricing_plan_id":"cebpf4jnsgd1na2vs0mg"},{"bike_id":"b5c48233-4f2d-4568-a512-177511afea67","system_id":"levelo_inurba_marseille","lat":43.29044,"lon":5.35897,"is_reserved":false,"is_disabled":false,"rental_uris":{"android":"levelo://app?vid=b5c48233-4f2d-4568-a512-177511afea67","ios":"levelo://app?vid=b5c48233-4f2d-4568-a512-177511afea67"},"vehicle_type_id":"4","last_reported":1731528567,"current_range_meters":20800,"station_id":"ce4bha92rcd13ifvqeg0","pricing_plan_id":"cebpf4jnsgd1na2vs0mg"},{"bike_id":"f1f1552a-bb2f-430b-b7fa-d401f1b32c1c","system_id":"levelo_inurba_marseille","lat":43.2925,"lon":5.40906,"is_reserved":false,"is_disabled":false,"rental_uris":{"android":"levelo://app?vid=f1f1552a-bb2f-430b-b7fa-d401f1b32c1c","ios":"levelo://app?vid=f1f1552a-bb2f-430b-b7fa-d401f1b32c1c"},"vehicle_type_id":"4","last_reported":1731528567,"current_range_meters":9600,"station_id":"ce4bh192rcd13ifvqdc0","pricing_plan_id":"cebpf4jnsgd1na2vs0mg"},{"bike_id":"620c70b8-370d-4bba-8de6-4d56244cbbd0","system_id":"levelo_inurba_marseille","lat":43.255714,"lon":5.38241,"is_reserved":false,"is_disabled":false,"rental_uris":{"android":"levelo://app?vid=620c70b8-370d-4bba-8de6-4d56244cbbd0","ios":"levelo://app?vid=620c70b8-370d-4bba-8de6-4d56244cbbd0"},"vehicle_type_id":"4","last_reported":1731528567,"current_range_meters":38800,"station_id":"ce4bhih2rcd13ifvqfs0","pricing_plan_id":"cebpf4jnsgd1na2vs0mg"},{"bike_id":"1957e444-8923-4300-9d70-b4b7e3786f40","system_id":"levelo_inurba_marseille","lat":43.27566,"lon":5.38421,"is_reserved":false,"is_disabled":false,"rental_uris":{"android":"levelo://app?vid=1957e444-8923-4300-9d70-b4b7e3786f40","ios":"levelo://app?vid=1957e444-8923-4300-9d70-b4b7e3786f40"},"vehicle_type_id":"4","last_reported":1731528567,"current_range_meters":20400,"station_id":"ce4bhh92rcd13ifvqfi0","pricing_plan_id":"cebpf4jnsgd1na2vs0mg"},{"bike_id":"7a56d0a8-a4a2-4acb-8323-25d4cda32662","system_id":"levelo_inurba_marseille","lat":43.24068,"lon":5.37762,"is_reserved":false,"is_disabled":false,"rental_uris":{"android":"levelo://app?vid=7a56d0a8-a4a2-4acb-8323-25d4cda32662","ios":"levelo://app?vid=7a56d0a8-a4a2-4acb-8323-25d4cda32662"},"vehicle_type_id":"4","last_reported":1731528567,"current_range_meters":39200,"station_id":"ce4bhnp2rcd13ifvqgvg","pricing_plan_id":"cebpf4jnsgd1na2vs0mg"},{"bike_id":"d99bff46-e3e0-4c25-9719-3fa3dd9a1a6e","system_id":"levelo_inurba_marseille","lat":43.31419,"lon":5.37427,"is_reserved":false,"is_disabled":false,"rental_uris":{"android":"levelo://app?vid=d99bff46-e3e0-4c25-9719-3fa3dd9a1a6e","ios":"levelo://app?vid=d99bff46-e3e0-4c25-9719-3fa3dd9a1a6e"},"vehicle_type_id":"4","last_reported":1731528567,"current_range_meters":22000,"station_id":"","pricing_plan_id":"cebpf4jnsgd1na2vs0mg"},{"bike_id":"4bd20b77-8a5f-46ec-a99b-bd44340aa29e","system_id":"levelo_inurba_marseille","lat":43.272021,"lon":5.391853,"is_reserved":false,"is_disabled":false,"rental_uris":{"android":"levelo://app?vid=4bd20b77-8a5f-46ec-a99b-bd44340aa29e","ios":"levelo://app?vid=4bd20b77-8a5f-46ec-a99b-bd44340aa29e"},"vehicle_type_id":"4","last_reported":1731528567,"current_range_meters":38800,"station_id":"ce4bhhp2rcd13ifvqfm0","pricing_plan_id":"cebpf4jnsgd1na2vs0mg"},{"bike_id":"1f9bbbe2-6d43-4695-ad1c-62239c6576c6","system_id":"levelo_inurba_marseille","lat":43.28455,"lon":5.35886,"is_reserved":false,"is_disabled":false,"rental_uris":{"android":"levelo://app?vid=1f9bbbe2-6d43-4695-ad1c-62239c6576c6","ios":"levelo://app?vid=1f9bbbe2-6d43-4695-ad1c-62239c6576c6"},"vehicle_type_id":"4","last_reported":1731528567,"current_range_meters":11200,"station_id":"ce4bhah2rcd13ifvqei0","pricing_plan_id":"cebpf4jnsgd1na2vs0mg"},{"bike_id":"4e2374da-ae8a-4e80-b322-a311f399cd72","system_id":"levelo_inurba_marseille","lat":43.30641,"lon":5.40087,"is_reserved":false,"is_disabled":false,"rental_uris":{"android":"levelo://app?vid=4e2374da-ae8a-4e80-b322-a311f399cd72","ios":"levelo://app?vid=4e2374da-ae8a-4e80-b322-a311f399cd72"},"vehicle_type_id":"4","last_reported":1731528567,"current_range_meters":3200,"station_id":"ce4bh112rcd13ifvqda0","pricing_plan_id":"cebpf4jnsgd1na2vs0mg"},{"bike_id":"41216121-f9a5-4d0d-b4ad-c65a5f5a6201","system_id":"levelo_inurba_marseille","lat":43.3373,"lon":5.39185,"is_reserved":false,"is_disabled":false,"rental_uris":{"android":"levelo://app?vid=41216121-f9a5-4d0d-b4ad-c65a5f5a6201","ios":"levelo://app?vid=41216121-f9a5-4d0d-b4ad-c65a5f5a6201"},"vehicle_type_id":"4","last_reported":1731528567,"current_range_meters":32000,"station_id":"ce4bhr92rcd13ifvqhsg","pricing_plan_id":"cebpf4jnsgd1na2vs0mg"},{"bike_id":"07df449b-4274-4142-8432-30fbab1e34c7","system_id":"levelo_inurba_marseille","lat":43.316925,"lon":5.423986,"is_reserved":false,"is_disabled":false,"rental_uris":{"android":"levelo://app?vid=07df449b-4274-4142-8432-30fbab1e34c7","ios":"levelo://app?vid=07df449b-4274-4142-8432-30fbab1e34c7"},"vehicle_type_id":"4","last_reported":1731528567,"current_range_meters":8400,"station_id":"ce4bhp92rcd13ifvqhbg","pricing_plan_id":"cebpf4jnsgd1na2vs0mg"},{"bike_id":"805bb8b1-9cc6-4f3e-a15b-1d33acae2c35","system_id":"levelo_inurba_marseille","lat":43.25085,"lon":5.39525,"is_reserved":false,"is_disabled":false,"rental_uris":{"android":"levelo://app?vid=805bb8b1-9cc6-4f3e-a15b-1d33acae2c35","ios":"levelo://app?vid=805bb8b1-9cc6-4f3e-a15b-1d33acae2c35"},"vehicle_type_id":"4","last_reported":1731528567,"current_range_meters":16400,"station_id":"ce4bhm12rcd13ifvqgkg","pricing_plan_id":"cebpf4jnsgd1na2vs0mg"},{"bike_id":"9e9a2369-1d14-4981-a72c-1ddb3ebe0ae3","system_id":"levelo_inurba_marseille","lat":43.2798,"lon":5.416615,"is_reserved":false,"is_disabled":false,"rental_uris":{"android":"levelo://app?vid=9e9a2369-1d14-4981-a72c-1ddb3ebe0ae3","ios":"levelo://app?vid=9e9a2369-1d14-4981-a72c-1ddb3ebe0ae3"},"vehicle_type_id":"4","last_reported":1731528567,"current_range_meters":38800,"station_id":"ce4bho12rcd13ifvqh1g","pricing_plan_id":"cebpf4jnsgd1na2vs0mg"},{"bike_id":"41665a7d-193c-4c63-9ffa-f6b22bf7867a","system_id":"levelo_inurba_marseille","lat":43.30355,"lon":5.41881,"is_reserved":false,"is_disabled":false,"rental_uris":{"android":"levelo://app?vid=41665a7d-193c-4c63-9ffa-f6b22bf7867a","ios":"levelo://app?vid=41665a7d-193c-4c63-9ffa-f6b22bf7867a"},"vehicle_type_id":"4","last_reported":1731528567,"current_range_meters":17600,"station_id":"ce4bhop2rcd13ifvqh7g","pricing_plan_id":"cebpf4jnsgd1na2vs0mg"},{"bike_id":"0616de4a-ed2f-4c38-8a88-1c0a7684e6a8","system_id":"levelo_inurba_marseille","lat":43.27566,"lon":5.38423,"is_reserved":false,"is_disabled":false,"rental_uris":{"android":"levelo://app?vid=0616de4a-ed2f-4c38-8a88-1c0a7684e6a8","ios":"levelo://app?vid=0616de4a-ed2f-4c38-8a88-1c0a7684e6a8"},"vehicle_type_id":"4","last_reported":1731528567,"current_range_meters":39200,"station_id":"ce4bhh92rcd13ifvqfi0","pricing_plan_id":"cebpf4jnsgd1na2vs0mg"},{"bike_id":"4f887acd-619f-41ac-9dee-d09fab14b35b","system_id":"levelo_inurba_marseille","lat":43.29066,"lon":5.3718,"is_reserved":false,"is_disabled":false,"rental_uris":{"android":"levelo://app?vid=4f887acd-619f-41ac-9dee-d09fab14b35b","ios":"levelo://app?vid=4f887acd-619f-41ac-9dee-d09fab14b35b"},"vehicle_type_id":"4","last_reported":1731528567,"current_range_meters":29600,"station_id":"ce4bh5p2rcd13ifvqe4g","pricing_plan_id":"cebpf4jnsgd1na2vs0mg"},{"bike_id":"e310a17a-40c4-4a75-85fa-ab8c2d50d79e","system_id":"levelo_inurba_marseille","lat":43.293365,"lon":5.371605,"is_reserved":false,"is_disabled":false,"rental_uris":{"android":"levelo://app?vid=e310a17a-40c4-4a75-85fa-ab8c2d50d79e","ios":"levelo://app?vid=e310a17a-40c4-4a75-85fa-ab8c2d50d79e"},"vehicle_type_id":"4","last_reported":1731528567,"current_range_meters":18800,"station_id":"ce4bgh92rcd13ifvqb40","pricing_plan_id":"cebpf4jnsgd1na2vs0mg"},{"bike_id":"2cd48f28-fb4d-4d6d-89b3-d0dc2c3abebc","system_id":"levelo_inurba_marseille","lat":43.29045,"lon":5.35913,"is_reserved":false,"is_disabled":false,"rental_uris":{"android":"levelo://app?vid=2cd48f28-fb4d-4d6d-89b3-d0dc2c3abebc","ios":"levelo://app?vid=2cd48f28-fb4d-4d6d-89b3-d0dc2c3abebc"},"vehicle_type_id":"4","last_reported":1731528567,"current_range_meters":2000,"station_id":"ce4bha92rcd13ifvqeg0","pricing_plan_id":"cebpf4jnsgd1na2vs0mg"},{"bike_id":"c922eb02-035c-4fd0-a78f-29ec8348d4e8","system_id":"levelo_inurba_marseille","lat":43.29191,"lon":5.39339,"is_reserved":false,"is_disabled":false,"rental_uris":{"android":"levelo://app?vid=c922eb02-035c-4fd0-a78f-29ec8348d4e8","ios":"levelo://app?vid=c922eb02-035c-4fd0-a78f-29ec8348d4e8"},"vehicle_type_id":"4","last_reported":1731528567,"current_range_meters":20400,"station_id":"ce4bh192rcd13ifvqdd0","pricing_plan_id":"cebpf4jnsgd1na2vs0mg"},{"bike_id":"cb9a6aa0-0b19-47f1-9052-a16185b299c2","system_id":"levelo_inurba_marseille","lat":43.29868,"lon":5.3973,"is_reserved":false,"is_disabled":false,"rental_uris":{"android":"levelo://app?vid=cb9a6aa0-0b19-47f1-9052-a16185b299c2","ios":"levelo://app?vid=cb9a6aa0-0b19-47f1-9052-a16185b299c2"},"vehicle_type_id":"4","last_reported":1731528567,"current_range_meters":22400,"station_id":"ce4bh0h2rcd13ifvqd50","pricing_plan_id":"cebpf4jnsgd1na2vs0mg"},{"bike_id":"f8c483ce-8b9b-4091-af45-b85928ca2f57","system_id":"levelo_inurba_marseille","lat":43.2963,"lon":5.40594,"is_reserved":false,"is_disabled":false,"rental_uris":{"android":"levelo://app?vid=f8c483ce-8b9b-4091-af45-b85928ca2f57","ios":"levelo://app?vid=f8c483ce-8b9b-4091-af45-b85928ca2f57"},"vehicle_type_id":"4","last_reported":1731528567,"current_range_meters":38400,"station_id":"ce4bh0h2rcd13ifvqd60","pricing_plan_id":"cebpf4jnsgd1na2vs0mg"},{"bike_id":"4d588559-87d9-4b67-ac55-1a3523c0923d","system_id":"levelo_inurba_marseille","lat":43.29897,"lon":5.43662,"is_reserved":false,"is_disabled":false,"rental_uris":{"android":"levelo://app?vid=4d588559-87d9-4b67-ac55-1a3523c0923d","ios":"levelo://app?vid=4d588559-87d9-4b67-ac55-1a3523c0923d"},"vehicle_type_id":"4","last_reported":1731528567,"current_range_meters":39200,"station_id":"ce4bhpp2rcd13ifvqhfg","pricing_plan_id":"cebpf4jnsgd1na2vs0mg"},{"bike_id":"c4cd912c-a38b-4bea-8dd2-1adccd444902","system_id":"levelo_inurba_marseille","lat":43.32287,"lon":5.38284,"is_reserved":false,"is_disabled":false,"rental_uris":{"android":"levelo://app?vid=c4cd912c-a38b-4bea-8dd2-1adccd444902","ios":"levelo://app?vid=c4cd912c-a38b-4bea-8dd2-1adccd444902"},"vehicle_type_id":"4","last_reported":1731528567,"current_range_meters":6000,"station_id":"ce4bhr12rcd13ifvqhqg","pricing_plan_id":"cebpf4jnsgd1na2vs0mg"},{"bike_id":"93143689-fa9c-48cc-b95a-0d58f6b7bfbd","system_id":"levelo_inurba_marseille","lat":43.29297,"lon":5.37442,"is_reserved":false,"is_disabled":false,"rental_uris":{"android":"levelo://app?vid=93143689-fa9c-48cc-b95a-0d58f6b7bfbd","ios":"levelo://app?vid=93143689-fa9c-48cc-b95a-0d58f6b7bfbd"},"vehicle_type_id":"4","last_reported":1731528567,"current_range_meters":3200,"station_id":"ce4bgi12rcd13ifvqb70","pricing_plan_id":"cebpf4jnsgd1na2vs0mg"},{"bike_id":"64938ff8-3f58-4f6e-973d-2a1a6ef0cf16","system_id":"levelo_inurba_marseille","lat":43.28663,"lon":5.38662,"is_reserved":false,"is_disabled":false,"rental_uris":{"android":"levelo://app?vid=64938ff8-3f58-4f6e-973d-2a1a6ef0cf16","ios":"levelo://app?vid=64938ff8-3f58-4f6e-973d-2a1a6ef0cf16"},"vehicle_type_id":"4","last_reported":1731528567,"current_range_meters":8800,"station_id":"ce4bh492rcd13ifvqdug","pricing_plan_id":"cebpf4jnsgd1na2vs0mg"},{"bike_id":"3e57bc04-bb78-45cd-b095-491857fbf9d6","system_id":"levelo_inurba_marseille","lat":43.28374,"lon":5.38634,"is_reserved":false,"is_disabled":false,"rental_uris":{"android":"levelo://app?vid=3e57bc04-bb78-45cd-b095-491857fbf9d6","ios":"levelo://app?vid=3e57bc04-bb78-45cd-b095-491857fbf9d6"},"vehicle_type_id":"4","last_reported":1731528567,"current_range_meters":18800,"station_id":"ce4bh492rcd13ifvqdvg","pricing_plan_id":"cebpf4jnsgd1na2vs0mg"},{"bike_id":"1aaed7e4-93ea-4ea1-a975-c4101115ab25","system_id":"levelo_inurba_marseille","lat":43.25577,"lon":5.38239,"is_reserved":false,"is_disabled":false,"rental_uris":{"android":"levelo://app?vid=1aaed7e4-93ea-4ea1-a975-c4101115ab25","ios":"levelo://app?vid=1aaed7e4-93ea-4ea1-a975-c4101115ab25"},"vehicle_type_id":"4","last_reported":1731528567,"current_range_meters":14000,"station_id":"ce4bhih2rcd13ifvqfs0","pricing_plan_id":"cebpf4jnsgd1na2vs0mg"},{"bike_id":"8963f262-bdcb-43f5-9e37-237198779ba8","system_id":"levelo_inurba_marseille","lat":43.33773,"lon":5.37442,"is_reserved":false,"is_disabled":false,"rental_uris":{"android":"levelo://app?vid=8963f262-bdcb-43f5-9e37-237198779ba8","ios":"levelo://app?vid=8963f262-bdcb-43f5-9e37-237198779ba8"},"vehicle_type_id":"4","last_reported":1731528567,"current_range_meters":36800,"station_id":"","pricing_plan_id":"cebpf4jnsgd1na2vs0mg"},{"bike_id":"131d5275-8201-4abf-89e3-9cd3bb0ce7b5","system_id":"levelo_inurba_marseille","lat":43.306834,"lon":5.380212,"is_reserved":false,"is_disabled":false,"rental_uris":{"android":"levelo://app?vid=131d5275-8201-4abf-89e3-9cd3bb0ce7b5","ios":"levelo://app?vid=131d5275-8201-4abf-89e3-9cd3bb0ce7b5"},"vehicle_type_id":"4","last_reported":1731528567,"current_range_meters":36000,"station_id":"","pricing_plan_id":"cebpf4jnsgd1na2vs0mg"},{"bike_id":"398b47b3-a042-4cec-b1dd-254773a78263","system_id":"levelo_inurba_marseille","lat":43.27405,"lon":5.38955,"is_reserved":false,"is_disabled":false,"rental_uris":{"android":"levelo://app?vid=398b47b3-a042-4cec-b1dd-254773a78263","ios":"levelo://app?vid=398b47b3-a042-4cec-b1dd-254773a78263"},"vehicle_type_id":"4","last_reported":1731528567,"current_range_meters":8000,"station_id":"","pricing_plan_id":"cebpf4jnsgd1na2vs0mg"},{"bike_id":"4edefd17-6a16-454a-a603-24b15e793de2","system_id":"levelo_inurba_marseille","lat":43.28848,"lon":5.39307,"is_reserved":false,"is_disabled":false,"rental_uris":{"android":"levelo://app?vid=4edefd17-6a16-454a-a603-24b15e793de2","ios":"levelo://app?vid=4edefd17-6a16-454a-a603-24b15e793de2"},"vehicle_type_id":"4","last_reported":1731528567,"current_range_meters":33600,"station_id":"ce4bh2p2rcd13ifvqdi0","pricing_plan_id":"cebpf4jnsgd1na2vs0mg"},{"bike_id":"44d4aeee-f0c2-4734-b402-fb62f0186632","system_id":"levelo_inurba_marseille","lat":43.24383,"lon":5.37062,"is_reserved":false,"is_disabled":false,"rental_uris":{"android":"levelo://app?vid=44d4aeee-f0c2-4734-b402-fb62f0186632","ios":"levelo://app?vid=44d4aeee-f0c2-4734-b402-fb62f0186632"},"vehicle_type_id":"4","last_reported":1731528567,"current_range_meters":31200,"station_id":"ce4bhhh2rcd13ifvqfk0","pricing_plan_id":"cebpf4jnsgd1na2vs0mg"},{"bike_id":"80b7a411-f20b-4eee-ba8a-e47419f89860","system_id":"levelo_inurba_marseille","lat":43.28952,"lon":5.36592,"is_reserved":false,"is_disabled":false,"rental_uris":{"android":"levelo://app?vid=80b7a411-f20b-4eee-ba8a-e47419f89860","ios":"levelo://app?vid=80b7a411-f20b-4eee-ba8a-e47419f89860"},"vehicle_type_id":"4","last_reported":1731528567,"current_range_meters":38800,"station_id":"ce4bhap2rcd13ifvqek0","pricing_plan_id":"cebpf4jnsgd1na2vs0mg"},{"bike_id":"92e3ad17-17c9-4714-a148-ef9436ad6113","system_id":"levelo_inurba_marseille","lat":43.22933,"lon":5.35383,"is_reserved":false,"is_disabled":false,"rental_uris":{"android":"levelo://app?vid=92e3ad17-17c9-4714-a148-ef9436ad6113","ios":"levelo://app?vid=92e3ad17-17c9-4714-a148-ef9436ad6113"},"vehicle_type_id":"4","last_reported":1731528567,"current_range_meters":40000,"station_id":"cpo3532slgdg3j2ikp40","pricing_plan_id":"cebpf4jnsgd1na2vs0mg"},{"bike_id":"6d3b6101-e514-4fa7-8db1-6dc1e101fc47","system_id":"levelo_inurba_marseille","lat":43.292,"lon":5.3933,"is_reserved":false,"is_disabled":false,"rental_uris":{"android":"levelo://app?vid=6d3b6101-e514-4fa7-8db1-6dc1e101fc47","ios":"levelo://app?vid=6d3b6101-e514-4fa7-8db1-6dc1e101fc47"},"vehicle_type_id":"4","last_reported":1731528567,"current_range_meters":38800,"station_id":"ce4bh192rcd13ifvqdd0","pricing_plan_id":"cebpf4jnsgd1na2vs0mg"},{"bike_id":"a06566a4-5aac-4a41-85f6-488547859322","system_id":"levelo_inurba_marseille","lat":43.28669,"lon":5.38673,"is_reserved":false,"is_disabled":false,"rental_uris":{"android":"levelo://app?vid=a06566a4-5aac-4a41-85f6-488547859322","ios":"levelo://app?vid=a06566a4-5aac-4a41-85f6-488547859322"},"vehicle_type_id":"4","last_reported":1731528567,"current_range_meters":36000,"station_id":"ce4bh492rcd13ifvqdug","pricing_plan_id":"cebpf4jnsgd1na2vs0mg"},{"bike_id":"beb7b9bd-a544-4d0c-b0ee-a6204f3f5108","system_id":"levelo_inurba_marseille","lat":43.291962,"lon":5.385193,"is_reserved":false,"is_disabled":false,"rental_uris":{"android":"levelo://app?vid=beb7b9bd-a544-4d0c-b0ee-a6204f3f5108","ios":"levelo://app?vid=beb7b9bd-a544-4d0c-b0ee-a6204f3f5108"},"vehicle_type_id":"4","last_reported":1731528567,"current_range_meters":27600,"station_id":"","pricing_plan_id":"cebpf4jnsgd1na2vs0mg"},{"bike_id":"82f309e6-c4ae-421f-89cb-1d64a8e0ef10","system_id":"levelo_inurba_marseille","lat":43.337444,"lon":5.374475,"is_reserved":false,"is_disabled":false,"rental_uris":{"android":"levelo://app?vid=82f309e6-c4ae-421f-89cb-1d64a8e0ef10","ios":"levelo://app?vid=82f309e6-c4ae-421f-89cb-1d64a8e0ef10"},"vehicle_type_id":"4","last_reported":1731528567,"current_range_meters":36000,"station_id":"","pricing_plan_id":"cebpf4jnsgd1na2vs0mg"},{"bike_id":"5419d154-3ce9-4c40-9294-d16b9d2b3431","system_id":"levelo_inurba_marseille","lat":43.337444,"lon":5.374475,"is_reserved":false,"is_disabled":false,"rental_uris":{"android":"levelo://app?vid=5419d154-3ce9-4c40-9294-d16b9d2b3431","ios":"levelo://app?vid=5419d154-3ce9-4c40-9294-d16b9d2b3431"},"vehicle_type_id":"4","last_reported":1731528567,"current_range_meters":36000,"station_id":"","pricing_plan_id":"cebpf4jnsgd1na2vs0mg"},{"bike_id":"266baf9e-fa45-4996-b0b9-2ca13fb82592","system_id":"levelo_inurba_marseille","lat":43.31716,"lon":5.37767,"is_reserved":false,"is_disabled":false,"rental_uris":{"android":"levelo://app?vid=266baf9e-fa45-4996-b0b9-2ca13fb82592","ios":"levelo://app?vid=266baf9e-fa45-4996-b0b9-2ca13fb82592"},"vehicle_type_id":"4","last_reported":1731528567,"current_range_meters":38000,"station_id":"ce4bgth2rcd13ifvqch0","pricing_plan_id":"cebpf4jnsgd1na2vs0mg"},{"bike_id":"ede191c0-f1bd-4283-bb58-e8561fce9bbc","system_id":"levelo_inurba_marseille","lat":43.26495,"lon":5.39544,"is_reserved":false,"is_disabled":false,"rental_uris":{"android":"levelo://app?vid=ede191c0-f1bd-4283-bb58-e8561fce9bbc","ios":"levelo://app?vid=ede191c0-f1bd-4283-bb58-e8561fce9bbc"},"vehicle_type_id":"4","last_reported":1731528567,"current_range_meters":39200,"station_id":"ce4bhi12rcd13ifvqfq0","pricing_plan_id":"cebpf4jnsgd1na2vs0mg"},{"bike_id":"6e4ab7d2-c1df-4ea4-bb4b-2f5c43ed5717","system_id":"levelo_inurba_marseille","lat":43.33768,"lon":5.37439,"is_reserved":false,"is_disabled":false,"rental_uris":{"android":"levelo://app?vid=6e4ab7d2-c1df-4ea4-bb4b-2f5c43ed5717","ios":"levelo://app?vid=6e4ab7d2-c1df-4ea4-bb4b-2f5c43ed5717"},"vehicle_type_id":"4","last_reported":1731528567,"current_range_meters":35600,"station_id":"","pricing_plan_id":"cebpf4jnsgd1na2vs0mg"},{"bike_id":"ba23a424-ec65-4916-8e65-2a9087863304","system_id":"levelo_inurba_marseille","lat":43.29784,"lon":5.37101,"is_reserved":false,"is_disabled":false,"rental_uris":{"android":"levelo://app?vid=ba23a424-ec65-4916-8e65-2a9087863304","ios":"levelo://app?vid=ba23a424-ec65-4916-8e65-2a9087863304"},"vehicle_type_id":"4","last_reported":1731528567,"current_range_meters":17600,"station_id":"ce4bgop2rcd13ifvqc1g","pricing_plan_id":"cebpf4jnsgd1na2vs0mg"},{"bike_id":"459dc872-316e-4c78-9bdd-ade3ce7a9d65","system_id":"levelo_inurba_marseille","lat":43.29191,"lon":5.39334,"is_reserved":false,"is_disabled":false,"rental_uris":{"android":"levelo://app?vid=459dc872-316e-4c78-9bdd-ade3ce7a9d65","ios":"levelo://app?vid=459dc872-316e-4c78-9bdd-ade3ce7a9d65"},"vehicle_type_id":"4","last_reported":1731528567,"current_range_meters":18800,"station_id":"ce4bh192rcd13ifvqdd0","pricing_plan_id":"cebpf4jnsgd1na2vs0mg"},{"bike_id":"bf572986-72e5-4ae6-bf1e-d22b0a1d0215","system_id":"levelo_inurba_marseille","lat":43.31179,"lon":5.38713,"is_reserved":false,"is_disabled":false,"rental_uris":{"android":"levelo://app?vid=bf572986-72e5-4ae6-bf1e-d22b0a1d0215","ios":"levelo://app?vid=bf572986-72e5-4ae6-bf1e-d22b0a1d0215"},"vehicle_type_id":"4","last_reported":1731528567,"current_range_meters":9200,"station_id":"ce4bgv12rcd13ifvqcp0","pricing_plan_id":"cebpf4jnsgd1na2vs0mg"},{"bike_id":"9722550f-1a69-4d6e-8160-2610e45f09a4","system_id":"levelo_inurba_marseille","lat":43.28034,"lon":5.36944,"is_reserved":false,"is_disabled":false,"rental_uris":{"android":"levelo://app?vid=9722550f-1a69-4d6e-8160-2610e45f09a4","ios":"levelo://app?vid=9722550f-1a69-4d6e-8160-2610e45f09a4"},"vehicle_type_id":"4","last_reported":1731528567,"current_range_meters":35600,"station_id":"ce4bha12rcd13ifvqef0","pricing_plan_id":"cebpf4jnsgd1na2vs0mg"},{"bike_id":"42744b5d-4b77-4c92-808c-ebf462138a5f","system_id":"levelo_inurba_marseille","lat":43.31554,"lon":5.38623,"is_reserved":false,"is_disabled":false,"rental_uris":{"android":"levelo://app?vid=42744b5d-4b77-4c92-808c-ebf462138a5f","ios":"levelo://app?vid=42744b5d-4b77-4c92-808c-ebf462138a5f"},"vehicle_type_id":"4","last_reported":1731528567,"current_range_meters":26800,"station_id":"","pricing_plan_id":"cebpf4jnsgd1na2vs0mg"},{"bike_id":"c9d041c0-acec-4cf4-bba2-e01a92441368","system_id":"levelo_inurba_marseille","lat":43.337444,"lon":5.374475,"is_reserved":false,"is_disabled":false,"rental_uris":{"android":"levelo://app?vid=c9d041c0-acec-4cf4-bba2-e01a92441368","ios":"levelo://app?vid=c9d041c0-acec-4cf4-bba2-e01a92441368"},"vehicle_type_id":"4","last_reported":1731528567,"current_range_meters":34800,"station_id":"","pricing_plan_id":"cebpf4jnsgd1na2vs0mg"},{"bike_id":"476ad1e7-69bc-41e3-af81-91dc3490590f","system_id":"levelo_inurba_marseille","lat":43.29968,"lon":5.38495,"is_reserved":false,"is_disabled":false,"rental_uris":{"android":"levelo://app?vid=476ad1e7-69bc-41e3-af81-91dc3490590f","ios":"levelo://app?vid=476ad1e7-69bc-41e3-af81-91dc3490590f"},"vehicle_type_id":"4","last_reported":1731528567,"current_range_meters":24000,"station_id":"ce4bgr92rcd13ifvqc7g","pricing_plan_id":"cebpf4jnsgd1na2vs0mg"},{"bike_id":"38bbdcff-2bf0-472f-b7a7-55224c74f01e","system_id":"levelo_inurba_marseille","lat":43.28847,"lon":5.35852,"is_reserved":false,"is_disabled":false,"rental_uris":{"android":"levelo://app?vid=38bbdcff-2bf0-472f-b7a7-55224c74f01e","ios":"levelo://app?vid=38bbdcff-2bf0-472f-b7a7-55224c74f01e"},"vehicle_type_id":"4","last_reported":1731528567,"current_range_meters":38800,"station_id":"ce4bhb12rcd13ifvqem0","pricing_plan_id":"cebpf4jnsgd1na2vs0mg"},{"bike_id":"4363e6cb-d770-467d-ae39-1964eafceadd","system_id":"levelo_inurba_marseille","lat":43.28711,"lon":5.37947,"is_reserved":false,"is_disabled":false,"rental_uris":{"android":"levelo://app?vid=4363e6cb-d770-467d-ae39-1964eafceadd","ios":"levelo://app?vid=4363e6cb-d770-467d-ae39-1964eafceadd"},"vehicle_type_id":"4","last_reported":1731528567,"current_range_meters":36400,"station_id":"ce4bh9p2rcd13ifvqec0","pricing_plan_id":"cebpf4jnsgd1na2vs0mg"},{"bike_id":"7da6dc45-4eda-41ec-aa6b-414ef02d12a7","system_id":"levelo_inurba_marseille","lat":43.29525,"lon":5.39409,"is_reserved":false,"is_disabled":false,"rental_uris":{"android":"levelo://app?vid=7da6dc45-4eda-41ec-aa6b-414ef02d12a7","ios":"levelo://app?vid=7da6dc45-4eda-41ec-aa6b-414ef02d12a7"},"vehicle_type_id":"4","last_reported":1731528567,"current_range_meters":11200,"station_id":"ce4bh292rcd13ifvqdf0","pricing_plan_id":"cebpf4jnsgd1na2vs0mg"},{"bike_id":"7ead3ba7-a1d9-4aa1-9f9f-872dd013ec15","system_id":"levelo_inurba_marseille","lat":43.24077,"lon":5.37756,"is_reserved":false,"is_disabled":false,"rental_uris":{"android":"levelo://app?vid=7ead3ba7-a1d9-4aa1-9f9f-872dd013ec15","ios":"levelo://app?vid=7ead3ba7-a1d9-4aa1-9f9f-872dd013ec15"},"vehicle_type_id":"4","last_reported":1731528567,"current_range_meters":24400,"station_id":"ce4bhnp2rcd13ifvqgvg","pricing_plan_id":"cebpf4jnsgd1na2vs0mg"},{"bike_id":"7cd628f6-74fa-4f71-b36c-47ea37f47b53","system_id":"levelo_inurba_marseille","lat":43.2784,"lon":5.39216,"is_reserved":false,"is_disabled":false,"rental_uris":{"android":"levelo://app?vid=7cd628f6-74fa-4f71-b36c-47ea37f47b53","ios":"levelo://app?vid=7cd628f6-74fa-4f71-b36c-47ea37f47b53"},"vehicle_type_id":"4","last_reported":1731528567,"current_range_meters":38400,"station_id":"ce4bhjp2rcd13ifvqga0","pricing_plan_id":"cebpf4jnsgd1na2vs0mg"},{"bike_id":"d902a66d-91d9-403b-88e0-cbb7a80ab5c2","system_id":"levelo_inurba_marseille","lat":43.27109,"lon":5.392563,"is_reserved":false,"is_disabled":false,"rental_uris":{"android":"levelo://app?vid=d902a66d-91d9-403b-88e0-cbb7a80ab5c2","ios":"levelo://app?vid=d902a66d-91d9-403b-88e0-cbb7a80ab5c2"},"vehicle_type_id":"4","last_reported":1731528567,"current_range_meters":19200,"station_id":"ce4bhjp2rcd13ifvqga0","pricing_plan_id":"cebpf4jnsgd1na2vs0mg"},{"bike_id":"5f1b89ae-1266-4792-91ad-55b706dc1643","system_id":"levelo_inurba_marseille","lat":43.23963,"lon":5.36646,"is_reserved":false,"is_disabled":false,"rental_uris":{"android":"levelo://app?vid=5f1b89ae-1266-4792-91ad-55b706dc1643","ios":"levelo://app?vid=5f1b89ae-1266-4792-91ad-55b706dc1643"},"vehicle_type_id":"4","last_reported":1731528567,"current_range_meters":24000,"station_id":"ce4bhi12rcd13ifvqfp0","pricing_plan_id":"cebpf4jnsgd1na2vs0mg"},{"bike_id":"9813a0cc-edd1-418a-8ddf-f56e5ab6daab","system_id":"levelo_inurba_marseille","lat":43.29024,"lon":5.38139,"is_reserved":false,"is_disabled":false,"rental_uris":{"android":"levelo://app?vid=9813a0cc-edd1-418a-8ddf-f56e5ab6daab","ios":"levelo://app?vid=9813a0cc-edd1-418a-8ddf-f56e5ab6daab"},"vehicle_type_id":"4","last_reported":1731528567,"current_range_meters":39200,"station_id":"ce4bh4p2rcd13ifvqe1g","pricing_plan_id":"cebpf4jnsgd1na2vs0mg"},{"bike_id":"afb9d7fa-3c10-4213-9672-d2ee4b768548","system_id":"levelo_inurba_marseille","lat":43.30105,"lon":5.39069,"is_reserved":false,"is_disabled":false,"rental_uris":{"android":"levelo://app?vid=afb9d7fa-3c10-4213-9672-d2ee4b768548","ios":"levelo://app?vid=afb9d7fa-3c10-4213-9672-d2ee4b768548"},"vehicle_type_id":"4","last_reported":1731528567,"current_range_meters":22400,"station_id":"ce4bh192rcd13ifvqdb0","pricing_plan_id":"cebpf4jnsgd1na2vs0mg"},{"bike_id":"47c8cdda-192b-4c0a-bd98-e586041cbc54","system_id":"levelo_inurba_marseille","lat":43.30598,"lon":5.39363,"is_reserved":false,"is_disabled":false,"rental_uris":{"android":"levelo://app?vid=47c8cdda-192b-4c0a-bd98-e586041cbc54","ios":"levelo://app?vid=47c8cdda-192b-4c0a-bd98-e586041cbc54"},"vehicle_type_id":"4","last_reported":1731528567,"current_range_meters":28000,"station_id":"ce4bh0p2rcd13ifvqd80","pricing_plan_id":"cebpf4jnsgd1na2vs0mg"},{"bike_id":"5425b06d-d18c-40e3-8916-c831d9f250f9","system_id":"levelo_inurba_marseille","lat":43.29514,"lon":5.39043,"is_reserved":false,"is_disabled":false,"rental_uris":{"android":"levelo://app?vid=5425b06d-d18c-40e3-8916-c831d9f250f9","ios":"levelo://app?vid=5425b06d-d18c-40e3-8916-c831d9f250f9"},"vehicle_type_id":"4","last_reported":1731528567,"current_range_meters":39200,"station_id":"ce4bh3p2rcd13ifvqdp0","pricing_plan_id":"cebpf4jnsgd1na2vs0mg"},{"bike_id":"7664b612-32d1-4a91-aff4-a2a66c1fb240","system_id":"levelo_inurba_marseille","lat":43.29174,"lon":5.37174,"is_reserved":false,"is_disabled":false,"rental_uris":{"android":"levelo://app?vid=7664b612-32d1-4a91-aff4-a2a66c1fb240","ios":"levelo://app?vid=7664b612-32d1-4a91-aff4-a2a66c1fb240"},"vehicle_type_id":"4","last_reported":1731528567,"current_range_meters":32800,"station_id":"ce4bha92rcd13ifvqeh0","pricing_plan_id":"cebpf4jnsgd1na2vs0mg"},{"bike_id":"bea881a4-ec1e-4da0-97b3-bbca49a6f81b","system_id":"levelo_inurba_marseille","lat":43.29299,"lon":5.37468,"is_reserved":false,"is_disabled":false,"rental_uris":{"android":"levelo://app?vid=bea881a4-ec1e-4da0-97b3-bbca49a6f81b","ios":"levelo://app?vid=bea881a4-ec1e-4da0-97b3-bbca49a6f81b"},"vehicle_type_id":"4","last_reported":1731528567,"current_range_meters":38800,"station_id":"ce4bgi12rcd13ifvqb70","pricing_plan_id":"cebpf4jnsgd1na2vs0mg"},{"bike_id":"929996c8-eb75-49bc-a4c9-6cfd09c05ed2","system_id":"levelo_inurba_marseille","lat":43.32361,"lon":5.38888,"is_reserved":false,"is_disabled":false,"rental_uris":{"android":"levelo://app?vid=929996c8-eb75-49bc-a4c9-6cfd09c05ed2","ios":"levelo://app?vid=929996c8-eb75-49bc-a4c9-6cfd09c05ed2"},"vehicle_type_id":"4","last_reported":1731528567,"current_range_meters":37600,"station_id":"ce4bhqp2rcd13ifvqhog","pricing_plan_id":"cebpf4jnsgd1na2vs0mg"},{"bike_id":"e5c2c1dc-acf1-4a7d-8212-9574ddb873a2","system_id":"levelo_inurba_marseille","lat":43.30428,"lon":5.38899,"is_reserved":false,"is_disabled":false,"rental_uris":{"android":"levelo://app?vid=e5c2c1dc-acf1-4a7d-8212-9574ddb873a2","ios":"levelo://app?vid=e5c2c1dc-acf1-4a7d-8212-9574ddb873a2"},"vehicle_type_id":"4","last_reported":1731528567,"current_range_meters":11200,"station_id":"ce4bgk12rcd13ifvqbi0","pricing_plan_id":"cebpf4jnsgd1na2vs0mg"},{"bike_id":"a9883f88-ddc1-4bd4-bb96-9f4066939f1e","system_id":"levelo_inurba_marseille","lat":43.32367,"lon":5.38884,"is_reserved":false,"is_disabled":false,"rental_uris":{"android":"levelo://app?vid=a9883f88-ddc1-4bd4-bb96-9f4066939f1e","ios":"levelo://app?vid=a9883f88-ddc1-4bd4-bb96-9f4066939f1e"},"vehicle_type_id":"4","last_reported":1731528567,"current_range_meters":32400,"station_id":"ce4bhqp2rcd13ifvqhog","pricing_plan_id":"cebpf4jnsgd1na2vs0mg"},{"bike_id":"033c5c19-203a-4d11-a7e6-91e96fa07efd","system_id":"levelo_inurba_marseille","lat":43.31326,"lon":5.39704,"is_reserved":false,"is_disabled":false,"rental_uris":{"android":"levelo://app?vid=033c5c19-203a-4d11-a7e6-91e96fa07efd","ios":"levelo://app?vid=033c5c19-203a-4d11-a7e6-91e96fa07efd"},"vehicle_type_id":"4","last_reported":1731528567,"current_range_meters":12000,"station_id":"ce4bgvp2rcd13ifvqcu0","pricing_plan_id":"cebpf4jnsgd1na2vs0mg"},{"bike_id":"9693957e-56d9-4422-9276-daf67c68daac","system_id":"levelo_inurba_marseille","lat":43.24074,"lon":5.37757,"is_reserved":false,"is_disabled":false,"rental_uris":{"android":"levelo://app?vid=9693957e-56d9-4422-9276-daf67c68daac","ios":"levelo://app?vid=9693957e-56d9-4422-9276-daf67c68daac"},"vehicle_type_id":"4","last_reported":1731528567,"current_range_meters":14400,"station_id":"ce4bhnp2rcd13ifvqgvg","pricing_plan_id":"cebpf4jnsgd1na2vs0mg"},{"bike_id":"90df8171-617a-4378-824a-3d3f106df66e","system_id":"levelo_inurba_marseille","lat":43.26503,"lon":5.39538,"is_reserved":false,"is_disabled":false,"rental_uris":{"android":"levelo://app?vid=90df8171-617a-4378-824a-3d3f106df66e","ios":"levelo://app?vid=90df8171-617a-4378-824a-3d3f106df66e"},"vehicle_type_id":"4","last_reported":1731528567,"current_range_meters":4400,"station_id":"ce4bhi12rcd13ifvqfq0","pricing_plan_id":"cebpf4jnsgd1na2vs0mg"},{"bike_id":"7616a63e-4040-448c-a84b-1c511a4e52ab","system_id":"levelo_inurba_marseille","lat":43.31073,"lon":5.38364,"is_reserved":false,"is_disabled":false,"rental_uris":{"android":"levelo://app?vid=7616a63e-4040-448c-a84b-1c511a4e52ab","ios":"levelo://app?vid=7616a63e-4040-448c-a84b-1c511a4e52ab"},"vehicle_type_id":"4","last_reported":1731528567,"current_range_meters":24400,"station_id":"ce4bgv92rcd13ifvqcr0","pricing_plan_id":"cebpf4jnsgd1na2vs0mg"},{"bike_id":"cf3359b3-5d82-4cc3-a668-cb5579c081c4","system_id":"levelo_inurba_marseille","lat":43.29197,"lon":5.39319,"is_reserved":false,"is_disabled":false,"rental_uris":{"android":"levelo://app?vid=cf3359b3-5d82-4cc3-a668-cb5579c081c4","ios":"levelo://app?vid=cf3359b3-5d82-4cc3-a668-cb5579c081c4"},"vehicle_type_id":"4","last_reported":1731528567,"current_range_meters":28000,"station_id":"ce4bh192rcd13ifvqdd0","pricing_plan_id":"cebpf4jnsgd1na2vs0mg"},{"bike_id":"ff0a9aee-6889-4f2d-9fc2-125b159526a4","system_id":"levelo_inurba_marseille","lat":43.29975,"lon":5.38488,"is_reserved":false,"is_disabled":false,"rental_uris":{"android":"levelo://app?vid=ff0a9aee-6889-4f2d-9fc2-125b159526a4","ios":"levelo://app?vid=ff0a9aee-6889-4f2d-9fc2-125b159526a4"},"vehicle_type_id":"4","last_reported":1731528567,"current_range_meters":30000,"station_id":"ce4bgj92rcd13ifvqbd0","pricing_plan_id":"cebpf4jnsgd1na2vs0mg"},{"bike_id":"116d09b8-1abe-4844-b065-1ec5bc1a85fd","system_id":"levelo_inurba_marseille","lat":43.29101,"lon":5.38132,"is_reserved":false,"is_disabled":false,"rental_uris":{"android":"levelo://app?vid=116d09b8-1abe-4844-b065-1ec5bc1a85fd","ios":"levelo://app?vid=116d09b8-1abe-4844-b065-1ec5bc1a85fd"},"vehicle_type_id":"4","last_reported":1731528567,"current_range_meters":6000,"station_id":"ce4bh512rcd13ifvqe2g","pricing_plan_id":"cebpf4jnsgd1na2vs0mg"},{"bike_id":"e8956f99-206b-4ba8-a64c-fb3711bbd44b","system_id":"levelo_inurba_marseille","lat":43.29522,"lon":5.39046,"is_reserved":false,"is_disabled":false,"rental_uris":{"android":"levelo://app?vid=e8956f99-206b-4ba8-a64c-fb3711bbd44b","ios":"levelo://app?vid=e8956f99-206b-4ba8-a64c-fb3711bbd44b"},"vehicle_type_id":"4","last_reported":1731528567,"current_range_meters":29600,"station_id":"ce4bh3p2rcd13ifvqdp0","pricing_plan_id":"cebpf4jnsgd1na2vs0mg"},{"bike_id":"5b41e762-1614-46f6-92e6-bba5e7d3cb79","system_id":"levelo_inurba_marseille","lat":43.28456,"lon":5.35889,"is_reserved":false,"is_disabled":false,"rental_uris":{"android":"levelo://app?vid=5b41e762-1614-46f6-92e6-bba5e7d3cb79","ios":"levelo://app?vid=5b41e762-1614-46f6-92e6-bba5e7d3cb79"},"vehicle_type_id":"4","last_reported":1731528567,"current_range_meters":12800,"station_id":"ce4bhah2rcd13ifvqei0","pricing_plan_id":"cebpf4jnsgd1na2vs0mg"},{"bike_id":"012927f2-0ce0-4abc-933c-6366952c031d","system_id":"levelo_inurba_marseille","lat":43.24182,"lon":5.39736,"is_reserved":false,"is_disabled":false,"rental_uris":{"android":"levelo://app?vid=012927f2-0ce0-4abc-933c-6366952c031d","ios":"levelo://app?vid=012927f2-0ce0-4abc-933c-6366952c031d"},"vehicle_type_id":"4","last_reported":1731528567,"current_range_meters":30000,"station_id":"ce4bhn12rcd13ifvqgpg","pricing_plan_id":"cebpf4jnsgd1na2vs0mg"},{"bike_id":"0df27a03-8e74-41dd-acc5-65d32248cd46","system_id":"levelo_inurba_marseille","lat":43.28944,"lon":5.36649,"is_reserved":false,"is_disabled":false,"rental_uris":{"android":"levelo://app?vid=0df27a03-8e74-41dd-acc5-65d32248cd46","ios":"levelo://app?vid=0df27a03-8e74-41dd-acc5-65d32248cd46"},"vehicle_type_id":"4","last_reported":1731528567,"current_range_meters":38800,"station_id":"ce4bhap2rcd13ifvqek0","pricing_plan_id":"cebpf4jnsgd1na2vs0mg"},{"bike_id":"c7766489-c494-4c18-9b6a-0b3e2b6becec","system_id":"levelo_inurba_marseille","lat":43.29268,"lon":5.38449,"is_reserved":false,"is_disabled":false,"rental_uris":{"android":"levelo://app?vid=c7766489-c494-4c18-9b6a-0b3e2b6becec","ios":"levelo://app?vid=c7766489-c494-4c18-9b6a-0b3e2b6becec"},"vehicle_type_id":"4","last_reported":1731528567,"current_range_meters":21600,"station_id":"ce4bh692rcd13ifvqea0","pricing_plan_id":"cebpf4jnsgd1na2vs0mg"},{"bike_id":"0a0f301d-9c96-4376-9656-97bb9c518103","system_id":"levelo_inurba_marseille","lat":43.29211,"lon":5.39332,"is_reserved":false,"is_disabled":false,"rental_uris":{"android":"levelo://app?vid=0a0f301d-9c96-4376-9656-97bb9c518103","ios":"levelo://app?vid=0a0f301d-9c96-4376-9656-97bb9c518103"},"vehicle_type_id":"4","last_reported":1731528567,"current_range_meters":30400,"station_id":"ce4bh192rcd13ifvqdd0","pricing_plan_id":"cebpf4jnsgd1na2vs0mg"},{"bike_id":"ccbd5d23-d623-481e-a326-85f4b242e71e","system_id":"levelo_inurba_marseille","lat":43.29264,"lon":5.38439,"is_reserved":false,"is_disabled":false,"rental_uris":{"android":"levelo://app?vid=ccbd5d23-d623-481e-a326-85f4b242e71e","ios":"levelo://app?vid=ccbd5d23-d623-481e-a326-85f4b242e71e"},"vehicle_type_id":"4","last_reported":1731528567,"current_range_meters":36800,"station_id":"ce4bh692rcd13ifvqea0","pricing_plan_id":"cebpf4jnsgd1na2vs0mg"},{"bike_id":"fd1e7b30-f859-4736-a101-5352f5409432","system_id":"levelo_inurba_marseille","lat":43.28029,"lon":5.36943,"is_reserved":false,"is_disabled":false,"rental_uris":{"android":"levelo://app?vid=fd1e7b30-f859-4736-a101-5352f5409432","ios":"levelo://app?vid=fd1e7b30-f859-4736-a101-5352f5409432"},"vehicle_type_id":"4","last_reported":1731528567,"current_range_meters":23200,"station_id":"ce4bha12rcd13ifvqef0","pricing_plan_id":"cebpf4jnsgd1na2vs0mg"},{"bike_id":"7c9b8995-ac96-4708-b4eb-b4b17631b9d8","system_id":"levelo_inurba_marseille","lat":43.337444,"lon":5.374475,"is_reserved":false,"is_disabled":false,"rental_uris":{"android":"levelo://app?vid=7c9b8995-ac96-4708-b4eb-b4b17631b9d8","ios":"levelo://app?vid=7c9b8995-ac96-4708-b4eb-b4b17631b9d8"},"vehicle_type_id":"4","last_reported":1731528567,"current_range_meters":36000,"station_id":"","pricing_plan_id":"cebpf4jnsgd1na2vs0mg"},{"bike_id":"8ab17290-17a8-48a2-8dba-505756bb84a7","system_id":"levelo_inurba_marseille","lat":43.28434,"lon":5.39189,"is_reserved":false,"is_disabled":false,"rental_uris":{"android":"levelo://app?vid=8ab17290-17a8-48a2-8dba-505756bb84a7","ios":"levelo://app?vid=8ab17290-17a8-48a2-8dba-505756bb84a7"},"vehicle_type_id":"4","last_reported":1731528567,"current_range_meters":20800,"station_id":"ce4bhoh2rcd13ifvqh5g","pricing_plan_id":"cebpf4jnsgd1na2vs0mg"},{"bike_id":"bfa998e5-f39d-4565-8083-ac8883bcdd82","system_id":"levelo_inurba_marseille","lat":43.24069,"lon":5.37764,"is_reserved":false,"is_disabled":false,"rental_uris":{"android":"levelo://app?vid=bfa998e5-f39d-4565-8083-ac8883bcdd82","ios":"levelo://app?vid=bfa998e5-f39d-4565-8083-ac8883bcdd82"},"vehicle_type_id":"4","last_reported":1731528567,"current_range_meters":11600,"station_id":"ce4bhnp2rcd13ifvqgvg","pricing_plan_id":"cebpf4jnsgd1na2vs0mg"},{"bike_id":"a4df5d8f-a96e-44fd-a33c-a0551b9dcb5d","system_id":"levelo_inurba_marseille","lat":43.27065,"lon":5.42272,"is_reserved":false,"is_disabled":false,"rental_uris":{"android":"levelo://app?vid=a4df5d8f-a96e-44fd-a33c-a0551b9dcb5d","ios":"levelo://app?vid=a4df5d8f-a96e-44fd-a33c-a0551b9dcb5d"},"vehicle_type_id":"4","last_reported":1731528567,"current_range_meters":40000,"station_id":"ce4bhk92rcd13ifvqgb0","pricing_plan_id":"cebpf4jnsgd1na2vs0mg"},{"bike_id":"f5963da9-a5a7-41fe-9bbd-d826d1d7410d","system_id":"levelo_inurba_marseille","lat":43.26495,"lon":5.3954,"is_reserved":false,"is_disabled":false,"rental_uris":{"android":"levelo://app?vid=f5963da9-a5a7-41fe-9bbd-d826d1d7410d","ios":"levelo://app?vid=f5963da9-a5a7-41fe-9bbd-d826d1d7410d"},"vehicle_type_id":"4","last_reported":1731528567,"current_range_meters":37600,"station_id":"ce4bhi12rcd13ifvqfq0","pricing_plan_id":"cebpf4jnsgd1na2vs0mg"},{"bike_id":"644c7429-5af3-4595-b0c0-fad4b1b76849","system_id":"levelo_inurba_marseille","lat":43.26063,"lon":5.39397,"is_reserved":false,"is_disabled":false,"rental_uris":{"android":"levelo://app?vid=644c7429-5af3-4595-b0c0-fad4b1b76849","ios":"levelo://app?vid=644c7429-5af3-4595-b0c0-fad4b1b76849"},"vehicle_type_id":"4","last_reported":1731528567,"current_range_meters":4800,"station_id":"ce4bhh92rcd13ifvqfj0","pricing_plan_id":"cebpf4jnsgd1na2vs0mg"},{"bike_id":"f051c678-bb1d-4d39-832f-e4ede4be68f6","system_id":"levelo_inurba_marseille","lat":43.28444,"lon":5.39206,"is_reserved":false,"is_disabled":false,"rental_uris":{"android":"levelo://app?vid=f051c678-bb1d-4d39-832f-e4ede4be68f6","ios":"levelo://app?vid=f051c678-bb1d-4d39-832f-e4ede4be68f6"},"vehicle_type_id":"4","last_reported":1731528567,"current_range_meters":38800,"station_id":"ce4bhoh2rcd13ifvqh5g","pricing_plan_id":"cebpf4jnsgd1na2vs0mg"},{"bike_id":"5f265537-5f45-4694-bda7-7aa85ff975a3","system_id":"levelo_inurba_marseille","lat":43.28666,"lon":5.36356,"is_reserved":false,"is_disabled":false,"rental_uris":{"android":"levelo://app?vid=5f265537-5f45-4694-bda7-7aa85ff975a3","ios":"levelo://app?vid=5f265537-5f45-4694-bda7-7aa85ff975a3"},"vehicle_type_id":"4","last_reported":1731528567,"current_range_meters":12800,"station_id":"ce4bhah2rcd13ifvqej0","pricing_plan_id":"cebpf4jnsgd1na2vs0mg"},{"bike_id":"aa5cd043-a570-4776-8d0a-e331d4cc1fd9","system_id":"levelo_inurba_marseille","lat":43.29244,"lon":5.40898,"is_reserved":false,"is_disabled":false,"rental_uris":{"android":"levelo://app?vid=aa5cd043-a570-4776-8d0a-e331d4cc1fd9","ios":"levelo://app?vid=aa5cd043-a570-4776-8d0a-e331d4cc1fd9"},"vehicle_type_id":"4","last_reported":1731528567,"current_range_meters":6800,"station_id":"ce4bh192rcd13ifvqdc0","pricing_plan_id":"cebpf4jnsgd1na2vs0mg"},{"bike_id":"b3b5223c-5272-409d-bc43-d2e21832bcd1","system_id":"levelo_inurba_marseille","lat":43.303864,"lon":5.417659,"is_reserved":false,"is_disabled":false,"rental_uris":{"android":"levelo://app?vid=b3b5223c-5272-409d-bc43-d2e21832bcd1","ios":"levelo://app?vid=b3b5223c-5272-409d-bc43-d2e21832bcd1"},"vehicle_type_id":"4","last_reported":1731528567,"current_range_meters":16800,"station_id":"ce4bhop2rcd13ifvqh7g","pricing_plan_id":"cebpf4jnsgd1na2vs0mg"},{"bike_id":"87d93078-85b6-4456-ba43-4faf2544291e","system_id":"levelo_inurba_marseille","lat":43.31328,"lon":5.39704,"is_reserved":false,"is_disabled":false,"rental_uris":{"android":"levelo://app?vid=87d93078-85b6-4456-ba43-4faf2544291e","ios":"levelo://app?vid=87d93078-85b6-4456-ba43-4faf2544291e"},"vehicle_type_id":"4","last_reported":1731528567,"current_range_meters":24800,"station_id":"ce4bgvp2rcd13ifvqcu0","pricing_plan_id":"cebpf4jnsgd1na2vs0mg"},{"bike_id":"36d094b0-e04d-47a6-a7b6-331edee81ed7","system_id":"levelo_inurba_marseille","lat":43.27679,"lon":5.38905,"is_reserved":false,"is_disabled":false,"rental_uris":{"android":"levelo://app?vid=36d094b0-e04d-47a6-a7b6-331edee81ed7","ios":"levelo://app?vid=36d094b0-e04d-47a6-a7b6-331edee81ed7"},"vehicle_type_id":"4","last_reported":1731528567,"current_range_meters":37600,"station_id":"ce4bhi12rcd13ifvqfo0","pricing_plan_id":"cebpf4jnsgd1na2vs0mg"},{"bike_id":"13acf6bb-fa9c-465d-ba71-bfd626596f49","system_id":"levelo_inurba_marseille","lat":43.28438,"lon":5.39195,"is_reserved":false,"is_disabled":false,"rental_uris":{"android":"levelo://app?vid=13acf6bb-fa9c-465d-ba71-bfd626596f49","ios":"levelo://app?vid=13acf6bb-fa9c-465d-ba71-bfd626596f49"},"vehicle_type_id":"4","last_reported":1731528567,"current_range_meters":39200,"station_id":"ce4bhoh2rcd13ifvqh5g","pricing_plan_id":"cebpf4jnsgd1na2vs0mg"},{"bike_id":"084427c1-ec6f-4209-8bc2-d522c1ad4c6e","system_id":"levelo_inurba_marseille","lat":43.28106,"lon":5.37833,"is_reserved":false,"is_disabled":false,"rental_uris":{"android":"levelo://app?vid=084427c1-ec6f-4209-8bc2-d522c1ad4c6e","ios":"levelo://app?vid=084427c1-ec6f-4209-8bc2-d522c1ad4c6e"},"vehicle_type_id":"4","last_reported":1731528567,"current_range_meters":4800,"station_id":"ce4bha12rcd13ifvqee0","pricing_plan_id":"cebpf4jnsgd1na2vs0mg"},{"bike_id":"ae6c3bfa-052d-44b6-aa7e-4e13cbe7d6ea","system_id":"levelo_inurba_marseille","lat":43.27988,"lon":5.4166,"is_reserved":false,"is_disabled":false,"rental_uris":{"android":"levelo://app?vid=ae6c3bfa-052d-44b6-aa7e-4e13cbe7d6ea","ios":"levelo://app?vid=ae6c3bfa-052d-44b6-aa7e-4e13cbe7d6ea"},"vehicle_type_id":"4","last_reported":1731528567,"current_range_meters":38000,"station_id":"ce4bho12rcd13ifvqh1g","pricing_plan_id":"cebpf4jnsgd1na2vs0mg"},{"bike_id":"8bbfd38a-fcb1-41ed-8440-f1ffdea2f4f5","system_id":"levelo_inurba_marseille","lat":43.28938,"lon":5.39619,"is_reserved":false,"is_disabled":false,"rental_uris":{"android":"levelo://app?vid=8bbfd38a-fcb1-41ed-8440-f1ffdea2f4f5","ios":"levelo://app?vid=8bbfd38a-fcb1-41ed-8440-f1ffdea2f4f5"},"vehicle_type_id":"4","last_reported":1731528567,"current_range_meters":25600,"station_id":"ce4bh3h2rcd13ifvqdn0","pricing_plan_id":"cebpf4jnsgd1na2vs0mg"},{"bike_id":"15e57113-8866-48f5-9ffa-be97e1a7df5f","system_id":"levelo_inurba_marseille","lat":43.28667,"lon":5.38671,"is_reserved":false,"is_disabled":false,"rental_uris":{"android":"levelo://app?vid=15e57113-8866-48f5-9ffa-be97e1a7df5f","ios":"levelo://app?vid=15e57113-8866-48f5-9ffa-be97e1a7df5f"},"vehicle_type_id":"4","last_reported":1731528567,"current_range_meters":30400,"station_id":"ce4bh492rcd13ifvqdug","pricing_plan_id":"cebpf4jnsgd1na2vs0mg"},{"bike_id":"7735a892-8d6b-4a93-b64f-341778d38d92","system_id":"levelo_inurba_marseille","lat":43.33609,"lon":5.41032,"is_reserved":false,"is_disabled":false,"rental_uris":{"android":"levelo://app?vid=7735a892-8d6b-4a93-b64f-341778d38d92","ios":"levelo://app?vid=7735a892-8d6b-4a93-b64f-341778d38d92"},"vehicle_type_id":"4","last_reported":1731528567,"current_range_meters":28400,"station_id":"ce4bhqh2rcd13ifvqhmg","pricing_plan_id":"cebpf4jnsgd1na2vs0mg"},{"bike_id":"a4ec425c-e618-4c93-8518-14aaf2cc1493","system_id":"levelo_inurba_marseille","lat":43.31761,"lon":5.39017,"is_reserved":false,"is_disabled":false,"rental_uris":{"android":"levelo://app?vid=a4ec425c-e618-4c93-8518-14aaf2cc1493","ios":"levelo://app?vid=a4ec425c-e618-4c93-8518-14aaf2cc1493"},"vehicle_type_id":"4","last_reported":1731528567,"current_range_meters":38800,"station_id":"ce4bhqp2rcd13ifvqhng","pricing_plan_id":"cebpf4jnsgd1na2vs0mg"},{"bike_id":"87673fe6-2510-4075-82f5-5bfacea63ef5","system_id":"levelo_inurba_marseille","lat":43.28155,"lon":5.42645,"is_reserved":false,"is_disabled":false,"rental_uris":{"android":"levelo://app?vid=87673fe6-2510-4075-82f5-5bfacea63ef5","ios":"levelo://app?vid=87673fe6-2510-4075-82f5-5bfacea63ef5"},"vehicle_type_id":"4","last_reported":1731528567,"current_range_meters":5600,"station_id":"ce4bhnh2rcd13ifvqgug","pricing_plan_id":"cebpf4jnsgd1na2vs0mg"},{"bike_id":"c12646d0-e58d-4524-aa0d-ff3ca15cdb73","system_id":"levelo_inurba_marseille","lat":43.24648,"lon":5.38904,"is_reserved":false,"is_disabled":false,"rental_uris":{"android":"levelo://app?vid=c12646d0-e58d-4524-aa0d-ff3ca15cdb73","ios":"levelo://app?vid=c12646d0-e58d-4524-aa0d-ff3ca15cdb73"},"vehicle_type_id":"4","last_reported":1731528567,"current_range_meters":38400,"station_id":"ce4bhg12rcd13ifvqf60","pricing_plan_id":"cebpf4jnsgd1na2vs0mg"},{"bike_id":"5f17bcb6-afba-4167-8092-83ef3cbb3fde","system_id":"levelo_inurba_marseille","lat":43.29419,"lon":5.38621,"is_reserved":false,"is_disabled":false,"rental_uris":{"android":"levelo://app?vid=5f17bcb6-afba-4167-8092-83ef3cbb3fde","ios":"levelo://app?vid=5f17bcb6-afba-4167-8092-83ef3cbb3fde"},"vehicle_type_id":"4","last_reported":1731528567,"current_range_meters":37600,"station_id":"ce4bh2h2rcd13ifvqdh0","pricing_plan_id":"cebpf4jnsgd1na2vs0mg"},{"bike_id":"0cf154f2-0d4f-4529-b865-320e22262d57","system_id":"levelo_inurba_marseille","lat":43.28153,"lon":5.42648,"is_reserved":false,"is_disabled":false,"rental_uris":{"android":"levelo://app?vid=0cf154f2-0d4f-4529-b865-320e22262d57","ios":"levelo://app?vid=0cf154f2-0d4f-4529-b865-320e22262d57"},"vehicle_type_id":"4","last_reported":1731528567,"current_range_meters":22400,"station_id":"ce4bhnh2rcd13ifvqgug","pricing_plan_id":"cebpf4jnsgd1na2vs0mg"},{"bike_id":"9e4868d1-d7bd-46d5-a321-e3594e2b8567","system_id":"levelo_inurba_marseille","lat":43.2871,"lon":5.37388,"is_reserved":false,"is_disabled":false,"rental_uris":{"android":"levelo://app?vid=9e4868d1-d7bd-46d5-a321-e3594e2b8567","ios":"levelo://app?vid=9e4868d1-d7bd-46d5-a321-e3594e2b8567"},"vehicle_type_id":"4","last_reported":1731528567,"current_range_meters":32400,"station_id":"ce4bh3p2rcd13ifvqdq0","pricing_plan_id":"cebpf4jnsgd1na2vs0mg"},{"bike_id":"763a0d0b-adc4-4f6c-8ca3-5d5ac74d0652","system_id":"levelo_inurba_marseille","lat":43.2841,"lon":5.37519,"is_reserved":false,"is_disabled":false,"rental_uris":{"android":"levelo://app?vid=763a0d0b-adc4-4f6c-8ca3-5d5ac74d0652","ios":"levelo://app?vid=763a0d0b-adc4-4f6c-8ca3-5d5ac74d0652"},"vehicle_type_id":"4","last_reported":1731528567,"current_range_meters":17600,"station_id":"ce4bh412rcd13ifvqds0","pricing_plan_id":"cebpf4jnsgd1na2vs0mg"},{"bike_id":"69e59e2d-8fe5-4acb-8e33-86237767e569","system_id":"levelo_inurba_marseille","lat":43.29519,"lon":5.39036,"is_reserved":false,"is_disabled":false,"rental_uris":{"android":"levelo://app?vid=69e59e2d-8fe5-4acb-8e33-86237767e569","ios":"levelo://app?vid=69e59e2d-8fe5-4acb-8e33-86237767e569"},"vehicle_type_id":"4","last_reported":1731528567,"current_range_meters":33600,"station_id":"ce4bh3p2rcd13ifvqdp0","pricing_plan_id":"cebpf4jnsgd1na2vs0mg"},{"bike_id":"7891995d-7c39-4fa5-ab0a-02ee601a522d","system_id":"levelo_inurba_marseille","lat":43.31987,"lon":5.38152,"is_reserved":false,"is_disabled":false,"rental_uris":{"android":"levelo://app?vid=7891995d-7c39-4fa5-ab0a-02ee601a522d","ios":"levelo://app?vid=7891995d-7c39-4fa5-ab0a-02ee601a522d"},"vehicle_type_id":"4","last_reported":1731528567,"current_range_meters":38000,"station_id":"ce4bhr12rcd13ifvqhpg","pricing_plan_id":"cebpf4jnsgd1na2vs0mg"},{"bike_id":"e4935905-67da-4e99-bbf5-f13614b8f314","system_id":"levelo_inurba_marseille","lat":43.23958,"lon":5.36644,"is_reserved":false,"is_disabled":false,"rental_uris":{"android":"levelo://app?vid=e4935905-67da-4e99-bbf5-f13614b8f314","ios":"levelo://app?vid=e4935905-67da-4e99-bbf5-f13614b8f314"},"vehicle_type_id":"4","last_reported":1731528567,"current_range_meters":13600,"station_id":"ce4bhi12rcd13ifvqfp0","pricing_plan_id":"cebpf4jnsgd1na2vs0mg"},{"bike_id":"58e244c1-4fc0-4be5-a598-59c5ada0c569","system_id":"levelo_inurba_marseille","lat":43.27944,"lon":5.4104,"is_reserved":false,"is_disabled":false,"rental_uris":{"android":"levelo://app?vid=58e244c1-4fc0-4be5-a598-59c5ada0c569","ios":"levelo://app?vid=58e244c1-4fc0-4be5-a598-59c5ada0c569"},"vehicle_type_id":"4","last_reported":1731528567,"current_range_meters":38800,"station_id":"ce4bhnp2rcd13ifvqh0g","pricing_plan_id":"cebpf4jnsgd1na2vs0mg"},{"bike_id":"8bbddea8-bd9b-4382-a8f4-748b385024f3","system_id":"levelo_inurba_marseille","lat":43.257782,"lon":5.410493,"is_reserved":false,"is_disabled":false,"rental_uris":{"android":"levelo://app?vid=8bbddea8-bd9b-4382-a8f4-748b385024f3","ios":"levelo://app?vid=8bbddea8-bd9b-4382-a8f4-748b385024f3"},"vehicle_type_id":"4","last_reported":1731528567,"current_range_meters":19200,"station_id":"ce4bhkp2rcd13ifvqgd0","pricing_plan_id":"cebpf4jnsgd1na2vs0mg"},{"bike_id":"f2c0c674-a5e7-4997-8a27-413af9bcc481","system_id":"levelo_inurba_marseille","lat":43.28611,"lon":5.35101,"is_reserved":false,"is_disabled":false,"rental_uris":{"android":"levelo://app?vid=f2c0c674-a5e7-4997-8a27-413af9bcc481","ios":"levelo://app?vid=f2c0c674-a5e7-4997-8a27-413af9bcc481"},"vehicle_type_id":"4","last_reported":1731528567,"current_range_meters":16000,"station_id":"ce4bhch2rcd13ifvqeug","pricing_plan_id":"cebpf4jnsgd1na2vs0mg"},{"bike_id":"828cbcfe-6c6b-4507-8ddf-f4d69c2d8108","system_id":"levelo_inurba_marseille","lat":43.24081,"lon":5.37754,"is_reserved":false,"is_disabled":false,"rental_uris":{"android":"levelo://app?vid=828cbcfe-6c6b-4507-8ddf-f4d69c2d8108","ios":"levelo://app?vid=828cbcfe-6c6b-4507-8ddf-f4d69c2d8108"},"vehicle_type_id":"4","last_reported":1731528567,"current_range_meters":28400,"station_id":"ce4bhnp2rcd13ifvqgvg","pricing_plan_id":"cebpf4jnsgd1na2vs0mg"},{"bike_id":"a0d487ad-3c58-4cac-bcaa-cf6491bccc23","system_id":"levelo_inurba_marseille","lat":43.2988,"lon":5.38909,"is_reserved":false,"is_disabled":false,"rental_uris":{"android":"levelo://app?vid=a0d487ad-3c58-4cac-bcaa-cf6491bccc23","ios":"levelo://app?vid=a0d487ad-3c58-4cac-bcaa-cf6491bccc23"},"vehicle_type_id":"4","last_reported":1731528567,"current_range_meters":2800,"station_id":"ce4bh392rcd13ifvqdl0","pricing_plan_id":"cebpf4jnsgd1na2vs0mg"},{"bike_id":"1311c692-6e9d-4afb-b7b0-20686564fe7a","system_id":"levelo_inurba_marseille","lat":43.337444,"lon":5.374475,"is_reserved":false,"is_disabled":false,"rental_uris":{"android":"levelo://app?vid=1311c692-6e9d-4afb-b7b0-20686564fe7a","ios":"levelo://app?vid=1311c692-6e9d-4afb-b7b0-20686564fe7a"},"vehicle_type_id":"4","last_reported":1731528567,"current_range_meters":36000,"station_id":"","pricing_plan_id":"cebpf4jnsgd1na2vs0mg"},{"bike_id":"4e68bfdf-c6f2-4ac5-a03d-cdcff3af65c9","system_id":"levelo_inurba_marseille","lat":43.296173,"lon":5.381232,"is_reserved":false,"is_disabled":false,"rental_uris":{"android":"levelo://app?vid=4e68bfdf-c6f2-4ac5-a03d-cdcff3af65c9","ios":"levelo://app?vid=4e68bfdf-c6f2-4ac5-a03d-cdcff3af65c9"},"vehicle_type_id":"4","last_reported":1731528567,"current_range_meters":38800,"station_id":"ce4bgl12rcd13ifvqbo0","pricing_plan_id":"cebpf4jnsgd1na2vs0mg"},{"bike_id":"07a4be1c-5cf0-4f3e-8c27-4c3e24078daa","system_id":"levelo_inurba_marseille","lat":43.2481,"lon":5.37464,"is_reserved":false,"is_disabled":false,"rental_uris":{"android":"levelo://app?vid=07a4be1c-5cf0-4f3e-8c27-4c3e24078daa","ios":"levelo://app?vid=07a4be1c-5cf0-4f3e-8c27-4c3e24078daa"},"vehicle_type_id":"4","last_reported":1731528567,"current_range_meters":18800,"station_id":"ce4bhgh2rcd13ifvqfb0","pricing_plan_id":"cebpf4jnsgd1na2vs0mg"},{"bike_id":"ecb3cc37-9673-4250-b386-228d12a366ea","system_id":"levelo_inurba_marseille","lat":43.27814,"lon":5.4071,"is_reserved":false,"is_disabled":false,"rental_uris":{"android":"levelo://app?vid=ecb3cc37-9673-4250-b386-228d12a366ea","ios":"levelo://app?vid=ecb3cc37-9673-4250-b386-228d12a366ea"},"vehicle_type_id":"4","last_reported":1731528567,"current_range_meters":38800,"station_id":"ce4bhnh2rcd13ifvqgtg","pricing_plan_id":"cebpf4jnsgd1na2vs0mg"},{"bike_id":"a2ae2391-06bd-4d4e-8619-16338e365a08","system_id":"levelo_inurba_marseille","lat":43.29578,"lon":5.36737,"is_reserved":false,"is_disabled":false,"rental_uris":{"android":"levelo://app?vid=a2ae2391-06bd-4d4e-8619-16338e365a08","ios":"levelo://app?vid=a2ae2391-06bd-4d4e-8619-16338e365a08"},"vehicle_type_id":"4","last_reported":1731528567,"current_range_meters":24000,"station_id":"ce4bgph2rcd13ifvqc2g","pricing_plan_id":"cebpf4jnsgd1na2vs0mg"},{"bike_id":"d7595a11-9b28-4bec-b99f-e0f1cad51f41","system_id":"levelo_inurba_marseille","lat":43.29803,"lon":5.40411,"is_reserved":false,"is_disabled":false,"rental_uris":{"android":"levelo://app?vid=d7595a11-9b28-4bec-b99f-e0f1cad51f41","ios":"levelo://app?vid=d7595a11-9b28-4bec-b99f-e0f1cad51f41"},"vehicle_type_id":"4","last_reported":1731528567,"current_range_meters":7200,"station_id":"ce4bh112rcd13ifvqd90","pricing_plan_id":"cebpf4jnsgd1na2vs0mg"},{"bike_id":"064785b1-570d-4d3d-b30e-ad791fb7597f","system_id":"levelo_inurba_marseille","lat":43.30424,"lon":5.39742,"is_reserved":false,"is_disabled":false,"rental_uris":{"android":"levelo://app?vid=064785b1-570d-4d3d-b30e-ad791fb7597f","ios":"levelo://app?vid=064785b1-570d-4d3d-b30e-ad791fb7597f"},"vehicle_type_id":"4","last_reported":1731528567,"current_range_meters":38000,"station_id":"ce4bh092rcd13ifvqd20","pricing_plan_id":"cebpf4jnsgd1na2vs0mg"},{"bike_id":"75f71ef1-6e08-415a-bb8b-dfb0f44294ba","system_id":"levelo_inurba_marseille","lat":43.27989,"lon":5.4166,"is_reserved":false,"is_disabled":false,"rental_uris":{"android":"levelo://app?vid=75f71ef1-6e08-415a-bb8b-dfb0f44294ba","ios":"levelo://app?vid=75f71ef1-6e08-415a-bb8b-dfb0f44294ba"},"vehicle_type_id":"4","last_reported":1731528567,"current_range_meters":8400,"station_id":"ce4bho12rcd13ifvqh1g","pricing_plan_id":"cebpf4jnsgd1na2vs0mg"},{"bike_id":"a365b508-1ef5-4939-b750-e9d43b113938","system_id":"levelo_inurba_marseille","lat":43.31758,"lon":5.39007,"is_reserved":false,"is_disabled":false,"rental_uris":{"android":"levelo://app?vid=a365b508-1ef5-4939-b750-e9d43b113938","ios":"levelo://app?vid=a365b508-1ef5-4939-b750-e9d43b113938"},"vehicle_type_id":"4","last_reported":1731528567,"current_range_meters":37600,"station_id":"ce4bhqp2rcd13ifvqhng","pricing_plan_id":"cebpf4jnsgd1na2vs0mg"},{"bike_id":"c0e43a56-5e87-49cb-bb89-acffb63b008a","system_id":"levelo_inurba_marseille","lat":43.29524,"lon":5.39042,"is_reserved":false,"is_disabled":false,"rental_uris":{"android":"levelo://app?vid=c0e43a56-5e87-49cb-bb89-acffb63b008a","ios":"levelo://app?vid=c0e43a56-5e87-49cb-bb89-acffb63b008a"},"vehicle_type_id":"4","last_reported":1731528567,"current_range_meters":38000,"station_id":"ce4bh3p2rcd13ifvqdp0","pricing_plan_id":"cebpf4jnsgd1na2vs0mg"},{"bike_id":"56f8d689-c61a-48f6-ba93-e24795df10e5","system_id":"levelo_inurba_marseille","lat":43.29798,"lon":5.38106,"is_reserved":false,"is_disabled":false,"rental_uris":{"android":"levelo://app?vid=56f8d689-c61a-48f6-ba93-e24795df10e5","ios":"levelo://app?vid=56f8d689-c61a-48f6-ba93-e24795df10e5"},"vehicle_type_id":"4","last_reported":1731528567,"current_range_meters":32000,"station_id":"ce4bgip2rcd13ifvqbb0","pricing_plan_id":"cebpf4jnsgd1na2vs0mg"},{"bike_id":"b4975e96-031b-41bc-8e9d-d24b19fce3f0","system_id":"levelo_inurba_marseille","lat":43.28438,"lon":5.39198,"is_reserved":false,"is_disabled":false,"rental_uris":{"android":"levelo://app?vid=b4975e96-031b-41bc-8e9d-d24b19fce3f0","ios":"levelo://app?vid=b4975e96-031b-41bc-8e9d-d24b19fce3f0"},"vehicle_type_id":"4","last_reported":1731528567,"current_range_meters":16800,"station_id":"ce4bhoh2rcd13ifvqh5g","pricing_plan_id":"cebpf4jnsgd1na2vs0mg"},{"bike_id":"886a5767-abd3-43bb-a246-c69344043a4d","system_id":"levelo_inurba_marseille","lat":43.27975,"lon":5.38741,"is_reserved":false,"is_disabled":false,"rental_uris":{"android":"levelo://app?vid=886a5767-abd3-43bb-a246-c69344043a4d","ios":"levelo://app?vid=886a5767-abd3-43bb-a246-c69344043a4d"},"vehicle_type_id":"4","last_reported":1731528567,"current_range_meters":20400,"station_id":"ce4bhg12rcd13ifvqf80","pricing_plan_id":"cebpf4jnsgd1na2vs0mg"},{"bike_id":"6f0f4e19-c502-491c-aa9a-8a7117d5ee31","system_id":"levelo_inurba_marseille","lat":43.30447,"lon":5.36734,"is_reserved":false,"is_disabled":false,"rental_uris":{"android":"levelo://app?vid=6f0f4e19-c502-491c-aa9a-8a7117d5ee31","ios":"levelo://app?vid=6f0f4e19-c502-491c-aa9a-8a7117d5ee31"},"vehicle_type_id":"4","last_reported":1731528567,"current_range_meters":7200,"station_id":"ce4bgrp2rcd13ifvqc9g","pricing_plan_id":"cebpf4jnsgd1na2vs0mg"},{"bike_id":"4d7147b0-96cf-4f9a-a06b-8a063557159b","system_id":"levelo_inurba_marseille","lat":43.23175,"lon":5.39988,"is_reserved":false,"is_disabled":false,"rental_uris":{"android":"levelo://app?vid=4d7147b0-96cf-4f9a-a06b-8a063557159b","ios":"levelo://app?vid=4d7147b0-96cf-4f9a-a06b-8a063557159b"},"vehicle_type_id":"4","last_reported":1731528567,"current_range_meters":33200,"station_id":"ce4bhn12rcd13ifvqgqg","pricing_plan_id":"cebpf4jnsgd1na2vs0mg"},{"bike_id":"ed2d8bd5-9c27-40ae-959f-74a893930887","system_id":"levelo_inurba_marseille","lat":43.25582,"lon":5.38232,"is_reserved":false,"is_disabled":false,"rental_uris":{"android":"levelo://app?vid=ed2d8bd5-9c27-40ae-959f-74a893930887","ios":"levelo://app?vid=ed2d8bd5-9c27-40ae-959f-74a893930887"},"vehicle_type_id":"4","last_reported":1731528567,"current_range_meters":11200,"station_id":"ce4bhih2rcd13ifvqfs0","pricing_plan_id":"cebpf4jnsgd1na2vs0mg"},{"bike_id":"f5df91d9-4a7c-43df-9009-00af233090e5","system_id":"levelo_inurba_marseille","lat":43.33606,"lon":5.41016,"is_reserved":false,"is_disabled":false,"rental_uris":{"android":"levelo://app?vid=f5df91d9-4a7c-43df-9009-00af233090e5","ios":"levelo://app?vid=f5df91d9-4a7c-43df-9009-00af233090e5"},"vehicle_type_id":"4","last_reported":1731528567,"current_range_meters":28400,"station_id":"ce4bhqh2rcd13ifvqhmg","pricing_plan_id":"cebpf4jnsgd1na2vs0mg"},{"bike_id":"95de21d4-371c-4adf-aa64-f342b18ffdec","system_id":"levelo_inurba_marseille","lat":43.3033,"lon":5.4044,"is_reserved":false,"is_disabled":false,"rental_uris":{"android":"levelo://app?vid=95de21d4-371c-4adf-aa64-f342b18ffdec","ios":"levelo://app?vid=95de21d4-371c-4adf-aa64-f342b18ffdec"},"vehicle_type_id":"4","last_reported":1731528567,"current_range_meters":38800,"station_id":"ce4bh012rcd13ifvqd10","pricing_plan_id":"cebpf4jnsgd1na2vs0mg"},{"bike_id":"3da22c96-18a6-4d3a-a579-0c04984c3537","system_id":"levelo_inurba_marseille","lat":43.2621,"lon":5.37436,"is_reserved":false,"is_disabled":false,"rental_uris":{"android":"levelo://app?vid=3da22c96-18a6-4d3a-a579-0c04984c3537","ios":"levelo://app?vid=3da22c96-18a6-4d3a-a579-0c04984c3537"},"vehicle_type_id":"4","last_reported":1731528567,"current_range_meters":20400,"station_id":"ce4bhgp2rcd13ifvqfc0","pricing_plan_id":"cebpf4jnsgd1na2vs0mg"},{"bike_id":"8dd1f1ef-43cd-4fec-9f2a-8e92f95c1bc8","system_id":"levelo_inurba_marseille","lat":43.2781,"lon":5.40707,"is_reserved":false,"is_disabled":false,"rental_uris":{"android":"levelo://app?vid=8dd1f1ef-43cd-4fec-9f2a-8e92f95c1bc8","ios":"levelo://app?vid=8dd1f1ef-43cd-4fec-9f2a-8e92f95c1bc8"},"vehicle_type_id":"4","last_reported":1731528567,"current_range_meters":19200,"station_id":"ce4bhnh2rcd13ifvqgtg","pricing_plan_id":"cebpf4jnsgd1na2vs0mg"},{"bike_id":"783db15c-7027-4bcc-b96f-1a7e59eb4a96","system_id":"levelo_inurba_marseille","lat":43.29,"lon":5.35605,"is_reserved":false,"is_disabled":false,"rental_uris":{"android":"levelo://app?vid=783db15c-7027-4bcc-b96f-1a7e59eb4a96","ios":"levelo://app?vid=783db15c-7027-4bcc-b96f-1a7e59eb4a96"},"vehicle_type_id":"4","last_reported":1731528567,"current_range_meters":26800,"station_id":"ce4bhb92rcd13ifvqen0","pricing_plan_id":"cebpf4jnsgd1na2vs0mg"},{"bike_id":"e8e36157-c8a6-42f5-961f-57370a4fe092","system_id":"levelo_inurba_marseille","lat":43.27949,"lon":5.38493,"is_reserved":false,"is_disabled":false,"rental_uris":{"android":"levelo://app?vid=e8e36157-c8a6-42f5-961f-57370a4fe092","ios":"levelo://app?vid=e8e36157-c8a6-42f5-961f-57370a4fe092"},"vehicle_type_id":"4","last_reported":1731528567,"current_range_meters":36000,"station_id":"","pricing_plan_id":"cebpf4jnsgd1na2vs0mg"},{"bike_id":"bff54997-1790-4727-a556-bbaeb5e5c93c","system_id":"levelo_inurba_marseille","lat":43.27921,"lon":5.39588,"is_reserved":false,"is_disabled":false,"rental_uris":{"android":"levelo://app?vid=bff54997-1790-4727-a556-bbaeb5e5c93c","ios":"levelo://app?vid=bff54997-1790-4727-a556-bbaeb5e5c93c"},"vehicle_type_id":"4","last_reported":1731528567,"current_range_meters":11200,"station_id":"ce4bhf92rcd13ifvqf40","pricing_plan_id":"cebpf4jnsgd1na2vs0mg"},{"bike_id":"2c83442d-3224-4246-9633-781df902c98d","system_id":"levelo_inurba_marseille","lat":43.28464,"lon":5.38417,"is_reserved":false,"is_disabled":false,"rental_uris":{"android":"levelo://app?vid=2c83442d-3224-4246-9633-781df902c98d","ios":"levelo://app?vid=2c83442d-3224-4246-9633-781df902c98d"},"vehicle_type_id":"4","last_reported":1731528567,"current_range_meters":9200,"station_id":"ce4bh512rcd13ifvqe3g","pricing_plan_id":"cebpf4jnsgd1na2vs0mg"},{"bike_id":"a3d0ca32-7543-429a-b71d-a6cf5fff22fc","system_id":"levelo_inurba_marseille","lat":43.29355,"lon":5.37854,"is_reserved":false,"is_disabled":false,"rental_uris":{"android":"levelo://app?vid=a3d0ca32-7543-429a-b71d-a6cf5fff22fc","ios":"levelo://app?vid=a3d0ca32-7543-429a-b71d-a6cf5fff22fc"},"vehicle_type_id":"4","last_reported":1731528567,"current_range_meters":38800,"station_id":"ce4bgjh2rcd13ifvqbf0","pricing_plan_id":"cebpf4jnsgd1na2vs0mg"},{"bike_id":"88bd674e-016c-48db-8e1a-9356d704013d","system_id":"levelo_inurba_marseille","lat":43.29529,"lon":5.3854,"is_reserved":false,"is_disabled":false,"rental_uris":{"android":"levelo://app?vid=88bd674e-016c-48db-8e1a-9356d704013d","ios":"levelo://app?vid=88bd674e-016c-48db-8e1a-9356d704013d"},"vehicle_type_id":"4","last_reported":1731528567,"current_range_meters":37600,"station_id":"ce4bgih2rcd13ifvqba0","pricing_plan_id":"cebpf4jnsgd1na2vs0mg"},{"bike_id":"8759ae07-5bad-4a84-ada3-f28f57811112","system_id":"levelo_inurba_marseille","lat":43.28849,"lon":5.35851,"is_reserved":false,"is_disabled":false,"rental_uris":{"android":"levelo://app?vid=8759ae07-5bad-4a84-ada3-f28f57811112","ios":"levelo://app?vid=8759ae07-5bad-4a84-ada3-f28f57811112"},"vehicle_type_id":"4","last_reported":1731528567,"current_range_meters":36000,"station_id":"ce4bhb12rcd13ifvqem0","pricing_plan_id":"cebpf4jnsgd1na2vs0mg"},{"bike_id":"f3aabee9-d321-4bbd-b980-2ee0bcf6115f","system_id":"levelo_inurba_marseille","lat":43.30415,"lon":5.41286,"is_reserved":false,"is_disabled":false,"rental_uris":{"android":"levelo://app?vid=f3aabee9-d321-4bbd-b980-2ee0bcf6115f","ios":"levelo://app?vid=f3aabee9-d321-4bbd-b980-2ee0bcf6115f"},"vehicle_type_id":"4","last_reported":1731528567,"current_range_meters":38000,"station_id":"ce4bhop2rcd13ifvqh8g","pricing_plan_id":"cebpf4jnsgd1na2vs0mg"},{"bike_id":"043cc5cd-c396-4b05-acc2-17ca28fab22d","system_id":"levelo_inurba_marseille","lat":43.28038,"lon":5.36942,"is_reserved":false,"is_disabled":false,"rental_uris":{"android":"levelo://app?vid=043cc5cd-c396-4b05-acc2-17ca28fab22d","ios":"levelo://app?vid=043cc5cd-c396-4b05-acc2-17ca28fab22d"},"vehicle_type_id":"4","last_reported":1731528567,"current_range_meters":38000,"station_id":"ce4bha12rcd13ifvqef0","pricing_plan_id":"cebpf4jnsgd1na2vs0mg"},{"bike_id":"77eeae7b-ed74-47f2-944f-eb4b80aa21b8","system_id":"levelo_inurba_marseille","lat":43.27372,"lon":5.36241,"is_reserved":false,"is_disabled":false,"rental_uris":{"android":"levelo://app?vid=77eeae7b-ed74-47f2-944f-eb4b80aa21b8","ios":"levelo://app?vid=77eeae7b-ed74-47f2-944f-eb4b80aa21b8"},"vehicle_type_id":"4","last_reported":1731528567,"current_range_meters":38800,"station_id":"ce4bhbh2rcd13ifvqeo0","pricing_plan_id":"cebpf4jnsgd1na2vs0mg"},{"bike_id":"b448c76e-6a85-4e4e-8af8-7d9249501502","system_id":"levelo_inurba_marseille","lat":43.337444,"lon":5.374475,"is_reserved":false,"is_disabled":false,"rental_uris":{"android":"levelo://app?vid=b448c76e-6a85-4e4e-8af8-7d9249501502","ios":"levelo://app?vid=b448c76e-6a85-4e4e-8af8-7d9249501502"},"vehicle_type_id":"4","last_reported":1731528567,"current_range_meters":36000,"station_id":"","pricing_plan_id":"cebpf4jnsgd1na2vs0mg"},{"bike_id":"4752e5e5-63f5-4641-8678-6e80d894407e","system_id":"levelo_inurba_marseille","lat":43.2905,"lon":5.35917,"is_reserved":false,"is_disabled":false,"rental_uris":{"android":"levelo://app?vid=4752e5e5-63f5-4641-8678-6e80d894407e","ios":"levelo://app?vid=4752e5e5-63f5-4641-8678-6e80d894407e"},"vehicle_type_id":"4","last_reported":1731528567,"current_range_meters":38800,"station_id":"ce4bha92rcd13ifvqeg0","pricing_plan_id":"cebpf4jnsgd1na2vs0mg"},{"bike_id":"e2fac76a-6818-4872-8a51-62b76cf6f02d","system_id":"levelo_inurba_marseille","lat":43.25822,"lon":5.39416,"is_reserved":false,"is_disabled":false,"rental_uris":{"android":"levelo://app?vid=e2fac76a-6818-4872-8a51-62b76cf6f02d","ios":"levelo://app?vid=e2fac76a-6818-4872-8a51-62b76cf6f02d"},"vehicle_type_id":"4","last_reported":1731528567,"current_range_meters":32000,"station_id":"ce4bhip2rcd13ifvqft0","pricing_plan_id":"cebpf4jnsgd1na2vs0mg"},{"bike_id":"644465f2-e441-4439-87d7-91398635e7f3","system_id":"levelo_inurba_marseille","lat":43.28708,"lon":5.37947,"is_reserved":false,"is_disabled":false,"rental_uris":{"android":"levelo://app?vid=644465f2-e441-4439-87d7-91398635e7f3","ios":"levelo://app?vid=644465f2-e441-4439-87d7-91398635e7f3"},"vehicle_type_id":"4","last_reported":1731528567,"current_range_meters":30000,"station_id":"ce4bh9p2rcd13ifvqec0","pricing_plan_id":"cebpf4jnsgd1na2vs0mg"},{"bike_id":"e2bfda87-cc45-4c4b-9f7e-c41385f85f84","system_id":"levelo_inurba_marseille","lat":43.25727,"lon":5.4111,"is_reserved":false,"is_disabled":false,"rental_uris":{"android":"levelo://app?vid=e2bfda87-cc45-4c4b-9f7e-c41385f85f84","ios":"levelo://app?vid=e2bfda87-cc45-4c4b-9f7e-c41385f85f84"},"vehicle_type_id":"4","last_reported":1731528567,"current_range_meters":27200,"station_id":"ce4bhkp2rcd13ifvqgd0","pricing_plan_id":"cebpf4jnsgd1na2vs0mg"},{"bike_id":"3837b05f-67c8-4d02-9aa9-54642194c0fb","system_id":"levelo_inurba_marseille","lat":43.28613,"lon":5.3511,"is_reserved":false,"is_disabled":false,"rental_uris":{"android":"levelo://app?vid=3837b05f-67c8-4d02-9aa9-54642194c0fb","ios":"levelo://app?vid=3837b05f-67c8-4d02-9aa9-54642194c0fb"},"vehicle_type_id":"4","last_reported":1731528567,"current_range_meters":22800,"station_id":"ce4bhch2rcd13ifvqeug","pricing_plan_id":"cebpf4jnsgd1na2vs0mg"},{"bike_id":"dd421a88-b0c5-4ae9-97a1-6cbd2f97bad3","system_id":"levelo_inurba_marseille","lat":43.28851,"lon":5.35852,"is_reserved":false,"is_disabled":false,"rental_uris":{"android":"levelo://app?vid=dd421a88-b0c5-4ae9-97a1-6cbd2f97bad3","ios":"levelo://app?vid=dd421a88-b0c5-4ae9-97a1-6cbd2f97bad3"},"vehicle_type_id":"4","last_reported":1731528567,"current_range_meters":8800,"station_id":"ce4bhb12rcd13ifvqem0","pricing_plan_id":"cebpf4jnsgd1na2vs0mg"},{"bike_id":"42350e70-b7b2-433e-8c1a-8b8484f9bc99","system_id":"levelo_inurba_marseille","lat":43.24548,"lon":5.39523,"is_reserved":false,"is_disabled":false,"rental_uris":{"android":"levelo://app?vid=42350e70-b7b2-433e-8c1a-8b8484f9bc99","ios":"levelo://app?vid=42350e70-b7b2-433e-8c1a-8b8484f9bc99"},"vehicle_type_id":"4","last_reported":1731528567,"current_range_meters":19200,"station_id":"ce4bhlp2rcd13ifvqgjg","pricing_plan_id":"cebpf4jnsgd1na2vs0mg"},{"bike_id":"9e44ff68-99b6-440c-b560-0b7f6717a54d","system_id":"levelo_inurba_marseille","lat":43.29254,"lon":5.38439,"is_reserved":false,"is_disabled":false,"rental_uris":{"android":"levelo://app?vid=9e44ff68-99b6-440c-b560-0b7f6717a54d","ios":"levelo://app?vid=9e44ff68-99b6-440c-b560-0b7f6717a54d"},"vehicle_type_id":"4","last_reported":1731528567,"current_range_meters":38800,"station_id":"ce4bh692rcd13ifvqea0","pricing_plan_id":"cebpf4jnsgd1na2vs0mg"},{"bike_id":"55cdb0d7-8f1b-4bb3-800b-fa43bc5589a1","system_id":"levelo_inurba_marseille","lat":43.25871,"lon":5.39893,"is_reserved":false,"is_disabled":false,"rental_uris":{"android":"levelo://app?vid=55cdb0d7-8f1b-4bb3-800b-fa43bc5589a1","ios":"levelo://app?vid=55cdb0d7-8f1b-4bb3-800b-fa43bc5589a1"},"vehicle_type_id":"4","last_reported":1731528567,"current_range_meters":37600,"station_id":"ce4bhl92rcd13ifvqghg","pricing_plan_id":"cebpf4jnsgd1na2vs0mg"},{"bike_id":"197cbd5c-c6c1-4921-adac-0bfe328a65ca","system_id":"levelo_inurba_marseille","lat":43.30429,"lon":5.38894,"is_reserved":false,"is_disabled":false,"rental_uris":{"android":"levelo://app?vid=197cbd5c-c6c1-4921-adac-0bfe328a65ca","ios":"levelo://app?vid=197cbd5c-c6c1-4921-adac-0bfe328a65ca"},"vehicle_type_id":"4","last_reported":1731528567,"current_range_meters":26000,"station_id":"ce4bgk12rcd13ifvqbi0","pricing_plan_id":"cebpf4jnsgd1na2vs0mg"},{"bike_id":"4018447b-2886-4c23-942b-201819b3bc28","system_id":"levelo_inurba_marseille","lat":43.337444,"lon":5.374475,"is_reserved":false,"is_disabled":false,"rental_uris":{"android":"levelo://app?vid=4018447b-2886-4c23-942b-201819b3bc28","ios":"levelo://app?vid=4018447b-2886-4c23-942b-201819b3bc28"},"vehicle_type_id":"4","last_reported":1731528567,"current_range_meters":36000,"station_id":"","pricing_plan_id":"cebpf4jnsgd1na2vs0mg"},{"bike_id":"1d5554cd-38bd-4932-8dc4-7ba104d60466","system_id":"levelo_inurba_marseille","lat":43.32335,"lon":5.40619,"is_reserved":false,"is_disabled":false,"rental_uris":{"android":"levelo://app?vid=1d5554cd-38bd-4932-8dc4-7ba104d60466","ios":"levelo://app?vid=1d5554cd-38bd-4932-8dc4-7ba104d60466"},"vehicle_type_id":"4","last_reported":1731528567,"current_range_meters":20000,"station_id":"ce4bhq92rcd13ifvqhjg","pricing_plan_id":"cebpf4jnsgd1na2vs0mg"},{"bike_id":"602f3e30-74f2-4a40-b8e3-30a3a7435598","system_id":"levelo_inurba_marseille","lat":43.29305,"lon":5.37184,"is_reserved":false,"is_disabled":false,"rental_uris":{"android":"levelo://app?vid=602f3e30-74f2-4a40-b8e3-30a3a7435598","ios":"levelo://app?vid=602f3e30-74f2-4a40-b8e3-30a3a7435598"},"vehicle_type_id":"4","last_reported":1731528567,"current_range_meters":4400,"station_id":"ce4bgh92rcd13ifvqb40","pricing_plan_id":"cebpf4jnsgd1na2vs0mg"},{"bike_id":"8363accd-fb3e-4197-b76c-de8d47411466","system_id":"levelo_inurba_marseille","lat":43.28857,"lon":5.35854,"is_reserved":false,"is_disabled":false,"rental_uris":{"android":"levelo://app?vid=8363accd-fb3e-4197-b76c-de8d47411466","ios":"levelo://app?vid=8363accd-fb3e-4197-b76c-de8d47411466"},"vehicle_type_id":"4","last_reported":1731528567,"current_range_meters":8000,"station_id":"ce4bhb12rcd13ifvqem0","pricing_plan_id":"cebpf4jnsgd1na2vs0mg"},{"bike_id":"7a08f294-61a7-4f42-ab06-11c378777544","system_id":"levelo_inurba_marseille","lat":43.30862,"lon":5.39783,"is_reserved":false,"is_disabled":false,"rental_uris":{"android":"levelo://app?vid=7a08f294-61a7-4f42-ab06-11c378777544","ios":"levelo://app?vid=7a08f294-61a7-4f42-ab06-11c378777544"},"vehicle_type_id":"4","last_reported":1731528567,"current_range_meters":30400,"station_id":"ce4bgvp2rcd13ifvqct0","pricing_plan_id":"cebpf4jnsgd1na2vs0mg"},{"bike_id":"54b1db1c-5f22-4b59-84a6-e05564845f95","system_id":"levelo_inurba_marseille","lat":43.2926,"lon":5.38447,"is_reserved":false,"is_disabled":false,"rental_uris":{"android":"levelo://app?vid=54b1db1c-5f22-4b59-84a6-e05564845f95","ios":"levelo://app?vid=54b1db1c-5f22-4b59-84a6-e05564845f95"},"vehicle_type_id":"4","last_reported":1731528567,"current_range_meters":16000,"station_id":"ce4bh692rcd13ifvqea0","pricing_plan_id":"cebpf4jnsgd1na2vs0mg"},{"bike_id":"8ff3daf9-97e9-480f-95f9-4d1d61792a54","system_id":"levelo_inurba_marseille","lat":43.33758,"lon":5.37471,"is_reserved":false,"is_disabled":false,"rental_uris":{"android":"levelo://app?vid=8ff3daf9-97e9-480f-95f9-4d1d61792a54","ios":"levelo://app?vid=8ff3daf9-97e9-480f-95f9-4d1d61792a54"},"vehicle_type_id":"4","last_reported":1731528567,"current_range_meters":34000,"station_id":"","pricing_plan_id":"cebpf4jnsgd1na2vs0mg"},{"bike_id":"6d324a4b-3e3c-4b7a-8a3d-a2bd5d37a176","system_id":"levelo_inurba_marseille","lat":43.28438,"lon":5.39193,"is_reserved":false,"is_disabled":false,"rental_uris":{"android":"levelo://app?vid=6d324a4b-3e3c-4b7a-8a3d-a2bd5d37a176","ios":"levelo://app?vid=6d324a4b-3e3c-4b7a-8a3d-a2bd5d37a176"},"vehicle_type_id":"4","last_reported":1731528567,"current_range_meters":10000,"station_id":"ce4bhoh2rcd13ifvqh5g","pricing_plan_id":"cebpf4jnsgd1na2vs0mg"},{"bike_id":"2d5dfb2a-158f-4946-9842-bcc4ebebe068","system_id":"levelo_inurba_marseille","lat":43.24548,"lon":5.39526,"is_reserved":false,"is_disabled":false,"rental_uris":{"android":"levelo://app?vid=2d5dfb2a-158f-4946-9842-bcc4ebebe068","ios":"levelo://app?vid=2d5dfb2a-158f-4946-9842-bcc4ebebe068"},"vehicle_type_id":"4","last_reported":1731528567,"current_range_meters":40000,"station_id":"ce4bhlp2rcd13ifvqgjg","pricing_plan_id":"cebpf4jnsgd1na2vs0mg"},{"bike_id":"dd7d9016-feda-4fb9-833e-5c856731139b","system_id":"levelo_inurba_marseille","lat":43.27996,"lon":5.41666,"is_reserved":false,"is_disabled":false,"rental_uris":{"android":"levelo://app?vid=dd7d9016-feda-4fb9-833e-5c856731139b","ios":"levelo://app?vid=dd7d9016-feda-4fb9-833e-5c856731139b"},"vehicle_type_id":"4","last_reported":1731528567,"current_range_meters":24000,"station_id":"ce4bho12rcd13ifvqh1g","pricing_plan_id":"cebpf4jnsgd1na2vs0mg"},{"bike_id":"76126c21-1d3a-4f1e-a92b-a3d69f6c6146","system_id":"levelo_inurba_marseille","lat":43.3169,"lon":5.40476,"is_reserved":false,"is_disabled":false,"rental_uris":{"android":"levelo://app?vid=76126c21-1d3a-4f1e-a92b-a3d69f6c6146","ios":"levelo://app?vid=76126c21-1d3a-4f1e-a92b-a3d69f6c6146"},"vehicle_type_id":"4","last_reported":1731528567,"current_range_meters":8400,"station_id":"ce4bh012rcd13ifvqd00","pricing_plan_id":"cebpf4jnsgd1na2vs0mg"},{"bike_id":"8ff16e97-ab24-466c-9258-7b196851f388","system_id":"levelo_inurba_marseille","lat":43.29023,"lon":5.38133,"is_reserved":false,"is_disabled":false,"rental_uris":{"android":"levelo://app?vid=8ff16e97-ab24-466c-9258-7b196851f388","ios":"levelo://app?vid=8ff16e97-ab24-466c-9258-7b196851f388"},"vehicle_type_id":"4","last_reported":1731528567,"current_range_meters":27600,"station_id":"ce4bh4p2rcd13ifvqe1g","pricing_plan_id":"cebpf4jnsgd1na2vs0mg"},{"bike_id":"d09a69b4-a6cd-4352-9b70-237c7ec2c287","system_id":"levelo_inurba_marseille","lat":43.29659,"lon":5.37688,"is_reserved":false,"is_disabled":false,"rental_uris":{"android":"levelo://app?vid=d09a69b4-a6cd-4352-9b70-237c7ec2c287","ios":"levelo://app?vid=d09a69b4-a6cd-4352-9b70-237c7ec2c287"},"vehicle_type_id":"4","last_reported":1731528567,"current_range_meters":24800,"station_id":"ce4bgi92rcd13ifvqb90","pricing_plan_id":"cebpf4jnsgd1na2vs0mg"},{"bike_id":"a2e2df79-cc69-41e6-8284-a1aa301b7a90","system_id":"levelo_inurba_marseille","lat":43.29046,"lon":5.35917,"is_reserved":false,"is_disabled":false,"rental_uris":{"android":"levelo://app?vid=a2e2df79-cc69-41e6-8284-a1aa301b7a90","ios":"levelo://app?vid=a2e2df79-cc69-41e6-8284-a1aa301b7a90"},"vehicle_type_id":"4","last_reported":1731528567,"current_range_meters":10800,"station_id":"ce4bha92rcd13ifvqeg0","pricing_plan_id":"cebpf4jnsgd1na2vs0mg"},