{"last_updated":1741378206,"ttl":60,"version":"2.2","data":{"bikes":[{"bike_id":"f5147d42-8bb9-4c03-b025-a2f86302d776","system_id":"levelo_inurba_marseille","lat":43.302844,"lon":5.400612,"is_reserved":false,"is_disabled":false,"rental_uris":{"android":"levelo://app?vid=f5147d42-8bb9-4c03-b025-a2f86302d776","ios":"levelo://app?vid=f5147d42-8bb9-4c03-b025-a2f86302d776"},"vehicle_type_id":"4","last_reported":1741378207,"current_range_meters":3200,"station_id":"ce4bgvh2rcd13ifvqcs0","pricing_plan_id":"cebpf4jnsgd1na2vs0mg"},{"bike_id":"8b31be1b-6ea8-431e-855c-7acb47d3678d","system_id":"levelo_inurba_marseille","lat":43.27818,"lon":5.40714,"is_reserved":false,"is_disabled":false,"rental_uris":{"android":"levelo://app?vid=8b31be1b-6ea8-431e-855c-7acb47d3678d","ios":"levelo://app?vid=8b31be1b-6ea8-431e-855c-7acb47d3678d"},"vehicle_type_id":"4","last_reported":1741378207,"current_range_meters":3200,"station_id":"ce4bhnh2rcd13ifvqgtg","pricing_plan_id":"cebpf4jnsgd1na2vs0mg"},{"bike_id":"84fd8a9d-d33c-4402-bbe4-001e62a7f660","system_id":"levelo_inurba_marseille","lat":43.26644,"lon":5.39853,"is_reserved":false,"is_disabled":false,"rental_uris":{"android":"levelo://app?vid=84fd8a9d-d33c-4402-bbe4-001e62a7f660","ios":"levelo://app?vid=84fd8a9d-d33c-4402-bbe4-001e62a7f660"},"vehicle_type_id":"4","last_reported":1741378207,"current_range_meters":3200,"station_id":"","pricing_plan_id":"cebpf4jnsgd1na2vs0mg"},{"bike_id":"48ef01b7-ed57-4737-96e7-6f7c821865c1","system_id":"levelo_inurba_marseille","lat":43.26058,"lon":5.39388,"is_reserved":false,"is_disabled":false,"rental_uris":{"android":"levelo://app?vid=48ef01b7-ed57-4737-96e7-6f7c821865c1","ios":"levelo://app?vid=48ef01b7-ed57-4737-96e7-6f7c821865c1"},"vehicle_type_id":"4","last_reported":1741378207,"current_range_meters":3200,"station_id":"ce4bhh92rcd13ifvqfj0","pricing_plan_id":"cebpf4jnsgd1na2vs0mg"},{"bike_id":"d572b633-d5af-4df0-87b8-0a5b1819b02b","system_id":"levelo_inurba_marseille","lat":43.24223,"lon":5.39722,"is_reserved":false,"is_disabled":true,"rental_uris":{"android":"levelo://app?vid=d572b633-d5af-4df0-87b8-0a5b1819b02b","ios":"levelo://app?vid=d572b633-d5af-4df0-87b8-0a5b1819b02b"},"vehicle_type_id":"4","last_reported":1741378207,"current_range_meters":3600,"station_id":"ce4bhn12rcd13ifvqgpg","pricing_plan_id":"cebpf4jnsgd1na2vs0mg"},{"bike_id":"8ce73083-f940-427e-b4f8-bf8bda4429d8","system_id":"levelo_inurba_marseille","lat":43.28411,"lon":5.37503,"is_reserved":false,"is_disabled":false,"rental_uris":{"android":"levelo://app?vid=8ce73083-f940-427e-b4f8-bf8bda4429d8","ios":"levelo://app?vid=8ce73083-f940-427e-b4f8-bf8bda4429d8"},"vehicle_type_id":"4","last_reported":1741378207,"current_range_meters":3600,"station_id":"ce4bh412rcd13ifvqds0","pricing_plan_id":"cebpf4jnsgd1na2vs0mg"},{"bike_id":"4c17e0fa-05fe-4eb9-b217-3e27c2c85218","system_id":"levelo_inurba_marseille","lat":43.28421,"lon":5.37516,"is_reserved":false,"is_disabled":false,"rental_uris":{"android":"levelo://app?vid=4c17e0fa-05fe-4eb9-b217-3e27c2c85218","ios":"levelo://app?vid=4c17e0fa-05fe-4eb9-b217-3e27c2c85218"},"vehicle_type_id":"4","last_reported":1741378207,"current_range_meters":3600,"station_id":"ce4bh412rcd13ifvqds0","pricing_plan_id":"cebpf4jnsgd1na2vs0mg"},{"bike_id":"de10dad3-cc48-400a-922c-cca5bf1a3a20","system_id":"levelo_inurba_marseille","lat":43.29938,"lon":5.38831,"is_reserved":false,"is_disabled":true,"rental_uris":{"android":"levelo://app?vid=de10dad3-cc48-400a-922c-cca5bf1a3a20","ios":"levelo://app?vid=de10dad3-cc48-400a-922c-cca5bf1a3a20"},"vehicle_type_id":"4","last_reported":1741378207,"current_range_meters":4000,"station_id":"","pricing_plan_id":"cebpf4jnsgd1na2vs0mg"},{"bike_id":"e5a502d0-4124-42b0-b083-0c5c5e872a40","system_id":"levelo_inurba_marseille","lat":43.28614,"lon":5.37062,"is_reserved":false,"is_disabled":false,"rental_uris":{"android":"levelo://app?vid=e5a502d0-4124-42b0-b083-0c5c5e872a40","ios":"levelo://app?vid=e5a502d0-4124-42b0-b083-0c5c5e872a40"},"vehicle_type_id":"4","last_reported":1741378207,"current_range_meters":4000,"station_id":"ce4bht12rcd13ifvqi60","pricing_plan_id":"cebpf4jnsgd1na2vs0mg"},{"bike_id":"a15e053d-dc33-4ab9-8c29-7ddffbb30952","system_id":"levelo_inurba_marseille","lat":43.30473,"lon":5.37915,"is_reserved":false,"is_disabled":false,"rental_uris":{"android":"levelo://app?vid=a15e053d-dc33-4ab9-8c29-7ddffbb30952","ios":"levelo://app?vid=a15e053d-dc33-4ab9-8c29-7ddffbb30952"},"vehicle_type_id":"4","last_reported":1741378207,"current_range_meters":4000,"station_id":"ce4bgup2rcd13ifvqcn0","pricing_plan_id":"cebpf4jnsgd1na2vs0mg"},{"bike_id":"559685c0-b3ba-43dc-81dd-6f9cdc7c77fd","system_id":"levelo_inurba_marseille","lat":43.28947,"lon":5.36645,"is_reserved":false,"is_disabled":false,"rental_uris":{"android":"levelo://app?vid=559685c0-b3ba-43dc-81dd-6f9cdc7c77fd","ios":"levelo://app?vid=559685c0-b3ba-43dc-81dd-6f9cdc7c77fd"},"vehicle_type_id":"4","last_reported":1741378207,"current_range_meters":4000,"station_id":"ce4bhap2rcd13ifvqek0","pricing_plan_id":"cebpf4jnsgd1na2vs0mg"},{"bike_id":"302b9a8d-1b78-47af-8826-359fda490272","system_id":"levelo_inurba_marseille","lat":43.27831,"lon":5.40711,"is_reserved":false,"is_disabled":false,"rental_uris":{"android":"levelo://app?vid=302b9a8d-1b78-47af-8826-359fda490272","ios":"levelo://app?vid=302b9a8d-1b78-47af-8826-359fda490272"},"vehicle_type_id":"4","last_reported":1741378207,"current_range_meters":4400,"station_id":"ce4bhnh2rcd13ifvqgtg","pricing_plan_id":"cebpf4jnsgd1na2vs0mg"},{"bike_id":"20d4a8f5-db36-4f59-aca3-ceecf7ec512e","system_id":"levelo_inurba_marseille","lat":43.28704,"lon":5.38533,"is_reserved":false,"is_disabled":false,"rental_uris":{"android":"levelo://app?vid=20d4a8f5-db36-4f59-aca3-ceecf7ec512e","ios":"levelo://app?vid=20d4a8f5-db36-4f59-aca3-ceecf7ec512e"},"vehicle_type_id":"4","last_reported":1741378207,"current_range_meters":4800,"station_id":"","pricing_plan_id":"cebpf4jnsgd1na2vs0mg"},{"bike_id":"b53e9f16-5927-45e7-8046-218d7fdf68eb","system_id":"levelo_inurba_marseille","lat":43.29034,"lon":5.38634,"is_reserved":false,"is_disabled":false,"rental_uris":{"android":"levelo://app?vid=b53e9f16-5927-45e7-8046-218d7fdf68eb","ios":"levelo://app?vid=b53e9f16-5927-45e7-8046-218d7fdf68eb"},"vehicle_type_id":"4","last_reported":1741378207,"current_range_meters":4800,"station_id":"ce4bh4p2rcd13ifvqe0g","pricing_plan_id":"cebpf4jnsgd1na2vs0mg"},{"bike_id":"a09b6132-3322-43b7-8796-037a4e79bc4b","system_id":"levelo_inurba_marseille","lat":43.27812,"lon":5.40697,"is_reserved":false,"is_disabled":false,"rental_uris":{"android":"levelo://app?vid=a09b6132-3322-43b7-8796-037a4e79bc4b","ios":"levelo://app?vid=a09b6132-3322-43b7-8796-037a4e79bc4b"},"vehicle_type_id":"4","last_reported":1741378207,"current_range_meters":4800,"station_id":"ce4bhnh2rcd13ifvqgtg","pricing_plan_id":"cebpf4jnsgd1na2vs0mg"},{"bike_id":"8b3f3fbd-30bc-4480-b60c-11059361c2fa","system_id":"levelo_inurba_marseille","lat":43.28426,"lon":5.39189,"is_reserved":false,"is_disabled":false,"rental_uris":{"android":"levelo://app?vid=8b3f3fbd-30bc-4480-b60c-11059361c2fa","ios":"levelo://app?vid=8b3f3fbd-30bc-4480-b60c-11059361c2fa"},"vehicle_type_id":"4","last_reported":1741378207,"current_range_meters":4800,"station_id":"ce4bhoh2rcd13ifvqh5g","pricing_plan_id":"cebpf4jnsgd1na2vs0mg"},{"bike_id":"939126bb-d739-40d2-89fd-85ccfda464ae","system_id":"levelo_inurba_marseille","lat":43.27173,"lon":5.40989,"is_reserved":false,"is_disabled":false,"rental_uris":{"android":"levelo://app?vid=939126bb-d739-40d2-89fd-85ccfda464ae","ios":"levelo://app?vid=939126bb-d739-40d2-89fd-85ccfda464ae"},"vehicle_type_id":"4","last_reported":1741378207,"current_range_meters":5600,"station_id":"ce4bhl12rcd13ifvqgf0","pricing_plan_id":"cebpf4jnsgd1na2vs0mg"},{"bike_id":"4418511c-ba27-4078-a022-6c07be35c7a4","system_id":"levelo_inurba_marseille","lat":43.30027,"lon":5.38861,"is_reserved":false,"is_disabled":false,"rental_uris":{"android":"levelo://app?vid=4418511c-ba27-4078-a022-6c07be35c7a4","ios":"levelo://app?vid=4418511c-ba27-4078-a022-6c07be35c7a4"},"vehicle_type_id":"4","last_reported":1741378207,"current_range_meters":5600,"station_id":"","pricing_plan_id":"cebpf4jnsgd1na2vs0mg"},{"bike_id":"cb47043e-2b36-4398-963d-22088496551a","system_id":"levelo_inurba_marseille","lat":43.31774,"lon":5.39025,"is_reserved":false,"is_disabled":true,"rental_uris":{"android":"levelo://app?vid=cb47043e-2b36-4398-963d-22088496551a","ios":"levelo://app?vid=cb47043e-2b36-4398-963d-22088496551a"},"vehicle_type_id":"4","last_reported":1741378207,"current_range_meters":5600,"station_id":"ce4bhqp2rcd13ifvqhng","pricing_plan_id":"cebpf4jnsgd1na2vs0mg"},{"bike_id":"7f1905bf-da4d-4f13-af14-c5d46804e585","system_id":"levelo_inurba_marseille","lat":43.2319,"lon":5.35565,"is_reserved":false,"is_disabled":false,"rental_uris":{"android":"levelo://app?vid=7f1905bf-da4d-4f13-af14-c5d46804e585","ios":"levelo://app?vid=7f1905bf-da4d-4f13-af14-c5d46804e585"},"vehicle_type_id":"4","last_reported":1741378207,"current_range_meters":5600,"station_id":"ce4bhu92rcd13ifvqi70","pricing_plan_id":"cebpf4jnsgd1na2vs0mg"},{"bike_id":"d97b34a5-4a9d-4d9c-b55f-b72c9be6ca47","system_id":"levelo_inurba_marseille","lat":43.25114,"lon":5.40322,"is_reserved":false,"is_disabled":true,"rental_uris":{"android":"levelo://app?vid=d97b34a5-4a9d-4d9c-b55f-b72c9be6ca47","ios":"levelo://app?vid=d97b34a5-4a9d-4d9c-b55f-b72c9be6ca47"},"vehicle_type_id":"4","last_reported":1741378207,"current_range_meters":5600,"station_id":"ce4bhlh2rcd13ifvqgig","pricing_plan_id":"cebpf4jnsgd1na2vs0mg"},{"bike_id":"af3a0564-d6aa-4b93-b9ca-4eafdb1afd38","system_id":"levelo_inurba_marseille","lat":43.29872,"lon":5.39733,"is_reserved":false,"is_disabled":false,"rental_uris":{"android":"levelo://app?vid=af3a0564-d6aa-4b93-b9ca-4eafdb1afd38","ios":"levelo://app?vid=af3a0564-d6aa-4b93-b9ca-4eafdb1afd38"},"vehicle_type_id":"4","last_reported":1741378207,"current_range_meters":4800,"station_id":"ce4bh0h2rcd13ifvqd50","pricing_plan_id":"cebpf4jnsgd1na2vs0mg"},{"bike_id":"bee65dbc-1230-4c60-abcd-01b585cd99a4","system_id":"levelo_inurba_marseille","lat":43.29305,"lon":5.3746,"is_reserved":false,"is_disabled":false,"rental_uris":{"android":"levelo://app?vid=bee65dbc-1230-4c60-abcd-01b585cd99a4","ios":"levelo://app?vid=bee65dbc-1230-4c60-abcd-01b585cd99a4"},"vehicle_type_id":"4","last_reported":1741378207,"current_range_meters":5600,"station_id":"ce4bgi12rcd13ifvqb70","pricing_plan_id":"cebpf4jnsgd1na2vs0mg"},{"bike_id":"8c97b760-44ff-4c80-b931-737c79861384","system_id":"levelo_inurba_marseille","lat":43.29627,"lon":5.406,"is_reserved":false,"is_disabled":false,"rental_uris":{"android":"levelo://app?vid=8c97b760-44ff-4c80-b931-737c79861384","ios":"levelo://app?vid=8c97b760-44ff-4c80-b931-737c79861384"},"vehicle_type_id":"4","last_reported":1741378207,"current_range_meters":4800,"station_id":"ce4bh0h2rcd13ifvqd60","pricing_plan_id":"cebpf4jnsgd1na2vs0mg"},{"bike_id":"922965ec-ad3d-4bcd-8626-3511bd86109a","system_id":"levelo_inurba_marseille","lat":43.23208,"lon":5.40017,"is_reserved":false,"is_disabled":false,"rental_uris":{"android":"levelo://app?vid=922965ec-ad3d-4bcd-8626-3511bd86109a","ios":"levelo://app?vid=922965ec-ad3d-4bcd-8626-3511bd86109a"},"vehicle_type_id":"4","last_reported":1741378207,"current_range_meters":5600,"station_id":"ce4bhn12rcd13ifvqgqg","pricing_plan_id":"cebpf4jnsgd1na2vs0mg"},{"bike_id":"9bfe4e82-241b-4620-b471-d226beb88b23","system_id":"levelo_inurba_marseille","lat":43.2295,"lon":5.35365,"is_reserved":false,"is_disabled":false,"rental_uris":{"android":"levelo://app?vid=9bfe4e82-241b-4620-b471-d226beb88b23","ios":"levelo://app?vid=9bfe4e82-241b-4620-b471-d226beb88b23"},"vehicle_type_id":"4","last_reported":1741378207,"current_range_meters":5600,"station_id":"cpo3532slgdg3j2ikp40","pricing_plan_id":"cebpf4jnsgd1na2vs0mg"},{"bike_id":"9c0a4e89-04d9-4ea2-84a1-a71abd2634b0","system_id":"levelo_inurba_marseille","lat":43.30142,"lon":5.37398,"is_reserved":false,"is_disabled":false,"rental_uris":{"android":"levelo://app?vid=9c0a4e89-04d9-4ea2-84a1-a71abd2634b0","ios":"levelo://app?vid=9c0a4e89-04d9-4ea2-84a1-a71abd2634b0"},"vehicle_type_id":"4","last_reported":1741378207,"current_range_meters":6000,"station_id":"ce4bgs92rcd13ifvqcc0","pricing_plan_id":"cebpf4jnsgd1na2vs0mg"},{"bike_id":"d93bdeca-d0ff-402c-a1ae-de5375476d11","system_id":"levelo_inurba_marseille","lat":43.28225,"lon":5.40307,"is_reserved":false,"is_disabled":true,"rental_uris":{"android":"levelo://app?vid=d93bdeca-d0ff-402c-a1ae-de5375476d11","ios":"levelo://app?vid=d93bdeca-d0ff-402c-a1ae-de5375476d11"},"vehicle_type_id":"4","last_reported":1741378207,"current_range_meters":6000,"station_id":"","pricing_plan_id":"cebpf4jnsgd1na2vs0mg"},{"bike_id":"77932506-a232-4d46-b36d-352ef01eaf03","system_id":"levelo_inurba_marseille","lat":43.28011,"lon":5.4002,"is_reserved":false,"is_disabled":false,"rental_uris":{"android":"levelo://app?vid=77932506-a232-4d46-b36d-352ef01eaf03","ios":"levelo://app?vid=77932506-a232-4d46-b36d-352ef01eaf03"},"vehicle_type_id":"4","last_reported":1741378207,"current_range_meters":6400,"station_id":"ce4bho92rcd13ifvqh4g","pricing_plan_id":"cebpf4jnsgd1na2vs0mg"},{"bike_id":"f88a6cd9-f001-46b4-8023-0ed8105ce083","system_id":"levelo_inurba_marseille","lat":43.2807,"lon":5.36963,"is_reserved":false,"is_disabled":false,"rental_uris":{"android":"levelo://app?vid=f88a6cd9-f001-46b4-8023-0ed8105ce083","ios":"levelo://app?vid=f88a6cd9-f001-46b4-8023-0ed8105ce083"},"vehicle_type_id":"4","last_reported":1741378207,"current_range_meters":6400,"station_id":"ce4bha12rcd13ifvqef0","pricing_plan_id":"cebpf4jnsgd1na2vs0mg"},{"bike_id":"1b34c58c-f011-43f3-baac-47c6cf7523c0","system_id":"levelo_inurba_marseille","lat":43.29914,"lon":5.43655,"is_reserved":false,"is_disabled":false,"rental_uris":{"android":"levelo://app?vid=1b34c58c-f011-43f3-baac-47c6cf7523c0","ios":"levelo://app?vid=1b34c58c-f011-43f3-baac-47c6cf7523c0"},"vehicle_type_id":"4","last_reported":1741378207,"current_range_meters":6400,"station_id":"ce4bhpp2rcd13ifvqhfg","pricing_plan_id":"cebpf4jnsgd1na2vs0mg"},{"bike_id":"2d38aacd-7e3d-4b03-9fab-83967b873e83","system_id":"levelo_inurba_marseille","lat":43.29272,"lon":5.36845,"is_reserved":false,"is_disabled":false,"rental_uris":{"android":"levelo://app?vid=2d38aacd-7e3d-4b03-9fab-83967b873e83","ios":"levelo://app?vid=2d38aacd-7e3d-4b03-9fab-83967b873e83"},"vehicle_type_id":"4","last_reported":1741378207,"current_range_meters":6400,"station_id":"ce4bhbp2rcd13ifvqesg","pricing_plan_id":"cebpf4jnsgd1na2vs0mg"},{"bike_id":"21c6b9d0-4129-48d2-9ac3-1813e3d92b6d","system_id":"levelo_inurba_marseille","lat":43.29249,"lon":5.38431,"is_reserved":false,"is_disabled":true,"rental_uris":{"android":"levelo://app?vid=21c6b9d0-4129-48d2-9ac3-1813e3d92b6d","ios":"levelo://app?vid=21c6b9d0-4129-48d2-9ac3-1813e3d92b6d"},"vehicle_type_id":"4","last_reported":1741378207,"current_range_meters":6400,"station_id":"ce4bh692rcd13ifvqea0","pricing_plan_id":"cebpf4jnsgd1na2vs0mg"},{"bike_id":"63d8a775-12c9-4cd4-8ebe-33842c247cb9","system_id":"levelo_inurba_marseille","lat":43.31717,"lon":5.43715,"is_reserved":false,"is_disabled":false,"rental_uris":{"android":"levelo://app?vid=63d8a775-12c9-4cd4-8ebe-33842c247cb9","ios":"levelo://app?vid=63d8a775-12c9-4cd4-8ebe-33842c247cb9"},"vehicle_type_id":"4","last_reported":1741378207,"current_range_meters":6400,"station_id":"ce4bhp92rcd13ifvqhcg","pricing_plan_id":"cebpf4jnsgd1na2vs0mg"},{"bike_id":"f7a85f1b-5528-4bd4-98d9-a65f1b6b8628","system_id":"levelo_inurba_marseille","lat":43.2892,"lon":5.35433,"is_reserved":false,"is_disabled":false,"rental_uris":{"android":"levelo://app?vid=f7a85f1b-5528-4bd4-98d9-a65f1b6b8628","ios":"levelo://app?vid=f7a85f1b-5528-4bd4-98d9-a65f1b6b8628"},"vehicle_type_id":"4","last_reported":1741378207,"current_range_meters":6400,"station_id":"","pricing_plan_id":"cebpf4jnsgd1na2vs0mg"},{"bike_id":"01fd6840-d8be-4b5e-9ba7-0ed0dbe54f06","system_id":"levelo_inurba_marseille","lat":43.23201,"lon":5.35549,"is_reserved":false,"is_disabled":false,"rental_uris":{"android":"levelo://app?vid=01fd6840-d8be-4b5e-9ba7-0ed0dbe54f06","ios":"levelo://app?vid=01fd6840-d8be-4b5e-9ba7-0ed0dbe54f06"},"vehicle_type_id":"4","last_reported":1741378207,"current_range_meters":6400,"station_id":"ce4bhu92rcd13ifvqi70","pricing_plan_id":"cebpf4jnsgd1na2vs0mg"},{"bike_id":"45a32e0d-52ce-4b41-b00a-130dd437840f","system_id":"levelo_inurba_marseille","lat":43.29168,"lon":5.371463,"is_reserved":false,"is_disabled":false,"rental_uris":{"android":"levelo://app?vid=45a32e0d-52ce-4b41-b00a-130dd437840f","ios":"levelo://app?vid=45a32e0d-52ce-4b41-b00a-130dd437840f"},"vehicle_type_id":"4","last_reported":1741378207,"current_range_meters":6400,"station_id":"ce4bhah2rcd13ifvqej0","pricing_plan_id":"cebpf4jnsgd1na2vs0mg"},{"bike_id":"e1a3d094-fd5a-4b0e-b3fd-06c39e7f4f48","system_id":"levelo_inurba_marseille","lat":43.32863,"lon":5.39104,"is_reserved":false,"is_disabled":false,"rental_uris":{"android":"levelo://app?vid=e1a3d094-fd5a-4b0e-b3fd-06c39e7f4f48","ios":"levelo://app?vid=e1a3d094-fd5a-4b0e-b3fd-06c39e7f4f48"},"vehicle_type_id":"4","last_reported":1741378207,"current_range_meters":6400,"station_id":"","pricing_plan_id":"cebpf4jnsgd1na2vs0mg"},{"bike_id":"c5d9a748-fb84-4751-9008-dc4467d9ed9a","system_id":"levelo_inurba_marseille","lat":43.23196,"lon":5.35546,"is_reserved":false,"is_disabled":false,"rental_uris":{"android":"levelo://app?vid=c5d9a748-fb84-4751-9008-dc4467d9ed9a","ios":"levelo://app?vid=c5d9a748-fb84-4751-9008-dc4467d9ed9a"},"vehicle_type_id":"4","last_reported":1741378207,"current_range_meters":6400,"station_id":"ce4bhu92rcd13ifvqi70","pricing_plan_id":"cebpf4jnsgd1na2vs0mg"},{"bike_id":"889d7428-72ab-4419-a062-e45cc2e946b0","system_id":"levelo_inurba_marseille","lat":43.31329,"lon":5.39698,"is_reserved":false,"is_disabled":false,"rental_uris":{"android":"levelo://app?vid=889d7428-72ab-4419-a062-e45cc2e946b0","ios":"levelo://app?vid=889d7428-72ab-4419-a062-e45cc2e946b0"},"vehicle_type_id":"4","last_reported":1741378207,"current_range_meters":6400,"station_id":"ce4bgvp2rcd13ifvqcu0","pricing_plan_id":"cebpf4jnsgd1na2vs0mg"},{"bike_id":"5e5cce43-bf8d-4772-aaa7-236b0d75daa6","system_id":"levelo_inurba_marseille","lat":43.28156,"lon":5.42641,"is_reserved":false,"is_disabled":false,"rental_uris":{"android":"levelo://app?vid=5e5cce43-bf8d-4772-aaa7-236b0d75daa6","ios":"levelo://app?vid=5e5cce43-bf8d-4772-aaa7-236b0d75daa6"},"vehicle_type_id":"4","last_reported":1741378207,"current_range_meters":6400,"station_id":"ce4bhnh2rcd13ifvqgug","pricing_plan_id":"cebpf4jnsgd1na2vs0mg"},{"bike_id":"4d5eddda-1e62-4996-bb00-85ed6261cc6f","system_id":"levelo_inurba_marseille","lat":43.30891,"lon":5.37193,"is_reserved":false,"is_disabled":false,"rental_uris":{"android":"levelo://app?vid=4d5eddda-1e62-4996-bb00-85ed6261cc6f","ios":"levelo://app?vid=4d5eddda-1e62-4996-bb00-85ed6261cc6f"},"vehicle_type_id":"4","last_reported":1741378207,"current_range_meters":6800,"station_id":"ce4bguh2rcd13ifvqckg","pricing_plan_id":"cebpf4jnsgd1na2vs0mg"},{"bike_id":"3769f45b-d392-4c4d-879f-7c3974d86d10","system_id":"levelo_inurba_marseille","lat":43.2937,"lon":5.37845,"is_reserved":false,"is_disabled":false,"rental_uris":{"android":"levelo://app?vid=3769f45b-d392-4c4d-879f-7c3974d86d10","ios":"levelo://app?vid=3769f45b-d392-4c4d-879f-7c3974d86d10"},"vehicle_type_id":"4","last_reported":1741378207,"current_range_meters":6800,"station_id":"ce4bgjh2rcd13ifvqbf0","pricing_plan_id":"cebpf4jnsgd1na2vs0mg"},{"bike_id":"0abc5125-808e-46bb-a611-6d105ab95550","system_id":"levelo_inurba_marseille","lat":43.27577,"lon":5.38413,"is_reserved":false,"is_disabled":false,"rental_uris":{"android":"levelo://app?vid=0abc5125-808e-46bb-a611-6d105ab95550","ios":"levelo://app?vid=0abc5125-808e-46bb-a611-6d105ab95550"},"vehicle_type_id":"4","last_reported":1741378207,"current_range_meters":6800,"station_id":"ce4bhh92rcd13ifvqfi0","pricing_plan_id":"cebpf4jnsgd1na2vs0mg"},{"bike_id":"4063385e-c783-4949-95fe-8f78e6fb587b","system_id":"levelo_inurba_marseille","lat":43.3028,"lon":5.37702,"is_reserved":false,"is_disabled":false,"rental_uris":{"android":"levelo://app?vid=4063385e-c783-4949-95fe-8f78e6fb587b","ios":"levelo://app?vid=4063385e-c783-4949-95fe-8f78e6fb587b"},"vehicle_type_id":"4","last_reported":1741378207,"current_range_meters":6800,"station_id":"ce4bguh2rcd13ifvqcj0","pricing_plan_id":"cebpf4jnsgd1na2vs0mg"},{"bike_id":"96547684-48f1-4542-9661-9e8b0db62001","system_id":"levelo_inurba_marseille","lat":43.26225,"lon":5.37917,"is_reserved":false,"is_disabled":false,"rental_uris":{"android":"levelo://app?vid=96547684-48f1-4542-9661-9e8b0db62001","ios":"levelo://app?vid=96547684-48f1-4542-9661-9e8b0db62001"},"vehicle_type_id":"4","last_reported":1741378207,"current_range_meters":6800,"station_id":"ce4bhjp2rcd13ifvqg90","pricing_plan_id":"cebpf4jnsgd1na2vs0mg"},{"bike_id":"24df224d-ffa5-472e-acc0-380979001d96","system_id":"levelo_inurba_marseille","lat":43.25733,"lon":5.41103,"is_reserved":false,"is_disabled":false,"rental_uris":{"android":"levelo://app?vid=24df224d-ffa5-472e-acc0-380979001d96","ios":"levelo://app?vid=24df224d-ffa5-472e-acc0-380979001d96"},"vehicle_type_id":"4","last_reported":1741378207,"current_range_meters":6800,"station_id":"ce4bhkp2rcd13ifvqgd0","pricing_plan_id":"cebpf4jnsgd1na2vs0mg"},{"bike_id":"0f4f09c5-9052-4279-b94e-0fc5637d28a5","system_id":"levelo_inurba_marseille","lat":43.30896,"lon":5.39646,"is_reserved":false,"is_disabled":false,"rental_uris":{"android":"levelo://app?vid=0f4f09c5-9052-4279-b94e-0fc5637d28a5","ios":"levelo://app?vid=0f4f09c5-9052-4279-b94e-0fc5637d28a5"},"vehicle_type_id":"4","last_reported":1741378207,"current_range_meters":6800,"station_id":"ce4bh012rcd13ifvqcv0","pricing_plan_id":"cebpf4jnsgd1na2vs0mg"},{"bike_id":"215f7b3b-d4ba-452b-b23f-f1e4fa0f185b","system_id":"levelo_inurba_marseille","lat":43.28585,"lon":5.39926,"is_reserved":false,"is_disabled":false,"rental_uris":{"android":"levelo://app?vid=215f7b3b-d4ba-452b-b23f-f1e4fa0f185b","ios":"levelo://app?vid=215f7b3b-d4ba-452b-b23f-f1e4fa0f185b"},"vehicle_type_id":"4","last_reported":1741378207,"current_range_meters":6800,"station_id":"ce4bh112rcd13ifvqda0","pricing_plan_id":"cebpf4jnsgd1na2vs0mg"},{"bike_id":"f16fb814-d9a5-4d1e-ab58-891bc6634c8e","system_id":"levelo_inurba_marseille","lat":43.28043,"lon":5.36958,"is_reserved":false,"is_disabled":false,"rental_uris":{"android":"levelo://app?vid=f16fb814-d9a5-4d1e-ab58-891bc6634c8e","ios":"levelo://app?vid=f16fb814-d9a5-4d1e-ab58-891bc6634c8e"},"vehicle_type_id":"4","last_reported":1741378207,"current_range_meters":7200,"station_id":"ce4bha12rcd13ifvqef0","pricing_plan_id":"cebpf4jnsgd1na2vs0mg"},{"bike_id":"2c4d9606-fa65-4213-8e28-7b8e0b47fabc","system_id":"levelo_inurba_marseille","lat":43.28613,"lon":5.37061,"is_reserved":false,"is_disabled":false,"rental_uris":{"android":"levelo://app?vid=2c4d9606-fa65-4213-8e28-7b8e0b47fabc","ios":"levelo://app?vid=2c4d9606-fa65-4213-8e28-7b8e0b47fabc"},"vehicle_type_id":"4","last_reported":1741378207,"current_range_meters":7200,"station_id":"ce4bht12rcd13ifvqi60","pricing_plan_id":"cebpf4jnsgd1na2vs0mg"},{"bike_id":"e0ef7225-5d44-499d-ac7b-c3914f3461f7","system_id":"levelo_inurba_marseille","lat":43.29616,"lon":5.37727,"is_reserved":false,"is_disabled":false,"rental_uris":{"android":"levelo://app?vid=e0ef7225-5d44-499d-ac7b-c3914f3461f7","ios":"levelo://app?vid=e0ef7225-5d44-499d-ac7b-c3914f3461f7"},"vehicle_type_id":"4","last_reported":1741378207,"current_range_meters":7200,"station_id":"ce4bgi92rcd13ifvqb90","pricing_plan_id":"cebpf4jnsgd1na2vs0mg"},{"bike_id":"143b74fc-ab7b-4910-8495-ffc1ad22971d","system_id":"levelo_inurba_marseille","lat":43.25034,"lon":5.38918,"is_reserved":false,"is_disabled":true,"rental_uris":{"android":"levelo://app?vid=143b74fc-ab7b-4910-8495-ffc1ad22971d","ios":"levelo://app?vid=143b74fc-ab7b-4910-8495-ffc1ad22971d"},"vehicle_type_id":"4","last_reported":1741378207,"current_range_meters":7200,"station_id":"ce4bhgp2rcd13ifvqfd0","pricing_plan_id":"cebpf4jnsgd1na2vs0mg"},{"bike_id":"08e63415-9427-45d8-80a1-d6134b606257","system_id":"levelo_inurba_marseille","lat":43.28677,"lon":5.38677,"is_reserved":false,"is_disabled":false,"rental_uris":{"android":"levelo://app?vid=08e63415-9427-45d8-80a1-d6134b606257","ios":"levelo://app?vid=08e63415-9427-45d8-80a1-d6134b606257"},"vehicle_type_id":"4","last_reported":1741378207,"current_range_meters":7200,"station_id":"ce4bh492rcd13ifvqdug","pricing_plan_id":"cebpf4jnsgd1na2vs0mg"},{"bike_id":"55f1a346-655d-4ceb-961f-e11c032b07e0","system_id":"levelo_inurba_marseille","lat":43.32685,"lon":5.40275,"is_reserved":false,"is_disabled":false,"rental_uris":{"android":"levelo://app?vid=55f1a346-655d-4ceb-961f-e11c032b07e0","ios":"levelo://app?vid=55f1a346-655d-4ceb-961f-e11c032b07e0"},"vehicle_type_id":"4","last_reported":1741378207,"current_range_meters":7200,"station_id":"","pricing_plan_id":"cebpf4jnsgd1na2vs0mg"},{"bike_id":"357f6b0d-7429-4870-b5b1-c540923d954d","system_id":"levelo_inurba_marseille","lat":43.23073,"lon":5.35494,"is_reserved":false,"is_disabled":false,"rental_uris":{"android":"levelo://app?vid=357f6b0d-7429-4870-b5b1-c540923d954d","ios":"levelo://app?vid=357f6b0d-7429-4870-b5b1-c540923d954d"},"vehicle_type_id":"4","last_reported":1741378207,"current_range_meters":7200,"station_id":"cpo3342slgdg3j2ifvpg","pricing_plan_id":"cebpf4jnsgd1na2vs0mg"},{"bike_id":"215a01e2-9c1c-45bf-a69c-7a5458c1fe75","system_id":"levelo_inurba_marseille","lat":43.28081,"lon":5.39612,"is_reserved":false,"is_disabled":false,"rental_uris":{"android":"levelo://app?vid=215a01e2-9c1c-45bf-a69c-7a5458c1fe75","ios":"levelo://app?vid=215a01e2-9c1c-45bf-a69c-7a5458c1fe75"},"vehicle_type_id":"4","last_reported":1741378207,"current_range_meters":7200,"station_id":"ce4bho12rcd13ifvqh2g","pricing_plan_id":"cebpf4jnsgd1na2vs0mg"},{"bike_id":"b3efa482-ba88-41b4-9fa2-130aeb426a3b","system_id":"levelo_inurba_marseille","lat":43.280423,"lon":5.369349,"is_reserved":false,"is_disabled":false,"rental_uris":{"android":"levelo://app?vid=b3efa482-ba88-41b4-9fa2-130aeb426a3b","ios":"levelo://app?vid=b3efa482-ba88-41b4-9fa2-130aeb426a3b"},"vehicle_type_id":"4","last_reported":1741378207,"current_range_meters":7200,"station_id":"ce4bha12rcd13ifvqef0","pricing_plan_id":"cebpf4jnsgd1na2vs0mg"},{"bike_id":"5ece6216-c140-461a-8332-f5b985568faf","system_id":"levelo_inurba_marseille","lat":43.27951,"lon":5.38702,"is_reserved":false,"is_disabled":true,"rental_uris":{"android":"levelo://app?vid=5ece6216-c140-461a-8332-f5b985568faf","ios":"levelo://app?vid=5ece6216-c140-461a-8332-f5b985568faf"},"vehicle_type_id":"4","last_reported":1741378207,"current_range_meters":7200,"station_id":"ce4bhg12rcd13ifvqf80","pricing_plan_id":"cebpf4jnsgd1na2vs0mg"},{"bike_id":"6a2ef277-87e7-4c75-bb7d-c65659794eff","system_id":"levelo_inurba_marseille","lat":43.2944,"lon":5.39751,"is_reserved":false,"is_disabled":false,"rental_uris":{"android":"levelo://app?vid=6a2ef277-87e7-4c75-bb7d-c65659794eff","ios":"levelo://app?vid=6a2ef277-87e7-4c75-bb7d-c65659794eff"},"vehicle_type_id":"4","last_reported":1741378207,"current_range_meters":8000,"station_id":"ce4bh3h2rcd13ifvqdo0","pricing_plan_id":"cebpf4jnsgd1na2vs0mg"},{"bike_id":"a45eda30-93db-4cd6-bc29-df6c0e7b5378","system_id":"levelo_inurba_marseille","lat":43.23966,"lon":5.36627,"is_reserved":false,"is_disabled":false,"rental_uris":{"android":"levelo://app?vid=a45eda30-93db-4cd6-bc29-df6c0e7b5378","ios":"levelo://app?vid=a45eda30-93db-4cd6-bc29-df6c0e7b5378"},"vehicle_type_id":"4","last_reported":1741378207,"current_range_meters":8000,"station_id":"ce4bhi12rcd13ifvqfp0","pricing_plan_id":"cebpf4jnsgd1na2vs0mg"},{"bike_id":"72ad35d5-229e-4395-b775-8a505aad1b5e","system_id":"levelo_inurba_marseille","lat":43.2763,"lon":5.36113,"is_reserved":false,"is_disabled":false,"rental_uris":{"android":"levelo://app?vid=72ad35d5-229e-4395-b775-8a505aad1b5e","ios":"levelo://app?vid=72ad35d5-229e-4395-b775-8a505aad1b5e"},"vehicle_type_id":"4","last_reported":1741378207,"current_range_meters":8000,"station_id":"ce4bgj92rcd13ifvqbe0","pricing_plan_id":"cebpf4jnsgd1na2vs0mg"},{"bike_id":"93ef08eb-88b2-44cd-a96f-6d22ce2a4fc0","system_id":"levelo_inurba_marseille","lat":43.3302,"lon":5.39023,"is_reserved":false,"is_disabled":false,"rental_uris":{"android":"levelo://app?vid=93ef08eb-88b2-44cd-a96f-6d22ce2a4fc0","ios":"levelo://app?vid=93ef08eb-88b2-44cd-a96f-6d22ce2a4fc0"},"vehicle_type_id":"4","last_reported":1741378207,"current_range_meters":8000,"station_id":"ce4bhr92rcd13ifvqhrg","pricing_plan_id":"cebpf4jnsgd1na2vs0mg"},{"bike_id":"35130f87-b313-43ca-86df-0e44026654c1","system_id":"levelo_inurba_marseille","lat":43.30817,"lon":5.38029,"is_reserved":false,"is_disabled":false,"rental_uris":{"android":"levelo://app?vid=35130f87-b313-43ca-86df-0e44026654c1","ios":"levelo://app?vid=35130f87-b313-43ca-86df-0e44026654c1"},"vehicle_type_id":"4","last_reported":1741378207,"current_range_meters":8000,"station_id":"","pricing_plan_id":"cebpf4jnsgd1na2vs0mg"},{"bike_id":"ffa0f2b6-11e6-483e-b821-ae2777702922","system_id":"levelo_inurba_marseille","lat":43.27834,"lon":5.40723,"is_reserved":false,"is_disabled":false,"rental_uris":{"android":"levelo://app?vid=ffa0f2b6-11e6-483e-b821-ae2777702922","ios":"levelo://app?vid=ffa0f2b6-11e6-483e-b821-ae2777702922"},"vehicle_type_id":"4","last_reported":1741378207,"current_range_meters":8000,"station_id":"ce4bhnh2rcd13ifvqgtg","pricing_plan_id":"cebpf4jnsgd1na2vs0mg"},{"bike_id":"e8c3264a-16ea-497e-bf91-10b502f28a93","system_id":"levelo_inurba_marseille","lat":43.29016,"lon":5.3756,"is_reserved":false,"is_disabled":false,"rental_uris":{"android":"levelo://app?vid=e8c3264a-16ea-497e-bf91-10b502f28a93","ios":"levelo://app?vid=e8c3264a-16ea-497e-bf91-10b502f28a93"},"vehicle_type_id":"4","last_reported":1741378207,"current_range_meters":8000,"station_id":"ce4bh692rcd13ifvqe90","pricing_plan_id":"cebpf4jnsgd1na2vs0mg"},{"bike_id":"1e140e55-d468-4a05-abd5-e70711352389","system_id":"levelo_inurba_marseille","lat":43.2961,"lon":5.37721,"is_reserved":false,"is_disabled":false,"rental_uris":{"android":"levelo://app?vid=1e140e55-d468-4a05-abd5-e70711352389","ios":"levelo://app?vid=1e140e55-d468-4a05-abd5-e70711352389"},"vehicle_type_id":"4","last_reported":1741378207,"current_range_meters":8000,"station_id":"ce4bgi92rcd13ifvqb90","pricing_plan_id":"cebpf4jnsgd1na2vs0mg"},{"bike_id":"51510a95-54e3-4b84-9b22-bfa3391426f3","system_id":"levelo_inurba_marseille","lat":43.23238,"lon":5.35578,"is_reserved":false,"is_disabled":false,"rental_uris":{"android":"levelo://app?vid=51510a95-54e3-4b84-9b22-bfa3391426f3","ios":"levelo://app?vid=51510a95-54e3-4b84-9b22-bfa3391426f3"},"vehicle_type_id":"4","last_reported":1741378207,"current_range_meters":8400,"station_id":"","pricing_plan_id":"cebpf4jnsgd1na2vs0mg"},{"bike_id":"51d3c799-c988-4498-99fd-69334003c643","system_id":"levelo_inurba_marseille","lat":43.29259,"lon":5.38436,"is_reserved":false,"is_disabled":true,"rental_uris":{"android":"levelo://app?vid=51d3c799-c988-4498-99fd-69334003c643","ios":"levelo://app?vid=51d3c799-c988-4498-99fd-69334003c643"},"vehicle_type_id":"4","last_reported":1741378207,"current_range_meters":8400,"station_id":"ce4bh692rcd13ifvqea0","pricing_plan_id":"cebpf4jnsgd1na2vs0mg"},{"bike_id":"c7fe1658-9ef8-41c9-a317-0d8cfba9d696","system_id":"levelo_inurba_marseille","lat":43.29536,"lon":5.38554,"is_reserved":false,"is_disabled":false,"rental_uris":{"android":"levelo://app?vid=c7fe1658-9ef8-41c9-a317-0d8cfba9d696","ios":"levelo://app?vid=c7fe1658-9ef8-41c9-a317-0d8cfba9d696"},"vehicle_type_id":"4","last_reported":1741378207,"current_range_meters":8400,"station_id":"ce4bgih2rcd13ifvqba0","pricing_plan_id":"cebpf4jnsgd1na2vs0mg"},{"bike_id":"b2cada68-d22d-4962-a15a-eab832155af1","system_id":"levelo_inurba_marseille","lat":43.31327,"lon":5.39691,"is_reserved":false,"is_disabled":false,"rental_uris":{"android":"levelo://app?vid=b2cada68-d22d-4962-a15a-eab832155af1","ios":"levelo://app?vid=b2cada68-d22d-4962-a15a-eab832155af1"},"vehicle_type_id":"4","last_reported":1741378207,"current_range_meters":8400,"station_id":"ce4bgvp2rcd13ifvqcu0","pricing_plan_id":"cebpf4jnsgd1na2vs0mg"},{"bike_id":"90196bf0-b78e-4675-b29d-07f1a2a63bcb","system_id":"levelo_inurba_marseille","lat":43.28468,"lon":5.35886,"is_reserved":false,"is_disabled":false,"rental_uris":{"android":"levelo://app?vid=90196bf0-b78e-4675-b29d-07f1a2a63bcb","ios":"levelo://app?vid=90196bf0-b78e-4675-b29d-07f1a2a63bcb"},"vehicle_type_id":"4","last_reported":1741378207,"current_range_meters":8400,"station_id":"ce4bhah2rcd13ifvqei0","pricing_plan_id":"cebpf4jnsgd1na2vs0mg"},{"bike_id":"d9ea8720-1024-4300-95d3-2417b7621462","system_id":"levelo_inurba_marseille","lat":43.23185,"lon":5.39999,"is_reserved":false,"is_disabled":false,"rental_uris":{"android":"levelo://app?vid=d9ea8720-1024-4300-95d3-2417b7621462","ios":"levelo://app?vid=d9ea8720-1024-4300-95d3-2417b7621462"},"vehicle_type_id":"4","last_reported":1741378207,"current_range_meters":8400,"station_id":"ce4bhn12rcd13ifvqgqg","pricing_plan_id":"cebpf4jnsgd1na2vs0mg"},{"bike_id":"ba3c5def-9d88-43bb-9923-7c2a4f1f1893","system_id":"levelo_inurba_marseille","lat":43.28358,"lon":5.38114,"is_reserved":false,"is_disabled":false,"rental_uris":{"android":"levelo://app?vid=ba3c5def-9d88-43bb-9923-7c2a4f1f1893","ios":"levelo://app?vid=ba3c5def-9d88-43bb-9923-7c2a4f1f1893"},"vehicle_type_id":"4","last_reported":1741378207,"current_range_meters":8400,"station_id":"ce4bh412rcd13ifvqdr0","pricing_plan_id":"cebpf4jnsgd1na2vs0mg"},{"bike_id":"9ce7a6b2-6292-4c5e-9fe5-fd83b77ad0ba","system_id":"levelo_inurba_marseille","lat":43.27822,"lon":5.40725,"is_reserved":false,"is_disabled":false,"rental_uris":{"android":"levelo://app?vid=9ce7a6b2-6292-4c5e-9fe5-fd83b77ad0ba","ios":"levelo://app?vid=9ce7a6b2-6292-4c5e-9fe5-fd83b77ad0ba"},"vehicle_type_id":"4","last_reported":1741378207,"current_range_meters":8400,"station_id":"ce4bhnh2rcd13ifvqgtg","pricing_plan_id":"cebpf4jnsgd1na2vs0mg"},{"bike_id":"05c1f1a1-657b-46d3-a057-48b147b633f2","system_id":"levelo_inurba_marseille","lat":43.29904,"lon":5.38155,"is_reserved":false,"is_disabled":false,"rental_uris":{"android":"levelo://app?vid=05c1f1a1-657b-46d3-a057-48b147b633f2","ios":"levelo://app?vid=05c1f1a1-657b-46d3-a057-48b147b633f2"},"vehicle_type_id":"4","last_reported":1741378207,"current_range_meters":8400,"station_id":"ce4bgj12rcd13ifvqbc0","pricing_plan_id":"cebpf4jnsgd1na2vs0mg"},{"bike_id":"dc06feb6-6c0c-4ce0-8bf3-6f377a951202","system_id":"levelo_inurba_marseille","lat":43.29764,"lon":5.38021,"is_reserved":false,"is_disabled":false,"rental_uris":{"android":"levelo://app?vid=dc06feb6-6c0c-4ce0-8bf3-6f377a951202","ios":"levelo://app?vid=dc06feb6-6c0c-4ce0-8bf3-6f377a951202"},"vehicle_type_id":"4","last_reported":1741378207,"current_range_meters":8800,"station_id":"ce4bgip2rcd13ifvqbb0","pricing_plan_id":"cebpf4jnsgd1na2vs0mg"},{"bike_id":"1f1b69c5-067d-4677-a02d-6299a5fc1bb9","system_id":"levelo_inurba_marseille","lat":43.23966,"lon":5.36636,"is_reserved":false,"is_disabled":false,"rental_uris":{"android":"levelo://app?vid=1f1b69c5-067d-4677-a02d-6299a5fc1bb9","ios":"levelo://app?vid=1f1b69c5-067d-4677-a02d-6299a5fc1bb9"},"vehicle_type_id":"4","last_reported":1741378207,"current_range_meters":8800,"station_id":"ce4bhi12rcd13ifvqfp0","pricing_plan_id":"cebpf4jnsgd1na2vs0mg"},{"bike_id":"c11e3687-d22e-4767-b261-fc1a049251e9","system_id":"levelo_inurba_marseille","lat":43.31326,"lon":5.39688,"is_reserved":false,"is_disabled":false,"rental_uris":{"android":"levelo://app?vid=c11e3687-d22e-4767-b261-fc1a049251e9","ios":"levelo://app?vid=c11e3687-d22e-4767-b261-fc1a049251e9"},"vehicle_type_id":"4","last_reported":1741378207,"current_range_meters":8800,"station_id":"ce4bgvp2rcd13ifvqcu0","pricing_plan_id":"cebpf4jnsgd1na2vs0mg"},{"bike_id":"c1139505-e8aa-43fb-acfd-117938f2cd8c","system_id":"levelo_inurba_marseille","lat":43.29328,"lon":5.37202,"is_reserved":false,"is_disabled":false,"rental_uris":{"android":"levelo://app?vid=c1139505-e8aa-43fb-acfd-117938f2cd8c","ios":"levelo://app?vid=c1139505-e8aa-43fb-acfd-117938f2cd8c"},"vehicle_type_id":"4","last_reported":1741378207,"current_range_meters":8800,"station_id":"ce4bgh92rcd13ifvqb40","pricing_plan_id":"cebpf4jnsgd1na2vs0mg"},{"bike_id":"c70ae2bb-5ccb-412c-abb4-f7292a0204ab","system_id":"levelo_inurba_marseille","lat":43.27177,"lon":5.40988,"is_reserved":false,"is_disabled":false,"rental_uris":{"android":"levelo://app?vid=c70ae2bb-5ccb-412c-abb4-f7292a0204ab","ios":"levelo://app?vid=c70ae2bb-5ccb-412c-abb4-f7292a0204ab"},"vehicle_type_id":"4","last_reported":1741378207,"current_range_meters":8800,"station_id":"ce4bhl12rcd13ifvqgf0","pricing_plan_id":"cebpf4jnsgd1na2vs0mg"},{"bike_id":"c9151ceb-fd35-4b40-9877-b7757062111e","system_id":"levelo_inurba_marseille","lat":43.27808,"lon":5.40718,"is_reserved":false,"is_disabled":false,"rental_uris":{"android":"levelo://app?vid=c9151ceb-fd35-4b40-9877-b7757062111e","ios":"levelo://app?vid=c9151ceb-fd35-4b40-9877-b7757062111e"},"vehicle_type_id":"4","last_reported":1741378207,"current_range_meters":8800,"station_id":"ce4bhnh2rcd13ifvqgtg","pricing_plan_id":"cebpf4jnsgd1na2vs0mg"},{"bike_id":"5dab8ec2-efad-4f25-9fd8-730541c1486b","system_id":"levelo_inurba_marseille","lat":43.291669,"lon":5.382933,"is_reserved":false,"is_disabled":false,"rental_uris":{"android":"levelo://app?vid=5dab8ec2-efad-4f25-9fd8-730541c1486b","ios":"levelo://app?vid=5dab8ec2-efad-4f25-9fd8-730541c1486b"},"vehicle_type_id":"4","last_reported":1741378207,"current_range_meters":8800,"station_id":"ce4bh0p2rcd13ifvqd80","pricing_plan_id":"cebpf4jnsgd1na2vs0mg"},{"bike_id":"e3057739-689d-412d-99fb-acef7a4e734f","system_id":"levelo_inurba_marseille","lat":43.26556,"lon":5.37285,"is_reserved":false,"is_disabled":false,"rental_uris":{"android":"levelo://app?vid=e3057739-689d-412d-99fb-acef7a4e734f","ios":"levelo://app?vid=e3057739-689d-412d-99fb-acef7a4e734f"},"vehicle_type_id":"4","last_reported":1741378207,"current_range_meters":8800,"station_id":"ce4bhg12rcd13ifvqf70","pricing_plan_id":"cebpf4jnsgd1na2vs0mg"},{"bike_id":"ada6d078-a9ec-4d64-b562-4fcdd17e4572","system_id":"levelo_inurba_marseille","lat":43.29304,"lon":5.37177,"is_reserved":false,"is_disabled":false,"rental_uris":{"android":"levelo://app?vid=ada6d078-a9ec-4d64-b562-4fcdd17e4572","ios":"levelo://app?vid=ada6d078-a9ec-4d64-b562-4fcdd17e4572"},"vehicle_type_id":"4","last_reported":1741378207,"current_range_meters":8800,"station_id":"ce4bgh92rcd13ifvqb40","pricing_plan_id":"cebpf4jnsgd1na2vs0mg"},{"bike_id":"a8346857-aeb5-446d-a7c0-256440b8c5b2","system_id":"levelo_inurba_marseille","lat":43.27947,"lon":5.41049,"is_reserved":false,"is_disabled":false,"rental_uris":{"android":"levelo://app?vid=a8346857-aeb5-446d-a7c0-256440b8c5b2","ios":"levelo://app?vid=a8346857-aeb5-446d-a7c0-256440b8c5b2"},"vehicle_type_id":"4","last_reported":1741378207,"current_range_meters":8800,"station_id":"ce4bhnp2rcd13ifvqh0g","pricing_plan_id":"cebpf4jnsgd1na2vs0mg"},{"bike_id":"914711c5-624e-47b6-9de5-8d9edc718b35","system_id":"levelo_inurba_marseille","lat":43.29846,"lon":5.36271,"is_reserved":false,"is_disabled":false,"rental_uris":{"android":"levelo://app?vid=914711c5-624e-47b6-9de5-8d9edc718b35","ios":"levelo://app?vid=914711c5-624e-47b6-9de5-8d9edc718b35"},"vehicle_type_id":"4","last_reported":1741378207,"current_range_meters":8800,"station_id":"ce4bgpp2rcd13ifvqc3g","pricing_plan_id":"cebpf4jnsgd1na2vs0mg"},{"bike_id":"3f37aee2-7fce-4abe-83d1-7fababd8fd27","system_id":"levelo_inurba_marseille","lat":43.29905,"lon":5.4365,"is_reserved":false,"is_disabled":false,"rental_uris":{"android":"levelo://app?vid=3f37aee2-7fce-4abe-83d1-7fababd8fd27","ios":"levelo://app?vid=3f37aee2-7fce-4abe-83d1-7fababd8fd27"},"vehicle_type_id":"4","last_reported":1741378207,"current_range_meters":9200,"station_id":"ce4bhpp2rcd13ifvqhfg","pricing_plan_id":"cebpf4jnsgd1na2vs0mg"},{"bike_id":"d769ca3b-81b3-403a-8a39-771754ea7cbc","system_id":"levelo_inurba_marseille","lat":43.23197,"lon":5.39998,"is_reserved":false,"is_disabled":false,"rental_uris":{"android":"levelo://app?vid=d769ca3b-81b3-403a-8a39-771754ea7cbc","ios":"levelo://app?vid=d769ca3b-81b3-403a-8a39-771754ea7cbc"},"vehicle_type_id":"4","last_reported":1741378207,"current_range_meters":9200,"station_id":"ce4bhn12rcd13ifvqgqg","pricing_plan_id":"cebpf4jnsgd1na2vs0mg"},{"bike_id":"6c4fbaf9-9645-4ea6-8c6a-5770ca6d46ee","system_id":"levelo_inurba_marseille","lat":43.29593,"lon":5.37699,"is_reserved":false,"is_disabled":false,"rental_uris":{"android":"levelo://app?vid=6c4fbaf9-9645-4ea6-8c6a-5770ca6d46ee","ios":"levelo://app?vid=6c4fbaf9-9645-4ea6-8c6a-5770ca6d46ee"},"vehicle_type_id":"4","last_reported":1741378207,"current_range_meters":9200,"station_id":"ce4bgi92rcd13ifvqb90","pricing_plan_id":"cebpf4jnsgd1na2vs0mg"},{"bike_id":"cbf4636b-d56c-467c-a3c9-4ac478d03638","system_id":"levelo_inurba_marseille","lat":43.29943,"lon":5.36553,"is_reserved":false,"is_disabled":false,"rental_uris":{"android":"levelo://app?vid=cbf4636b-d56c-467c-a3c9-4ac478d03638","ios":"levelo://app?vid=cbf4636b-d56c-467c-a3c9-4ac478d03638"},"vehicle_type_id":"4","last_reported":1741378207,"current_range_meters":9200,"station_id":"ce4bgm92rcd13ifvqbr0","pricing_plan_id":"cebpf4jnsgd1na2vs0mg"},{"bike_id":"e67bd8a9-394d-4342-8fa8-f034aa0887d9","system_id":"levelo_inurba_marseille","lat":43.28837,"lon":5.39294,"is_reserved":false,"is_disabled":false,"rental_uris":{"android":"levelo://app?vid=e67bd8a9-394d-4342-8fa8-f034aa0887d9","ios":"levelo://app?vid=e67bd8a9-394d-4342-8fa8-f034aa0887d9"},"vehicle_type_id":"4","last_reported":1741378207,"current_range_meters":9200,"station_id":"ce4bh2p2rcd13ifvqdi0","pricing_plan_id":"cebpf4jnsgd1na2vs0mg"},{"bike_id":"431037b5-a5d3-4f7c-a082-acb5bd2f7940","system_id":"levelo_inurba_marseille","lat":43.23106,"lon":5.35527,"is_reserved":false,"is_disabled":false,"rental_uris":{"android":"levelo://app?vid=431037b5-a5d3-4f7c-a082-acb5bd2f7940","ios":"levelo://app?vid=431037b5-a5d3-4f7c-a082-acb5bd2f7940"},"vehicle_type_id":"4","last_reported":1741378207,"current_range_meters":9200,"station_id":"cpo3342slgdg3j2ifvpg","pricing_plan_id":"cebpf4jnsgd1na2vs0mg"},{"bike_id":"48ce40c1-0299-44b6-af4d-acc32ba2f0c2","system_id":"levelo_inurba_marseille","lat":43.23963,"lon":5.36639,"is_reserved":false,"is_disabled":false,"rental_uris":{"android":"levelo://app?vid=48ce40c1-0299-44b6-af4d-acc32ba2f0c2","ios":"levelo://app?vid=48ce40c1-0299-44b6-af4d-acc32ba2f0c2"},"vehicle_type_id":"4","last_reported":1741378207,"current_range_meters":9200,"station_id":"ce4bhi12rcd13ifvqfp0","pricing_plan_id":"cebpf4jnsgd1na2vs0mg"},{"bike_id":"0d69526c-0636-45e2-8b3d-8165db0f2267","system_id":"levelo_inurba_marseille","lat":43.28457,"lon":5.35884,"is_reserved":false,"is_disabled":false,"rental_uris":{"android":"levelo://app?vid=0d69526c-0636-45e2-8b3d-8165db0f2267","ios":"levelo://app?vid=0d69526c-0636-45e2-8b3d-8165db0f2267"},"vehicle_type_id":"4","last_reported":1741378207,"current_range_meters":9600,"station_id":"ce4bhah2rcd13ifvqei0","pricing_plan_id":"cebpf4jnsgd1na2vs0mg"},{"bike_id":"8e81e590-3bae-4147-a807-fcaa9159e107","system_id":"levelo_inurba_marseille","lat":43.28464,"lon":5.38427,"is_reserved":false,"is_disabled":false,"rental_uris":{"android":"levelo://app?vid=8e81e590-3bae-4147-a807-fcaa9159e107","ios":"levelo://app?vid=8e81e590-3bae-4147-a807-fcaa9159e107"},"vehicle_type_id":"4","last_reported":1741378207,"current_range_meters":9600,"station_id":"ce4bh512rcd13ifvqe3g","pricing_plan_id":"cebpf4jnsgd1na2vs0mg"},{"bike_id":"e4b7e3ae-7116-4270-88a8-190c0075c866","system_id":"levelo_inurba_marseille","lat":43.32064,"lon":5.41522,"is_reserved":false,"is_disabled":false,"rental_uris":{"android":"levelo://app?vid=e4b7e3ae-7116-4270-88a8-190c0075c866","ios":"levelo://app?vid=e4b7e3ae-7116-4270-88a8-190c0075c866"},"vehicle_type_id":"4","last_reported":1741378207,"current_range_meters":9600,"station_id":"ce4bhq92rcd13ifvqhkg","pricing_plan_id":"cebpf4jnsgd1na2vs0mg"},{"bike_id":"9da935d0-0941-44db-bb4f-7f7e582bd3d3","system_id":"levelo_inurba_marseille","lat":43.24158,"lon":5.36419,"is_reserved":false,"is_disabled":false,"rental_uris":{"android":"levelo://app?vid=9da935d0-0941-44db-bb4f-7f7e582bd3d3","ios":"levelo://app?vid=9da935d0-0941-44db-bb4f-7f7e582bd3d3"},"vehicle_type_id":"4","last_reported":1741378207,"current_range_meters":9600,"station_id":"cpo36qri1sfpv3e86is0","pricing_plan_id":"cebpf4jnsgd1na2vs0mg"},{"bike_id":"086d469f-dff5-4ec5-8e53-42a42c799cc9","system_id":"levelo_inurba_marseille","lat":43.29559,"lon":5.42307,"is_reserved":false,"is_disabled":false,"rental_uris":{"android":"levelo://app?vid=086d469f-dff5-4ec5-8e53-42a42c799cc9","ios":"levelo://app?vid=086d469f-dff5-4ec5-8e53-42a42c799cc9"},"vehicle_type_id":"4","last_reported":1741378207,"current_range_meters":9600,"station_id":"ce4bhph2rcd13ifvqhdg","pricing_plan_id":"cebpf4jnsgd1na2vs0mg"},{"bike_id":"42323b44-4776-4993-88db-08c90d643018","system_id":"levelo_inurba_marseille","lat":43.30095,"lon":5.37635,"is_reserved":false,"is_disabled":false,"rental_uris":{"android":"levelo://app?vid=42323b44-4776-4993-88db-08c90d643018","ios":"levelo://app?vid=42323b44-4776-4993-88db-08c90d643018"},"vehicle_type_id":"4","last_reported":1741378207,"current_range_meters":9600,"station_id":"","pricing_plan_id":"cebpf4jnsgd1na2vs0mg"},{"bike_id":"daa48c53-c5de-46aa-94fc-655cbd710c8c","system_id":"levelo_inurba_marseille","lat":43.2295,"lon":5.35371,"is_reserved":false,"is_disabled":false,"rental_uris":{"android":"levelo://app?vid=daa48c53-c5de-46aa-94fc-655cbd710c8c","ios":"levelo://app?vid=daa48c53-c5de-46aa-94fc-655cbd710c8c"},"vehicle_type_id":"4","last_reported":1741378207,"current_range_meters":9600,"station_id":"cpo3532slgdg3j2ikp40","pricing_plan_id":"cebpf4jnsgd1na2vs0mg"},{"bike_id":"7b62c62b-d961-49e1-afe1-b0b21a291801","system_id":"levelo_inurba_marseille","lat":43.27863,"lon":5.41755,"is_reserved":false,"is_disabled":true,"rental_uris":{"android":"levelo://app?vid=7b62c62b-d961-49e1-afe1-b0b21a291801","ios":"levelo://app?vid=7b62c62b-d961-49e1-afe1-b0b21a291801"},"vehicle_type_id":"4","last_reported":1741378207,"current_range_meters":10000,"station_id":"","pricing_plan_id":"cebpf4jnsgd1na2vs0mg"},{"bike_id":"4da9eb3f-af08-4a1b-9882-77cd86d8b894","system_id":"levelo_inurba_marseille","lat":43.2942,"lon":5.38638,"is_reserved":false,"is_disabled":false,"rental_uris":{"android":"levelo://app?vid=4da9eb3f-af08-4a1b-9882-77cd86d8b894","ios":"levelo://app?vid=4da9eb3f-af08-4a1b-9882-77cd86d8b894"},"vehicle_type_id":"4","last_reported":1741378207,"current_range_meters":10000,"station_id":"ce4bh2h2rcd13ifvqdh0","pricing_plan_id":"cebpf4jnsgd1na2vs0mg"},{"bike_id":"8d4928e0-5b6b-4c63-92e5-15dc18de6c1d","system_id":"levelo_inurba_marseille","lat":43.33017,"lon":5.39028,"is_reserved":false,"is_disabled":false,"rental_uris":{"android":"levelo://app?vid=8d4928e0-5b6b-4c63-92e5-15dc18de6c1d","ios":"levelo://app?vid=8d4928e0-5b6b-4c63-92e5-15dc18de6c1d"},"vehicle_type_id":"4","last_reported":1741378207,"current_range_meters":10000,"station_id":"ce4bhr92rcd13ifvqhrg","pricing_plan_id":"cebpf4jnsgd1na2vs0mg"},{"bike_id":"920ff55d-e722-45ea-b645-85ea1685a342","system_id":"levelo_inurba_marseille","lat":43.29211,"lon":5.38493,"is_reserved":false,"is_disabled":false,"rental_uris":{"android":"levelo://app?vid=920ff55d-e722-45ea-b645-85ea1685a342","ios":"levelo://app?vid=920ff55d-e722-45ea-b645-85ea1685a342"},"vehicle_type_id":"4","last_reported":1741378207,"current_range_meters":10000,"station_id":"","pricing_plan_id":"cebpf4jnsgd1na2vs0mg"},{"bike_id":"d3718522-1203-474f-b3a7-d72ad1a38c07","system_id":"levelo_inurba_marseille","lat":43.29535,"lon":5.37511,"is_reserved":false,"is_disabled":false,"rental_uris":{"android":"levelo://app?vid=d3718522-1203-474f-b3a7-d72ad1a38c07","ios":"levelo://app?vid=d3718522-1203-474f-b3a7-d72ad1a38c07"},"vehicle_type_id":"4","last_reported":1741378207,"current_range_meters":10000,"station_id":"ce4bgkp2rcd13ifvqbmg","pricing_plan_id":"cebpf4jnsgd1na2vs0mg"},{"bike_id":"8f401804-cb0a-49fb-8393-4321a3643c9b","system_id":"levelo_inurba_marseille","lat":43.29308,"lon":5.37458,"is_reserved":false,"is_disabled":false,"rental_uris":{"android":"levelo://app?vid=8f401804-cb0a-49fb-8393-4321a3643c9b","ios":"levelo://app?vid=8f401804-cb0a-49fb-8393-4321a3643c9b"},"vehicle_type_id":"4","last_reported":1741378207,"current_range_meters":10000,"station_id":"ce4bgi12rcd13ifvqb70","pricing_plan_id":"cebpf4jnsgd1na2vs0mg"},{"bike_id":"99372ffb-1d51-4014-a68c-53b2b424f35b","system_id":"levelo_inurba_marseille","lat":43.23189,"lon":5.39992,"is_reserved":false,"is_disabled":false,"rental_uris":{"android":"levelo://app?vid=99372ffb-1d51-4014-a68c-53b2b424f35b","ios":"levelo://app?vid=99372ffb-1d51-4014-a68c-53b2b424f35b"},"vehicle_type_id":"4","last_reported":1741378207,"current_range_meters":10800,"station_id":"ce4bhn12rcd13ifvqgqg","pricing_plan_id":"cebpf4jnsgd1na2vs0mg"},{"bike_id":"2a5d35df-8059-4201-842b-1dbf91654728","system_id":"levelo_inurba_marseille","lat":43.27822,"lon":5.40735,"is_reserved":false,"is_disabled":false,"rental_uris":{"android":"levelo://app?vid=2a5d35df-8059-4201-842b-1dbf91654728","ios":"levelo://app?vid=2a5d35df-8059-4201-842b-1dbf91654728"},"vehicle_type_id":"4","last_reported":1741378207,"current_range_meters":10800,"station_id":"ce4bhnh2rcd13ifvqgtg","pricing_plan_id":"cebpf4jnsgd1na2vs0mg"},{"bike_id":"db7cd95b-0159-457d-aa08-f78ad0493427","system_id":"levelo_inurba_marseille","lat":43.32359,"lon":5.38906,"is_reserved":false,"is_disabled":false,"rental_uris":{"android":"levelo://app?vid=db7cd95b-0159-457d-aa08-f78ad0493427","ios":"levelo://app?vid=db7cd95b-0159-457d-aa08-f78ad0493427"},"vehicle_type_id":"4","last_reported":1741378207,"current_range_meters":10800,"station_id":"ce4bhqp2rcd13ifvqhog","pricing_plan_id":"cebpf4jnsgd1na2vs0mg"},{"bike_id":"3949e300-2dbd-4203-aa58-eef0b1b0c774","system_id":"levelo_inurba_marseille","lat":43.33771,"lon":5.3743,"is_reserved":false,"is_disabled":false,"rental_uris":{"android":"levelo://app?vid=3949e300-2dbd-4203-aa58-eef0b1b0c774","ios":"levelo://app?vid=3949e300-2dbd-4203-aa58-eef0b1b0c774"},"vehicle_type_id":"4","last_reported":1741378207,"current_range_meters":10800,"station_id":"","pricing_plan_id":"cebpf4jnsgd1na2vs0mg"},{"bike_id":"bd46704f-0224-4227-af84-38171ad856dc","system_id":"levelo_inurba_marseille","lat":43.29267,"lon":5.36856,"is_reserved":false,"is_disabled":false,"rental_uris":{"android":"levelo://app?vid=bd46704f-0224-4227-af84-38171ad856dc","ios":"levelo://app?vid=bd46704f-0224-4227-af84-38171ad856dc"},"vehicle_type_id":"4","last_reported":1741378207,"current_range_meters":10800,"station_id":"ce4bhbp2rcd13ifvqesg","pricing_plan_id":"cebpf4jnsgd1na2vs0mg"},{"bike_id":"05df3f10-4e8d-4ff3-9016-d9b78fa3c385","system_id":"levelo_inurba_marseille","lat":43.27948,"lon":5.41055,"is_reserved":false,"is_disabled":false,"rental_uris":{"android":"levelo://app?vid=05df3f10-4e8d-4ff3-9016-d9b78fa3c385","ios":"levelo://app?vid=05df3f10-4e8d-4ff3-9016-d9b78fa3c385"},"vehicle_type_id":"4","last_reported":1741378207,"current_range_meters":10800,"station_id":"ce4bhnp2rcd13ifvqh0g","pricing_plan_id":"cebpf4jnsgd1na2vs0mg"},{"bike_id":"0625977d-e57d-4858-9ec1-36f2b65842de","system_id":"levelo_inurba_marseille","lat":43.24655,"lon":5.38895,"is_reserved":false,"is_disabled":false,"rental_uris":{"android":"levelo://app?vid=0625977d-e57d-4858-9ec1-36f2b65842de","ios":"levelo://app?vid=0625977d-e57d-4858-9ec1-36f2b65842de"},"vehicle_type_id":"4","last_reported":1741378207,"current_range_meters":10800,"station_id":"ce4bhg12rcd13ifvqf60","pricing_plan_id":"cebpf4jnsgd1na2vs0mg"},{"bike_id":"b1e189d2-cc2d-4bbc-9210-3d18e5683801","system_id":"levelo_inurba_marseille","lat":43.26986,"lon":5.402,"is_reserved":false,"is_disabled":true,"rental_uris":{"android":"levelo://app?vid=b1e189d2-cc2d-4bbc-9210-3d18e5683801","ios":"levelo://app?vid=b1e189d2-cc2d-4bbc-9210-3d18e5683801"},"vehicle_type_id":"4","last_reported":1741378207,"current_range_meters":11600,"station_id":"cjm6bp8fraef2m0cb0m0","pricing_plan_id":"cebpf4jnsgd1na2vs0mg"},{"bike_id":"ae99eef4-0d01-432b-b9f3-30beda5f0e73","system_id":"levelo_inurba_marseille","lat":43.299,"lon":5.43656,"is_reserved":false,"is_disabled":false,"rental_uris":{"android":"levelo://app?vid=ae99eef4-0d01-432b-b9f3-30beda5f0e73","ios":"levelo://app?vid=ae99eef4-0d01-432b-b9f3-30beda5f0e73"},"vehicle_type_id":"4","last_reported":1741378207,"current_range_meters":11600,"station_id":"ce4bhpp2rcd13ifvqhfg","pricing_plan_id":"cebpf4jnsgd1na2vs0mg"},{"bike_id":"a05930fc-a4ee-4488-b9de-946b26724077","system_id":"levelo_inurba_marseille","lat":43.29259,"lon":5.38434,"is_reserved":false,"is_disabled":false,"rental_uris":{"android":"levelo://app?vid=a05930fc-a4ee-4488-b9de-946b26724077","ios":"levelo://app?vid=a05930fc-a4ee-4488-b9de-946b26724077"},"vehicle_type_id":"4","last_reported":1741378207,"current_range_meters":11600,"station_id":"ce4bh692rcd13ifvqea0","pricing_plan_id":"cebpf4jnsgd1na2vs0mg"},{"bike_id":"0e674cb4-f37d-4bd5-aaff-7ec953d386c6","system_id":"levelo_inurba_marseille","lat":43.241701,"lon":5.363978,"is_reserved":false,"is_disabled":false,"rental_uris":{"android":"levelo://app?vid=0e674cb4-f37d-4bd5-aaff-7ec953d386c6","ios":"levelo://app?vid=0e674cb4-f37d-4bd5-aaff-7ec953d386c6"},"vehicle_type_id":"4","last_reported":1741378207,"current_range_meters":11600,"station_id":"cpo36qri1sfpv3e86is0","pricing_plan_id":"cebpf4jnsgd1na2vs0mg"},{"bike_id":"81de7748-b1b5-421f-9e0b-234976ce22d5","system_id":"levelo_inurba_marseille","lat":43.29428,"lon":5.38639,"is_reserved":false,"is_disabled":false,"rental_uris":{"android":"levelo://app?vid=81de7748-b1b5-421f-9e0b-234976ce22d5","ios":"levelo://app?vid=81de7748-b1b5-421f-9e0b-234976ce22d5"},"vehicle_type_id":"4","last_reported":1741378207,"current_range_meters":12000,"station_id":"ce4bh2h2rcd13ifvqdh0","pricing_plan_id":"cebpf4jnsgd1na2vs0mg"},{"bike_id":"f84dac07-aebc-4c91-86d5-a770501ab7d9","system_id":"levelo_inurba_marseille","lat":43.29554,"lon":5.39062,"is_reserved":false,"is_disabled":false,"rental_uris":{"android":"levelo://app?vid=f84dac07-aebc-4c91-86d5-a770501ab7d9","ios":"levelo://app?vid=f84dac07-aebc-4c91-86d5-a770501ab7d9"},"vehicle_type_id":"4","last_reported":1741378207,"current_range_meters":12000,"station_id":"ce4bh3p2rcd13ifvqdp0","pricing_plan_id":"cebpf4jnsgd1na2vs0mg"},{"bike_id":"28516e47-b2b6-41de-8bb8-d6649b6b1c7b","system_id":"levelo_inurba_marseille","lat":43.29035,"lon":5.38641,"is_reserved":false,"is_disabled":false,"rental_uris":{"android":"levelo://app?vid=28516e47-b2b6-41de-8bb8-d6649b6b1c7b","ios":"levelo://app?vid=28516e47-b2b6-41de-8bb8-d6649b6b1c7b"},"vehicle_type_id":"4","last_reported":1741378207,"current_range_meters":12000,"station_id":"ce4bh4p2rcd13ifvqe0g","pricing_plan_id":"cebpf4jnsgd1na2vs0mg"},{"bike_id":"e524bcef-a391-41b2-bad2-673eae53ea51","system_id":"levelo_inurba_marseille","lat":43.31712,"lon":5.43715,"is_reserved":false,"is_disabled":false,"rental_uris":{"android":"levelo://app?vid=e524bcef-a391-41b2-bad2-673eae53ea51","ios":"levelo://app?vid=e524bcef-a391-41b2-bad2-673eae53ea51"},"vehicle_type_id":"4","last_reported":1741378207,"current_range_meters":12400,"station_id":"ce4bhp92rcd13ifvqhcg","pricing_plan_id":"cebpf4jnsgd1na2vs0mg"},{"bike_id":"42168c6f-35a5-43f2-8ef8-61a75051262d","system_id":"levelo_inurba_marseille","lat":43.28149,"lon":5.426419,"is_reserved":false,"is_disabled":true,"rental_uris":{"android":"levelo://app?vid=42168c6f-35a5-43f2-8ef8-61a75051262d","ios":"levelo://app?vid=42168c6f-35a5-43f2-8ef8-61a75051262d"},"vehicle_type_id":"4","last_reported":1741378207,"current_range_meters":12000,"station_id":"ce4bhnh2rcd13ifvqgug","pricing_plan_id":"cebpf4jnsgd1na2vs0mg"},{"bike_id":"a010df3e-cde9-4d88-a127-45d016c7f864","system_id":"levelo_inurba_marseille","lat":43.24543,"lon":5.3952,"is_reserved":false,"is_disabled":false,"rental_uris":{"android":"levelo://app?vid=a010df3e-cde9-4d88-a127-45d016c7f864","ios":"levelo://app?vid=a010df3e-cde9-4d88-a127-45d016c7f864"},"vehicle_type_id":"4","last_reported":1741378207,"current_range_meters":12000,"station_id":"ce4bhlp2rcd13ifvqgjg","pricing_plan_id":"cebpf4jnsgd1na2vs0mg"},{"bike_id":"dac09d9e-9ab6-4c54-8fe2-7fcfc9203869","system_id":"levelo_inurba_marseille","lat":43.26546,"lon":5.37295,"is_reserved":false,"is_disabled":true,"rental_uris":{"android":"levelo://app?vid=dac09d9e-9ab6-4c54-8fe2-7fcfc9203869","ios":"levelo://app?vid=dac09d9e-9ab6-4c54-8fe2-7fcfc9203869"},"vehicle_type_id":"4","last_reported":1741378207,"current_range_meters":12000,"station_id":"ce4bhg12rcd13ifvqf70","pricing_plan_id":"cebpf4jnsgd1na2vs0mg"},{"bike_id":"a6770ec2-2d7d-40c9-a213-103475a4267d","system_id":"levelo_inurba_marseille","lat":43.28359,"lon":5.38116,"is_reserved":false,"is_disabled":false,"rental_uris":{"android":"levelo://app?vid=a6770ec2-2d7d-40c9-a213-103475a4267d","ios":"levelo://app?vid=a6770ec2-2d7d-40c9-a213-103475a4267d"},"vehicle_type_id":"4","last_reported":1741378207,"current_range_meters":12000,"station_id":"ce4bh412rcd13ifvqdr0","pricing_plan_id":"cebpf4jnsgd1na2vs0mg"},{"bike_id":"54954614-0ac5-41d2-8a16-307c508cf4e1","system_id":"levelo_inurba_marseille","lat":43.33056,"lon":5.39051,"is_reserved":false,"is_disabled":false,"rental_uris":{"android":"levelo://app?vid=54954614-0ac5-41d2-8a16-307c508cf4e1","ios":"levelo://app?vid=54954614-0ac5-41d2-8a16-307c508cf4e1"},"vehicle_type_id":"4","last_reported":1741378207,"current_range_meters":12000,"station_id":"ce4bhr92rcd13ifvqhrg","pricing_plan_id":"cebpf4jnsgd1na2vs0mg"},{"bike_id":"7975d694-882f-4838-b78a-fb73795f21f5","system_id":"levelo_inurba_marseille","lat":43.29671,"lon":5.37288,"is_reserved":false,"is_disabled":false,"rental_uris":{"android":"levelo://app?vid=7975d694-882f-4838-b78a-fb73795f21f5","ios":"levelo://app?vid=7975d694-882f-4838-b78a-fb73795f21f5"},"vehicle_type_id":"4","last_reported":1741378207,"current_range_meters":12000,"station_id":"ce4bgk12rcd13ifvqbj0","pricing_plan_id":"cebpf4jnsgd1na2vs0mg"},{"bike_id":"c4dca63c-2cc7-4063-a26d-dcd5da15af39","system_id":"levelo_inurba_marseille","lat":43.26569,"lon":5.39008,"is_reserved":false,"is_disabled":false,"rental_uris":{"android":"levelo://app?vid=c4dca63c-2cc7-4063-a26d-dcd5da15af39","ios":"levelo://app?vid=c4dca63c-2cc7-4063-a26d-dcd5da15af39"},"vehicle_type_id":"4","last_reported":1741378207,"current_range_meters":12000,"station_id":"ce4bhe12rcd13ifvqf30","pricing_plan_id":"cebpf4jnsgd1na2vs0mg"},{"bike_id":"7372ba19-4949-453e-a20c-490c28817add","system_id":"levelo_inurba_marseille","lat":43.33782,"lon":5.37418,"is_reserved":false,"is_disabled":false,"rental_uris":{"android":"levelo://app?vid=7372ba19-4949-453e-a20c-490c28817add","ios":"levelo://app?vid=7372ba19-4949-453e-a20c-490c28817add"},"vehicle_type_id":"4","last_reported":1741378207,"current_range_meters":12400,"station_id":"","pricing_plan_id":"cebpf4jnsgd1na2vs0mg"},{"bike_id":"3af5260e-2818-4b81-a7fe-0a94159c04c6","system_id":"levelo_inurba_marseille","lat":43.2962,"lon":5.37704,"is_reserved":false,"is_disabled":false,"rental_uris":{"android":"levelo://app?vid=3af5260e-2818-4b81-a7fe-0a94159c04c6","ios":"levelo://app?vid=3af5260e-2818-4b81-a7fe-0a94159c04c6"},"vehicle_type_id":"4","last_reported":1741378207,"current_range_meters":12400,"station_id":"ce4bgi92rcd13ifvqb90","pricing_plan_id":"cebpf4jnsgd1na2vs0mg"},{"bike_id":"af727367-3bb1-4e28-bf7e-f3b81de5470f","system_id":"levelo_inurba_marseille","lat":43.29541,"lon":5.38526,"is_reserved":false,"is_disabled":false,"rental_uris":{"android":"levelo://app?vid=af727367-3bb1-4e28-bf7e-f3b81de5470f","ios":"levelo://app?vid=af727367-3bb1-4e28-bf7e-f3b81de5470f"},"vehicle_type_id":"4","last_reported":1741378207,"current_range_meters":12400,"station_id":"ce4bgih2rcd13ifvqba0","pricing_plan_id":"cebpf4jnsgd1na2vs0mg"},{"bike_id":"85bd779e-bcb3-4865-a556-1d47953f93ef","system_id":"levelo_inurba_marseille","lat":43.29359,"lon":5.3728,"is_reserved":false,"is_disabled":false,"rental_uris":{"android":"levelo://app?vid=85bd779e-bcb3-4865-a556-1d47953f93ef","ios":"levelo://app?vid=85bd779e-bcb3-4865-a556-1d47953f93ef"},"vehicle_type_id":"4","last_reported":1741378207,"current_range_meters":12400,"station_id":"","pricing_plan_id":"cebpf4jnsgd1na2vs0mg"},{"bike_id":"b9876437-5323-42b3-bbc9-af08b04085db","system_id":"levelo_inurba_marseille","lat":43.29277,"lon":5.39066,"is_reserved":false,"is_disabled":false,"rental_uris":{"android":"levelo://app?vid=b9876437-5323-42b3-bbc9-af08b04085db","ios":"levelo://app?vid=b9876437-5323-42b3-bbc9-af08b04085db"},"vehicle_type_id":"4","last_reported":1741378207,"current_range_meters":12400,"station_id":"","pricing_plan_id":"cebpf4jnsgd1na2vs0mg"},{"bike_id":"9c2a65ea-f853-4980-96dd-92ca8e872fcd","system_id":"levelo_inurba_marseille","lat":43.24923,"lon":5.40904,"is_reserved":false,"is_disabled":false,"rental_uris":{"android":"levelo://app?vid=9c2a65ea-f853-4980-96dd-92ca8e872fcd","ios":"levelo://app?vid=9c2a65ea-f853-4980-96dd-92ca8e872fcd"},"vehicle_type_id":"4","last_reported":1741378207,"current_range_meters":12400,"station_id":"","pricing_plan_id":"cebpf4jnsgd1na2vs0mg"},{"bike_id":"6d5011c5-fddc-4e74-ac2f-fbf2e12b421e","system_id":"levelo_inurba_marseille","lat":43.28473,"lon":5.38418,"is_reserved":false,"is_disabled":false,"rental_uris":{"android":"levelo://app?vid=6d5011c5-fddc-4e74-ac2f-fbf2e12b421e","ios":"levelo://app?vid=6d5011c5-fddc-4e74-ac2f-fbf2e12b421e"},"vehicle_type_id":"4","last_reported":1741378207,"current_range_meters":12800,"station_id":"ce4bh512rcd13ifvqe3g","pricing_plan_id":"cebpf4jnsgd1na2vs0mg"},{"bike_id":"5cabd61c-7a18-4a82-b4ff-b4d869db70af","system_id":"levelo_inurba_marseille","lat":43.25123,"lon":5.4033,"is_reserved":false,"is_disabled":false,"rental_uris":{"android":"levelo://app?vid=5cabd61c-7a18-4a82-b4ff-b4d869db70af","ios":"levelo://app?vid=5cabd61c-7a18-4a82-b4ff-b4d869db70af"},"vehicle_type_id":"4","last_reported":1741378207,"current_range_meters":12800,"station_id":"ce4bhlh2rcd13ifvqgig","pricing_plan_id":"cebpf4jnsgd1na2vs0mg"},{"bike_id":"2722d816-5447-4469-a413-653f3f27b554","system_id":"levelo_inurba_marseille","lat":43.29257,"lon":5.38451,"is_reserved":false,"is_disabled":false,"rental_uris":{"android":"levelo://app?vid=2722d816-5447-4469-a413-653f3f27b554","ios":"levelo://app?vid=2722d816-5447-4469-a413-653f3f27b554"},"vehicle_type_id":"4","last_reported":1741378207,"current_range_meters":12800,"station_id":"ce4bh692rcd13ifvqea0","pricing_plan_id":"cebpf4jnsgd1na2vs0mg"},{"bike_id":"9616f66c-e954-4d36-9352-5ba9de5e8e62","system_id":"levelo_inurba_marseille","lat":43.27841,"lon":5.40734,"is_reserved":false,"is_disabled":false,"rental_uris":{"android":"levelo://app?vid=9616f66c-e954-4d36-9352-5ba9de5e8e62","ios":"levelo://app?vid=9616f66c-e954-4d36-9352-5ba9de5e8e62"},"vehicle_type_id":"4","last_reported":1741378207,"current_range_meters":12800,"station_id":"ce4bhnh2rcd13ifvqgtg","pricing_plan_id":"cebpf4jnsgd1na2vs0mg"},{"bike_id":"b54292f7-ba5a-4ca2-851d-b34190bdf4a8","system_id":"levelo_inurba_marseille","lat":43.33034,"lon":5.39062,"is_reserved":false,"is_disabled":false,"rental_uris":{"android":"levelo://app?vid=b54292f7-ba5a-4ca2-851d-b34190bdf4a8","ios":"levelo://app?vid=b54292f7-ba5a-4ca2-851d-b34190bdf4a8"},"vehicle_type_id":"4","last_reported":1741378207,"current_range_meters":12800,"station_id":"ce4bhr92rcd13ifvqhrg","pricing_plan_id":"cebpf4jnsgd1na2vs0mg"},{"bike_id":"9cab9a7c-c791-448c-a50b-3f4aaabb5943","system_id":"levelo_inurba_marseille","lat":43.2942,"lon":5.3863,"is_reserved":false,"is_disabled":false,"rental_uris":{"android":"levelo://app?vid=9cab9a7c-c791-448c-a50b-3f4aaabb5943","ios":"levelo://app?vid=9cab9a7c-c791-448c-a50b-3f4aaabb5943"},"vehicle_type_id":"4","last_reported":1741378207,"current_range_meters":12800,"station_id":"ce4bh2h2rcd13ifvqdh0","pricing_plan_id":"cebpf4jnsgd1na2vs0mg"},{"bike_id":"28cf91c8-babb-4532-a1ff-2467073c331a","system_id":"levelo_inurba_marseille","lat":43.31885,"lon":5.40707,"is_reserved":false,"is_disabled":false,"rental_uris":{"android":"levelo://app?vid=28cf91c8-babb-4532-a1ff-2467073c331a","ios":"levelo://app?vid=28cf91c8-babb-4532-a1ff-2467073c331a"},"vehicle_type_id":"4","last_reported":1741378207,"current_range_meters":12800,"station_id":"ce4bhq12rcd13ifvqhig","pricing_plan_id":"cebpf4jnsgd1na2vs0mg"},{"bike_id":"4c4356fa-c6c9-4caf-ab7d-12d2814185d1","system_id":"levelo_inurba_marseille","lat":43.29843,"lon":5.36272,"is_reserved":false,"is_disabled":false,"rental_uris":{"android":"levelo://app?vid=4c4356fa-c6c9-4caf-ab7d-12d2814185d1","ios":"levelo://app?vid=4c4356fa-c6c9-4caf-ab7d-12d2814185d1"},"vehicle_type_id":"4","last_reported":1741378207,"current_range_meters":12400,"station_id":"ce4bgpp2rcd13ifvqc3g","pricing_plan_id":"cebpf4jnsgd1na2vs0mg"},{"bike_id":"11e7fc3b-ed5a-4401-a0af-6e80583f87e8","system_id":"levelo_inurba_marseille","lat":43.27827,"lon":5.40721,"is_reserved":false,"is_disabled":false,"rental_uris":{"android":"levelo://app?vid=11e7fc3b-ed5a-4401-a0af-6e80583f87e8","ios":"levelo://app?vid=11e7fc3b-ed5a-4401-a0af-6e80583f87e8"},"vehicle_type_id":"4","last_reported":1741378207,"current_range_meters":12800,"station_id":"ce4bhnh2rcd13ifvqgtg","pricing_plan_id":"cebpf4jnsgd1na2vs0mg"},{"bike_id":"d47b3569-7f92-439b-94f1-38239ac778f1","system_id":"levelo_inurba_marseille","lat":43.29414,"lon":5.38637,"is_reserved":false,"is_disabled":false,"rental_uris":{"android":"levelo://app?vid=d47b3569-7f92-439b-94f1-38239ac778f1","ios":"levelo://app?vid=d47b3569-7f92-439b-94f1-38239ac778f1"},"vehicle_type_id":"4","last_reported":1741378207,"current_range_meters":12800,"station_id":"ce4bh2h2rcd13ifvqdh0","pricing_plan_id":"cebpf4jnsgd1na2vs0mg"},{"bike_id":"bef8b1e1-1f3f-4f03-8b78-608ec9a93267","system_id":"levelo_inurba_marseille","lat":43.23959,"lon":5.3664,"is_reserved":false,"is_disabled":false,"rental_uris":{"android":"levelo://app?vid=bef8b1e1-1f3f-4f03-8b78-608ec9a93267","ios":"levelo://app?vid=bef8b1e1-1f3f-4f03-8b78-608ec9a93267"},"vehicle_type_id":"4","last_reported":1741378207,"current_range_meters":12800,"station_id":"ce4bhi12rcd13ifvqfp0","pricing_plan_id":"cebpf4jnsgd1na2vs0mg"},{"bike_id":"9e0e6e41-5cde-4abe-bae4-412154965118","system_id":"levelo_inurba_marseille","lat":43.23959,"lon":5.36664,"is_reserved":false,"is_disabled":false,"rental_uris":{"android":"levelo://app?vid=9e0e6e41-5cde-4abe-bae4-412154965118","ios":"levelo://app?vid=9e0e6e41-5cde-4abe-bae4-412154965118"},"vehicle_type_id":"4","last_reported":1741378207,"current_range_meters":13600,"station_id":"ce4bhi12rcd13ifvqfp0","pricing_plan_id":"cebpf4jnsgd1na2vs0mg"},{"bike_id":"4f508b50-1e3d-40c5-be77-1e6495edbe07","system_id":"levelo_inurba_marseille","lat":43.25743,"lon":5.41052,"is_reserved":false,"is_disabled":false,"rental_uris":{"android":"levelo://app?vid=4f508b50-1e3d-40c5-be77-1e6495edbe07","ios":"levelo://app?vid=4f508b50-1e3d-40c5-be77-1e6495edbe07"},"vehicle_type_id":"4","last_reported":1741378207,"current_range_meters":13600,"station_id":"ce4bhkp2rcd13ifvqgd0","pricing_plan_id":"cebpf4jnsgd1na2vs0mg"},{"bike_id":"ed74edb6-e892-464b-9c40-c1f944ecd04a","system_id":"levelo_inurba_marseille","lat":43.29312,"lon":5.37463,"is_reserved":false,"is_disabled":false,"rental_uris":{"android":"levelo://app?vid=ed74edb6-e892-464b-9c40-c1f944ecd04a","ios":"levelo://app?vid=ed74edb6-e892-464b-9c40-c1f944ecd04a"},"vehicle_type_id":"4","last_reported":1741378207,"current_range_meters":13600,"station_id":"ce4bgi12rcd13ifvqb70","pricing_plan_id":"cebpf4jnsgd1na2vs0mg"},{"bike_id":"117576de-ea7a-4e20-89ce-191a1398e64d","system_id":"levelo_inurba_marseille","lat":43.23193,"lon":5.39998,"is_reserved":false,"is_disabled":false,"rental_uris":{"android":"levelo://app?vid=117576de-ea7a-4e20-89ce-191a1398e64d","ios":"levelo://app?vid=117576de-ea7a-4e20-89ce-191a1398e64d"},"vehicle_type_id":"4","last_reported":1741378207,"current_range_meters":13600,"station_id":"ce4bhn12rcd13ifvqgqg","pricing_plan_id":"cebpf4jnsgd1na2vs0mg"},{"bike_id":"7a6390d5-30f1-42a9-81f6-77c4114cf172","system_id":"levelo_inurba_marseille","lat":43.2782,"lon":5.40721,"is_reserved":false,"is_disabled":false,"rental_uris":{"android":"levelo://app?vid=7a6390d5-30f1-42a9-81f6-77c4114cf172","ios":"levelo://app?vid=7a6390d5-30f1-42a9-81f6-77c4114cf172"},"vehicle_type_id":"4","last_reported":1741378207,"current_range_meters":13600,"station_id":"ce4bhnh2rcd13ifvqgtg","pricing_plan_id":"cebpf4jnsgd1na2vs0mg"},{"bike_id":"7e60b09d-959c-4d55-a820-f3270555724f","system_id":"levelo_inurba_marseille","lat":43.28626,"lon":5.35107,"is_reserved":false,"is_disabled":false,"rental_uris":{"android":"levelo://app?vid=7e60b09d-959c-4d55-a820-f3270555724f","ios":"levelo://app?vid=7e60b09d-959c-4d55-a820-f3270555724f"},"vehicle_type_id":"4","last_reported":1741378207,"current_range_meters":13600,"station_id":"ce4bhch2rcd13ifvqeug","pricing_plan_id":"cebpf4jnsgd1na2vs0mg"},{"bike_id":"db1c7047-7b9f-4b56-96ef-3b289cb537df","system_id":"levelo_inurba_marseille","lat":43.30854,"lon":5.37405,"is_reserved":false,"is_disabled":false,"rental_uris":{"android":"levelo://app?vid=db1c7047-7b9f-4b56-96ef-3b289cb537df","ios":"levelo://app?vid=db1c7047-7b9f-4b56-96ef-3b289cb537df"},"vehicle_type_id":"4","last_reported":1741378207,"current_range_meters":13600,"station_id":"","pricing_plan_id":"cebpf4jnsgd1na2vs0mg"},{"bike_id":"6ca1858e-2013-41f3-b5c2-6e26df5cfc7e","system_id":"levelo_inurba_marseille","lat":43.27177,"lon":5.40993,"is_reserved":false,"is_disabled":false,"rental_uris":{"android":"levelo://app?vid=6ca1858e-2013-41f3-b5c2-6e26df5cfc7e","ios":"levelo://app?vid=6ca1858e-2013-41f3-b5c2-6e26df5cfc7e"},"vehicle_type_id":"4","last_reported":1741378207,"current_range_meters":13600,"station_id":"ce4bhl12rcd13ifvqgf0","pricing_plan_id":"cebpf4jnsgd1na2vs0mg"},{"bike_id":"b533f38f-df9a-4e01-86fb-08f4b9bfcdfb","system_id":"levelo_inurba_marseille","lat":43.2624,"lon":5.42114,"is_reserved":false,"is_disabled":false,"rental_uris":{"android":"levelo://app?vid=b533f38f-df9a-4e01-86fb-08f4b9bfcdfb","ios":"levelo://app?vid=b533f38f-df9a-4e01-86fb-08f4b9bfcdfb"},"vehicle_type_id":"4","last_reported":1741378207,"current_range_meters":13600,"station_id":"","pricing_plan_id":"cebpf4jnsgd1na2vs0mg"},{"bike_id":"9b8789be-c150-4679-b8ba-e1d5e4639da2","system_id":"levelo_inurba_marseille","lat":43.25678,"lon":5.41002,"is_reserved":false,"is_disabled":false,"rental_uris":{"android":"levelo://app?vid=9b8789be-c150-4679-b8ba-e1d5e4639da2","ios":"levelo://app?vid=9b8789be-c150-4679-b8ba-e1d5e4639da2"},"vehicle_type_id":"4","last_reported":1741378207,"current_range_meters":13600,"station_id":"","pricing_plan_id":"cebpf4jnsgd1na2vs0mg"},{"bike_id":"873b6a3d-be67-473b-9616-285541733d24","system_id":"levelo_inurba_marseille","lat":43.2955,"lon":5.42262,"is_reserved":false,"is_disabled":false,"rental_uris":{"android":"levelo://app?vid=873b6a3d-be67-473b-9616-285541733d24","ios":"levelo://app?vid=873b6a3d-be67-473b-9616-285541733d24"},"vehicle_type_id":"4","last_reported":1741378207,"current_range_meters":14000,"station_id":"ce4bhph2rcd13ifvqhdg","pricing_plan_id":"cebpf4jnsgd1na2vs0mg"},{"bike_id":"afd3745f-2980-403a-a6ef-0c035551bdb9","system_id":"levelo_inurba_marseille","lat":43.32831,"lon":5.38768,"is_reserved":false,"is_disabled":false,"rental_uris":{"android":"levelo://app?vid=afd3745f-2980-403a-a6ef-0c035551bdb9","ios":"levelo://app?vid=afd3745f-2980-403a-a6ef-0c035551bdb9"},"vehicle_type_id":"4","last_reported":1741378207,"current_range_meters":22400,"station_id":"","pricing_plan_id":"cebpf4jnsgd1na2vs0mg"},{"bike_id":"7fffa7d5-d173-4ef9-968a-3384c9362fb9","system_id":"levelo_inurba_marseille","lat":43.28836,"lon":5.39304,"is_reserved":false,"is_disabled":false,"rental_uris":{"android":"levelo://app?vid=7fffa7d5-d173-4ef9-968a-3384c9362fb9","ios":"levelo://app?vid=7fffa7d5-d173-4ef9-968a-3384c9362fb9"},"vehicle_type_id":"4","last_reported":1741378207,"current_range_meters":14000,"station_id":"ce4bh2p2rcd13ifvqdi0","pricing_plan_id":"cebpf4jnsgd1na2vs0mg"},{"bike_id":"fdb80eb9-c361-4af5-9093-d3b52861a5c4","system_id":"levelo_inurba_marseille","lat":43.29036,"lon":5.38646,"is_reserved":false,"is_disabled":false,"rental_uris":{"android":"levelo://app?vid=fdb80eb9-c361-4af5-9093-d3b52861a5c4","ios":"levelo://app?vid=fdb80eb9-c361-4af5-9093-d3b52861a5c4"},"vehicle_type_id":"4","last_reported":1741378207,"current_range_meters":14000,"station_id":"ce4bh4p2rcd13ifvqe0g","pricing_plan_id":"cebpf4jnsgd1na2vs0mg"},{"bike_id":"201e16e9-1f9c-45a3-8dec-2d516ef1efcb","system_id":"levelo_inurba_marseille","lat":43.23972,"lon":5.36625,"is_reserved":false,"is_disabled":false,"rental_uris":{"android":"levelo://app?vid=201e16e9-1f9c-45a3-8dec-2d516ef1efcb","ios":"levelo://app?vid=201e16e9-1f9c-45a3-8dec-2d516ef1efcb"},"vehicle_type_id":"4","last_reported":1741378207,"current_range_meters":14000,"station_id":"ce4bhi12rcd13ifvqfp0","pricing_plan_id":"cebpf4jnsgd1na2vs0mg"},{"bike_id":"f479a6d1-3cb4-4f96-b97e-51428b8374e3","system_id":"levelo_inurba_marseille","lat":43.28475,"lon":5.35894,"is_reserved":false,"is_disabled":false,"rental_uris":{"android":"levelo://app?vid=f479a6d1-3cb4-4f96-b97e-51428b8374e3","ios":"levelo://app?vid=f479a6d1-3cb4-4f96-b97e-51428b8374e3"},"vehicle_type_id":"4","last_reported":1741378207,"current_range_meters":14000,"station_id":"ce4bhah2rcd13ifvqei0","pricing_plan_id":"cebpf4jnsgd1na2vs0mg"},{"bike_id":"1c8d4da3-5e9d-4c78-9fdb-c84d6e3bf91b","system_id":"levelo_inurba_marseille","lat":43.32348,"lon":5.40602,"is_reserved":false,"is_disabled":false,"rental_uris":{"android":"levelo://app?vid=1c8d4da3-5e9d-4c78-9fdb-c84d6e3bf91b","ios":"levelo://app?vid=1c8d4da3-5e9d-4c78-9fdb-c84d6e3bf91b"},"vehicle_type_id":"4","last_reported":1741378207,"current_range_meters":14000,"station_id":"ce4bhq92rcd13ifvqhjg","pricing_plan_id":"cebpf4jnsgd1na2vs0mg"},{"bike_id":"75bdcf83-5140-440b-9e92-976e7b768fc9","system_id":"levelo_inurba_marseille","lat":43.2979,"lon":5.3702,"is_reserved":false,"is_disabled":false,"rental_uris":{"android":"levelo://app?vid=75bdcf83-5140-440b-9e92-976e7b768fc9","ios":"levelo://app?vid=75bdcf83-5140-440b-9e92-976e7b768fc9"},"vehicle_type_id":"4","last_reported":1741378207,"current_range_meters":14000,"station_id":"","pricing_plan_id":"cebpf4jnsgd1na2vs0mg"},{"bike_id":"e273a8ea-7162-4043-9a62-9a34f545b216","system_id":"levelo_inurba_marseille","lat":43.29898,"lon":5.43675,"is_reserved":false,"is_disabled":false,"rental_uris":{"android":"levelo://app?vid=e273a8ea-7162-4043-9a62-9a34f545b216","ios":"levelo://app?vid=e273a8ea-7162-4043-9a62-9a34f545b216"},"vehicle_type_id":"4","last_reported":1741378207,"current_range_meters":14400,"station_id":"ce4bhpp2rcd13ifvqhfg","pricing_plan_id":"cebpf4jnsgd1na2vs0mg"},{"bike_id":"d15888b3-84cd-42f5-8973-07174fa936f9","system_id":"levelo_inurba_marseille","lat":43.31442,"lon":5.37387,"is_reserved":false,"is_disabled":false,"rental_uris":{"android":"levelo://app?vid=d15888b3-84cd-42f5-8973-07174fa936f9","ios":"levelo://app?vid=d15888b3-84cd-42f5-8973-07174fa936f9"},"vehicle_type_id":"4","last_reported":1741378207,"current_range_meters":14400,"station_id":"","pricing_plan_id":"cebpf4jnsgd1na2vs0mg"},{"bike_id":"a7459be9-91f5-4de3-b694-8c9428dd2eee","system_id":"levelo_inurba_marseille","lat":43.308889,"lon":5.396663,"is_reserved":false,"is_disabled":false,"rental_uris":{"android":"levelo://app?vid=a7459be9-91f5-4de3-b694-8c9428dd2eee","ios":"levelo://app?vid=a7459be9-91f5-4de3-b694-8c9428dd2eee"},"vehicle_type_id":"4","last_reported":1741378207,"current_range_meters":14400,"station_id":"ce4bh012rcd13ifvqcv0","pricing_plan_id":"cebpf4jnsgd1na2vs0mg"},{"bike_id":"7b67bc2f-3a0e-4975-a763-28e44cad944c","system_id":"levelo_inurba_marseille","lat":43.30054,"lon":5.38648,"is_reserved":false,"is_disabled":false,"rental_uris":{"android":"levelo://app?vid=7b67bc2f-3a0e-4975-a763-28e44cad944c","ios":"levelo://app?vid=7b67bc2f-3a0e-4975-a763-28e44cad944c"},"vehicle_type_id":"4","last_reported":1741378207,"current_range_meters":14800,"station_id":"ce4bh4p2rcd13ifvqe0g","pricing_plan_id":"cebpf4jnsgd1na2vs0mg"},{"bike_id":"7a8959cf-cba4-472b-a67f-21d9d3e5e3a1","system_id":"levelo_inurba_marseille","lat":43.244,"lon":5.43759,"is_reserved":false,"is_disabled":false,"rental_uris":{"android":"levelo://app?vid=7a8959cf-cba4-472b-a67f-21d9d3e5e3a1","ios":"levelo://app?vid=7a8959cf-cba4-472b-a67f-21d9d3e5e3a1"},"vehicle_type_id":"4","last_reported":1741378207,"current_range_meters":14800,"station_id":"","pricing_plan_id":"cebpf4jnsgd1na2vs0mg"},{"bike_id":"c574f2cd-14ab-465a-8237-e9e551af029d","system_id":"levelo_inurba_marseille","lat":43.29552,"lon":5.38554,"is_reserved":false,"is_disabled":false,"rental_uris":{"android":"levelo://app?vid=c574f2cd-14ab-465a-8237-e9e551af029d","ios":"levelo://app?vid=c574f2cd-14ab-465a-8237-e9e551af029d"},"vehicle_type_id":"4","last_reported":1741378207,"current_range_meters":14800,"station_id":"ce4bgih2rcd13ifvqba0","pricing_plan_id":"cebpf4jnsgd1na2vs0mg"},{"bike_id":"90954e6e-1ec8-49e2-ba01-811da43dabf5","system_id":"levelo_inurba_marseille","lat":43.27332,"lon":5.39084,"is_reserved":false,"is_disabled":false,"rental_uris":{"android":"levelo://app?vid=90954e6e-1ec8-49e2-ba01-811da43dabf5","ios":"levelo://app?vid=90954e6e-1ec8-49e2-ba01-811da43dabf5"},"vehicle_type_id":"4","last_reported":1741378207,"current_range_meters":14800,"station_id":"ce4bhgp2rcd13ifvqfe0","pricing_plan_id":"cebpf4jnsgd1na2vs0mg"},{"bike_id":"30db2107-7040-4853-9ce8-19617acb9784","system_id":"levelo_inurba_marseille","lat":43.28461,"lon":5.35888,"is_reserved":false,"is_disabled":false,"rental_uris":{"android":"levelo://app?vid=30db2107-7040-4853-9ce8-19617acb9784","ios":"levelo://app?vid=30db2107-7040-4853-9ce8-19617acb9784"},"vehicle_type_id":"4","last_reported":1741378207,"current_range_meters":14400,"station_id":"ce4bhah2rcd13ifvqei0","pricing_plan_id":"cebpf4jnsgd1na2vs0mg"},{"bike_id":"8e43052e-86ee-431c-a3c5-7b2cafc0c661","system_id":"levelo_inurba_marseille","lat":43.27332,"lon":5.39099,"is_reserved":false,"is_disabled":true,"rental_uris":{"android":"levelo://app?vid=8e43052e-86ee-431c-a3c5-7b2cafc0c661","ios":"levelo://app?vid=8e43052e-86ee-431c-a3c5-7b2cafc0c661"},"vehicle_type_id":"4","last_reported":1741378207,"current_range_meters":15200,"station_id":"ce4bhgp2rcd13ifvqfe0","pricing_plan_id":"cebpf4jnsgd1na2vs0mg"},{"bike_id":"b2c2514d-58df-4080-9acc-0a3325c87525","system_id":"levelo_inurba_marseille","lat":43.32375,"lon":5.36769,"is_reserved":false,"is_disabled":false,"rental_uris":{"android":"levelo://app?vid=b2c2514d-58df-4080-9acc-0a3325c87525","ios":"levelo://app?vid=b2c2514d-58df-4080-9acc-0a3325c87525"},"vehicle_type_id":"4","last_reported":1741378207,"current_range_meters":15200,"station_id":"ce4bhsh2rcd13ifvqi2g","pricing_plan_id":"cebpf4jnsgd1na2vs0mg"},{"bike_id":"a89b725e-49ab-4067-a54d-d2972ea19f3d","system_id":"levelo_inurba_marseille","lat":43.24549,"lon":5.39528,"is_reserved":false,"is_disabled":false,"rental_uris":{"android":"levelo://app?vid=a89b725e-49ab-4067-a54d-d2972ea19f3d","ios":"levelo://app?vid=a89b725e-49ab-4067-a54d-d2972ea19f3d"},"vehicle_type_id":"4","last_reported":1741378207,"current_range_meters":15200,"station_id":"ce4bhlp2rcd13ifvqgjg","pricing_plan_id":"cebpf4jnsgd1na2vs0mg"},{"bike_id":"c6edad40-3f3f-456d-987a-b939a411f19a","system_id":"levelo_inurba_marseille","lat":43.29536,"lon":5.38546,"is_reserved":false,"is_disabled":false,"rental_uris":{"android":"levelo://app?vid=c6edad40-3f3f-456d-987a-b939a411f19a","ios":"levelo://app?vid=c6edad40-3f3f-456d-987a-b939a411f19a"},"vehicle_type_id":"4","last_reported":1741378207,"current_range_meters":15200,"station_id":"ce4bgih2rcd13ifvqba0","pricing_plan_id":"cebpf4jnsgd1na2vs0mg"},{"bike_id":"f4d28239-3b9e-4a27-9f2f-8304440d696c","system_id":"levelo_inurba_marseille","lat":43.31689,"lon":5.40471,"is_reserved":false,"is_disabled":false,"rental_uris":{"android":"levelo://app?vid=f4d28239-3b9e-4a27-9f2f-8304440d696c","ios":"levelo://app?vid=f4d28239-3b9e-4a27-9f2f-8304440d696c"},"vehicle_type_id":"4","last_reported":1741378207,"current_range_meters":15200,"station_id":"ce4bh012rcd13ifvqd00","pricing_plan_id":"cebpf4jnsgd1na2vs0mg"},{"bike_id":"ac548875-e8d0-4488-8429-c5c379b94fea","system_id":"levelo_inurba_marseille","lat":43.23201,"lon":5.39993,"is_reserved":false,"is_disabled":false,"rental_uris":{"android":"levelo://app?vid=ac548875-e8d0-4488-8429-c5c379b94fea","ios":"levelo://app?vid=ac548875-e8d0-4488-8429-c5c379b94fea"},"vehicle_type_id":"4","last_reported":1741378207,"current_range_meters":16000,"station_id":"ce4bhn12rcd13ifvqgqg","pricing_plan_id":"cebpf4jnsgd1na2vs0mg"},{"bike_id":"bfbfb8b2-951b-41e3-9abb-8ec2115a8df8","system_id":"levelo_inurba_marseille","lat":43.28456,"lon":5.35893,"is_reserved":false,"is_disabled":false,"rental_uris":{"android":"levelo://app?vid=bfbfb8b2-951b-41e3-9abb-8ec2115a8df8","ios":"levelo://app?vid=bfbfb8b2-951b-41e3-9abb-8ec2115a8df8"},"vehicle_type_id":"4","last_reported":1741378207,"current_range_meters":16000,"station_id":"ce4bhah2rcd13ifvqei0","pricing_plan_id":"cebpf4jnsgd1na2vs0mg"},{"bike_id":"388ea826-f5fa-4632-a530-45d13cc0a769","system_id":"levelo_inurba_marseille","lat":43.23211,"lon":5.40008,"is_reserved":false,"is_disabled":false,"rental_uris":{"android":"levelo://app?vid=388ea826-f5fa-4632-a530-45d13cc0a769","ios":"levelo://app?vid=388ea826-f5fa-4632-a530-45d13cc0a769"},"vehicle_type_id":"4","last_reported":1741378207,"current_range_meters":16000,"station_id":"ce4bhn12rcd13ifvqgqg","pricing_plan_id":"cebpf4jnsgd1na2vs0mg"},{"bike_id":"ec60d729-9d2f-4af8-a756-ddc8b5c726d9","system_id":"levelo_inurba_marseille","lat":43.28674,"lon":5.3868,"is_reserved":false,"is_disabled":false,"rental_uris":{"android":"levelo://app?vid=ec60d729-9d2f-4af8-a756-ddc8b5c726d9","ios":"levelo://app?vid=ec60d729-9d2f-4af8-a756-ddc8b5c726d9"},"vehicle_type_id":"4","last_reported":1741378207,"current_range_meters":16000,"station_id":"ce4bh492rcd13ifvqdug","pricing_plan_id":"cebpf4jnsgd1na2vs0mg"},{"bike_id":"3cf052cf-4d7b-433f-962b-a4b302f698e4","system_id":"levelo_inurba_marseille","lat":43.27996,"lon":5.40053,"is_reserved":false,"is_disabled":false,"rental_uris":{"android":"levelo://app?vid=3cf052cf-4d7b-433f-962b-a4b302f698e4","ios":"levelo://app?vid=3cf052cf-4d7b-433f-962b-a4b302f698e4"},"vehicle_type_id":"4","last_reported":1741378207,"current_range_meters":16000,"station_id":"ce4bho92rcd13ifvqh4g","pricing_plan_id":"cebpf4jnsgd1na2vs0mg"},{"bike_id":"c4440271-3fcf-4ba1-a76e-05e2a3eefe6d","system_id":"levelo_inurba_marseille","lat":43.29876,"lon":5.38114,"is_reserved":false,"is_disabled":true,"rental_uris":{"android":"levelo://app?vid=c4440271-3fcf-4ba1-a76e-05e2a3eefe6d","ios":"levelo://app?vid=c4440271-3fcf-4ba1-a76e-05e2a3eefe6d"},"vehicle_type_id":"4","last_reported":1741378207,"current_range_meters":16000,"station_id":"ce4bgj12rcd13ifvqbc0","pricing_plan_id":"cebpf4jnsgd1na2vs0mg"},{"bike_id":"99e36b03-8a61-4028-92fa-909f701d8a2b","system_id":"levelo_inurba_marseille","lat":43.29425,"lon":5.38623,"is_reserved":false,"is_disabled":false,"rental_uris":{"android":"levelo://app?vid=99e36b03-8a61-4028-92fa-909f701d8a2b","ios":"levelo://app?vid=99e36b03-8a61-4028-92fa-909f701d8a2b"},"vehicle_type_id":"4","last_reported":1741378207,"current_range_meters":16000,"station_id":"ce4bh2h2rcd13ifvqdh0","pricing_plan_id":"cebpf4jnsgd1na2vs0mg"},{"bike_id":"1ff664cb-f378-4a6c-b3c1-b47ee25a2174","system_id":"levelo_inurba_marseille","lat":43.32384,"lon":5.38878,"is_reserved":false,"is_disabled":false,"rental_uris":{"android":"levelo://app?vid=1ff664cb-f378-4a6c-b3c1-b47ee25a2174","ios":"levelo://app?vid=1ff664cb-f378-4a6c-b3c1-b47ee25a2174"},"vehicle_type_id":"4","last_reported":1741378207,"current_range_meters":16000,"station_id":"ce4bhqp2rcd13ifvqhog","pricing_plan_id":"cebpf4jnsgd1na2vs0mg"},{"bike_id":"65d2271a-97b5-4913-95aa-cf77a293f0eb","system_id":"levelo_inurba_marseille","lat":43.26066,"lon":5.37554,"is_reserved":false,"is_disabled":false,"rental_uris":{"android":"levelo://app?vid=65d2271a-97b5-4913-95aa-cf77a293f0eb","ios":"levelo://app?vid=65d2271a-97b5-4913-95aa-cf77a293f0eb"},"vehicle_type_id":"4","last_reported":1741378207,"current_range_meters":16000,"station_id":"ce4bhgh2rcd13ifvqfa0","pricing_plan_id":"cebpf4jnsgd1na2vs0mg"},{"bike_id":"c3821921-6f0e-4522-ac7a-982a8ffe12d7","system_id":"levelo_inurba_marseille","lat":43.288385,"lon":5.35866,"is_reserved":false,"is_disabled":false,"rental_uris":{"android":"levelo://app?vid=c3821921-6f0e-4522-ac7a-982a8ffe12d7","ios":"levelo://app?vid=c3821921-6f0e-4522-ac7a-982a8ffe12d7"},"vehicle_type_id":"4","last_reported":1741378207,"current_range_meters":16000,"station_id":"ce4bhb12rcd13ifvqem0","pricing_plan_id":"cebpf4jnsgd1na2vs0mg"},{"bike_id":"94ce5981-eff5-4d33-9139-b1defa35a16f","system_id":"levelo_inurba_marseille","lat":43.28666,"lon":5.36352,"is_reserved":false,"is_disabled":false,"rental_uris":{"android":"levelo://app?vid=94ce5981-eff5-4d33-9139-b1defa35a16f","ios":"levelo://app?vid=94ce5981-eff5-4d33-9139-b1defa35a16f"},"vehicle_type_id":"4","last_reported":1741378207,"current_range_meters":16000,"station_id":"ce4bhah2rcd13ifvqej0","pricing_plan_id":"cebpf4jnsgd1na2vs0mg"},{"bike_id":"cbc52a4d-b1a3-4bdf-8ed7-d851e16ba8f2","system_id":"levelo_inurba_marseille","lat":43.276566,"lon":5.389315,"is_reserved":false,"is_disabled":true,"rental_uris":{"android":"levelo://app?vid=cbc52a4d-b1a3-4bdf-8ed7-d851e16ba8f2","ios":"levelo://app?vid=cbc52a4d-b1a3-4bdf-8ed7-d851e16ba8f2"},"vehicle_type_id":"4","last_reported":1741378207,"current_range_meters":16400,"station_id":"ce4bhi12rcd13ifvqfo0","pricing_plan_id":"cebpf4jnsgd1na2vs0mg"},{"bike_id":"fbf804d7-6c73-46e9-abdb-acb74deb6dc4","system_id":"levelo_inurba_marseille","lat":43.23081,"lon":5.3553,"is_reserved":false,"is_disabled":false,"rental_uris":{"android":"levelo://app?vid=fbf804d7-6c73-46e9-abdb-acb74deb6dc4","ios":"levelo://app?vid=fbf804d7-6c73-46e9-abdb-acb74deb6dc4"},"vehicle_type_id":"4","last_reported":1741378207,"current_range_meters":16400,"station_id":"cpo3342slgdg3j2ifvpg","pricing_plan_id":"cebpf4jnsgd1na2vs0mg"},{"bike_id":"60cb6e94-6ce8-42d7-b893-b8661dc60ebf","system_id":"levelo_inurba_marseille","lat":43.3014,"lon":5.37426,"is_reserved":false,"is_disabled":false,"rental_uris":{"android":"levelo://app?vid=60cb6e94-6ce8-42d7-b893-b8661dc60ebf","ios":"levelo://app?vid=60cb6e94-6ce8-42d7-b893-b8661dc60ebf"},"vehicle_type_id":"4","last_reported":1741378207,"current_range_meters":16400,"station_id":"ce4bgs92rcd13ifvqcc0","pricing_plan_id":"cebpf4jnsgd1na2vs0mg"},{"bike_id":"f8a2ceff-1147-47a3-a7f8-10b3999ab6ad","system_id":"levelo_inurba_marseille","lat":43.29981,"lon":5.37172,"is_reserved":false,"is_disabled":false,"rental_uris":{"android":"levelo://app?vid=f8a2ceff-1147-47a3-a7f8-10b3999ab6ad","ios":"levelo://app?vid=f8a2ceff-1147-47a3-a7f8-10b3999ab6ad"},"vehicle_type_id":"4","last_reported":1741378207,"current_range_meters":16000,"station_id":"ce4bgr92rcd13ifvqc7g","pricing_plan_id":"cebpf4jnsgd1na2vs0mg"},{"bike_id":"2464910a-c864-418c-a27f-8f7923d02717","system_id":"levelo_inurba_marseille","lat":43.295208,"lon":5.375033,"is_reserved":false,"is_disabled":false,"rental_uris":{"android":"levelo://app?vid=2464910a-c864-418c-a27f-8f7923d02717","ios":"levelo://app?vid=2464910a-c864-418c-a27f-8f7923d02717"},"vehicle_type_id":"4","last_reported":1741378207,"current_range_meters":16400,"station_id":"ce4bgkp2rcd13ifvqbmg","pricing_plan_id":"cebpf4jnsgd1na2vs0mg"},{"bike_id":"ca1ac6f9-8304-441d-b17f-201bcc008dae","system_id":"levelo_inurba_marseille","lat":43.34381,"lon":5.39928,"is_reserved":false,"is_disabled":false,"rental_uris":{"android":"levelo://app?vid=ca1ac6f9-8304-441d-b17f-201bcc008dae","ios":"levelo://app?vid=ca1ac6f9-8304-441d-b17f-201bcc008dae"},"vehicle_type_id":"4","last_reported":1741378207,"current_range_meters":16400,"station_id":"","pricing_plan_id":"cebpf4jnsgd1na2vs0mg"},{"bike_id":"04c4cbfb-3c13-46ff-ae3e-632e8430fbcd","system_id":"levelo_inurba_marseille","lat":43.29917,"lon":5.38143,"is_reserved":false,"is_disabled":false,"rental_uris":{"android":"levelo://app?vid=04c4cbfb-3c13-46ff-ae3e-632e8430fbcd","ios":"levelo://app?vid=04c4cbfb-3c13-46ff-ae3e-632e8430fbcd"},"vehicle_type_id":"4","last_reported":1741378207,"current_range_meters":16400,"station_id":"ce4bgj12rcd13ifvqbc0","pricing_plan_id":"cebpf4jnsgd1na2vs0mg"},{"bike_id":"47d8103a-5ad4-4a41-881e-de00f240f211","system_id":"levelo_inurba_marseille","lat":43.29265,"lon":5.38439,"is_reserved":false,"is_disabled":false,"rental_uris":{"android":"levelo://app?vid=47d8103a-5ad4-4a41-881e-de00f240f211","ios":"levelo://app?vid=47d8103a-5ad4-4a41-881e-de00f240f211"},"vehicle_type_id":"4","last_reported":1741378207,"current_range_meters":16400,"station_id":"ce4bh692rcd13ifvqea0","pricing_plan_id":"cebpf4jnsgd1na2vs0mg"},{"bike_id":"e785969c-8172-4986-b3d6-12315abcd52f","system_id":"levelo_inurba_marseille","lat":43.29313,"lon":5.37185,"is_reserved":false,"is_disabled":false,"rental_uris":{"android":"levelo://app?vid=e785969c-8172-4986-b3d6-12315abcd52f","ios":"levelo://app?vid=e785969c-8172-4986-b3d6-12315abcd52f"},"vehicle_type_id":"4","last_reported":1741378207,"current_range_meters":16400,"station_id":"ce4bgh92rcd13ifvqb40","pricing_plan_id":"cebpf4jnsgd1na2vs0mg"},{"bike_id":"c1c412b3-ae23-45ab-894a-fe5b494cc9e6","system_id":"levelo_inurba_marseille","lat":43.23187,"lon":5.3556,"is_reserved":false,"is_disabled":false,"rental_uris":{"android":"levelo://app?vid=c1c412b3-ae23-45ab-894a-fe5b494cc9e6","ios":"levelo://app?vid=c1c412b3-ae23-45ab-894a-fe5b494cc9e6"},"vehicle_type_id":"4","last_reported":1741378207,"current_range_meters":16400,"station_id":"ce4bhu92rcd13ifvqi70","pricing_plan_id":"cebpf4jnsgd1na2vs0mg"},{"bike_id":"f7e9b982-a422-4fcf-9e6d-0d3291250157","system_id":"levelo_inurba_marseille","lat":43.29876,"lon":5.39735,"is_reserved":false,"is_disabled":false,"rental_uris":{"android":"levelo://app?vid=f7e9b982-a422-4fcf-9e6d-0d3291250157","ios":"levelo://app?vid=f7e9b982-a422-4fcf-9e6d-0d3291250157"},"vehicle_type_id":"4","last_reported":1741378207,"current_range_meters":16400,"station_id":"ce4bh0h2rcd13ifvqd50","pricing_plan_id":"cebpf4jnsgd1na2vs0mg"},{"bike_id":"21a97c5e-42a1-42dc-8f0b-c09a56ace1b8","system_id":"levelo_inurba_marseille","lat":43.30406,"lon":5.42503,"is_reserved":false,"is_disabled":true,"rental_uris":{"android":"levelo://app?vid=21a97c5e-42a1-42dc-8f0b-c09a56ace1b8","ios":"levelo://app?vid=21a97c5e-42a1-42dc-8f0b-c09a56ace1b8"},"vehicle_type_id":"4","last_reported":1741378207,"current_range_meters":16400,"station_id":"","pricing_plan_id":"cebpf4jnsgd1na2vs0mg"},{"bike_id":"95936caa-1f4e-46e1-af83-370d03622e59","system_id":"levelo_inurba_marseille","lat":43.30122,"lon":5.39074,"is_reserved":false,"is_disabled":true,"rental_uris":{"android":"levelo://app?vid=95936caa-1f4e-46e1-af83-370d03622e59","ios":"levelo://app?vid=95936caa-1f4e-46e1-af83-370d03622e59"},"vehicle_type_id":"4","last_reported":1741378207,"current_range_meters":16400,"station_id":"ce4bh192rcd13ifvqdb0","pricing_plan_id":"cebpf4jnsgd1na2vs0mg"},{"bike_id":"c7693b23-8416-44fc-ac49-0b4269d44565","system_id":"levelo_inurba_marseille","lat":43.29839,"lon":5.36227,"is_reserved":false,"is_disabled":false,"rental_uris":{"android":"levelo://app?vid=c7693b23-8416-44fc-ac49-0b4269d44565","ios":"levelo://app?vid=c7693b23-8416-44fc-ac49-0b4269d44565"},"vehicle_type_id":"4","last_reported":1741378207,"current_range_meters":16800,"station_id":"ce4bgpp2rcd13ifvqc3g","pricing_plan_id":"cebpf4jnsgd1na2vs0mg"},{"bike_id":"d33c150a-70fb-4abf-be7d-dc1084c4cc7d","system_id":"levelo_inurba_marseille","lat":43.29545,"lon":5.37518,"is_reserved":false,"is_disabled":false,"rental_uris":{"android":"levelo://app?vid=d33c150a-70fb-4abf-be7d-dc1084c4cc7d","ios":"levelo://app?vid=d33c150a-70fb-4abf-be7d-dc1084c4cc7d"},"vehicle_type_id":"4","last_reported":1741378207,"current_range_meters":16800,"station_id":"ce4bgkp2rcd13ifvqbmg","pricing_plan_id":"cebpf4jnsgd1na2vs0mg"},{"bike_id":"60697339-09de-45d7-8033-be2ecf53f2b5","system_id":"levelo_inurba_marseille","lat":43.28373,"lon":5.38113,"is_reserved":false,"is_disabled":false,"rental_uris":{"android":"levelo://app?vid=60697339-09de-45d7-8033-be2ecf53f2b5","ios":"levelo://app?vid=60697339-09de-45d7-8033-be2ecf53f2b5"},"vehicle_type_id":"4","last_reported":1741378207,"current_range_meters":17200,"station_id":"ce4bh412rcd13ifvqdr0","pricing_plan_id":"cebpf4jnsgd1na2vs0mg"},{"bike_id":"eaa11e71-3adb-4f3e-bee9-835c4e6d9c69","system_id":"levelo_inurba_marseille","lat":43.26203,"lon":5.37442,"is_reserved":false,"is_disabled":false,"rental_uris":{"android":"levelo://app?vid=eaa11e71-3adb-4f3e-bee9-835c4e6d9c69","ios":"levelo://app?vid=eaa11e71-3adb-4f3e-bee9-835c4e6d9c69"},"vehicle_type_id":"4","last_reported":1741378207,"current_range_meters":17200,"station_id":"ce4bhgp2rcd13ifvqfc0","pricing_plan_id":"cebpf4jnsgd1na2vs0mg"},{"bike_id":"d0dccc38-ea8f-4140-8831-b3d21f355bd2","system_id":"levelo_inurba_marseille","lat":43.29194,"lon":5.37164,"is_reserved":false,"is_disabled":false,"rental_uris":{"android":"levelo://app?vid=d0dccc38-ea8f-4140-8831-b3d21f355bd2","ios":"levelo://app?vid=d0dccc38-ea8f-4140-8831-b3d21f355bd2"},"vehicle_type_id":"4","last_reported":1741378207,"current_range_meters":17200,"station_id":"ce4bha92rcd13ifvqeh0","pricing_plan_id":"cebpf4jnsgd1na2vs0mg"},{"bike_id":"ca1ba0b8-b8b8-4138-9a53-150b46de62cf","system_id":"levelo_inurba_marseille","lat":43.29314,"lon":5.3719,"is_reserved":false,"is_disabled":false,"rental_uris":{"android":"levelo://app?vid=ca1ba0b8-b8b8-4138-9a53-150b46de62cf","ios":"levelo://app?vid=ca1ba0b8-b8b8-4138-9a53-150b46de62cf"},"vehicle_type_id":"4","last_reported":1741378207,"current_range_meters":17200,"station_id":"ce4bgh92rcd13ifvqb40","pricing_plan_id":"cebpf4jnsgd1na2vs0mg"},{"bike_id":"976044b2-6c39-4029-b0bf-0814a0d0e543","system_id":"levelo_inurba_marseille","lat":43.28852,"lon":5.35834,"is_reserved":false,"is_disabled":false,"rental_uris":{"android":"levelo://app?vid=976044b2-6c39-4029-b0bf-0814a0d0e543","ios":"levelo://app?vid=976044b2-6c39-4029-b0bf-0814a0d0e543"},"vehicle_type_id":"4","last_reported":1741378207,"current_range_meters":17200,"station_id":"ce4bhb12rcd13ifvqem0","pricing_plan_id":"cebpf4jnsgd1na2vs0mg"},{"bike_id":"2c90315b-04be-4d97-a0ec-6e35462bdb80","system_id":"levelo_inurba_marseille","lat":43.29802,"lon":5.38094,"is_reserved":false,"is_disabled":false,"rental_uris":{"android":"levelo://app?vid=2c90315b-04be-4d97-a0ec-6e35462bdb80","ios":"levelo://app?vid=2c90315b-04be-4d97-a0ec-6e35462bdb80"},"vehicle_type_id":"4","last_reported":1741378207,"current_range_meters":17200,"station_id":"ce4bgip2rcd13ifvqbb0","pricing_plan_id":"cebpf4jnsgd1na2vs0mg"},{"bike_id":"f63a2e4f-02af-4973-938a-b7f0345b46a9","system_id":"levelo_inurba_marseille","lat":43.294171,"lon":5.386296,"is_reserved":false,"is_disabled":false,"rental_uris":{"android":"levelo://app?vid=f63a2e4f-02af-4973-938a-b7f0345b46a9","ios":"levelo://app?vid=f63a2e4f-02af-4973-938a-b7f0345b46a9"},"vehicle_type_id":"4","last_reported":1741378207,"current_range_meters":17200,"station_id":"ce4bh2h2rcd13ifvqdh0","pricing_plan_id":"cebpf4jnsgd1na2vs0mg"},{"bike_id":"bb28e1a5-f346-4ea6-aced-14ee9ec77e95","system_id":"levelo_inurba_marseille","lat":43.29255,"lon":5.38439,"is_reserved":false,"is_disabled":false,"rental_uris":{"android":"levelo://app?vid=bb28e1a5-f346-4ea6-aced-14ee9ec77e95","ios":"levelo://app?vid=bb28e1a5-f346-4ea6-aced-14ee9ec77e95"},"vehicle_type_id":"4","last_reported":1741378207,"current_range_meters":17200,"station_id":"ce4bh692rcd13ifvqea0","pricing_plan_id":"cebpf4jnsgd1na2vs0mg"},{"bike_id":"fde65d0e-62ed-4926-a6b0-2ca76c6d86e9","system_id":"levelo_inurba_marseille","lat":43.29263,"lon":5.38443,"is_reserved":false,"is_disabled":false,"rental_uris":{"android":"levelo://app?vid=fde65d0e-62ed-4926-a6b0-2ca76c6d86e9","ios":"levelo://app?vid=fde65d0e-62ed-4926-a6b0-2ca76c6d86e9"},"vehicle_type_id":"4","last_reported":1741378207,"current_range_meters":17200,"station_id":"ce4bh692rcd13ifvqea0","pricing_plan_id":"cebpf4jnsgd1na2vs0mg"},{"bike_id":"be060fc0-6acd-4a90-8572-1adb4a452548","system_id":"levelo_inurba_marseille","lat":43.29253,"lon":5.38431,"is_reserved":false,"is_disabled":false,"rental_uris":{"android":"levelo://app?vid=be060fc0-6acd-4a90-8572-1adb4a452548","ios":"levelo://app?vid=be060fc0-6acd-4a90-8572-1adb4a452548"},"vehicle_type_id":"4","last_reported":1741378207,"current_range_meters":17200,"station_id":"ce4bh692rcd13ifvqea0","pricing_plan_id":"cebpf4jnsgd1na2vs0mg"},{"bike_id":"352ea3a0-c2fe-4248-a45b-522ee1401006","system_id":"levelo_inurba_marseille","lat":43.29817,"lon":5.3808,"is_reserved":false,"is_disabled":false,"rental_uris":{"android":"levelo://app?vid=352ea3a0-c2fe-4248-a45b-522ee1401006","ios":"levelo://app?vid=352ea3a0-c2fe-4248-a45b-522ee1401006"},"vehicle_type_id":"4","last_reported":1741378207,"current_range_meters":17200,"station_id":"ce4bgip2rcd13ifvqbb0","pricing_plan_id":"cebpf4jnsgd1na2vs0mg"},{"bike_id":"c87cc532-4667-4d67-8dca-10843a0bba8b","system_id":"levelo_inurba_marseille","lat":43.28687,"lon":5.38657,"is_reserved":false,"is_disabled":false,"rental_uris":{"android":"levelo://app?vid=c87cc532-4667-4d67-8dca-10843a0bba8b","ios":"levelo://app?vid=c87cc532-4667-4d67-8dca-10843a0bba8b"},"vehicle_type_id":"4","last_reported":1741378207,"current_range_meters":17200,"station_id":"ce4bh492rcd13ifvqdug","pricing_plan_id":"cebpf4jnsgd1na2vs0mg"},{"bike_id":"1b326c63-0a3b-44dd-8b23-2c4cc589955f","system_id":"levelo_inurba_marseille","lat":43.27976,"lon":5.38737,"is_reserved":false,"is_disabled":false,"rental_uris":{"android":"levelo://app?vid=1b326c63-0a3b-44dd-8b23-2c4cc589955f","ios":"levelo://app?vid=1b326c63-0a3b-44dd-8b23-2c4cc589955f"},"vehicle_type_id":"4","last_reported":1741378207,"current_range_meters":17200,"station_id":"ce4bhg12rcd13ifvqf80","pricing_plan_id":"cebpf4jnsgd1na2vs0mg"},{"bike_id":"f792590d-bde2-4e6e-8be9-986a710bb7f1","system_id":"levelo_inurba_marseille","lat":43.29898,"lon":5.38266,"is_reserved":false,"is_disabled":false,"rental_uris":{"android":"levelo://app?vid=f792590d-bde2-4e6e-8be9-986a710bb7f1","ios":"levelo://app?vid=f792590d-bde2-4e6e-8be9-986a710bb7f1"},"vehicle_type_id":"4","last_reported":1741378207,"current_range_meters":17200,"station_id":"","pricing_plan_id":"cebpf4jnsgd1na2vs0mg"},{"bike_id":"0a9bc1bd-e305-40d4-8852-5005300b12a0","system_id":"levelo_inurba_marseille","lat":43.2294,"lon":5.35385,"is_reserved":false,"is_disabled":false,"rental_uris":{"android":"levelo://app?vid=0a9bc1bd-e305-40d4-8852-5005300b12a0","ios":"levelo://app?vid=0a9bc1bd-e305-40d4-8852-5005300b12a0"},"vehicle_type_id":"4","last_reported":1741378207,"current_range_meters":17600,"station_id":"cpo3532slgdg3j2ikp40","pricing_plan_id":"cebpf4jnsgd1na2vs0mg"},{"bike_id":"57acf102-f5ae-4cbf-af79-a1f6fd7403f6","system_id":"levelo_inurba_marseille","lat":43.28734,"lon":5.36105,"is_reserved":false,"is_disabled":false,"rental_uris":{"android":"levelo://app?vid=57acf102-f5ae-4cbf-af79-a1f6fd7403f6","ios":"levelo://app?vid=57acf102-f5ae-4cbf-af79-a1f6fd7403f6"},"vehicle_type_id":"4","last_reported":1741378207,"current_range_meters":17600,"station_id":"cki0cbj6b192h4jlfktg","pricing_plan_id":"cebpf4jnsgd1na2vs0mg"},{"bike_id":"83745563-0da9-4fa2-b213-b4ffe3629c69","system_id":"levelo_inurba_marseille","lat":43.29551,"lon":5.3855,"is_reserved":false,"is_disabled":false,"rental_uris":{"android":"levelo://app?vid=83745563-0da9-4fa2-b213-b4ffe3629c69","ios":"levelo://app?vid=83745563-0da9-4fa2-b213-b4ffe3629c69"},"vehicle_type_id":"4","last_reported":1741378207,"current_range_meters":17600,"station_id":"ce4bgih2rcd13ifvqba0","pricing_plan_id":"cebpf4jnsgd1na2vs0mg"},