{"last_updated":1743513687,"ttl":60,"version":"2.2","data":{"bikes":[{"bike_id":"f28a2132-9d11-411c-a599-c4352a550e43","system_id":"levelo_inurba_marseille","lat":43.249,"lon":5.3938,"is_reserved":false,"is_disabled":true,"rental_uris":{"android":"levelo://app?vid=f28a2132-9d11-411c-a599-c4352a550e43","ios":"levelo://app?vid=f28a2132-9d11-411c-a599-c4352a550e43"},"vehicle_type_id":"4","last_reported":1743513688,"current_range_meters":0,"station_id":"","pricing_plan_id":"cebpf4jnsgd1na2vs0mg"},{"bike_id":"e4023b76-3b3e-4e0a-83d8-f1f2c86a9a1a","system_id":"levelo_inurba_marseille","lat":43.26056,"lon":5.38639,"is_reserved":false,"is_disabled":true,"rental_uris":{"android":"levelo://app?vid=e4023b76-3b3e-4e0a-83d8-f1f2c86a9a1a","ios":"levelo://app?vid=e4023b76-3b3e-4e0a-83d8-f1f2c86a9a1a"},"vehicle_type_id":"4","last_reported":1743513688,"current_range_meters":0,"station_id":"","pricing_plan_id":"cebpf4jnsgd1na2vs0mg"},{"bike_id":"f5d7baaf-c3b6-4714-ade1-a7553acc3f6e","system_id":"levelo_inurba_marseille","lat":43.30462,"lon":5.41708,"is_reserved":false,"is_disabled":true,"rental_uris":{"android":"levelo://app?vid=f5d7baaf-c3b6-4714-ade1-a7553acc3f6e","ios":"levelo://app?vid=f5d7baaf-c3b6-4714-ade1-a7553acc3f6e"},"vehicle_type_id":"4","last_reported":1743513688,"current_range_meters":0,"station_id":"","pricing_plan_id":"cebpf4jnsgd1na2vs0mg"},{"bike_id":"288bb5a4-8592-4715-9f1c-af47147cb3c6","system_id":"levelo_inurba_marseille","lat":43.26151,"lon":5.41629,"is_reserved":false,"is_disabled":true,"rental_uris":{"android":"levelo://app?vid=288bb5a4-8592-4715-9f1c-af47147cb3c6","ios":"levelo://app?vid=288bb5a4-8592-4715-9f1c-af47147cb3c6"},"vehicle_type_id":"4","last_reported":1743513688,"current_range_meters":0,"station_id":"","pricing_plan_id":"cebpf4jnsgd1na2vs0mg"},{"bike_id":"384b53be-0dd1-4ff6-96b3-76e22c52ec3c","system_id":"levelo_inurba_marseille","lat":43.27663,"lon":5.41878,"is_reserved":false,"is_disabled":true,"rental_uris":{"android":"levelo://app?vid=384b53be-0dd1-4ff6-96b3-76e22c52ec3c","ios":"levelo://app?vid=384b53be-0dd1-4ff6-96b3-76e22c52ec3c"},"vehicle_type_id":"4","last_reported":1743513688,"current_range_meters":0,"station_id":"","pricing_plan_id":"cebpf4jnsgd1na2vs0mg"},{"bike_id":"3576b946-70b3-456f-a60a-d98e227f015c","system_id":"levelo_inurba_marseille","lat":43.30131,"lon":5.38253,"is_reserved":false,"is_disabled":true,"rental_uris":{"android":"levelo://app?vid=3576b946-70b3-456f-a60a-d98e227f015c","ios":"levelo://app?vid=3576b946-70b3-456f-a60a-d98e227f015c"},"vehicle_type_id":"4","last_reported":1743513688,"current_range_meters":0,"station_id":"ce4bgup2rcd13ifvqcn0","pricing_plan_id":"cebpf4jnsgd1na2vs0mg"},{"bike_id":"8f053676-2937-43a8-a9c8-da04fcc249ea","system_id":"levelo_inurba_marseille","lat":43.29099,"lon":5.38122,"is_reserved":false,"is_disabled":true,"rental_uris":{"android":"levelo://app?vid=8f053676-2937-43a8-a9c8-da04fcc249ea","ios":"levelo://app?vid=8f053676-2937-43a8-a9c8-da04fcc249ea"},"vehicle_type_id":"4","last_reported":1743513688,"current_range_meters":0,"station_id":"ce4bh512rcd13ifvqe2g","pricing_plan_id":"cebpf4jnsgd1na2vs0mg"},{"bike_id":"7f1806d6-943f-486d-a68e-bc1d1371e6ef","system_id":"levelo_inurba_marseille","lat":43.28219,"lon":5.44473,"is_reserved":false,"is_disabled":true,"rental_uris":{"android":"levelo://app?vid=7f1806d6-943f-486d-a68e-bc1d1371e6ef","ios":"levelo://app?vid=7f1806d6-943f-486d-a68e-bc1d1371e6ef"},"vehicle_type_id":"4","last_reported":1743513688,"current_range_meters":400,"station_id":"","pricing_plan_id":"cebpf4jnsgd1na2vs0mg"},{"bike_id":"d92b8826-b361-41f5-be3a-b865a89cd81d","system_id":"levelo_inurba_marseille","lat":43.304719,"lon":5.367401,"is_reserved":false,"is_disabled":true,"rental_uris":{"android":"levelo://app?vid=d92b8826-b361-41f5-be3a-b865a89cd81d","ios":"levelo://app?vid=d92b8826-b361-41f5-be3a-b865a89cd81d"},"vehicle_type_id":"4","last_reported":1743513688,"current_range_meters":400,"station_id":"","pricing_plan_id":"cebpf4jnsgd1na2vs0mg"},{"bike_id":"dab9ba17-1201-45b4-8f3b-03f0d674327b","system_id":"levelo_inurba_marseille","lat":43.29371,"lon":5.37834,"is_reserved":false,"is_disabled":true,"rental_uris":{"android":"levelo://app?vid=dab9ba17-1201-45b4-8f3b-03f0d674327b","ios":"levelo://app?vid=dab9ba17-1201-45b4-8f3b-03f0d674327b"},"vehicle_type_id":"4","last_reported":1743513688,"current_range_meters":400,"station_id":"ce4bgjh2rcd13ifvqbf0","pricing_plan_id":"cebpf4jnsgd1na2vs0mg"},{"bike_id":"7a636142-c7ed-449a-ac56-c7812ef6113a","system_id":"levelo_inurba_marseille","lat":43.28452,"lon":5.39209,"is_reserved":false,"is_disabled":true,"rental_uris":{"android":"levelo://app?vid=7a636142-c7ed-449a-ac56-c7812ef6113a","ios":"levelo://app?vid=7a636142-c7ed-449a-ac56-c7812ef6113a"},"vehicle_type_id":"4","last_reported":1743513688,"current_range_meters":400,"station_id":"ce4bhoh2rcd13ifvqh5g","pricing_plan_id":"cebpf4jnsgd1na2vs0mg"},{"bike_id":"5c952113-1e9f-4834-a31a-47fbfe3cfc65","system_id":"levelo_inurba_marseille","lat":43.31812,"lon":5.39072,"is_reserved":false,"is_disabled":true,"rental_uris":{"android":"levelo://app?vid=5c952113-1e9f-4834-a31a-47fbfe3cfc65","ios":"levelo://app?vid=5c952113-1e9f-4834-a31a-47fbfe3cfc65"},"vehicle_type_id":"4","last_reported":1743513688,"current_range_meters":800,"station_id":"","pricing_plan_id":"cebpf4jnsgd1na2vs0mg"},{"bike_id":"6cb70c22-b892-4aa4-8fdb-c68d6e90e601","system_id":"levelo_inurba_marseille","lat":43.279509,"lon":5.387576,"is_reserved":false,"is_disabled":true,"rental_uris":{"android":"levelo://app?vid=6cb70c22-b892-4aa4-8fdb-c68d6e90e601","ios":"levelo://app?vid=6cb70c22-b892-4aa4-8fdb-c68d6e90e601"},"vehicle_type_id":"4","last_reported":1743513688,"current_range_meters":800,"station_id":"ce4bhg12rcd13ifvqf80","pricing_plan_id":"cebpf4jnsgd1na2vs0mg"},{"bike_id":"68059844-1188-47b0-aa08-4a004a94d73a","system_id":"levelo_inurba_marseille","lat":43.26218,"lon":5.37443,"is_reserved":false,"is_disabled":true,"rental_uris":{"android":"levelo://app?vid=68059844-1188-47b0-aa08-4a004a94d73a","ios":"levelo://app?vid=68059844-1188-47b0-aa08-4a004a94d73a"},"vehicle_type_id":"4","last_reported":1743513688,"current_range_meters":800,"station_id":"ce4bhgp2rcd13ifvqfc0","pricing_plan_id":"cebpf4jnsgd1na2vs0mg"},{"bike_id":"b0cf013c-3a8d-4f67-a2c0-abe602e420de","system_id":"levelo_inurba_marseille","lat":43.3074,"lon":5.42454,"is_reserved":false,"is_disabled":true,"rental_uris":{"android":"levelo://app?vid=b0cf013c-3a8d-4f67-a2c0-abe602e420de","ios":"levelo://app?vid=b0cf013c-3a8d-4f67-a2c0-abe602e420de"},"vehicle_type_id":"4","last_reported":1743513688,"current_range_meters":800,"station_id":"st_cvj6ca6bvosntc0bfgr0","pricing_plan_id":"cebpf4jnsgd1na2vs0mg"},{"bike_id":"c69f0a25-945e-49db-8775-5f78739f8376","system_id":"levelo_inurba_marseille","lat":43.25581,"lon":5.38244,"is_reserved":false,"is_disabled":true,"rental_uris":{"android":"levelo://app?vid=c69f0a25-945e-49db-8775-5f78739f8376","ios":"levelo://app?vid=c69f0a25-945e-49db-8775-5f78739f8376"},"vehicle_type_id":"4","last_reported":1743513688,"current_range_meters":1200,"station_id":"ce4bhih2rcd13ifvqfs0","pricing_plan_id":"cebpf4jnsgd1na2vs0mg"},{"bike_id":"21e5154d-c66b-4de5-b395-58b5065c9e22","system_id":"levelo_inurba_marseille","lat":43.31223,"lon":5.36851,"is_reserved":false,"is_disabled":true,"rental_uris":{"android":"levelo://app?vid=21e5154d-c66b-4de5-b395-58b5065c9e22","ios":"levelo://app?vid=21e5154d-c66b-4de5-b395-58b5065c9e22"},"vehicle_type_id":"4","last_reported":1743513688,"current_range_meters":1600,"station_id":"ce4bgl92rcd13ifvqbq0","pricing_plan_id":"cebpf4jnsgd1na2vs0mg"},{"bike_id":"c02d93fd-d989-4b95-ba48-078ca4c42075","system_id":"levelo_inurba_marseille","lat":43.27897,"lon":5.37996,"is_reserved":false,"is_disabled":true,"rental_uris":{"android":"levelo://app?vid=c02d93fd-d989-4b95-ba48-078ca4c42075","ios":"levelo://app?vid=c02d93fd-d989-4b95-ba48-078ca4c42075"},"vehicle_type_id":"4","last_reported":1743513688,"current_range_meters":1600,"station_id":"ce4bhf92rcd13ifvqf50","pricing_plan_id":"cebpf4jnsgd1na2vs0mg"},{"bike_id":"2217dab6-8925-4842-a93d-413537c59463","system_id":"levelo_inurba_marseille","lat":43.28491,"lon":5.38411,"is_reserved":false,"is_disabled":true,"rental_uris":{"android":"levelo://app?vid=2217dab6-8925-4842-a93d-413537c59463","ios":"levelo://app?vid=2217dab6-8925-4842-a93d-413537c59463"},"vehicle_type_id":"4","last_reported":1743513688,"current_range_meters":2000,"station_id":"ce4bh512rcd13ifvqe3g","pricing_plan_id":"cebpf4jnsgd1na2vs0mg"},{"bike_id":"8ce53398-5cc1-4315-a0f9-a7dd39c39bfb","system_id":"levelo_inurba_marseille","lat":43.2439,"lon":5.37059,"is_reserved":false,"is_disabled":false,"rental_uris":{"android":"levelo://app?vid=8ce53398-5cc1-4315-a0f9-a7dd39c39bfb","ios":"levelo://app?vid=8ce53398-5cc1-4315-a0f9-a7dd39c39bfb"},"vehicle_type_id":"4","last_reported":1743513688,"current_range_meters":3200,"station_id":"ce4bhhh2rcd13ifvqfk0","pricing_plan_id":"cebpf4jnsgd1na2vs0mg"},{"bike_id":"f45fd1e9-a530-42ad-8dae-1e99d029139c","system_id":"levelo_inurba_marseille","lat":43.32658,"lon":5.40994,"is_reserved":false,"is_disabled":false,"rental_uris":{"android":"levelo://app?vid=f45fd1e9-a530-42ad-8dae-1e99d029139c","ios":"levelo://app?vid=f45fd1e9-a530-42ad-8dae-1e99d029139c"},"vehicle_type_id":"4","last_reported":1743513688,"current_range_meters":3200,"station_id":"ce4bhpp2rcd13ifvqhgg","pricing_plan_id":"cebpf4jnsgd1na2vs0mg"},{"bike_id":"10fe737d-f3e0-4abe-a473-0af7bcb01e2d","system_id":"levelo_inurba_marseille","lat":43.22932,"lon":5.35377,"is_reserved":false,"is_disabled":false,"rental_uris":{"android":"levelo://app?vid=10fe737d-f3e0-4abe-a473-0af7bcb01e2d","ios":"levelo://app?vid=10fe737d-f3e0-4abe-a473-0af7bcb01e2d"},"vehicle_type_id":"4","last_reported":1743513688,"current_range_meters":3200,"station_id":"cpo3532slgdg3j2ikp40","pricing_plan_id":"cebpf4jnsgd1na2vs0mg"},{"bike_id":"3959fc2a-a739-4dd8-b099-3d383cd9a195","system_id":"levelo_inurba_marseille","lat":43.30131,"lon":5.388,"is_reserved":false,"is_disabled":false,"rental_uris":{"android":"levelo://app?vid=3959fc2a-a739-4dd8-b099-3d383cd9a195","ios":"levelo://app?vid=3959fc2a-a739-4dd8-b099-3d383cd9a195"},"vehicle_type_id":"4","last_reported":1743513688,"current_range_meters":3600,"station_id":"ce4bghh2rcd13ifvqb60","pricing_plan_id":"cebpf4jnsgd1na2vs0mg"},{"bike_id":"b3ef0551-ca5b-41a2-8109-602275f6e370","system_id":"levelo_inurba_marseille","lat":43.284088,"lon":5.375073,"is_reserved":false,"is_disabled":false,"rental_uris":{"android":"levelo://app?vid=b3ef0551-ca5b-41a2-8109-602275f6e370","ios":"levelo://app?vid=b3ef0551-ca5b-41a2-8109-602275f6e370"},"vehicle_type_id":"4","last_reported":1743513688,"current_range_meters":3600,"station_id":"ce4bh412rcd13ifvqds0","pricing_plan_id":"cebpf4jnsgd1na2vs0mg"},{"bike_id":"b3124a3a-4c79-4276-85b4-cdc725448826","system_id":"levelo_inurba_marseille","lat":43.29259,"lon":5.3844,"is_reserved":false,"is_disabled":false,"rental_uris":{"android":"levelo://app?vid=b3124a3a-4c79-4276-85b4-cdc725448826","ios":"levelo://app?vid=b3124a3a-4c79-4276-85b4-cdc725448826"},"vehicle_type_id":"4","last_reported":1743513688,"current_range_meters":3600,"station_id":"ce4bh692rcd13ifvqea0","pricing_plan_id":"cebpf4jnsgd1na2vs0mg"},{"bike_id":"3de64772-5566-4b84-a6bc-2a4c5d7cdee9","system_id":"levelo_inurba_marseille","lat":43.276886,"lon":5.388881,"is_reserved":false,"is_disabled":false,"rental_uris":{"android":"levelo://app?vid=3de64772-5566-4b84-a6bc-2a4c5d7cdee9","ios":"levelo://app?vid=3de64772-5566-4b84-a6bc-2a4c5d7cdee9"},"vehicle_type_id":"4","last_reported":1743513688,"current_range_meters":3600,"station_id":"ce4bhi12rcd13ifvqfo0","pricing_plan_id":"cebpf4jnsgd1na2vs0mg"},{"bike_id":"2bf31f9f-c5c0-434c-ab3b-b017d7dc966d","system_id":"levelo_inurba_marseille","lat":43.23058,"lon":5.35501,"is_reserved":false,"is_disabled":false,"rental_uris":{"android":"levelo://app?vid=2bf31f9f-c5c0-434c-ab3b-b017d7dc966d","ios":"levelo://app?vid=2bf31f9f-c5c0-434c-ab3b-b017d7dc966d"},"vehicle_type_id":"4","last_reported":1743513688,"current_range_meters":4000,"station_id":"cpo3342slgdg3j2ifvpg","pricing_plan_id":"cebpf4jnsgd1na2vs0mg"},{"bike_id":"01ea6a95-54cd-48fb-98b6-3bb126cc489c","system_id":"levelo_inurba_marseille","lat":43.30217,"lon":5.39465,"is_reserved":false,"is_disabled":false,"rental_uris":{"android":"levelo://app?vid=01ea6a95-54cd-48fb-98b6-3bb126cc489c","ios":"levelo://app?vid=01ea6a95-54cd-48fb-98b6-3bb126cc489c"},"vehicle_type_id":"4","last_reported":1743513688,"current_range_meters":4400,"station_id":"ce4bh0p2rcd13ifvqd70","pricing_plan_id":"cebpf4jnsgd1na2vs0mg"},{"bike_id":"4afa6470-8044-40eb-9621-a29ac6f30731","system_id":"levelo_inurba_marseille","lat":43.26684,"lon":5.38276,"is_reserved":false,"is_disabled":false,"rental_uris":{"android":"levelo://app?vid=4afa6470-8044-40eb-9621-a29ac6f30731","ios":"levelo://app?vid=4afa6470-8044-40eb-9621-a29ac6f30731"},"vehicle_type_id":"4","last_reported":1743513688,"current_range_meters":4400,"station_id":"ce4bhg92rcd13ifvqf90","pricing_plan_id":"cebpf4jnsgd1na2vs0mg"},{"bike_id":"ea26cff1-876d-4050-af3f-349fed32531f","system_id":"levelo_inurba_marseille","lat":43.23137,"lon":5.43705,"is_reserved":false,"is_disabled":false,"rental_uris":{"android":"levelo://app?vid=ea26cff1-876d-4050-af3f-349fed32531f","ios":"levelo://app?vid=ea26cff1-876d-4050-af3f-349fed32531f"},"vehicle_type_id":"4","last_reported":1743513688,"current_range_meters":4400,"station_id":"ce4bhmp2rcd13ifvqgog","pricing_plan_id":"cebpf4jnsgd1na2vs0mg"},{"bike_id":"2b077733-2833-4ac8-b113-78ce737dcbd9","system_id":"levelo_inurba_marseille","lat":43.28014,"lon":5.39975,"is_reserved":false,"is_disabled":false,"rental_uris":{"android":"levelo://app?vid=2b077733-2833-4ac8-b113-78ce737dcbd9","ios":"levelo://app?vid=2b077733-2833-4ac8-b113-78ce737dcbd9"},"vehicle_type_id":"4","last_reported":1743513688,"current_range_meters":4400,"station_id":"ce4bho92rcd13ifvqh4g","pricing_plan_id":"cebpf4jnsgd1na2vs0mg"},{"bike_id":"79a9d532-7e33-4610-b08c-af16bc13c935","system_id":"levelo_inurba_marseille","lat":43.24175,"lon":5.36447,"is_reserved":false,"is_disabled":false,"rental_uris":{"android":"levelo://app?vid=79a9d532-7e33-4610-b08c-af16bc13c935","ios":"levelo://app?vid=79a9d532-7e33-4610-b08c-af16bc13c935"},"vehicle_type_id":"4","last_reported":1743513688,"current_range_meters":4400,"station_id":"cpo36qri1sfpv3e86is0","pricing_plan_id":"cebpf4jnsgd1na2vs0mg"},{"bike_id":"47f35d36-7b2f-4148-8f5d-4b9bb3ea4d93","system_id":"levelo_inurba_marseille","lat":43.28934,"lon":5.38394,"is_reserved":false,"is_disabled":false,"rental_uris":{"android":"levelo://app?vid=47f35d36-7b2f-4148-8f5d-4b9bb3ea4d93","ios":"levelo://app?vid=47f35d36-7b2f-4148-8f5d-4b9bb3ea4d93"},"vehicle_type_id":"4","last_reported":1743513688,"current_range_meters":4800,"station_id":"ce4bh612rcd13ifvqe6g","pricing_plan_id":"cebpf4jnsgd1na2vs0mg"},{"bike_id":"dd2597f4-45c1-4124-9abe-507b28ca78c4","system_id":"levelo_inurba_marseille","lat":43.28698,"lon":5.37938,"is_reserved":false,"is_disabled":false,"rental_uris":{"android":"levelo://app?vid=dd2597f4-45c1-4124-9abe-507b28ca78c4","ios":"levelo://app?vid=dd2597f4-45c1-4124-9abe-507b28ca78c4"},"vehicle_type_id":"4","last_reported":1743513688,"current_range_meters":4800,"station_id":"ce4bh9p2rcd13ifvqec0","pricing_plan_id":"cebpf4jnsgd1na2vs0mg"},{"bike_id":"df5c7f9a-0de1-498e-a275-7d91fda87de2","system_id":"levelo_inurba_marseille","lat":43.2905,"lon":5.35918,"is_reserved":false,"is_disabled":false,"rental_uris":{"android":"levelo://app?vid=df5c7f9a-0de1-498e-a275-7d91fda87de2","ios":"levelo://app?vid=df5c7f9a-0de1-498e-a275-7d91fda87de2"},"vehicle_type_id":"4","last_reported":1743513688,"current_range_meters":4800,"station_id":"ce4bha92rcd13ifvqeg0","pricing_plan_id":"cebpf4jnsgd1na2vs0mg"},{"bike_id":"af3cfe8c-ba88-488e-950b-915dc1379ac0","system_id":"levelo_inurba_marseille","lat":43.2736,"lon":5.36248,"is_reserved":false,"is_disabled":false,"rental_uris":{"android":"levelo://app?vid=af3cfe8c-ba88-488e-950b-915dc1379ac0","ios":"levelo://app?vid=af3cfe8c-ba88-488e-950b-915dc1379ac0"},"vehicle_type_id":"4","last_reported":1743513688,"current_range_meters":4800,"station_id":"ce4bhbh2rcd13ifvqeo0","pricing_plan_id":"cebpf4jnsgd1na2vs0mg"},{"bike_id":"2a841540-56e9-4e3d-aa96-9aabd29788f8","system_id":"levelo_inurba_marseille","lat":43.28448,"lon":5.39202,"is_reserved":false,"is_disabled":false,"rental_uris":{"android":"levelo://app?vid=2a841540-56e9-4e3d-aa96-9aabd29788f8","ios":"levelo://app?vid=2a841540-56e9-4e3d-aa96-9aabd29788f8"},"vehicle_type_id":"4","last_reported":1743513688,"current_range_meters":4800,"station_id":"ce4bhoh2rcd13ifvqh5g","pricing_plan_id":"cebpf4jnsgd1na2vs0mg"},{"bike_id":"93c06f5c-3600-4a37-9f74-4f11841c4695","system_id":"levelo_inurba_marseille","lat":43.29306,"lon":5.37471,"is_reserved":false,"is_disabled":false,"rental_uris":{"android":"levelo://app?vid=93c06f5c-3600-4a37-9f74-4f11841c4695","ios":"levelo://app?vid=93c06f5c-3600-4a37-9f74-4f11841c4695"},"vehicle_type_id":"4","last_reported":1743513688,"current_range_meters":5600,"station_id":"ce4bgi12rcd13ifvqb70","pricing_plan_id":"cebpf4jnsgd1na2vs0mg"},{"bike_id":"41ff5b0f-ec87-4fbf-9715-08f8fa07a1ad","system_id":"levelo_inurba_marseille","lat":43.27617,"lon":5.36105,"is_reserved":false,"is_disabled":false,"rental_uris":{"android":"levelo://app?vid=41ff5b0f-ec87-4fbf-9715-08f8fa07a1ad","ios":"levelo://app?vid=41ff5b0f-ec87-4fbf-9715-08f8fa07a1ad"},"vehicle_type_id":"4","last_reported":1743513688,"current_range_meters":5600,"station_id":"ce4bgj92rcd13ifvqbe0","pricing_plan_id":"cebpf4jnsgd1na2vs0mg"},{"bike_id":"5d06d544-ae1c-4dfa-b63d-5f4340fa2e83","system_id":"levelo_inurba_marseille","lat":43.27926,"lon":5.39589,"is_reserved":false,"is_disabled":false,"rental_uris":{"android":"levelo://app?vid=5d06d544-ae1c-4dfa-b63d-5f4340fa2e83","ios":"levelo://app?vid=5d06d544-ae1c-4dfa-b63d-5f4340fa2e83"},"vehicle_type_id":"4","last_reported":1743513688,"current_range_meters":5600,"station_id":"ce4bhf92rcd13ifvqf40","pricing_plan_id":"cebpf4jnsgd1na2vs0mg"},{"bike_id":"7fccf355-a00e-4905-8738-e2b4e7aa24a8","system_id":"levelo_inurba_marseille","lat":43.231497,"lon":5.437238,"is_reserved":false,"is_disabled":false,"rental_uris":{"android":"levelo://app?vid=7fccf355-a00e-4905-8738-e2b4e7aa24a8","ios":"levelo://app?vid=7fccf355-a00e-4905-8738-e2b4e7aa24a8"},"vehicle_type_id":"4","last_reported":1743513688,"current_range_meters":5600,"station_id":"ce4bhmp2rcd13ifvqgog","pricing_plan_id":"cebpf4jnsgd1na2vs0mg"},{"bike_id":"12185702-a78d-40bb-9685-159fc834a0c5","system_id":"levelo_inurba_marseille","lat":43.31344,"lon":5.38835,"is_reserved":false,"is_disabled":false,"rental_uris":{"android":"levelo://app?vid=12185702-a78d-40bb-9685-159fc834a0c5","ios":"levelo://app?vid=12185702-a78d-40bb-9685-159fc834a0c5"},"vehicle_type_id":"4","last_reported":1743513688,"current_range_meters":6000,"station_id":"","pricing_plan_id":"cebpf4jnsgd1na2vs0mg"},{"bike_id":"f50dd1be-9ee4-480d-920f-0721f0997798","system_id":"levelo_inurba_marseille","lat":43.23178,"lon":5.39995,"is_reserved":false,"is_disabled":false,"rental_uris":{"android":"levelo://app?vid=f50dd1be-9ee4-480d-920f-0721f0997798","ios":"levelo://app?vid=f50dd1be-9ee4-480d-920f-0721f0997798"},"vehicle_type_id":"4","last_reported":1743513688,"current_range_meters":6000,"station_id":"ce4bhn12rcd13ifvqgqg","pricing_plan_id":"cebpf4jnsgd1na2vs0mg"},{"bike_id":"60e85f62-7610-49c2-af7f-96d28f6eddfc","system_id":"levelo_inurba_marseille","lat":43.298993,"lon":5.436686,"is_reserved":false,"is_disabled":false,"rental_uris":{"android":"levelo://app?vid=60e85f62-7610-49c2-af7f-96d28f6eddfc","ios":"levelo://app?vid=60e85f62-7610-49c2-af7f-96d28f6eddfc"},"vehicle_type_id":"4","last_reported":1743513688,"current_range_meters":6000,"station_id":"ce4bhpp2rcd13ifvqhfg","pricing_plan_id":"cebpf4jnsgd1na2vs0mg"},{"bike_id":"791f8b6d-c7b8-43a3-af53-554de4edbd8b","system_id":"levelo_inurba_marseille","lat":43.26227,"lon":5.40551,"is_reserved":false,"is_disabled":false,"rental_uris":{"android":"levelo://app?vid=791f8b6d-c7b8-43a3-af53-554de4edbd8b","ios":"levelo://app?vid=791f8b6d-c7b8-43a3-af53-554de4edbd8b"},"vehicle_type_id":"4","last_reported":1743513688,"current_range_meters":6400,"station_id":"","pricing_plan_id":"cebpf4jnsgd1na2vs0mg"},{"bike_id":"0c40db3f-32b6-4ea9-9b45-f4c085819df2","system_id":"levelo_inurba_marseille","lat":43.28308,"lon":5.3885,"is_reserved":false,"is_disabled":false,"rental_uris":{"android":"levelo://app?vid=0c40db3f-32b6-4ea9-9b45-f4c085819df2","ios":"levelo://app?vid=0c40db3f-32b6-4ea9-9b45-f4c085819df2"},"vehicle_type_id":"4","last_reported":1743513688,"current_range_meters":6400,"station_id":"","pricing_plan_id":"cebpf4jnsgd1na2vs0mg"},{"bike_id":"7436ac52-c75b-4673-adea-3d64503cb4e7","system_id":"levelo_inurba_marseille","lat":43.25118,"lon":5.40325,"is_reserved":false,"is_disabled":false,"rental_uris":{"android":"levelo://app?vid=7436ac52-c75b-4673-adea-3d64503cb4e7","ios":"levelo://app?vid=7436ac52-c75b-4673-adea-3d64503cb4e7"},"vehicle_type_id":"4","last_reported":1743513688,"current_range_meters":6400,"station_id":"ce4bhlh2rcd13ifvqgig","pricing_plan_id":"cebpf4jnsgd1na2vs0mg"},{"bike_id":"121010d1-d0ea-475b-97a6-f9054736109c","system_id":"levelo_inurba_marseille","lat":43.23186,"lon":5.39976,"is_reserved":false,"is_disabled":false,"rental_uris":{"android":"levelo://app?vid=121010d1-d0ea-475b-97a6-f9054736109c","ios":"levelo://app?vid=121010d1-d0ea-475b-97a6-f9054736109c"},"vehicle_type_id":"4","last_reported":1743513688,"current_range_meters":6400,"station_id":"ce4bhn12rcd13ifvqgqg","pricing_plan_id":"cebpf4jnsgd1na2vs0mg"},{"bike_id":"9f2f977c-01e5-4485-8e97-b93dd7439b8c","system_id":"levelo_inurba_marseille","lat":43.33577,"lon":5.41005,"is_reserved":false,"is_disabled":false,"rental_uris":{"android":"levelo://app?vid=9f2f977c-01e5-4485-8e97-b93dd7439b8c","ios":"levelo://app?vid=9f2f977c-01e5-4485-8e97-b93dd7439b8c"},"vehicle_type_id":"4","last_reported":1743513688,"current_range_meters":6400,"station_id":"ce4bhqh2rcd13ifvqhmg","pricing_plan_id":"cebpf4jnsgd1na2vs0mg"},{"bike_id":"0bfde885-08d0-4ca9-91cb-59d9c297249d","system_id":"levelo_inurba_marseille","lat":43.29728,"lon":5.37682,"is_reserved":false,"is_disabled":false,"rental_uris":{"android":"levelo://app?vid=0bfde885-08d0-4ca9-91cb-59d9c297249d","ios":"levelo://app?vid=0bfde885-08d0-4ca9-91cb-59d9c297249d"},"vehicle_type_id":"4","last_reported":1743513688,"current_range_meters":6800,"station_id":"ce4bgkh2rcd13ifvqbl0","pricing_plan_id":"cebpf4jnsgd1na2vs0mg"},{"bike_id":"73af87fd-fbda-4378-9b6f-f1555ce1492b","system_id":"levelo_inurba_marseille","lat":43.30149,"lon":5.37415,"is_reserved":false,"is_disabled":false,"rental_uris":{"android":"levelo://app?vid=73af87fd-fbda-4378-9b6f-f1555ce1492b","ios":"levelo://app?vid=73af87fd-fbda-4378-9b6f-f1555ce1492b"},"vehicle_type_id":"4","last_reported":1743513688,"current_range_meters":6800,"station_id":"ce4bgs92rcd13ifvqcc0","pricing_plan_id":"cebpf4jnsgd1na2vs0mg"},{"bike_id":"3382c564-0518-4e42-ba54-c44838a8eb10","system_id":"levelo_inurba_marseille","lat":43.3032,"lon":5.40439,"is_reserved":false,"is_disabled":false,"rental_uris":{"android":"levelo://app?vid=3382c564-0518-4e42-ba54-c44838a8eb10","ios":"levelo://app?vid=3382c564-0518-4e42-ba54-c44838a8eb10"},"vehicle_type_id":"4","last_reported":1743513688,"current_range_meters":6800,"station_id":"ce4bh012rcd13ifvqd10","pricing_plan_id":"cebpf4jnsgd1na2vs0mg"},{"bike_id":"1dc7e494-0ce2-4d01-9509-d12eb75aa4a8","system_id":"levelo_inurba_marseille","lat":43.255455,"lon":5.382249,"is_reserved":false,"is_disabled":false,"rental_uris":{"android":"levelo://app?vid=1dc7e494-0ce2-4d01-9509-d12eb75aa4a8","ios":"levelo://app?vid=1dc7e494-0ce2-4d01-9509-d12eb75aa4a8"},"vehicle_type_id":"4","last_reported":1743513688,"current_range_meters":6800,"station_id":"ce4bhh12rcd13ifvqff0","pricing_plan_id":"cebpf4jnsgd1na2vs0mg"},{"bike_id":"a3cbbeb7-d898-4e8d-bc0d-094b6b6c4eed","system_id":"levelo_inurba_marseille","lat":43.26497,"lon":5.39542,"is_reserved":false,"is_disabled":false,"rental_uris":{"android":"levelo://app?vid=a3cbbeb7-d898-4e8d-bc0d-094b6b6c4eed","ios":"levelo://app?vid=a3cbbeb7-d898-4e8d-bc0d-094b6b6c4eed"},"vehicle_type_id":"4","last_reported":1743513688,"current_range_meters":6800,"station_id":"ce4bhi12rcd13ifvqfq0","pricing_plan_id":"cebpf4jnsgd1na2vs0mg"},{"bike_id":"195144e0-c008-49c5-be47-b44180ac5551","system_id":"levelo_inurba_marseille","lat":43.31243,"lon":5.36843,"is_reserved":false,"is_disabled":false,"rental_uris":{"android":"levelo://app?vid=195144e0-c008-49c5-be47-b44180ac5551","ios":"levelo://app?vid=195144e0-c008-49c5-be47-b44180ac5551"},"vehicle_type_id":"4","last_reported":1743513688,"current_range_meters":7200,"station_id":"ce4bgl92rcd13ifvqbq0","pricing_plan_id":"cebpf4jnsgd1na2vs0mg"},{"bike_id":"58748b6d-4c3d-4ce8-9acf-5fbeb5bad12a","system_id":"levelo_inurba_marseille","lat":43.30939,"lon":5.36888,"is_reserved":false,"is_disabled":false,"rental_uris":{"android":"levelo://app?vid=58748b6d-4c3d-4ce8-9acf-5fbeb5bad12a","ios":"levelo://app?vid=58748b6d-4c3d-4ce8-9acf-5fbeb5bad12a"},"vehicle_type_id":"4","last_reported":1743513688,"current_range_meters":7200,"station_id":"ce4bgn92rcd13ifvqbvg","pricing_plan_id":"cebpf4jnsgd1na2vs0mg"},{"bike_id":"620d6508-94d1-400b-82c2-bae10a7caa70","system_id":"levelo_inurba_marseille","lat":43.29037,"lon":5.38643,"is_reserved":false,"is_disabled":false,"rental_uris":{"android":"levelo://app?vid=620d6508-94d1-400b-82c2-bae10a7caa70","ios":"levelo://app?vid=620d6508-94d1-400b-82c2-bae10a7caa70"},"vehicle_type_id":"4","last_reported":1743513688,"current_range_meters":7200,"station_id":"ce4bh4p2rcd13ifvqe0g","pricing_plan_id":"cebpf4jnsgd1na2vs0mg"},{"bike_id":"ac78c295-e62f-4084-abdb-1b6a95c1d450","system_id":"levelo_inurba_marseille","lat":43.26955,"lon":5.3863,"is_reserved":false,"is_disabled":false,"rental_uris":{"android":"levelo://app?vid=ac78c295-e62f-4084-abdb-1b6a95c1d450","ios":"levelo://app?vid=ac78c295-e62f-4084-abdb-1b6a95c1d450"},"vehicle_type_id":"4","last_reported":1743513688,"current_range_meters":7200,"station_id":"ce4bhh92rcd13ifvqfh0","pricing_plan_id":"cebpf4jnsgd1na2vs0mg"},{"bike_id":"8f74907c-2e34-4cfd-90b7-02f45e6b8f00","system_id":"levelo_inurba_marseille","lat":43.27499,"lon":5.42456,"is_reserved":false,"is_disabled":false,"rental_uris":{"android":"levelo://app?vid=8f74907c-2e34-4cfd-90b7-02f45e6b8f00","ios":"levelo://app?vid=8f74907c-2e34-4cfd-90b7-02f45e6b8f00"},"vehicle_type_id":"4","last_reported":1743513688,"current_range_meters":7200,"station_id":"ce4bhn92rcd13ifvqgrg","pricing_plan_id":"cebpf4jnsgd1na2vs0mg"},{"bike_id":"10f17c69-deb9-4eb0-897a-2941fa40ac57","system_id":"levelo_inurba_marseille","lat":43.29555,"lon":5.42286,"is_reserved":false,"is_disabled":false,"rental_uris":{"android":"levelo://app?vid=10f17c69-deb9-4eb0-897a-2941fa40ac57","ios":"levelo://app?vid=10f17c69-deb9-4eb0-897a-2941fa40ac57"},"vehicle_type_id":"4","last_reported":1743513688,"current_range_meters":7200,"station_id":"ce4bhph2rcd13ifvqhdg","pricing_plan_id":"cebpf4jnsgd1na2vs0mg"},{"bike_id":"9e414957-74dc-4194-88c9-1ed380a0f974","system_id":"levelo_inurba_marseille","lat":43.24656,"lon":5.3891,"is_reserved":false,"is_disabled":false,"rental_uris":{"android":"levelo://app?vid=9e414957-74dc-4194-88c9-1ed380a0f974","ios":"levelo://app?vid=9e414957-74dc-4194-88c9-1ed380a0f974"},"vehicle_type_id":"4","last_reported":1743513688,"current_range_meters":8000,"station_id":"ce4bhg12rcd13ifvqf60","pricing_plan_id":"cebpf4jnsgd1na2vs0mg"},{"bike_id":"dc68065b-e197-41bc-b251-7638ffa1a443","system_id":"levelo_inurba_marseille","lat":43.24389,"lon":5.37064,"is_reserved":false,"is_disabled":false,"rental_uris":{"android":"levelo://app?vid=dc68065b-e197-41bc-b251-7638ffa1a443","ios":"levelo://app?vid=dc68065b-e197-41bc-b251-7638ffa1a443"},"vehicle_type_id":"4","last_reported":1743513688,"current_range_meters":8000,"station_id":"ce4bhhh2rcd13ifvqfk0","pricing_plan_id":"cebpf4jnsgd1na2vs0mg"},{"bike_id":"40a66e01-b594-43cc-80a6-bf33d148d0f5","system_id":"levelo_inurba_marseille","lat":43.25121,"lon":5.40324,"is_reserved":false,"is_disabled":false,"rental_uris":{"android":"levelo://app?vid=40a66e01-b594-43cc-80a6-bf33d148d0f5","ios":"levelo://app?vid=40a66e01-b594-43cc-80a6-bf33d148d0f5"},"vehicle_type_id":"4","last_reported":1743513688,"current_range_meters":8000,"station_id":"ce4bhlh2rcd13ifvqgig","pricing_plan_id":"cebpf4jnsgd1na2vs0mg"},{"bike_id":"b3593ea0-f10f-4d2d-8fd4-ca8847ced39c","system_id":"levelo_inurba_marseille","lat":43.3359,"lon":5.40993,"is_reserved":false,"is_disabled":false,"rental_uris":{"android":"levelo://app?vid=b3593ea0-f10f-4d2d-8fd4-ca8847ced39c","ios":"levelo://app?vid=b3593ea0-f10f-4d2d-8fd4-ca8847ced39c"},"vehicle_type_id":"4","last_reported":1743513688,"current_range_meters":8000,"station_id":"ce4bhqh2rcd13ifvqhmg","pricing_plan_id":"cebpf4jnsgd1na2vs0mg"},{"bike_id":"f132eaa7-1093-4dbb-84f6-14849e5485bc","system_id":"levelo_inurba_marseille","lat":43.3016,"lon":5.38088,"is_reserved":false,"is_disabled":false,"rental_uris":{"android":"levelo://app?vid=f132eaa7-1093-4dbb-84f6-14849e5485bc","ios":"levelo://app?vid=f132eaa7-1093-4dbb-84f6-14849e5485bc"},"vehicle_type_id":"4","last_reported":1743513688,"current_range_meters":8400,"station_id":"ce4bgjp2rcd13ifvqbh0","pricing_plan_id":"cebpf4jnsgd1na2vs0mg"},{"bike_id":"7ac4619a-9d93-4ea7-a11d-6876e072dbe4","system_id":"levelo_inurba_marseille","lat":43.30543,"lon":5.36707,"is_reserved":false,"is_disabled":false,"rental_uris":{"android":"levelo://app?vid=7ac4619a-9d93-4ea7-a11d-6876e072dbe4","ios":"levelo://app?vid=7ac4619a-9d93-4ea7-a11d-6876e072dbe4"},"vehicle_type_id":"4","last_reported":1743513688,"current_range_meters":8400,"station_id":"ce4bgrp2rcd13ifvqc9g","pricing_plan_id":"cebpf4jnsgd1na2vs0mg"},{"bike_id":"98cf19ab-bede-4725-bf6f-b60047bf4926","system_id":"levelo_inurba_marseille","lat":43.30084,"lon":5.39063,"is_reserved":false,"is_disabled":false,"rental_uris":{"android":"levelo://app?vid=98cf19ab-bede-4725-bf6f-b60047bf4926","ios":"levelo://app?vid=98cf19ab-bede-4725-bf6f-b60047bf4926"},"vehicle_type_id":"4","last_reported":1743513688,"current_range_meters":8400,"station_id":"ce4bh192rcd13ifvqdb0","pricing_plan_id":"cebpf4jnsgd1na2vs0mg"},{"bike_id":"2f04edae-9512-46d3-b068-1782d17c6e53","system_id":"levelo_inurba_marseille","lat":43.244,"lon":5.37062,"is_reserved":false,"is_disabled":false,"rental_uris":{"android":"levelo://app?vid=2f04edae-9512-46d3-b068-1782d17c6e53","ios":"levelo://app?vid=2f04edae-9512-46d3-b068-1782d17c6e53"},"vehicle_type_id":"4","last_reported":1743513688,"current_range_meters":8400,"station_id":"ce4bhhh2rcd13ifvqfk0","pricing_plan_id":"cebpf4jnsgd1na2vs0mg"},{"bike_id":"f1204363-fa87-41cd-bde0-f471c0212bf2","system_id":"levelo_inurba_marseille","lat":43.24079,"lon":5.37754,"is_reserved":false,"is_disabled":false,"rental_uris":{"android":"levelo://app?vid=f1204363-fa87-41cd-bde0-f471c0212bf2","ios":"levelo://app?vid=f1204363-fa87-41cd-bde0-f471c0212bf2"},"vehicle_type_id":"4","last_reported":1743513688,"current_range_meters":8400,"station_id":"ce4bhnp2rcd13ifvqgvg","pricing_plan_id":"cebpf4jnsgd1na2vs0mg"},{"bike_id":"e69e4645-5602-43f1-9376-945d6afb7075","system_id":"levelo_inurba_marseille","lat":43.28971,"lon":5.37838,"is_reserved":false,"is_disabled":false,"rental_uris":{"android":"levelo://app?vid=e69e4645-5602-43f1-9376-945d6afb7075","ios":"levelo://app?vid=e69e4645-5602-43f1-9376-945d6afb7075"},"vehicle_type_id":"4","last_reported":1743513688,"current_range_meters":8800,"station_id":"","pricing_plan_id":"cebpf4jnsgd1na2vs0mg"},{"bike_id":"2a4f0501-0905-4e6a-84a4-2dc3f1ec5993","system_id":"levelo_inurba_marseille","lat":43.25929,"lon":5.40911,"is_reserved":false,"is_disabled":false,"rental_uris":{"android":"levelo://app?vid=2a4f0501-0905-4e6a-84a4-2dc3f1ec5993","ios":"levelo://app?vid=2a4f0501-0905-4e6a-84a4-2dc3f1ec5993"},"vehicle_type_id":"4","last_reported":1743513688,"current_range_meters":8800,"station_id":"ce4bhm92rcd13ifvqglg","pricing_plan_id":"cebpf4jnsgd1na2vs0mg"},{"bike_id":"4039dc14-52f9-495d-a91b-b3da10cd8771","system_id":"levelo_inurba_marseille","lat":43.24077,"lon":5.37763,"is_reserved":false,"is_disabled":false,"rental_uris":{"android":"levelo://app?vid=4039dc14-52f9-495d-a91b-b3da10cd8771","ios":"levelo://app?vid=4039dc14-52f9-495d-a91b-b3da10cd8771"},"vehicle_type_id":"4","last_reported":1743513688,"current_range_meters":8800,"station_id":"ce4bhnp2rcd13ifvqgvg","pricing_plan_id":"cebpf4jnsgd1na2vs0mg"},{"bike_id":"33b8dd29-56e2-488c-9bb6-7f788906afe5","system_id":"levelo_inurba_marseille","lat":43.30766,"lon":5.37235,"is_reserved":false,"is_disabled":false,"rental_uris":{"android":"levelo://app?vid=33b8dd29-56e2-488c-9bb6-7f788906afe5","ios":"levelo://app?vid=33b8dd29-56e2-488c-9bb6-7f788906afe5"},"vehicle_type_id":"4","last_reported":1743513688,"current_range_meters":9200,"station_id":"","pricing_plan_id":"cebpf4jnsgd1na2vs0mg"},{"bike_id":"09106aa1-c819-4147-8795-983b79ca4bdd","system_id":"levelo_inurba_marseille","lat":43.28888,"lon":5.35881,"is_reserved":false,"is_disabled":false,"rental_uris":{"android":"levelo://app?vid=09106aa1-c819-4147-8795-983b79ca4bdd","ios":"levelo://app?vid=09106aa1-c819-4147-8795-983b79ca4bdd"},"vehicle_type_id":"4","last_reported":1743513688,"current_range_meters":9200,"station_id":"","pricing_plan_id":"cebpf4jnsgd1na2vs0mg"},{"bike_id":"a12d6532-5153-4a94-a376-618e6079e4f4","system_id":"levelo_inurba_marseille","lat":43.293376,"lon":5.374469,"is_reserved":false,"is_disabled":false,"rental_uris":{"android":"levelo://app?vid=a12d6532-5153-4a94-a376-618e6079e4f4","ios":"levelo://app?vid=a12d6532-5153-4a94-a376-618e6079e4f4"},"vehicle_type_id":"4","last_reported":1743513688,"current_range_meters":9200,"station_id":"ce4bgi12rcd13ifvqb70","pricing_plan_id":"cebpf4jnsgd1na2vs0mg"},{"bike_id":"40f9fefc-d2b9-4d0d-911b-0366071db3cd","system_id":"levelo_inurba_marseille","lat":43.30544,"lon":5.36527,"is_reserved":false,"is_disabled":false,"rental_uris":{"android":"levelo://app?vid=40f9fefc-d2b9-4d0d-911b-0366071db3cd","ios":"levelo://app?vid=40f9fefc-d2b9-4d0d-911b-0366071db3cd"},"vehicle_type_id":"4","last_reported":1743513688,"current_range_meters":9200,"station_id":"ce4bgs12rcd13ifvqcag","pricing_plan_id":"cebpf4jnsgd1na2vs0mg"},{"bike_id":"4df446be-9dd3-4715-a1d6-31a285ca1628","system_id":"levelo_inurba_marseille","lat":43.2418,"lon":5.39722,"is_reserved":false,"is_disabled":false,"rental_uris":{"android":"levelo://app?vid=4df446be-9dd3-4715-a1d6-31a285ca1628","ios":"levelo://app?vid=4df446be-9dd3-4715-a1d6-31a285ca1628"},"vehicle_type_id":"4","last_reported":1743513688,"current_range_meters":9200,"station_id":"ce4bhn12rcd13ifvqgpg","pricing_plan_id":"cebpf4jnsgd1na2vs0mg"},{"bike_id":"2286499e-afb3-42f0-be29-239621d5e7b7","system_id":"levelo_inurba_marseille","lat":43.2418,"lon":5.39729,"is_reserved":false,"is_disabled":false,"rental_uris":{"android":"levelo://app?vid=2286499e-afb3-42f0-be29-239621d5e7b7","ios":"levelo://app?vid=2286499e-afb3-42f0-be29-239621d5e7b7"},"vehicle_type_id":"4","last_reported":1743513688,"current_range_meters":9200,"station_id":"ce4bhn12rcd13ifvqgpg","pricing_plan_id":"cebpf4jnsgd1na2vs0mg"},{"bike_id":"4ad73676-975d-4eb4-8ab0-34916f3a4594","system_id":"levelo_inurba_marseille","lat":43.30612,"lon":5.37162,"is_reserved":false,"is_disabled":false,"rental_uris":{"android":"levelo://app?vid=4ad73676-975d-4eb4-8ab0-34916f3a4594","ios":"levelo://app?vid=4ad73676-975d-4eb4-8ab0-34916f3a4594"},"vehicle_type_id":"4","last_reported":1743513688,"current_range_meters":9600,"station_id":"","pricing_plan_id":"cebpf4jnsgd1na2vs0mg"},{"bike_id":"8f62799a-bf43-4458-b69c-0ed173e8a565","system_id":"levelo_inurba_marseille","lat":43.29918,"lon":5.36523,"is_reserved":false,"is_disabled":false,"rental_uris":{"android":"levelo://app?vid=8f62799a-bf43-4458-b69c-0ed173e8a565","ios":"levelo://app?vid=8f62799a-bf43-4458-b69c-0ed173e8a565"},"vehicle_type_id":"4","last_reported":1743513688,"current_range_meters":9600,"station_id":"ce4bgm92rcd13ifvqbr0","pricing_plan_id":"cebpf4jnsgd1na2vs0mg"},{"bike_id":"131953cc-98dc-4b83-8dba-ebeea1f8c38f","system_id":"levelo_inurba_marseille","lat":43.26561,"lon":5.39012,"is_reserved":false,"is_disabled":false,"rental_uris":{"android":"levelo://app?vid=131953cc-98dc-4b83-8dba-ebeea1f8c38f","ios":"levelo://app?vid=131953cc-98dc-4b83-8dba-ebeea1f8c38f"},"vehicle_type_id":"4","last_reported":1743513688,"current_range_meters":9600,"station_id":"ce4bhe12rcd13ifvqf30","pricing_plan_id":"cebpf4jnsgd1na2vs0mg"},{"bike_id":"c86f3dd7-4af6-4e32-832d-8c711682ef46","system_id":"levelo_inurba_marseille","lat":43.25943,"lon":5.40876,"is_reserved":false,"is_disabled":false,"rental_uris":{"android":"levelo://app?vid=c86f3dd7-4af6-4e32-832d-8c711682ef46","ios":"levelo://app?vid=c86f3dd7-4af6-4e32-832d-8c711682ef46"},"vehicle_type_id":"4","last_reported":1743513688,"current_range_meters":9600,"station_id":"ce4bhm92rcd13ifvqglg","pricing_plan_id":"cebpf4jnsgd1na2vs0mg"},{"bike_id":"d88ef7fc-58cf-4473-8716-ffc9d9fdb054","system_id":"levelo_inurba_marseille","lat":43.2418,"lon":5.39733,"is_reserved":false,"is_disabled":false,"rental_uris":{"android":"levelo://app?vid=d88ef7fc-58cf-4473-8716-ffc9d9fdb054","ios":"levelo://app?vid=d88ef7fc-58cf-4473-8716-ffc9d9fdb054"},"vehicle_type_id":"4","last_reported":1743513688,"current_range_meters":9600,"station_id":"ce4bhn12rcd13ifvqgpg","pricing_plan_id":"cebpf4jnsgd1na2vs0mg"},{"bike_id":"7160035f-25c1-43e3-974a-ab46819b11e3","system_id":"levelo_inurba_marseille","lat":43.29562,"lon":5.42295,"is_reserved":false,"is_disabled":false,"rental_uris":{"android":"levelo://app?vid=7160035f-25c1-43e3-974a-ab46819b11e3","ios":"levelo://app?vid=7160035f-25c1-43e3-974a-ab46819b11e3"},"vehicle_type_id":"4","last_reported":1743513688,"current_range_meters":9600,"station_id":"ce4bhph2rcd13ifvqhdg","pricing_plan_id":"cebpf4jnsgd1na2vs0mg"},{"bike_id":"2f0a2c7b-c13f-4c2b-8ba4-b26a30099281","system_id":"levelo_inurba_marseille","lat":43.31759,"lon":5.39007,"is_reserved":false,"is_disabled":false,"rental_uris":{"android":"levelo://app?vid=2f0a2c7b-c13f-4c2b-8ba4-b26a30099281","ios":"levelo://app?vid=2f0a2c7b-c13f-4c2b-8ba4-b26a30099281"},"vehicle_type_id":"4","last_reported":1743513688,"current_range_meters":9600,"station_id":"ce4bhqp2rcd13ifvqhng","pricing_plan_id":"cebpf4jnsgd1na2vs0mg"},{"bike_id":"c74f5e10-dc5c-425a-a8b6-e5da0602cb9e","system_id":"levelo_inurba_marseille","lat":43.32104,"lon":5.3677,"is_reserved":false,"is_disabled":false,"rental_uris":{"android":"levelo://app?vid=c74f5e10-dc5c-425a-a8b6-e5da0602cb9e","ios":"levelo://app?vid=c74f5e10-dc5c-425a-a8b6-e5da0602cb9e"},"vehicle_type_id":"4","last_reported":1743513688,"current_range_meters":10000,"station_id":"","pricing_plan_id":"cebpf4jnsgd1na2vs0mg"},{"bike_id":"a495ab47-72d1-4f9e-8b95-72d772792f33","system_id":"levelo_inurba_marseille","lat":43.30445,"lon":5.36867,"is_reserved":false,"is_disabled":false,"rental_uris":{"android":"levelo://app?vid=a495ab47-72d1-4f9e-8b95-72d772792f33","ios":"levelo://app?vid=a495ab47-72d1-4f9e-8b95-72d772792f33"},"vehicle_type_id":"4","last_reported":1743513688,"current_range_meters":10000,"station_id":"","pricing_plan_id":"cebpf4jnsgd1na2vs0mg"},{"bike_id":"649b5ad5-62ac-4bfd-a6cd-60fc43d8fef1","system_id":"levelo_inurba_marseille","lat":43.29248,"lon":5.398245,"is_reserved":false,"is_disabled":false,"rental_uris":{"android":"levelo://app?vid=649b5ad5-62ac-4bfd-a6cd-60fc43d8fef1","ios":"levelo://app?vid=649b5ad5-62ac-4bfd-a6cd-60fc43d8fef1"},"vehicle_type_id":"4","last_reported":1743513688,"current_range_meters":10000,"station_id":"","pricing_plan_id":"cebpf4jnsgd1na2vs0mg"},{"bike_id":"92a96564-2b78-4fc0-8756-3b3352f7cad0","system_id":"levelo_inurba_marseille","lat":43.30538,"lon":5.36545,"is_reserved":false,"is_disabled":false,"rental_uris":{"android":"levelo://app?vid=92a96564-2b78-4fc0-8756-3b3352f7cad0","ios":"levelo://app?vid=92a96564-2b78-4fc0-8756-3b3352f7cad0"},"vehicle_type_id":"4","last_reported":1743513688,"current_range_meters":10000,"station_id":"ce4bgs12rcd13ifvqcag","pricing_plan_id":"cebpf4jnsgd1na2vs0mg"},{"bike_id":"f3eb23e7-8581-49ec-8891-dfbd95c01fdd","system_id":"levelo_inurba_marseille","lat":43.26545,"lon":5.39004,"is_reserved":false,"is_disabled":false,"rental_uris":{"android":"levelo://app?vid=f3eb23e7-8581-49ec-8891-dfbd95c01fdd","ios":"levelo://app?vid=f3eb23e7-8581-49ec-8891-dfbd95c01fdd"},"vehicle_type_id":"4","last_reported":1743513688,"current_range_meters":10000,"station_id":"ce4bhe12rcd13ifvqf30","pricing_plan_id":"cebpf4jnsgd1na2vs0mg"},{"bike_id":"a65c60d0-9838-4fce-ab82-173f64a7b595","system_id":"levelo_inurba_marseille","lat":43.24182,"lon":5.39729,"is_reserved":false,"is_disabled":false,"rental_uris":{"android":"levelo://app?vid=a65c60d0-9838-4fce-ab82-173f64a7b595","ios":"levelo://app?vid=a65c60d0-9838-4fce-ab82-173f64a7b595"},"vehicle_type_id":"4","last_reported":1743513688,"current_range_meters":10000,"station_id":"ce4bhn12rcd13ifvqgpg","pricing_plan_id":"cebpf4jnsgd1na2vs0mg"},{"bike_id":"e47bc61d-df2d-41b3-b26b-dd94e6e5e301","system_id":"levelo_inurba_marseille","lat":43.26225,"lon":5.42102,"is_reserved":false,"is_disabled":false,"rental_uris":{"android":"levelo://app?vid=e47bc61d-df2d-41b3-b26b-dd94e6e5e301","ios":"levelo://app?vid=e47bc61d-df2d-41b3-b26b-dd94e6e5e301"},"vehicle_type_id":"4","last_reported":1743513688,"current_range_meters":10800,"station_id":"","pricing_plan_id":"cebpf4jnsgd1na2vs0mg"},{"bike_id":"41e7a323-5090-4c6c-9dbf-b8655af19255","system_id":"levelo_inurba_marseille","lat":43.312254,"lon":5.368658,"is_reserved":false,"is_disabled":false,"rental_uris":{"android":"levelo://app?vid=41e7a323-5090-4c6c-9dbf-b8655af19255","ios":"levelo://app?vid=41e7a323-5090-4c6c-9dbf-b8655af19255"},"vehicle_type_id":"4","last_reported":1743513688,"current_range_meters":10800,"station_id":"ce4bgl92rcd13ifvqbq0","pricing_plan_id":"cebpf4jnsgd1na2vs0mg"},{"bike_id":"0da7a2ce-f87e-4451-836f-83f8990c003c","system_id":"levelo_inurba_marseille","lat":43.30281,"lon":5.37701,"is_reserved":false,"is_disabled":false,"rental_uris":{"android":"levelo://app?vid=0da7a2ce-f87e-4451-836f-83f8990c003c","ios":"levelo://app?vid=0da7a2ce-f87e-4451-836f-83f8990c003c"},"vehicle_type_id":"4","last_reported":1743513688,"current_range_meters":10800,"station_id":"ce4bguh2rcd13ifvqcj0","pricing_plan_id":"cebpf4jnsgd1na2vs0mg"},{"bike_id":"ab52962f-bc93-4ddd-be76-164eb31c1a2f","system_id":"levelo_inurba_marseille","lat":43.25017,"lon":5.38911,"is_reserved":false,"is_disabled":false,"rental_uris":{"android":"levelo://app?vid=ab52962f-bc93-4ddd-be76-164eb31c1a2f","ios":"levelo://app?vid=ab52962f-bc93-4ddd-be76-164eb31c1a2f"},"vehicle_type_id":"4","last_reported":1743513688,"current_range_meters":10800,"station_id":"ce4bhgp2rcd13ifvqfd0","pricing_plan_id":"cebpf4jnsgd1na2vs0mg"},{"bike_id":"a97d4f59-9d8d-490b-ab57-299c9aa7aa18","system_id":"levelo_inurba_marseille","lat":43.31889,"lon":5.40728,"is_reserved":false,"is_disabled":false,"rental_uris":{"android":"levelo://app?vid=a97d4f59-9d8d-490b-ab57-299c9aa7aa18","ios":"levelo://app?vid=a97d4f59-9d8d-490b-ab57-299c9aa7aa18"},"vehicle_type_id":"4","last_reported":1743513688,"current_range_meters":10800,"station_id":"ce4bhq12rcd13ifvqhig","pricing_plan_id":"cebpf4jnsgd1na2vs0mg"},{"bike_id":"27773214-4312-4127-aa54-e74cba3d6d07","system_id":"levelo_inurba_marseille","lat":43.27784,"lon":5.40769,"is_reserved":false,"is_disabled":false,"rental_uris":{"android":"levelo://app?vid=27773214-4312-4127-aa54-e74cba3d6d07","ios":"levelo://app?vid=27773214-4312-4127-aa54-e74cba3d6d07"},"vehicle_type_id":"4","last_reported":1743513688,"current_range_meters":11200,"station_id":"","pricing_plan_id":"cebpf4jnsgd1na2vs0mg"},{"bike_id":"e299215f-7118-4339-97b1-9efdceb67ddd","system_id":"levelo_inurba_marseille","lat":43.2762,"lon":5.36108,"is_reserved":false,"is_disabled":false,"rental_uris":{"android":"levelo://app?vid=e299215f-7118-4339-97b1-9efdceb67ddd","ios":"levelo://app?vid=e299215f-7118-4339-97b1-9efdceb67ddd"},"vehicle_type_id":"4","last_reported":1743513688,"current_range_meters":11200,"station_id":"ce4bgj92rcd13ifvqbe0","pricing_plan_id":"cebpf4jnsgd1na2vs0mg"},{"bike_id":"d16f1daf-473e-4375-b14d-6cbbc31e9b8d","system_id":"levelo_inurba_marseille","lat":43.30279,"lon":5.37698,"is_reserved":false,"is_disabled":false,"rental_uris":{"android":"levelo://app?vid=d16f1daf-473e-4375-b14d-6cbbc31e9b8d","ios":"levelo://app?vid=d16f1daf-473e-4375-b14d-6cbbc31e9b8d"},"vehicle_type_id":"4","last_reported":1743513688,"current_range_meters":11200,"station_id":"ce4bguh2rcd13ifvqcj0","pricing_plan_id":"cebpf4jnsgd1na2vs0mg"},{"bike_id":"612900fe-1377-409b-a8b2-daad20c69296","system_id":"levelo_inurba_marseille","lat":43.28662,"lon":5.38655,"is_reserved":false,"is_disabled":false,"rental_uris":{"android":"levelo://app?vid=612900fe-1377-409b-a8b2-daad20c69296","ios":"levelo://app?vid=612900fe-1377-409b-a8b2-daad20c69296"},"vehicle_type_id":"4","last_reported":1743513688,"current_range_meters":11200,"station_id":"ce4bh492rcd13ifvqdug","pricing_plan_id":"cebpf4jnsgd1na2vs0mg"},{"bike_id":"45475272-c32c-4c26-ace2-8962b57944a1","system_id":"levelo_inurba_marseille","lat":43.27918,"lon":5.39576,"is_reserved":false,"is_disabled":false,"rental_uris":{"android":"levelo://app?vid=45475272-c32c-4c26-ace2-8962b57944a1","ios":"levelo://app?vid=45475272-c32c-4c26-ace2-8962b57944a1"},"vehicle_type_id":"4","last_reported":1743513688,"current_range_meters":11200,"station_id":"ce4bhf92rcd13ifvqf40","pricing_plan_id":"cebpf4jnsgd1na2vs0mg"},{"bike_id":"d1fce3ab-df86-4997-9f31-e91ff7e54d78","system_id":"levelo_inurba_marseille","lat":43.23164,"lon":5.43713,"is_reserved":false,"is_disabled":false,"rental_uris":{"android":"levelo://app?vid=d1fce3ab-df86-4997-9f31-e91ff7e54d78","ios":"levelo://app?vid=d1fce3ab-df86-4997-9f31-e91ff7e54d78"},"vehicle_type_id":"4","last_reported":1743513688,"current_range_meters":11200,"station_id":"ce4bhmp2rcd13ifvqgog","pricing_plan_id":"cebpf4jnsgd1na2vs0mg"},{"bike_id":"398ca055-084d-42d0-8ca9-ed591e77e956","system_id":"levelo_inurba_marseille","lat":43.23151,"lon":5.4372,"is_reserved":false,"is_disabled":false,"rental_uris":{"android":"levelo://app?vid=398ca055-084d-42d0-8ca9-ed591e77e956","ios":"levelo://app?vid=398ca055-084d-42d0-8ca9-ed591e77e956"},"vehicle_type_id":"4","last_reported":1743513688,"current_range_meters":11200,"station_id":"ce4bhmp2rcd13ifvqgog","pricing_plan_id":"cebpf4jnsgd1na2vs0mg"},{"bike_id":"1b63ccb2-1298-4d96-b7f3-6ad6cace00e9","system_id":"levelo_inurba_marseille","lat":43.26112,"lon":5.40052,"is_reserved":false,"is_disabled":false,"rental_uris":{"android":"levelo://app?vid=1b63ccb2-1298-4d96-b7f3-6ad6cace00e9","ios":"levelo://app?vid=1b63ccb2-1298-4d96-b7f3-6ad6cace00e9"},"vehicle_type_id":"4","last_reported":1743513688,"current_range_meters":11600,"station_id":"","pricing_plan_id":"cebpf4jnsgd1na2vs0mg"},{"bike_id":"ac70a8b1-8ada-4b1d-b2cf-4fe610cb6097","system_id":"levelo_inurba_marseille","lat":43.29416,"lon":5.38626,"is_reserved":false,"is_disabled":false,"rental_uris":{"android":"levelo://app?vid=ac70a8b1-8ada-4b1d-b2cf-4fe610cb6097","ios":"levelo://app?vid=ac70a8b1-8ada-4b1d-b2cf-4fe610cb6097"},"vehicle_type_id":"4","last_reported":1743513688,"current_range_meters":11600,"station_id":"ce4bh2h2rcd13ifvqdh0","pricing_plan_id":"cebpf4jnsgd1na2vs0mg"},{"bike_id":"b02e4a43-9717-4b59-8e00-ba96563e9124","system_id":"levelo_inurba_marseille","lat":43.28351,"lon":5.38114,"is_reserved":false,"is_disabled":false,"rental_uris":{"android":"levelo://app?vid=b02e4a43-9717-4b59-8e00-ba96563e9124","ios":"levelo://app?vid=b02e4a43-9717-4b59-8e00-ba96563e9124"},"vehicle_type_id":"4","last_reported":1743513688,"current_range_meters":11600,"station_id":"ce4bh412rcd13ifvqdr0","pricing_plan_id":"cebpf4jnsgd1na2vs0mg"},{"bike_id":"656b6ba3-aa04-43a2-a7cd-79db011b6110","system_id":"levelo_inurba_marseille","lat":43.29266,"lon":5.38438,"is_reserved":false,"is_disabled":false,"rental_uris":{"android":"levelo://app?vid=656b6ba3-aa04-43a2-a7cd-79db011b6110","ios":"levelo://app?vid=656b6ba3-aa04-43a2-a7cd-79db011b6110"},"vehicle_type_id":"4","last_reported":1743513688,"current_range_meters":11600,"station_id":"ce4bh692rcd13ifvqea0","pricing_plan_id":"cebpf4jnsgd1na2vs0mg"},{"bike_id":"7e1ab23d-74fe-43fc-b146-da662e2834cb","system_id":"levelo_inurba_marseille","lat":43.29006,"lon":5.35611,"is_reserved":false,"is_disabled":false,"rental_uris":{"android":"levelo://app?vid=7e1ab23d-74fe-43fc-b146-da662e2834cb","ios":"levelo://app?vid=7e1ab23d-74fe-43fc-b146-da662e2834cb"},"vehicle_type_id":"4","last_reported":1743513688,"current_range_meters":11600,"station_id":"ce4bhb92rcd13ifvqen0","pricing_plan_id":"cebpf4jnsgd1na2vs0mg"},{"bike_id":"f2dfd2a0-5846-4c43-9aae-f5b5157fea3b","system_id":"levelo_inurba_marseille","lat":43.28631,"lon":5.35087,"is_reserved":false,"is_disabled":false,"rental_uris":{"android":"levelo://app?vid=f2dfd2a0-5846-4c43-9aae-f5b5157fea3b","ios":"levelo://app?vid=f2dfd2a0-5846-4c43-9aae-f5b5157fea3b"},"vehicle_type_id":"4","last_reported":1743513688,"current_range_meters":11600,"station_id":"ce4bhch2rcd13ifvqeug","pricing_plan_id":"cebpf4jnsgd1na2vs0mg"},{"bike_id":"b2242a78-1a46-4f78-a052-02e3dba2d6e2","system_id":"levelo_inurba_marseille","lat":43.25588,"lon":5.38248,"is_reserved":false,"is_disabled":false,"rental_uris":{"android":"levelo://app?vid=b2242a78-1a46-4f78-a052-02e3dba2d6e2","ios":"levelo://app?vid=b2242a78-1a46-4f78-a052-02e3dba2d6e2"},"vehicle_type_id":"4","last_reported":1743513688,"current_range_meters":11600,"station_id":"ce4bhih2rcd13ifvqfs0","pricing_plan_id":"cebpf4jnsgd1na2vs0mg"},{"bike_id":"454f3edb-8c0c-4169-85a5-46e9b08ede8d","system_id":"levelo_inurba_marseille","lat":43.28696,"lon":5.3998,"is_reserved":false,"is_disabled":false,"rental_uris":{"android":"levelo://app?vid=454f3edb-8c0c-4169-85a5-46e9b08ede8d","ios":"levelo://app?vid=454f3edb-8c0c-4169-85a5-46e9b08ede8d"},"vehicle_type_id":"4","last_reported":1743513688,"current_range_meters":11600,"station_id":"ce4bho92rcd13ifvqh3g","pricing_plan_id":"cebpf4jnsgd1na2vs0mg"},{"bike_id":"1d81634e-67bb-459f-ab95-a39bb9c1aa6b","system_id":"levelo_inurba_marseille","lat":43.31314,"lon":5.36705,"is_reserved":false,"is_disabled":false,"rental_uris":{"android":"levelo://app?vid=1d81634e-67bb-459f-ab95-a39bb9c1aa6b","ios":"levelo://app?vid=1d81634e-67bb-459f-ab95-a39bb9c1aa6b"},"vehicle_type_id":"4","last_reported":1743513688,"current_range_meters":12000,"station_id":"ce4bgr92rcd13ifvqc6g","pricing_plan_id":"cebpf4jnsgd1na2vs0mg"},{"bike_id":"c7c91e33-8619-4fe2-929c-34acde8fb48f","system_id":"levelo_inurba_marseille","lat":43.2792,"lon":5.39577,"is_reserved":false,"is_disabled":false,"rental_uris":{"android":"levelo://app?vid=c7c91e33-8619-4fe2-929c-34acde8fb48f","ios":"levelo://app?vid=c7c91e33-8619-4fe2-929c-34acde8fb48f"},"vehicle_type_id":"4","last_reported":1743513688,"current_range_meters":12000,"station_id":"ce4bhf92rcd13ifvqf40","pricing_plan_id":"cebpf4jnsgd1na2vs0mg"},{"bike_id":"f9556671-f8e9-4ef6-b997-21a30e85c7b2","system_id":"levelo_inurba_marseille","lat":43.23146,"lon":5.43714,"is_reserved":false,"is_disabled":false,"rental_uris":{"android":"levelo://app?vid=f9556671-f8e9-4ef6-b997-21a30e85c7b2","ios":"levelo://app?vid=f9556671-f8e9-4ef6-b997-21a30e85c7b2"},"vehicle_type_id":"4","last_reported":1743513688,"current_range_meters":12000,"station_id":"ce4bhmp2rcd13ifvqgog","pricing_plan_id":"cebpf4jnsgd1na2vs0mg"},{"bike_id":"4220d26d-272d-4b23-9cec-a79c1d919b49","system_id":"levelo_inurba_marseille","lat":43.30692,"lon":5.37177,"is_reserved":false,"is_disabled":false,"rental_uris":{"android":"levelo://app?vid=4220d26d-272d-4b23-9cec-a79c1d919b49","ios":"levelo://app?vid=4220d26d-272d-4b23-9cec-a79c1d919b49"},"vehicle_type_id":"4","last_reported":1743513688,"current_range_meters":12400,"station_id":"","pricing_plan_id":"cebpf4jnsgd1na2vs0mg"},{"bike_id":"f696cdff-de75-4dab-94f2-a61180f7e005","system_id":"levelo_inurba_marseille","lat":43.29929,"lon":5.36548,"is_reserved":false,"is_disabled":false,"rental_uris":{"android":"levelo://app?vid=f696cdff-de75-4dab-94f2-a61180f7e005","ios":"levelo://app?vid=f696cdff-de75-4dab-94f2-a61180f7e005"},"vehicle_type_id":"4","last_reported":1743513688,"current_range_meters":12400,"station_id":"ce4bgm92rcd13ifvqbr0","pricing_plan_id":"cebpf4jnsgd1na2vs0mg"},{"bike_id":"564e3f4e-e559-42d2-927f-42e2a5675775","system_id":"levelo_inurba_marseille","lat":43.30533,"lon":5.36681,"is_reserved":false,"is_disabled":false,"rental_uris":{"android":"levelo://app?vid=564e3f4e-e559-42d2-927f-42e2a5675775","ios":"levelo://app?vid=564e3f4e-e559-42d2-927f-42e2a5675775"},"vehicle_type_id":"4","last_reported":1743513688,"current_range_meters":12400,"station_id":"ce4bgrp2rcd13ifvqc9g","pricing_plan_id":"cebpf4jnsgd1na2vs0mg"},{"bike_id":"dfc1efd9-fe5a-40fc-8841-a9aa650c7681","system_id":"levelo_inurba_marseille","lat":43.28979,"lon":5.37846,"is_reserved":false,"is_disabled":false,"rental_uris":{"android":"levelo://app?vid=dfc1efd9-fe5a-40fc-8841-a9aa650c7681","ios":"levelo://app?vid=dfc1efd9-fe5a-40fc-8841-a9aa650c7681"},"vehicle_type_id":"4","last_reported":1743513688,"current_range_meters":12400,"station_id":"ce4bh9p2rcd13ifvqed0","pricing_plan_id":"cebpf4jnsgd1na2vs0mg"},{"bike_id":"34ead93f-0548-429e-a369-3703fc242f80","system_id":"levelo_inurba_marseille","lat":43.25593,"lon":5.38232,"is_reserved":false,"is_disabled":false,"rental_uris":{"android":"levelo://app?vid=34ead93f-0548-429e-a369-3703fc242f80","ios":"levelo://app?vid=34ead93f-0548-429e-a369-3703fc242f80"},"vehicle_type_id":"4","last_reported":1743513688,"current_range_meters":12400,"station_id":"ce4bhih2rcd13ifvqfs0","pricing_plan_id":"cebpf4jnsgd1na2vs0mg"},{"bike_id":"07301378-e9da-4342-b685-b37f1a4d3ea5","system_id":"levelo_inurba_marseille","lat":43.28699,"lon":5.39979,"is_reserved":false,"is_disabled":false,"rental_uris":{"android":"levelo://app?vid=07301378-e9da-4342-b685-b37f1a4d3ea5","ios":"levelo://app?vid=07301378-e9da-4342-b685-b37f1a4d3ea5"},"vehicle_type_id":"4","last_reported":1743513688,"current_range_meters":12400,"station_id":"ce4bho92rcd13ifvqh3g","pricing_plan_id":"cebpf4jnsgd1na2vs0mg"},{"bike_id":"b21a2791-9324-49f1-a623-2a8533e817db","system_id":"levelo_inurba_marseille","lat":43.29782,"lon":5.38098,"is_reserved":false,"is_disabled":false,"rental_uris":{"android":"levelo://app?vid=b21a2791-9324-49f1-a623-2a8533e817db","ios":"levelo://app?vid=b21a2791-9324-49f1-a623-2a8533e817db"},"vehicle_type_id":"4","last_reported":1743513688,"current_range_meters":12800,"station_id":"ce4bgip2rcd13ifvqbb0","pricing_plan_id":"cebpf4jnsgd1na2vs0mg"},{"bike_id":"c3742909-8ac1-45e8-bbc0-0a14494abaa8","system_id":"levelo_inurba_marseille","lat":43.24646,"lon":5.38889,"is_reserved":false,"is_disabled":false,"rental_uris":{"android":"levelo://app?vid=c3742909-8ac1-45e8-bbc0-0a14494abaa8","ios":"levelo://app?vid=c3742909-8ac1-45e8-bbc0-0a14494abaa8"},"vehicle_type_id":"4","last_reported":1743513688,"current_range_meters":12800,"station_id":"ce4bhg12rcd13ifvqf60","pricing_plan_id":"cebpf4jnsgd1na2vs0mg"},{"bike_id":"6e6a66e5-58ca-4db1-9695-b46ed5c28827","system_id":"levelo_inurba_marseille","lat":43.31799,"lon":5.36832,"is_reserved":false,"is_disabled":false,"rental_uris":{"android":"levelo://app?vid=6e6a66e5-58ca-4db1-9695-b46ed5c28827","ios":"levelo://app?vid=6e6a66e5-58ca-4db1-9695-b46ed5c28827"},"vehicle_type_id":"4","last_reported":1743513688,"current_range_meters":13600,"station_id":"","pricing_plan_id":"cebpf4jnsgd1na2vs0mg"},{"bike_id":"4474f66b-3eb6-4aea-af7b-d43fdaacf384","system_id":"levelo_inurba_marseille","lat":43.28225,"lon":5.40267,"is_reserved":false,"is_disabled":false,"rental_uris":{"android":"levelo://app?vid=4474f66b-3eb6-4aea-af7b-d43fdaacf384","ios":"levelo://app?vid=4474f66b-3eb6-4aea-af7b-d43fdaacf384"},"vehicle_type_id":"4","last_reported":1743513688,"current_range_meters":13600,"station_id":"","pricing_plan_id":"cebpf4jnsgd1na2vs0mg"},{"bike_id":"86354ae6-2ad3-4c03-a340-c661e15634b2","system_id":"levelo_inurba_marseille","lat":43.30154,"lon":5.37417,"is_reserved":false,"is_disabled":false,"rental_uris":{"android":"levelo://app?vid=86354ae6-2ad3-4c03-a340-c661e15634b2","ios":"levelo://app?vid=86354ae6-2ad3-4c03-a340-c661e15634b2"},"vehicle_type_id":"4","last_reported":1743513688,"current_range_meters":13600,"station_id":"ce4bgs92rcd13ifvqcc0","pricing_plan_id":"cebpf4jnsgd1na2vs0mg"},{"bike_id":"36ce5e4a-7774-4d2b-bf6a-310ea287ea7b","system_id":"levelo_inurba_marseille","lat":43.33594,"lon":5.40988,"is_reserved":false,"is_disabled":false,"rental_uris":{"android":"levelo://app?vid=36ce5e4a-7774-4d2b-bf6a-310ea287ea7b","ios":"levelo://app?vid=36ce5e4a-7774-4d2b-bf6a-310ea287ea7b"},"vehicle_type_id":"4","last_reported":1743513688,"current_range_meters":13600,"station_id":"ce4bhqh2rcd13ifvqhmg","pricing_plan_id":"cebpf4jnsgd1na2vs0mg"},{"bike_id":"6e496b30-8dcc-4b26-9a06-6a6b041092f5","system_id":"levelo_inurba_marseille","lat":43.29792,"lon":5.39346,"is_reserved":false,"is_disabled":false,"rental_uris":{"android":"levelo://app?vid=6e496b30-8dcc-4b26-9a06-6a6b041092f5","ios":"levelo://app?vid=6e496b30-8dcc-4b26-9a06-6a6b041092f5"},"vehicle_type_id":"4","last_reported":1743513688,"current_range_meters":13600,"station_id":"chh1huq6cuj3fo74tm60","pricing_plan_id":"cebpf4jnsgd1na2vs0mg"},{"bike_id":"4c56fffc-ae3a-45ce-87a3-f2bc307be108","system_id":"levelo_inurba_marseille","lat":43.30889,"lon":5.36831,"is_reserved":false,"is_disabled":false,"rental_uris":{"android":"levelo://app?vid=4c56fffc-ae3a-45ce-87a3-f2bc307be108","ios":"levelo://app?vid=4c56fffc-ae3a-45ce-87a3-f2bc307be108"},"vehicle_type_id":"4","last_reported":1743513688,"current_range_meters":14000,"station_id":"ce4bgn92rcd13ifvqbvg","pricing_plan_id":"cebpf4jnsgd1na2vs0mg"},{"bike_id":"bcf008f3-7028-403a-aa8f-4afd5d0208f6","system_id":"levelo_inurba_marseille","lat":43.28844,"lon":5.39315,"is_reserved":false,"is_disabled":false,"rental_uris":{"android":"levelo://app?vid=bcf008f3-7028-403a-aa8f-4afd5d0208f6","ios":"levelo://app?vid=bcf008f3-7028-403a-aa8f-4afd5d0208f6"},"vehicle_type_id":"4","last_reported":1743513688,"current_range_meters":14000,"station_id":"ce4bh2p2rcd13ifvqdi0","pricing_plan_id":"cebpf4jnsgd1na2vs0mg"},{"bike_id":"cadd65cb-0b06-4b67-9ef1-8b566de10c1b","system_id":"levelo_inurba_marseille","lat":43.28928,"lon":5.38386,"is_reserved":false,"is_disabled":false,"rental_uris":{"android":"levelo://app?vid=cadd65cb-0b06-4b67-9ef1-8b566de10c1b","ios":"levelo://app?vid=cadd65cb-0b06-4b67-9ef1-8b566de10c1b"},"vehicle_type_id":"4","last_reported":1743513688,"current_range_meters":14000,"station_id":"ce4bh612rcd13ifvqe6g","pricing_plan_id":"cebpf4jnsgd1na2vs0mg"},{"bike_id":"e3890fc2-8d1d-48a8-8cb4-0c10a2e4440d","system_id":"levelo_inurba_marseille","lat":43.2887,"lon":5.35869,"is_reserved":false,"is_disabled":false,"rental_uris":{"android":"levelo://app?vid=e3890fc2-8d1d-48a8-8cb4-0c10a2e4440d","ios":"levelo://app?vid=e3890fc2-8d1d-48a8-8cb4-0c10a2e4440d"},"vehicle_type_id":"4","last_reported":1743513688,"current_range_meters":14000,"station_id":"ce4bhb12rcd13ifvqem0","pricing_plan_id":"cebpf4jnsgd1na2vs0mg"},{"bike_id":"0bd2f325-4f87-4b30-903b-384aaa41ce34","system_id":"levelo_inurba_marseille","lat":43.282765,"lon":5.350563,"is_reserved":false,"is_disabled":false,"rental_uris":{"android":"levelo://app?vid=0bd2f325-4f87-4b30-903b-384aaa41ce34","ios":"levelo://app?vid=0bd2f325-4f87-4b30-903b-384aaa41ce34"},"vehicle_type_id":"4","last_reported":1743513688,"current_range_meters":14000,"station_id":"ce4bhh12rcd13ifvqfg0","pricing_plan_id":"cebpf4jnsgd1na2vs0mg"},{"bike_id":"4de37f6d-0727-4e2a-9f9a-df36d159d896","system_id":"levelo_inurba_marseille","lat":43.27674,"lon":5.38874,"is_reserved":false,"is_disabled":false,"rental_uris":{"android":"levelo://app?vid=4de37f6d-0727-4e2a-9f9a-df36d159d896","ios":"levelo://app?vid=4de37f6d-0727-4e2a-9f9a-df36d159d896"},"vehicle_type_id":"4","last_reported":1743513688,"current_range_meters":14000,"station_id":"ce4bhi12rcd13ifvqfo0","pricing_plan_id":"cebpf4jnsgd1na2vs0mg"},{"bike_id":"4c564b34-6817-415a-8489-26db1ea03ff9","system_id":"levelo_inurba_marseille","lat":43.23163,"lon":5.43723,"is_reserved":false,"is_disabled":false,"rental_uris":{"android":"levelo://app?vid=4c564b34-6817-415a-8489-26db1ea03ff9","ios":"levelo://app?vid=4c564b34-6817-415a-8489-26db1ea03ff9"},"vehicle_type_id":"4","last_reported":1743513688,"current_range_meters":14000,"station_id":"ce4bhmp2rcd13ifvqgog","pricing_plan_id":"cebpf4jnsgd1na2vs0mg"},{"bike_id":"a9392c32-b8e3-41f9-ae3c-96f82eb8a90f","system_id":"levelo_inurba_marseille","lat":43.23063,"lon":5.35493,"is_reserved":false,"is_disabled":false,"rental_uris":{"android":"levelo://app?vid=a9392c32-b8e3-41f9-ae3c-96f82eb8a90f","ios":"levelo://app?vid=a9392c32-b8e3-41f9-ae3c-96f82eb8a90f"},"vehicle_type_id":"4","last_reported":1743513688,"current_range_meters":14000,"station_id":"cpo3342slgdg3j2ifvpg","pricing_plan_id":"cebpf4jnsgd1na2vs0mg"},{"bike_id":"7801b1a3-eafe-475b-b02e-f08ff3929cde","system_id":"levelo_inurba_marseille","lat":43.29961,"lon":5.37163,"is_reserved":false,"is_disabled":false,"rental_uris":{"android":"levelo://app?vid=7801b1a3-eafe-475b-b02e-f08ff3929cde","ios":"levelo://app?vid=7801b1a3-eafe-475b-b02e-f08ff3929cde"},"vehicle_type_id":"4","last_reported":1743513688,"current_range_meters":14400,"station_id":"ce4bgr92rcd13ifvqc7g","pricing_plan_id":"cebpf4jnsgd1na2vs0mg"},{"bike_id":"74a14bf3-7e95-4880-83c1-215a3f0ee025","system_id":"levelo_inurba_marseille","lat":43.2841,"lon":5.37508,"is_reserved":false,"is_disabled":false,"rental_uris":{"android":"levelo://app?vid=74a14bf3-7e95-4880-83c1-215a3f0ee025","ios":"levelo://app?vid=74a14bf3-7e95-4880-83c1-215a3f0ee025"},"vehicle_type_id":"4","last_reported":1743513688,"current_range_meters":14400,"station_id":"ce4bh412rcd13ifvqds0","pricing_plan_id":"cebpf4jnsgd1na2vs0mg"},{"bike_id":"bf98cb9c-37fd-42e9-9af0-61b24e7e4022","system_id":"levelo_inurba_marseille","lat":43.290936,"lon":5.38145,"is_reserved":false,"is_disabled":false,"rental_uris":{"android":"levelo://app?vid=bf98cb9c-37fd-42e9-9af0-61b24e7e4022","ios":"levelo://app?vid=bf98cb9c-37fd-42e9-9af0-61b24e7e4022"},"vehicle_type_id":"4","last_reported":1743513688,"current_range_meters":14400,"station_id":"ce4bh512rcd13ifvqe2g","pricing_plan_id":"cebpf4jnsgd1na2vs0mg"},{"bike_id":"159b1a57-d33a-4c4e-9de5-425002d00e96","system_id":"levelo_inurba_marseille","lat":43.25924,"lon":5.40897,"is_reserved":false,"is_disabled":false,"rental_uris":{"android":"levelo://app?vid=159b1a57-d33a-4c4e-9de5-425002d00e96","ios":"levelo://app?vid=159b1a57-d33a-4c4e-9de5-425002d00e96"},"vehicle_type_id":"4","last_reported":1743513688,"current_range_meters":14400,"station_id":"ce4bhm92rcd13ifvqglg","pricing_plan_id":"cebpf4jnsgd1na2vs0mg"},{"bike_id":"bad8b686-d4b1-4fd1-a906-eeff21f737a2","system_id":"levelo_inurba_marseille","lat":43.241753,"lon":5.397242,"is_reserved":false,"is_disabled":false,"rental_uris":{"android":"levelo://app?vid=bad8b686-d4b1-4fd1-a906-eeff21f737a2","ios":"levelo://app?vid=bad8b686-d4b1-4fd1-a906-eeff21f737a2"},"vehicle_type_id":"4","last_reported":1743513688,"current_range_meters":14400,"station_id":"ce4bhn12rcd13ifvqgpg","pricing_plan_id":"cebpf4jnsgd1na2vs0mg"},{"bike_id":"0e09acc6-9172-481e-89bd-716e3551020e","system_id":"levelo_inurba_marseille","lat":43.29782,"lon":5.38079,"is_reserved":false,"is_disabled":false,"rental_uris":{"android":"levelo://app?vid=0e09acc6-9172-481e-89bd-716e3551020e","ios":"levelo://app?vid=0e09acc6-9172-481e-89bd-716e3551020e"},"vehicle_type_id":"4","last_reported":1743513688,"current_range_meters":14800,"station_id":"ce4bgip2rcd13ifvqbb0","pricing_plan_id":"cebpf4jnsgd1na2vs0mg"},{"bike_id":"becc06f9-9812-4090-a686-a784791e7c79","system_id":"levelo_inurba_marseille","lat":43.28702,"lon":5.37399,"is_reserved":false,"is_disabled":false,"rental_uris":{"android":"levelo://app?vid=becc06f9-9812-4090-a686-a784791e7c79","ios":"levelo://app?vid=becc06f9-9812-4090-a686-a784791e7c79"},"vehicle_type_id":"4","last_reported":1743513688,"current_range_meters":14800,"station_id":"ce4bh3p2rcd13ifvqdq0","pricing_plan_id":"cebpf4jnsgd1na2vs0mg"},{"bike_id":"025b5dd4-3c51-4573-b622-a8341c4be991","system_id":"levelo_inurba_marseille","lat":43.27498,"lon":5.42453,"is_reserved":false,"is_disabled":false,"rental_uris":{"android":"levelo://app?vid=025b5dd4-3c51-4573-b622-a8341c4be991","ios":"levelo://app?vid=025b5dd4-3c51-4573-b622-a8341c4be991"},"vehicle_type_id":"4","last_reported":1743513688,"current_range_meters":14800,"station_id":"ce4bhn92rcd13ifvqgrg","pricing_plan_id":"cebpf4jnsgd1na2vs0mg"},{"bike_id":"25a67385-ef94-4aa8-bbac-6781fb038940","system_id":"levelo_inurba_marseille","lat":43.30542,"lon":5.36712,"is_reserved":false,"is_disabled":false,"rental_uris":{"android":"levelo://app?vid=25a67385-ef94-4aa8-bbac-6781fb038940","ios":"levelo://app?vid=25a67385-ef94-4aa8-bbac-6781fb038940"},"vehicle_type_id":"4","last_reported":1743513688,"current_range_meters":15200,"station_id":"ce4bgrp2rcd13ifvqc9g","pricing_plan_id":"cebpf4jnsgd1na2vs0mg"},{"bike_id":"e13794bc-4cb0-41dc-9c5a-eb9780261cbb","system_id":"levelo_inurba_marseille","lat":43.30796,"lon":5.38165,"is_reserved":false,"is_disabled":false,"rental_uris":{"android":"levelo://app?vid=e13794bc-4cb0-41dc-9c5a-eb9780261cbb","ios":"levelo://app?vid=e13794bc-4cb0-41dc-9c5a-eb9780261cbb"},"vehicle_type_id":"4","last_reported":1743513688,"current_range_meters":15200,"station_id":"ce4bgt12rcd13ifvqce0","pricing_plan_id":"cebpf4jnsgd1na2vs0mg"},{"bike_id":"46e9c1f6-7534-4be3-b54d-6d942d09b6c5","system_id":"levelo_inurba_marseille","lat":43.28478,"lon":5.38412,"is_reserved":false,"is_disabled":false,"rental_uris":{"android":"levelo://app?vid=46e9c1f6-7534-4be3-b54d-6d942d09b6c5","ios":"levelo://app?vid=46e9c1f6-7534-4be3-b54d-6d942d09b6c5"},"vehicle_type_id":"4","last_reported":1743513688,"current_range_meters":15200,"station_id":"ce4bh512rcd13ifvqe3g","pricing_plan_id":"cebpf4jnsgd1na2vs0mg"},{"bike_id":"b80ee275-2592-4659-b2e9-175feb839700","system_id":"levelo_inurba_marseille","lat":43.23189,"lon":5.35536,"is_reserved":false,"is_disabled":false,"rental_uris":{"android":"levelo://app?vid=b80ee275-2592-4659-b2e9-175feb839700","ios":"levelo://app?vid=b80ee275-2592-4659-b2e9-175feb839700"},"vehicle_type_id":"4","last_reported":1743513688,"current_range_meters":15200,"station_id":"ce4bhu92rcd13ifvqi70","pricing_plan_id":"cebpf4jnsgd1na2vs0mg"},{"bike_id":"dd3db03f-0f43-4986-9ec8-2a76818fb28c","system_id":"levelo_inurba_marseille","lat":43.23215,"lon":5.35536,"is_reserved":false,"is_disabled":false,"rental_uris":{"android":"levelo://app?vid=dd3db03f-0f43-4986-9ec8-2a76818fb28c","ios":"levelo://app?vid=dd3db03f-0f43-4986-9ec8-2a76818fb28c"},"vehicle_type_id":"4","last_reported":1743513688,"current_range_meters":15200,"station_id":"ce4bhu92rcd13ifvqi70","pricing_plan_id":"cebpf4jnsgd1na2vs0mg"},{"bike_id":"dd8eb8ef-4e76-4e50-a068-19aab2791b35","system_id":"levelo_inurba_marseille","lat":43.30524,"lon":5.3653,"is_reserved":false,"is_disabled":false,"rental_uris":{"android":"levelo://app?vid=dd8eb8ef-4e76-4e50-a068-19aab2791b35","ios":"levelo://app?vid=dd8eb8ef-4e76-4e50-a068-19aab2791b35"},"vehicle_type_id":"4","last_reported":1743513688,"current_range_meters":16000,"station_id":"","pricing_plan_id":"cebpf4jnsgd1na2vs0mg"},{"bike_id":"d8acaebb-ef42-4b7e-afce-7bec91354c50","system_id":"levelo_inurba_marseille","lat":43.2987,"lon":5.38898,"is_reserved":false,"is_disabled":false,"rental_uris":{"android":"levelo://app?vid=d8acaebb-ef42-4b7e-afce-7bec91354c50","ios":"levelo://app?vid=d8acaebb-ef42-4b7e-afce-7bec91354c50"},"vehicle_type_id":"4","last_reported":1743513688,"current_range_meters":16000,"station_id":"","pricing_plan_id":"cebpf4jnsgd1na2vs0mg"},{"bike_id":"75dae32f-059a-4b5b-a5e8-963c6eda2f66","system_id":"levelo_inurba_marseille","lat":43.27512,"lon":5.41064,"is_reserved":false,"is_disabled":false,"rental_uris":{"android":"levelo://app?vid=75dae32f-059a-4b5b-a5e8-963c6eda2f66","ios":"levelo://app?vid=75dae32f-059a-4b5b-a5e8-963c6eda2f66"},"vehicle_type_id":"4","last_reported":1743513688,"current_range_meters":16000,"station_id":"","pricing_plan_id":"cebpf4jnsgd1na2vs0mg"},{"bike_id":"4e2d9e59-f1db-403f-98c2-eb6c2fd96925","system_id":"levelo_inurba_marseille","lat":43.298064,"lon":5.381098,"is_reserved":false,"is_disabled":false,"rental_uris":{"android":"levelo://app?vid=4e2d9e59-f1db-403f-98c2-eb6c2fd96925","ios":"levelo://app?vid=4e2d9e59-f1db-403f-98c2-eb6c2fd96925"},"vehicle_type_id":"4","last_reported":1743513688,"current_range_meters":16000,"station_id":"ce4bgip2rcd13ifvqbb0","pricing_plan_id":"cebpf4jnsgd1na2vs0mg"},{"bike_id":"66a6759f-f104-404f-ba35-7dd5d87e6d0b","system_id":"levelo_inurba_marseille","lat":43.30912,"lon":5.36858,"is_reserved":false,"is_disabled":false,"rental_uris":{"android":"levelo://app?vid=66a6759f-f104-404f-ba35-7dd5d87e6d0b","ios":"levelo://app?vid=66a6759f-f104-404f-ba35-7dd5d87e6d0b"},"vehicle_type_id":"4","last_reported":1743513688,"current_range_meters":16000,"station_id":"ce4bgn92rcd13ifvqbvg","pricing_plan_id":"cebpf4jnsgd1na2vs0mg"},{"bike_id":"e40bd89a-e164-46de-a63c-3e3c4f648a68","system_id":"levelo_inurba_marseille","lat":43.30942,"lon":5.39076,"is_reserved":false,"is_disabled":false,"rental_uris":{"android":"levelo://app?vid=e40bd89a-e164-46de-a63c-3e3c4f648a68","ios":"levelo://app?vid=e40bd89a-e164-46de-a63c-3e3c4f648a68"},"vehicle_type_id":"4","last_reported":1743513688,"current_range_meters":16000,"station_id":"ce4bgup2rcd13ifvqco0","pricing_plan_id":"cebpf4jnsgd1na2vs0mg"},{"bike_id":"279d44a6-199a-4799-8cba-a0c78ac7108c","system_id":"levelo_inurba_marseille","lat":43.28421,"lon":5.34991,"is_reserved":false,"is_disabled":false,"rental_uris":{"android":"levelo://app?vid=279d44a6-199a-4799-8cba-a0c78ac7108c","ios":"levelo://app?vid=279d44a6-199a-4799-8cba-a0c78ac7108c"},"vehicle_type_id":"4","last_reported":1743513688,"current_range_meters":16000,"station_id":"ce4bhbh2rcd13ifvqepg","pricing_plan_id":"cebpf4jnsgd1na2vs0mg"},{"bike_id":"a2f83d40-b1ce-4e86-8b1a-283df48695d6","system_id":"levelo_inurba_marseille","lat":43.28617,"lon":5.35107,"is_reserved":false,"is_disabled":false,"rental_uris":{"android":"levelo://app?vid=a2f83d40-b1ce-4e86-8b1a-283df48695d6","ios":"levelo://app?vid=a2f83d40-b1ce-4e86-8b1a-283df48695d6"},"vehicle_type_id":"4","last_reported":1743513688,"current_range_meters":16000,"station_id":"ce4bhch2rcd13ifvqeug","pricing_plan_id":"cebpf4jnsgd1na2vs0mg"},{"bike_id":"f243ee3c-9b98-451a-9f48-7ec3e30e2cbf","system_id":"levelo_inurba_marseille","lat":43.27913,"lon":5.39587,"is_reserved":false,"is_disabled":false,"rental_uris":{"android":"levelo://app?vid=f243ee3c-9b98-451a-9f48-7ec3e30e2cbf","ios":"levelo://app?vid=f243ee3c-9b98-451a-9f48-7ec3e30e2cbf"},"vehicle_type_id":"4","last_reported":1743513688,"current_range_meters":16000,"station_id":"ce4bhf92rcd13ifvqf40","pricing_plan_id":"cebpf4jnsgd1na2vs0mg"},{"bike_id":"52eed171-d991-442d-9aed-a52bb936dd5e","system_id":"levelo_inurba_marseille","lat":43.2668,"lon":5.38281,"is_reserved":false,"is_disabled":false,"rental_uris":{"android":"levelo://app?vid=52eed171-d991-442d-9aed-a52bb936dd5e","ios":"levelo://app?vid=52eed171-d991-442d-9aed-a52bb936dd5e"},"vehicle_type_id":"4","last_reported":1743513688,"current_range_meters":16000,"station_id":"ce4bhg92rcd13ifvqf90","pricing_plan_id":"cebpf4jnsgd1na2vs0mg"},{"bike_id":"91156235-df03-429e-8521-27a070662b6c","system_id":"levelo_inurba_marseille","lat":43.26215,"lon":5.37442,"is_reserved":false,"is_disabled":false,"rental_uris":{"android":"levelo://app?vid=91156235-df03-429e-8521-27a070662b6c","ios":"levelo://app?vid=91156235-df03-429e-8521-27a070662b6c"},"vehicle_type_id":"4","last_reported":1743513688,"current_range_meters":16000,"station_id":"ce4bhgp2rcd13ifvqfc0","pricing_plan_id":"cebpf4jnsgd1na2vs0mg"},{"bike_id":"0ed80ee8-56b7-4580-8a94-56be39e58fa3","system_id":"levelo_inurba_marseille","lat":43.25581,"lon":5.38238,"is_reserved":false,"is_disabled":false,"rental_uris":{"android":"levelo://app?vid=0ed80ee8-56b7-4580-8a94-56be39e58fa3","ios":"levelo://app?vid=0ed80ee8-56b7-4580-8a94-56be39e58fa3"},"vehicle_type_id":"4","last_reported":1743513688,"current_range_meters":16000,"station_id":"ce4bhih2rcd13ifvqfs0","pricing_plan_id":"cebpf4jnsgd1na2vs0mg"},{"bike_id":"825cbdab-0470-4e67-a73c-7eee584c48ad","system_id":"levelo_inurba_marseille","lat":43.32542,"lon":5.41439,"is_reserved":false,"is_disabled":false,"rental_uris":{"android":"levelo://app?vid=825cbdab-0470-4e67-a73c-7eee584c48ad","ios":"levelo://app?vid=825cbdab-0470-4e67-a73c-7eee584c48ad"},"vehicle_type_id":"4","last_reported":1743513688,"current_range_meters":16000,"station_id":"ce4bhq12rcd13ifvqhhg","pricing_plan_id":"cebpf4jnsgd1na2vs0mg"},{"bike_id":"ece19c05-847a-44ea-beb6-6c482f314690","system_id":"levelo_inurba_marseille","lat":43.295034,"lon":5.385894,"is_reserved":false,"is_disabled":false,"rental_uris":{"android":"levelo://app?vid=ece19c05-847a-44ea-beb6-6c482f314690","ios":"levelo://app?vid=ece19c05-847a-44ea-beb6-6c482f314690"},"vehicle_type_id":"4","last_reported":1743513688,"current_range_meters":16400,"station_id":"ce4bgih2rcd13ifvqba0","pricing_plan_id":"cebpf4jnsgd1na2vs0mg"},{"bike_id":"d5d1d312-dd8a-4daf-8675-aed7cbc455c7","system_id":"levelo_inurba_marseille","lat":43.29368,"lon":5.37847,"is_reserved":false,"is_disabled":false,"rental_uris":{"android":"levelo://app?vid=d5d1d312-dd8a-4daf-8675-aed7cbc455c7","ios":"levelo://app?vid=d5d1d312-dd8a-4daf-8675-aed7cbc455c7"},"vehicle_type_id":"4","last_reported":1743513688,"current_range_meters":16400,"station_id":"ce4bgjh2rcd13ifvqbf0","pricing_plan_id":"cebpf4jnsgd1na2vs0mg"},{"bike_id":"82c4fce1-646c-4578-bb24-dd1ee69e18d6","system_id":"levelo_inurba_marseille","lat":43.28704,"lon":5.37394,"is_reserved":false,"is_disabled":false,"rental_uris":{"android":"levelo://app?vid=82c4fce1-646c-4578-bb24-dd1ee69e18d6","ios":"levelo://app?vid=82c4fce1-646c-4578-bb24-dd1ee69e18d6"},"vehicle_type_id":"4","last_reported":1743513688,"current_range_meters":16400,"station_id":"ce4bh3p2rcd13ifvqdq0","pricing_plan_id":"cebpf4jnsgd1na2vs0mg"},{"bike_id":"efd8a7d0-f260-48f2-a96d-f5f6ab1ce17d","system_id":"levelo_inurba_marseille","lat":43.2872,"lon":5.37933,"is_reserved":false,"is_disabled":false,"rental_uris":{"android":"levelo://app?vid=efd8a7d0-f260-48f2-a96d-f5f6ab1ce17d","ios":"levelo://app?vid=efd8a7d0-f260-48f2-a96d-f5f6ab1ce17d"},"vehicle_type_id":"4","last_reported":1743513688,"current_range_meters":16400,"station_id":"ce4bh9p2rcd13ifvqec0","pricing_plan_id":"cebpf4jnsgd1na2vs0mg"},{"bike_id":"64d267a9-f77f-46f7-9279-a4d553f59527","system_id":"levelo_inurba_marseille","lat":43.28621,"lon":5.35105,"is_reserved":false,"is_disabled":false,"rental_uris":{"android":"levelo://app?vid=64d267a9-f77f-46f7-9279-a4d553f59527","ios":"levelo://app?vid=64d267a9-f77f-46f7-9279-a4d553f59527"},"vehicle_type_id":"4","last_reported":1743513688,"current_range_meters":16400,"station_id":"ce4bhch2rcd13ifvqeug","pricing_plan_id":"cebpf4jnsgd1na2vs0mg"},{"bike_id":"fe925c8c-f3d8-48f2-a8ea-85d379bb70f2","system_id":"levelo_inurba_marseille","lat":43.28623,"lon":5.35105,"is_reserved":false,"is_disabled":false,"rental_uris":{"android":"levelo://app?vid=fe925c8c-f3d8-48f2-a8ea-85d379bb70f2","ios":"levelo://app?vid=fe925c8c-f3d8-48f2-a8ea-85d379bb70f2"},"vehicle_type_id":"4","last_reported":1743513688,"current_range_meters":16400,"station_id":"ce4bhch2rcd13ifvqeug","pricing_plan_id":"cebpf4jnsgd1na2vs0mg"},{"bike_id":"21816de5-8afb-4386-b93e-3f94c8bf03c1","system_id":"levelo_inurba_marseille","lat":43.26564,"lon":5.37305,"is_reserved":false,"is_disabled":false,"rental_uris":{"android":"levelo://app?vid=21816de5-8afb-4386-b93e-3f94c8bf03c1","ios":"levelo://app?vid=21816de5-8afb-4386-b93e-3f94c8bf03c1"},"vehicle_type_id":"4","last_reported":1743513688,"current_range_meters":16400,"station_id":"ce4bhg12rcd13ifvqf70","pricing_plan_id":"cebpf4jnsgd1na2vs0mg"},{"bike_id":"a680fcef-3560-458d-9c46-af5039ad5317","system_id":"levelo_inurba_marseille","lat":43.26559,"lon":5.37288,"is_reserved":false,"is_disabled":false,"rental_uris":{"android":"levelo://app?vid=a680fcef-3560-458d-9c46-af5039ad5317","ios":"levelo://app?vid=a680fcef-3560-458d-9c46-af5039ad5317"},"vehicle_type_id":"4","last_reported":1743513688,"current_range_meters":16400,"station_id":"ce4bhg12rcd13ifvqf70","pricing_plan_id":"cebpf4jnsgd1na2vs0mg"},{"bike_id":"f55695a6-b65f-4a30-99ab-94b2bfa63268","system_id":"levelo_inurba_marseille","lat":43.23197,"lon":5.35556,"is_reserved":false,"is_disabled":false,"rental_uris":{"android":"levelo://app?vid=f55695a6-b65f-4a30-99ab-94b2bfa63268","ios":"levelo://app?vid=f55695a6-b65f-4a30-99ab-94b2bfa63268"},"vehicle_type_id":"4","last_reported":1743513688,"current_range_meters":16400,"station_id":"ce4bhu92rcd13ifvqi70","pricing_plan_id":"cebpf4jnsgd1na2vs0mg"},{"bike_id":"5b58b7b3-bb2b-458e-93be-3f1c25fb220e","system_id":"levelo_inurba_marseille","lat":43.30564,"lon":5.37323,"is_reserved":false,"is_disabled":false,"rental_uris":{"android":"levelo://app?vid=5b58b7b3-bb2b-458e-93be-3f1c25fb220e","ios":"levelo://app?vid=5b58b7b3-bb2b-458e-93be-3f1c25fb220e"},"vehicle_type_id":"4","last_reported":1743513688,"current_range_meters":16800,"station_id":"","pricing_plan_id":"cebpf4jnsgd1na2vs0mg"},{"bike_id":"e45d2123-aa43-45f5-aabe-f8664cbd6d9b","system_id":"levelo_inurba_marseille","lat":43.29258,"lon":5.37615,"is_reserved":false,"is_disabled":false,"rental_uris":{"android":"levelo://app?vid=e45d2123-aa43-45f5-aabe-f8664cbd6d9b","ios":"levelo://app?vid=e45d2123-aa43-45f5-aabe-f8664cbd6d9b"},"vehicle_type_id":"4","last_reported":1743513688,"current_range_meters":16800,"station_id":"ce4bgi12rcd13ifvqb80","pricing_plan_id":"cebpf4jnsgd1na2vs0mg"},{"bike_id":"e0cf57cc-ac8a-437b-8c62-e6292c30f108","system_id":"levelo_inurba_marseille","lat":43.30955,"lon":5.39054,"is_reserved":false,"is_disabled":false,"rental_uris":{"android":"levelo://app?vid=e0cf57cc-ac8a-437b-8c62-e6292c30f108","ios":"levelo://app?vid=e0cf57cc-ac8a-437b-8c62-e6292c30f108"},"vehicle_type_id":"4","last_reported":1743513688,"current_range_meters":16800,"station_id":"ce4bgup2rcd13ifvqco0","pricing_plan_id":"cebpf4jnsgd1na2vs0mg"},{"bike_id":"65385d19-ee16-43a9-b862-32e3f371a694","system_id":"levelo_inurba_marseille","lat":43.29872,"lon":5.39728,"is_reserved":false,"is_disabled":false,"rental_uris":{"android":"levelo://app?vid=65385d19-ee16-43a9-b862-32e3f371a694","ios":"levelo://app?vid=65385d19-ee16-43a9-b862-32e3f371a694"},"vehicle_type_id":"4","last_reported":1743513688,"current_range_meters":16800,"station_id":"ce4bh0h2rcd13ifvqd50","pricing_plan_id":"cebpf4jnsgd1na2vs0mg"},{"bike_id":"785ec5b0-d89c-4829-8486-465aecc2dacf","system_id":"levelo_inurba_marseille","lat":43.29254,"lon":5.38447,"is_reserved":false,"is_disabled":false,"rental_uris":{"android":"levelo://app?vid=785ec5b0-d89c-4829-8486-465aecc2dacf","ios":"levelo://app?vid=785ec5b0-d89c-4829-8486-465aecc2dacf"},"vehicle_type_id":"4","last_reported":1743513688,"current_range_meters":16800,"station_id":"ce4bh692rcd13ifvqea0","pricing_plan_id":"cebpf4jnsgd1na2vs0mg"},{"bike_id":"0a2ceb4e-79b1-4623-bf99-a817d4565160","system_id":"levelo_inurba_marseille","lat":43.2928,"lon":5.36852,"is_reserved":false,"is_disabled":false,"rental_uris":{"android":"levelo://app?vid=0a2ceb4e-79b1-4623-bf99-a817d4565160","ios":"levelo://app?vid=0a2ceb4e-79b1-4623-bf99-a817d4565160"},"vehicle_type_id":"4","last_reported":1743513688,"current_range_meters":16800,"station_id":"ce4bhbp2rcd13ifvqesg","pricing_plan_id":"cebpf4jnsgd1na2vs0mg"},{"bike_id":"ee8045b8-79f0-437a-8208-2821d28fa36d","system_id":"levelo_inurba_marseille","lat":43.28614,"lon":5.351,"is_reserved":false,"is_disabled":false,"rental_uris":{"android":"levelo://app?vid=ee8045b8-79f0-437a-8208-2821d28fa36d","ios":"levelo://app?vid=ee8045b8-79f0-437a-8208-2821d28fa36d"},"vehicle_type_id":"4","last_reported":1743513688,"current_range_meters":16800,"station_id":"ce4bhch2rcd13ifvqeug","pricing_plan_id":"cebpf4jnsgd1na2vs0mg"},{"bike_id":"e3f0aa91-7166-4405-ab1d-e99c878c69a2","system_id":"levelo_inurba_marseille","lat":43.26555,"lon":5.37297,"is_reserved":false,"is_disabled":false,"rental_uris":{"android":"levelo://app?vid=e3f0aa91-7166-4405-ab1d-e99c878c69a2","ios":"levelo://app?vid=e3f0aa91-7166-4405-ab1d-e99c878c69a2"},"vehicle_type_id":"4","last_reported":1743513688,"current_range_meters":16800,"station_id":"ce4bhg12rcd13ifvqf70","pricing_plan_id":"cebpf4jnsgd1na2vs0mg"},{"bike_id":"c994ed7a-0c6e-470f-96ef-99514d1e54f4","system_id":"levelo_inurba_marseille","lat":43.2605,"lon":5.39383,"is_reserved":false,"is_disabled":false,"rental_uris":{"android":"levelo://app?vid=c994ed7a-0c6e-470f-96ef-99514d1e54f4","ios":"levelo://app?vid=c994ed7a-0c6e-470f-96ef-99514d1e54f4"},"vehicle_type_id":"4","last_reported":1743513688,"current_range_meters":16800,"station_id":"ce4bhh92rcd13ifvqfj0","pricing_plan_id":"cebpf4jnsgd1na2vs0mg"},{"bike_id":"414b1618-8907-418c-9232-e3993fbc4299","system_id":"levelo_inurba_marseille","lat":43.31992,"lon":5.38154,"is_reserved":false,"is_disabled":false,"rental_uris":{"android":"levelo://app?vid=414b1618-8907-418c-9232-e3993fbc4299","ios":"levelo://app?vid=414b1618-8907-418c-9232-e3993fbc4299"},"vehicle_type_id":"4","last_reported":1743513688,"current_range_meters":16800,"station_id":"ce4bhr12rcd13ifvqhpg","pricing_plan_id":"cebpf4jnsgd1na2vs0mg"},{"bike_id":"7b869cea-1d61-42d2-b04b-29df5bd7497f","system_id":"levelo_inurba_marseille","lat":43.32118,"lon":5.36775,"is_reserved":false,"is_disabled":false,"rental_uris":{"android":"levelo://app?vid=7b869cea-1d61-42d2-b04b-29df5bd7497f","ios":"levelo://app?vid=7b869cea-1d61-42d2-b04b-29df5bd7497f"},"vehicle_type_id":"4","last_reported":1743513688,"current_range_meters":16800,"station_id":"ce4bhrh2rcd13ifvqhug","pricing_plan_id":"cebpf4jnsgd1na2vs0mg"},{"bike_id":"0dc1fce0-04ea-48e8-933e-6e04b9ce367a","system_id":"levelo_inurba_marseille","lat":43.29847,"lon":5.36274,"is_reserved":false,"is_disabled":false,"rental_uris":{"android":"levelo://app?vid=0dc1fce0-04ea-48e8-933e-6e04b9ce367a","ios":"levelo://app?vid=0dc1fce0-04ea-48e8-933e-6e04b9ce367a"},"vehicle_type_id":"4","last_reported":1743513688,"current_range_meters":17200,"station_id":"ce4bgpp2rcd13ifvqc3g","pricing_plan_id":"cebpf4jnsgd1na2vs0mg"},{"bike_id":"0e3cd098-e6fe-4a66-84ed-02afb58ac46c","system_id":"levelo_inurba_marseille","lat":43.29258,"lon":5.40898,"is_reserved":false,"is_disabled":false,"rental_uris":{"android":"levelo://app?vid=0e3cd098-e6fe-4a66-84ed-02afb58ac46c","ios":"levelo://app?vid=0e3cd098-e6fe-4a66-84ed-02afb58ac46c"},"vehicle_type_id":"4","last_reported":1743513688,"current_range_meters":17200,"station_id":"ce4bh192rcd13ifvqdc0","pricing_plan_id":"cebpf4jnsgd1na2vs0mg"},{"bike_id":"6e181a7f-7c49-4d46-9c97-969ae7da340e","system_id":"levelo_inurba_marseille","lat":43.28411,"lon":5.3499,"is_reserved":false,"is_disabled":false,"rental_uris":{"android":"levelo://app?vid=6e181a7f-7c49-4d46-9c97-969ae7da340e","ios":"levelo://app?vid=6e181a7f-7c49-4d46-9c97-969ae7da340e"},"vehicle_type_id":"4","last_reported":1743513688,"current_range_meters":17200,"station_id":"ce4bhbh2rcd13ifvqepg","pricing_plan_id":"cebpf4jnsgd1na2vs0mg"},{"bike_id":"7408871e-c525-4dcf-9189-15a12bf2355d","system_id":"levelo_inurba_marseille","lat":43.26561,"lon":5.37285,"is_reserved":false,"is_disabled":false,"rental_uris":{"android":"levelo://app?vid=7408871e-c525-4dcf-9189-15a12bf2355d","ios":"levelo://app?vid=7408871e-c525-4dcf-9189-15a12bf2355d"},"vehicle_type_id":"4","last_reported":1743513688,"current_range_meters":17200,"station_id":"ce4bhg12rcd13ifvqf70","pricing_plan_id":"cebpf4jnsgd1na2vs0mg"},{"bike_id":"4a9ac05f-7985-4634-bc04-82a366768bd9","system_id":"levelo_inurba_marseille","lat":43.26065,"lon":5.39408,"is_reserved":false,"is_disabled":false,"rental_uris":{"android":"levelo://app?vid=4a9ac05f-7985-4634-bc04-82a366768bd9","ios":"levelo://app?vid=4a9ac05f-7985-4634-bc04-82a366768bd9"},"vehicle_type_id":"4","last_reported":1743513688,"current_range_meters":17200,"station_id":"ce4bhh92rcd13ifvqfj0","pricing_plan_id":"cebpf4jnsgd1na2vs0mg"},{"bike_id":"38413428-8706-44dd-8861-1ba7c4fb2e9e","system_id":"levelo_inurba_marseille","lat":43.31714,"lon":5.43711,"is_reserved":false,"is_disabled":false,"rental_uris":{"android":"levelo://app?vid=38413428-8706-44dd-8861-1ba7c4fb2e9e","ios":"levelo://app?vid=38413428-8706-44dd-8861-1ba7c4fb2e9e"},"vehicle_type_id":"4","last_reported":1743513688,"current_range_meters":17200,"station_id":"ce4bhp92rcd13ifvqhcg","pricing_plan_id":"cebpf4jnsgd1na2vs0mg"},{"bike_id":"d157a8ac-f1ea-480a-a1ee-9ac00962bb01","system_id":"levelo_inurba_marseille","lat":43.2955,"lon":5.4228,"is_reserved":false,"is_disabled":false,"rental_uris":{"android":"levelo://app?vid=d157a8ac-f1ea-480a-a1ee-9ac00962bb01","ios":"levelo://app?vid=d157a8ac-f1ea-480a-a1ee-9ac00962bb01"},"vehicle_type_id":"4","last_reported":1743513688,"current_range_meters":17200,"station_id":"ce4bhph2rcd13ifvqhdg","pricing_plan_id":"cebpf4jnsgd1na2vs0mg"},{"bike_id":"1105a73c-527f-4dd3-b633-fa1b1c130272","system_id":"levelo_inurba_marseille","lat":43.26574,"lon":5.37298,"is_reserved":false,"is_disabled":false,"rental_uris":{"android":"levelo://app?vid=1105a73c-527f-4dd3-b633-fa1b1c130272","ios":"levelo://app?vid=1105a73c-527f-4dd3-b633-fa1b1c130272"},"vehicle_type_id":"4","last_reported":1743513688,"current_range_meters":17600,"station_id":"ce4bhg12rcd13ifvqf70","pricing_plan_id":"cebpf4jnsgd1na2vs0mg"},{"bike_id":"3e3e636e-4a38-49f2-9255-8683455b5cd0","system_id":"levelo_inurba_marseille","lat":43.2768,"lon":5.38878,"is_reserved":false,"is_disabled":false,"rental_uris":{"android":"levelo://app?vid=3e3e636e-4a38-49f2-9255-8683455b5cd0","ios":"levelo://app?vid=3e3e636e-4a38-49f2-9255-8683455b5cd0"},"vehicle_type_id":"4","last_reported":1743513688,"current_range_meters":17600,"station_id":"ce4bhi12rcd13ifvqfo0","pricing_plan_id":"cebpf4jnsgd1na2vs0mg"},{"bike_id":"cabdc1cd-fa10-4f2d-b848-b1cae7080f73","system_id":"levelo_inurba_marseille","lat":43.32348,"lon":5.40622,"is_reserved":false,"is_disabled":false,"rental_uris":{"android":"levelo://app?vid=cabdc1cd-fa10-4f2d-b848-b1cae7080f73","ios":"levelo://app?vid=cabdc1cd-fa10-4f2d-b848-b1cae7080f73"},"vehicle_type_id":"4","last_reported":1743513688,"current_range_meters":17600,"station_id":"ce4bhq92rcd13ifvqhjg","pricing_plan_id":"cebpf4jnsgd1na2vs0mg"},{"bike_id":"7988dc37-d331-4a13-97ae-2c8fb7b47899","system_id":"levelo_inurba_marseille","lat":43.30906,"lon":5.36839,"is_reserved":false,"is_disabled":false,"rental_uris":{"android":"levelo://app?vid=7988dc37-d331-4a13-97ae-2c8fb7b47899","ios":"levelo://app?vid=7988dc37-d331-4a13-97ae-2c8fb7b47899"},"vehicle_type_id":"4","last_reported":1743513688,"current_range_meters":18000,"station_id":"ce4bgn92rcd13ifvqbvg","pricing_plan_id":"cebpf4jnsgd1na2vs0mg"},{"bike_id":"49b6946c-d5d9-4f7b-9e2a-1a24703cbfb9","system_id":"levelo_inurba_marseille","lat":43.30537,"lon":5.36697,"is_reserved":false,"is_disabled":false,"rental_uris":{"android":"levelo://app?vid=49b6946c-d5d9-4f7b-9e2a-1a24703cbfb9","ios":"levelo://app?vid=49b6946c-d5d9-4f7b-9e2a-1a24703cbfb9"},"vehicle_type_id":"4","last_reported":1743513688,"current_range_meters":18000,"station_id":"ce4bgrp2rcd13ifvqc9g","pricing_plan_id":"cebpf4jnsgd1na2vs0mg"},{"bike_id":"2160fffa-75d1-49f9-8d73-493f1eb8818f","system_id":"levelo_inurba_marseille","lat":43.29193,"lon":5.39325,"is_reserved":false,"is_disabled":false,"rental_uris":{"android":"levelo://app?vid=2160fffa-75d1-49f9-8d73-493f1eb8818f","ios":"levelo://app?vid=2160fffa-75d1-49f9-8d73-493f1eb8818f"},"vehicle_type_id":"4","last_reported":1743513688,"current_range_meters":18000,"station_id":"ce4bh192rcd13ifvqdd0","pricing_plan_id":"cebpf4jnsgd1na2vs0mg"},{"bike_id":"1d22f405-c787-4f88-bce5-69914f857e3f","system_id":"levelo_inurba_marseille","lat":43.25111,"lon":5.40324,"is_reserved":false,"is_disabled":false,"rental_uris":{"android":"levelo://app?vid=1d22f405-c787-4f88-bce5-69914f857e3f","ios":"levelo://app?vid=1d22f405-c787-4f88-bce5-69914f857e3f"},"vehicle_type_id":"4","last_reported":1743513688,"current_range_meters":18000,"station_id":"ce4bhlh2rcd13ifvqgig","pricing_plan_id":"cebpf4jnsgd1na2vs0mg"},{"bike_id":"aac2bfb7-3f4a-4b27-925f-9d47b006de7c","system_id":"levelo_inurba_marseille","lat":43.24172,"lon":5.364,"is_reserved":false,"is_disabled":false,"rental_uris":{"android":"levelo://app?vid=aac2bfb7-3f4a-4b27-925f-9d47b006de7c","ios":"levelo://app?vid=aac2bfb7-3f4a-4b27-925f-9d47b006de7c"},"vehicle_type_id":"4","last_reported":1743513688,"current_range_meters":18000,"station_id":"cpo36qri1sfpv3e86is0","pricing_plan_id":"cebpf4jnsgd1na2vs0mg"},{"bike_id":"cd83c8ac-ed09-4369-9279-b6f36f2bbd3c","system_id":"levelo_inurba_marseille","lat":43.30781,"lon":5.38259,"is_reserved":false,"is_disabled":false,"rental_uris":{"android":"levelo://app?vid=cd83c8ac-ed09-4369-9279-b6f36f2bbd3c","ios":"levelo://app?vid=cd83c8ac-ed09-4369-9279-b6f36f2bbd3c"},"vehicle_type_id":"4","last_reported":1743513688,"current_range_meters":18800,"station_id":"","pricing_plan_id":"cebpf4jnsgd1na2vs0mg"},{"bike_id":"9ad925d5-37bb-4f4f-8ce9-f8bb3b313c04","system_id":"levelo_inurba_marseille","lat":43.2611,"lon":5.38747,"is_reserved":false,"is_disabled":false,"rental_uris":{"android":"levelo://app?vid=9ad925d5-37bb-4f4f-8ce9-f8bb3b313c04","ios":"levelo://app?vid=9ad925d5-37bb-4f4f-8ce9-f8bb3b313c04"},"vehicle_type_id":"4","last_reported":1743513688,"current_range_meters":18800,"station_id":"","pricing_plan_id":"cebpf4jnsgd1na2vs0mg"},{"bike_id":"acd071b9-ed23-470c-9dde-319ed2b4ed32","system_id":"levelo_inurba_marseille","lat":43.33319,"lon":5.38427,"is_reserved":false,"is_disabled":false,"rental_uris":{"android":"levelo://app?vid=acd071b9-ed23-470c-9dde-319ed2b4ed32","ios":"levelo://app?vid=acd071b9-ed23-470c-9dde-319ed2b4ed32"},"vehicle_type_id":"4","last_reported":1743513688,"current_range_meters":18800,"station_id":"","pricing_plan_id":"cebpf4jnsgd1na2vs0mg"},{"bike_id":"2980b017-3e76-46f1-84fa-82c0c4b0b5b5","system_id":"levelo_inurba_marseille","lat":43.29256,"lon":5.37613,"is_reserved":false,"is_disabled":false,"rental_uris":{"android":"levelo://app?vid=2980b017-3e76-46f1-84fa-82c0c4b0b5b5","ios":"levelo://app?vid=2980b017-3e76-46f1-84fa-82c0c4b0b5b5"},"vehicle_type_id":"4","last_reported":1743513688,"current_range_meters":18800,"station_id":"ce4bgi12rcd13ifvqb80","pricing_plan_id":"cebpf4jnsgd1na2vs0mg"},{"bike_id":"339082b8-4f4a-45c8-8bc6-ec12899015c3","system_id":"levelo_inurba_marseille","lat":43.29273,"lon":5.3686,"is_reserved":false,"is_disabled":false,"rental_uris":{"android":"levelo://app?vid=339082b8-4f4a-45c8-8bc6-ec12899015c3","ios":"levelo://app?vid=339082b8-4f4a-45c8-8bc6-ec12899015c3"},"vehicle_type_id":"4","last_reported":1743513688,"current_range_meters":18800,"station_id":"ce4bhbp2rcd13ifvqesg","pricing_plan_id":"cebpf4jnsgd1na2vs0mg"},{"bike_id":"451a91b8-f7d7-4b0a-958f-b5014d2086b2","system_id":"levelo_inurba_marseille","lat":43.27066,"lon":5.42292,"is_reserved":false,"is_disabled":false,"rental_uris":{"android":"levelo://app?vid=451a91b8-f7d7-4b0a-958f-b5014d2086b2","ios":"levelo://app?vid=451a91b8-f7d7-4b0a-958f-b5014d2086b2"},"vehicle_type_id":"4","last_reported":1743513688,"current_range_meters":18800,"station_id":"ce4bhk92rcd13ifvqgb0","pricing_plan_id":"cebpf4jnsgd1na2vs0mg"},{"bike_id":"abf3b810-34be-4e2e-b6a7-5330d48a7f0d","system_id":"levelo_inurba_marseille","lat":43.30889,"lon":5.36835,"is_reserved":false,"is_disabled":false,"rental_uris":{"android":"levelo://app?vid=abf3b810-34be-4e2e-b6a7-5330d48a7f0d","ios":"levelo://app?vid=abf3b810-34be-4e2e-b6a7-5330d48a7f0d"},"vehicle_type_id":"4","last_reported":1743513688,"current_range_meters":19200,"station_id":"ce4bgn92rcd13ifvqbvg","pricing_plan_id":"cebpf4jnsgd1na2vs0mg"},{"bike_id":"3edbc76c-ed69-47ae-8f46-84a61b1427ac","system_id":"levelo_inurba_marseille","lat":43.309,"lon":5.36839,"is_reserved":false,"is_disabled":false,"rental_uris":{"android":"levelo://app?vid=3edbc76c-ed69-47ae-8f46-84a61b1427ac","ios":"levelo://app?vid=3edbc76c-ed69-47ae-8f46-84a61b1427ac"},"vehicle_type_id":"4","last_reported":1743513688,"current_range_meters":19200,"station_id":"ce4bgn92rcd13ifvqbvg","pricing_plan_id":"cebpf4jnsgd1na2vs0mg"},{"bike_id":"be43da3d-56e4-42a2-9308-7d7ef2759921","system_id":"levelo_inurba_marseille","lat":43.30806,"lon":5.38162,"is_reserved":false,"is_disabled":false,"rental_uris":{"android":"levelo://app?vid=be43da3d-56e4-42a2-9308-7d7ef2759921","ios":"levelo://app?vid=be43da3d-56e4-42a2-9308-7d7ef2759921"},"vehicle_type_id":"4","last_reported":1743513688,"current_range_meters":19200,"station_id":"ce4bgt12rcd13ifvqce0","pricing_plan_id":"cebpf4jnsgd1na2vs0mg"},{"bike_id":"4bd30e23-a756-4cc4-abc3-2cd5312cbbb5","system_id":"levelo_inurba_marseille","lat":43.2987,"lon":5.3973,"is_reserved":false,"is_disabled":false,"rental_uris":{"android":"levelo://app?vid=4bd30e23-a756-4cc4-abc3-2cd5312cbbb5","ios":"levelo://app?vid=4bd30e23-a756-4cc4-abc3-2cd5312cbbb5"},"vehicle_type_id":"4","last_reported":1743513688,"current_range_meters":19200,"station_id":"ce4bh0h2rcd13ifvqd50","pricing_plan_id":"cebpf4jnsgd1na2vs0mg"},{"bike_id":"8717ec8c-e92b-440a-9a40-820dfb7e3a70","system_id":"levelo_inurba_marseille","lat":43.28712,"lon":5.37914,"is_reserved":false,"is_disabled":false,"rental_uris":{"android":"levelo://app?vid=8717ec8c-e92b-440a-9a40-820dfb7e3a70","ios":"levelo://app?vid=8717ec8c-e92b-440a-9a40-820dfb7e3a70"},"vehicle_type_id":"4","last_reported":1743513688,"current_range_meters":19200,"station_id":"ce4bh9p2rcd13ifvqec0","pricing_plan_id":"cebpf4jnsgd1na2vs0mg"},{"bike_id":"be3850b9-71b6-44f6-b8a4-473cbd56eb48","system_id":"levelo_inurba_marseille","lat":43.28621,"lon":5.35106,"is_reserved":false,"is_disabled":false,"rental_uris":{"android":"levelo://app?vid=be3850b9-71b6-44f6-b8a4-473cbd56eb48","ios":"levelo://app?vid=be3850b9-71b6-44f6-b8a4-473cbd56eb48"},"vehicle_type_id":"4","last_reported":1743513688,"current_range_meters":19200,"station_id":"ce4bhch2rcd13ifvqeug","pricing_plan_id":"cebpf4jnsgd1na2vs0mg"},{"bike_id":"93e2ded6-4ab0-40cb-a0a8-6a8ea87bbe1e","system_id":"levelo_inurba_marseille","lat":43.23155,"lon":5.43705,"is_reserved":false,"is_disabled":false,"rental_uris":{"android":"levelo://app?vid=93e2ded6-4ab0-40cb-a0a8-6a8ea87bbe1e","ios":"levelo://app?vid=93e2ded6-4ab0-40cb-a0a8-6a8ea87bbe1e"},"vehicle_type_id":"4","last_reported":1743513688,"current_range_meters":19200,"station_id":"ce4bhmp2rcd13ifvqgog","pricing_plan_id":"cebpf4jnsgd1na2vs0mg"},{"bike_id":"962fd783-90c8-4086-89fb-970de35df336","system_id":"levelo_inurba_marseille","lat":43.241764,"lon":5.397285,"is_reserved":false,"is_disabled":false,"rental_uris":{"android":"levelo://app?vid=962fd783-90c8-4086-89fb-970de35df336","ios":"levelo://app?vid=962fd783-90c8-4086-89fb-970de35df336"},"vehicle_type_id":"4","last_reported":1743513688,"current_range_meters":19200,"station_id":"ce4bhn12rcd13ifvqgpg","pricing_plan_id":"cebpf4jnsgd1na2vs0mg"},{"bike_id":"d543222e-2aa4-4763-a364-367c261fbb87","system_id":"levelo_inurba_marseille","lat":43.24049,"lon":5.37708,"is_reserved":false,"is_disabled":false,"rental_uris":{"android":"levelo://app?vid=d543222e-2aa4-4763-a364-367c261fbb87","ios":"levelo://app?vid=d543222e-2aa4-4763-a364-367c261fbb87"},"vehicle_type_id":"4","last_reported":1743513688,"current_range_meters":19200,"station_id":"ce4bhnp2rcd13ifvqgvg","pricing_plan_id":"cebpf4jnsgd1na2vs0mg"},{"bike_id":"d8ef3617-eb64-479b-aa4f-347d68ee30d1","system_id":"levelo_inurba_marseille","lat":43.29552,"lon":5.42286,"is_reserved":false,"is_disabled":false,"rental_uris":{"android":"levelo://app?vid=d8ef3617-eb64-479b-aa4f-347d68ee30d1","ios":"levelo://app?vid=d8ef3617-eb64-479b-aa4f-347d68ee30d1"},"vehicle_type_id":"4","last_reported":1743513688,"current_range_meters":19200,"station_id":"ce4bhph2rcd13ifvqhdg","pricing_plan_id":"cebpf4jnsgd1na2vs0mg"},{"bike_id":"6e05811e-06e7-4304-8ce9-6c25e6bc01dd","system_id":"levelo_inurba_marseille","lat":43.32109,"lon":5.36783,"is_reserved":false,"is_disabled":false,"rental_uris":{"android":"levelo://app?vid=6e05811e-06e7-4304-8ce9-6c25e6bc01dd","ios":"levelo://app?vid=6e05811e-06e7-4304-8ce9-6c25e6bc01dd"},"vehicle_type_id":"4","last_reported":1743513688,"current_range_meters":19200,"station_id":"ce4bhrh2rcd13ifvqhug","pricing_plan_id":"cebpf4jnsgd1na2vs0mg"},{"bike_id":"2d727b4d-96e7-4d65-ade3-017b94644bd9","system_id":"levelo_inurba_marseille","lat":43.31315,"lon":5.38882,"is_reserved":false,"is_disabled":false,"rental_uris":{"android":"levelo://app?vid=2d727b4d-96e7-4d65-ade3-017b94644bd9","ios":"levelo://app?vid=2d727b4d-96e7-4d65-ade3-017b94644bd9"},"vehicle_type_id":"4","last_reported":1743513688,"current_range_meters":19600,"station_id":"","pricing_plan_id":"cebpf4jnsgd1na2vs0mg"},{"bike_id":"9c9137b0-6693-49a6-bedc-f2ea63e283a3","system_id":"levelo_inurba_marseille","lat":43.30474,"lon":5.36981,"is_reserved":false,"is_disabled":false,"rental_uris":{"android":"levelo://app?vid=9c9137b0-6693-49a6-bedc-f2ea63e283a3","ios":"levelo://app?vid=9c9137b0-6693-49a6-bedc-f2ea63e283a3"},"vehicle_type_id":"4","last_reported":1743513688,"current_range_meters":19600,"station_id":"","pricing_plan_id":"cebpf4jnsgd1na2vs0mg"},{"bike_id":"e6d44504-0d8c-482a-94fa-abc7fb8ed409","system_id":"levelo_inurba_marseille","lat":43.30926,"lon":5.36871,"is_reserved":false,"is_disabled":false,"rental_uris":{"android":"levelo://app?vid=e6d44504-0d8c-482a-94fa-abc7fb8ed409","ios":"levelo://app?vid=e6d44504-0d8c-482a-94fa-abc7fb8ed409"},"vehicle_type_id":"4","last_reported":1743513688,"current_range_meters":19600,"station_id":"ce4bgn92rcd13ifvqbvg","pricing_plan_id":"cebpf4jnsgd1na2vs0mg"},{"bike_id":"d6697e1a-5df7-46f6-8920-58ae4cdbcf2f","system_id":"levelo_inurba_marseille","lat":43.2849,"lon":5.38424,"is_reserved":false,"is_disabled":false,"rental_uris":{"android":"levelo://app?vid=d6697e1a-5df7-46f6-8920-58ae4cdbcf2f","ios":"levelo://app?vid=d6697e1a-5df7-46f6-8920-58ae4cdbcf2f"},"vehicle_type_id":"4","last_reported":1743513688,"current_range_meters":19600,"station_id":"ce4bh512rcd13ifvqe3g","pricing_plan_id":"cebpf4jnsgd1na2vs0mg"},{"bike_id":"6dd3db95-035f-40fd-9083-41d9feef5208","system_id":"levelo_inurba_marseille","lat":43.28423,"lon":5.34975,"is_reserved":false,"is_disabled":false,"rental_uris":{"android":"levelo://app?vid=6dd3db95-035f-40fd-9083-41d9feef5208","ios":"levelo://app?vid=6dd3db95-035f-40fd-9083-41d9feef5208"},"vehicle_type_id":"4","last_reported":1743513688,"current_range_meters":19600,"station_id":"ce4bhbh2rcd13ifvqepg","pricing_plan_id":"cebpf4jnsgd1na2vs0mg"},{"bike_id":"5651a409-bfe2-4b88-a025-baf6c9741016","system_id":"levelo_inurba_marseille","lat":43.28423,"lon":5.3498,"is_reserved":false,"is_disabled":false,"rental_uris":{"android":"levelo://app?vid=5651a409-bfe2-4b88-a025-baf6c9741016","ios":"levelo://app?vid=5651a409-bfe2-4b88-a025-baf6c9741016"},"vehicle_type_id":"4","last_reported":1743513688,"current_range_meters":19600,"station_id":"ce4bhbh2rcd13ifvqepg","pricing_plan_id":"cebpf4jnsgd1na2vs0mg"},{"bike_id":"2cd6338f-e1a6-4dc1-b315-6e8c468551a5","system_id":"levelo_inurba_marseille","lat":43.25001,"lon":5.389277,"is_reserved":false,"is_disabled":false,"rental_uris":{"android":"levelo://app?vid=2cd6338f-e1a6-4dc1-b315-6e8c468551a5","ios":"levelo://app?vid=2cd6338f-e1a6-4dc1-b315-6e8c468551a5"},"vehicle_type_id":"4","last_reported":1743513688,"current_range_meters":19600,"station_id":"ce4bhgp2rcd13ifvqfd0","pricing_plan_id":"cebpf4jnsgd1na2vs0mg"},