{"last_updated":1721761570,"ttl":30,"version":"2.2","data":{"bikes":[{"bike_id":"a2610bec-28cf-4e46-bfa7-b619ea248969","system_id":"levelo_inurba_marseille","lat":43.31257,"lon":5.36767,"is_reserved":false,"is_disabled":false,"rental_uris":{"android":"levelo://app?vid=a2610bec-28cf-4e46-bfa7-b619ea248969","ios":"levelo://app?vid=a2610bec-28cf-4e46-bfa7-b619ea248969"},"vehicle_type_id":"4","last_reported":1721761570,"current_range_meters":6000,"station_id":"","pricing_plan_id":"cebpf4jnsgd1na2vs0mg"},{"bike_id":"aae086d7-50e6-47ae-a18c-e72c7f883bfc","system_id":"levelo_inurba_marseille","lat":43.313391,"lon":5.36706,"is_reserved":false,"is_disabled":false,"rental_uris":{"android":"levelo://app?vid=aae086d7-50e6-47ae-a18c-e72c7f883bfc","ios":"levelo://app?vid=aae086d7-50e6-47ae-a18c-e72c7f883bfc"},"vehicle_type_id":"4","last_reported":1721761570,"current_range_meters":12800,"station_id":"ce4bgr92rcd13ifvqc6g","pricing_plan_id":"cebpf4jnsgd1na2vs0mg"},{"bike_id":"471e124e-7b00-4dc4-a61b-365e1a1e40b4","system_id":"levelo_inurba_marseille","lat":43.312239,"lon":5.368562,"is_reserved":false,"is_disabled":false,"rental_uris":{"android":"levelo://app?vid=471e124e-7b00-4dc4-a61b-365e1a1e40b4","ios":"levelo://app?vid=471e124e-7b00-4dc4-a61b-365e1a1e40b4"},"vehicle_type_id":"4","last_reported":1721761570,"current_range_meters":12000,"station_id":"ce4bgl92rcd13ifvqbq0","pricing_plan_id":"cebpf4jnsgd1na2vs0mg"},{"bike_id":"91affbff-5b97-4b54-891c-9e168be2437a","system_id":"levelo_inurba_marseille","lat":43.312239,"lon":5.368562,"is_reserved":false,"is_disabled":false,"rental_uris":{"android":"levelo://app?vid=91affbff-5b97-4b54-891c-9e168be2437a","ios":"levelo://app?vid=91affbff-5b97-4b54-891c-9e168be2437a"},"vehicle_type_id":"4","last_reported":1721761570,"current_range_meters":19600,"station_id":"ce4bgl92rcd13ifvqbq0","pricing_plan_id":"cebpf4jnsgd1na2vs0mg"},{"bike_id":"c73b75d9-97d3-446e-8ec1-ff88c8db36f0","system_id":"levelo_inurba_marseille","lat":43.309211,"lon":5.368673,"is_reserved":false,"is_disabled":false,"rental_uris":{"android":"levelo://app?vid=c73b75d9-97d3-446e-8ec1-ff88c8db36f0","ios":"levelo://app?vid=c73b75d9-97d3-446e-8ec1-ff88c8db36f0"},"vehicle_type_id":"4","last_reported":1721761570,"current_range_meters":9600,"station_id":"ce4bguh2rcd13ifvqckg","pricing_plan_id":"cebpf4jnsgd1na2vs0mg"},{"bike_id":"962459d2-1553-402d-a7a4-b4580d9c8663","system_id":"levelo_inurba_marseille","lat":43.314811,"lon":5.373103,"is_reserved":false,"is_disabled":false,"rental_uris":{"android":"levelo://app?vid=962459d2-1553-402d-a7a4-b4580d9c8663","ios":"levelo://app?vid=962459d2-1553-402d-a7a4-b4580d9c8663"},"vehicle_type_id":"4","last_reported":1721761570,"current_range_meters":2400,"station_id":"ce4bgt12rcd13ifvqcd0","pricing_plan_id":"cebpf4jnsgd1na2vs0mg"},{"bike_id":"876473b4-118f-4f1f-8d4f-5ec59e979dbf","system_id":"levelo_inurba_marseille","lat":43.314811,"lon":5.373103,"is_reserved":false,"is_disabled":false,"rental_uris":{"android":"levelo://app?vid=876473b4-118f-4f1f-8d4f-5ec59e979dbf","ios":"levelo://app?vid=876473b4-118f-4f1f-8d4f-5ec59e979dbf"},"vehicle_type_id":"4","last_reported":1721761570,"current_range_meters":3600,"station_id":"ce4bgt12rcd13ifvqcd0","pricing_plan_id":"cebpf4jnsgd1na2vs0mg"},{"bike_id":"daeadcea-6e22-4f1f-a575-43a79cbb70ca","system_id":"levelo_inurba_marseille","lat":43.314811,"lon":5.373103,"is_reserved":false,"is_disabled":false,"rental_uris":{"android":"levelo://app?vid=daeadcea-6e22-4f1f-a575-43a79cbb70ca","ios":"levelo://app?vid=daeadcea-6e22-4f1f-a575-43a79cbb70ca"},"vehicle_type_id":"4","last_reported":1721761570,"current_range_meters":26000,"station_id":"ce4bgt12rcd13ifvqcd0","pricing_plan_id":"cebpf4jnsgd1na2vs0mg"},{"bike_id":"94d28351-2229-4497-b921-8ca0dff5fb2a","system_id":"levelo_inurba_marseille","lat":43.314811,"lon":5.373103,"is_reserved":false,"is_disabled":false,"rental_uris":{"android":"levelo://app?vid=94d28351-2229-4497-b921-8ca0dff5fb2a","ios":"levelo://app?vid=94d28351-2229-4497-b921-8ca0dff5fb2a"},"vehicle_type_id":"4","last_reported":1721761570,"current_range_meters":6400,"station_id":"ce4bgt12rcd13ifvqcd0","pricing_plan_id":"cebpf4jnsgd1na2vs0mg"},{"bike_id":"f73d9013-8086-419c-a87f-64bd4db78279","system_id":"levelo_inurba_marseille","lat":43.318042,"lon":5.370133,"is_reserved":false,"is_disabled":false,"rental_uris":{"android":"levelo://app?vid=f73d9013-8086-419c-a87f-64bd4db78279","ios":"levelo://app?vid=f73d9013-8086-419c-a87f-64bd4db78279"},"vehicle_type_id":"4","last_reported":1721761570,"current_range_meters":19200,"station_id":"","pricing_plan_id":"cebpf4jnsgd1na2vs0mg"},{"bike_id":"2deeb85e-9600-4501-af08-9394a5b0e1ca","system_id":"levelo_inurba_marseille","lat":43.30548,"lon":5.36558,"is_reserved":false,"is_disabled":false,"rental_uris":{"android":"levelo://app?vid=2deeb85e-9600-4501-af08-9394a5b0e1ca","ios":"levelo://app?vid=2deeb85e-9600-4501-af08-9394a5b0e1ca"},"vehicle_type_id":"4","last_reported":1721761570,"current_range_meters":18800,"station_id":"ce4bgs12rcd13ifvqcag","pricing_plan_id":"cebpf4jnsgd1na2vs0mg"},{"bike_id":"7545e736-930e-4efb-b29c-af578dda4eed","system_id":"levelo_inurba_marseille","lat":43.311125,"lon":5.377624,"is_reserved":false,"is_disabled":false,"rental_uris":{"android":"levelo://app?vid=7545e736-930e-4efb-b29c-af578dda4eed","ios":"levelo://app?vid=7545e736-930e-4efb-b29c-af578dda4eed"},"vehicle_type_id":"4","last_reported":1721761570,"current_range_meters":2800,"station_id":"ce4bgt92rcd13ifvqcg0","pricing_plan_id":"cebpf4jnsgd1na2vs0mg"},{"bike_id":"5b58f30d-4cf4-4216-90e0-f151a97f611b","system_id":"levelo_inurba_marseille","lat":43.3112,"lon":5.37766,"is_reserved":false,"is_disabled":false,"rental_uris":{"android":"levelo://app?vid=5b58f30d-4cf4-4216-90e0-f151a97f611b","ios":"levelo://app?vid=5b58f30d-4cf4-4216-90e0-f151a97f611b"},"vehicle_type_id":"4","last_reported":1721761570,"current_range_meters":0,"station_id":"ce4bgt92rcd13ifvqcg0","pricing_plan_id":"cebpf4jnsgd1na2vs0mg"},{"bike_id":"32ea0aa6-615e-4a2f-acef-b0e50eac308b","system_id":"levelo_inurba_marseille","lat":43.307945,"lon":5.376487,"is_reserved":false,"is_disabled":false,"rental_uris":{"android":"levelo://app?vid=32ea0aa6-615e-4a2f-acef-b0e50eac308b","ios":"levelo://app?vid=32ea0aa6-615e-4a2f-acef-b0e50eac308b"},"vehicle_type_id":"4","last_reported":1721761570,"current_range_meters":2000,"station_id":"ce4bgv92rcd13ifvqcq0","pricing_plan_id":"cebpf4jnsgd1na2vs0mg"},{"bike_id":"c7ff6815-384f-4af0-822a-09bb8d04232b","system_id":"levelo_inurba_marseille","lat":43.307945,"lon":5.376487,"is_reserved":false,"is_disabled":false,"rental_uris":{"android":"levelo://app?vid=c7ff6815-384f-4af0-822a-09bb8d04232b","ios":"levelo://app?vid=c7ff6815-384f-4af0-822a-09bb8d04232b"},"vehicle_type_id":"4","last_reported":1721761570,"current_range_meters":10000,"station_id":"ce4bgv92rcd13ifvqcq0","pricing_plan_id":"cebpf4jnsgd1na2vs0mg"},{"bike_id":"3b49cf1b-dea9-4a15-84c6-9510e941655a","system_id":"levelo_inurba_marseille","lat":43.317403,"lon":5.37761,"is_reserved":false,"is_disabled":false,"rental_uris":{"android":"levelo://app?vid=3b49cf1b-dea9-4a15-84c6-9510e941655a","ios":"levelo://app?vid=3b49cf1b-dea9-4a15-84c6-9510e941655a"},"vehicle_type_id":"4","last_reported":1721761570,"current_range_meters":12800,"station_id":"ce4bgth2rcd13ifvqch0","pricing_plan_id":"cebpf4jnsgd1na2vs0mg"},{"bike_id":"2b16202e-3b91-4582-b644-4ad9266ec19f","system_id":"levelo_inurba_marseille","lat":43.303046,"lon":5.368981,"is_reserved":false,"is_disabled":false,"rental_uris":{"android":"levelo://app?vid=2b16202e-3b91-4582-b644-4ad9266ec19f","ios":"levelo://app?vid=2b16202e-3b91-4582-b644-4ad9266ec19f"},"vehicle_type_id":"4","last_reported":1721761570,"current_range_meters":10800,"station_id":"ce4bgqh2rcd13ifvqc5g","pricing_plan_id":"cebpf4jnsgd1na2vs0mg"},{"bike_id":"ce078ea4-1120-4d37-882d-c0ecee889b68","system_id":"levelo_inurba_marseille","lat":43.301939,"lon":5.366286,"is_reserved":false,"is_disabled":false,"rental_uris":{"android":"levelo://app?vid=ce078ea4-1120-4d37-882d-c0ecee889b68","ios":"levelo://app?vid=ce078ea4-1120-4d37-882d-c0ecee889b68"},"vehicle_type_id":"4","last_reported":1721761570,"current_range_meters":19600,"station_id":"ce4bgrh2rcd13ifvqc8g","pricing_plan_id":"cebpf4jnsgd1na2vs0mg"},{"bike_id":"2b0d3cbe-66f9-48f9-8fad-17a8e936ad1a","system_id":"levelo_inurba_marseille","lat":43.30463,"lon":5.37901,"is_reserved":false,"is_disabled":false,"rental_uris":{"android":"levelo://app?vid=2b0d3cbe-66f9-48f9-8fad-17a8e936ad1a","ios":"levelo://app?vid=2b0d3cbe-66f9-48f9-8fad-17a8e936ad1a"},"vehicle_type_id":"4","last_reported":1721761570,"current_range_meters":15200,"station_id":"ce4bgup2rcd13ifvqcn0","pricing_plan_id":"cebpf4jnsgd1na2vs0mg"},{"bike_id":"d9c1b3c1-3770-4fe7-ba09-d5c04a56e0e0","system_id":"levelo_inurba_marseille","lat":43.304606,"lon":5.379026,"is_reserved":false,"is_disabled":false,"rental_uris":{"android":"levelo://app?vid=d9c1b3c1-3770-4fe7-ba09-d5c04a56e0e0","ios":"levelo://app?vid=d9c1b3c1-3770-4fe7-ba09-d5c04a56e0e0"},"vehicle_type_id":"4","last_reported":1721761570,"current_range_meters":2000,"station_id":"ce4bgup2rcd13ifvqcn0","pricing_plan_id":"cebpf4jnsgd1na2vs0mg"},{"bike_id":"3d310a9e-a71b-430d-b886-418d5e36f8a8","system_id":"levelo_inurba_marseille","lat":43.324771,"lon":5.36557,"is_reserved":false,"is_disabled":false,"rental_uris":{"android":"levelo://app?vid=3d310a9e-a71b-430d-b886-418d5e36f8a8","ios":"levelo://app?vid=3d310a9e-a71b-430d-b886-418d5e36f8a8"},"vehicle_type_id":"4","last_reported":1721761570,"current_range_meters":14400,"station_id":"ce4bhs12rcd13ifvqhvg","pricing_plan_id":"cebpf4jnsgd1na2vs0mg"},{"bike_id":"f738e433-ae84-45bf-8b3a-e66a3570f8b0","system_id":"levelo_inurba_marseille","lat":43.304606,"lon":5.379026,"is_reserved":false,"is_disabled":false,"rental_uris":{"android":"levelo://app?vid=f738e433-ae84-45bf-8b3a-e66a3570f8b0","ios":"levelo://app?vid=f738e433-ae84-45bf-8b3a-e66a3570f8b0"},"vehicle_type_id":"4","last_reported":1721761570,"current_range_meters":4800,"station_id":"ce4bgup2rcd13ifvqcn0","pricing_plan_id":"cebpf4jnsgd1na2vs0mg"},{"bike_id":"ba144c93-1974-4518-9943-a75f7f4fde8a","system_id":"levelo_inurba_marseille","lat":43.32485,"lon":5.36573,"is_reserved":false,"is_disabled":false,"rental_uris":{"android":"levelo://app?vid=ba144c93-1974-4518-9943-a75f7f4fde8a","ios":"levelo://app?vid=ba144c93-1974-4518-9943-a75f7f4fde8a"},"vehicle_type_id":"4","last_reported":1721761570,"current_range_meters":0,"station_id":"ce4bhs12rcd13ifvqhvg","pricing_plan_id":"cebpf4jnsgd1na2vs0mg"},{"bike_id":"230d5b8c-4982-4e3d-b79c-4c5cc1dd11e7","system_id":"levelo_inurba_marseille","lat":43.324857,"lon":5.365677,"is_reserved":false,"is_disabled":false,"rental_uris":{"android":"levelo://app?vid=230d5b8c-4982-4e3d-b79c-4c5cc1dd11e7","ios":"levelo://app?vid=230d5b8c-4982-4e3d-b79c-4c5cc1dd11e7"},"vehicle_type_id":"4","last_reported":1721761570,"current_range_meters":29600,"station_id":"ce4bhs12rcd13ifvqhvg","pricing_plan_id":"cebpf4jnsgd1na2vs0mg"},{"bike_id":"88a8bacb-8fd0-4215-b3c5-09d9f672a9d1","system_id":"levelo_inurba_marseille","lat":43.324771,"lon":5.36557,"is_reserved":false,"is_disabled":false,"rental_uris":{"android":"levelo://app?vid=88a8bacb-8fd0-4215-b3c5-09d9f672a9d1","ios":"levelo://app?vid=88a8bacb-8fd0-4215-b3c5-09d9f672a9d1"},"vehicle_type_id":"4","last_reported":1721761570,"current_range_meters":7600,"station_id":"ce4bhs12rcd13ifvqhvg","pricing_plan_id":"cebpf4jnsgd1na2vs0mg"},{"bike_id":"03c7e3f3-59ff-4ce0-a0d5-301cae816487","system_id":"levelo_inurba_marseille","lat":43.310804,"lon":5.38359,"is_reserved":false,"is_disabled":false,"rental_uris":{"android":"levelo://app?vid=03c7e3f3-59ff-4ce0-a0d5-301cae816487","ios":"levelo://app?vid=03c7e3f3-59ff-4ce0-a0d5-301cae816487"},"vehicle_type_id":"4","last_reported":1721761570,"current_range_meters":0,"station_id":"ce4bgv92rcd13ifvqcr0","pricing_plan_id":"cebpf4jnsgd1na2vs0mg"},{"bike_id":"f5bbaaab-ebd1-44bc-a8a7-377405e1468b","system_id":"levelo_inurba_marseille","lat":43.310804,"lon":5.38359,"is_reserved":false,"is_disabled":false,"rental_uris":{"android":"levelo://app?vid=f5bbaaab-ebd1-44bc-a8a7-377405e1468b","ios":"levelo://app?vid=f5bbaaab-ebd1-44bc-a8a7-377405e1468b"},"vehicle_type_id":"4","last_reported":1721761570,"current_range_meters":0,"station_id":"ce4bgv92rcd13ifvqcr0","pricing_plan_id":"cebpf4jnsgd1na2vs0mg"},{"bike_id":"4a1a7ce1-37a3-4b0e-94b3-8a5d57c9cc99","system_id":"levelo_inurba_marseille","lat":43.310804,"lon":5.38359,"is_reserved":false,"is_disabled":false,"rental_uris":{"android":"levelo://app?vid=4a1a7ce1-37a3-4b0e-94b3-8a5d57c9cc99","ios":"levelo://app?vid=4a1a7ce1-37a3-4b0e-94b3-8a5d57c9cc99"},"vehicle_type_id":"4","last_reported":1721761570,"current_range_meters":0,"station_id":"ce4bgv92rcd13ifvqcr0","pricing_plan_id":"cebpf4jnsgd1na2vs0mg"},{"bike_id":"64f02721-62c1-492d-b435-8be629c01be3","system_id":"levelo_inurba_marseille","lat":43.302784,"lon":5.377158,"is_reserved":false,"is_disabled":false,"rental_uris":{"android":"levelo://app?vid=64f02721-62c1-492d-b435-8be629c01be3","ios":"levelo://app?vid=64f02721-62c1-492d-b435-8be629c01be3"},"vehicle_type_id":"4","last_reported":1721761570,"current_range_meters":4800,"station_id":"ce4bguh2rcd13ifvqcj0","pricing_plan_id":"cebpf4jnsgd1na2vs0mg"},{"bike_id":"f7f46089-2666-4f98-a6b2-e7379274e68b","system_id":"levelo_inurba_marseille","lat":43.316275,"lon":5.38345,"is_reserved":false,"is_disabled":false,"rental_uris":{"android":"levelo://app?vid=f7f46089-2666-4f98-a6b2-e7379274e68b","ios":"levelo://app?vid=f7f46089-2666-4f98-a6b2-e7379274e68b"},"vehicle_type_id":"4","last_reported":1721761570,"current_range_meters":12000,"station_id":"","pricing_plan_id":"cebpf4jnsgd1na2vs0mg"},{"bike_id":"a092858c-aca9-4072-b94e-c7452ff90cd2","system_id":"levelo_inurba_marseille","lat":43.30558,"lon":5.38169,"is_reserved":false,"is_disabled":false,"rental_uris":{"android":"levelo://app?vid=a092858c-aca9-4072-b94e-c7452ff90cd2","ios":"levelo://app?vid=a092858c-aca9-4072-b94e-c7452ff90cd2"},"vehicle_type_id":"4","last_reported":1721761570,"current_range_meters":20000,"station_id":"","pricing_plan_id":"cebpf4jnsgd1na2vs0mg"},{"bike_id":"1b40f21c-b48d-4194-bf1a-b100eb5dff7b","system_id":"levelo_inurba_marseille","lat":43.313571,"lon":5.384829,"is_reserved":false,"is_disabled":false,"rental_uris":{"android":"levelo://app?vid=1b40f21c-b48d-4194-bf1a-b100eb5dff7b","ios":"levelo://app?vid=1b40f21c-b48d-4194-bf1a-b100eb5dff7b"},"vehicle_type_id":"4","last_reported":1721761570,"current_range_meters":10400,"station_id":"ce4bgt92rcd13ifvqcf0","pricing_plan_id":"cebpf4jnsgd1na2vs0mg"},{"bike_id":"3e38c4e1-8369-41e3-a447-f44d0b794779","system_id":"levelo_inurba_marseille","lat":43.299222,"lon":5.365554,"is_reserved":false,"is_disabled":false,"rental_uris":{"android":"levelo://app?vid=3e38c4e1-8369-41e3-a447-f44d0b794779","ios":"levelo://app?vid=3e38c4e1-8369-41e3-a447-f44d0b794779"},"vehicle_type_id":"4","last_reported":1721761570,"current_range_meters":1200,"station_id":"ce4bgm92rcd13ifvqbr0","pricing_plan_id":"cebpf4jnsgd1na2vs0mg"},{"bike_id":"35f00e1e-5972-4f7e-a0a9-9a678942cb4b","system_id":"levelo_inurba_marseille","lat":43.299222,"lon":5.365554,"is_reserved":false,"is_disabled":false,"rental_uris":{"android":"levelo://app?vid=35f00e1e-5972-4f7e-a0a9-9a678942cb4b","ios":"levelo://app?vid=35f00e1e-5972-4f7e-a0a9-9a678942cb4b"},"vehicle_type_id":"4","last_reported":1721761570,"current_range_meters":0,"station_id":"ce4bgm92rcd13ifvqbr0","pricing_plan_id":"cebpf4jnsgd1na2vs0mg"},{"bike_id":"34462ba9-ae21-4a1b-bd0e-822a84e328b3","system_id":"levelo_inurba_marseille","lat":43.299724,"lon":5.371829,"is_reserved":false,"is_disabled":false,"rental_uris":{"android":"levelo://app?vid=34462ba9-ae21-4a1b-bd0e-822a84e328b3","ios":"levelo://app?vid=34462ba9-ae21-4a1b-bd0e-822a84e328b3"},"vehicle_type_id":"4","last_reported":1721761570,"current_range_meters":20400,"station_id":"ce4bgr92rcd13ifvqc7g","pricing_plan_id":"cebpf4jnsgd1na2vs0mg"},{"bike_id":"fa285a85-aa0f-48a4-b5b7-93cc44bb9ab4","system_id":"levelo_inurba_marseille","lat":43.299724,"lon":5.371829,"is_reserved":false,"is_disabled":false,"rental_uris":{"android":"levelo://app?vid=fa285a85-aa0f-48a4-b5b7-93cc44bb9ab4","ios":"levelo://app?vid=fa285a85-aa0f-48a4-b5b7-93cc44bb9ab4"},"vehicle_type_id":"4","last_reported":1721761570,"current_range_meters":14000,"station_id":"ce4bgr92rcd13ifvqc7g","pricing_plan_id":"cebpf4jnsgd1na2vs0mg"},{"bike_id":"487d860a-437d-414b-a4ad-b8ee92ab63e7","system_id":"levelo_inurba_marseille","lat":43.299724,"lon":5.371829,"is_reserved":false,"is_disabled":false,"rental_uris":{"android":"levelo://app?vid=487d860a-437d-414b-a4ad-b8ee92ab63e7","ios":"levelo://app?vid=487d860a-437d-414b-a4ad-b8ee92ab63e7"},"vehicle_type_id":"4","last_reported":1721761570,"current_range_meters":0,"station_id":"ce4bgr92rcd13ifvqc7g","pricing_plan_id":"cebpf4jnsgd1na2vs0mg"},{"bike_id":"6d94a9f1-e724-493b-a5c2-adf12cc9eb5b","system_id":"levelo_inurba_marseille","lat":43.299724,"lon":5.371829,"is_reserved":false,"is_disabled":false,"rental_uris":{"android":"levelo://app?vid=6d94a9f1-e724-493b-a5c2-adf12cc9eb5b","ios":"levelo://app?vid=6d94a9f1-e724-493b-a5c2-adf12cc9eb5b"},"vehicle_type_id":"4","last_reported":1721761570,"current_range_meters":6400,"station_id":"ce4bgr92rcd13ifvqc7g","pricing_plan_id":"cebpf4jnsgd1na2vs0mg"},{"bike_id":"b3c97d5e-b6ba-43c6-af10-30c8437cef6b","system_id":"levelo_inurba_marseille","lat":43.309465,"lon":5.386254,"is_reserved":false,"is_disabled":false,"rental_uris":{"android":"levelo://app?vid=b3c97d5e-b6ba-43c6-af10-30c8437cef6b","ios":"levelo://app?vid=b3c97d5e-b6ba-43c6-af10-30c8437cef6b"},"vehicle_type_id":"4","last_reported":1721761570,"current_range_meters":6000,"station_id":"","pricing_plan_id":"cebpf4jnsgd1na2vs0mg"},{"bike_id":"6eb54fcf-271e-4484-bebe-a49ecb7fb80a","system_id":"levelo_inurba_marseille","lat":43.299243,"lon":5.37481,"is_reserved":false,"is_disabled":false,"rental_uris":{"android":"levelo://app?vid=6eb54fcf-271e-4484-bebe-a49ecb7fb80a","ios":"levelo://app?vid=6eb54fcf-271e-4484-bebe-a49ecb7fb80a"},"vehicle_type_id":"4","last_reported":1721761570,"current_range_meters":16400,"station_id":"ce4bgjh2rcd13ifvqbg0","pricing_plan_id":"cebpf4jnsgd1na2vs0mg"},{"bike_id":"6e8368a1-70b9-434a-82a9-d27f54666a62","system_id":"levelo_inurba_marseille","lat":43.299243,"lon":5.37481,"is_reserved":false,"is_disabled":false,"rental_uris":{"android":"levelo://app?vid=6e8368a1-70b9-434a-82a9-d27f54666a62","ios":"levelo://app?vid=6e8368a1-70b9-434a-82a9-d27f54666a62"},"vehicle_type_id":"4","last_reported":1721761570,"current_range_meters":16000,"station_id":"ce4bgjh2rcd13ifvqbg0","pricing_plan_id":"cebpf4jnsgd1na2vs0mg"},{"bike_id":"80987d05-86d8-45e5-aa74-ce2e41be7477","system_id":"levelo_inurba_marseille","lat":43.299243,"lon":5.374807,"is_reserved":false,"is_disabled":false,"rental_uris":{"android":"levelo://app?vid=80987d05-86d8-45e5-aa74-ce2e41be7477","ios":"levelo://app?vid=80987d05-86d8-45e5-aa74-ce2e41be7477"},"vehicle_type_id":"4","last_reported":1721761570,"current_range_meters":2000,"station_id":"ce4bgjh2rcd13ifvqbg0","pricing_plan_id":"cebpf4jnsgd1na2vs0mg"},{"bike_id":"317c9fe4-b917-4bfd-bd6e-8b4df1a81bd2","system_id":"levelo_inurba_marseille","lat":43.298433,"lon":5.362774,"is_reserved":false,"is_disabled":false,"rental_uris":{"android":"levelo://app?vid=317c9fe4-b917-4bfd-bd6e-8b4df1a81bd2","ios":"levelo://app?vid=317c9fe4-b917-4bfd-bd6e-8b4df1a81bd2"},"vehicle_type_id":"4","last_reported":1721761570,"current_range_meters":14800,"station_id":"ce4bgpp2rcd13ifvqc3g","pricing_plan_id":"cebpf4jnsgd1na2vs0mg"},{"bike_id":"e941127e-41a7-4303-ae8b-521ddb52927a","system_id":"levelo_inurba_marseille","lat":43.299243,"lon":5.37481,"is_reserved":false,"is_disabled":false,"rental_uris":{"android":"levelo://app?vid=e941127e-41a7-4303-ae8b-521ddb52927a","ios":"levelo://app?vid=e941127e-41a7-4303-ae8b-521ddb52927a"},"vehicle_type_id":"4","last_reported":1721761570,"current_range_meters":16400,"station_id":"ce4bgjh2rcd13ifvqbg0","pricing_plan_id":"cebpf4jnsgd1na2vs0mg"},{"bike_id":"0434edf7-9870-42af-91d6-9800b0c26b22","system_id":"levelo_inurba_marseille","lat":43.322872,"lon":5.382756,"is_reserved":false,"is_disabled":false,"rental_uris":{"android":"levelo://app?vid=0434edf7-9870-42af-91d6-9800b0c26b22","ios":"levelo://app?vid=0434edf7-9870-42af-91d6-9800b0c26b22"},"vehicle_type_id":"4","last_reported":1721761570,"current_range_meters":400,"station_id":"ce4bhr12rcd13ifvqhqg","pricing_plan_id":"cebpf4jnsgd1na2vs0mg"},{"bike_id":"e1e58003-ae21-4883-878b-f638632468e0","system_id":"levelo_inurba_marseille","lat":43.297774,"lon":5.370875,"is_reserved":false,"is_disabled":false,"rental_uris":{"android":"levelo://app?vid=e1e58003-ae21-4883-878b-f638632468e0","ios":"levelo://app?vid=e1e58003-ae21-4883-878b-f638632468e0"},"vehicle_type_id":"4","last_reported":1721761570,"current_range_meters":7200,"station_id":"ce4bgop2rcd13ifvqc1g","pricing_plan_id":"cebpf4jnsgd1na2vs0mg"},{"bike_id":"9d1fb752-0b72-4456-aa63-65c06df9d390","system_id":"levelo_inurba_marseille","lat":43.297794,"lon":5.370888,"is_reserved":false,"is_disabled":false,"rental_uris":{"android":"levelo://app?vid=9d1fb752-0b72-4456-aa63-65c06df9d390","ios":"levelo://app?vid=9d1fb752-0b72-4456-aa63-65c06df9d390"},"vehicle_type_id":"4","last_reported":1721761570,"current_range_meters":28400,"station_id":"ce4bgop2rcd13ifvqc1g","pricing_plan_id":"cebpf4jnsgd1na2vs0mg"},{"bike_id":"ee80f9b1-402a-4e94-9ba8-3f26571be545","system_id":"levelo_inurba_marseille","lat":43.322872,"lon":5.382756,"is_reserved":false,"is_disabled":false,"rental_uris":{"android":"levelo://app?vid=ee80f9b1-402a-4e94-9ba8-3f26571be545","ios":"levelo://app?vid=ee80f9b1-402a-4e94-9ba8-3f26571be545"},"vehicle_type_id":"4","last_reported":1721761570,"current_range_meters":26400,"station_id":"ce4bhr12rcd13ifvqhqg","pricing_plan_id":"cebpf4jnsgd1na2vs0mg"},{"bike_id":"c35b388e-e3c9-4fcc-91b7-5672aa48325d","system_id":"levelo_inurba_marseille","lat":43.32289,"lon":5.38275,"is_reserved":false,"is_disabled":false,"rental_uris":{"android":"levelo://app?vid=c35b388e-e3c9-4fcc-91b7-5672aa48325d","ios":"levelo://app?vid=c35b388e-e3c9-4fcc-91b7-5672aa48325d"},"vehicle_type_id":"4","last_reported":1721761570,"current_range_meters":22800,"station_id":"ce4bhr12rcd13ifvqhqg","pricing_plan_id":"cebpf4jnsgd1na2vs0mg"},{"bike_id":"43f38f73-70c7-48bd-95aa-aee3e98a3979","system_id":"levelo_inurba_marseille","lat":43.296129,"lon":5.370777,"is_reserved":false,"is_disabled":false,"rental_uris":{"android":"levelo://app?vid=43f38f73-70c7-48bd-95aa-aee3e98a3979","ios":"levelo://app?vid=43f38f73-70c7-48bd-95aa-aee3e98a3979"},"vehicle_type_id":"4","last_reported":1721761570,"current_range_meters":22400,"station_id":"ce4bgnh2rcd13ifvqc0g","pricing_plan_id":"cebpf4jnsgd1na2vs0mg"},{"bike_id":"29b28641-3779-4d95-b7dc-968f3ac45559","system_id":"levelo_inurba_marseille","lat":43.299028,"lon":5.381509,"is_reserved":false,"is_disabled":false,"rental_uris":{"android":"levelo://app?vid=29b28641-3779-4d95-b7dc-968f3ac45559","ios":"levelo://app?vid=29b28641-3779-4d95-b7dc-968f3ac45559"},"vehicle_type_id":"4","last_reported":1721761570,"current_range_meters":1200,"station_id":"ce4bgj12rcd13ifvqbc0","pricing_plan_id":"cebpf4jnsgd1na2vs0mg"},{"bike_id":"160d1f3f-4cbe-4d1c-b9d0-13adacd0d8f3","system_id":"levelo_inurba_marseille","lat":43.317557,"lon":5.390173,"is_reserved":false,"is_disabled":false,"rental_uris":{"android":"levelo://app?vid=160d1f3f-4cbe-4d1c-b9d0-13adacd0d8f3","ios":"levelo://app?vid=160d1f3f-4cbe-4d1c-b9d0-13adacd0d8f3"},"vehicle_type_id":"4","last_reported":1721761570,"current_range_meters":16000,"station_id":"ce4bhqp2rcd13ifvqhng","pricing_plan_id":"cebpf4jnsgd1na2vs0mg"},{"bike_id":"aca6ff4b-cf49-4355-b206-ecc2d3da5149","system_id":"levelo_inurba_marseille","lat":43.31755,"lon":5.39015,"is_reserved":false,"is_disabled":false,"rental_uris":{"android":"levelo://app?vid=aca6ff4b-cf49-4355-b206-ecc2d3da5149","ios":"levelo://app?vid=aca6ff4b-cf49-4355-b206-ecc2d3da5149"},"vehicle_type_id":"4","last_reported":1721761570,"current_range_meters":4000,"station_id":"ce4bhqp2rcd13ifvqhng","pricing_plan_id":"cebpf4jnsgd1na2vs0mg"},{"bike_id":"a62ce65a-c999-4ad6-abe7-333b7bb4d3c8","system_id":"levelo_inurba_marseille","lat":43.317569,"lon":5.390144,"is_reserved":false,"is_disabled":false,"rental_uris":{"android":"levelo://app?vid=a62ce65a-c999-4ad6-abe7-333b7bb4d3c8","ios":"levelo://app?vid=a62ce65a-c999-4ad6-abe7-333b7bb4d3c8"},"vehicle_type_id":"4","last_reported":1721761570,"current_range_meters":12000,"station_id":"ce4bhqp2rcd13ifvqhng","pricing_plan_id":"cebpf4jnsgd1na2vs0mg"},{"bike_id":"efe19b35-f3ec-4e0f-b003-d43681ca4fbe","system_id":"levelo_inurba_marseille","lat":43.317597,"lon":5.39016,"is_reserved":false,"is_disabled":false,"rental_uris":{"android":"levelo://app?vid=efe19b35-f3ec-4e0f-b003-d43681ca4fbe","ios":"levelo://app?vid=efe19b35-f3ec-4e0f-b003-d43681ca4fbe"},"vehicle_type_id":"4","last_reported":1721761570,"current_range_meters":16800,"station_id":"ce4bhqp2rcd13ifvqhng","pricing_plan_id":"cebpf4jnsgd1na2vs0mg"},{"bike_id":"75192278-cf2c-4116-a948-5d987e1cd666","system_id":"levelo_inurba_marseille","lat":43.304274,"lon":5.388873,"is_reserved":false,"is_disabled":false,"rental_uris":{"android":"levelo://app?vid=75192278-cf2c-4116-a948-5d987e1cd666","ios":"levelo://app?vid=75192278-cf2c-4116-a948-5d987e1cd666"},"vehicle_type_id":"4","last_reported":1721761570,"current_range_meters":31200,"station_id":"ce4bgk12rcd13ifvqbi0","pricing_plan_id":"cebpf4jnsgd1na2vs0mg"},{"bike_id":"df3ab69b-0994-406c-8388-f98671ade034","system_id":"levelo_inurba_marseille","lat":43.304274,"lon":5.388873,"is_reserved":false,"is_disabled":false,"rental_uris":{"android":"levelo://app?vid=df3ab69b-0994-406c-8388-f98671ade034","ios":"levelo://app?vid=df3ab69b-0994-406c-8388-f98671ade034"},"vehicle_type_id":"4","last_reported":1721761570,"current_range_meters":25600,"station_id":"ce4bgk12rcd13ifvqbi0","pricing_plan_id":"cebpf4jnsgd1na2vs0mg"},{"bike_id":"9a54ff17-d199-4180-b886-d06f7bae4665","system_id":"levelo_inurba_marseille","lat":43.304274,"lon":5.388873,"is_reserved":false,"is_disabled":false,"rental_uris":{"android":"levelo://app?vid=9a54ff17-d199-4180-b886-d06f7bae4665","ios":"levelo://app?vid=9a54ff17-d199-4180-b886-d06f7bae4665"},"vehicle_type_id":"4","last_reported":1721761570,"current_range_meters":7600,"station_id":"ce4bgk12rcd13ifvqbi0","pricing_plan_id":"cebpf4jnsgd1na2vs0mg"},{"bike_id":"dac858d4-b85a-488f-a71c-b49c2fedcadc","system_id":"levelo_inurba_marseille","lat":43.304278,"lon":5.388868,"is_reserved":false,"is_disabled":false,"rental_uris":{"android":"levelo://app?vid=dac858d4-b85a-488f-a71c-b49c2fedcadc","ios":"levelo://app?vid=dac858d4-b85a-488f-a71c-b49c2fedcadc"},"vehicle_type_id":"4","last_reported":1721761570,"current_range_meters":30000,"station_id":"ce4bgk12rcd13ifvqbi0","pricing_plan_id":"cebpf4jnsgd1na2vs0mg"},{"bike_id":"1eb501dd-2f5b-4f8f-b323-f7086bf9979a","system_id":"levelo_inurba_marseille","lat":43.295748,"lon":5.37522,"is_reserved":false,"is_disabled":false,"rental_uris":{"android":"levelo://app?vid=1eb501dd-2f5b-4f8f-b323-f7086bf9979a","ios":"levelo://app?vid=1eb501dd-2f5b-4f8f-b323-f7086bf9979a"},"vehicle_type_id":"4","last_reported":1721761570,"current_range_meters":0,"station_id":"ce4bgh92rcd13ifvqb50","pricing_plan_id":"cebpf4jnsgd1na2vs0mg"},{"bike_id":"0abc227b-baec-441a-b8ac-01259f1d8532","system_id":"levelo_inurba_marseille","lat":43.304278,"lon":5.388868,"is_reserved":false,"is_disabled":false,"rental_uris":{"android":"levelo://app?vid=0abc227b-baec-441a-b8ac-01259f1d8532","ios":"levelo://app?vid=0abc227b-baec-441a-b8ac-01259f1d8532"},"vehicle_type_id":"4","last_reported":1721761570,"current_range_meters":17600,"station_id":"ce4bgk12rcd13ifvqbi0","pricing_plan_id":"cebpf4jnsgd1na2vs0mg"},{"bike_id":"66ea32ee-c90d-494a-b5e7-e808cddd74d9","system_id":"levelo_inurba_marseille","lat":43.304278,"lon":5.388868,"is_reserved":false,"is_disabled":false,"rental_uris":{"android":"levelo://app?vid=66ea32ee-c90d-494a-b5e7-e808cddd74d9","ios":"levelo://app?vid=66ea32ee-c90d-494a-b5e7-e808cddd74d9"},"vehicle_type_id":"4","last_reported":1721761570,"current_range_meters":31200,"station_id":"ce4bgk12rcd13ifvqbi0","pricing_plan_id":"cebpf4jnsgd1na2vs0mg"},{"bike_id":"3748e580-4673-47ce-adc0-2e3dccf6ebeb","system_id":"levelo_inurba_marseille","lat":43.32784,"lon":5.381,"is_reserved":false,"is_disabled":false,"rental_uris":{"android":"levelo://app?vid=3748e580-4673-47ce-adc0-2e3dccf6ebeb","ios":"levelo://app?vid=3748e580-4673-47ce-adc0-2e3dccf6ebeb"},"vehicle_type_id":"4","last_reported":1721761570,"current_range_meters":15600,"station_id":"","pricing_plan_id":"cebpf4jnsgd1na2vs0mg"},{"bike_id":"a270b051-b8a6-4455-86dd-cb369a458f92","system_id":"levelo_inurba_marseille","lat":43.295279,"lon":5.375048,"is_reserved":false,"is_disabled":false,"rental_uris":{"android":"levelo://app?vid=a270b051-b8a6-4455-86dd-cb369a458f92","ios":"levelo://app?vid=a270b051-b8a6-4455-86dd-cb369a458f92"},"vehicle_type_id":"4","last_reported":1721761570,"current_range_meters":0,"station_id":"ce4bgkp2rcd13ifvqbmg","pricing_plan_id":"cebpf4jnsgd1na2vs0mg"},{"bike_id":"c8eaed61-7122-40b0-acf2-59c1f0a8a0c1","system_id":"levelo_inurba_marseille","lat":43.29966,"lon":5.38497,"is_reserved":false,"is_disabled":false,"rental_uris":{"android":"levelo://app?vid=c8eaed61-7122-40b0-acf2-59c1f0a8a0c1","ios":"levelo://app?vid=c8eaed61-7122-40b0-acf2-59c1f0a8a0c1"},"vehicle_type_id":"4","last_reported":1721761570,"current_range_meters":31200,"station_id":"","pricing_plan_id":"cebpf4jnsgd1na2vs0mg"},{"bike_id":"50a93009-1d2d-460d-95f9-26dd6202d6e7","system_id":"levelo_inurba_marseille","lat":43.301396,"lon":5.387812,"is_reserved":false,"is_disabled":false,"rental_uris":{"android":"levelo://app?vid=50a93009-1d2d-460d-95f9-26dd6202d6e7","ios":"levelo://app?vid=50a93009-1d2d-460d-95f9-26dd6202d6e7"},"vehicle_type_id":"4","last_reported":1721761570,"current_range_meters":31200,"station_id":"ce4bghh2rcd13ifvqb60","pricing_plan_id":"cebpf4jnsgd1na2vs0mg"},{"bike_id":"413d5632-d6a0-4420-8188-cde0821e0cd0","system_id":"levelo_inurba_marseille","lat":43.301396,"lon":5.387812,"is_reserved":false,"is_disabled":false,"rental_uris":{"android":"levelo://app?vid=413d5632-d6a0-4420-8188-cde0821e0cd0","ios":"levelo://app?vid=413d5632-d6a0-4420-8188-cde0821e0cd0"},"vehicle_type_id":"4","last_reported":1721761570,"current_range_meters":10400,"station_id":"ce4bghh2rcd13ifvqb60","pricing_plan_id":"cebpf4jnsgd1na2vs0mg"},{"bike_id":"144aa3a4-b2fc-4bc2-bd63-da0ce8e1b313","system_id":"levelo_inurba_marseille","lat":43.32363,"lon":5.38883,"is_reserved":false,"is_disabled":false,"rental_uris":{"android":"levelo://app?vid=144aa3a4-b2fc-4bc2-bd63-da0ce8e1b313","ios":"levelo://app?vid=144aa3a4-b2fc-4bc2-bd63-da0ce8e1b313"},"vehicle_type_id":"4","last_reported":1721761570,"current_range_meters":4400,"station_id":"ce4bhqp2rcd13ifvqhog","pricing_plan_id":"cebpf4jnsgd1na2vs0mg"},{"bike_id":"57e3beb2-c4da-4f9c-80f6-c5573330c5f3","system_id":"levelo_inurba_marseille","lat":43.32367,"lon":5.388836,"is_reserved":false,"is_disabled":false,"rental_uris":{"android":"levelo://app?vid=57e3beb2-c4da-4f9c-80f6-c5573330c5f3","ios":"levelo://app?vid=57e3beb2-c4da-4f9c-80f6-c5573330c5f3"},"vehicle_type_id":"4","last_reported":1721761570,"current_range_meters":5600,"station_id":"ce4bhqp2rcd13ifvqhog","pricing_plan_id":"cebpf4jnsgd1na2vs0mg"},{"bike_id":"bcd5b7d9-0f25-43d0-8958-bc8d3f8dbb07","system_id":"levelo_inurba_marseille","lat":43.32366,"lon":5.38882,"is_reserved":false,"is_disabled":false,"rental_uris":{"android":"levelo://app?vid=bcd5b7d9-0f25-43d0-8958-bc8d3f8dbb07","ios":"levelo://app?vid=bcd5b7d9-0f25-43d0-8958-bc8d3f8dbb07"},"vehicle_type_id":"4","last_reported":1721761570,"current_range_meters":5200,"station_id":"","pricing_plan_id":"cebpf4jnsgd1na2vs0mg"},{"bike_id":"788629c1-7cf1-4d2c-a214-a814824c9348","system_id":"levelo_inurba_marseille","lat":43.29602,"lon":5.381084,"is_reserved":false,"is_disabled":false,"rental_uris":{"android":"levelo://app?vid=788629c1-7cf1-4d2c-a214-a814824c9348","ios":"levelo://app?vid=788629c1-7cf1-4d2c-a214-a814824c9348"},"vehicle_type_id":"4","last_reported":1721761570,"current_range_meters":9600,"station_id":"ce4bgl12rcd13ifvqbo0","pricing_plan_id":"cebpf4jnsgd1na2vs0mg"},{"bike_id":"e0953714-e96c-472e-ae10-3a86ae17e154","system_id":"levelo_inurba_marseille","lat":43.296072,"lon":5.38099,"is_reserved":false,"is_disabled":false,"rental_uris":{"android":"levelo://app?vid=e0953714-e96c-472e-ae10-3a86ae17e154","ios":"levelo://app?vid=e0953714-e96c-472e-ae10-3a86ae17e154"},"vehicle_type_id":"4","last_reported":1721761570,"current_range_meters":23600,"station_id":"ce4bgl12rcd13ifvqbo0","pricing_plan_id":"cebpf4jnsgd1na2vs0mg"},{"bike_id":"170fbdd5-5095-4d74-8f5b-82bb9f2b0b5b","system_id":"levelo_inurba_marseille","lat":43.29602,"lon":5.381084,"is_reserved":false,"is_disabled":false,"rental_uris":{"android":"levelo://app?vid=170fbdd5-5095-4d74-8f5b-82bb9f2b0b5b","ios":"levelo://app?vid=170fbdd5-5095-4d74-8f5b-82bb9f2b0b5b"},"vehicle_type_id":"4","last_reported":1721761570,"current_range_meters":31600,"station_id":"ce4bgl12rcd13ifvqbo0","pricing_plan_id":"cebpf4jnsgd1na2vs0mg"},{"bike_id":"b3ec118e-b985-4dfd-bd09-b7e2cc3037d6","system_id":"levelo_inurba_marseille","lat":43.296,"lon":5.38113,"is_reserved":false,"is_disabled":false,"rental_uris":{"android":"levelo://app?vid=b3ec118e-b985-4dfd-bd09-b7e2cc3037d6","ios":"levelo://app?vid=b3ec118e-b985-4dfd-bd09-b7e2cc3037d6"},"vehicle_type_id":"4","last_reported":1721761570,"current_range_meters":0,"station_id":"ce4bgl12rcd13ifvqbo0","pricing_plan_id":"cebpf4jnsgd1na2vs0mg"},{"bike_id":"529bc914-f48b-4d47-959d-48bdd3865208","system_id":"levelo_inurba_marseille","lat":43.293249,"lon":5.371578,"is_reserved":false,"is_disabled":false,"rental_uris":{"android":"levelo://app?vid=529bc914-f48b-4d47-959d-48bdd3865208","ios":"levelo://app?vid=529bc914-f48b-4d47-959d-48bdd3865208"},"vehicle_type_id":"4","last_reported":1721761570,"current_range_meters":3600,"station_id":"ce4bgh92rcd13ifvqb40","pricing_plan_id":"cebpf4jnsgd1na2vs0mg"},{"bike_id":"1e159e27-7e64-41ec-a49e-0323fddd5a17","system_id":"levelo_inurba_marseille","lat":43.293259,"lon":5.371586,"is_reserved":false,"is_disabled":false,"rental_uris":{"android":"levelo://app?vid=1e159e27-7e64-41ec-a49e-0323fddd5a17","ios":"levelo://app?vid=1e159e27-7e64-41ec-a49e-0323fddd5a17"},"vehicle_type_id":"4","last_reported":1721761570,"current_range_meters":6400,"station_id":"ce4bgh92rcd13ifvqb40","pricing_plan_id":"cebpf4jnsgd1na2vs0mg"},{"bike_id":"89505c77-f9b7-49f0-9713-7e584e9b2388","system_id":"levelo_inurba_marseille","lat":43.29272,"lon":5.36838,"is_reserved":false,"is_disabled":false,"rental_uris":{"android":"levelo://app?vid=89505c77-f9b7-49f0-9713-7e584e9b2388","ios":"levelo://app?vid=89505c77-f9b7-49f0-9713-7e584e9b2388"},"vehicle_type_id":"4","last_reported":1721761570,"current_range_meters":0,"station_id":"ce4bhbp2rcd13ifvqesg","pricing_plan_id":"cebpf4jnsgd1na2vs0mg"},{"bike_id":"ffd6ea5c-8334-4d5b-bf2c-69b53abaa6f2","system_id":"levelo_inurba_marseille","lat":43.29271,"lon":5.36835,"is_reserved":false,"is_disabled":false,"rental_uris":{"android":"levelo://app?vid=ffd6ea5c-8334-4d5b-bf2c-69b53abaa6f2","ios":"levelo://app?vid=ffd6ea5c-8334-4d5b-bf2c-69b53abaa6f2"},"vehicle_type_id":"4","last_reported":1721761570,"current_range_meters":0,"station_id":"ce4bhbp2rcd13ifvqesg","pricing_plan_id":"cebpf4jnsgd1na2vs0mg"},{"bike_id":"fe06174c-50ee-4e52-a7f7-9ec4bb46f974","system_id":"levelo_inurba_marseille","lat":43.29228,"lon":5.36596,"is_reserved":false,"is_disabled":false,"rental_uris":{"android":"levelo://app?vid=fe06174c-50ee-4e52-a7f7-9ec4bb46f974","ios":"levelo://app?vid=fe06174c-50ee-4e52-a7f7-9ec4bb46f974"},"vehicle_type_id":"4","last_reported":1721761570,"current_range_meters":30800,"station_id":"","pricing_plan_id":"cebpf4jnsgd1na2vs0mg"},{"bike_id":"f3cae941-3f4a-4a85-b7a5-79df477430b9","system_id":"levelo_inurba_marseille","lat":43.29397,"lon":5.37821,"is_reserved":false,"is_disabled":false,"rental_uris":{"android":"levelo://app?vid=f3cae941-3f4a-4a85-b7a5-79df477430b9","ios":"levelo://app?vid=f3cae941-3f4a-4a85-b7a5-79df477430b9"},"vehicle_type_id":"4","last_reported":1721761570,"current_range_meters":5200,"station_id":"ce4bgjh2rcd13ifvqbf0","pricing_plan_id":"cebpf4jnsgd1na2vs0mg"},{"bike_id":"7faaff3c-cfac-476c-8191-7025b34b6c12","system_id":"levelo_inurba_marseille","lat":43.293009,"lon":5.374584,"is_reserved":false,"is_disabled":false,"rental_uris":{"android":"levelo://app?vid=7faaff3c-cfac-476c-8191-7025b34b6c12","ios":"levelo://app?vid=7faaff3c-cfac-476c-8191-7025b34b6c12"},"vehicle_type_id":"4","last_reported":1721761570,"current_range_meters":800,"station_id":"ce4bgi12rcd13ifvqb70","pricing_plan_id":"cebpf4jnsgd1na2vs0mg"},{"bike_id":"b3df4cc2-958c-4b7e-9a2a-45c49ccd0d30","system_id":"levelo_inurba_marseille","lat":43.293009,"lon":5.374584,"is_reserved":false,"is_disabled":false,"rental_uris":{"android":"levelo://app?vid=b3df4cc2-958c-4b7e-9a2a-45c49ccd0d30","ios":"levelo://app?vid=b3df4cc2-958c-4b7e-9a2a-45c49ccd0d30"},"vehicle_type_id":"4","last_reported":1721761570,"current_range_meters":0,"station_id":"ce4bgi12rcd13ifvqb70","pricing_plan_id":"cebpf4jnsgd1na2vs0mg"},{"bike_id":"b3f8ce79-6444-4324-9765-703cc83d8668","system_id":"levelo_inurba_marseille","lat":43.293009,"lon":5.374584,"is_reserved":false,"is_disabled":false,"rental_uris":{"android":"levelo://app?vid=b3f8ce79-6444-4324-9765-703cc83d8668","ios":"levelo://app?vid=b3f8ce79-6444-4324-9765-703cc83d8668"},"vehicle_type_id":"4","last_reported":1721761570,"current_range_meters":23600,"station_id":"ce4bgi12rcd13ifvqb70","pricing_plan_id":"cebpf4jnsgd1na2vs0mg"},{"bike_id":"64ad4cdb-8517-4f7c-be4c-a1f3e88aafdc","system_id":"levelo_inurba_marseille","lat":43.305994,"lon":5.393687,"is_reserved":false,"is_disabled":false,"rental_uris":{"android":"levelo://app?vid=64ad4cdb-8517-4f7c-be4c-a1f3e88aafdc","ios":"levelo://app?vid=64ad4cdb-8517-4f7c-be4c-a1f3e88aafdc"},"vehicle_type_id":"4","last_reported":1721761570,"current_range_meters":5200,"station_id":"ce4bh0p2rcd13ifvqd80","pricing_plan_id":"cebpf4jnsgd1na2vs0mg"},{"bike_id":"1a37fa61-77c6-495c-901c-bc07adfdf461","system_id":"levelo_inurba_marseille","lat":43.303002,"lon":5.392142,"is_reserved":false,"is_disabled":false,"rental_uris":{"android":"levelo://app?vid=1a37fa61-77c6-495c-901c-bc07adfdf461","ios":"levelo://app?vid=1a37fa61-77c6-495c-901c-bc07adfdf461"},"vehicle_type_id":"4","last_reported":1721761570,"current_range_meters":14400,"station_id":"ce4bgkh2rcd13ifvqbk0","pricing_plan_id":"cebpf4jnsgd1na2vs0mg"},{"bike_id":"9fc657e7-2396-4864-8c32-feaa5f486dec","system_id":"levelo_inurba_marseille","lat":43.303002,"lon":5.392142,"is_reserved":false,"is_disabled":false,"rental_uris":{"android":"levelo://app?vid=9fc657e7-2396-4864-8c32-feaa5f486dec","ios":"levelo://app?vid=9fc657e7-2396-4864-8c32-feaa5f486dec"},"vehicle_type_id":"4","last_reported":1721761570,"current_range_meters":31200,"station_id":"ce4bgkh2rcd13ifvqbk0","pricing_plan_id":"cebpf4jnsgd1na2vs0mg"},{"bike_id":"39ecb3f5-4449-4563-95df-13e9ece358df","system_id":"levelo_inurba_marseille","lat":43.303002,"lon":5.392142,"is_reserved":false,"is_disabled":false,"rental_uris":{"android":"levelo://app?vid=39ecb3f5-4449-4563-95df-13e9ece358df","ios":"levelo://app?vid=39ecb3f5-4449-4563-95df-13e9ece358df"},"vehicle_type_id":"4","last_reported":1721761570,"current_range_meters":12800,"station_id":"ce4bgkh2rcd13ifvqbk0","pricing_plan_id":"cebpf4jnsgd1na2vs0mg"},{"bike_id":"5bbd0ce5-a832-40fb-a60b-09c9c1cfb564","system_id":"levelo_inurba_marseille","lat":43.2936,"lon":5.37835,"is_reserved":false,"is_disabled":false,"rental_uris":{"android":"levelo://app?vid=5bbd0ce5-a832-40fb-a60b-09c9c1cfb564","ios":"levelo://app?vid=5bbd0ce5-a832-40fb-a60b-09c9c1cfb564"},"vehicle_type_id":"4","last_reported":1721761570,"current_range_meters":16800,"station_id":"ce4bgjh2rcd13ifvqbf0","pricing_plan_id":"cebpf4jnsgd1na2vs0mg"},{"bike_id":"4b30c8f6-4964-44ff-b6dc-9bbb39bbf529","system_id":"levelo_inurba_marseille","lat":43.2936,"lon":5.37835,"is_reserved":false,"is_disabled":false,"rental_uris":{"android":"levelo://app?vid=4b30c8f6-4964-44ff-b6dc-9bbb39bbf529","ios":"levelo://app?vid=4b30c8f6-4964-44ff-b6dc-9bbb39bbf529"},"vehicle_type_id":"4","last_reported":1721761570,"current_range_meters":2000,"station_id":"ce4bgjh2rcd13ifvqbf0","pricing_plan_id":"cebpf4jnsgd1na2vs0mg"},{"bike_id":"5abef93a-a545-47f6-b7e2-2f2925917704","system_id":"levelo_inurba_marseille","lat":43.300852,"lon":5.390859,"is_reserved":false,"is_disabled":false,"rental_uris":{"android":"levelo://app?vid=5abef93a-a545-47f6-b7e2-2f2925917704","ios":"levelo://app?vid=5abef93a-a545-47f6-b7e2-2f2925917704"},"vehicle_type_id":"4","last_reported":1721761570,"current_range_meters":31200,"station_id":"ce4bh192rcd13ifvqdb0","pricing_plan_id":"cebpf4jnsgd1na2vs0mg"},{"bike_id":"c986fee6-828b-4d4a-9879-07810578df90","system_id":"levelo_inurba_marseille","lat":43.300852,"lon":5.390859,"is_reserved":false,"is_disabled":false,"rental_uris":{"android":"levelo://app?vid=c986fee6-828b-4d4a-9879-07810578df90","ios":"levelo://app?vid=c986fee6-828b-4d4a-9879-07810578df90"},"vehicle_type_id":"4","last_reported":1721761570,"current_range_meters":31200,"station_id":"ce4bh192rcd13ifvqdb0","pricing_plan_id":"cebpf4jnsgd1na2vs0mg"},{"bike_id":"44b726c5-869b-4619-bc72-f3d12e8aaf30","system_id":"levelo_inurba_marseille","lat":43.309038,"lon":5.396546,"is_reserved":false,"is_disabled":false,"rental_uris":{"android":"levelo://app?vid=44b726c5-869b-4619-bc72-f3d12e8aaf30","ios":"levelo://app?vid=44b726c5-869b-4619-bc72-f3d12e8aaf30"},"vehicle_type_id":"4","last_reported":1721761570,"current_range_meters":14000,"station_id":"ce4bh012rcd13ifvqcv0","pricing_plan_id":"cebpf4jnsgd1na2vs0mg"},{"bike_id":"d51bfc9b-65e4-4dff-a92a-e56321b8d3ba","system_id":"levelo_inurba_marseille","lat":43.309038,"lon":5.396546,"is_reserved":false,"is_disabled":false,"rental_uris":{"android":"levelo://app?vid=d51bfc9b-65e4-4dff-a92a-e56321b8d3ba","ios":"levelo://app?vid=d51bfc9b-65e4-4dff-a92a-e56321b8d3ba"},"vehicle_type_id":"4","last_reported":1721761570,"current_range_meters":25200,"station_id":"ce4bh012rcd13ifvqcv0","pricing_plan_id":"cebpf4jnsgd1na2vs0mg"},{"bike_id":"3e3ab352-3d79-4dc7-b291-2133c5958920","system_id":"levelo_inurba_marseille","lat":43.313291,"lon":5.396838,"is_reserved":false,"is_disabled":false,"rental_uris":{"android":"levelo://app?vid=3e3ab352-3d79-4dc7-b291-2133c5958920","ios":"levelo://app?vid=3e3ab352-3d79-4dc7-b291-2133c5958920"},"vehicle_type_id":"4","last_reported":1721761570,"current_range_meters":0,"station_id":"ce4bgvp2rcd13ifvqcu0","pricing_plan_id":"cebpf4jnsgd1na2vs0mg"},{"bike_id":"0b029255-95ac-44ee-aee1-75a83ac448b3","system_id":"levelo_inurba_marseille","lat":43.313291,"lon":5.396838,"is_reserved":false,"is_disabled":false,"rental_uris":{"android":"levelo://app?vid=0b029255-95ac-44ee-aee1-75a83ac448b3","ios":"levelo://app?vid=0b029255-95ac-44ee-aee1-75a83ac448b3"},"vehicle_type_id":"4","last_reported":1721761570,"current_range_meters":0,"station_id":"ce4bgvp2rcd13ifvqcu0","pricing_plan_id":"cebpf4jnsgd1na2vs0mg"},{"bike_id":"920af040-4bfb-424f-9a99-4e511a4d26d5","system_id":"levelo_inurba_marseille","lat":43.313291,"lon":5.396838,"is_reserved":false,"is_disabled":false,"rental_uris":{"android":"levelo://app?vid=920af040-4bfb-424f-9a99-4e511a4d26d5","ios":"levelo://app?vid=920af040-4bfb-424f-9a99-4e511a4d26d5"},"vehicle_type_id":"4","last_reported":1721761570,"current_range_meters":800,"station_id":"ce4bgvp2rcd13ifvqcu0","pricing_plan_id":"cebpf4jnsgd1na2vs0mg"},{"bike_id":"a4c13f3b-5ee8-4650-81d2-056356aee49b","system_id":"levelo_inurba_marseille","lat":43.313291,"lon":5.396838,"is_reserved":false,"is_disabled":false,"rental_uris":{"android":"levelo://app?vid=a4c13f3b-5ee8-4650-81d2-056356aee49b","ios":"levelo://app?vid=a4c13f3b-5ee8-4650-81d2-056356aee49b"},"vehicle_type_id":"4","last_reported":1721761570,"current_range_meters":0,"station_id":"ce4bgvp2rcd13ifvqcu0","pricing_plan_id":"cebpf4jnsgd1na2vs0mg"},{"bike_id":"cf3df9bf-1e94-4337-a2b1-aece169f7dd7","system_id":"levelo_inurba_marseille","lat":43.31325,"lon":5.39696,"is_reserved":false,"is_disabled":false,"rental_uris":{"android":"levelo://app?vid=cf3df9bf-1e94-4337-a2b1-aece169f7dd7","ios":"levelo://app?vid=cf3df9bf-1e94-4337-a2b1-aece169f7dd7"},"vehicle_type_id":"4","last_reported":1721761570,"current_range_meters":15600,"station_id":"ce4bgvp2rcd13ifvqcu0","pricing_plan_id":"cebpf4jnsgd1na2vs0mg"},{"bike_id":"6c5c05e0-cd76-46e9-8258-8fe77da1113e","system_id":"levelo_inurba_marseille","lat":43.309038,"lon":5.396546,"is_reserved":false,"is_disabled":false,"rental_uris":{"android":"levelo://app?vid=6c5c05e0-cd76-46e9-8258-8fe77da1113e","ios":"levelo://app?vid=6c5c05e0-cd76-46e9-8258-8fe77da1113e"},"vehicle_type_id":"4","last_reported":1721761570,"current_range_meters":29600,"station_id":"ce4bh012rcd13ifvqcv0","pricing_plan_id":"cebpf4jnsgd1na2vs0mg"},{"bike_id":"726af3ad-6681-44d6-b6f2-246d4dfb714f","system_id":"levelo_inurba_marseille","lat":43.309038,"lon":5.396546,"is_reserved":false,"is_disabled":false,"rental_uris":{"android":"levelo://app?vid=726af3ad-6681-44d6-b6f2-246d4dfb714f","ios":"levelo://app?vid=726af3ad-6681-44d6-b6f2-246d4dfb714f"},"vehicle_type_id":"4","last_reported":1721761570,"current_range_meters":4000,"station_id":"ce4bh012rcd13ifvqcv0","pricing_plan_id":"cebpf4jnsgd1na2vs0mg"},{"bike_id":"f97362ef-257f-4dc0-861f-1473484bfb04","system_id":"levelo_inurba_marseille","lat":43.309047,"lon":5.396551,"is_reserved":false,"is_disabled":false,"rental_uris":{"android":"levelo://app?vid=f97362ef-257f-4dc0-861f-1473484bfb04","ios":"levelo://app?vid=f97362ef-257f-4dc0-861f-1473484bfb04"},"vehicle_type_id":"4","last_reported":1721761570,"current_range_meters":7600,"station_id":"ce4bh012rcd13ifvqcv0","pricing_plan_id":"cebpf4jnsgd1na2vs0mg"},{"bike_id":"a19e89c8-63ba-4e26-9727-6ae125b40a14","system_id":"levelo_inurba_marseille","lat":43.309038,"lon":5.396546,"is_reserved":false,"is_disabled":false,"rental_uris":{"android":"levelo://app?vid=a19e89c8-63ba-4e26-9727-6ae125b40a14","ios":"levelo://app?vid=a19e89c8-63ba-4e26-9727-6ae125b40a14"},"vehicle_type_id":"4","last_reported":1721761570,"current_range_meters":27600,"station_id":"ce4bh012rcd13ifvqcv0","pricing_plan_id":"cebpf4jnsgd1na2vs0mg"},{"bike_id":"d058e647-21e1-4c98-a49f-4c9e21537b84","system_id":"levelo_inurba_marseille","lat":43.29534,"lon":5.38537,"is_reserved":false,"is_disabled":false,"rental_uris":{"android":"levelo://app?vid=d058e647-21e1-4c98-a49f-4c9e21537b84","ios":"levelo://app?vid=d058e647-21e1-4c98-a49f-4c9e21537b84"},"vehicle_type_id":"4","last_reported":1721761570,"current_range_meters":0,"station_id":"ce4bgih2rcd13ifvqba0","pricing_plan_id":"cebpf4jnsgd1na2vs0mg"},{"bike_id":"1a1bfdc5-2906-40c6-bc1d-d80731bf76d1","system_id":"levelo_inurba_marseille","lat":43.309047,"lon":5.396551,"is_reserved":false,"is_disabled":false,"rental_uris":{"android":"levelo://app?vid=1a1bfdc5-2906-40c6-bc1d-d80731bf76d1","ios":"levelo://app?vid=1a1bfdc5-2906-40c6-bc1d-d80731bf76d1"},"vehicle_type_id":"4","last_reported":1721761570,"current_range_meters":4800,"station_id":"ce4bh012rcd13ifvqcv0","pricing_plan_id":"cebpf4jnsgd1na2vs0mg"},{"bike_id":"321342e3-3b29-477c-b0c0-cb92d7afe1da","system_id":"levelo_inurba_marseille","lat":43.29532,"lon":5.38545,"is_reserved":false,"is_disabled":false,"rental_uris":{"android":"levelo://app?vid=321342e3-3b29-477c-b0c0-cb92d7afe1da","ios":"levelo://app?vid=321342e3-3b29-477c-b0c0-cb92d7afe1da"},"vehicle_type_id":"4","last_reported":1721761570,"current_range_meters":0,"station_id":"ce4bgih2rcd13ifvqba0","pricing_plan_id":"cebpf4jnsgd1na2vs0mg"},{"bike_id":"7c605430-2d58-4915-9cc0-4d36f0c893a7","system_id":"levelo_inurba_marseille","lat":43.290779,"lon":5.371482,"is_reserved":false,"is_disabled":false,"rental_uris":{"android":"levelo://app?vid=7c605430-2d58-4915-9cc0-4d36f0c893a7","ios":"levelo://app?vid=7c605430-2d58-4915-9cc0-4d36f0c893a7"},"vehicle_type_id":"4","last_reported":1721761570,"current_range_meters":4000,"station_id":"ce4bh5p2rcd13ifvqe4g","pricing_plan_id":"cebpf4jnsgd1na2vs0mg"},{"bike_id":"e98bc8d3-c431-4009-b4b8-b0ab1fbe9daf","system_id":"levelo_inurba_marseille","lat":43.290779,"lon":5.371482,"is_reserved":false,"is_disabled":false,"rental_uris":{"android":"levelo://app?vid=e98bc8d3-c431-4009-b4b8-b0ab1fbe9daf","ios":"levelo://app?vid=e98bc8d3-c431-4009-b4b8-b0ab1fbe9daf"},"vehicle_type_id":"4","last_reported":1721761570,"current_range_meters":10000,"station_id":"ce4bh5p2rcd13ifvqe4g","pricing_plan_id":"cebpf4jnsgd1na2vs0mg"},{"bike_id":"94adfd8b-6635-46db-86ff-35c4209d244e","system_id":"levelo_inurba_marseille","lat":43.290779,"lon":5.371482,"is_reserved":false,"is_disabled":false,"rental_uris":{"android":"levelo://app?vid=94adfd8b-6635-46db-86ff-35c4209d244e","ios":"levelo://app?vid=94adfd8b-6635-46db-86ff-35c4209d244e"},"vehicle_type_id":"4","last_reported":1721761570,"current_range_meters":2800,"station_id":"ce4bh5p2rcd13ifvqe4g","pricing_plan_id":"cebpf4jnsgd1na2vs0mg"},{"bike_id":"ff3d9c9f-a661-403d-bcd4-e092b3cbc959","system_id":"levelo_inurba_marseille","lat":43.290779,"lon":5.371482,"is_reserved":false,"is_disabled":false,"rental_uris":{"android":"levelo://app?vid=ff3d9c9f-a661-403d-bcd4-e092b3cbc959","ios":"levelo://app?vid=ff3d9c9f-a661-403d-bcd4-e092b3cbc959"},"vehicle_type_id":"4","last_reported":1721761570,"current_range_meters":2800,"station_id":"ce4bh5p2rcd13ifvqe4g","pricing_plan_id":"cebpf4jnsgd1na2vs0mg"},{"bike_id":"ba48dd32-193c-43a0-80a3-3a2765580f0e","system_id":"levelo_inurba_marseille","lat":43.290779,"lon":5.371482,"is_reserved":false,"is_disabled":false,"rental_uris":{"android":"levelo://app?vid=ba48dd32-193c-43a0-80a3-3a2765580f0e","ios":"levelo://app?vid=ba48dd32-193c-43a0-80a3-3a2765580f0e"},"vehicle_type_id":"4","last_reported":1721761570,"current_range_meters":0,"station_id":"ce4bh5p2rcd13ifvqe4g","pricing_plan_id":"cebpf4jnsgd1na2vs0mg"},{"bike_id":"c6b01c6e-4199-4dbf-bd8a-505c4e3abbb9","system_id":"levelo_inurba_marseille","lat":43.31447,"lon":5.39844,"is_reserved":false,"is_disabled":false,"rental_uris":{"android":"levelo://app?vid=c6b01c6e-4199-4dbf-bd8a-505c4e3abbb9","ios":"levelo://app?vid=c6b01c6e-4199-4dbf-bd8a-505c4e3abbb9"},"vehicle_type_id":"4","last_reported":1721761570,"current_range_meters":14000,"station_id":"","pricing_plan_id":"cebpf4jnsgd1na2vs0mg"},{"bike_id":"15360cbc-49d5-4424-88d8-7e8b3c2c30cc","system_id":"levelo_inurba_marseille","lat":43.289694,"lon":5.365204,"is_reserved":false,"is_disabled":false,"rental_uris":{"android":"levelo://app?vid=15360cbc-49d5-4424-88d8-7e8b3c2c30cc","ios":"levelo://app?vid=15360cbc-49d5-4424-88d8-7e8b3c2c30cc"},"vehicle_type_id":"4","last_reported":1721761570,"current_range_meters":0,"station_id":"ce4bh692rcd13ifvqea0","pricing_plan_id":"cebpf4jnsgd1na2vs0mg"},{"bike_id":"85162dab-362f-4f5a-a506-fc06d3ef7ab4","system_id":"levelo_inurba_marseille","lat":43.294153,"lon":5.386305,"is_reserved":false,"is_disabled":false,"rental_uris":{"android":"levelo://app?vid=85162dab-362f-4f5a-a506-fc06d3ef7ab4","ios":"levelo://app?vid=85162dab-362f-4f5a-a506-fc06d3ef7ab4"},"vehicle_type_id":"4","last_reported":1721761570,"current_range_meters":0,"station_id":"ce4bh2h2rcd13ifvqdh0","pricing_plan_id":"cebpf4jnsgd1na2vs0mg"},{"bike_id":"eeab0c76-155e-4444-8a30-30e5ecdf2ea6","system_id":"levelo_inurba_marseille","lat":43.294153,"lon":5.386305,"is_reserved":false,"is_disabled":false,"rental_uris":{"android":"levelo://app?vid=eeab0c76-155e-4444-8a30-30e5ecdf2ea6","ios":"levelo://app?vid=eeab0c76-155e-4444-8a30-30e5ecdf2ea6"},"vehicle_type_id":"4","last_reported":1721761570,"current_range_meters":0,"station_id":"ce4bh2h2rcd13ifvqdh0","pricing_plan_id":"cebpf4jnsgd1na2vs0mg"},{"bike_id":"1d9edd28-cafc-45e3-9e86-d223beafdb1b","system_id":"levelo_inurba_marseille","lat":43.294162,"lon":5.386292,"is_reserved":false,"is_disabled":false,"rental_uris":{"android":"levelo://app?vid=1d9edd28-cafc-45e3-9e86-d223beafdb1b","ios":"levelo://app?vid=1d9edd28-cafc-45e3-9e86-d223beafdb1b"},"vehicle_type_id":"4","last_reported":1721761570,"current_range_meters":8400,"station_id":"ce4bh2h2rcd13ifvqdh0","pricing_plan_id":"cebpf4jnsgd1na2vs0mg"},{"bike_id":"e8a740d9-30c3-419c-b44c-ce92db6312a2","system_id":"levelo_inurba_marseille","lat":43.294153,"lon":5.386305,"is_reserved":false,"is_disabled":false,"rental_uris":{"android":"levelo://app?vid=e8a740d9-30c3-419c-b44c-ce92db6312a2","ios":"levelo://app?vid=e8a740d9-30c3-419c-b44c-ce92db6312a2"},"vehicle_type_id":"4","last_reported":1721761570,"current_range_meters":23600,"station_id":"ce4bh2h2rcd13ifvqdh0","pricing_plan_id":"cebpf4jnsgd1na2vs0mg"},{"bike_id":"da78e539-d84e-46df-af49-ed516aff9544","system_id":"levelo_inurba_marseille","lat":43.290327,"lon":5.375711,"is_reserved":false,"is_disabled":false,"rental_uris":{"android":"levelo://app?vid=da78e539-d84e-46df-af49-ed516aff9544","ios":"levelo://app?vid=da78e539-d84e-46df-af49-ed516aff9544"},"vehicle_type_id":"4","last_reported":1721761570,"current_range_meters":8400,"station_id":"ce4bh692rcd13ifvqe90","pricing_plan_id":"cebpf4jnsgd1na2vs0mg"},{"bike_id":"d5e86059-8597-46bb-885d-6c14fbb89c74","system_id":"levelo_inurba_marseille","lat":43.289184,"lon":5.366408,"is_reserved":false,"is_disabled":false,"rental_uris":{"android":"levelo://app?vid=d5e86059-8597-46bb-885d-6c14fbb89c74","ios":"levelo://app?vid=d5e86059-8597-46bb-885d-6c14fbb89c74"},"vehicle_type_id":"4","last_reported":1721761570,"current_range_meters":0,"station_id":"ce4bhap2rcd13ifvqek0","pricing_plan_id":"cebpf4jnsgd1na2vs0mg"},{"bike_id":"656b76aa-d183-4b13-a3dc-57e19f2e5719","system_id":"levelo_inurba_marseille","lat":43.29414,"lon":5.38627,"is_reserved":false,"is_disabled":false,"rental_uris":{"android":"levelo://app?vid=656b76aa-d183-4b13-a3dc-57e19f2e5719","ios":"levelo://app?vid=656b76aa-d183-4b13-a3dc-57e19f2e5719"},"vehicle_type_id":"4","last_reported":1721761570,"current_range_meters":0,"station_id":"ce4bh2h2rcd13ifvqdh0","pricing_plan_id":"cebpf4jnsgd1na2vs0mg"},{"bike_id":"ea26ba75-2765-4107-ac46-9ae157b4f07d","system_id":"levelo_inurba_marseille","lat":43.2894,"lon":5.36639,"is_reserved":false,"is_disabled":false,"rental_uris":{"android":"levelo://app?vid=ea26ba75-2765-4107-ac46-9ae157b4f07d","ios":"levelo://app?vid=ea26ba75-2765-4107-ac46-9ae157b4f07d"},"vehicle_type_id":"4","last_reported":1721761570,"current_range_meters":24800,"station_id":"ce4bhap2rcd13ifvqek0","pricing_plan_id":"cebpf4jnsgd1na2vs0mg"},{"bike_id":"2b17da4d-d143-44e2-99b9-28bb90f453eb","system_id":"levelo_inurba_marseille","lat":43.2894,"lon":5.36637,"is_reserved":false,"is_disabled":false,"rental_uris":{"android":"levelo://app?vid=2b17da4d-d143-44e2-99b9-28bb90f453eb","ios":"levelo://app?vid=2b17da4d-d143-44e2-99b9-28bb90f453eb"},"vehicle_type_id":"4","last_reported":1721761570,"current_range_meters":400,"station_id":"ce4bhap2rcd13ifvqek0","pricing_plan_id":"cebpf4jnsgd1na2vs0mg"},{"bike_id":"a2992d8e-5e1b-4f0c-9ad8-9292c3b6c43e","system_id":"levelo_inurba_marseille","lat":43.28939,"lon":5.36634,"is_reserved":false,"is_disabled":false,"rental_uris":{"android":"levelo://app?vid=a2992d8e-5e1b-4f0c-9ad8-9292c3b6c43e","ios":"levelo://app?vid=a2992d8e-5e1b-4f0c-9ad8-9292c3b6c43e"},"vehicle_type_id":"4","last_reported":1721761570,"current_range_meters":0,"station_id":"ce4bhap2rcd13ifvqek0","pricing_plan_id":"cebpf4jnsgd1na2vs0mg"},{"bike_id":"971f3df4-1bac-4a27-b876-d2fca1875231","system_id":"levelo_inurba_marseille","lat":43.28937,"lon":5.36632,"is_reserved":false,"is_disabled":false,"rental_uris":{"android":"levelo://app?vid=971f3df4-1bac-4a27-b876-d2fca1875231","ios":"levelo://app?vid=971f3df4-1bac-4a27-b876-d2fca1875231"},"vehicle_type_id":"4","last_reported":1721761570,"current_range_meters":0,"station_id":"ce4bhap2rcd13ifvqek0","pricing_plan_id":"cebpf4jnsgd1na2vs0mg"},{"bike_id":"f1c0d2e0-737b-4880-8cdb-e91d7de9f6f2","system_id":"levelo_inurba_marseille","lat":43.289184,"lon":5.366408,"is_reserved":false,"is_disabled":false,"rental_uris":{"android":"levelo://app?vid=f1c0d2e0-737b-4880-8cdb-e91d7de9f6f2","ios":"levelo://app?vid=f1c0d2e0-737b-4880-8cdb-e91d7de9f6f2"},"vehicle_type_id":"4","last_reported":1721761570,"current_range_meters":0,"station_id":"ce4bhap2rcd13ifvqek0","pricing_plan_id":"cebpf4jnsgd1na2vs0mg"},{"bike_id":"089344ff-cc07-4cc5-9a9a-606cc9d81690","system_id":"levelo_inurba_marseille","lat":43.289468,"lon":5.363719,"is_reserved":false,"is_disabled":false,"rental_uris":{"android":"levelo://app?vid=089344ff-cc07-4cc5-9a9a-606cc9d81690","ios":"levelo://app?vid=089344ff-cc07-4cc5-9a9a-606cc9d81690"},"vehicle_type_id":"4","last_reported":1721761570,"current_range_meters":400,"station_id":"ce4bhc92rcd13ifvqetg","pricing_plan_id":"cebpf4jnsgd1na2vs0mg"},{"bike_id":"2f243046-e03f-4f1c-ae4a-3b2c97f2c68c","system_id":"levelo_inurba_marseille","lat":43.289184,"lon":5.366408,"is_reserved":false,"is_disabled":false,"rental_uris":{"android":"levelo://app?vid=2f243046-e03f-4f1c-ae4a-3b2c97f2c68c","ios":"levelo://app?vid=2f243046-e03f-4f1c-ae4a-3b2c97f2c68c"},"vehicle_type_id":"4","last_reported":1721761570,"current_range_meters":8400,"station_id":"ce4bhap2rcd13ifvqek0","pricing_plan_id":"cebpf4jnsgd1na2vs0mg"},{"bike_id":"0ea155b6-3552-4963-ae4b-23d5316a1866","system_id":"levelo_inurba_marseille","lat":43.289184,"lon":5.366408,"is_reserved":false,"is_disabled":false,"rental_uris":{"android":"levelo://app?vid=0ea155b6-3552-4963-ae4b-23d5316a1866","ios":"levelo://app?vid=0ea155b6-3552-4963-ae4b-23d5316a1866"},"vehicle_type_id":"4","last_reported":1721761570,"current_range_meters":14800,"station_id":"ce4bhap2rcd13ifvqek0","pricing_plan_id":"cebpf4jnsgd1na2vs0mg"},{"bike_id":"a65d85a1-8d87-4a6b-a409-b649b2955ad6","system_id":"levelo_inurba_marseille","lat":43.289468,"lon":5.363719,"is_reserved":false,"is_disabled":false,"rental_uris":{"android":"levelo://app?vid=a65d85a1-8d87-4a6b-a409-b649b2955ad6","ios":"levelo://app?vid=a65d85a1-8d87-4a6b-a409-b649b2955ad6"},"vehicle_type_id":"4","last_reported":1721761570,"current_range_meters":10800,"station_id":"ce4bhc92rcd13ifvqetg","pricing_plan_id":"cebpf4jnsgd1na2vs0mg"},{"bike_id":"0ab83599-1be2-4dd9-9731-e600d79cdf9a","system_id":"levelo_inurba_marseille","lat":43.294162,"lon":5.386292,"is_reserved":false,"is_disabled":false,"rental_uris":{"android":"levelo://app?vid=0ab83599-1be2-4dd9-9731-e600d79cdf9a","ios":"levelo://app?vid=0ab83599-1be2-4dd9-9731-e600d79cdf9a"},"vehicle_type_id":"4","last_reported":1721761570,"current_range_meters":800,"station_id":"ce4bh2h2rcd13ifvqdh0","pricing_plan_id":"cebpf4jnsgd1na2vs0mg"},{"bike_id":"ca51303e-e13e-42cc-a741-b5cefcf41282","system_id":"levelo_inurba_marseille","lat":43.292644,"lon":5.384257,"is_reserved":false,"is_disabled":false,"rental_uris":{"android":"levelo://app?vid=ca51303e-e13e-42cc-a741-b5cefcf41282","ios":"levelo://app?vid=ca51303e-e13e-42cc-a741-b5cefcf41282"},"vehicle_type_id":"4","last_reported":1721761570,"current_range_meters":0,"station_id":"ce4bh692rcd13ifvqea0","pricing_plan_id":"cebpf4jnsgd1na2vs0mg"},{"bike_id":"ac999bb6-c4f3-4a9d-a639-bc9946a48cdb","system_id":"levelo_inurba_marseille","lat":43.292642,"lon":5.384254,"is_reserved":false,"is_disabled":false,"rental_uris":{"android":"levelo://app?vid=ac999bb6-c4f3-4a9d-a639-bc9946a48cdb","ios":"levelo://app?vid=ac999bb6-c4f3-4a9d-a639-bc9946a48cdb"},"vehicle_type_id":"4","last_reported":1721761570,"current_range_meters":400,"station_id":"ce4bh692rcd13ifvqea0","pricing_plan_id":"cebpf4jnsgd1na2vs0mg"},{"bike_id":"0c64e3b1-3229-4ebe-ba53-d04b9c5bce89","system_id":"levelo_inurba_marseille","lat":43.292677,"lon":5.384368,"is_reserved":false,"is_disabled":false,"rental_uris":{"android":"levelo://app?vid=0c64e3b1-3229-4ebe-ba53-d04b9c5bce89","ios":"levelo://app?vid=0c64e3b1-3229-4ebe-ba53-d04b9c5bce89"},"vehicle_type_id":"4","last_reported":1721761570,"current_range_meters":0,"station_id":"","pricing_plan_id":"cebpf4jnsgd1na2vs0mg"},{"bike_id":"d9c9d903-36ed-4628-87f4-1b617ebdd437","system_id":"levelo_inurba_marseille","lat":43.292623,"lon":5.384347,"is_reserved":false,"is_disabled":false,"rental_uris":{"android":"levelo://app?vid=d9c9d903-36ed-4628-87f4-1b617ebdd437","ios":"levelo://app?vid=d9c9d903-36ed-4628-87f4-1b617ebdd437"},"vehicle_type_id":"4","last_reported":1721761570,"current_range_meters":0,"station_id":"ce4bh692rcd13ifvqea0","pricing_plan_id":"cebpf4jnsgd1na2vs0mg"},{"bike_id":"78aeef4e-1622-4c64-8892-b00e9a985afa","system_id":"levelo_inurba_marseille","lat":43.292644,"lon":5.384257,"is_reserved":false,"is_disabled":false,"rental_uris":{"android":"levelo://app?vid=78aeef4e-1622-4c64-8892-b00e9a985afa","ios":"levelo://app?vid=78aeef4e-1622-4c64-8892-b00e9a985afa"},"vehicle_type_id":"4","last_reported":1721761570,"current_range_meters":0,"station_id":"ce4bh692rcd13ifvqea0","pricing_plan_id":"cebpf4jnsgd1na2vs0mg"},{"bike_id":"4e97ae4d-988d-4d10-8e61-fd84bb266a70","system_id":"levelo_inurba_marseille","lat":43.330442,"lon":5.389148,"is_reserved":false,"is_disabled":false,"rental_uris":{"android":"levelo://app?vid=4e97ae4d-988d-4d10-8e61-fd84bb266a70","ios":"levelo://app?vid=4e97ae4d-988d-4d10-8e61-fd84bb266a70"},"vehicle_type_id":"4","last_reported":1721761570,"current_range_meters":20800,"station_id":"ce4bhr92rcd13ifvqhrg","pricing_plan_id":"cebpf4jnsgd1na2vs0mg"},{"bike_id":"10c9b733-1532-4e55-816a-c3809301e0eb","system_id":"levelo_inurba_marseille","lat":43.292644,"lon":5.384257,"is_reserved":false,"is_disabled":false,"rental_uris":{"android":"levelo://app?vid=10c9b733-1532-4e55-816a-c3809301e0eb","ios":"levelo://app?vid=10c9b733-1532-4e55-816a-c3809301e0eb"},"vehicle_type_id":"4","last_reported":1721761570,"current_range_meters":17600,"station_id":"ce4bh692rcd13ifvqea0","pricing_plan_id":"cebpf4jnsgd1na2vs0mg"},{"bike_id":"c8e7c05e-fd0b-482f-bb6e-3dc872ccc09d","system_id":"levelo_inurba_marseille","lat":43.292644,"lon":5.384257,"is_reserved":false,"is_disabled":false,"rental_uris":{"android":"levelo://app?vid=c8e7c05e-fd0b-482f-bb6e-3dc872ccc09d","ios":"levelo://app?vid=c8e7c05e-fd0b-482f-bb6e-3dc872ccc09d"},"vehicle_type_id":"4","last_reported":1721761570,"current_range_meters":24000,"station_id":"ce4bh692rcd13ifvqea0","pricing_plan_id":"cebpf4jnsgd1na2vs0mg"},{"bike_id":"2b84d644-850b-4e21-a89a-25d96f12089e","system_id":"levelo_inurba_marseille","lat":43.292644,"lon":5.384257,"is_reserved":false,"is_disabled":false,"rental_uris":{"android":"levelo://app?vid=2b84d644-850b-4e21-a89a-25d96f12089e","ios":"levelo://app?vid=2b84d644-850b-4e21-a89a-25d96f12089e"},"vehicle_type_id":"4","last_reported":1721761570,"current_range_meters":2800,"station_id":"ce4bh692rcd13ifvqea0","pricing_plan_id":"cebpf4jnsgd1na2vs0mg"},{"bike_id":"4a1a634a-4489-4a2c-9f8e-a8670dd2a7bf","system_id":"levelo_inurba_marseille","lat":43.292644,"lon":5.384257,"is_reserved":false,"is_disabled":false,"rental_uris":{"android":"levelo://app?vid=4a1a634a-4489-4a2c-9f8e-a8670dd2a7bf","ios":"levelo://app?vid=4a1a634a-4489-4a2c-9f8e-a8670dd2a7bf"},"vehicle_type_id":"4","last_reported":1721761570,"current_range_meters":8000,"station_id":"ce4bh692rcd13ifvqea0","pricing_plan_id":"cebpf4jnsgd1na2vs0mg"},{"bike_id":"f7d01789-1a90-419c-97d7-214b5227615f","system_id":"levelo_inurba_marseille","lat":43.292644,"lon":5.384257,"is_reserved":false,"is_disabled":false,"rental_uris":{"android":"levelo://app?vid=f7d01789-1a90-419c-97d7-214b5227615f","ios":"levelo://app?vid=f7d01789-1a90-419c-97d7-214b5227615f"},"vehicle_type_id":"4","last_reported":1721761570,"current_range_meters":21200,"station_id":"ce4bh692rcd13ifvqea0","pricing_plan_id":"cebpf4jnsgd1na2vs0mg"},{"bike_id":"d1e12da6-5a37-4362-8fe6-56cd82c0434c","system_id":"levelo_inurba_marseille","lat":43.292644,"lon":5.384257,"is_reserved":false,"is_disabled":false,"rental_uris":{"android":"levelo://app?vid=d1e12da6-5a37-4362-8fe6-56cd82c0434c","ios":"levelo://app?vid=d1e12da6-5a37-4362-8fe6-56cd82c0434c"},"vehicle_type_id":"4","last_reported":1721761570,"current_range_meters":23200,"station_id":"ce4bh692rcd13ifvqea0","pricing_plan_id":"cebpf4jnsgd1na2vs0mg"},{"bike_id":"98ac6658-4be5-45c0-82c5-4344d6525254","system_id":"levelo_inurba_marseille","lat":43.290103,"lon":5.356114,"is_reserved":false,"is_disabled":false,"rental_uris":{"android":"levelo://app?vid=98ac6658-4be5-45c0-82c5-4344d6525254","ios":"levelo://app?vid=98ac6658-4be5-45c0-82c5-4344d6525254"},"vehicle_type_id":"4","last_reported":1721761570,"current_range_meters":24000,"station_id":"ce4bhb92rcd13ifvqen0","pricing_plan_id":"cebpf4jnsgd1na2vs0mg"},{"bike_id":"bbce9c89-50b9-4338-8bc9-edf0ed1824c1","system_id":"levelo_inurba_marseille","lat":43.290104,"lon":5.356111,"is_reserved":false,"is_disabled":false,"rental_uris":{"android":"levelo://app?vid=bbce9c89-50b9-4338-8bc9-edf0ed1824c1","ios":"levelo://app?vid=bbce9c89-50b9-4338-8bc9-edf0ed1824c1"},"vehicle_type_id":"4","last_reported":1721761570,"current_range_meters":0,"station_id":"ce4bhb92rcd13ifvqen0","pricing_plan_id":"cebpf4jnsgd1na2vs0mg"},{"bike_id":"bbcbb08c-cb62-4b5c-b731-5be3155f7e09","system_id":"levelo_inurba_marseille","lat":43.28957,"lon":5.35732,"is_reserved":false,"is_disabled":false,"rental_uris":{"android":"levelo://app?vid=bbcbb08c-cb62-4b5c-b731-5be3155f7e09","ios":"levelo://app?vid=bbcbb08c-cb62-4b5c-b731-5be3155f7e09"},"vehicle_type_id":"4","last_reported":1721761570,"current_range_meters":0,"station_id":"","pricing_plan_id":"cebpf4jnsgd1na2vs0mg"},{"bike_id":"318a29f3-0b37-4b01-a936-7ef517af7a90","system_id":"levelo_inurba_marseille","lat":43.297807,"lon":5.393533,"is_reserved":false,"is_disabled":false,"rental_uris":{"android":"levelo://app?vid=318a29f3-0b37-4b01-a936-7ef517af7a90","ios":"levelo://app?vid=318a29f3-0b37-4b01-a936-7ef517af7a90"},"vehicle_type_id":"4","last_reported":1721761570,"current_range_meters":0,"station_id":"chh1huq6cuj3fo74tm60","pricing_plan_id":"cebpf4jnsgd1na2vs0mg"},{"bike_id":"de2fddd2-630c-4f65-920f-dcce7e12b416","system_id":"levelo_inurba_marseille","lat":43.297815,"lon":5.393548,"is_reserved":false,"is_disabled":false,"rental_uris":{"android":"levelo://app?vid=de2fddd2-630c-4f65-920f-dcce7e12b416","ios":"levelo://app?vid=de2fddd2-630c-4f65-920f-dcce7e12b416"},"vehicle_type_id":"4","last_reported":1721761570,"current_range_meters":22800,"station_id":"chh1huq6cuj3fo74tm60","pricing_plan_id":"cebpf4jnsgd1na2vs0mg"},{"bike_id":"a4c3a0db-43ef-4716-b2d3-2b0b3a174da5","system_id":"levelo_inurba_marseille","lat":43.2886,"lon":5.37138,"is_reserved":false,"is_disabled":false,"rental_uris":{"android":"levelo://app?vid=a4c3a0db-43ef-4716-b2d3-2b0b3a174da5","ios":"levelo://app?vid=a4c3a0db-43ef-4716-b2d3-2b0b3a174da5"},"vehicle_type_id":"4","last_reported":1721761570,"current_range_meters":18000,"station_id":"","pricing_plan_id":"cebpf4jnsgd1na2vs0mg"},{"bike_id":"898ce944-1a01-44e7-b249-56f797c23fb4","system_id":"levelo_inurba_marseille","lat":43.297815,"lon":5.393548,"is_reserved":false,"is_disabled":false,"rental_uris":{"android":"levelo://app?vid=898ce944-1a01-44e7-b249-56f797c23fb4","ios":"levelo://app?vid=898ce944-1a01-44e7-b249-56f797c23fb4"},"vehicle_type_id":"4","last_reported":1721761570,"current_range_meters":20800,"station_id":"chh1huq6cuj3fo74tm60","pricing_plan_id":"cebpf4jnsgd1na2vs0mg"},{"bike_id":"e6e0243f-eac9-424e-b91e-46fc27167f0b","system_id":"levelo_inurba_marseille","lat":43.295359,"lon":5.390397,"is_reserved":false,"is_disabled":false,"rental_uris":{"android":"levelo://app?vid=e6e0243f-eac9-424e-b91e-46fc27167f0b","ios":"levelo://app?vid=e6e0243f-eac9-424e-b91e-46fc27167f0b"},"vehicle_type_id":"4","last_reported":1721761570,"current_range_meters":0,"station_id":"","pricing_plan_id":"cebpf4jnsgd1na2vs0mg"},{"bike_id":"8e4eceda-c0e8-4832-ac7b-a789393ef8ca","system_id":"levelo_inurba_marseille","lat":43.295169,"lon":5.390426,"is_reserved":false,"is_disabled":false,"rental_uris":{"android":"levelo://app?vid=8e4eceda-c0e8-4832-ac7b-a789393ef8ca","ios":"levelo://app?vid=8e4eceda-c0e8-4832-ac7b-a789393ef8ca"},"vehicle_type_id":"4","last_reported":1721761570,"current_range_meters":400,"station_id":"ce4bh3p2rcd13ifvqdp0","pricing_plan_id":"cebpf4jnsgd1na2vs0mg"},{"bike_id":"fc832a90-dbbc-4b8a-8461-11d0b114c9e5","system_id":"levelo_inurba_marseille","lat":43.33043,"lon":5.39005,"is_reserved":false,"is_disabled":false,"rental_uris":{"android":"levelo://app?vid=fc832a90-dbbc-4b8a-8461-11d0b114c9e5","ios":"levelo://app?vid=fc832a90-dbbc-4b8a-8461-11d0b114c9e5"},"vehicle_type_id":"4","last_reported":1721761570,"current_range_meters":9600,"station_id":"ce4bhr92rcd13ifvqhrg","pricing_plan_id":"cebpf4jnsgd1na2vs0mg"},{"bike_id":"ddcf22a3-f534-482f-a971-8f862565c476","system_id":"levelo_inurba_marseille","lat":43.33026,"lon":5.3904,"is_reserved":false,"is_disabled":false,"rental_uris":{"android":"levelo://app?vid=ddcf22a3-f534-482f-a971-8f862565c476","ios":"levelo://app?vid=ddcf22a3-f534-482f-a971-8f862565c476"},"vehicle_type_id":"4","last_reported":1721761570,"current_range_meters":22400,"station_id":"ce4bhr92rcd13ifvqhrg","pricing_plan_id":"cebpf4jnsgd1na2vs0mg"},{"bike_id":"fc5df5eb-fa54-4f37-95a3-86d6ae6f1908","system_id":"levelo_inurba_marseille","lat":43.295273,"lon":5.39051,"is_reserved":false,"is_disabled":false,"rental_uris":{"android":"levelo://app?vid=fc5df5eb-fa54-4f37-95a3-86d6ae6f1908","ios":"levelo://app?vid=fc5df5eb-fa54-4f37-95a3-86d6ae6f1908"},"vehicle_type_id":"4","last_reported":1721761570,"current_range_meters":0,"station_id":"ce4bh3p2rcd13ifvqdp0","pricing_plan_id":"cebpf4jnsgd1na2vs0mg"},{"bike_id":"e5a083c9-7561-4019-8026-de7ef5d9d4af","system_id":"levelo_inurba_marseille","lat":43.28879,"lon":5.35948,"is_reserved":false,"is_disabled":false,"rental_uris":{"android":"levelo://app?vid=e5a083c9-7561-4019-8026-de7ef5d9d4af","ios":"levelo://app?vid=e5a083c9-7561-4019-8026-de7ef5d9d4af"},"vehicle_type_id":"4","last_reported":1721761570,"current_range_meters":6400,"station_id":"","pricing_plan_id":"cebpf4jnsgd1na2vs0mg"},{"bike_id":"0c644f71-7eea-4964-8c0c-9902826499ca","system_id":"levelo_inurba_marseille","lat":43.28856,"lon":5.358371,"is_reserved":false,"is_disabled":false,"rental_uris":{"android":"levelo://app?vid=0c644f71-7eea-4964-8c0c-9902826499ca","ios":"levelo://app?vid=0c644f71-7eea-4964-8c0c-9902826499ca"},"vehicle_type_id":"4","last_reported":1721761570,"current_range_meters":6800,"station_id":"ce4bhb12rcd13ifvqem0","pricing_plan_id":"cebpf4jnsgd1na2vs0mg"},{"bike_id":"b81c39aa-58ed-4133-b2e9-5d9e859820ec","system_id":"levelo_inurba_marseille","lat":43.28856,"lon":5.358371,"is_reserved":false,"is_disabled":false,"rental_uris":{"android":"levelo://app?vid=b81c39aa-58ed-4133-b2e9-5d9e859820ec","ios":"levelo://app?vid=b81c39aa-58ed-4133-b2e9-5d9e859820ec"},"vehicle_type_id":"4","last_reported":1721761570,"current_range_meters":0,"station_id":"ce4bhb12rcd13ifvqem0","pricing_plan_id":"cebpf4jnsgd1na2vs0mg"},{"bike_id":"2548862c-9106-46a3-a6a2-7a3390d04032","system_id":"levelo_inurba_marseille","lat":43.28856,"lon":5.358371,"is_reserved":false,"is_disabled":false,"rental_uris":{"android":"levelo://app?vid=2548862c-9106-46a3-a6a2-7a3390d04032","ios":"levelo://app?vid=2548862c-9106-46a3-a6a2-7a3390d04032"},"vehicle_type_id":"4","last_reported":1721761570,"current_range_meters":9600,"station_id":"ce4bhb12rcd13ifvqem0","pricing_plan_id":"cebpf4jnsgd1na2vs0mg"},{"bike_id":"fbc06b27-7ed7-4d2b-ba1d-32df39fb68b6","system_id":"levelo_inurba_marseille","lat":43.28929,"lon":5.35459,"is_reserved":false,"is_disabled":false,"rental_uris":{"android":"levelo://app?vid=fbc06b27-7ed7-4d2b-ba1d-32df39fb68b6","ios":"levelo://app?vid=fbc06b27-7ed7-4d2b-ba1d-32df39fb68b6"},"vehicle_type_id":"4","last_reported":1721761570,"current_range_meters":0,"station_id":"","pricing_plan_id":"cebpf4jnsgd1na2vs0mg"},{"bike_id":"5721cab1-7116-4ecf-a78b-fb4b39722ed0","system_id":"levelo_inurba_marseille","lat":43.330442,"lon":5.389148,"is_reserved":false,"is_disabled":false,"rental_uris":{"android":"levelo://app?vid=5721cab1-7116-4ecf-a78b-fb4b39722ed0","ios":"levelo://app?vid=5721cab1-7116-4ecf-a78b-fb4b39722ed0"},"vehicle_type_id":"4","last_reported":1721761570,"current_range_meters":21200,"station_id":"ce4bhr92rcd13ifvqhrg","pricing_plan_id":"cebpf4jnsgd1na2vs0mg"},{"bike_id":"ed09d65d-6cec-46f1-8330-836c329ca49b","system_id":"levelo_inurba_marseille","lat":43.312609,"lon":5.401662,"is_reserved":false,"is_disabled":false,"rental_uris":{"android":"levelo://app?vid=ed09d65d-6cec-46f1-8330-836c329ca49b","ios":"levelo://app?vid=ed09d65d-6cec-46f1-8330-836c329ca49b"},"vehicle_type_id":"4","last_reported":1721761570,"current_range_meters":20800,"station_id":"ce4bh092rcd13ifvqd30","pricing_plan_id":"cebpf4jnsgd1na2vs0mg"},{"bike_id":"dd8b5a40-4cbe-45df-8241-3a8001fef1b9","system_id":"levelo_inurba_marseille","lat":43.309371,"lon":5.401449,"is_reserved":false,"is_disabled":false,"rental_uris":{"android":"levelo://app?vid=dd8b5a40-4cbe-45df-8241-3a8001fef1b9","ios":"levelo://app?vid=dd8b5a40-4cbe-45df-8241-3a8001fef1b9"},"vehicle_type_id":"4","last_reported":1721761570,"current_range_meters":1600,"station_id":"ce4bgvp2rcd13ifvqct0","pricing_plan_id":"cebpf4jnsgd1na2vs0mg"},{"bike_id":"0b7f78b7-efd4-4e8d-8ee1-c613d7c920ba","system_id":"levelo_inurba_marseille","lat":43.312609,"lon":5.401662,"is_reserved":false,"is_disabled":false,"rental_uris":{"android":"levelo://app?vid=0b7f78b7-efd4-4e8d-8ee1-c613d7c920ba","ios":"levelo://app?vid=0b7f78b7-efd4-4e8d-8ee1-c613d7c920ba"},"vehicle_type_id":"4","last_reported":1721761570,"current_range_meters":24000,"station_id":"ce4bh092rcd13ifvqd30","pricing_plan_id":"cebpf4jnsgd1na2vs0mg"},{"bike_id":"3b4bc25e-5038-4468-a10e-b66fb0dd09df","system_id":"levelo_inurba_marseille","lat":43.309371,"lon":5.401449,"is_reserved":false,"is_disabled":false,"rental_uris":{"android":"levelo://app?vid=3b4bc25e-5038-4468-a10e-b66fb0dd09df","ios":"levelo://app?vid=3b4bc25e-5038-4468-a10e-b66fb0dd09df"},"vehicle_type_id":"4","last_reported":1721761570,"current_range_meters":23200,"station_id":"ce4bgvp2rcd13ifvqct0","pricing_plan_id":"cebpf4jnsgd1na2vs0mg"},{"bike_id":"49154523-4a23-4bb9-bef0-a68cea78d191","system_id":"levelo_inurba_marseille","lat":43.295169,"lon":5.390426,"is_reserved":false,"is_disabled":false,"rental_uris":{"android":"levelo://app?vid=49154523-4a23-4bb9-bef0-a68cea78d191","ios":"levelo://app?vid=49154523-4a23-4bb9-bef0-a68cea78d191"},"vehicle_type_id":"4","last_reported":1721761570,"current_range_meters":31200,"station_id":"ce4bh3p2rcd13ifvqdp0","pricing_plan_id":"cebpf4jnsgd1na2vs0mg"},{"bike_id":"6bee14db-9f88-4c59-afa5-da083c1ffbe3","system_id":"levelo_inurba_marseille","lat":43.337492,"lon":5.374507,"is_reserved":false,"is_disabled":false,"rental_uris":{"android":"levelo://app?vid=6bee14db-9f88-4c59-afa5-da083c1ffbe3","ios":"levelo://app?vid=6bee14db-9f88-4c59-afa5-da083c1ffbe3"},"vehicle_type_id":"4","last_reported":1721761570,"current_range_meters":20800,"station_id":"","pricing_plan_id":"cebpf4jnsgd1na2vs0mg"},{"bike_id":"72742065-b9f9-425b-adb6-911ad375ccc0","system_id":"levelo_inurba_marseille","lat":43.33757,"lon":5.37435,"is_reserved":false,"is_disabled":false,"rental_uris":{"android":"levelo://app?vid=72742065-b9f9-425b-adb6-911ad375ccc0","ios":"levelo://app?vid=72742065-b9f9-425b-adb6-911ad375ccc0"},"vehicle_type_id":"4","last_reported":1721761570,"current_range_meters":26000,"station_id":"","pricing_plan_id":"cebpf4jnsgd1na2vs0mg"},{"bike_id":"a235c800-3c57-4740-a673-3a0ec502d831","system_id":"levelo_inurba_marseille","lat":43.337618,"lon":5.374335,"is_reserved":false,"is_disabled":false,"rental_uris":{"android":"levelo://app?vid=a235c800-3c57-4740-a673-3a0ec502d831","ios":"levelo://app?vid=a235c800-3c57-4740-a673-3a0ec502d831"},"vehicle_type_id":"4","last_reported":1721761570,"current_range_meters":30400,"station_id":"","pricing_plan_id":"cebpf4jnsgd1na2vs0mg"},{"bike_id":"50b5e63a-0478-4ea4-92a0-2e1091787dc6","system_id":"levelo_inurba_marseille","lat":43.33762,"lon":5.37436,"is_reserved":false,"is_disabled":false,"rental_uris":{"android":"levelo://app?vid=50b5e63a-0478-4ea4-92a0-2e1091787dc6","ios":"levelo://app?vid=50b5e63a-0478-4ea4-92a0-2e1091787dc6"},"vehicle_type_id":"4","last_reported":1721761570,"current_range_meters":400,"station_id":"","pricing_plan_id":"cebpf4jnsgd1na2vs0mg"},{"bike_id":"813878f8-5c09-42fc-a565-9c8b9db28a68","system_id":"levelo_inurba_marseille","lat":43.33766,"lon":5.37423,"is_reserved":false,"is_disabled":false,"rental_uris":{"android":"levelo://app?vid=813878f8-5c09-42fc-a565-9c8b9db28a68","ios":"levelo://app?vid=813878f8-5c09-42fc-a565-9c8b9db28a68"},"vehicle_type_id":"4","last_reported":1721761570,"current_range_meters":26400,"station_id":"","pricing_plan_id":"cebpf4jnsgd1na2vs0mg"},{"bike_id":"580240d2-58f6-47b9-9f91-0be4e2c27e13","system_id":"levelo_inurba_marseille","lat":43.337633,"lon":5.374403,"is_reserved":false,"is_disabled":false,"rental_uris":{"android":"levelo://app?vid=580240d2-58f6-47b9-9f91-0be4e2c27e13","ios":"levelo://app?vid=580240d2-58f6-47b9-9f91-0be4e2c27e13"},"vehicle_type_id":"4","last_reported":1721761570,"current_range_meters":8400,"station_id":"","pricing_plan_id":"cebpf4jnsgd1na2vs0mg"},{"bike_id":"77a66306-ea4c-470f-b576-87cc5ae0b3f4","system_id":"levelo_inurba_marseille","lat":43.33769,"lon":5.37436,"is_reserved":false,"is_disabled":false,"rental_uris":{"android":"levelo://app?vid=77a66306-ea4c-470f-b576-87cc5ae0b3f4","ios":"levelo://app?vid=77a66306-ea4c-470f-b576-87cc5ae0b3f4"},"vehicle_type_id":"4","last_reported":1721761570,"current_range_meters":25600,"station_id":"","pricing_plan_id":"cebpf4jnsgd1na2vs0mg"},{"bike_id":"8c157a47-e5b9-40ea-a6dc-768c78713840","system_id":"levelo_inurba_marseille","lat":43.28727,"lon":5.36078,"is_reserved":false,"is_disabled":false,"rental_uris":{"android":"levelo://app?vid=8c157a47-e5b9-40ea-a6dc-768c78713840","ios":"levelo://app?vid=8c157a47-e5b9-40ea-a6dc-768c78713840"},"vehicle_type_id":"4","last_reported":1721761570,"current_range_meters":24400,"station_id":"cki0cbj6b192h4jlfktg","pricing_plan_id":"cebpf4jnsgd1na2vs0mg"},{"bike_id":"7193bb8a-767c-4ab7-906e-b513243df5f2","system_id":"levelo_inurba_marseille","lat":43.286961,"lon":5.373785,"is_reserved":false,"is_disabled":false,"rental_uris":{"android":"levelo://app?vid=7193bb8a-767c-4ab7-906e-b513243df5f2","ios":"levelo://app?vid=7193bb8a-767c-4ab7-906e-b513243df5f2"},"vehicle_type_id":"4","last_reported":1721761570,"current_range_meters":15200,"station_id":"ce4bh3p2rcd13ifvqdq0","pricing_plan_id":"cebpf4jnsgd1na2vs0mg"},{"bike_id":"37b83596-62db-4ab3-91a9-e9dff5523542","system_id":"levelo_inurba_marseille","lat":43.286961,"lon":5.373785,"is_reserved":false,"is_disabled":false,"rental_uris":{"android":"levelo://app?vid=37b83596-62db-4ab3-91a9-e9dff5523542","ios":"levelo://app?vid=37b83596-62db-4ab3-91a9-e9dff5523542"},"vehicle_type_id":"4","last_reported":1721761570,"current_range_meters":15600,"station_id":"ce4bh3p2rcd13ifvqdq0","pricing_plan_id":"cebpf4jnsgd1na2vs0mg"},{"bike_id":"54780610-e89d-4117-9a2d-1279f4e3988a","system_id":"levelo_inurba_marseille","lat":43.286961,"lon":5.373785,"is_reserved":false,"is_disabled":false,"rental_uris":{"android":"levelo://app?vid=54780610-e89d-4117-9a2d-1279f4e3988a","ios":"levelo://app?vid=54780610-e89d-4117-9a2d-1279f4e3988a"},"vehicle_type_id":"4","last_reported":1721761570,"current_range_meters":16400,"station_id":"ce4bh3p2rcd13ifvqdq0","pricing_plan_id":"cebpf4jnsgd1na2vs0mg"},{"bike_id":"0607ab16-1015-4ef9-92b1-644cfe494730","system_id":"levelo_inurba_marseille","lat":43.286961,"lon":5.373785,"is_reserved":false,"is_disabled":false,"rental_uris":{"android":"levelo://app?vid=0607ab16-1015-4ef9-92b1-644cfe494730","ios":"levelo://app?vid=0607ab16-1015-4ef9-92b1-644cfe494730"},"vehicle_type_id":"4","last_reported":1721761570,"current_range_meters":14000,"station_id":"ce4bh3p2rcd13ifvqdq0","pricing_plan_id":"cebpf4jnsgd1na2vs0mg"},{"bike_id":"9b513896-4b75-4713-b1da-b8a2b689a2b5","system_id":"levelo_inurba_marseille","lat":43.286591,"lon":5.363346,"is_reserved":false,"is_disabled":false,"rental_uris":{"android":"levelo://app?vid=9b513896-4b75-4713-b1da-b8a2b689a2b5","ios":"levelo://app?vid=9b513896-4b75-4713-b1da-b8a2b689a2b5"},"vehicle_type_id":"4","last_reported":1721761570,"current_range_meters":3600,"station_id":"ce4bhah2rcd13ifvqej0","pricing_plan_id":"cebpf4jnsgd1na2vs0mg"},{"bike_id":"a537c542-7f88-4b78-a9d6-83f2080d9c45","system_id":"levelo_inurba_marseille","lat":43.29878,"lon":5.39741,"is_reserved":false,"is_disabled":false,"rental_uris":{"android":"levelo://app?vid=a537c542-7f88-4b78-a9d6-83f2080d9c45","ios":"levelo://app?vid=a537c542-7f88-4b78-a9d6-83f2080d9c45"},"vehicle_type_id":"4","last_reported":1721761570,"current_range_meters":31200,"station_id":"ce4bh0h2rcd13ifvqd50","pricing_plan_id":"cebpf4jnsgd1na2vs0mg"},{"bike_id":"22034452-b4c2-48f9-a395-5e604b19f2e6","system_id":"levelo_inurba_marseille","lat":43.286961,"lon":5.373785,"is_reserved":false,"is_disabled":false,"rental_uris":{"android":"levelo://app?vid=22034452-b4c2-48f9-a395-5e604b19f2e6","ios":"levelo://app?vid=22034452-b4c2-48f9-a395-5e604b19f2e6"},"vehicle_type_id":"4","last_reported":1721761570,"current_range_meters":5600,"station_id":"ce4bh3p2rcd13ifvqdq0","pricing_plan_id":"cebpf4jnsgd1na2vs0mg"},{"bike_id":"65e38a40-eb6b-4ed9-9ef3-73eace5184c4","system_id":"levelo_inurba_marseille","lat":43.298681,"lon":5.397225,"is_reserved":false,"is_disabled":false,"rental_uris":{"android":"levelo://app?vid=65e38a40-eb6b-4ed9-9ef3-73eace5184c4","ios":"levelo://app?vid=65e38a40-eb6b-4ed9-9ef3-73eace5184c4"},"vehicle_type_id":"4","last_reported":1721761570,"current_range_meters":30000,"station_id":"ce4bh0h2rcd13ifvqd50","pricing_plan_id":"cebpf4jnsgd1na2vs0mg"},{"bike_id":"9280cfe8-9884-4fd8-9ac6-0e9097a6c7fb","system_id":"levelo_inurba_marseille","lat":43.286961,"lon":5.373785,"is_reserved":false,"is_disabled":false,"rental_uris":{"android":"levelo://app?vid=9280cfe8-9884-4fd8-9ac6-0e9097a6c7fb","ios":"levelo://app?vid=9280cfe8-9884-4fd8-9ac6-0e9097a6c7fb"},"vehicle_type_id":"4","last_reported":1721761570,"current_range_meters":15200,"station_id":"ce4bh3p2rcd13ifvqdq0","pricing_plan_id":"cebpf4jnsgd1na2vs0mg"},{"bike_id":"417b0c60-eadd-49c7-acf5-83c62484cf38","system_id":"levelo_inurba_marseille","lat":43.30239,"lon":5.40041,"is_reserved":false,"is_disabled":false,"rental_uris":{"android":"levelo://app?vid=417b0c60-eadd-49c7-acf5-83c62484cf38","ios":"levelo://app?vid=417b0c60-eadd-49c7-acf5-83c62484cf38"},"vehicle_type_id":"4","last_reported":1721761570,"current_range_meters":4000,"station_id":"ce4bgvh2rcd13ifvqcs0","pricing_plan_id":"cebpf4jnsgd1na2vs0mg"},{"bike_id":"434dd12d-9ea0-4d03-8f29-a537d462a3b8","system_id":"levelo_inurba_marseille","lat":43.302759,"lon":5.400793,"is_reserved":false,"is_disabled":false,"rental_uris":{"android":"levelo://app?vid=434dd12d-9ea0-4d03-8f29-a537d462a3b8","ios":"levelo://app?vid=434dd12d-9ea0-4d03-8f29-a537d462a3b8"},"vehicle_type_id":"4","last_reported":1721761570,"current_range_meters":0,"station_id":"ce4bgvh2rcd13ifvqcs0","pricing_plan_id":"cebpf4jnsgd1na2vs0mg"},{"bike_id":"b3988e00-d964-4fc1-aa7a-c682f454ab30","system_id":"levelo_inurba_marseille","lat":43.302448,"lon":5.400553,"is_reserved":false,"is_disabled":false,"rental_uris":{"android":"levelo://app?vid=b3988e00-d964-4fc1-aa7a-c682f454ab30","ios":"levelo://app?vid=b3988e00-d964-4fc1-aa7a-c682f454ab30"},"vehicle_type_id":"4","last_reported":1721761570,"current_range_meters":0,"station_id":"ce4bgvh2rcd13ifvqcs0","pricing_plan_id":"cebpf4jnsgd1na2vs0mg"},{"bike_id":"17361f12-27fa-45a4-955a-fa38e38238fb","system_id":"levelo_inurba_marseille","lat":43.29029,"lon":5.38646,"is_reserved":false,"is_disabled":false,"rental_uris":{"android":"levelo://app?vid=17361f12-27fa-45a4-955a-fa38e38238fb","ios":"levelo://app?vid=17361f12-27fa-45a4-955a-fa38e38238fb"},"vehicle_type_id":"4","last_reported":1721761570,"current_range_meters":6000,"station_id":"ce4bh4p2rcd13ifvqe0g","pricing_plan_id":"cebpf4jnsgd1na2vs0mg"},{"bike_id":"12c4a386-967c-4969-95ea-91997432b83d","system_id":"levelo_inurba_marseille","lat":43.29025,"lon":5.38638,"is_reserved":false,"is_disabled":false,"rental_uris":{"android":"levelo://app?vid=12c4a386-967c-4969-95ea-91997432b83d","ios":"levelo://app?vid=12c4a386-967c-4969-95ea-91997432b83d"},"vehicle_type_id":"4","last_reported":1721761570,"current_range_meters":0,"station_id":"ce4bh4p2rcd13ifvqe0g","pricing_plan_id":"cebpf4jnsgd1na2vs0mg"},{"bike_id":"8926c2c3-270c-47de-93f6-c4ac48a407e1","system_id":"levelo_inurba_marseille","lat":43.29028,"lon":5.3865,"is_reserved":false,"is_disabled":false,"rental_uris":{"android":"levelo://app?vid=8926c2c3-270c-47de-93f6-c4ac48a407e1","ios":"levelo://app?vid=8926c2c3-270c-47de-93f6-c4ac48a407e1"},"vehicle_type_id":"4","last_reported":1721761570,"current_range_meters":2800,"station_id":"ce4bh4p2rcd13ifvqe0g","pricing_plan_id":"cebpf4jnsgd1na2vs0mg"},{"bike_id":"623567c9-6f38-4920-b7f9-b43a593731a8","system_id":"levelo_inurba_marseille","lat":43.29026,"lon":5.38646,"is_reserved":false,"is_disabled":false,"rental_uris":{"android":"levelo://app?vid=623567c9-6f38-4920-b7f9-b43a593731a8","ios":"levelo://app?vid=623567c9-6f38-4920-b7f9-b43a593731a8"},"vehicle_type_id":"4","last_reported":1721761570,"current_range_meters":4800,"station_id":"ce4bh4p2rcd13ifvqe0g","pricing_plan_id":"cebpf4jnsgd1na2vs0mg"},{"bike_id":"dd3f39c9-3bb8-40a9-b303-395ea5190ea0","system_id":"levelo_inurba_marseille","lat":43.302759,"lon":5.400793,"is_reserved":false,"is_disabled":false,"rental_uris":{"android":"levelo://app?vid=dd3f39c9-3bb8-40a9-b303-395ea5190ea0","ios":"levelo://app?vid=dd3f39c9-3bb8-40a9-b303-395ea5190ea0"},"vehicle_type_id":"4","last_reported":1721761570,"current_range_meters":0,"station_id":"ce4bgvh2rcd13ifvqcs0","pricing_plan_id":"cebpf4jnsgd1na2vs0mg"},{"bike_id":"48c1b898-246e-47e2-8390-f63755f2871e","system_id":"levelo_inurba_marseille","lat":43.288026,"lon":5.352561,"is_reserved":false,"is_disabled":false,"rental_uris":{"android":"levelo://app?vid=48c1b898-246e-47e2-8390-f63755f2871e","ios":"levelo://app?vid=48c1b898-246e-47e2-8390-f63755f2871e"},"vehicle_type_id":"4","last_reported":1721761570,"current_range_meters":18800,"station_id":"","pricing_plan_id":"cebpf4jnsgd1na2vs0mg"},{"bike_id":"7de7ccee-4500-4aa6-ab06-71bb1aec24a6","system_id":"levelo_inurba_marseille","lat":43.287184,"lon":5.37937,"is_reserved":false,"is_disabled":false,"rental_uris":{"android":"levelo://app?vid=7de7ccee-4500-4aa6-ab06-71bb1aec24a6","ios":"levelo://app?vid=7de7ccee-4500-4aa6-ab06-71bb1aec24a6"},"vehicle_type_id":"4","last_reported":1721761570,"current_range_meters":2800,"station_id":"ce4bh9p2rcd13ifvqec0","pricing_plan_id":"cebpf4jnsgd1na2vs0mg"},{"bike_id":"799612a0-4c5b-4f9e-9eee-5dc6693048c1","system_id":"levelo_inurba_marseille","lat":43.287184,"lon":5.37937,"is_reserved":false,"is_disabled":false,"rental_uris":{"android":"levelo://app?vid=799612a0-4c5b-4f9e-9eee-5dc6693048c1","ios":"levelo://app?vid=799612a0-4c5b-4f9e-9eee-5dc6693048c1"},"vehicle_type_id":"4","last_reported":1721761570,"current_range_meters":4800,"station_id":"ce4bh9p2rcd13ifvqec0","pricing_plan_id":"cebpf4jnsgd1na2vs0mg"},{"bike_id":"83ff17bd-3eb8-401a-b2c0-50f9c231ebe8","system_id":"levelo_inurba_marseille","lat":43.28717,"lon":5.37929,"is_reserved":false,"is_disabled":false,"rental_uris":{"android":"levelo://app?vid=83ff17bd-3eb8-401a-b2c0-50f9c231ebe8","ios":"levelo://app?vid=83ff17bd-3eb8-401a-b2c0-50f9c231ebe8"},"vehicle_type_id":"4","last_reported":1721761570,"current_range_meters":17200,"station_id":"ce4bh9p2rcd13ifvqec0","pricing_plan_id":"cebpf4jnsgd1na2vs0mg"},{"bike_id":"560efa7d-572f-40f2-8582-7a65c883c26c","system_id":"levelo_inurba_marseille","lat":43.28708,"lon":5.37941,"is_reserved":false,"is_disabled":false,"rental_uris":{"android":"levelo://app?vid=560efa7d-572f-40f2-8582-7a65c883c26c","ios":"levelo://app?vid=560efa7d-572f-40f2-8582-7a65c883c26c"},"vehicle_type_id":"4","last_reported":1721761570,"current_range_meters":0,"station_id":"ce4bh9p2rcd13ifvqec0","pricing_plan_id":"cebpf4jnsgd1na2vs0mg"},{"bike_id":"77499062-0f29-4874-a01a-a8cf2903f8cc","system_id":"levelo_inurba_marseille","lat":43.302784,"lon":5.377158,"is_reserved":false,"is_disabled":false,"rental_uris":{"android":"levelo://app?vid=77499062-0f29-4874-a01a-a8cf2903f8cc","ios":"levelo://app?vid=77499062-0f29-4874-a01a-a8cf2903f8cc"},"vehicle_type_id":"4","last_reported":1721761570,"current_range_meters":21600,"station_id":"ce4bguh2rcd13ifvqcj0","pricing_plan_id":"cebpf4jnsgd1na2vs0mg"},{"bike_id":"5e43c641-7775-40e0-a1e7-7d1c0b036c10","system_id":"levelo_inurba_marseille","lat":43.316828,"lon":5.404723,"is_reserved":false,"is_disabled":false,"rental_uris":{"android":"levelo://app?vid=5e43c641-7775-40e0-a1e7-7d1c0b036c10","ios":"levelo://app?vid=5e43c641-7775-40e0-a1e7-7d1c0b036c10"},"vehicle_type_id":"4","last_reported":1721761570,"current_range_meters":21200,"station_id":"ce4bh012rcd13ifvqd00","pricing_plan_id":"cebpf4jnsgd1na2vs0mg"},{"bike_id":"f1623b76-48dd-411f-996c-072a08b58bc8","system_id":"levelo_inurba_marseille","lat":43.316821,"lon":5.404737,"is_reserved":false,"is_disabled":false,"rental_uris":{"android":"levelo://app?vid=f1623b76-48dd-411f-996c-072a08b58bc8","ios":"levelo://app?vid=f1623b76-48dd-411f-996c-072a08b58bc8"},"vehicle_type_id":"4","last_reported":1721761570,"current_range_meters":4000,"station_id":"ce4bh012rcd13ifvqd00","pricing_plan_id":"cebpf4jnsgd1na2vs0mg"},{"bike_id":"0e80fa22-0889-4a44-b5a8-9d71d5480cfc","system_id":"levelo_inurba_marseille","lat":43.291994,"lon":5.392907,"is_reserved":false,"is_disabled":false,"rental_uris":{"android":"levelo://app?vid=0e80fa22-0889-4a44-b5a8-9d71d5480cfc","ios":"levelo://app?vid=0e80fa22-0889-4a44-b5a8-9d71d5480cfc"},"vehicle_type_id":"4","last_reported":1721761570,"current_range_meters":24400,"station_id":"ce4bh192rcd13ifvqdd0","pricing_plan_id":"cebpf4jnsgd1na2vs0mg"},{"bike_id":"8d4108ad-1036-40b2-a825-2f88ae8d4b19","system_id":"levelo_inurba_marseille","lat":43.291994,"lon":5.392907,"is_reserved":false,"is_disabled":false,"rental_uris":{"android":"levelo://app?vid=8d4108ad-1036-40b2-a825-2f88ae8d4b19","ios":"levelo://app?vid=8d4108ad-1036-40b2-a825-2f88ae8d4b19"},"vehicle_type_id":"4","last_reported":1721761570,"current_range_meters":17600,"station_id":"ce4bh192rcd13ifvqdd0","pricing_plan_id":"cebpf4jnsgd1na2vs0mg"},{"bike_id":"dee0b160-aa24-4793-a0d9-2261a261ead4","system_id":"levelo_inurba_marseille","lat":43.29196,"lon":5.393237,"is_reserved":false,"is_disabled":false,"rental_uris":{"android":"levelo://app?vid=dee0b160-aa24-4793-a0d9-2261a261ead4","ios":"levelo://app?vid=dee0b160-aa24-4793-a0d9-2261a261ead4"},"vehicle_type_id":"4","last_reported":1721761570,"current_range_meters":12000,"station_id":"ce4bh192rcd13ifvqdd0","pricing_plan_id":"cebpf4jnsgd1na2vs0mg"},{"bike_id":"14eb9c9f-ab98-4914-887a-8c2a75c8943c","system_id":"levelo_inurba_marseille","lat":43.28916,"lon":5.3887,"is_reserved":false,"is_disabled":false,"rental_uris":{"android":"levelo://app?vid=14eb9c9f-ab98-4914-887a-8c2a75c8943c","ios":"levelo://app?vid=14eb9c9f-ab98-4914-887a-8c2a75c8943c"},"vehicle_type_id":"4","last_reported":1721761570,"current_range_meters":8800,"station_id":"","pricing_plan_id":"cebpf4jnsgd1na2vs0mg"},{"bike_id":"64e52c37-81ef-4d8b-becc-27c50f3b1716","system_id":"levelo_inurba_marseille","lat":43.28467,"lon":5.35881,"is_reserved":false,"is_disabled":false,"rental_uris":{"android":"levelo://app?vid=64e52c37-81ef-4d8b-becc-27c50f3b1716","ios":"levelo://app?vid=64e52c37-81ef-4d8b-becc-27c50f3b1716"},"vehicle_type_id":"4","last_reported":1721761570,"current_range_meters":0,"station_id":"ce4bhah2rcd13ifvqei0","pricing_plan_id":"cebpf4jnsgd1na2vs0mg"},{"bike_id":"cecb2861-0d2c-48ff-9d0b-23e128c6479a","system_id":"levelo_inurba_marseille","lat":43.284538,"lon":5.358657,"is_reserved":false,"is_disabled":false,"rental_uris":{"android":"levelo://app?vid=cecb2861-0d2c-48ff-9d0b-23e128c6479a","ios":"levelo://app?vid=cecb2861-0d2c-48ff-9d0b-23e128c6479a"},"vehicle_type_id":"4","last_reported":1721761570,"current_range_meters":7200,"station_id":"ce4bhah2rcd13ifvqei0","pricing_plan_id":"cebpf4jnsgd1na2vs0mg"},{"bike_id":"d58349c1-1b0c-4af9-81b8-6606d6cd3171","system_id":"levelo_inurba_marseille","lat":43.294314,"lon":5.397498,"is_reserved":false,"is_disabled":false,"rental_uris":{"android":"levelo://app?vid=d58349c1-1b0c-4af9-81b8-6606d6cd3171","ios":"levelo://app?vid=d58349c1-1b0c-4af9-81b8-6606d6cd3171"},"vehicle_type_id":"4","last_reported":1721761570,"current_range_meters":4800,"station_id":"ce4bh3h2rcd13ifvqdo0","pricing_plan_id":"cebpf4jnsgd1na2vs0mg"},{"bike_id":"977903f1-1077-4774-a1f9-3349a2cc244f","system_id":"levelo_inurba_marseille","lat":43.294314,"lon":5.397498,"is_reserved":false,"is_disabled":false,"rental_uris":{"android":"levelo://app?vid=977903f1-1077-4774-a1f9-3349a2cc244f","ios":"levelo://app?vid=977903f1-1077-4774-a1f9-3349a2cc244f"},"vehicle_type_id":"4","last_reported":1721761570,"current_range_meters":0,"station_id":"ce4bh3h2rcd13ifvqdo0","pricing_plan_id":"cebpf4jnsgd1na2vs0mg"},{"bike_id":"824203e4-b4d0-40bd-bb9e-9fc65b2be6f7","system_id":"levelo_inurba_marseille","lat":43.29441,"lon":5.39746,"is_reserved":false,"is_disabled":false,"rental_uris":{"android":"levelo://app?vid=824203e4-b4d0-40bd-bb9e-9fc65b2be6f7","ios":"levelo://app?vid=824203e4-b4d0-40bd-bb9e-9fc65b2be6f7"},"vehicle_type_id":"4","last_reported":1721761570,"current_range_meters":0,"station_id":"ce4bh3h2rcd13ifvqdo0","pricing_plan_id":"cebpf4jnsgd1na2vs0mg"},{"bike_id":"fe3ca5c8-bf5e-4120-8c18-450c09ba8a42","system_id":"levelo_inurba_marseille","lat":43.294314,"lon":5.397498,"is_reserved":false,"is_disabled":false,"rental_uris":{"android":"levelo://app?vid=fe3ca5c8-bf5e-4120-8c18-450c09ba8a42","ios":"levelo://app?vid=fe3ca5c8-bf5e-4120-8c18-450c09ba8a42"},"vehicle_type_id":"4","last_reported":1721761570,"current_range_meters":3200,"station_id":"ce4bh3h2rcd13ifvqdo0","pricing_plan_id":"cebpf4jnsgd1na2vs0mg"},{"bike_id":"ff6f663e-c9fb-4147-a211-b0301d1aee0a","system_id":"levelo_inurba_marseille","lat":43.294314,"lon":5.397498,"is_reserved":false,"is_disabled":false,"rental_uris":{"android":"levelo://app?vid=ff6f663e-c9fb-4147-a211-b0301d1aee0a","ios":"levelo://app?vid=ff6f663e-c9fb-4147-a211-b0301d1aee0a"},"vehicle_type_id":"4","last_reported":1721761570,"current_range_meters":4000,"station_id":"ce4bh3h2rcd13ifvqdo0","pricing_plan_id":"cebpf4jnsgd1na2vs0mg"},{"bike_id":"50871eb0-e728-493c-8d00-282dec8477d9","system_id":"levelo_inurba_marseille","lat":43.2862,"lon":5.35103,"is_reserved":false,"is_disabled":false,"rental_uris":{"android":"levelo://app?vid=50871eb0-e728-493c-8d00-282dec8477d9","ios":"levelo://app?vid=50871eb0-e728-493c-8d00-282dec8477d9"},"vehicle_type_id":"4","last_reported":1721761570,"current_range_meters":0,"station_id":"ce4bhch2rcd13ifvqeug","pricing_plan_id":"cebpf4jnsgd1na2vs0mg"},{"bike_id":"97a9e08a-3aa4-46d2-a62e-73d5b472368e","system_id":"levelo_inurba_marseille","lat":43.2862,"lon":5.35099,"is_reserved":false,"is_disabled":false,"rental_uris":{"android":"levelo://app?vid=97a9e08a-3aa4-46d2-a62e-73d5b472368e","ios":"levelo://app?vid=97a9e08a-3aa4-46d2-a62e-73d5b472368e"},"vehicle_type_id":"4","last_reported":1721761570,"current_range_meters":0,"station_id":"ce4bhch2rcd13ifvqeug","pricing_plan_id":"cebpf4jnsgd1na2vs0mg"},{"bike_id":"23488e02-7510-4b38-95cb-baf94d5e4282","system_id":"levelo_inurba_marseille","lat":43.28616,"lon":5.35107,"is_reserved":false,"is_disabled":false,"rental_uris":{"android":"levelo://app?vid=23488e02-7510-4b38-95cb-baf94d5e4282","ios":"levelo://app?vid=23488e02-7510-4b38-95cb-baf94d5e4282"},"vehicle_type_id":"4","last_reported":1721761570,"current_range_meters":0,"station_id":"ce4bhch2rcd13ifvqeug","pricing_plan_id":"cebpf4jnsgd1na2vs0mg"},{"bike_id":"9fb26fce-9ad9-43dd-b2fa-d57c42fc1414","system_id":"levelo_inurba_marseille","lat":43.285856,"lon":5.350771,"is_reserved":false,"is_disabled":false,"rental_uris":{"android":"levelo://app?vid=9fb26fce-9ad9-43dd-b2fa-d57c42fc1414","ios":"levelo://app?vid=9fb26fce-9ad9-43dd-b2fa-d57c42fc1414"},"vehicle_type_id":"4","last_reported":1721761570,"current_range_meters":0,"station_id":"ce4bhch2rcd13ifvqeug","pricing_plan_id":"cebpf4jnsgd1na2vs0mg"},{"bike_id":"c92d08c7-07df-499a-b003-322355a86089","system_id":"levelo_inurba_marseille","lat":43.285848,"lon":5.350787,"is_reserved":false,"is_disabled":false,"rental_uris":{"android":"levelo://app?vid=c92d08c7-07df-499a-b003-322355a86089","ios":"levelo://app?vid=c92d08c7-07df-499a-b003-322355a86089"},"vehicle_type_id":"4","last_reported":1721761570,"current_range_meters":0,"station_id":"ce4bhch2rcd13ifvqeug","pricing_plan_id":"cebpf4jnsgd1na2vs0mg"},{"bike_id":"ec573488-f067-4f35-aad5-d6f3e1346714","system_id":"levelo_inurba_marseille","lat":43.285856,"lon":5.350771,"is_reserved":false,"is_disabled":false,"rental_uris":{"android":"levelo://app?vid=ec573488-f067-4f35-aad5-d6f3e1346714","ios":"levelo://app?vid=ec573488-f067-4f35-aad5-d6f3e1346714"},"vehicle_type_id":"4","last_reported":1721761570,"current_range_meters":14000,"station_id":"ce4bhch2rcd13ifvqeug","pricing_plan_id":"cebpf4jnsgd1na2vs0mg"},{"bike_id":"1d15e3fa-d417-41e9-8edf-a23b28f2de88","system_id":"levelo_inurba_marseille","lat":43.283998,"lon":5.375062,"is_reserved":false,"is_disabled":false,"rental_uris":{"android":"levelo://app?vid=1d15e3fa-d417-41e9-8edf-a23b28f2de88","ios":"levelo://app?vid=1d15e3fa-d417-41e9-8edf-a23b28f2de88"},"vehicle_type_id":"4","last_reported":1721761570,"current_range_meters":7200,"station_id":"ce4bh412rcd13ifvqds0","pricing_plan_id":"cebpf4jnsgd1na2vs0mg"},{"bike_id":"4b1c11bd-cfb2-4618-a832-552d24209cbf","system_id":"levelo_inurba_marseille","lat":43.28412,"lon":5.37501,"is_reserved":false,"is_disabled":false,"rental_uris":{"android":"levelo://app?vid=4b1c11bd-cfb2-4618-a832-552d24209cbf","ios":"levelo://app?vid=4b1c11bd-cfb2-4618-a832-552d24209cbf"},"vehicle_type_id":"4","last_reported":1721761570,"current_range_meters":0,"station_id":"ce4bh412rcd13ifvqds0","pricing_plan_id":"cebpf4jnsgd1na2vs0mg"},{"bike_id":"8e15a246-fbb3-4edd-9abf-5e3ff1d327fb","system_id":"levelo_inurba_marseille","lat":43.283998,"lon":5.375062,"is_reserved":false,"is_disabled":false,"rental_uris":{"android":"levelo://app?vid=8e15a246-fbb3-4edd-9abf-5e3ff1d327fb","ios":"levelo://app?vid=8e15a246-fbb3-4edd-9abf-5e3ff1d327fb"},"vehicle_type_id":"4","last_reported":1721761570,"current_range_meters":5200,"station_id":"ce4bh412rcd13ifvqds0","pricing_plan_id":"cebpf4jnsgd1na2vs0mg"},{"bike_id":"dfe49a4e-110e-4f86-9510-a426bc1bdac9","system_id":"levelo_inurba_marseille","lat":43.295713,"lon":5.399639,"is_reserved":false,"is_disabled":false,"rental_uris":{"android":"levelo://app?vid=dfe49a4e-110e-4f86-9510-a426bc1bdac9","ios":"levelo://app?vid=dfe49a4e-110e-4f86-9510-a426bc1bdac9"},"vehicle_type_id":"4","last_reported":1721761570,"current_range_meters":800,"station_id":"ce4bh312rcd13ifvqdj0","pricing_plan_id":"cebpf4jnsgd1na2vs0mg"},{"bike_id":"b151410b-29e4-432d-9392-d2a609cf7839","system_id":"levelo_inurba_marseille","lat":43.2957,"lon":5.39967,"is_reserved":false,"is_disabled":false,"rental_uris":{"android":"levelo://app?vid=b151410b-29e4-432d-9392-d2a609cf7839","ios":"levelo://app?vid=b151410b-29e4-432d-9392-d2a609cf7839"},"vehicle_type_id":"4","last_reported":1721761570,"current_range_meters":0,"station_id":"ce4bh312rcd13ifvqdj0","pricing_plan_id":"cebpf4jnsgd1na2vs0mg"},{"bike_id":"3c2183c7-633a-48ca-9661-17d91622395d","system_id":"levelo_inurba_marseille","lat":43.284793,"lon":5.384119,"is_reserved":false,"is_disabled":false,"rental_uris":{"android":"levelo://app?vid=3c2183c7-633a-48ca-9661-17d91622395d","ios":"levelo://app?vid=3c2183c7-633a-48ca-9661-17d91622395d"},