{"last_updated":1766168234,"ttl":60,"version":"2.2","data":{"bikes":[{"bike_id":"00fd2dcb-6faf-4c7a-8c99-525909084655","system_id":"levelo_inurba_marseille","lat":43.28162,"lon":5.42652,"is_reserved":false,"is_disabled":true,"rental_uris":{"android":"levelo://app?vid=00fd2dcb-6faf-4c7a-8c99-525909084655","ios":"levelo://app?vid=00fd2dcb-6faf-4c7a-8c99-525909084655"},"vehicle_type_id":"4","last_reported":1766168235,"current_range_meters":2800,"station_id":"ce4bhnh2rcd13ifvqgug","pricing_plan_id":"cebpf4jnsgd1na2vs0mg"},{"bike_id":"d88f83fc-7a24-4804-9301-839b1ae399e9","system_id":"levelo_inurba_marseille","lat":43.29521,"lon":5.37836,"is_reserved":false,"is_disabled":false,"rental_uris":{"android":"levelo://app?vid=d88f83fc-7a24-4804-9301-839b1ae399e9","ios":"levelo://app?vid=d88f83fc-7a24-4804-9301-839b1ae399e9"},"vehicle_type_id":"4","last_reported":1766168235,"current_range_meters":2800,"station_id":"","pricing_plan_id":"cebpf4jnsgd1na2vs0mg"},{"bike_id":"116278f1-c1f6-4978-beb9-3e199a9963ca","system_id":"levelo_inurba_marseille","lat":43.28536,"lon":5.44095,"is_reserved":false,"is_disabled":false,"rental_uris":{"android":"levelo://app?vid=116278f1-c1f6-4978-beb9-3e199a9963ca","ios":"levelo://app?vid=116278f1-c1f6-4978-beb9-3e199a9963ca"},"vehicle_type_id":"4","last_reported":1766168235,"current_range_meters":2800,"station_id":"st_d3j3df2ikq2c7380ej80","pricing_plan_id":"cebpf4jnsgd1na2vs0mg"},{"bike_id":"7037db1b-fcf5-4bd3-a8d7-8ca08f791009","system_id":"levelo_inurba_marseille","lat":43.28107,"lon":5.3784,"is_reserved":false,"is_disabled":false,"rental_uris":{"android":"levelo://app?vid=7037db1b-fcf5-4bd3-a8d7-8ca08f791009","ios":"levelo://app?vid=7037db1b-fcf5-4bd3-a8d7-8ca08f791009"},"vehicle_type_id":"4","last_reported":1766168235,"current_range_meters":2800,"station_id":"ce4bha12rcd13ifvqee0","pricing_plan_id":"cebpf4jnsgd1na2vs0mg"},{"bike_id":"50e6eefe-8aea-4054-ab8f-87d6e301ff34","system_id":"levelo_inurba_marseille","lat":43.242998,"lon":5.438436,"is_reserved":false,"is_disabled":false,"rental_uris":{"android":"levelo://app?vid=50e6eefe-8aea-4054-ab8f-87d6e301ff34","ios":"levelo://app?vid=50e6eefe-8aea-4054-ab8f-87d6e301ff34"},"vehicle_type_id":"4","last_reported":1766168235,"current_range_meters":2800,"station_id":"","pricing_plan_id":"cebpf4jnsgd1na2vs0mg"},{"bike_id":"d2bcf7e6-9e6c-48c1-8c64-5337f19dad07","system_id":"levelo_inurba_marseille","lat":43.22872,"lon":5.39956,"is_reserved":false,"is_disabled":false,"rental_uris":{"android":"levelo://app?vid=d2bcf7e6-9e6c-48c1-8c64-5337f19dad07","ios":"levelo://app?vid=d2bcf7e6-9e6c-48c1-8c64-5337f19dad07"},"vehicle_type_id":"4","last_reported":1766168235,"current_range_meters":2800,"station_id":"","pricing_plan_id":"cebpf4jnsgd1na2vs0mg"},{"bike_id":"1e376b8e-b1d2-41e2-8c5e-9edf0f890f04","system_id":"levelo_inurba_marseille","lat":43.24949,"lon":5.40487,"is_reserved":false,"is_disabled":false,"rental_uris":{"android":"levelo://app?vid=1e376b8e-b1d2-41e2-8c5e-9edf0f890f04","ios":"levelo://app?vid=1e376b8e-b1d2-41e2-8c5e-9edf0f890f04"},"vehicle_type_id":"4","last_reported":1766168235,"current_range_meters":3200,"station_id":"st_d2ngiaodas8pm72gd1h0","pricing_plan_id":"cebpf4jnsgd1na2vs0mg"},{"bike_id":"0856755f-65e1-499b-9b83-85f40dd0e8cc","system_id":"levelo_inurba_marseille","lat":43.3088,"lon":5.37192,"is_reserved":false,"is_disabled":false,"rental_uris":{"android":"levelo://app?vid=0856755f-65e1-499b-9b83-85f40dd0e8cc","ios":"levelo://app?vid=0856755f-65e1-499b-9b83-85f40dd0e8cc"},"vehicle_type_id":"4","last_reported":1766168235,"current_range_meters":3200,"station_id":"ce4bguh2rcd13ifvqckg","pricing_plan_id":"cebpf4jnsgd1na2vs0mg"},{"bike_id":"8a48f2ad-b14c-4a80-8570-b8d71fce207b","system_id":"levelo_inurba_marseille","lat":43.292933,"lon":5.36837,"is_reserved":false,"is_disabled":false,"rental_uris":{"android":"levelo://app?vid=8a48f2ad-b14c-4a80-8570-b8d71fce207b","ios":"levelo://app?vid=8a48f2ad-b14c-4a80-8570-b8d71fce207b"},"vehicle_type_id":"4","last_reported":1766168235,"current_range_meters":3200,"station_id":"ce4bhbp2rcd13ifvqesg","pricing_plan_id":"cebpf4jnsgd1na2vs0mg"},{"bike_id":"a9adc8bf-52f1-4c31-a2de-42743dd086bf","system_id":"levelo_inurba_marseille","lat":43.33723,"lon":5.3748,"is_reserved":false,"is_disabled":false,"rental_uris":{"android":"levelo://app?vid=a9adc8bf-52f1-4c31-a2de-42743dd086bf","ios":"levelo://app?vid=a9adc8bf-52f1-4c31-a2de-42743dd086bf"},"vehicle_type_id":"4","last_reported":1766168235,"current_range_meters":3200,"station_id":"","pricing_plan_id":"cebpf4jnsgd1na2vs0mg"},{"bike_id":"81eff742-1890-4687-800d-f97ba94e3c72","system_id":"levelo_inurba_marseille","lat":43.30143,"lon":5.39857,"is_reserved":false,"is_disabled":false,"rental_uris":{"android":"levelo://app?vid=81eff742-1890-4687-800d-f97ba94e3c72","ios":"levelo://app?vid=81eff742-1890-4687-800d-f97ba94e3c72"},"vehicle_type_id":"4","last_reported":1766168235,"current_range_meters":3200,"station_id":"ce4bh0h2rcd13ifvqd40","pricing_plan_id":"cebpf4jnsgd1na2vs0mg"},{"bike_id":"51ca3386-847e-4038-ab40-7d6388d63cbb","system_id":"levelo_inurba_marseille","lat":43.25891,"lon":5.38767,"is_reserved":false,"is_disabled":false,"rental_uris":{"android":"levelo://app?vid=51ca3386-847e-4038-ab40-7d6388d63cbb","ios":"levelo://app?vid=51ca3386-847e-4038-ab40-7d6388d63cbb"},"vehicle_type_id":"4","last_reported":1766168235,"current_range_meters":3200,"station_id":"","pricing_plan_id":"cebpf4jnsgd1na2vs0mg"},{"bike_id":"435d247b-0f86-4bb0-8e6f-cb62fb3ae1ea","system_id":"levelo_inurba_marseille","lat":43.248087,"lon":5.374647,"is_reserved":false,"is_disabled":false,"rental_uris":{"android":"levelo://app?vid=435d247b-0f86-4bb0-8e6f-cb62fb3ae1ea","ios":"levelo://app?vid=435d247b-0f86-4bb0-8e6f-cb62fb3ae1ea"},"vehicle_type_id":"4","last_reported":1766168235,"current_range_meters":3200,"station_id":"ce4bhi12rcd13ifvqfo0","pricing_plan_id":"cebpf4jnsgd1na2vs0mg"},{"bike_id":"803cbc4c-8e6b-4938-a3b7-a1b155d6e2e4","system_id":"levelo_inurba_marseille","lat":43.305917,"lon":5.393654,"is_reserved":false,"is_disabled":false,"rental_uris":{"android":"levelo://app?vid=803cbc4c-8e6b-4938-a3b7-a1b155d6e2e4","ios":"levelo://app?vid=803cbc4c-8e6b-4938-a3b7-a1b155d6e2e4"},"vehicle_type_id":"4","last_reported":1766168235,"current_range_meters":3600,"station_id":"ce4bh0p2rcd13ifvqd80","pricing_plan_id":"cebpf4jnsgd1na2vs0mg"},{"bike_id":"253ccf28-718e-40fc-8a00-37d156cc2b91","system_id":"levelo_inurba_marseille","lat":43.29623,"lon":5.37713,"is_reserved":false,"is_disabled":false,"rental_uris":{"android":"levelo://app?vid=253ccf28-718e-40fc-8a00-37d156cc2b91","ios":"levelo://app?vid=253ccf28-718e-40fc-8a00-37d156cc2b91"},"vehicle_type_id":"4","last_reported":1766168235,"current_range_meters":4000,"station_id":"ce4bgi92rcd13ifvqb90","pricing_plan_id":"cebpf4jnsgd1na2vs0mg"},{"bike_id":"3cde007c-a409-4597-91e7-ca2461274ad1","system_id":"levelo_inurba_marseille","lat":43.26565,"lon":5.40189,"is_reserved":false,"is_disabled":false,"rental_uris":{"android":"levelo://app?vid=3cde007c-a409-4597-91e7-ca2461274ad1","ios":"levelo://app?vid=3cde007c-a409-4597-91e7-ca2461274ad1"},"vehicle_type_id":"4","last_reported":1766168235,"current_range_meters":4000,"station_id":"","pricing_plan_id":"cebpf4jnsgd1na2vs0mg"},{"bike_id":"33711659-fd44-44fa-9265-d345c45eef90","system_id":"levelo_inurba_marseille","lat":43.29971,"lon":5.38488,"is_reserved":false,"is_disabled":false,"rental_uris":{"android":"levelo://app?vid=33711659-fd44-44fa-9265-d345c45eef90","ios":"levelo://app?vid=33711659-fd44-44fa-9265-d345c45eef90"},"vehicle_type_id":"4","last_reported":1766168235,"current_range_meters":4000,"station_id":"ce4bgj92rcd13ifvqbd0","pricing_plan_id":"cebpf4jnsgd1na2vs0mg"},{"bike_id":"81508f0a-e327-4705-ae72-228165570b37","system_id":"levelo_inurba_marseille","lat":43.25091,"lon":5.38953,"is_reserved":false,"is_disabled":false,"rental_uris":{"android":"levelo://app?vid=81508f0a-e327-4705-ae72-228165570b37","ios":"levelo://app?vid=81508f0a-e327-4705-ae72-228165570b37"},"vehicle_type_id":"4","last_reported":1766168235,"current_range_meters":4000,"station_id":"","pricing_plan_id":"cebpf4jnsgd1na2vs0mg"},{"bike_id":"f03f5b31-9423-4c81-aa77-e1666051c515","system_id":"levelo_inurba_marseille","lat":43.28487,"lon":5.38416,"is_reserved":false,"is_disabled":false,"rental_uris":{"android":"levelo://app?vid=f03f5b31-9423-4c81-aa77-e1666051c515","ios":"levelo://app?vid=f03f5b31-9423-4c81-aa77-e1666051c515"},"vehicle_type_id":"4","last_reported":1766168235,"current_range_meters":4000,"station_id":"ce4bh512rcd13ifvqe3g","pricing_plan_id":"cebpf4jnsgd1na2vs0mg"},{"bike_id":"c11e3df8-d8fa-44e8-862b-40d8102dd60d","system_id":"levelo_inurba_marseille","lat":43.31261,"lon":5.40161,"is_reserved":false,"is_disabled":false,"rental_uris":{"android":"levelo://app?vid=c11e3df8-d8fa-44e8-862b-40d8102dd60d","ios":"levelo://app?vid=c11e3df8-d8fa-44e8-862b-40d8102dd60d"},"vehicle_type_id":"4","last_reported":1766168235,"current_range_meters":4400,"station_id":"ce4bh092rcd13ifvqd30","pricing_plan_id":"cebpf4jnsgd1na2vs0mg"},{"bike_id":"da18a3b0-ce97-43eb-b181-936e440b40e5","system_id":"levelo_inurba_marseille","lat":43.31688,"lon":5.40387,"is_reserved":false,"is_disabled":false,"rental_uris":{"android":"levelo://app?vid=da18a3b0-ce97-43eb-b181-936e440b40e5","ios":"levelo://app?vid=da18a3b0-ce97-43eb-b181-936e440b40e5"},"vehicle_type_id":"4","last_reported":1766168235,"current_range_meters":4800,"station_id":"","pricing_plan_id":"cebpf4jnsgd1na2vs0mg"},{"bike_id":"a4669282-527e-4974-bd02-dff988daace9","system_id":"levelo_inurba_marseille","lat":43.23195,"lon":5.35544,"is_reserved":false,"is_disabled":false,"rental_uris":{"android":"levelo://app?vid=a4669282-527e-4974-bd02-dff988daace9","ios":"levelo://app?vid=a4669282-527e-4974-bd02-dff988daace9"},"vehicle_type_id":"4","last_reported":1766168235,"current_range_meters":4800,"station_id":"ce4bhu92rcd13ifvqi70","pricing_plan_id":"cebpf4jnsgd1na2vs0mg"},{"bike_id":"0f790576-6061-4c09-aa76-5fb8223294e2","system_id":"levelo_inurba_marseille","lat":43.273241,"lon":5.390715,"is_reserved":false,"is_disabled":true,"rental_uris":{"android":"levelo://app?vid=0f790576-6061-4c09-aa76-5fb8223294e2","ios":"levelo://app?vid=0f790576-6061-4c09-aa76-5fb8223294e2"},"vehicle_type_id":"4","last_reported":1766168235,"current_range_meters":5600,"station_id":"","pricing_plan_id":"cebpf4jnsgd1na2vs0mg"},{"bike_id":"40c51ff6-bcdf-4189-b2f9-53259a9dc236","system_id":"levelo_inurba_marseille","lat":43.28306,"lon":5.38919,"is_reserved":false,"is_disabled":true,"rental_uris":{"android":"levelo://app?vid=40c51ff6-bcdf-4189-b2f9-53259a9dc236","ios":"levelo://app?vid=40c51ff6-bcdf-4189-b2f9-53259a9dc236"},"vehicle_type_id":"4","last_reported":1766168235,"current_range_meters":5600,"station_id":"","pricing_plan_id":"cebpf4jnsgd1na2vs0mg"},{"bike_id":"0f0ba93b-2f84-46c7-a059-9539de548098","system_id":"levelo_inurba_marseille","lat":43.30142,"lon":5.38074,"is_reserved":false,"is_disabled":false,"rental_uris":{"android":"levelo://app?vid=0f0ba93b-2f84-46c7-a059-9539de548098","ios":"levelo://app?vid=0f0ba93b-2f84-46c7-a059-9539de548098"},"vehicle_type_id":"4","last_reported":1766168235,"current_range_meters":5600,"station_id":"ce4bgjp2rcd13ifvqbh0","pricing_plan_id":"cebpf4jnsgd1na2vs0mg"},{"bike_id":"f567b0f3-3773-471b-9065-aa56814d0933","system_id":"levelo_inurba_marseille","lat":43.290394,"lon":5.375601,"is_reserved":false,"is_disabled":false,"rental_uris":{"android":"levelo://app?vid=f567b0f3-3773-471b-9065-aa56814d0933","ios":"levelo://app?vid=f567b0f3-3773-471b-9065-aa56814d0933"},"vehicle_type_id":"4","last_reported":1766168235,"current_range_meters":5600,"station_id":"","pricing_plan_id":"cebpf4jnsgd1na2vs0mg"},{"bike_id":"8acaa05f-4613-4b3f-86bb-c0b91e18174d","system_id":"levelo_inurba_marseille","lat":43.29603,"lon":5.38096,"is_reserved":false,"is_disabled":false,"rental_uris":{"android":"levelo://app?vid=8acaa05f-4613-4b3f-86bb-c0b91e18174d","ios":"levelo://app?vid=8acaa05f-4613-4b3f-86bb-c0b91e18174d"},"vehicle_type_id":"4","last_reported":1766168235,"current_range_meters":5600,"station_id":"ce4bgl12rcd13ifvqbo0","pricing_plan_id":"cebpf4jnsgd1na2vs0mg"},{"bike_id":"6924b67c-0229-42f6-9ec0-2d529bf4f889","system_id":"levelo_inurba_marseille","lat":43.29818,"lon":5.44065,"is_reserved":false,"is_disabled":false,"rental_uris":{"android":"levelo://app?vid=6924b67c-0229-42f6-9ec0-2d529bf4f889","ios":"levelo://app?vid=6924b67c-0229-42f6-9ec0-2d529bf4f889"},"vehicle_type_id":"4","last_reported":1766168235,"current_range_meters":5600,"station_id":"st_d3jp68qikq2c7381ktn0","pricing_plan_id":"cebpf4jnsgd1na2vs0mg"},{"bike_id":"2086225a-a747-4f9f-9bfb-723b2da30c0e","system_id":"levelo_inurba_marseille","lat":43.2478,"lon":5.39612,"is_reserved":false,"is_disabled":false,"rental_uris":{"android":"levelo://app?vid=2086225a-a747-4f9f-9bfb-723b2da30c0e","ios":"levelo://app?vid=2086225a-a747-4f9f-9bfb-723b2da30c0e"},"vehicle_type_id":"4","last_reported":1766168235,"current_range_meters":5600,"station_id":"","pricing_plan_id":"cebpf4jnsgd1na2vs0mg"},{"bike_id":"b392ffda-9a1d-490e-8b7a-eed120b96e31","system_id":"levelo_inurba_marseille","lat":43.27971,"lon":5.38733,"is_reserved":false,"is_disabled":false,"rental_uris":{"android":"levelo://app?vid=b392ffda-9a1d-490e-8b7a-eed120b96e31","ios":"levelo://app?vid=b392ffda-9a1d-490e-8b7a-eed120b96e31"},"vehicle_type_id":"4","last_reported":1766168235,"current_range_meters":5600,"station_id":"ce4bhg12rcd13ifvqf80","pricing_plan_id":"cebpf4jnsgd1na2vs0mg"},{"bike_id":"67fe2471-1cc2-49f3-8860-6c45a1e6b28e","system_id":"levelo_inurba_marseille","lat":43.273742,"lon":5.362622,"is_reserved":false,"is_disabled":false,"rental_uris":{"android":"levelo://app?vid=67fe2471-1cc2-49f3-8860-6c45a1e6b28e","ios":"levelo://app?vid=67fe2471-1cc2-49f3-8860-6c45a1e6b28e"},"vehicle_type_id":"4","last_reported":1766168235,"current_range_meters":5600,"station_id":"ce4bhbh2rcd13ifvqeo0","pricing_plan_id":"cebpf4jnsgd1na2vs0mg"},{"bike_id":"9d7bc515-99b6-4e19-b388-5c81c42b25f6","system_id":"levelo_inurba_marseille","lat":43.301458,"lon":5.374194,"is_reserved":false,"is_disabled":false,"rental_uris":{"android":"levelo://app?vid=9d7bc515-99b6-4e19-b388-5c81c42b25f6","ios":"levelo://app?vid=9d7bc515-99b6-4e19-b388-5c81c42b25f6"},"vehicle_type_id":"4","last_reported":1766168235,"current_range_meters":6000,"station_id":"ce4bgs92rcd13ifvqcc0","pricing_plan_id":"cebpf4jnsgd1na2vs0mg"},{"bike_id":"f022fc22-7a8d-4549-90fa-d1a63161f12a","system_id":"levelo_inurba_marseille","lat":43.30285,"lon":5.37694,"is_reserved":false,"is_disabled":false,"rental_uris":{"android":"levelo://app?vid=f022fc22-7a8d-4549-90fa-d1a63161f12a","ios":"levelo://app?vid=f022fc22-7a8d-4549-90fa-d1a63161f12a"},"vehicle_type_id":"4","last_reported":1766168235,"current_range_meters":6000,"station_id":"ce4bguh2rcd13ifvqcj0","pricing_plan_id":"cebpf4jnsgd1na2vs0mg"},{"bike_id":"467517c8-ed87-4e02-bef8-4ed63963538d","system_id":"levelo_inurba_marseille","lat":43.27207,"lon":5.40965,"is_reserved":false,"is_disabled":true,"rental_uris":{"android":"levelo://app?vid=467517c8-ed87-4e02-bef8-4ed63963538d","ios":"levelo://app?vid=467517c8-ed87-4e02-bef8-4ed63963538d"},"vehicle_type_id":"4","last_reported":1766168235,"current_range_meters":6400,"station_id":"ce4bhl12rcd13ifvqgf0","pricing_plan_id":"cebpf4jnsgd1na2vs0mg"},{"bike_id":"cf0e2dfe-8751-4251-bbd3-3ad00be9f3ad","system_id":"levelo_inurba_marseille","lat":43.28477,"lon":5.48391,"is_reserved":false,"is_disabled":false,"rental_uris":{"android":"levelo://app?vid=cf0e2dfe-8751-4251-bbd3-3ad00be9f3ad","ios":"levelo://app?vid=cf0e2dfe-8751-4251-bbd3-3ad00be9f3ad"},"vehicle_type_id":"4","last_reported":1766168235,"current_range_meters":6400,"station_id":"","pricing_plan_id":"cebpf4jnsgd1na2vs0mg"},{"bike_id":"ebec1dfd-27cd-4425-a996-28d35f1c8828","system_id":"levelo_inurba_marseille","lat":43.301469,"lon":5.380808,"is_reserved":false,"is_disabled":false,"rental_uris":{"android":"levelo://app?vid=ebec1dfd-27cd-4425-a996-28d35f1c8828","ios":"levelo://app?vid=ebec1dfd-27cd-4425-a996-28d35f1c8828"},"vehicle_type_id":"4","last_reported":1766168235,"current_range_meters":6400,"station_id":"ce4bgjp2rcd13ifvqbh0","pricing_plan_id":"cebpf4jnsgd1na2vs0mg"},{"bike_id":"c22f369c-1265-4c32-b23b-96a77df7ea54","system_id":"levelo_inurba_marseille","lat":43.3058,"lon":5.39355,"is_reserved":false,"is_disabled":false,"rental_uris":{"android":"levelo://app?vid=c22f369c-1265-4c32-b23b-96a77df7ea54","ios":"levelo://app?vid=c22f369c-1265-4c32-b23b-96a77df7ea54"},"vehicle_type_id":"4","last_reported":1766168235,"current_range_meters":6400,"station_id":"ce4bh0p2rcd13ifvqd80","pricing_plan_id":"cebpf4jnsgd1na2vs0mg"},{"bike_id":"7ae8784a-0ed6-49af-b076-10fa02b94317","system_id":"levelo_inurba_marseille","lat":43.26554,"lon":5.39024,"is_reserved":false,"is_disabled":false,"rental_uris":{"android":"levelo://app?vid=7ae8784a-0ed6-49af-b076-10fa02b94317","ios":"levelo://app?vid=7ae8784a-0ed6-49af-b076-10fa02b94317"},"vehicle_type_id":"4","last_reported":1766168235,"current_range_meters":6400,"station_id":"ce4bhe12rcd13ifvqf30","pricing_plan_id":"cebpf4jnsgd1na2vs0mg"},{"bike_id":"e8669cfc-52c4-4ad2-a7d2-cfbc470a929e","system_id":"levelo_inurba_marseille","lat":43.26934,"lon":5.38916,"is_reserved":false,"is_disabled":false,"rental_uris":{"android":"levelo://app?vid=e8669cfc-52c4-4ad2-a7d2-cfbc470a929e","ios":"levelo://app?vid=e8669cfc-52c4-4ad2-a7d2-cfbc470a929e"},"vehicle_type_id":"4","last_reported":1766168235,"current_range_meters":6800,"station_id":"ce4bhhh2rcd13ifvqfl0","pricing_plan_id":"cebpf4jnsgd1na2vs0mg"},{"bike_id":"0a598fce-978f-4f90-b03f-b8be1902feff","system_id":"levelo_inurba_marseille","lat":43.31274,"lon":5.37854,"is_reserved":false,"is_disabled":false,"rental_uris":{"android":"levelo://app?vid=0a598fce-978f-4f90-b03f-b8be1902feff","ios":"levelo://app?vid=0a598fce-978f-4f90-b03f-b8be1902feff"},"vehicle_type_id":"4","last_reported":1766168235,"current_range_meters":6800,"station_id":"","pricing_plan_id":"cebpf4jnsgd1na2vs0mg"},{"bike_id":"e5c2ec5c-d95c-4342-a98d-ed0a24f6a85d","system_id":"levelo_inurba_marseille","lat":43.289246,"lon":5.384011,"is_reserved":false,"is_disabled":false,"rental_uris":{"android":"levelo://app?vid=e5c2ec5c-d95c-4342-a98d-ed0a24f6a85d","ios":"levelo://app?vid=e5c2ec5c-d95c-4342-a98d-ed0a24f6a85d"},"vehicle_type_id":"4","last_reported":1766168235,"current_range_meters":6800,"station_id":"ce4bgrh2rcd13ifvqc8g","pricing_plan_id":"cebpf4jnsgd1na2vs0mg"},{"bike_id":"4a614ce4-d61c-499d-8955-0569e02f377b","system_id":"levelo_inurba_marseille","lat":43.27523,"lon":5.37272,"is_reserved":false,"is_disabled":false,"rental_uris":{"android":"levelo://app?vid=4a614ce4-d61c-499d-8955-0569e02f377b","ios":"levelo://app?vid=4a614ce4-d61c-499d-8955-0569e02f377b"},"vehicle_type_id":"4","last_reported":1766168235,"current_range_meters":7200,"station_id":"","pricing_plan_id":"cebpf4jnsgd1na2vs0mg"},{"bike_id":"1712a582-0c8e-428c-95c7-3f683dc6a314","system_id":"levelo_inurba_marseille","lat":43.28721,"lon":5.37932,"is_reserved":false,"is_disabled":false,"rental_uris":{"android":"levelo://app?vid=1712a582-0c8e-428c-95c7-3f683dc6a314","ios":"levelo://app?vid=1712a582-0c8e-428c-95c7-3f683dc6a314"},"vehicle_type_id":"4","last_reported":1766168235,"current_range_meters":7200,"station_id":"ce4bh9p2rcd13ifvqec0","pricing_plan_id":"cebpf4jnsgd1na2vs0mg"},{"bike_id":"2822cec3-8933-4de4-af41-34519853141e","system_id":"levelo_inurba_marseille","lat":43.281859,"lon":5.391275,"is_reserved":false,"is_disabled":false,"rental_uris":{"android":"levelo://app?vid=2822cec3-8933-4de4-af41-34519853141e","ios":"levelo://app?vid=2822cec3-8933-4de4-af41-34519853141e"},"vehicle_type_id":"4","last_reported":1766168235,"current_range_meters":7200,"station_id":"ce4bhn92rcd13ifvqgsg","pricing_plan_id":"cebpf4jnsgd1na2vs0mg"},{"bike_id":"9aef6e80-30bf-4f75-8ab8-dc43091b3aee","system_id":"levelo_inurba_marseille","lat":43.290985,"lon":5.381276,"is_reserved":false,"is_disabled":false,"rental_uris":{"android":"levelo://app?vid=9aef6e80-30bf-4f75-8ab8-dc43091b3aee","ios":"levelo://app?vid=9aef6e80-30bf-4f75-8ab8-dc43091b3aee"},"vehicle_type_id":"4","last_reported":1766168235,"current_range_meters":7200,"station_id":"ce4bh512rcd13ifvqe2g","pricing_plan_id":"cebpf4jnsgd1na2vs0mg"},{"bike_id":"3fd8ab04-84c6-4114-88cb-d5f335415d3c","system_id":"levelo_inurba_marseille","lat":43.27812,"lon":5.40687,"is_reserved":false,"is_disabled":false,"rental_uris":{"android":"levelo://app?vid=3fd8ab04-84c6-4114-88cb-d5f335415d3c","ios":"levelo://app?vid=3fd8ab04-84c6-4114-88cb-d5f335415d3c"},"vehicle_type_id":"4","last_reported":1766168235,"current_range_meters":7200,"station_id":"ce4bhnh2rcd13ifvqgtg","pricing_plan_id":"cebpf4jnsgd1na2vs0mg"},{"bike_id":"f20ad7f7-fe76-4e0d-8969-04dbbca3b071","system_id":"levelo_inurba_marseille","lat":43.29491,"lon":5.43305,"is_reserved":false,"is_disabled":false,"rental_uris":{"android":"levelo://app?vid=f20ad7f7-fe76-4e0d-8969-04dbbca3b071","ios":"levelo://app?vid=f20ad7f7-fe76-4e0d-8969-04dbbca3b071"},"vehicle_type_id":"4","last_reported":1766168235,"current_range_meters":7200,"station_id":"st_d3j5ugp08ojc73fj9d10","pricing_plan_id":"cebpf4jnsgd1na2vs0mg"},{"bike_id":"90887f32-48ce-430c-9e61-94c7617d0eed","system_id":"levelo_inurba_marseille","lat":43.30888,"lon":5.39651,"is_reserved":false,"is_disabled":false,"rental_uris":{"android":"levelo://app?vid=90887f32-48ce-430c-9e61-94c7617d0eed","ios":"levelo://app?vid=90887f32-48ce-430c-9e61-94c7617d0eed"},"vehicle_type_id":"4","last_reported":1766168235,"current_range_meters":7200,"station_id":"ce4bh012rcd13ifvqcv0","pricing_plan_id":"cebpf4jnsgd1na2vs0mg"},{"bike_id":"323d151e-2f99-489e-bfb3-0b56b60cf062","system_id":"levelo_inurba_marseille","lat":43.27057,"lon":5.38311,"is_reserved":false,"is_disabled":false,"rental_uris":{"android":"levelo://app?vid=323d151e-2f99-489e-bfb3-0b56b60cf062","ios":"levelo://app?vid=323d151e-2f99-489e-bfb3-0b56b60cf062"},"vehicle_type_id":"4","last_reported":1766168235,"current_range_meters":7200,"station_id":"st_d3n2fo6cfp8s73cte1j0","pricing_plan_id":"cebpf4jnsgd1na2vs0mg"},{"bike_id":"436e467e-3ef8-4484-b12e-82fd46509f97","system_id":"levelo_inurba_marseille","lat":43.23293,"lon":5.4441,"is_reserved":false,"is_disabled":false,"rental_uris":{"android":"levelo://app?vid=436e467e-3ef8-4484-b12e-82fd46509f97","ios":"levelo://app?vid=436e467e-3ef8-4484-b12e-82fd46509f97"},"vehicle_type_id":"4","last_reported":1766168235,"current_range_meters":8000,"station_id":"","pricing_plan_id":"cebpf4jnsgd1na2vs0mg"},{"bike_id":"79696be0-8bd7-4a71-b9c2-4d865df5650e","system_id":"levelo_inurba_marseille","lat":43.28928,"lon":5.3663,"is_reserved":false,"is_disabled":false,"rental_uris":{"android":"levelo://app?vid=79696be0-8bd7-4a71-b9c2-4d865df5650e","ios":"levelo://app?vid=79696be0-8bd7-4a71-b9c2-4d865df5650e"},"vehicle_type_id":"4","last_reported":1766168235,"current_range_meters":8000,"station_id":"ce4bhap2rcd13ifvqek0","pricing_plan_id":"cebpf4jnsgd1na2vs0mg"},{"bike_id":"c5365846-c619-4f12-8c92-97c9f9725a15","system_id":"levelo_inurba_marseille","lat":43.2952,"lon":5.37958,"is_reserved":false,"is_disabled":false,"rental_uris":{"android":"levelo://app?vid=c5365846-c619-4f12-8c92-97c9f9725a15","ios":"levelo://app?vid=c5365846-c619-4f12-8c92-97c9f9725a15"},"vehicle_type_id":"4","last_reported":1766168235,"current_range_meters":8000,"station_id":"","pricing_plan_id":"cebpf4jnsgd1na2vs0mg"},{"bike_id":"80535d51-9669-4dc0-8924-4ff8027c812c","system_id":"levelo_inurba_marseille","lat":43.26206,"lon":5.37933,"is_reserved":false,"is_disabled":false,"rental_uris":{"android":"levelo://app?vid=80535d51-9669-4dc0-8924-4ff8027c812c","ios":"levelo://app?vid=80535d51-9669-4dc0-8924-4ff8027c812c"},"vehicle_type_id":"4","last_reported":1766168235,"current_range_meters":8000,"station_id":"ce4bhjp2rcd13ifvqg90","pricing_plan_id":"cebpf4jnsgd1na2vs0mg"},{"bike_id":"320214c4-b2c6-487e-b010-3901d6fee33d","system_id":"levelo_inurba_marseille","lat":43.28143,"lon":5.42667,"is_reserved":false,"is_disabled":false,"rental_uris":{"android":"levelo://app?vid=320214c4-b2c6-487e-b010-3901d6fee33d","ios":"levelo://app?vid=320214c4-b2c6-487e-b010-3901d6fee33d"},"vehicle_type_id":"4","last_reported":1766168235,"current_range_meters":8000,"station_id":"ce4bhnh2rcd13ifvqgug","pricing_plan_id":"cebpf4jnsgd1na2vs0mg"},{"bike_id":"4deeb8ca-1823-4e82-bd46-d0b97f87ec92","system_id":"levelo_inurba_marseille","lat":43.30292,"lon":5.39212,"is_reserved":false,"is_disabled":false,"rental_uris":{"android":"levelo://app?vid=4deeb8ca-1823-4e82-bd46-d0b97f87ec92","ios":"levelo://app?vid=4deeb8ca-1823-4e82-bd46-d0b97f87ec92"},"vehicle_type_id":"4","last_reported":1766168235,"current_range_meters":8000,"station_id":"ce4bgkh2rcd13ifvqbk0","pricing_plan_id":"cebpf4jnsgd1na2vs0mg"},{"bike_id":"eb102f24-4c69-4203-af53-0f09855a37ac","system_id":"levelo_inurba_marseille","lat":43.30642,"lon":5.40082,"is_reserved":false,"is_disabled":false,"rental_uris":{"android":"levelo://app?vid=eb102f24-4c69-4203-af53-0f09855a37ac","ios":"levelo://app?vid=eb102f24-4c69-4203-af53-0f09855a37ac"},"vehicle_type_id":"4","last_reported":1766168235,"current_range_meters":8400,"station_id":"ce4bh112rcd13ifvqda0","pricing_plan_id":"cebpf4jnsgd1na2vs0mg"},{"bike_id":"1f8bf9e3-c9bd-4c05-9201-34f9580d25af","system_id":"levelo_inurba_marseille","lat":43.21195,"lon":5.35065,"is_reserved":false,"is_disabled":false,"rental_uris":{"android":"levelo://app?vid=1f8bf9e3-c9bd-4c05-9201-34f9580d25af","ios":"levelo://app?vid=1f8bf9e3-c9bd-4c05-9201-34f9580d25af"},"vehicle_type_id":"4","last_reported":1766168235,"current_range_meters":8400,"station_id":"st_cvj6sg6p6f1abm77japg","pricing_plan_id":"cebpf4jnsgd1na2vs0mg"},{"bike_id":"ee6f7e5c-24b4-4046-a3ec-072080785116","system_id":"levelo_inurba_marseille","lat":43.21746,"lon":5.34594,"is_reserved":false,"is_disabled":true,"rental_uris":{"android":"levelo://app?vid=ee6f7e5c-24b4-4046-a3ec-072080785116","ios":"levelo://app?vid=ee6f7e5c-24b4-4046-a3ec-072080785116"},"vehicle_type_id":"4","last_reported":1766168235,"current_range_meters":8400,"station_id":"st_cvj6r9ubvosntc0bgbag","pricing_plan_id":"cebpf4jnsgd1na2vs0mg"},{"bike_id":"c829ee74-4fff-4e0d-ad37-4e3ae183548b","system_id":"levelo_inurba_marseille","lat":43.28154,"lon":5.42639,"is_reserved":false,"is_disabled":false,"rental_uris":{"android":"levelo://app?vid=c829ee74-4fff-4e0d-ad37-4e3ae183548b","ios":"levelo://app?vid=c829ee74-4fff-4e0d-ad37-4e3ae183548b"},"vehicle_type_id":"4","last_reported":1766168235,"current_range_meters":8400,"station_id":"ce4bhnh2rcd13ifvqgug","pricing_plan_id":"cebpf4jnsgd1na2vs0mg"},{"bike_id":"0f778c96-798e-4e1d-8be8-53cff43ed49b","system_id":"levelo_inurba_marseille","lat":43.32961,"lon":5.39397,"is_reserved":false,"is_disabled":false,"rental_uris":{"android":"levelo://app?vid=0f778c96-798e-4e1d-8be8-53cff43ed49b","ios":"levelo://app?vid=0f778c96-798e-4e1d-8be8-53cff43ed49b"},"vehicle_type_id":"4","last_reported":1766168235,"current_range_meters":8400,"station_id":"","pricing_plan_id":"cebpf4jnsgd1na2vs0mg"},{"bike_id":"9d6a8411-edf3-466f-b07e-37fc4390edeb","system_id":"levelo_inurba_marseille","lat":43.279635,"lon":5.387536,"is_reserved":false,"is_disabled":false,"rental_uris":{"android":"levelo://app?vid=9d6a8411-edf3-466f-b07e-37fc4390edeb","ios":"levelo://app?vid=9d6a8411-edf3-466f-b07e-37fc4390edeb"},"vehicle_type_id":"4","last_reported":1766168235,"current_range_meters":8400,"station_id":"ce4bhg12rcd13ifvqf80","pricing_plan_id":"cebpf4jnsgd1na2vs0mg"},{"bike_id":"8f389d1a-334e-4327-877e-17b4be704247","system_id":"levelo_inurba_marseille","lat":43.28583,"lon":5.39496,"is_reserved":false,"is_disabled":false,"rental_uris":{"android":"levelo://app?vid=8f389d1a-334e-4327-877e-17b4be704247","ios":"levelo://app?vid=8f389d1a-334e-4327-877e-17b4be704247"},"vehicle_type_id":"4","last_reported":1766168235,"current_range_meters":8400,"station_id":"ce4bh292rcd13ifvqdg0","pricing_plan_id":"cebpf4jnsgd1na2vs0mg"},{"bike_id":"31b7f504-1d46-41cf-adba-fcdc5fcd8f74","system_id":"levelo_inurba_marseille","lat":43.27206,"lon":5.39175,"is_reserved":false,"is_disabled":false,"rental_uris":{"android":"levelo://app?vid=31b7f504-1d46-41cf-adba-fcdc5fcd8f74","ios":"levelo://app?vid=31b7f504-1d46-41cf-adba-fcdc5fcd8f74"},"vehicle_type_id":"4","last_reported":1766168235,"current_range_meters":8400,"station_id":"ce4bhhp2rcd13ifvqfm0","pricing_plan_id":"cebpf4jnsgd1na2vs0mg"},{"bike_id":"374a0371-4968-4fe9-88a9-ac5ffa94b236","system_id":"levelo_inurba_marseille","lat":43.31462,"lon":5.45384,"is_reserved":false,"is_disabled":false,"rental_uris":{"android":"levelo://app?vid=374a0371-4968-4fe9-88a9-ac5ffa94b236","ios":"levelo://app?vid=374a0371-4968-4fe9-88a9-ac5ffa94b236"},"vehicle_type_id":"4","last_reported":1766168235,"current_range_meters":8400,"station_id":"","pricing_plan_id":"cebpf4jnsgd1na2vs0mg"},{"bike_id":"7282edd6-0667-465d-a973-59e6922c2c4d","system_id":"levelo_inurba_marseille","lat":43.23206,"lon":5.35554,"is_reserved":false,"is_disabled":false,"rental_uris":{"android":"levelo://app?vid=7282edd6-0667-465d-a973-59e6922c2c4d","ios":"levelo://app?vid=7282edd6-0667-465d-a973-59e6922c2c4d"},"vehicle_type_id":"4","last_reported":1766168235,"current_range_meters":8400,"station_id":"ce4bhu92rcd13ifvqi70","pricing_plan_id":"cebpf4jnsgd1na2vs0mg"},{"bike_id":"ae2c2a89-a422-4c95-a807-1d821c276681","system_id":"levelo_inurba_marseille","lat":43.2971,"lon":5.37702,"is_reserved":false,"is_disabled":false,"rental_uris":{"android":"levelo://app?vid=ae2c2a89-a422-4c95-a807-1d821c276681","ios":"levelo://app?vid=ae2c2a89-a422-4c95-a807-1d821c276681"},"vehicle_type_id":"4","last_reported":1766168235,"current_range_meters":8800,"station_id":"ce4bgkh2rcd13ifvqbl0","pricing_plan_id":"cebpf4jnsgd1na2vs0mg"},{"bike_id":"91dc96a9-ec51-4128-814e-ce3aa80480d3","system_id":"levelo_inurba_marseille","lat":43.30057,"lon":5.38034,"is_reserved":false,"is_disabled":false,"rental_uris":{"android":"levelo://app?vid=91dc96a9-ec51-4128-814e-ce3aa80480d3","ios":"levelo://app?vid=91dc96a9-ec51-4128-814e-ce3aa80480d3"},"vehicle_type_id":"4","last_reported":1766168235,"current_range_meters":8800,"station_id":"","pricing_plan_id":"cebpf4jnsgd1na2vs0mg"},{"bike_id":"cd8ea67b-02ff-44a2-9f1e-0f06c2acc51a","system_id":"levelo_inurba_marseille","lat":43.33144,"lon":5.37711,"is_reserved":false,"is_disabled":false,"rental_uris":{"android":"levelo://app?vid=cd8ea67b-02ff-44a2-9f1e-0f06c2acc51a","ios":"levelo://app?vid=cd8ea67b-02ff-44a2-9f1e-0f06c2acc51a"},"vehicle_type_id":"4","last_reported":1766168235,"current_range_meters":8800,"station_id":"st_d46cu089ee8s73dldbu0","pricing_plan_id":"cebpf4jnsgd1na2vs0mg"},{"bike_id":"c989796d-dcc1-4fc7-b147-6dbca1d74de3","system_id":"levelo_inurba_marseille","lat":43.28147,"lon":5.38316,"is_reserved":false,"is_disabled":false,"rental_uris":{"android":"levelo://app?vid=c989796d-dcc1-4fc7-b147-6dbca1d74de3","ios":"levelo://app?vid=c989796d-dcc1-4fc7-b147-6dbca1d74de3"},"vehicle_type_id":"4","last_reported":1766168235,"current_range_meters":8800,"station_id":"","pricing_plan_id":"cebpf4jnsgd1na2vs0mg"},{"bike_id":"f3a4c2fd-c27a-4ca6-bbe5-3949d2a88808","system_id":"levelo_inurba_marseille","lat":43.28584,"lon":5.43,"is_reserved":false,"is_disabled":false,"rental_uris":{"android":"levelo://app?vid=f3a4c2fd-c27a-4ca6-bbe5-3949d2a88808","ios":"levelo://app?vid=f3a4c2fd-c27a-4ca6-bbe5-3949d2a88808"},"vehicle_type_id":"4","last_reported":1766168235,"current_range_meters":8800,"station_id":"","pricing_plan_id":"cebpf4jnsgd1na2vs0mg"},{"bike_id":"17a49efb-d179-4b85-b20c-4afe87c0613f","system_id":"levelo_inurba_marseille","lat":43.31029,"lon":5.37145,"is_reserved":false,"is_disabled":true,"rental_uris":{"android":"levelo://app?vid=17a49efb-d179-4b85-b20c-4afe87c0613f","ios":"levelo://app?vid=17a49efb-d179-4b85-b20c-4afe87c0613f"},"vehicle_type_id":"4","last_reported":1766168235,"current_range_meters":8800,"station_id":"st_d4kl2rp97mjs73e7tdfg","pricing_plan_id":"cebpf4jnsgd1na2vs0mg"},{"bike_id":"48e30a46-3a61-4ed5-93c8-2b0ee8661bac","system_id":"levelo_inurba_marseille","lat":43.29883,"lon":5.37891,"is_reserved":false,"is_disabled":false,"rental_uris":{"android":"levelo://app?vid=48e30a46-3a61-4ed5-93c8-2b0ee8661bac","ios":"levelo://app?vid=48e30a46-3a61-4ed5-93c8-2b0ee8661bac"},"vehicle_type_id":"4","last_reported":1766168235,"current_range_meters":8800,"station_id":"","pricing_plan_id":"cebpf4jnsgd1na2vs0mg"},{"bike_id":"60ad0692-253b-4d6b-a4cc-21a3aae6f876","system_id":"levelo_inurba_marseille","lat":43.278242,"lon":5.391591,"is_reserved":false,"is_disabled":false,"rental_uris":{"android":"levelo://app?vid=60ad0692-253b-4d6b-a4cc-21a3aae6f876","ios":"levelo://app?vid=60ad0692-253b-4d6b-a4cc-21a3aae6f876"},"vehicle_type_id":"4","last_reported":1766168235,"current_range_meters":8800,"station_id":"ce4bhjp2rcd13ifvqga0","pricing_plan_id":"cebpf4jnsgd1na2vs0mg"},{"bike_id":"86e9be22-c69e-44cd-98be-490605e5c2d2","system_id":"levelo_inurba_marseille","lat":43.336341,"lon":5.392189,"is_reserved":false,"is_disabled":false,"rental_uris":{"android":"levelo://app?vid=86e9be22-c69e-44cd-98be-490605e5c2d2","ios":"levelo://app?vid=86e9be22-c69e-44cd-98be-490605e5c2d2"},"vehicle_type_id":"4","last_reported":1766168235,"current_range_meters":8800,"station_id":"ce4bhr92rcd13ifvqhsg","pricing_plan_id":"cebpf4jnsgd1na2vs0mg"},{"bike_id":"a6bb7fde-2db0-447e-8cac-38a0c3844ce6","system_id":"levelo_inurba_marseille","lat":43.277909,"lon":5.388386,"is_reserved":false,"is_disabled":false,"rental_uris":{"android":"levelo://app?vid=a6bb7fde-2db0-447e-8cac-38a0c3844ce6","ios":"levelo://app?vid=a6bb7fde-2db0-447e-8cac-38a0c3844ce6"},"vehicle_type_id":"4","last_reported":1766168235,"current_range_meters":9200,"station_id":"","pricing_plan_id":"cebpf4jnsgd1na2vs0mg"},{"bike_id":"305412fd-41fd-4f48-b0ce-d25b5a7eb63f","system_id":"levelo_inurba_marseille","lat":43.3255,"lon":5.38943,"is_reserved":false,"is_disabled":false,"rental_uris":{"android":"levelo://app?vid=305412fd-41fd-4f48-b0ce-d25b5a7eb63f","ios":"levelo://app?vid=305412fd-41fd-4f48-b0ce-d25b5a7eb63f"},"vehicle_type_id":"4","last_reported":1766168235,"current_range_meters":9200,"station_id":"","pricing_plan_id":"cebpf4jnsgd1na2vs0mg"},{"bike_id":"e5251cd6-e823-4289-a11f-31bff8c3be08","system_id":"levelo_inurba_marseille","lat":43.30276,"lon":5.37693,"is_reserved":false,"is_disabled":false,"rental_uris":{"android":"levelo://app?vid=e5251cd6-e823-4289-a11f-31bff8c3be08","ios":"levelo://app?vid=e5251cd6-e823-4289-a11f-31bff8c3be08"},"vehicle_type_id":"4","last_reported":1766168235,"current_range_meters":9200,"station_id":"ce4bguh2rcd13ifvqcj0","pricing_plan_id":"cebpf4jnsgd1na2vs0mg"},{"bike_id":"a1d139da-aa9c-4e30-9d44-901eac3331bd","system_id":"levelo_inurba_marseille","lat":43.28408,"lon":5.37516,"is_reserved":false,"is_disabled":false,"rental_uris":{"android":"levelo://app?vid=a1d139da-aa9c-4e30-9d44-901eac3331bd","ios":"levelo://app?vid=a1d139da-aa9c-4e30-9d44-901eac3331bd"},"vehicle_type_id":"4","last_reported":1766168235,"current_range_meters":9200,"station_id":"ce4bh412rcd13ifvqds0","pricing_plan_id":"cebpf4jnsgd1na2vs0mg"},{"bike_id":"bd94b5a2-ec87-47ae-84fe-8ef76fb79e84","system_id":"levelo_inurba_marseille","lat":43.24465,"lon":5.42538,"is_reserved":false,"is_disabled":false,"rental_uris":{"android":"levelo://app?vid=bd94b5a2-ec87-47ae-84fe-8ef76fb79e84","ios":"levelo://app?vid=bd94b5a2-ec87-47ae-84fe-8ef76fb79e84"},"vehicle_type_id":"4","last_reported":1766168235,"current_range_meters":9200,"station_id":"st_d4a3vfp97mjs738cd8kg","pricing_plan_id":"cebpf4jnsgd1na2vs0mg"},{"bike_id":"212913cc-edbe-465e-9367-b63552bde39f","system_id":"levelo_inurba_marseille","lat":43.28993,"lon":5.35618,"is_reserved":false,"is_disabled":false,"rental_uris":{"android":"levelo://app?vid=212913cc-edbe-465e-9367-b63552bde39f","ios":"levelo://app?vid=212913cc-edbe-465e-9367-b63552bde39f"},"vehicle_type_id":"4","last_reported":1766168235,"current_range_meters":9600,"station_id":"ce4bhb92rcd13ifvqen0","pricing_plan_id":"cebpf4jnsgd1na2vs0mg"},{"bike_id":"a40607ee-16fd-4642-87fa-83ea32972688","system_id":"levelo_inurba_marseille","lat":43.26932,"lon":5.40257,"is_reserved":false,"is_disabled":false,"rental_uris":{"android":"levelo://app?vid=a40607ee-16fd-4642-87fa-83ea32972688","ios":"levelo://app?vid=a40607ee-16fd-4642-87fa-83ea32972688"},"vehicle_type_id":"4","last_reported":1766168235,"current_range_meters":9600,"station_id":"cjm6bp8fraef2m0cb0m0","pricing_plan_id":"cebpf4jnsgd1na2vs0mg"},{"bike_id":"700442f5-a082-454e-8bc7-ab3bbb77bfce","system_id":"levelo_inurba_marseille","lat":43.26661,"lon":5.37441,"is_reserved":false,"is_disabled":false,"rental_uris":{"android":"levelo://app?vid=700442f5-a082-454e-8bc7-ab3bbb77bfce","ios":"levelo://app?vid=700442f5-a082-454e-8bc7-ab3bbb77bfce"},"vehicle_type_id":"4","last_reported":1766168235,"current_range_meters":9600,"station_id":"","pricing_plan_id":"cebpf4jnsgd1na2vs0mg"},{"bike_id":"1552c843-657d-497c-b955-847720237f3c","system_id":"levelo_inurba_marseille","lat":43.28973,"lon":5.37843,"is_reserved":false,"is_disabled":true,"rental_uris":{"android":"levelo://app?vid=1552c843-657d-497c-b955-847720237f3c","ios":"levelo://app?vid=1552c843-657d-497c-b955-847720237f3c"},"vehicle_type_id":"4","last_reported":1766168235,"current_range_meters":9600,"station_id":"ce4bh9p2rcd13ifvqed0","pricing_plan_id":"cebpf4jnsgd1na2vs0mg"},{"bike_id":"1c79eb29-135e-40c1-8651-901759d4aaa6","system_id":"levelo_inurba_marseille","lat":43.2858,"lon":5.35297,"is_reserved":false,"is_disabled":false,"rental_uris":{"android":"levelo://app?vid=1c79eb29-135e-40c1-8651-901759d4aaa6","ios":"levelo://app?vid=1c79eb29-135e-40c1-8651-901759d4aaa6"},"vehicle_type_id":"4","last_reported":1766168235,"current_range_meters":10000,"station_id":"","pricing_plan_id":"cebpf4jnsgd1na2vs0mg"},{"bike_id":"86ffd166-9c1d-485d-8aea-9f66030c620d","system_id":"levelo_inurba_marseille","lat":43.25577,"lon":5.38234,"is_reserved":false,"is_disabled":false,"rental_uris":{"android":"levelo://app?vid=86ffd166-9c1d-485d-8aea-9f66030c620d","ios":"levelo://app?vid=86ffd166-9c1d-485d-8aea-9f66030c620d"},"vehicle_type_id":"4","last_reported":1766168235,"current_range_meters":10000,"station_id":"ce4bhih2rcd13ifvqfs0","pricing_plan_id":"cebpf4jnsgd1na2vs0mg"},{"bike_id":"ea42a270-3b7e-4605-a2c3-58de8f8d1765","system_id":"levelo_inurba_marseille","lat":43.29019,"lon":5.3862,"is_reserved":false,"is_disabled":false,"rental_uris":{"android":"levelo://app?vid=ea42a270-3b7e-4605-a2c3-58de8f8d1765","ios":"levelo://app?vid=ea42a270-3b7e-4605-a2c3-58de8f8d1765"},"vehicle_type_id":"4","last_reported":1766168235,"current_range_meters":10000,"station_id":"ce4bh4p2rcd13ifvqe0g","pricing_plan_id":"cebpf4jnsgd1na2vs0mg"},{"bike_id":"2bf98273-0fbd-4744-bdae-4cc48522d2ac","system_id":"levelo_inurba_marseille","lat":43.30141,"lon":5.39876,"is_reserved":false,"is_disabled":false,"rental_uris":{"android":"levelo://app?vid=2bf98273-0fbd-4744-bdae-4cc48522d2ac","ios":"levelo://app?vid=2bf98273-0fbd-4744-bdae-4cc48522d2ac"},"vehicle_type_id":"4","last_reported":1766168235,"current_range_meters":10000,"station_id":"ce4bh0h2rcd13ifvqd40","pricing_plan_id":"cebpf4jnsgd1na2vs0mg"},{"bike_id":"becc8465-62cf-4fbc-9660-72a1e8140727","system_id":"levelo_inurba_marseille","lat":43.28468,"lon":5.38432,"is_reserved":false,"is_disabled":false,"rental_uris":{"android":"levelo://app?vid=becc8465-62cf-4fbc-9660-72a1e8140727","ios":"levelo://app?vid=becc8465-62cf-4fbc-9660-72a1e8140727"},"vehicle_type_id":"4","last_reported":1766168235,"current_range_meters":10000,"station_id":"ce4bh512rcd13ifvqe3g","pricing_plan_id":"cebpf4jnsgd1na2vs0mg"},{"bike_id":"bd828d31-568e-480e-b065-1206e1b58d4e","system_id":"levelo_inurba_marseille","lat":43.22932,"lon":5.35371,"is_reserved":false,"is_disabled":false,"rental_uris":{"android":"levelo://app?vid=bd828d31-568e-480e-b065-1206e1b58d4e","ios":"levelo://app?vid=bd828d31-568e-480e-b065-1206e1b58d4e"},"vehicle_type_id":"4","last_reported":1766168235,"current_range_meters":10000,"station_id":"cpo3532slgdg3j2ikp40","pricing_plan_id":"cebpf4jnsgd1na2vs0mg"},{"bike_id":"51850788-6d18-4067-a22e-183a3dbd8b5e","system_id":"levelo_inurba_marseille","lat":43.28619,"lon":5.35093,"is_reserved":false,"is_disabled":false,"rental_uris":{"android":"levelo://app?vid=51850788-6d18-4067-a22e-183a3dbd8b5e","ios":"levelo://app?vid=51850788-6d18-4067-a22e-183a3dbd8b5e"},"vehicle_type_id":"4","last_reported":1766168235,"current_range_meters":10000,"station_id":"ce4bhch2rcd13ifvqeug","pricing_plan_id":"cebpf4jnsgd1na2vs0mg"},{"bike_id":"689e1e25-96b9-418c-bbe1-0e8f9558c52f","system_id":"levelo_inurba_marseille","lat":43.31381,"lon":5.37701,"is_reserved":false,"is_disabled":false,"rental_uris":{"android":"levelo://app?vid=689e1e25-96b9-418c-bbe1-0e8f9558c52f","ios":"levelo://app?vid=689e1e25-96b9-418c-bbe1-0e8f9558c52f"},"vehicle_type_id":"4","last_reported":1766168235,"current_range_meters":10000,"station_id":"","pricing_plan_id":"cebpf4jnsgd1na2vs0mg"},{"bike_id":"46a4fd6f-ef01-4568-8507-4abd64cd06a4","system_id":"levelo_inurba_marseille","lat":43.265,"lon":5.39547,"is_reserved":false,"is_disabled":false,"rental_uris":{"android":"levelo://app?vid=46a4fd6f-ef01-4568-8507-4abd64cd06a4","ios":"levelo://app?vid=46a4fd6f-ef01-4568-8507-4abd64cd06a4"},"vehicle_type_id":"4","last_reported":1766168235,"current_range_meters":10000,"station_id":"ce4bhi12rcd13ifvqfq0","pricing_plan_id":"cebpf4jnsgd1na2vs0mg"},{"bike_id":"6e6c324e-da9a-44b3-abb9-01f866125b0b","system_id":"levelo_inurba_marseille","lat":43.28487,"lon":5.38429,"is_reserved":false,"is_disabled":false,"rental_uris":{"android":"levelo://app?vid=6e6c324e-da9a-44b3-abb9-01f866125b0b","ios":"levelo://app?vid=6e6c324e-da9a-44b3-abb9-01f866125b0b"},"vehicle_type_id":"4","last_reported":1766168235,"current_range_meters":10800,"station_id":"ce4bh512rcd13ifvqe3g","pricing_plan_id":"cebpf4jnsgd1na2vs0mg"},{"bike_id":"38df2fd9-96c2-46a4-8b43-f60147b98b19","system_id":"levelo_inurba_marseille","lat":43.295929,"lon":5.380892,"is_reserved":false,"is_disabled":false,"rental_uris":{"android":"levelo://app?vid=38df2fd9-96c2-46a4-8b43-f60147b98b19","ios":"levelo://app?vid=38df2fd9-96c2-46a4-8b43-f60147b98b19"},"vehicle_type_id":"4","last_reported":1766168235,"current_range_meters":10800,"station_id":"ce4bgl12rcd13ifvqbo0","pricing_plan_id":"cebpf4jnsgd1na2vs0mg"},{"bike_id":"e0effb5a-e8c9-4234-ae32-e89cc890b254","system_id":"levelo_inurba_marseille","lat":43.28867,"lon":5.42528,"is_reserved":false,"is_disabled":false,"rental_uris":{"android":"levelo://app?vid=e0effb5a-e8c9-4234-ae32-e89cc890b254","ios":"levelo://app?vid=e0effb5a-e8c9-4234-ae32-e89cc890b254"},"vehicle_type_id":"4","last_reported":1766168235,"current_range_meters":10800,"station_id":"st_d3b462108ojc7389ooeg","pricing_plan_id":"cebpf4jnsgd1na2vs0mg"},{"bike_id":"2c2fb1c9-122d-415c-bc3d-e8eb37b932c7","system_id":"levelo_inurba_marseille","lat":43.29959,"lon":5.385,"is_reserved":false,"is_disabled":false,"rental_uris":{"android":"levelo://app?vid=2c2fb1c9-122d-415c-bc3d-e8eb37b932c7","ios":"levelo://app?vid=2c2fb1c9-122d-415c-bc3d-e8eb37b932c7"},"vehicle_type_id":"4","last_reported":1766168235,"current_range_meters":10800,"station_id":"ce4bgj92rcd13ifvqbd0","pricing_plan_id":"cebpf4jnsgd1na2vs0mg"},{"bike_id":"1c70b115-e95b-4353-a432-5565caadd1b0","system_id":"levelo_inurba_marseille","lat":43.28706,"lon":5.37394,"is_reserved":false,"is_disabled":false,"rental_uris":{"android":"levelo://app?vid=1c70b115-e95b-4353-a432-5565caadd1b0","ios":"levelo://app?vid=1c70b115-e95b-4353-a432-5565caadd1b0"},"vehicle_type_id":"4","last_reported":1766168235,"current_range_meters":10800,"station_id":"ce4bh3p2rcd13ifvqdq0","pricing_plan_id":"cebpf4jnsgd1na2vs0mg"},{"bike_id":"3b976b47-1cf0-42be-a203-8770b14ab416","system_id":"levelo_inurba_marseille","lat":43.29549,"lon":5.42276,"is_reserved":false,"is_disabled":false,"rental_uris":{"android":"levelo://app?vid=3b976b47-1cf0-42be-a203-8770b14ab416","ios":"levelo://app?vid=3b976b47-1cf0-42be-a203-8770b14ab416"},"vehicle_type_id":"4","last_reported":1766168235,"current_range_meters":11200,"station_id":"ce4bhph2rcd13ifvqhdg","pricing_plan_id":"cebpf4jnsgd1na2vs0mg"},{"bike_id":"e495d29a-33c3-4f7c-9186-85d0c6d2068e","system_id":"levelo_inurba_marseille","lat":43.296,"lon":5.38098,"is_reserved":false,"is_disabled":false,"rental_uris":{"android":"levelo://app?vid=e495d29a-33c3-4f7c-9186-85d0c6d2068e","ios":"levelo://app?vid=e495d29a-33c3-4f7c-9186-85d0c6d2068e"},"vehicle_type_id":"4","last_reported":1766168235,"current_range_meters":11200,"station_id":"ce4bgl12rcd13ifvqbo0","pricing_plan_id":"cebpf4jnsgd1na2vs0mg"},{"bike_id":"47b454cd-01f9-4de3-b129-3f7a7abb6370","system_id":"levelo_inurba_marseille","lat":43.29246,"lon":5.36037,"is_reserved":false,"is_disabled":false,"rental_uris":{"android":"levelo://app?vid=47b454cd-01f9-4de3-b129-3f7a7abb6370","ios":"levelo://app?vid=47b454cd-01f9-4de3-b129-3f7a7abb6370"},"vehicle_type_id":"4","last_reported":1766168235,"current_range_meters":11200,"station_id":"ce4bhbh2rcd13ifvqeqg","pricing_plan_id":"cebpf4jnsgd1na2vs0mg"},{"bike_id":"eace70d9-abc4-463e-ad30-564a1fb2f71d","system_id":"levelo_inurba_marseille","lat":43.2587,"lon":5.39897,"is_reserved":false,"is_disabled":false,"rental_uris":{"android":"levelo://app?vid=eace70d9-abc4-463e-ad30-564a1fb2f71d","ios":"levelo://app?vid=eace70d9-abc4-463e-ad30-564a1fb2f71d"},"vehicle_type_id":"4","last_reported":1766168235,"current_range_meters":11200,"station_id":"ce4bhl92rcd13ifvqghg","pricing_plan_id":"cebpf4jnsgd1na2vs0mg"},{"bike_id":"29ff8d65-fbca-42c1-b12e-cd4dc579808a","system_id":"levelo_inurba_marseille","lat":43.30172,"lon":5.37358,"is_reserved":false,"is_disabled":false,"rental_uris":{"android":"levelo://app?vid=29ff8d65-fbca-42c1-b12e-cd4dc579808a","ios":"levelo://app?vid=29ff8d65-fbca-42c1-b12e-cd4dc579808a"},"vehicle_type_id":"4","last_reported":1766168235,"current_range_meters":11200,"station_id":"","pricing_plan_id":"cebpf4jnsgd1na2vs0mg"},{"bike_id":"c0a3a8db-26e7-4eff-9dcf-c9cc1bfd4b0d","system_id":"levelo_inurba_marseille","lat":43.33036,"lon":5.39023,"is_reserved":false,"is_disabled":false,"rental_uris":{"android":"levelo://app?vid=c0a3a8db-26e7-4eff-9dcf-c9cc1bfd4b0d","ios":"levelo://app?vid=c0a3a8db-26e7-4eff-9dcf-c9cc1bfd4b0d"},"vehicle_type_id":"4","last_reported":1766168235,"current_range_meters":11200,"station_id":"ce4bhr92rcd13ifvqhrg","pricing_plan_id":"cebpf4jnsgd1na2vs0mg"},{"bike_id":"2804a5d3-faa8-4e3b-a458-ce91cd4919af","system_id":"levelo_inurba_marseille","lat":43.2922,"lon":5.36068,"is_reserved":false,"is_disabled":false,"rental_uris":{"android":"levelo://app?vid=2804a5d3-faa8-4e3b-a458-ce91cd4919af","ios":"levelo://app?vid=2804a5d3-faa8-4e3b-a458-ce91cd4919af"},"vehicle_type_id":"4","last_reported":1766168235,"current_range_meters":11200,"station_id":"ce4bhbh2rcd13ifvqeqg","pricing_plan_id":"cebpf4jnsgd1na2vs0mg"},{"bike_id":"353191d5-c85e-4d2b-8a88-8af8c037e499","system_id":"levelo_inurba_marseille","lat":43.30135,"lon":5.37419,"is_reserved":false,"is_disabled":false,"rental_uris":{"android":"levelo://app?vid=353191d5-c85e-4d2b-8a88-8af8c037e499","ios":"levelo://app?vid=353191d5-c85e-4d2b-8a88-8af8c037e499"},"vehicle_type_id":"4","last_reported":1766168235,"current_range_meters":11200,"station_id":"ce4bgs92rcd13ifvqcc0","pricing_plan_id":"cebpf4jnsgd1na2vs0mg"},{"bike_id":"7af3892c-ea33-46de-8f99-0e2a4b9abfc5","system_id":"levelo_inurba_marseille","lat":43.27908,"lon":5.38018,"is_reserved":false,"is_disabled":false,"rental_uris":{"android":"levelo://app?vid=7af3892c-ea33-46de-8f99-0e2a4b9abfc5","ios":"levelo://app?vid=7af3892c-ea33-46de-8f99-0e2a4b9abfc5"},"vehicle_type_id":"4","last_reported":1766168235,"current_range_meters":11200,"station_id":"ce4bhf92rcd13ifvqf50","pricing_plan_id":"cebpf4jnsgd1na2vs0mg"},{"bike_id":"ad2613ac-694a-4da1-936b-f66c7811a7eb","system_id":"levelo_inurba_marseille","lat":43.23175,"lon":5.39986,"is_reserved":false,"is_disabled":false,"rental_uris":{"android":"levelo://app?vid=ad2613ac-694a-4da1-936b-f66c7811a7eb","ios":"levelo://app?vid=ad2613ac-694a-4da1-936b-f66c7811a7eb"},"vehicle_type_id":"4","last_reported":1766168235,"current_range_meters":11200,"station_id":"ce4bhn12rcd13ifvqgqg","pricing_plan_id":"cebpf4jnsgd1na2vs0mg"},{"bike_id":"84b0495d-fbaf-4d6a-9501-86968f61d2ec","system_id":"levelo_inurba_marseille","lat":43.29262,"lon":5.38452,"is_reserved":false,"is_disabled":false,"rental_uris":{"android":"levelo://app?vid=84b0495d-fbaf-4d6a-9501-86968f61d2ec","ios":"levelo://app?vid=84b0495d-fbaf-4d6a-9501-86968f61d2ec"},"vehicle_type_id":"4","last_reported":1766168235,"current_range_meters":11200,"station_id":"ce4bh692rcd13ifvqea0","pricing_plan_id":"cebpf4jnsgd1na2vs0mg"},{"bike_id":"02cb24cc-e062-4b73-80fd-141f91a697f7","system_id":"levelo_inurba_marseille","lat":43.31578,"lon":5.37638,"is_reserved":false,"is_disabled":false,"rental_uris":{"android":"levelo://app?vid=02cb24cc-e062-4b73-80fd-141f91a697f7","ios":"levelo://app?vid=02cb24cc-e062-4b73-80fd-141f91a697f7"},"vehicle_type_id":"4","last_reported":1766168235,"current_range_meters":11200,"station_id":"","pricing_plan_id":"cebpf4jnsgd1na2vs0mg"},{"bike_id":"81cdd19c-9eb0-4b68-8437-f268e3e9b7c5","system_id":"levelo_inurba_marseille","lat":43.264972,"lon":5.395361,"is_reserved":false,"is_disabled":false,"rental_uris":{"android":"levelo://app?vid=81cdd19c-9eb0-4b68-8437-f268e3e9b7c5","ios":"levelo://app?vid=81cdd19c-9eb0-4b68-8437-f268e3e9b7c5"},"vehicle_type_id":"4","last_reported":1766168235,"current_range_meters":11600,"station_id":"ce4bhi12rcd13ifvqfq0","pricing_plan_id":"cebpf4jnsgd1na2vs0mg"},{"bike_id":"fcae12e9-dde1-430e-95a7-f5567d679aa5","system_id":"levelo_inurba_marseille","lat":43.29249,"lon":5.38442,"is_reserved":false,"is_disabled":true,"rental_uris":{"android":"levelo://app?vid=fcae12e9-dde1-430e-95a7-f5567d679aa5","ios":"levelo://app?vid=fcae12e9-dde1-430e-95a7-f5567d679aa5"},"vehicle_type_id":"4","last_reported":1766168235,"current_range_meters":11600,"station_id":"ce4bh692rcd13ifvqea0","pricing_plan_id":"cebpf4jnsgd1na2vs0mg"},{"bike_id":"0975e53f-e185-4b72-90be-199834ff3800","system_id":"levelo_inurba_marseille","lat":43.24805,"lon":5.37457,"is_reserved":false,"is_disabled":false,"rental_uris":{"android":"levelo://app?vid=0975e53f-e185-4b72-90be-199834ff3800","ios":"levelo://app?vid=0975e53f-e185-4b72-90be-199834ff3800"},"vehicle_type_id":"4","last_reported":1766168235,"current_range_meters":11600,"station_id":"ce4bhgh2rcd13ifvqfb0","pricing_plan_id":"cebpf4jnsgd1na2vs0mg"},{"bike_id":"128f68df-e6c8-471d-bf6e-3a9c347712de","system_id":"levelo_inurba_marseille","lat":43.29234,"lon":5.40898,"is_reserved":false,"is_disabled":false,"rental_uris":{"android":"levelo://app?vid=128f68df-e6c8-471d-bf6e-3a9c347712de","ios":"levelo://app?vid=128f68df-e6c8-471d-bf6e-3a9c347712de"},"vehicle_type_id":"4","last_reported":1766168235,"current_range_meters":11600,"station_id":"ce4bh192rcd13ifvqdc0","pricing_plan_id":"cebpf4jnsgd1na2vs0mg"},{"bike_id":"d4019682-44c3-455d-93b8-3f5cb1951937","system_id":"levelo_inurba_marseille","lat":43.26209,"lon":5.37457,"is_reserved":false,"is_disabled":false,"rental_uris":{"android":"levelo://app?vid=d4019682-44c3-455d-93b8-3f5cb1951937","ios":"levelo://app?vid=d4019682-44c3-455d-93b8-3f5cb1951937"},"vehicle_type_id":"4","last_reported":1766168235,"current_range_meters":11600,"station_id":"ce4bhgp2rcd13ifvqfc0","pricing_plan_id":"cebpf4jnsgd1na2vs0mg"},{"bike_id":"67486f1b-a40b-4e91-8dc3-2d661fa8d1bb","system_id":"levelo_inurba_marseille","lat":43.29217,"lon":5.36106,"is_reserved":false,"is_disabled":false,"rental_uris":{"android":"levelo://app?vid=67486f1b-a40b-4e91-8dc3-2d661fa8d1bb","ios":"levelo://app?vid=67486f1b-a40b-4e91-8dc3-2d661fa8d1bb"},"vehicle_type_id":"4","last_reported":1766168235,"current_range_meters":11600,"station_id":"ce4bhbh2rcd13ifvqeqg","pricing_plan_id":"cebpf4jnsgd1na2vs0mg"},{"bike_id":"42374d19-ac13-4769-80c6-dcc0742be19c","system_id":"levelo_inurba_marseille","lat":43.27995,"lon":5.40013,"is_reserved":false,"is_disabled":false,"rental_uris":{"android":"levelo://app?vid=42374d19-ac13-4769-80c6-dcc0742be19c","ios":"levelo://app?vid=42374d19-ac13-4769-80c6-dcc0742be19c"},"vehicle_type_id":"4","last_reported":1766168235,"current_range_meters":11600,"station_id":"ce4bho92rcd13ifvqh4g","pricing_plan_id":"cebpf4jnsgd1na2vs0mg"},{"bike_id":"a7bbbd6e-7f8d-4ada-9faf-bd626e8734a6","system_id":"levelo_inurba_marseille","lat":43.27925,"lon":5.41051,"is_reserved":false,"is_disabled":false,"rental_uris":{"android":"levelo://app?vid=a7bbbd6e-7f8d-4ada-9faf-bd626e8734a6","ios":"levelo://app?vid=a7bbbd6e-7f8d-4ada-9faf-bd626e8734a6"},"vehicle_type_id":"4","last_reported":1766168235,"current_range_meters":11600,"station_id":"ce4bhnp2rcd13ifvqh0g","pricing_plan_id":"cebpf4jnsgd1na2vs0mg"},{"bike_id":"d54651ee-52a6-40c2-8c73-798568414042","system_id":"levelo_inurba_marseille","lat":43.30145,"lon":5.38087,"is_reserved":false,"is_disabled":false,"rental_uris":{"android":"levelo://app?vid=d54651ee-52a6-40c2-8c73-798568414042","ios":"levelo://app?vid=d54651ee-52a6-40c2-8c73-798568414042"},"vehicle_type_id":"4","last_reported":1766168235,"current_range_meters":11600,"station_id":"ce4bgjp2rcd13ifvqbh0","pricing_plan_id":"cebpf4jnsgd1na2vs0mg"},{"bike_id":"8ca42c75-83fc-47f3-8798-7bc1fc1f198d","system_id":"levelo_inurba_marseille","lat":43.28865,"lon":5.42514,"is_reserved":false,"is_disabled":false,"rental_uris":{"android":"levelo://app?vid=8ca42c75-83fc-47f3-8798-7bc1fc1f198d","ios":"levelo://app?vid=8ca42c75-83fc-47f3-8798-7bc1fc1f198d"},"vehicle_type_id":"4","last_reported":1766168235,"current_range_meters":11600,"station_id":"st_d3b462108ojc7389ooeg","pricing_plan_id":"cebpf4jnsgd1na2vs0mg"},{"bike_id":"1017f5d5-831f-4635-a13b-f0e76b75735a","system_id":"levelo_inurba_marseille","lat":43.28569,"lon":5.39488,"is_reserved":false,"is_disabled":false,"rental_uris":{"android":"levelo://app?vid=1017f5d5-831f-4635-a13b-f0e76b75735a","ios":"levelo://app?vid=1017f5d5-831f-4635-a13b-f0e76b75735a"},"vehicle_type_id":"4","last_reported":1766168235,"current_range_meters":11600,"station_id":"ce4bh292rcd13ifvqdg0","pricing_plan_id":"cebpf4jnsgd1na2vs0mg"},{"bike_id":"6ec9a6be-eed9-4adb-a34f-9a64c85ea37b","system_id":"levelo_inurba_marseille","lat":43.30622,"lon":5.3757,"is_reserved":false,"is_disabled":false,"rental_uris":{"android":"levelo://app?vid=6ec9a6be-eed9-4adb-a34f-9a64c85ea37b","ios":"levelo://app?vid=6ec9a6be-eed9-4adb-a34f-9a64c85ea37b"},"vehicle_type_id":"4","last_reported":1766168235,"current_range_meters":11600,"station_id":"","pricing_plan_id":"cebpf4jnsgd1na2vs0mg"},{"bike_id":"c62b6609-da92-46f5-9d6c-3e90a163e668","system_id":"levelo_inurba_marseille","lat":43.28594,"lon":5.39871,"is_reserved":false,"is_disabled":false,"rental_uris":{"android":"levelo://app?vid=c62b6609-da92-46f5-9d6c-3e90a163e668","ios":"levelo://app?vid=c62b6609-da92-46f5-9d6c-3e90a163e668"},"vehicle_type_id":"4","last_reported":1766168235,"current_range_meters":11600,"station_id":"st_d4a7ka997mjs738ck50g","pricing_plan_id":"cebpf4jnsgd1na2vs0mg"},{"bike_id":"eca5adea-2eea-4514-87c5-9f7537704393","system_id":"levelo_inurba_marseille","lat":43.28855,"lon":5.3586,"is_reserved":false,"is_disabled":false,"rental_uris":{"android":"levelo://app?vid=eca5adea-2eea-4514-87c5-9f7537704393","ios":"levelo://app?vid=eca5adea-2eea-4514-87c5-9f7537704393"},"vehicle_type_id":"4","last_reported":1766168235,"current_range_meters":12000,"station_id":"ce4bhb12rcd13ifvqem0","pricing_plan_id":"cebpf4jnsgd1na2vs0mg"},{"bike_id":"a1fd8253-edff-49f6-95c0-f7c7da314418","system_id":"levelo_inurba_marseille","lat":43.29783,"lon":5.39344,"is_reserved":false,"is_disabled":false,"rental_uris":{"android":"levelo://app?vid=a1fd8253-edff-49f6-95c0-f7c7da314418","ios":"levelo://app?vid=a1fd8253-edff-49f6-95c0-f7c7da314418"},"vehicle_type_id":"4","last_reported":1766168235,"current_range_meters":12000,"station_id":"chh1huq6cuj3fo74tm60","pricing_plan_id":"cebpf4jnsgd1na2vs0mg"},{"bike_id":"8b855605-fef9-41eb-a3d5-fd3e5ff86f02","system_id":"levelo_inurba_marseille","lat":43.2845,"lon":5.35888,"is_reserved":false,"is_disabled":false,"rental_uris":{"android":"levelo://app?vid=8b855605-fef9-41eb-a3d5-fd3e5ff86f02","ios":"levelo://app?vid=8b855605-fef9-41eb-a3d5-fd3e5ff86f02"},"vehicle_type_id":"4","last_reported":1766168235,"current_range_meters":12000,"station_id":"ce4bhah2rcd13ifvqei0","pricing_plan_id":"cebpf4jnsgd1na2vs0mg"},{"bike_id":"ec878827-12e5-4713-9867-b8984649f211","system_id":"levelo_inurba_marseille","lat":43.29229,"lon":5.39332,"is_reserved":false,"is_disabled":false,"rental_uris":{"android":"levelo://app?vid=ec878827-12e5-4713-9867-b8984649f211","ios":"levelo://app?vid=ec878827-12e5-4713-9867-b8984649f211"},"vehicle_type_id":"4","last_reported":1766168235,"current_range_meters":12000,"station_id":"ce4bh192rcd13ifvqdd0","pricing_plan_id":"cebpf4jnsgd1na2vs0mg"},{"bike_id":"dcf784f4-8fb6-484a-a880-b53a6c3cae38","system_id":"levelo_inurba_marseille","lat":43.24474,"lon":5.42532,"is_reserved":false,"is_disabled":false,"rental_uris":{"android":"levelo://app?vid=dcf784f4-8fb6-484a-a880-b53a6c3cae38","ios":"levelo://app?vid=dcf784f4-8fb6-484a-a880-b53a6c3cae38"},"vehicle_type_id":"4","last_reported":1766168235,"current_range_meters":12000,"station_id":"st_d4a3vfp97mjs738cd8kg","pricing_plan_id":"cebpf4jnsgd1na2vs0mg"},{"bike_id":"bd17359c-e97f-4d38-bb18-e1dc2c64a854","system_id":"levelo_inurba_marseille","lat":43.291691,"lon":5.371527,"is_reserved":false,"is_disabled":false,"rental_uris":{"android":"levelo://app?vid=bd17359c-e97f-4d38-bb18-e1dc2c64a854","ios":"levelo://app?vid=bd17359c-e97f-4d38-bb18-e1dc2c64a854"},"vehicle_type_id":"4","last_reported":1766168235,"current_range_meters":12000,"station_id":"ce4bha92rcd13ifvqeh0","pricing_plan_id":"cebpf4jnsgd1na2vs0mg"},{"bike_id":"7d9e840e-df29-4c66-bae2-f0addd6b5f47","system_id":"levelo_inurba_marseille","lat":43.26202,"lon":5.37929,"is_reserved":false,"is_disabled":false,"rental_uris":{"android":"levelo://app?vid=7d9e840e-df29-4c66-bae2-f0addd6b5f47","ios":"levelo://app?vid=7d9e840e-df29-4c66-bae2-f0addd6b5f47"},"vehicle_type_id":"4","last_reported":1766168235,"current_range_meters":12000,"station_id":"ce4bhjp2rcd13ifvqg90","pricing_plan_id":"cebpf4jnsgd1na2vs0mg"},{"bike_id":"98c040ff-ac12-4358-bded-c79cb9358db9","system_id":"levelo_inurba_marseille","lat":43.317223,"lon":5.423912,"is_reserved":false,"is_disabled":false,"rental_uris":{"android":"levelo://app?vid=98c040ff-ac12-4358-bded-c79cb9358db9","ios":"levelo://app?vid=98c040ff-ac12-4358-bded-c79cb9358db9"},"vehicle_type_id":"4","last_reported":1766168235,"current_range_meters":12000,"station_id":"ce4bhp92rcd13ifvqhbg","pricing_plan_id":"cebpf4jnsgd1na2vs0mg"},{"bike_id":"fcd75001-1344-42ec-a013-2f4c6240ace8","system_id":"levelo_inurba_marseille","lat":43.29808,"lon":5.3864,"is_reserved":false,"is_disabled":false,"rental_uris":{"android":"levelo://app?vid=fcd75001-1344-42ec-a013-2f4c6240ace8","ios":"levelo://app?vid=fcd75001-1344-42ec-a013-2f4c6240ace8"},"vehicle_type_id":"4","last_reported":1766168235,"current_range_meters":12400,"station_id":"","pricing_plan_id":"cebpf4jnsgd1na2vs0mg"},{"bike_id":"00a29bb1-88ca-440d-9219-07d673c689ed","system_id":"levelo_inurba_marseille","lat":43.30474,"lon":5.3687,"is_reserved":false,"is_disabled":false,"rental_uris":{"android":"levelo://app?vid=00a29bb1-88ca-440d-9219-07d673c689ed","ios":"levelo://app?vid=00a29bb1-88ca-440d-9219-07d673c689ed"},"vehicle_type_id":"4","last_reported":1766168235,"current_range_meters":12400,"station_id":"","pricing_plan_id":"cebpf4jnsgd1na2vs0mg"},{"bike_id":"098f64f7-a762-4d21-b1a1-0516f8098225","system_id":"levelo_inurba_marseille","lat":43.27807,"lon":5.40709,"is_reserved":false,"is_disabled":false,"rental_uris":{"android":"levelo://app?vid=098f64f7-a762-4d21-b1a1-0516f8098225","ios":"levelo://app?vid=098f64f7-a762-4d21-b1a1-0516f8098225"},"vehicle_type_id":"4","last_reported":1766168235,"current_range_meters":12400,"station_id":"ce4bhnh2rcd13ifvqgtg","pricing_plan_id":"cebpf4jnsgd1na2vs0mg"},{"bike_id":"f76f9e4d-d309-41e5-bccd-e5b55b3c97ca","system_id":"levelo_inurba_marseille","lat":43.28608,"lon":5.35108,"is_reserved":false,"is_disabled":false,"rental_uris":{"android":"levelo://app?vid=f76f9e4d-d309-41e5-bccd-e5b55b3c97ca","ios":"levelo://app?vid=f76f9e4d-d309-41e5-bccd-e5b55b3c97ca"},"vehicle_type_id":"4","last_reported":1766168235,"current_range_meters":12400,"station_id":"ce4bhch2rcd13ifvqeug","pricing_plan_id":"cebpf4jnsgd1na2vs0mg"},{"bike_id":"1b5dbd7c-c63e-4ef4-99ed-0dfcb5187432","system_id":"levelo_inurba_marseille","lat":43.29037,"lon":5.38919,"is_reserved":false,"is_disabled":false,"rental_uris":{"android":"levelo://app?vid=1b5dbd7c-c63e-4ef4-99ed-0dfcb5187432","ios":"levelo://app?vid=1b5dbd7c-c63e-4ef4-99ed-0dfcb5187432"},"vehicle_type_id":"4","last_reported":1766168235,"current_range_meters":12400,"station_id":"","pricing_plan_id":"cebpf4jnsgd1na2vs0mg"},{"bike_id":"6d6785b8-abf6-439a-98fc-4e483b0e7118","system_id":"levelo_inurba_marseille","lat":43.29529,"lon":5.39039,"is_reserved":false,"is_disabled":false,"rental_uris":{"android":"levelo://app?vid=6d6785b8-abf6-439a-98fc-4e483b0e7118","ios":"levelo://app?vid=6d6785b8-abf6-439a-98fc-4e483b0e7118"},"vehicle_type_id":"4","last_reported":1766168235,"current_range_meters":12400,"station_id":"ce4bh3p2rcd13ifvqdp0","pricing_plan_id":"cebpf4jnsgd1na2vs0mg"},{"bike_id":"657677ff-bd0f-45b9-a985-0cee09b5fde2","system_id":"levelo_inurba_marseille","lat":43.31712,"lon":5.43698,"is_reserved":false,"is_disabled":false,"rental_uris":{"android":"levelo://app?vid=657677ff-bd0f-45b9-a985-0cee09b5fde2","ios":"levelo://app?vid=657677ff-bd0f-45b9-a985-0cee09b5fde2"},"vehicle_type_id":"4","last_reported":1766168235,"current_range_meters":12400,"station_id":"ce4bhp92rcd13ifvqhcg","pricing_plan_id":"cebpf4jnsgd1na2vs0mg"},{"bike_id":"342831ac-e927-49d6-8b43-22fa72e5bef8","system_id":"levelo_inurba_marseille","lat":43.28053,"lon":5.38724,"is_reserved":false,"is_disabled":false,"rental_uris":{"android":"levelo://app?vid=342831ac-e927-49d6-8b43-22fa72e5bef8","ios":"levelo://app?vid=342831ac-e927-49d6-8b43-22fa72e5bef8"},"vehicle_type_id":"4","last_reported":1766168235,"current_range_meters":12400,"station_id":"","pricing_plan_id":"cebpf4jnsgd1na2vs0mg"},{"bike_id":"5cfdf108-64c2-4b38-8628-9d012576cd8b","system_id":"levelo_inurba_marseille","lat":43.335405,"lon":5.374705,"is_reserved":false,"is_disabled":false,"rental_uris":{"android":"levelo://app?vid=5cfdf108-64c2-4b38-8628-9d012576cd8b","ios":"levelo://app?vid=5cfdf108-64c2-4b38-8628-9d012576cd8b"},"vehicle_type_id":"4","last_reported":1766168235,"current_range_meters":12400,"station_id":"st_d46tts09ee8s73dlu43g","pricing_plan_id":"cebpf4jnsgd1na2vs0mg"},{"bike_id":"b65a8a82-7e87-487b-9f66-f70a5627507b","system_id":"levelo_inurba_marseille","lat":43.29976,"lon":5.38488,"is_reserved":false,"is_disabled":false,"rental_uris":{"android":"levelo://app?vid=b65a8a82-7e87-487b-9f66-f70a5627507b","ios":"levelo://app?vid=b65a8a82-7e87-487b-9f66-f70a5627507b"},"vehicle_type_id":"4","last_reported":1766168235,"current_range_meters":12400,"station_id":"ce4bgj92rcd13ifvqbd0","pricing_plan_id":"cebpf4jnsgd1na2vs0mg"},{"bike_id":"ba9fe8c6-4957-472a-b244-289b264fea2c","system_id":"levelo_inurba_marseille","lat":43.27313,"lon":5.39081,"is_reserved":false,"is_disabled":false,"rental_uris":{"android":"levelo://app?vid=ba9fe8c6-4957-472a-b244-289b264fea2c","ios":"levelo://app?vid=ba9fe8c6-4957-472a-b244-289b264fea2c"},"vehicle_type_id":"4","last_reported":1766168235,"current_range_meters":12400,"station_id":"ce4bhgp2rcd13ifvqfe0","pricing_plan_id":"cebpf4jnsgd1na2vs0mg"},{"bike_id":"bbe6d64f-2cb1-409d-ba24-ff27de876e43","system_id":"levelo_inurba_marseille","lat":43.28531,"lon":5.44099,"is_reserved":false,"is_disabled":false,"rental_uris":{"android":"levelo://app?vid=bbe6d64f-2cb1-409d-ba24-ff27de876e43","ios":"levelo://app?vid=bbe6d64f-2cb1-409d-ba24-ff27de876e43"},"vehicle_type_id":"4","last_reported":1766168235,"current_range_meters":12800,"station_id":"st_d3j3df2ikq2c7380ej80","pricing_plan_id":"cebpf4jnsgd1na2vs0mg"},{"bike_id":"98e8603f-4e4f-4cf0-b8ec-344fa0a72cf1","system_id":"levelo_inurba_marseille","lat":43.25822,"lon":5.39424,"is_reserved":false,"is_disabled":false,"rental_uris":{"android":"levelo://app?vid=98e8603f-4e4f-4cf0-b8ec-344fa0a72cf1","ios":"levelo://app?vid=98e8603f-4e4f-4cf0-b8ec-344fa0a72cf1"},"vehicle_type_id":"4","last_reported":1766168235,"current_range_meters":12800,"station_id":"ce4bhip2rcd13ifvqft0","pricing_plan_id":"cebpf4jnsgd1na2vs0mg"},{"bike_id":"1e80a204-7357-4919-a1b8-d655b46214a5","system_id":"levelo_inurba_marseille","lat":43.32326,"lon":5.38844,"is_reserved":false,"is_disabled":false,"rental_uris":{"android":"levelo://app?vid=1e80a204-7357-4919-a1b8-d655b46214a5","ios":"levelo://app?vid=1e80a204-7357-4919-a1b8-d655b46214a5"},"vehicle_type_id":"4","last_reported":1766168235,"current_range_meters":12800,"station_id":"","pricing_plan_id":"cebpf4jnsgd1na2vs0mg"},{"bike_id":"5dc013a0-6d5f-425a-8554-3da4042bc007","system_id":"levelo_inurba_marseille","lat":43.22931,"lon":5.35369,"is_reserved":false,"is_disabled":false,"rental_uris":{"android":"levelo://app?vid=5dc013a0-6d5f-425a-8554-3da4042bc007","ios":"levelo://app?vid=5dc013a0-6d5f-425a-8554-3da4042bc007"},"vehicle_type_id":"4","last_reported":1766168235,"current_range_meters":12800,"station_id":"cpo3532slgdg3j2ikp40","pricing_plan_id":"cebpf4jnsgd1na2vs0mg"},{"bike_id":"0d9297ce-f2d0-4d3a-b34b-40c0d18a1dd9","system_id":"levelo_inurba_marseille","lat":43.22919,"lon":5.35374,"is_reserved":false,"is_disabled":true,"rental_uris":{"android":"levelo://app?vid=0d9297ce-f2d0-4d3a-b34b-40c0d18a1dd9","ios":"levelo://app?vid=0d9297ce-f2d0-4d3a-b34b-40c0d18a1dd9"},"vehicle_type_id":"4","last_reported":1766168235,"current_range_meters":12800,"station_id":"cpo3532slgdg3j2ikp40","pricing_plan_id":"cebpf4jnsgd1na2vs0mg"},{"bike_id":"0d303fc7-606f-4943-9629-57c31a744736","system_id":"levelo_inurba_marseille","lat":43.285348,"lon":5.440996,"is_reserved":false,"is_disabled":false,"rental_uris":{"android":"levelo://app?vid=0d303fc7-606f-4943-9629-57c31a744736","ios":"levelo://app?vid=0d303fc7-606f-4943-9629-57c31a744736"},"vehicle_type_id":"4","last_reported":1766168235,"current_range_meters":12800,"station_id":"st_d3j3df2ikq2c7380ej80","pricing_plan_id":"cebpf4jnsgd1na2vs0mg"},{"bike_id":"207776d7-b88e-48a6-b74f-2b1aae5e54c7","system_id":"levelo_inurba_marseille","lat":43.268961,"lon":5.387159,"is_reserved":false,"is_disabled":false,"rental_uris":{"android":"levelo://app?vid=207776d7-b88e-48a6-b74f-2b1aae5e54c7","ios":"levelo://app?vid=207776d7-b88e-48a6-b74f-2b1aae5e54c7"},"vehicle_type_id":"4","last_reported":1766168235,"current_range_meters":12800,"station_id":"","pricing_plan_id":"cebpf4jnsgd1na2vs0mg"},{"bike_id":"6dd02831-3476-40a3-9648-da8b220f9ce0","system_id":"levelo_inurba_marseille","lat":43.30166,"lon":5.38084,"is_reserved":false,"is_disabled":false,"rental_uris":{"android":"levelo://app?vid=6dd02831-3476-40a3-9648-da8b220f9ce0","ios":"levelo://app?vid=6dd02831-3476-40a3-9648-da8b220f9ce0"},"vehicle_type_id":"4","last_reported":1766168235,"current_range_meters":12800,"station_id":"ce4bgjp2rcd13ifvqbh0","pricing_plan_id":"cebpf4jnsgd1na2vs0mg"},{"bike_id":"bb67b255-5e37-444f-b7a3-316dd67e2430","system_id":"levelo_inurba_marseille","lat":43.29177,"lon":5.35789,"is_reserved":false,"is_disabled":false,"rental_uris":{"android":"levelo://app?vid=bb67b255-5e37-444f-b7a3-316dd67e2430","ios":"levelo://app?vid=bb67b255-5e37-444f-b7a3-316dd67e2430"},"vehicle_type_id":"4","last_reported":1766168235,"current_range_meters":12800,"station_id":"ce4bgh92rcd13ifvqb40","pricing_plan_id":"cebpf4jnsgd1na2vs0mg"},{"bike_id":"8ddf5f0b-8638-4227-b0ee-efe27c023df6","system_id":"levelo_inurba_marseille","lat":43.308014,"lon":5.381433,"is_reserved":false,"is_disabled":false,"rental_uris":{"android":"levelo://app?vid=8ddf5f0b-8638-4227-b0ee-efe27c023df6","ios":"levelo://app?vid=8ddf5f0b-8638-4227-b0ee-efe27c023df6"},"vehicle_type_id":"4","last_reported":1766168235,"current_range_meters":12800,"station_id":"ce4bgjp2rcd13ifvqbh0","pricing_plan_id":"cebpf4jnsgd1na2vs0mg"},{"bike_id":"8b9f1460-441f-4456-a6a1-898528165ba6","system_id":"levelo_inurba_marseille","lat":43.30146,"lon":5.37409,"is_reserved":false,"is_disabled":false,"rental_uris":{"android":"levelo://app?vid=8b9f1460-441f-4456-a6a1-898528165ba6","ios":"levelo://app?vid=8b9f1460-441f-4456-a6a1-898528165ba6"},"vehicle_type_id":"4","last_reported":1766168235,"current_range_meters":12800,"station_id":"ce4bgs92rcd13ifvqcc0","pricing_plan_id":"cebpf4jnsgd1na2vs0mg"},{"bike_id":"59c88d49-2334-4e61-b40e-b21da62bfbe7","system_id":"levelo_inurba_marseille","lat":43.26222,"lon":5.37432,"is_reserved":false,"is_disabled":false,"rental_uris":{"android":"levelo://app?vid=59c88d49-2334-4e61-b40e-b21da62bfbe7","ios":"levelo://app?vid=59c88d49-2334-4e61-b40e-b21da62bfbe7"},"vehicle_type_id":"4","last_reported":1766168235,"current_range_meters":12800,"station_id":"ce4bhgp2rcd13ifvqfc0","pricing_plan_id":"cebpf4jnsgd1na2vs0mg"},{"bike_id":"e0f84bae-cbb0-4084-a9dd-e2f11ef77ffa","system_id":"levelo_inurba_marseille","lat":43.310721,"lon":5.383563,"is_reserved":false,"is_disabled":false,"rental_uris":{"android":"levelo://app?vid=e0f84bae-cbb0-4084-a9dd-e2f11ef77ffa","ios":"levelo://app?vid=e0f84bae-cbb0-4084-a9dd-e2f11ef77ffa"},"vehicle_type_id":"4","last_reported":1766168235,"current_range_meters":12800,"station_id":"ce4bgv92rcd13ifvqcr0","pricing_plan_id":"cebpf4jnsgd1na2vs0mg"},{"bike_id":"76151313-8a7e-46c5-9974-b27c76769793","system_id":"levelo_inurba_marseille","lat":43.29033,"lon":5.38645,"is_reserved":false,"is_disabled":false,"rental_uris":{"android":"levelo://app?vid=76151313-8a7e-46c5-9974-b27c76769793","ios":"levelo://app?vid=76151313-8a7e-46c5-9974-b27c76769793"},"vehicle_type_id":"4","last_reported":1766168235,"current_range_meters":12800,"station_id":"ce4bh4p2rcd13ifvqe0g","pricing_plan_id":"cebpf4jnsgd1na2vs0mg"},{"bike_id":"d807ac16-d1e5-4c36-a58d-4108e65b29dc","system_id":"levelo_inurba_marseille","lat":43.29282,"lon":5.38434,"is_reserved":false,"is_disabled":false,"rental_uris":{"android":"levelo://app?vid=d807ac16-d1e5-4c36-a58d-4108e65b29dc","ios":"levelo://app?vid=d807ac16-d1e5-4c36-a58d-4108e65b29dc"},"vehicle_type_id":"4","last_reported":1766168235,"current_range_meters":12800,"station_id":"ce4bh692rcd13ifvqea0","pricing_plan_id":"cebpf4jnsgd1na2vs0mg"},{"bike_id":"32c5bc08-6a94-4a43-8576-96cdc19fcc71","system_id":"levelo_inurba_marseille","lat":43.2619,"lon":5.37447,"is_reserved":false,"is_disabled":false,"rental_uris":{"android":"levelo://app?vid=32c5bc08-6a94-4a43-8576-96cdc19fcc71","ios":"levelo://app?vid=32c5bc08-6a94-4a43-8576-96cdc19fcc71"},"vehicle_type_id":"4","last_reported":1766168235,"current_range_meters":12800,"station_id":"ce4bhgp2rcd13ifvqfc0","pricing_plan_id":"cebpf4jnsgd1na2vs0mg"},{"bike_id":"870377ec-f800-4f1c-b6fd-6ecea017ac73","system_id":"levelo_inurba_marseille","lat":43.29814,"lon":5.404,"is_reserved":false,"is_disabled":false,"rental_uris":{"android":"levelo://app?vid=870377ec-f800-4f1c-b6fd-6ecea017ac73","ios":"levelo://app?vid=870377ec-f800-4f1c-b6fd-6ecea017ac73"},"vehicle_type_id":"4","last_reported":1766168235,"current_range_meters":13600,"station_id":"ce4bh112rcd13ifvqd90","pricing_plan_id":"cebpf4jnsgd1na2vs0mg"},{"bike_id":"bac88a4d-041f-4cb3-9411-f4e99e0e2f13","system_id":"levelo_inurba_marseille","lat":43.26554,"lon":5.37288,"is_reserved":false,"is_disabled":false,"rental_uris":{"android":"levelo://app?vid=bac88a4d-041f-4cb3-9411-f4e99e0e2f13","ios":"levelo://app?vid=bac88a4d-041f-4cb3-9411-f4e99e0e2f13"},"vehicle_type_id":"4","last_reported":1766168235,"current_range_meters":13600,"station_id":"ce4bhg12rcd13ifvqf70","pricing_plan_id":"cebpf4jnsgd1na2vs0mg"},{"bike_id":"f1c6ef30-df40-4531-b632-19b3b8de3f93","system_id":"levelo_inurba_marseille","lat":43.337444,"lon":5.374475,"is_reserved":false,"is_disabled":false,"rental_uris":{"android":"levelo://app?vid=f1c6ef30-df40-4531-b632-19b3b8de3f93","ios":"levelo://app?vid=f1c6ef30-df40-4531-b632-19b3b8de3f93"},"vehicle_type_id":"4","last_reported":1766168235,"current_range_meters":13600,"station_id":"","pricing_plan_id":"cebpf4jnsgd1na2vs0mg"},{"bike_id":"9d74f9bd-c33e-4aba-863e-9a7db05ab2a4","system_id":"levelo_inurba_marseille","lat":43.29924,"lon":5.37462,"is_reserved":false,"is_disabled":false,"rental_uris":{"android":"levelo://app?vid=9d74f9bd-c33e-4aba-863e-9a7db05ab2a4","ios":"levelo://app?vid=9d74f9bd-c33e-4aba-863e-9a7db05ab2a4"},"vehicle_type_id":"4","last_reported":1766168235,"current_range_meters":13600,"station_id":"","pricing_plan_id":"cebpf4jnsgd1na2vs0mg"},{"bike_id":"bcb638ec-1f7a-45bb-913f-62a7a0a453a1","system_id":"levelo_inurba_marseille","lat":43.29857,"lon":5.38598,"is_reserved":false,"is_disabled":false,"rental_uris":{"android":"levelo://app?vid=bcb638ec-1f7a-45bb-913f-62a7a0a453a1","ios":"levelo://app?vid=bcb638ec-1f7a-45bb-913f-62a7a0a453a1"},"vehicle_type_id":"4","last_reported":1766168235,"current_range_meters":13600,"station_id":"","pricing_plan_id":"cebpf4jnsgd1na2vs0mg"},{"bike_id":"ca146c2e-28d6-4f35-80b1-efb3bde5d07a","system_id":"levelo_inurba_marseille","lat":43.26558,"lon":5.37284,"is_reserved":false,"is_disabled":false,"rental_uris":{"android":"levelo://app?vid=ca146c2e-28d6-4f35-80b1-efb3bde5d07a","ios":"levelo://app?vid=ca146c2e-28d6-4f35-80b1-efb3bde5d07a"},"vehicle_type_id":"4","last_reported":1766168235,"current_range_meters":13600,"station_id":"ce4bhg12rcd13ifvqf70","pricing_plan_id":"cebpf4jnsgd1na2vs0mg"},{"bike_id":"177fd090-0076-4f92-9832-62b1c96ea1ea","system_id":"levelo_inurba_marseille","lat":43.25326,"lon":5.42155,"is_reserved":false,"is_disabled":true,"rental_uris":{"android":"levelo://app?vid=177fd090-0076-4f92-9832-62b1c96ea1ea","ios":"levelo://app?vid=177fd090-0076-4f92-9832-62b1c96ea1ea"},"vehicle_type_id":"4","last_reported":1766168235,"current_range_meters":13600,"station_id":"st_d2m65c5bi1j21697t3ng","pricing_plan_id":"cebpf4jnsgd1na2vs0mg"},{"bike_id":"6147b2c8-629e-4457-b54b-c0dc21f0f0aa","system_id":"levelo_inurba_marseille","lat":43.30879,"lon":5.37198,"is_reserved":false,"is_disabled":true,"rental_uris":{"android":"levelo://app?vid=6147b2c8-629e-4457-b54b-c0dc21f0f0aa","ios":"levelo://app?vid=6147b2c8-629e-4457-b54b-c0dc21f0f0aa"},"vehicle_type_id":"4","last_reported":1766168235,"current_range_meters":13600,"station_id":"ce4bguh2rcd13ifvqckg","pricing_plan_id":"cebpf4jnsgd1na2vs0mg"},{"bike_id":"d6aa7683-b968-40d1-85ad-c97ee9a105df","system_id":"levelo_inurba_marseille","lat":43.2893,"lon":5.36635,"is_reserved":false,"is_disabled":false,"rental_uris":{"android":"levelo://app?vid=d6aa7683-b968-40d1-85ad-c97ee9a105df","ios":"levelo://app?vid=d6aa7683-b968-40d1-85ad-c97ee9a105df"},"vehicle_type_id":"4","last_reported":1766168235,"current_range_meters":13600,"station_id":"ce4bhap2rcd13ifvqek0","pricing_plan_id":"cebpf4jnsgd1na2vs0mg"},{"bike_id":"a3f40455-d46f-427e-bca5-15a6f3d71059","system_id":"levelo_inurba_marseille","lat":43.28488,"lon":5.38554,"is_reserved":false,"is_disabled":false,"rental_uris":{"android":"levelo://app?vid=a3f40455-d46f-427e-bca5-15a6f3d71059","ios":"levelo://app?vid=a3f40455-d46f-427e-bca5-15a6f3d71059"},"vehicle_type_id":"4","last_reported":1766168235,"current_range_meters":13600,"station_id":"ce4bh8p2rcd13ifvqeb0","pricing_plan_id":"cebpf4jnsgd1na2vs0mg"},{"bike_id":"63b71f61-0ce8-4f6b-8098-b32775a7e568","system_id":"levelo_inurba_marseille","lat":43.32122,"lon":5.36775,"is_reserved":false,"is_disabled":false,"rental_uris":{"android":"levelo://app?vid=63b71f61-0ce8-4f6b-8098-b32775a7e568","ios":"levelo://app?vid=63b71f61-0ce8-4f6b-8098-b32775a7e568"},"vehicle_type_id":"4","last_reported":1766168235,"current_range_meters":14000,"station_id":"ce4bhrh2rcd13ifvqhug","pricing_plan_id":"cebpf4jnsgd1na2vs0mg"},{"bike_id":"68b52151-88b1-4698-96c1-adf80b02a94c","system_id":"levelo_inurba_marseille","lat":43.2782,"lon":5.40693,"is_reserved":false,"is_disabled":false,"rental_uris":{"android":"levelo://app?vid=68b52151-88b1-4698-96c1-adf80b02a94c","ios":"levelo://app?vid=68b52151-88b1-4698-96c1-adf80b02a94c"},"vehicle_type_id":"4","last_reported":1766168235,"current_range_meters":14000,"station_id":"ce4bhnh2rcd13ifvqgtg","pricing_plan_id":"cebpf4jnsgd1na2vs0mg"},{"bike_id":"c5de4258-4031-466a-9775-36c3174bebef","system_id":"levelo_inurba_marseille","lat":43.291945,"lon":5.357915,"is_reserved":false,"is_disabled":false,"rental_uris":{"android":"levelo://app?vid=c5de4258-4031-466a-9775-36c3174bebef","ios":"levelo://app?vid=c5de4258-4031-466a-9775-36c3174bebef"},"vehicle_type_id":"4","last_reported":1766168235,"current_range_meters":14000,"station_id":"ce4bhb12rcd13ifvqel0","pricing_plan_id":"cebpf4jnsgd1na2vs0mg"},{"bike_id":"99ad97c1-5a83-4b1c-9cf1-08492f7d7210","system_id":"levelo_inurba_marseille","lat":43.29249,"lon":5.409,"is_reserved":false,"is_disabled":false,"rental_uris":{"android":"levelo://app?vid=99ad97c1-5a83-4b1c-9cf1-08492f7d7210","ios":"levelo://app?vid=99ad97c1-5a83-4b1c-9cf1-08492f7d7210"},"vehicle_type_id":"4","last_reported":1766168235,"current_range_meters":14000,"station_id":"ce4bh192rcd13ifvqdc0","pricing_plan_id":"cebpf4jnsgd1na2vs0mg"},{"bike_id":"49eaeb99-01db-4a25-87fd-cb6c87f1647c","system_id":"levelo_inurba_marseille","lat":43.30115,"lon":5.43107,"is_reserved":false,"is_disabled":false,"rental_uris":{"android":"levelo://app?vid=49eaeb99-01db-4a25-87fd-cb6c87f1647c","ios":"levelo://app?vid=49eaeb99-01db-4a25-87fd-cb6c87f1647c"},"vehicle_type_id":"4","last_reported":1766168235,"current_range_meters":14000,"station_id":"st_d3js3co5814s73ftftug","pricing_plan_id":"cebpf4jnsgd1na2vs0mg"},{"bike_id":"e18d88c4-447f-4613-ac8f-5a6e3bb9a21c","system_id":"levelo_inurba_marseille","lat":43.29814,"lon":5.440652,"is_reserved":false,"is_disabled":false,"rental_uris":{"android":"levelo://app?vid=e18d88c4-447f-4613-ac8f-5a6e3bb9a21c","ios":"levelo://app?vid=e18d88c4-447f-4613-ac8f-5a6e3bb9a21c"},"vehicle_type_id":"4","last_reported":1766168235,"current_range_meters":14000,"station_id":"st_d3jp68qikq2c7381ktn0","pricing_plan_id":"cebpf4jnsgd1na2vs0mg"},{"bike_id":"f7839686-7e1e-4ec1-b87e-d8478aa2b463","system_id":"levelo_inurba_marseille","lat":43.28703,"lon":5.3739,"is_reserved":false,"is_disabled":false,"rental_uris":{"android":"levelo://app?vid=f7839686-7e1e-4ec1-b87e-d8478aa2b463","ios":"levelo://app?vid=f7839686-7e1e-4ec1-b87e-d8478aa2b463"},"vehicle_type_id":"4","last_reported":1766168235,"current_range_meters":14000,"station_id":"ce4bh3p2rcd13ifvqdq0","pricing_plan_id":"cebpf4jnsgd1na2vs0mg"},{"bike_id":"8fcf17e9-6f12-40c5-b477-90499f0bb83c","system_id":"levelo_inurba_marseille","lat":43.337444,"lon":5.374475,"is_reserved":false,"is_disabled":false,"rental_uris":{"android":"levelo://app?vid=8fcf17e9-6f12-40c5-b477-90499f0bb83c","ios":"levelo://app?vid=8fcf17e9-6f12-40c5-b477-90499f0bb83c"},"vehicle_type_id":"4","last_reported":1766168235,"current_range_meters":14400,"station_id":"","pricing_plan_id":"cebpf4jnsgd1na2vs0mg"},{"bike_id":"eb1341ba-ba7e-4c28-827b-ac87efb87a9d","system_id":"levelo_inurba_marseille","lat":43.23768,"lon":5.36633,"is_reserved":false,"is_disabled":false,"rental_uris":{"android":"levelo://app?vid=eb1341ba-ba7e-4c28-827b-ac87efb87a9d","ios":"levelo://app?vid=eb1341ba-ba7e-4c28-827b-ac87efb87a9d"},"vehicle_type_id":"4","last_reported":1766168235,"current_range_meters":14400,"station_id":"st_d3nk18o9ro0c73en2l3g","pricing_plan_id":"cebpf4jnsgd1na2vs0mg"},{"bike_id":"960000b9-5f6a-4874-8ba2-61bf0329fc25","system_id":"levelo_inurba_marseille","lat":43.3064,"lon":5.40994,"is_reserved":false,"is_disabled":false,"rental_uris":{"android":"levelo://app?vid=960000b9-5f6a-4874-8ba2-61bf0329fc25","ios":"levelo://app?vid=960000b9-5f6a-4874-8ba2-61bf0329fc25"},"vehicle_type_id":"4","last_reported":1766168235,"current_range_meters":14400,"station_id":"","pricing_plan_id":"cebpf4jnsgd1na2vs0mg"},{"bike_id":"f2364b2e-178e-40c8-8681-6c34f1d777d6","system_id":"levelo_inurba_marseille","lat":43.30781,"lon":5.37638,"is_reserved":false,"is_disabled":false,"rental_uris":{"android":"levelo://app?vid=f2364b2e-178e-40c8-8681-6c34f1d777d6","ios":"levelo://app?vid=f2364b2e-178e-40c8-8681-6c34f1d777d6"},"vehicle_type_id":"4","last_reported":1766168235,"current_range_meters":14400,"station_id":"ce4bgv92rcd13ifvqcq0","pricing_plan_id":"cebpf4jnsgd1na2vs0mg"},{"bike_id":"d6d2bb3a-fbb7-4a3d-8530-972c5de173fe","system_id":"levelo_inurba_marseille","lat":43.231979,"lon":5.355559,"is_reserved":false,"is_disabled":false,"rental_uris":{"android":"levelo://app?vid=d6d2bb3a-fbb7-4a3d-8530-972c5de173fe","ios":"levelo://app?vid=d6d2bb3a-fbb7-4a3d-8530-972c5de173fe"},"vehicle_type_id":"4","last_reported":1766168235,"current_range_meters":14400,"station_id":"ce4bhu92rcd13ifvqi70","pricing_plan_id":"cebpf4jnsgd1na2vs0mg"},{"bike_id":"51404d31-c788-43bb-b121-1ee7cf7cede7","system_id":"levelo_inurba_marseille","lat":43.29277,"lon":5.40112,"is_reserved":false,"is_disabled":false,"rental_uris":{"android":"levelo://app?vid=51404d31-c788-43bb-b121-1ee7cf7cede7","ios":"levelo://app?vid=51404d31-c788-43bb-b121-1ee7cf7cede7"},"vehicle_type_id":"4","last_reported":1766168235,"current_range_meters":14400,"station_id":"ce4bh312rcd13ifvqdk0","pricing_plan_id":"cebpf4jnsgd1na2vs0mg"},{"bike_id":"06c5fccb-feb8-4ccd-ba7b-a53b73e5ec3a","system_id":"levelo_inurba_marseille","lat":43.269298,"lon":5.389245,"is_reserved":false,"is_disabled":false,"rental_uris":{"android":"levelo://app?vid=06c5fccb-feb8-4ccd-ba7b-a53b73e5ec3a","ios":"levelo://app?vid=06c5fccb-feb8-4ccd-ba7b-a53b73e5ec3a"},"vehicle_type_id":"4","last_reported":1766168235,"current_range_meters":14400,"station_id":"ce4bhhh2rcd13ifvqfl0","pricing_plan_id":"cebpf4jnsgd1na2vs0mg"},{"bike_id":"6244ba23-4432-4050-a6de-b074545c45d3","system_id":"levelo_inurba_marseille","lat":43.24169,"lon":5.36395,"is_reserved":false,"is_disabled":false,"rental_uris":{"android":"levelo://app?vid=6244ba23-4432-4050-a6de-b074545c45d3","ios":"levelo://app?vid=6244ba23-4432-4050-a6de-b074545c45d3"},"vehicle_type_id":"4","last_reported":1766168235,"current_range_meters":14400,"station_id":"cpo36qri1sfpv3e86is0","pricing_plan_id":"cebpf4jnsgd1na2vs0mg"},{"bike_id":"342f1aab-f383-4095-9af9-476f39ec27e6","system_id":"levelo_inurba_marseille","lat":43.22567,"lon":5.41611,"is_reserved":false,"is_disabled":false,"rental_uris":{"android":"levelo://app?vid=342f1aab-f383-4095-9af9-476f39ec27e6","ios":"levelo://app?vid=342f1aab-f383-4095-9af9-476f39ec27e6"},"vehicle_type_id":"4","last_reported":1766168235,"current_range_meters":14400,"station_id":"st_d2o4gvlbi1j2169b742g","pricing_plan_id":"cebpf4jnsgd1na2vs0mg"},{"bike_id":"c5ba46c7-d471-45a2-8890-87f7c5616d8c","system_id":"levelo_inurba_marseille","lat":43.31709,"lon":5.37722,"is_reserved":false,"is_disabled":false,"rental_uris":{"android":"levelo://app?vid=c5ba46c7-d471-45a2-8890-87f7c5616d8c","ios":"levelo://app?vid=c5ba46c7-d471-45a2-8890-87f7c5616d8c"},"vehicle_type_id":"4","last_reported":1766168235,"current_range_meters":14400,"station_id":"ce4bgth2rcd13ifvqch0","pricing_plan_id":"cebpf4jnsgd1na2vs0mg"},{"bike_id":"5aa6494d-0eee-4a3c-bc5e-0d25343561e5","system_id":"levelo_inurba_marseille","lat":43.27056,"lon":5.383,"is_reserved":false,"is_disabled":false,"rental_uris":{"android":"levelo://app?vid=5aa6494d-0eee-4a3c-bc5e-0d25343561e5","ios":"levelo://app?vid=5aa6494d-0eee-4a3c-bc5e-0d25343561e5"},"vehicle_type_id":"4","last_reported":1766168235,"current_range_meters":14400,"station_id":"st_d3n2fo6cfp8s73cte1j0","pricing_plan_id":"cebpf4jnsgd1na2vs0mg"},{"bike_id":"20e9dd8e-ed66-4bff-9188-35cbfde59a24","system_id":"levelo_inurba_marseille","lat":43.32323,"lon":5.39369,"is_reserved":false,"is_disabled":false,"rental_uris":{"android":"levelo://app?vid=20e9dd8e-ed66-4bff-9188-35cbfde59a24","ios":"levelo://app?vid=20e9dd8e-ed66-4bff-9188-35cbfde59a24"},"vehicle_type_id":"4","last_reported":1766168235,"current_range_meters":14400,"station_id":"","pricing_plan_id":"cebpf4jnsgd1na2vs0mg"},{"bike_id":"3d8062de-4bd0-49c7-86a6-7bf3b5df4845","system_id":"levelo_inurba_marseille","lat":43.28479,"lon":5.48398,"is_reserved":false,"is_disabled":false,"rental_uris":{"android":"levelo://app?vid=3d8062de-4bd0-49c7-86a6-7bf3b5df4845","ios":"levelo://app?vid=3d8062de-4bd0-49c7-86a6-7bf3b5df4845"},"vehicle_type_id":"4","last_reported":1766168235,"current_range_meters":14400,"station_id":"st_d3svhcjqgbts73a3dn0g","pricing_plan_id":"cebpf4jnsgd1na2vs0mg"},{"bike_id":"69c3f84c-538e-44ec-83d7-afeadec5cdfe","system_id":"levelo_inurba_marseille","lat":43.233588,"lon":5.399359,"is_reserved":false,"is_disabled":false,"rental_uris":{"android":"levelo://app?vid=69c3f84c-538e-44ec-83d7-afeadec5cdfe","ios":"levelo://app?vid=69c3f84c-538e-44ec-83d7-afeadec5cdfe"},"vehicle_type_id":"4","last_reported":1766168235,"current_range_meters":14400,"station_id":"","pricing_plan_id":"cebpf4jnsgd1na2vs0mg"},{"bike_id":"a5afd0b1-2733-40f7-93f5-1e02fc2d90a3","system_id":"levelo_inurba_marseille","lat":43.29038,"lon":5.37559,"is_reserved":false,"is_disabled":false,"rental_uris":{"android":"levelo://app?vid=a5afd0b1-2733-40f7-93f5-1e02fc2d90a3","ios":"levelo://app?vid=a5afd0b1-2733-40f7-93f5-1e02fc2d90a3"},"vehicle_type_id":"4","last_reported":1766168235,"current_range_meters":14400,"station_id":"ce4bh692rcd13ifvqe90","pricing_plan_id":"cebpf4jnsgd1na2vs0mg"},{"bike_id":"025bcf3c-9127-4e0c-b7ed-8709d35ce958","system_id":"levelo_inurba_marseille","lat":43.3178,"lon":5.37222,"is_reserved":false,"is_disabled":false,"rental_uris":{"android":"levelo://app?vid=025bcf3c-9127-4e0c-b7ed-8709d35ce958","ios":"levelo://app?vid=025bcf3c-9127-4e0c-b7ed-8709d35ce958"},"vehicle_type_id":"4","last_reported":1766168235,"current_range_meters":14800,"station_id":"","pricing_plan_id":"cebpf4jnsgd1na2vs0mg"},{"bike_id":"e9d58d1e-c5b2-41a8-b6ef-892cd112849c","system_id":"levelo_inurba_marseille","lat":43.30153,"lon":5.38094,"is_reserved":false,"is_disabled":false,"rental_uris":{"android":"levelo://app?vid=e9d58d1e-c5b2-41a8-b6ef-892cd112849c","ios":"levelo://app?vid=e9d58d1e-c5b2-41a8-b6ef-892cd112849c"},"vehicle_type_id":"4","last_reported":1766168235,"current_range_meters":14800,"station_id":"ce4bgjp2rcd13ifvqbh0","pricing_plan_id":"cebpf4jnsgd1na2vs0mg"},{"bike_id":"9e1886ee-5978-4b4e-a4ad-7b1a3973e38d","system_id":"levelo_inurba_marseille","lat":43.311717,"lon":5.387126,"is_reserved":false,"is_disabled":false,"rental_uris":{"android":"levelo://app?vid=9e1886ee-5978-4b4e-a4ad-7b1a3973e38d","ios":"levelo://app?vid=9e1886ee-5978-4b4e-a4ad-7b1a3973e38d"},"vehicle_type_id":"4","last_reported":1766168235,"current_range_meters":14800,"station_id":"ce4bgv12rcd13ifvqcp0","pricing_plan_id":"cebpf4jnsgd1na2vs0mg"},{"bike_id":"7a2810d9-a7a2-4f55-a626-e3338912c6bf","system_id":"levelo_inurba_marseille","lat":43.33741,"lon":5.37533,"is_reserved":false,"is_disabled":false,"rental_uris":{"android":"levelo://app?vid=7a2810d9-a7a2-4f55-a626-e3338912c6bf","ios":"levelo://app?vid=7a2810d9-a7a2-4f55-a626-e3338912c6bf"},"vehicle_type_id":"4","last_reported":1766168235,"current_range_meters":14800,"station_id":"","pricing_plan_id":"cebpf4jnsgd1na2vs0mg"},{"bike_id":"7c03507d-6bc5-4440-9110-2ce8a675d9a4","system_id":"levelo_inurba_marseille","lat":43.29195,"lon":5.35822,"is_reserved":false,"is_disabled":false,"rental_uris":{"android":"levelo://app?vid=7c03507d-6bc5-4440-9110-2ce8a675d9a4","ios":"levelo://app?vid=7c03507d-6bc5-4440-9110-2ce8a675d9a4"},"vehicle_type_id":"4","last_reported":1766168235,"current_range_meters":14800,"station_id":"ce4bhb12rcd13ifvqel0","pricing_plan_id":"cebpf4jnsgd1na2vs0mg"},{"bike_id":"909b09d3-b419-4f03-aeb1-f600126f511b","system_id":"levelo_inurba_marseille","lat":43.2949,"lon":5.43308,"is_reserved":false,"is_disabled":false,"rental_uris":{"android":"levelo://app?vid=909b09d3-b419-4f03-aeb1-f600126f511b","ios":"levelo://app?vid=909b09d3-b419-4f03-aeb1-f600126f511b"},"vehicle_type_id":"4","last_reported":1766168235,"current_range_meters":14800,"station_id":"st_d3j5ugp08ojc73fj9d10","pricing_plan_id":"cebpf4jnsgd1na2vs0mg"},{"bike_id":"ce634916-e630-4474-8c32-4b2bfe924f7f","system_id":"levelo_inurba_marseille","lat":43.24637,"lon":5.43135,"is_reserved":false,"is_disabled":false,"rental_uris":{"android":"levelo://app?vid=ce634916-e630-4474-8c32-4b2bfe924f7f","ios":"levelo://app?vid=ce634916-e630-4474-8c32-4b2bfe924f7f"},"vehicle_type_id":"4","last_reported":1766168235,"current_range_meters":14800,"station_id":"st_d2m6c4gdas8pm72e190g","pricing_plan_id":"cebpf4jnsgd1na2vs0mg"},{"bike_id":"b9fd6a3a-e5d4-452a-99d2-fbb6f9148990","system_id":"levelo_inurba_marseille","lat":43.29279,"lon":5.40138,"is_reserved":false,"is_disabled":false,"rental_uris":{"android":"levelo://app?vid=b9fd6a3a-e5d4-452a-99d2-fbb6f9148990","ios":"levelo://app?vid=b9fd6a3a-e5d4-452a-99d2-fbb6f9148990"},"vehicle_type_id":"4","last_reported":1766168235,"current_range_meters":14800,"station_id":"ce4bh312rcd13ifvqdk0","pricing_plan_id":"cebpf4jnsgd1na2vs0mg"},{"bike_id":"ff400a14-182c-4479-9723-f211d61c81db","system_id":"levelo_inurba_marseille","lat":43.319965,"lon":5.403867,"is_reserved":false,"is_disabled":false,"rental_uris":{"android":"levelo://app?vid=ff400a14-182c-4479-9723-f211d61c81db","ios":"levelo://app?vid=ff400a14-182c-4479-9723-f211d61c81db"},"vehicle_type_id":"4","last_reported":1766168235,"current_range_meters":14800,"station_id":"","pricing_plan_id":"cebpf4jnsgd1na2vs0mg"},{"bike_id":"d26729f5-210b-4096-acd6-99d477896379","system_id":"levelo_inurba_marseille","lat":43.25007,"lon":5.38912,"is_reserved":false,"is_disabled":false,"rental_uris":{"android":"levelo://app?vid=d26729f5-210b-4096-acd6-99d477896379","ios":"levelo://app?vid=d26729f5-210b-4096-acd6-99d477896379"},"vehicle_type_id":"4","last_reported":1766168235,"current_range_meters":14800,"station_id":"ce4bhgp2rcd13ifvqfd0","pricing_plan_id":"cebpf4jnsgd1na2vs0mg"},{"bike_id":"025b4a43-9c11-4504-9502-51f200349bee","system_id":"levelo_inurba_marseille","lat":43.23188,"lon":5.39961,"is_reserved":false,"is_disabled":false,"rental_uris":{"android":"levelo://app?vid=025b4a43-9c11-4504-9502-51f200349bee","ios":"levelo://app?vid=025b4a43-9c11-4504-9502-51f200349bee"},"vehicle_type_id":"4","last_reported":1766168235,"current_range_meters":14800,"station_id":"ce4bhn12rcd13ifvqgqg","pricing_plan_id":"cebpf4jnsgd1na2vs0mg"},{"bike_id":"a7287041-9fda-41b8-b6f1-3cc87120ceec","system_id":"levelo_inurba_marseille","lat":43.27946,"lon":5.41044,"is_reserved":false,"is_disabled":false,"rental_uris":{"android":"levelo://app?vid=a7287041-9fda-41b8-b6f1-3cc87120ceec","ios":"levelo://app?vid=a7287041-9fda-41b8-b6f1-3cc87120ceec"},"vehicle_type_id":"4","last_reported":1766168235,"current_range_meters":14800,"station_id":"ce4bhnp2rcd13ifvqh0g","pricing_plan_id":"cebpf4jnsgd1na2vs0mg"},{"bike_id":"d2a86950-00b0-4344-a51f-0dc364389c5b","system_id":"levelo_inurba_marseille","lat":43.289387,"lon":5.366334,"is_reserved":false,"is_disabled":true,"rental_uris":{"android":"levelo://app?vid=d2a86950-00b0-4344-a51f-0dc364389c5b","ios":"levelo://app?vid=d2a86950-00b0-4344-a51f-0dc364389c5b"},"vehicle_type_id":"4","last_reported":1766168235,"current_range_meters":15200,"station_id":"","pricing_plan_id":"cebpf4jnsgd1na2vs0mg"},{"bike_id":"d27ace84-1b48-49ff-ae4c-449095fae11b","system_id":"levelo_inurba_marseille","lat":43.24652,"lon":5.38862,"is_reserved":false,"is_disabled":false,"rental_uris":{"android":"levelo://app?vid=d27ace84-1b48-49ff-ae4c-449095fae11b","ios":"levelo://app?vid=d27ace84-1b48-49ff-ae4c-449095fae11b"},"vehicle_type_id":"4","last_reported":1766168235,"current_range_meters":15200,"station_id":"ce4bhg12rcd13ifvqf60","pricing_plan_id":"cebpf4jnsgd1na2vs0mg"},{"bike_id":"dd02578a-3ce3-4a5b-a150-72db34f2d7af","system_id":"levelo_inurba_marseille","lat":43.2815,"lon":5.42666,"is_reserved":false,"is_disabled":false,"rental_uris":{"android":"levelo://app?vid=dd02578a-3ce3-4a5b-a150-72db34f2d7af","ios":"levelo://app?vid=dd02578a-3ce3-4a5b-a150-72db34f2d7af"},"vehicle_type_id":"4","last_reported":1766168235,"current_range_meters":15200,"station_id":"ce4bhnh2rcd13ifvqgug","pricing_plan_id":"cebpf4jnsgd1na2vs0mg"},{"bike_id":"26f6d6a5-5821-4875-a164-33d619759de8","system_id":"levelo_inurba_marseille","lat":43.24156,"lon":5.36399,"is_reserved":false,"is_disabled":false,"rental_uris":{"android":"levelo://app?vid=26f6d6a5-5821-4875-a164-33d619759de8","ios":"levelo://app?vid=26f6d6a5-5821-4875-a164-33d619759de8"},"vehicle_type_id":"4","last_reported":1766168235,"current_range_meters":15200,"station_id":"cpo36qri1sfpv3e86is0","pricing_plan_id":"cebpf4jnsgd1na2vs0mg"},{"bike_id":"a82815af-9c08-4d56-b07b-f9e6b9b4868e","system_id":"levelo_inurba_marseille","lat":43.26027,"lon":5.3755,"is_reserved":false,"is_disabled":false,"rental_uris":{"android":"levelo://app?vid=a82815af-9c08-4d56-b07b-f9e6b9b4868e","ios":"levelo://app?vid=a82815af-9c08-4d56-b07b-f9e6b9b4868e"},"vehicle_type_id":"4","last_reported":1766168235,"current_range_meters":15200,"station_id":"ce4bhgh2rcd13ifvqfa0","pricing_plan_id":"cebpf4jnsgd1na2vs0mg"},{"bike_id":"78567a20-b1ed-46c4-a479-2ee451b65c20","system_id":"levelo_inurba_marseille","lat":43.29571,"lon":5.37522,"is_reserved":false,"is_disabled":false,"rental_uris":{"android":"levelo://app?vid=78567a20-b1ed-46c4-a479-2ee451b65c20","ios":"levelo://app?vid=78567a20-b1ed-46c4-a479-2ee451b65c20"},"vehicle_type_id":"4","last_reported":1766168235,"current_range_meters":15200,"station_id":"ce4bgh92rcd13ifvqb50","pricing_plan_id":"cebpf4jnsgd1na2vs0mg"},{"bike_id":"6bb7cf08-cc4f-43ae-aed3-8d6ab6b6c137","system_id":"levelo_inurba_marseille","lat":43.33155,"lon":5.37687,"is_reserved":false,"is_disabled":false,"rental_uris":{"android":"levelo://app?vid=6bb7cf08-cc4f-43ae-aed3-8d6ab6b6c137","ios":"levelo://app?vid=6bb7cf08-cc4f-43ae-aed3-8d6ab6b6c137"},"vehicle_type_id":"4","last_reported":1766168235,"current_range_meters":15200,"station_id":"st_d46cu089ee8s73dldbu0","pricing_plan_id":"cebpf4jnsgd1na2vs0mg"},{"bike_id":"49514e96-1bca-4f8f-ba2b-c4631e8071e0","system_id":"levelo_inurba_marseille","lat":43.30806,"lon":5.38151,"is_reserved":false,"is_disabled":false,"rental_uris":{"android":"levelo://app?vid=49514e96-1bca-4f8f-ba2b-c4631e8071e0","ios":"levelo://app?vid=49514e96-1bca-4f8f-ba2b-c4631e8071e0"},"vehicle_type_id":"4","last_reported":1766168235,"current_range_meters":15200,"station_id":"ce4bgt12rcd13ifvqce0","pricing_plan_id":"cebpf4jnsgd1na2vs0mg"},{"bike_id":"35d0a94b-284b-4953-8b68-d8de2267795a","system_id":"levelo_inurba_marseille","lat":43.27813,"lon":5.40724,"is_reserved":false,"is_disabled":false,"rental_uris":{"android":"levelo://app?vid=35d0a94b-284b-4953-8b68-d8de2267795a","ios":"levelo://app?vid=35d0a94b-284b-4953-8b68-d8de2267795a"},"vehicle_type_id":"4","last_reported":1766168235,"current_range_meters":15200,"station_id":"ce4bhnh2rcd13ifvqgtg","pricing_plan_id":"cebpf4jnsgd1na2vs0mg"},{"bike_id":"8580f57b-5aa3-4bcd-953e-6f28ee58972f","system_id":"levelo_inurba_marseille","lat":43.24641,"lon":5.43173,"is_reserved":false,"is_disabled":false,"rental_uris":{"android":"levelo://app?vid=8580f57b-5aa3-4bcd-953e-6f28ee58972f","ios":"levelo://app?vid=8580f57b-5aa3-4bcd-953e-6f28ee58972f"},"vehicle_type_id":"4","last_reported":1766168235,"current_range_meters":15200,"station_id":"st_d2m6c4gdas8pm72e190g","pricing_plan_id":"cebpf4jnsgd1na2vs0mg"},{"bike_id":"6f089e47-ead0-4dc6-89ea-3e3ab51578a0","system_id":"levelo_inurba_marseille","lat":43.25625,"lon":5.41783,"is_reserved":false,"is_disabled":false,"rental_uris":{"android":"levelo://app?vid=6f089e47-ead0-4dc6-89ea-3e3ab51578a0","ios":"levelo://app?vid=6f089e47-ead0-4dc6-89ea-3e3ab51578a0"},"vehicle_type_id":"4","last_reported":1766168235,"current_range_meters":15200,"station_id":"","pricing_plan_id":"cebpf4jnsgd1na2vs0mg"},{"bike_id":"7d7cd1a6-c729-482c-ae5b-9123613e01ec","system_id":"levelo_inurba_marseille","lat":43.23781,"lon":5.36614,"is_reserved":false,"is_disabled":false,"rental_uris":{"android":"levelo://app?vid=7d7cd1a6-c729-482c-ae5b-9123613e01ec","ios":"levelo://app?vid=7d7cd1a6-c729-482c-ae5b-9123613e01ec"},"vehicle_type_id":"4","last_reported":1766168235,"current_range_meters":15200,"station_id":"st_d3nk18o9ro0c73en2l3g","pricing_plan_id":"cebpf4jnsgd1na2vs0mg"},{"bike_id":"576f1f90-c184-4b62-a057-c35da25b7107","system_id":"levelo_inurba_marseille","lat":43.292633,"lon":5.384487,"is_reserved":false,"is_disabled":false,"rental_uris":{"android":"levelo://app?vid=576f1f90-c184-4b62-a057-c35da25b7107","ios":"levelo://app?vid=576f1f90-c184-4b62-a057-c35da25b7107"},"vehicle_type_id":"4","last_reported":1766168235,"current_range_meters":15200,"station_id":"ce4bh692rcd13ifvqea0","pricing_plan_id":"cebpf4jnsgd1na2vs0mg"},{"bike_id":"a6d1802e-f3fd-4947-bde0-c36a33c24799","system_id":"levelo_inurba_marseille","lat":43.27922,"lon":5.38051,"is_reserved":false,"is_disabled":true,"rental_uris":{"android":"levelo://app?vid=a6d1802e-f3fd-4947-bde0-c36a33c24799","ios":"levelo://app?vid=a6d1802e-f3fd-4947-bde0-c36a33c24799"},"vehicle_type_id":"4","last_reported":1766168235,"current_range_meters":16000,"station_id":"ce4bhf92rcd13ifvqf50","pricing_plan_id":"cebpf4jnsgd1na2vs0mg"},{"bike_id":"5300fe60-25c0-49d5-afb4-7974ca4a8ee5","system_id":"levelo_inurba_marseille","lat":43.29772,"lon":5.37095,"is_reserved":false,"is_disabled":false,"rental_uris":{"android":"levelo://app?vid=5300fe60-25c0-49d5-afb4-7974ca4a8ee5","ios":"levelo://app?vid=5300fe60-25c0-49d5-afb4-7974ca4a8ee5"},"vehicle_type_id":"4","last_reported":1766168235,"current_range_meters":16000,"station_id":"ce4bgop2rcd13ifvqc1g","pricing_plan_id":"cebpf4jnsgd1na2vs0mg"},{"bike_id":"e0011a5b-4330-4ab7-82d4-072f7e660e41","system_id":"levelo_inurba_marseille","lat":43.30686,"lon":5.38331,"is_reserved":false,"is_disabled":false,"rental_uris":{"android":"levelo://app?vid=e0011a5b-4330-4ab7-82d4-072f7e660e41","ios":"levelo://app?vid=e0011a5b-4330-4ab7-82d4-072f7e660e41"},"vehicle_type_id":"4","last_reported":1766168235,"current_range_meters":16000,"station_id":"","pricing_plan_id":"cebpf4jnsgd1na2vs0mg"},{"bike_id":"e38b8f28-f63b-4c54-b33c-3b917dffbe40","system_id":"levelo_inurba_marseille","lat":43.22543,"lon":5.34838,"is_reserved":false,"is_disabled":false,"rental_uris":{"android":"levelo://app?vid=e38b8f28-f63b-4c54-b33c-3b917dffbe40","ios":"levelo://app?vid=e38b8f28-f63b-4c54-b33c-3b917dffbe40"},"vehicle_type_id":"4","last_reported":1766168235,"current_range_meters":16000,"station_id":"","pricing_plan_id":"cebpf4jnsgd1na2vs0mg"},{"bike_id":"e854eef1-e631-49df-8024-94b8790f513f","system_id":"levelo_inurba_marseille","lat":43.30803,"lon":5.38154,"is_reserved":false,"is_disabled":false,"rental_uris":{"android":"levelo://app?vid=e854eef1-e631-49df-8024-94b8790f513f","ios":"levelo://app?vid=e854eef1-e631-49df-8024-94b8790f513f"},"vehicle_type_id":"4","last_reported":1766168235,"current_range_meters":16000,"station_id":"ce4bgt12rcd13ifvqce0","pricing_plan_id":"cebpf4jnsgd1na2vs0mg"},{"bike_id":"0c1f6896-cbd5-4c55-b68a-3cd9b92201dc","system_id":"levelo_inurba_marseille","lat":43.29898,"lon":5.43669,"is_reserved":false,"is_disabled":false,"rental_uris":{"android":"levelo://app?vid=0c1f6896-cbd5-4c55-b68a-3cd9b92201dc","ios":"levelo://app?vid=0c1f6896-cbd5-4c55-b68a-3cd9b92201dc"},"vehicle_type_id":"4","last_reported":1766168235,"current_range_meters":16000,"station_id":"ce4bhpp2rcd13ifvqhfg","pricing_plan_id":"cebpf4jnsgd1na2vs0mg"},{"bike_id":"86a076e4-0655-4e9f-aa4f-b3e2bc1ee4b9","system_id":"levelo_inurba_marseille","lat":43.30925,"lon":5.40141,"is_reserved":false,"is_disabled":false,"rental_uris":{"android":"levelo://app?vid=86a076e4-0655-4e9f-aa4f-b3e2bc1ee4b9","ios":"levelo://app?vid=86a076e4-0655-4e9f-aa4f-b3e2bc1ee4b9"},