{"last_updated":1734188907,"ttl":60,"version":"2.2","data":{"bikes":[{"bike_id":"45c22bfb-3859-46ca-bbdd-b43970628095","system_id":"levelo_inurba_marseille","lat":43.2321,"lon":5.40028,"is_reserved":false,"is_disabled":false,"rental_uris":{"android":"levelo://app?vid=45c22bfb-3859-46ca-bbdd-b43970628095","ios":"levelo://app?vid=45c22bfb-3859-46ca-bbdd-b43970628095"},"vehicle_type_id":"4","last_reported":1734188907,"current_range_meters":21600,"station_id":"ce4bhn12rcd13ifvqgqg","pricing_plan_id":"cebpf4jnsgd1na2vs0mg"},{"bike_id":"d59651c2-134a-4a72-8f57-e4742d9b3ff0","system_id":"levelo_inurba_marseille","lat":43.24164,"lon":5.36394,"is_reserved":false,"is_disabled":false,"rental_uris":{"android":"levelo://app?vid=d59651c2-134a-4a72-8f57-e4742d9b3ff0","ios":"levelo://app?vid=d59651c2-134a-4a72-8f57-e4742d9b3ff0"},"vehicle_type_id":"4","last_reported":1734188907,"current_range_meters":32000,"station_id":"cpo36qri1sfpv3e86is0","pricing_plan_id":"cebpf4jnsgd1na2vs0mg"},{"bike_id":"3bbd559a-b2c3-4665-9373-e5fb5a95a297","system_id":"levelo_inurba_marseille","lat":43.23202,"lon":5.35548,"is_reserved":false,"is_disabled":false,"rental_uris":{"android":"levelo://app?vid=3bbd559a-b2c3-4665-9373-e5fb5a95a297","ios":"levelo://app?vid=3bbd559a-b2c3-4665-9373-e5fb5a95a297"},"vehicle_type_id":"4","last_reported":1734188907,"current_range_meters":19200,"station_id":"ce4bhu92rcd13ifvqi70","pricing_plan_id":"cebpf4jnsgd1na2vs0mg"},{"bike_id":"548b71d6-57f8-4fef-ad05-d9f3c9d122d8","system_id":"levelo_inurba_marseille","lat":43.23144,"lon":5.43719,"is_reserved":false,"is_disabled":false,"rental_uris":{"android":"levelo://app?vid=548b71d6-57f8-4fef-ad05-d9f3c9d122d8","ios":"levelo://app?vid=548b71d6-57f8-4fef-ad05-d9f3c9d122d8"},"vehicle_type_id":"4","last_reported":1734188907,"current_range_meters":30400,"station_id":"ce4bhmp2rcd13ifvqgog","pricing_plan_id":"cebpf4jnsgd1na2vs0mg"},{"bike_id":"1aff9319-370b-4e25-9ade-8e1abf1e6aae","system_id":"levelo_inurba_marseille","lat":43.28415,"lon":5.34994,"is_reserved":false,"is_disabled":false,"rental_uris":{"android":"levelo://app?vid=1aff9319-370b-4e25-9ade-8e1abf1e6aae","ios":"levelo://app?vid=1aff9319-370b-4e25-9ade-8e1abf1e6aae"},"vehicle_type_id":"4","last_reported":1734188907,"current_range_meters":35600,"station_id":"ce4bhbh2rcd13ifvqepg","pricing_plan_id":"cebpf4jnsgd1na2vs0mg"},{"bike_id":"35642114-ba9f-4cd0-9d6f-a2edaa6e597b","system_id":"levelo_inurba_marseille","lat":43.30459,"lon":5.37896,"is_reserved":false,"is_disabled":false,"rental_uris":{"android":"levelo://app?vid=35642114-ba9f-4cd0-9d6f-a2edaa6e597b","ios":"levelo://app?vid=35642114-ba9f-4cd0-9d6f-a2edaa6e597b"},"vehicle_type_id":"4","last_reported":1734188907,"current_range_meters":12800,"station_id":"ce4bgup2rcd13ifvqcn0","pricing_plan_id":"cebpf4jnsgd1na2vs0mg"},{"bike_id":"10e5e65b-de24-4341-86b7-fc41ee764229","system_id":"levelo_inurba_marseille","lat":43.26944,"lon":5.4024,"is_reserved":false,"is_disabled":false,"rental_uris":{"android":"levelo://app?vid=10e5e65b-de24-4341-86b7-fc41ee764229","ios":"levelo://app?vid=10e5e65b-de24-4341-86b7-fc41ee764229"},"vehicle_type_id":"4","last_reported":1734188907,"current_range_meters":28800,"station_id":"cjm6bp8fraef2m0cb0m0","pricing_plan_id":"cebpf4jnsgd1na2vs0mg"},{"bike_id":"51753879-9dc9-4edb-a301-998c37afab5a","system_id":"levelo_inurba_marseille","lat":43.27945,"lon":5.41038,"is_reserved":false,"is_disabled":false,"rental_uris":{"android":"levelo://app?vid=51753879-9dc9-4edb-a301-998c37afab5a","ios":"levelo://app?vid=51753879-9dc9-4edb-a301-998c37afab5a"},"vehicle_type_id":"4","last_reported":1734188907,"current_range_meters":38800,"station_id":"ce4bhnp2rcd13ifvqh0g","pricing_plan_id":"cebpf4jnsgd1na2vs0mg"},{"bike_id":"c0494ea8-fa78-4c31-a61d-de0536f2688a","system_id":"levelo_inurba_marseille","lat":43.30534,"lon":5.36558,"is_reserved":false,"is_disabled":false,"rental_uris":{"android":"levelo://app?vid=c0494ea8-fa78-4c31-a61d-de0536f2688a","ios":"levelo://app?vid=c0494ea8-fa78-4c31-a61d-de0536f2688a"},"vehicle_type_id":"4","last_reported":1734188907,"current_range_meters":38800,"station_id":"ce4bgs12rcd13ifvqcag","pricing_plan_id":"cebpf4jnsgd1na2vs0mg"},{"bike_id":"212f1b13-d787-4daa-8e7d-ba4b7d8b6e8f","system_id":"levelo_inurba_marseille","lat":43.2695,"lon":5.40263,"is_reserved":false,"is_disabled":true,"rental_uris":{"android":"levelo://app?vid=212f1b13-d787-4daa-8e7d-ba4b7d8b6e8f","ios":"levelo://app?vid=212f1b13-d787-4daa-8e7d-ba4b7d8b6e8f"},"vehicle_type_id":"4","last_reported":1734188907,"current_range_meters":0,"station_id":"cjm6bp8fraef2m0cb0m0","pricing_plan_id":"cebpf4jnsgd1na2vs0mg"},{"bike_id":"35b6af69-78db-427f-85ff-88f7512e2553","system_id":"levelo_inurba_marseille","lat":43.28619,"lon":5.351,"is_reserved":false,"is_disabled":true,"rental_uris":{"android":"levelo://app?vid=35b6af69-78db-427f-85ff-88f7512e2553","ios":"levelo://app?vid=35b6af69-78db-427f-85ff-88f7512e2553"},"vehicle_type_id":"4","last_reported":1734188907,"current_range_meters":400,"station_id":"ce4bhch2rcd13ifvqeug","pricing_plan_id":"cebpf4jnsgd1na2vs0mg"},{"bike_id":"66201c9c-a7d8-4840-ad6c-05c74b675bbe","system_id":"levelo_inurba_marseille","lat":43.2737,"lon":5.39088,"is_reserved":false,"is_disabled":true,"rental_uris":{"android":"levelo://app?vid=66201c9c-a7d8-4840-ad6c-05c74b675bbe","ios":"levelo://app?vid=66201c9c-a7d8-4840-ad6c-05c74b675bbe"},"vehicle_type_id":"4","last_reported":1734188907,"current_range_meters":0,"station_id":"","pricing_plan_id":"cebpf4jnsgd1na2vs0mg"},{"bike_id":"3595e955-9243-4ebf-a4ff-5df2907e8d74","system_id":"levelo_inurba_marseille","lat":43.32347,"lon":5.37812,"is_reserved":false,"is_disabled":false,"rental_uris":{"android":"levelo://app?vid=3595e955-9243-4ebf-a4ff-5df2907e8d74","ios":"levelo://app?vid=3595e955-9243-4ebf-a4ff-5df2907e8d74"},"vehicle_type_id":"4","last_reported":1734188907,"current_range_meters":37600,"station_id":"ce4bhr12rcd13ifvqhqg","pricing_plan_id":"cebpf4jnsgd1na2vs0mg"},{"bike_id":"f5870998-173b-428d-84cb-b46b9e8f090e","system_id":"levelo_inurba_marseille","lat":43.30283,"lon":5.37695,"is_reserved":false,"is_disabled":false,"rental_uris":{"android":"levelo://app?vid=f5870998-173b-428d-84cb-b46b9e8f090e","ios":"levelo://app?vid=f5870998-173b-428d-84cb-b46b9e8f090e"},"vehicle_type_id":"4","last_reported":1734188907,"current_range_meters":30800,"station_id":"ce4bguh2rcd13ifvqcj0","pricing_plan_id":"cebpf4jnsgd1na2vs0mg"},{"bike_id":"80e5c1e3-8d27-43e3-9451-b00f65b301df","system_id":"levelo_inurba_marseille","lat":43.23184,"lon":5.35569,"is_reserved":false,"is_disabled":false,"rental_uris":{"android":"levelo://app?vid=80e5c1e3-8d27-43e3-9451-b00f65b301df","ios":"levelo://app?vid=80e5c1e3-8d27-43e3-9451-b00f65b301df"},"vehicle_type_id":"4","last_reported":1734188907,"current_range_meters":38800,"station_id":"ce4bhu92rcd13ifvqi70","pricing_plan_id":"cebpf4jnsgd1na2vs0mg"},{"bike_id":"496b9119-850a-49b3-bf98-295bb079ca7c","system_id":"levelo_inurba_marseille","lat":43.28192,"lon":5.44598,"is_reserved":false,"is_disabled":false,"rental_uris":{"android":"levelo://app?vid=496b9119-850a-49b3-bf98-295bb079ca7c","ios":"levelo://app?vid=496b9119-850a-49b3-bf98-295bb079ca7c"},"vehicle_type_id":"4","last_reported":1734188907,"current_range_meters":9600,"station_id":"","pricing_plan_id":"cebpf4jnsgd1na2vs0mg"},{"bike_id":"057c20b7-bf34-40df-bd6f-93a11afceebe","system_id":"levelo_inurba_marseille","lat":43.28002,"lon":5.41666,"is_reserved":false,"is_disabled":false,"rental_uris":{"android":"levelo://app?vid=057c20b7-bf34-40df-bd6f-93a11afceebe","ios":"levelo://app?vid=057c20b7-bf34-40df-bd6f-93a11afceebe"},"vehicle_type_id":"4","last_reported":1734188907,"current_range_meters":37600,"station_id":"ce4bho12rcd13ifvqh1g","pricing_plan_id":"cebpf4jnsgd1na2vs0mg"},{"bike_id":"a755fc7b-01b9-485c-81ef-a327d7e35cc0","system_id":"levelo_inurba_marseille","lat":43.32368,"lon":5.38884,"is_reserved":false,"is_disabled":false,"rental_uris":{"android":"levelo://app?vid=a755fc7b-01b9-485c-81ef-a327d7e35cc0","ios":"levelo://app?vid=a755fc7b-01b9-485c-81ef-a327d7e35cc0"},"vehicle_type_id":"4","last_reported":1734188907,"current_range_meters":6000,"station_id":"ce4bhqp2rcd13ifvqhog","pricing_plan_id":"cebpf4jnsgd1na2vs0mg"},{"bike_id":"88f2033b-7e30-4fec-967e-f2db67085ede","system_id":"levelo_inurba_marseille","lat":43.34133,"lon":5.40895,"is_reserved":false,"is_disabled":false,"rental_uris":{"android":"levelo://app?vid=88f2033b-7e30-4fec-967e-f2db67085ede","ios":"levelo://app?vid=88f2033b-7e30-4fec-967e-f2db67085ede"},"vehicle_type_id":"4","last_reported":1734188907,"current_range_meters":38800,"station_id":"ce4bhqh2rcd13ifvqhlg","pricing_plan_id":"cebpf4jnsgd1na2vs0mg"},{"bike_id":"bdda6ee3-6971-4411-b103-c17244046de0","system_id":"levelo_inurba_marseille","lat":43.27042,"lon":5.40269,"is_reserved":false,"is_disabled":false,"rental_uris":{"android":"levelo://app?vid=bdda6ee3-6971-4411-b103-c17244046de0","ios":"levelo://app?vid=bdda6ee3-6971-4411-b103-c17244046de0"},"vehicle_type_id":"4","last_reported":1734188907,"current_range_meters":5600,"station_id":"ce4bhk92rcd13ifvqgc0","pricing_plan_id":"cebpf4jnsgd1na2vs0mg"},{"bike_id":"13d480be-fda7-449f-a4f3-22bd31eb0905","system_id":"levelo_inurba_marseille","lat":43.27662,"lon":5.38913,"is_reserved":false,"is_disabled":false,"rental_uris":{"android":"levelo://app?vid=13d480be-fda7-449f-a4f3-22bd31eb0905","ios":"levelo://app?vid=13d480be-fda7-449f-a4f3-22bd31eb0905"},"vehicle_type_id":"4","last_reported":1734188907,"current_range_meters":14000,"station_id":"ce4bhi12rcd13ifvqfo0","pricing_plan_id":"cebpf4jnsgd1na2vs0mg"},{"bike_id":"d5c89c1f-3bad-4af2-9449-e04c277a4696","system_id":"levelo_inurba_marseille","lat":43.29976,"lon":5.41334,"is_reserved":false,"is_disabled":true,"rental_uris":{"android":"levelo://app?vid=d5c89c1f-3bad-4af2-9449-e04c277a4696","ios":"levelo://app?vid=d5c89c1f-3bad-4af2-9449-e04c277a4696"},"vehicle_type_id":"4","last_reported":1734188907,"current_range_meters":38400,"station_id":"ce4bhp12rcd13ifvqh9g","pricing_plan_id":"cebpf4jnsgd1na2vs0mg"},{"bike_id":"45838f01-cec9-4fa3-a5ba-fb830f9e1afb","system_id":"levelo_inurba_marseille","lat":43.27935,"lon":5.41042,"is_reserved":false,"is_disabled":false,"rental_uris":{"android":"levelo://app?vid=45838f01-cec9-4fa3-a5ba-fb830f9e1afb","ios":"levelo://app?vid=45838f01-cec9-4fa3-a5ba-fb830f9e1afb"},"vehicle_type_id":"4","last_reported":1734188907,"current_range_meters":22800,"station_id":"ce4bhnp2rcd13ifvqh0g","pricing_plan_id":"cebpf4jnsgd1na2vs0mg"},{"bike_id":"42d4d55b-6294-45b2-8848-60cdf232427e","system_id":"levelo_inurba_marseille","lat":43.27211,"lon":5.39176,"is_reserved":false,"is_disabled":false,"rental_uris":{"android":"levelo://app?vid=42d4d55b-6294-45b2-8848-60cdf232427e","ios":"levelo://app?vid=42d4d55b-6294-45b2-8848-60cdf232427e"},"vehicle_type_id":"4","last_reported":1734188907,"current_range_meters":35600,"station_id":"ce4bhhp2rcd13ifvqfm0","pricing_plan_id":"cebpf4jnsgd1na2vs0mg"},{"bike_id":"5dcb142e-3766-4e2c-b1fe-c9ebbc5d3c50","system_id":"levelo_inurba_marseille","lat":43.31995,"lon":5.38146,"is_reserved":false,"is_disabled":false,"rental_uris":{"android":"levelo://app?vid=5dcb142e-3766-4e2c-b1fe-c9ebbc5d3c50","ios":"levelo://app?vid=5dcb142e-3766-4e2c-b1fe-c9ebbc5d3c50"},"vehicle_type_id":"4","last_reported":1734188907,"current_range_meters":38800,"station_id":"ce4bhr12rcd13ifvqhpg","pricing_plan_id":"cebpf4jnsgd1na2vs0mg"},{"bike_id":"861d1a1b-c380-4d3c-a924-e0c08e4efb49","system_id":"levelo_inurba_marseille","lat":43.288536,"lon":5.35842,"is_reserved":false,"is_disabled":false,"rental_uris":{"android":"levelo://app?vid=861d1a1b-c380-4d3c-a924-e0c08e4efb49","ios":"levelo://app?vid=861d1a1b-c380-4d3c-a924-e0c08e4efb49"},"vehicle_type_id":"4","last_reported":1734188907,"current_range_meters":38800,"station_id":"ce4bhb12rcd13ifvqem0","pricing_plan_id":"cebpf4jnsgd1na2vs0mg"},{"bike_id":"a7b8257e-8dd8-4089-b34c-9c18012a63d0","system_id":"levelo_inurba_marseille","lat":43.23138,"lon":5.43713,"is_reserved":false,"is_disabled":false,"rental_uris":{"android":"levelo://app?vid=a7b8257e-8dd8-4089-b34c-9c18012a63d0","ios":"levelo://app?vid=a7b8257e-8dd8-4089-b34c-9c18012a63d0"},"vehicle_type_id":"4","last_reported":1734188907,"current_range_meters":23200,"station_id":"ce4bhmp2rcd13ifvqgog","pricing_plan_id":"cebpf4jnsgd1na2vs0mg"},{"bike_id":"3dc17317-86d6-4415-ae00-7484e955ef0c","system_id":"levelo_inurba_marseille","lat":43.27945,"lon":5.4105,"is_reserved":false,"is_disabled":false,"rental_uris":{"android":"levelo://app?vid=3dc17317-86d6-4415-ae00-7484e955ef0c","ios":"levelo://app?vid=3dc17317-86d6-4415-ae00-7484e955ef0c"},"vehicle_type_id":"4","last_reported":1734188907,"current_range_meters":23200,"station_id":"ce4bhnp2rcd13ifvqh0g","pricing_plan_id":"cebpf4jnsgd1na2vs0mg"},{"bike_id":"ba838ee3-c54d-4ede-b6cd-d1685e40e5d7","system_id":"levelo_inurba_marseille","lat":43.23204,"lon":5.39977,"is_reserved":false,"is_disabled":false,"rental_uris":{"android":"levelo://app?vid=ba838ee3-c54d-4ede-b6cd-d1685e40e5d7","ios":"levelo://app?vid=ba838ee3-c54d-4ede-b6cd-d1685e40e5d7"},"vehicle_type_id":"4","last_reported":1734188907,"current_range_meters":26800,"station_id":"ce4bhn12rcd13ifvqgqg","pricing_plan_id":"cebpf4jnsgd1na2vs0mg"},{"bike_id":"595ce88a-34cb-4990-9769-b15c51d16d43","system_id":"levelo_inurba_marseille","lat":43.29267,"lon":5.36838,"is_reserved":false,"is_disabled":false,"rental_uris":{"android":"levelo://app?vid=595ce88a-34cb-4990-9769-b15c51d16d43","ios":"levelo://app?vid=595ce88a-34cb-4990-9769-b15c51d16d43"},"vehicle_type_id":"4","last_reported":1734188907,"current_range_meters":38800,"station_id":"ce4bhbp2rcd13ifvqesg","pricing_plan_id":"cebpf4jnsgd1na2vs0mg"},{"bike_id":"babcce26-182e-40a8-80b7-a446fbaa82ee","system_id":"levelo_inurba_marseille","lat":43.297126,"lon":5.36615,"is_reserved":false,"is_disabled":false,"rental_uris":{"android":"levelo://app?vid=babcce26-182e-40a8-80b7-a446fbaa82ee","ios":"levelo://app?vid=babcce26-182e-40a8-80b7-a446fbaa82ee"},"vehicle_type_id":"4","last_reported":1734188907,"current_range_meters":29600,"station_id":"ce4bgn12rcd13ifvqbt0","pricing_plan_id":"cebpf4jnsgd1na2vs0mg"},{"bike_id":"9458dfdb-d483-4352-8ab2-d9872a7026e1","system_id":"levelo_inurba_marseille","lat":43.29636,"lon":5.40597,"is_reserved":true,"is_disabled":false,"rental_uris":{"android":"levelo://app?vid=9458dfdb-d483-4352-8ab2-d9872a7026e1","ios":"levelo://app?vid=9458dfdb-d483-4352-8ab2-d9872a7026e1"},"vehicle_type_id":"4","last_reported":1734188907,"current_range_meters":17600,"station_id":"ce4bh0h2rcd13ifvqd60","pricing_plan_id":"cebpf4jnsgd1na2vs0mg"},{"bike_id":"d73fd242-71d9-4951-a797-6f754b8a00c6","system_id":"levelo_inurba_marseille","lat":43.31311,"lon":5.36734,"is_reserved":false,"is_disabled":false,"rental_uris":{"android":"levelo://app?vid=d73fd242-71d9-4951-a797-6f754b8a00c6","ios":"levelo://app?vid=d73fd242-71d9-4951-a797-6f754b8a00c6"},"vehicle_type_id":"4","last_reported":1734188907,"current_range_meters":38000,"station_id":"ce4bh0p2rcd13ifvqd70","pricing_plan_id":"cebpf4jnsgd1na2vs0mg"},{"bike_id":"8b5e7f08-f016-4ee7-ba55-03ccb46add87","system_id":"levelo_inurba_marseille","lat":43.26776,"lon":5.39401,"is_reserved":false,"is_disabled":false,"rental_uris":{"android":"levelo://app?vid=8b5e7f08-f016-4ee7-ba55-03ccb46add87","ios":"levelo://app?vid=8b5e7f08-f016-4ee7-ba55-03ccb46add87"},"vehicle_type_id":"4","last_reported":1734188907,"current_range_meters":2800,"station_id":"ce4bhh12rcd13ifvqfg0","pricing_plan_id":"cebpf4jnsgd1na2vs0mg"},{"bike_id":"ff4dd77c-9815-4ceb-84fd-29a29009fea2","system_id":"levelo_inurba_marseille","lat":43.28603,"lon":5.37073,"is_reserved":false,"is_disabled":false,"rental_uris":{"android":"levelo://app?vid=ff4dd77c-9815-4ceb-84fd-29a29009fea2","ios":"levelo://app?vid=ff4dd77c-9815-4ceb-84fd-29a29009fea2"},"vehicle_type_id":"4","last_reported":1734188907,"current_range_meters":36400,"station_id":"ce4bht12rcd13ifvqi60","pricing_plan_id":"cebpf4jnsgd1na2vs0mg"},{"bike_id":"03b5181b-ee5d-41af-a65a-1b378d41fcda","system_id":"levelo_inurba_marseille","lat":43.29305,"lon":5.3718,"is_reserved":false,"is_disabled":false,"rental_uris":{"android":"levelo://app?vid=03b5181b-ee5d-41af-a65a-1b378d41fcda","ios":"levelo://app?vid=03b5181b-ee5d-41af-a65a-1b378d41fcda"},"vehicle_type_id":"4","last_reported":1734188907,"current_range_meters":37600,"station_id":"ce4bgh92rcd13ifvqb40","pricing_plan_id":"cebpf4jnsgd1na2vs0mg"},{"bike_id":"f25a6689-772f-4ee7-acc7-de3ee63fd7cc","system_id":"levelo_inurba_marseille","lat":43.32054,"lon":5.41533,"is_reserved":false,"is_disabled":false,"rental_uris":{"android":"levelo://app?vid=f25a6689-772f-4ee7-acc7-de3ee63fd7cc","ios":"levelo://app?vid=f25a6689-772f-4ee7-acc7-de3ee63fd7cc"},"vehicle_type_id":"4","last_reported":1734188907,"current_range_meters":6800,"station_id":"ce4bhq92rcd13ifvqhkg","pricing_plan_id":"cebpf4jnsgd1na2vs0mg"},{"bike_id":"2a715f19-ab5c-4800-bff4-26cfbf6de55e","system_id":"levelo_inurba_marseille","lat":43.28989,"lon":5.35608,"is_reserved":false,"is_disabled":false,"rental_uris":{"android":"levelo://app?vid=2a715f19-ab5c-4800-bff4-26cfbf6de55e","ios":"levelo://app?vid=2a715f19-ab5c-4800-bff4-26cfbf6de55e"},"vehicle_type_id":"4","last_reported":1734188907,"current_range_meters":21600,"station_id":"ce4bhb92rcd13ifvqen0","pricing_plan_id":"cebpf4jnsgd1na2vs0mg"},{"bike_id":"374b8c78-c612-482d-b5db-7451c70d7b3b","system_id":"levelo_inurba_marseille","lat":43.30552,"lon":5.36539,"is_reserved":false,"is_disabled":false,"rental_uris":{"android":"levelo://app?vid=374b8c78-c612-482d-b5db-7451c70d7b3b","ios":"levelo://app?vid=374b8c78-c612-482d-b5db-7451c70d7b3b"},"vehicle_type_id":"4","last_reported":1734188907,"current_range_meters":24400,"station_id":"ce4bgs12rcd13ifvqcag","pricing_plan_id":"cebpf4jnsgd1na2vs0mg"},{"bike_id":"51777b59-d4d3-426a-bd98-e9bc3f1b51f9","system_id":"levelo_inurba_marseille","lat":43.29048,"lon":5.35904,"is_reserved":false,"is_disabled":false,"rental_uris":{"android":"levelo://app?vid=51777b59-d4d3-426a-bd98-e9bc3f1b51f9","ios":"levelo://app?vid=51777b59-d4d3-426a-bd98-e9bc3f1b51f9"},"vehicle_type_id":"4","last_reported":1734188907,"current_range_meters":38800,"station_id":"ce4bha92rcd13ifvqeg0","pricing_plan_id":"cebpf4jnsgd1na2vs0mg"},{"bike_id":"edaea664-24e0-4d6c-aa7a-497f5c5f88f6","system_id":"levelo_inurba_marseille","lat":43.27008,"lon":5.39139,"is_reserved":false,"is_disabled":true,"rental_uris":{"android":"levelo://app?vid=edaea664-24e0-4d6c-aa7a-497f5c5f88f6","ios":"levelo://app?vid=edaea664-24e0-4d6c-aa7a-497f5c5f88f6"},"vehicle_type_id":"4","last_reported":1734188907,"current_range_meters":0,"station_id":"","pricing_plan_id":"cebpf4jnsgd1na2vs0mg"},{"bike_id":"883098e9-339a-4b81-a58c-fd4150694954","system_id":"levelo_inurba_marseille","lat":43.317123,"lon":5.437087,"is_reserved":false,"is_disabled":true,"rental_uris":{"android":"levelo://app?vid=883098e9-339a-4b81-a58c-fd4150694954","ios":"levelo://app?vid=883098e9-339a-4b81-a58c-fd4150694954"},"vehicle_type_id":"4","last_reported":1734188907,"current_range_meters":0,"station_id":"ce4bhp92rcd13ifvqhcg","pricing_plan_id":"cebpf4jnsgd1na2vs0mg"},{"bike_id":"7bc6fe95-93d6-4e3b-8e73-8cf52b19cebb","system_id":"levelo_inurba_marseille","lat":43.26798,"lon":5.40236,"is_reserved":false,"is_disabled":false,"rental_uris":{"android":"levelo://app?vid=7bc6fe95-93d6-4e3b-8e73-8cf52b19cebb","ios":"levelo://app?vid=7bc6fe95-93d6-4e3b-8e73-8cf52b19cebb"},"vehicle_type_id":"4","last_reported":1734188907,"current_range_meters":35600,"station_id":"ce501612rcd8frsf0b60","pricing_plan_id":"cebpf4jnsgd1na2vs0mg"},{"bike_id":"ecd12866-479d-43ad-b638-14a85f53f08e","system_id":"levelo_inurba_marseille","lat":43.30151,"lon":5.38085,"is_reserved":false,"is_disabled":false,"rental_uris":{"android":"levelo://app?vid=ecd12866-479d-43ad-b638-14a85f53f08e","ios":"levelo://app?vid=ecd12866-479d-43ad-b638-14a85f53f08e"},"vehicle_type_id":"4","last_reported":1734188907,"current_range_meters":39200,"station_id":"ce4bgjp2rcd13ifvqbh0","pricing_plan_id":"cebpf4jnsgd1na2vs0mg"},{"bike_id":"1213dac0-beb5-4406-9909-b171083ee360","system_id":"levelo_inurba_marseille","lat":43.27496,"lon":5.4245,"is_reserved":false,"is_disabled":false,"rental_uris":{"android":"levelo://app?vid=1213dac0-beb5-4406-9909-b171083ee360","ios":"levelo://app?vid=1213dac0-beb5-4406-9909-b171083ee360"},"vehicle_type_id":"4","last_reported":1734188907,"current_range_meters":8400,"station_id":"ce4bhn92rcd13ifvqgrg","pricing_plan_id":"cebpf4jnsgd1na2vs0mg"},{"bike_id":"10080bec-3f49-4155-8924-03f9792a2d09","system_id":"levelo_inurba_marseille","lat":43.30357,"lon":5.41881,"is_reserved":false,"is_disabled":true,"rental_uris":{"android":"levelo://app?vid=10080bec-3f49-4155-8924-03f9792a2d09","ios":"levelo://app?vid=10080bec-3f49-4155-8924-03f9792a2d09"},"vehicle_type_id":"4","last_reported":1734188907,"current_range_meters":0,"station_id":"ce4bhop2rcd13ifvqh7g","pricing_plan_id":"cebpf4jnsgd1na2vs0mg"},{"bike_id":"6bfacb51-2580-4ccf-9aa3-c8ac17392142","system_id":"levelo_inurba_marseille","lat":43.33609,"lon":5.40994,"is_reserved":false,"is_disabled":false,"rental_uris":{"android":"levelo://app?vid=6bfacb51-2580-4ccf-9aa3-c8ac17392142","ios":"levelo://app?vid=6bfacb51-2580-4ccf-9aa3-c8ac17392142"},"vehicle_type_id":"4","last_reported":1734188907,"current_range_meters":38800,"station_id":"ce4bhqh2rcd13ifvqhmg","pricing_plan_id":"cebpf4jnsgd1na2vs0mg"},{"bike_id":"4fe5b802-6d4a-478f-80f7-e4f6837b7ef9","system_id":"levelo_inurba_marseille","lat":43.26942,"lon":5.40249,"is_reserved":false,"is_disabled":true,"rental_uris":{"android":"levelo://app?vid=4fe5b802-6d4a-478f-80f7-e4f6837b7ef9","ios":"levelo://app?vid=4fe5b802-6d4a-478f-80f7-e4f6837b7ef9"},"vehicle_type_id":"4","last_reported":1734188907,"current_range_meters":0,"station_id":"cjm6bp8fraef2m0cb0m0","pricing_plan_id":"cebpf4jnsgd1na2vs0mg"},{"bike_id":"42cb90ed-410c-4b48-987a-e4a7f92c135c","system_id":"levelo_inurba_marseille","lat":43.23959,"lon":5.36626,"is_reserved":false,"is_disabled":false,"rental_uris":{"android":"levelo://app?vid=42cb90ed-410c-4b48-987a-e4a7f92c135c","ios":"levelo://app?vid=42cb90ed-410c-4b48-987a-e4a7f92c135c"},"vehicle_type_id":"4","last_reported":1734188907,"current_range_meters":34000,"station_id":"ce4bhi12rcd13ifvqfp0","pricing_plan_id":"cebpf4jnsgd1na2vs0mg"},{"bike_id":"f7203615-5bf1-4277-84d7-790b41a9c19d","system_id":"levelo_inurba_marseille","lat":43.29099,"lon":5.38134,"is_reserved":false,"is_disabled":false,"rental_uris":{"android":"levelo://app?vid=f7203615-5bf1-4277-84d7-790b41a9c19d","ios":"levelo://app?vid=f7203615-5bf1-4277-84d7-790b41a9c19d"},"vehicle_type_id":"4","last_reported":1734188907,"current_range_meters":18000,"station_id":"ce4bh512rcd13ifvqe2g","pricing_plan_id":"cebpf4jnsgd1na2vs0mg"},{"bike_id":"fd4efec3-03a9-456d-9f3e-04aeb194cc68","system_id":"levelo_inurba_marseille","lat":43.25819,"lon":5.39417,"is_reserved":false,"is_disabled":false,"rental_uris":{"android":"levelo://app?vid=fd4efec3-03a9-456d-9f3e-04aeb194cc68","ios":"levelo://app?vid=fd4efec3-03a9-456d-9f3e-04aeb194cc68"},"vehicle_type_id":"4","last_reported":1734188907,"current_range_meters":36800,"station_id":"ce4bhip2rcd13ifvqft0","pricing_plan_id":"cebpf4jnsgd1na2vs0mg"},{"bike_id":"9e25212c-cbb7-4bbb-b0ef-530024be3d7e","system_id":"levelo_inurba_marseille","lat":43.32484,"lon":5.36564,"is_reserved":false,"is_disabled":false,"rental_uris":{"android":"levelo://app?vid=9e25212c-cbb7-4bbb-b0ef-530024be3d7e","ios":"levelo://app?vid=9e25212c-cbb7-4bbb-b0ef-530024be3d7e"},"vehicle_type_id":"4","last_reported":1734188907,"current_range_meters":38800,"station_id":"ce4bhs12rcd13ifvqhvg","pricing_plan_id":"cebpf4jnsgd1na2vs0mg"},{"bike_id":"598cd91e-5725-4aa4-92f6-620ea21032c5","system_id":"levelo_inurba_marseille","lat":43.30463,"lon":5.37907,"is_reserved":false,"is_disabled":false,"rental_uris":{"android":"levelo://app?vid=598cd91e-5725-4aa4-92f6-620ea21032c5","ios":"levelo://app?vid=598cd91e-5725-4aa4-92f6-620ea21032c5"},"vehicle_type_id":"4","last_reported":1734188907,"current_range_meters":34800,"station_id":"ce4bgup2rcd13ifvqcn0","pricing_plan_id":"cebpf4jnsgd1na2vs0mg"},{"bike_id":"adc4ecf9-5f4c-49e0-915f-2787f3778b82","system_id":"levelo_inurba_marseille","lat":43.32284,"lon":5.38263,"is_reserved":false,"is_disabled":false,"rental_uris":{"android":"levelo://app?vid=adc4ecf9-5f4c-49e0-915f-2787f3778b82","ios":"levelo://app?vid=adc4ecf9-5f4c-49e0-915f-2787f3778b82"},"vehicle_type_id":"4","last_reported":1734188907,"current_range_meters":38000,"station_id":"ce4bhr12rcd13ifvqhqg","pricing_plan_id":"cebpf4jnsgd1na2vs0mg"},{"bike_id":"a808f243-961e-44dd-946f-ff4736c2e73a","system_id":"levelo_inurba_marseille","lat":43.29379,"lon":5.3786,"is_reserved":false,"is_disabled":false,"rental_uris":{"android":"levelo://app?vid=a808f243-961e-44dd-946f-ff4736c2e73a","ios":"levelo://app?vid=a808f243-961e-44dd-946f-ff4736c2e73a"},"vehicle_type_id":"4","last_reported":1734188907,"current_range_meters":3600,"station_id":"ce4bgjh2rcd13ifvqbf0","pricing_plan_id":"cebpf4jnsgd1na2vs0mg"},{"bike_id":"73542498-146c-426d-a081-0770f4c9bd82","system_id":"levelo_inurba_marseille","lat":43.28428,"lon":5.34995,"is_reserved":false,"is_disabled":true,"rental_uris":{"android":"levelo://app?vid=73542498-146c-426d-a081-0770f4c9bd82","ios":"levelo://app?vid=73542498-146c-426d-a081-0770f4c9bd82"},"vehicle_type_id":"4","last_reported":1734188907,"current_range_meters":0,"station_id":"ce4bhbh2rcd13ifvqepg","pricing_plan_id":"cebpf4jnsgd1na2vs0mg"},{"bike_id":"d9834bc1-0a12-45ef-b703-48b43f237533","system_id":"levelo_inurba_marseille","lat":43.27058,"lon":5.40267,"is_reserved":false,"is_disabled":false,"rental_uris":{"android":"levelo://app?vid=d9834bc1-0a12-45ef-b703-48b43f237533","ios":"levelo://app?vid=d9834bc1-0a12-45ef-b703-48b43f237533"},"vehicle_type_id":"4","last_reported":1734188907,"current_range_meters":24400,"station_id":"ce4bhk92rcd13ifvqgc0","pricing_plan_id":"cebpf4jnsgd1na2vs0mg"},{"bike_id":"981b4c89-2122-4b15-9b4a-96d3e84a50e3","system_id":"levelo_inurba_marseille","lat":43.26208,"lon":5.37443,"is_reserved":false,"is_disabled":false,"rental_uris":{"android":"levelo://app?vid=981b4c89-2122-4b15-9b4a-96d3e84a50e3","ios":"levelo://app?vid=981b4c89-2122-4b15-9b4a-96d3e84a50e3"},"vehicle_type_id":"4","last_reported":1734188907,"current_range_meters":36800,"station_id":"ce4bhgp2rcd13ifvqfc0","pricing_plan_id":"cebpf4jnsgd1na2vs0mg"},{"bike_id":"eaac3b54-d489-45fe-9f7c-40072c8522d9","system_id":"levelo_inurba_marseille","lat":43.24997,"lon":5.38927,"is_reserved":false,"is_disabled":false,"rental_uris":{"android":"levelo://app?vid=eaac3b54-d489-45fe-9f7c-40072c8522d9","ios":"levelo://app?vid=eaac3b54-d489-45fe-9f7c-40072c8522d9"},"vehicle_type_id":"4","last_reported":1734188907,"current_range_meters":11600,"station_id":"ce4bhgp2rcd13ifvqfd0","pricing_plan_id":"cebpf4jnsgd1na2vs0mg"},{"bike_id":"ee12c1d4-76e3-43ba-a7d3-8e72c56f0b4e","system_id":"levelo_inurba_marseille","lat":43.27321,"lon":5.39079,"is_reserved":false,"is_disabled":false,"rental_uris":{"android":"levelo://app?vid=ee12c1d4-76e3-43ba-a7d3-8e72c56f0b4e","ios":"levelo://app?vid=ee12c1d4-76e3-43ba-a7d3-8e72c56f0b4e"},"vehicle_type_id":"4","last_reported":1734188907,"current_range_meters":38800,"station_id":"ce4bhgp2rcd13ifvqfe0","pricing_plan_id":"cebpf4jnsgd1na2vs0mg"},{"bike_id":"ae0bdd7b-187c-409c-b2b3-37aac32d4db3","system_id":"levelo_inurba_marseille","lat":43.32365,"lon":5.36756,"is_reserved":false,"is_disabled":false,"rental_uris":{"android":"levelo://app?vid=ae0bdd7b-187c-409c-b2b3-37aac32d4db3","ios":"levelo://app?vid=ae0bdd7b-187c-409c-b2b3-37aac32d4db3"},"vehicle_type_id":"4","last_reported":1734188907,"current_range_meters":38800,"station_id":"ce4bhsh2rcd13ifvqi2g","pricing_plan_id":"cebpf4jnsgd1na2vs0mg"},{"bike_id":"8cf0d3bd-e310-4319-ad37-50b72dcbcdd4","system_id":"levelo_inurba_marseille","lat":43.3046,"lon":5.379,"is_reserved":false,"is_disabled":false,"rental_uris":{"android":"levelo://app?vid=8cf0d3bd-e310-4319-ad37-50b72dcbcdd4","ios":"levelo://app?vid=8cf0d3bd-e310-4319-ad37-50b72dcbcdd4"},"vehicle_type_id":"4","last_reported":1734188907,"current_range_meters":38400,"station_id":"ce4bgup2rcd13ifvqcn0","pricing_plan_id":"cebpf4jnsgd1na2vs0mg"},{"bike_id":"9ad311dd-c450-4f09-933a-ef53d4559dc3","system_id":"levelo_inurba_marseille","lat":43.26987,"lon":5.3987,"is_reserved":false,"is_disabled":false,"rental_uris":{"android":"levelo://app?vid=9ad311dd-c450-4f09-933a-ef53d4559dc3","ios":"levelo://app?vid=9ad311dd-c450-4f09-933a-ef53d4559dc3"},"vehicle_type_id":"4","last_reported":1734188907,"current_range_meters":26800,"station_id":"","pricing_plan_id":"cebpf4jnsgd1na2vs0mg"},{"bike_id":"123e146a-854c-4e79-886f-1db5d5371d0c","system_id":"levelo_inurba_marseille","lat":43.31986,"lon":5.38159,"is_reserved":false,"is_disabled":false,"rental_uris":{"android":"levelo://app?vid=123e146a-854c-4e79-886f-1db5d5371d0c","ios":"levelo://app?vid=123e146a-854c-4e79-886f-1db5d5371d0c"},"vehicle_type_id":"4","last_reported":1734188907,"current_range_meters":38800,"station_id":"ce4bhr12rcd13ifvqhpg","pricing_plan_id":"cebpf4jnsgd1na2vs0mg"},{"bike_id":"3787bba6-8a43-4277-afd7-a70b2fecfb32","system_id":"levelo_inurba_marseille","lat":43.27323,"lon":5.39092,"is_reserved":false,"is_disabled":false,"rental_uris":{"android":"levelo://app?vid=3787bba6-8a43-4277-afd7-a70b2fecfb32","ios":"levelo://app?vid=3787bba6-8a43-4277-afd7-a70b2fecfb32"},"vehicle_type_id":"4","last_reported":1734188907,"current_range_meters":39200,"station_id":"ce4bhgp2rcd13ifvqfe0","pricing_plan_id":"cebpf4jnsgd1na2vs0mg"},{"bike_id":"41f926b2-a436-44a1-9af3-ff12c3760a91","system_id":"levelo_inurba_marseille","lat":43.268,"lon":5.39425,"is_reserved":false,"is_disabled":false,"rental_uris":{"android":"levelo://app?vid=41f926b2-a436-44a1-9af3-ff12c3760a91","ios":"levelo://app?vid=41f926b2-a436-44a1-9af3-ff12c3760a91"},"vehicle_type_id":"4","last_reported":1734188907,"current_range_meters":32800,"station_id":"ce4bhh12rcd13ifvqfg0","pricing_plan_id":"cebpf4jnsgd1na2vs0mg"},{"bike_id":"af67ac53-ba21-4ff0-8334-95679e9ff2cc","system_id":"levelo_inurba_marseille","lat":43.278805,"lon":5.388003,"is_reserved":false,"is_disabled":true,"rental_uris":{"android":"levelo://app?vid=af67ac53-ba21-4ff0-8334-95679e9ff2cc","ios":"levelo://app?vid=af67ac53-ba21-4ff0-8334-95679e9ff2cc"},"vehicle_type_id":"4","last_reported":1734188907,"current_range_meters":1600,"station_id":"","pricing_plan_id":"cebpf4jnsgd1na2vs0mg"},{"bike_id":"f3ad7038-b799-41a0-93c7-c90920b99c82","system_id":"levelo_inurba_marseille","lat":43.27319,"lon":5.39075,"is_reserved":false,"is_disabled":false,"rental_uris":{"android":"levelo://app?vid=f3ad7038-b799-41a0-93c7-c90920b99c82","ios":"levelo://app?vid=f3ad7038-b799-41a0-93c7-c90920b99c82"},"vehicle_type_id":"4","last_reported":1734188907,"current_range_meters":14400,"station_id":"ce4bhgp2rcd13ifvqfe0","pricing_plan_id":"cebpf4jnsgd1na2vs0mg"},{"bike_id":"0232408d-292c-41d3-b181-663261afd040","system_id":"levelo_inurba_marseille","lat":43.27483,"lon":5.40908,"is_reserved":false,"is_disabled":false,"rental_uris":{"android":"levelo://app?vid=0232408d-292c-41d3-b181-663261afd040","ios":"levelo://app?vid=0232408d-292c-41d3-b181-663261afd040"},"vehicle_type_id":"4","last_reported":1734188907,"current_range_meters":34000,"station_id":"","pricing_plan_id":"cebpf4jnsgd1na2vs0mg"},{"bike_id":"54d1876e-3762-4fa4-be49-be320b0f878a","system_id":"levelo_inurba_marseille","lat":43.284119,"lon":5.375195,"is_reserved":false,"is_disabled":false,"rental_uris":{"android":"levelo://app?vid=54d1876e-3762-4fa4-be49-be320b0f878a","ios":"levelo://app?vid=54d1876e-3762-4fa4-be49-be320b0f878a"},"vehicle_type_id":"4","last_reported":1734188907,"current_range_meters":24800,"station_id":"ce4bh412rcd13ifvqds0","pricing_plan_id":"cebpf4jnsgd1na2vs0mg"},{"bike_id":"01c7ce7f-e795-44d4-a2bb-d223ec59f43e","system_id":"levelo_inurba_marseille","lat":43.26785,"lon":5.39419,"is_reserved":false,"is_disabled":false,"rental_uris":{"android":"levelo://app?vid=01c7ce7f-e795-44d4-a2bb-d223ec59f43e","ios":"levelo://app?vid=01c7ce7f-e795-44d4-a2bb-d223ec59f43e"},"vehicle_type_id":"4","last_reported":1734188907,"current_range_meters":9600,"station_id":"ce4bhh12rcd13ifvqfg0","pricing_plan_id":"cebpf4jnsgd1na2vs0mg"},{"bike_id":"9aa86480-8d58-4d78-8ede-288feee11586","system_id":"levelo_inurba_marseille","lat":43.32052,"lon":5.41545,"is_reserved":false,"is_disabled":false,"rental_uris":{"android":"levelo://app?vid=9aa86480-8d58-4d78-8ede-288feee11586","ios":"levelo://app?vid=9aa86480-8d58-4d78-8ede-288feee11586"},"vehicle_type_id":"4","last_reported":1734188907,"current_range_meters":37600,"station_id":"ce4bhq92rcd13ifvqhkg","pricing_plan_id":"cebpf4jnsgd1na2vs0mg"},{"bike_id":"d65fcea9-51ba-41f0-86fd-e798dfdd6f09","system_id":"levelo_inurba_marseille","lat":43.286953,"lon":5.383132,"is_reserved":false,"is_disabled":true,"rental_uris":{"android":"levelo://app?vid=d65fcea9-51ba-41f0-86fd-e798dfdd6f09","ios":"levelo://app?vid=d65fcea9-51ba-41f0-86fd-e798dfdd6f09"},"vehicle_type_id":"4","last_reported":1734188907,"current_range_meters":0,"station_id":"","pricing_plan_id":"cebpf4jnsgd1na2vs0mg"},{"bike_id":"30b09c14-5db6-4bdd-8ec0-8d8fd355bef3","system_id":"levelo_inurba_marseille","lat":43.29864,"lon":5.39739,"is_reserved":false,"is_disabled":true,"rental_uris":{"android":"levelo://app?vid=30b09c14-5db6-4bdd-8ec0-8d8fd355bef3","ios":"levelo://app?vid=30b09c14-5db6-4bdd-8ec0-8d8fd355bef3"},"vehicle_type_id":"4","last_reported":1734188907,"current_range_meters":36800,"station_id":"ce4bh0h2rcd13ifvqd50","pricing_plan_id":"cebpf4jnsgd1na2vs0mg"},{"bike_id":"f08c808c-af08-40b8-81c3-97739c995b77","system_id":"levelo_inurba_marseille","lat":43.30129,"lon":5.39877,"is_reserved":false,"is_disabled":true,"rental_uris":{"android":"levelo://app?vid=f08c808c-af08-40b8-81c3-97739c995b77","ios":"levelo://app?vid=f08c808c-af08-40b8-81c3-97739c995b77"},"vehicle_type_id":"4","last_reported":1734188907,"current_range_meters":32000,"station_id":"ce4bh0h2rcd13ifvqd40","pricing_plan_id":"cebpf4jnsgd1na2vs0mg"},{"bike_id":"487644c2-f2f6-4590-8bf3-243e39d6bf64","system_id":"levelo_inurba_marseille","lat":43.27212,"lon":5.39173,"is_reserved":false,"is_disabled":false,"rental_uris":{"android":"levelo://app?vid=487644c2-f2f6-4590-8bf3-243e39d6bf64","ios":"levelo://app?vid=487644c2-f2f6-4590-8bf3-243e39d6bf64"},"vehicle_type_id":"4","last_reported":1734188907,"current_range_meters":9200,"station_id":"ce4bhhp2rcd13ifvqfm0","pricing_plan_id":"cebpf4jnsgd1na2vs0mg"},{"bike_id":"11ca44e5-5421-4df9-a61f-66e2a8a6b12b","system_id":"levelo_inurba_marseille","lat":43.27578,"lon":5.38406,"is_reserved":false,"is_disabled":false,"rental_uris":{"android":"levelo://app?vid=11ca44e5-5421-4df9-a61f-66e2a8a6b12b","ios":"levelo://app?vid=11ca44e5-5421-4df9-a61f-66e2a8a6b12b"},"vehicle_type_id":"4","last_reported":1734188907,"current_range_meters":15200,"station_id":"ce4bhh92rcd13ifvqfi0","pricing_plan_id":"cebpf4jnsgd1na2vs0mg"},{"bike_id":"64203de9-e72b-4d66-9a84-7a315c7ed37f","system_id":"levelo_inurba_marseille","lat":43.29424,"lon":5.37424,"is_reserved":false,"is_disabled":true,"rental_uris":{"android":"levelo://app?vid=64203de9-e72b-4d66-9a84-7a315c7ed37f","ios":"levelo://app?vid=64203de9-e72b-4d66-9a84-7a315c7ed37f"},"vehicle_type_id":"4","last_reported":1734188907,"current_range_meters":0,"station_id":"","pricing_plan_id":"cebpf4jnsgd1na2vs0mg"},{"bike_id":"d2c6e09b-1a2f-4de2-9675-e7ffdf1ebc77","system_id":"levelo_inurba_marseille","lat":43.29695,"lon":5.37288,"is_reserved":false,"is_disabled":false,"rental_uris":{"android":"levelo://app?vid=d2c6e09b-1a2f-4de2-9675-e7ffdf1ebc77","ios":"levelo://app?vid=d2c6e09b-1a2f-4de2-9675-e7ffdf1ebc77"},"vehicle_type_id":"4","last_reported":1734188907,"current_range_meters":36400,"station_id":"ce4bgk12rcd13ifvqbj0","pricing_plan_id":"cebpf4jnsgd1na2vs0mg"},{"bike_id":"42b4fe2d-11a7-43fb-9c7c-b9b0a313e822","system_id":"levelo_inurba_marseille","lat":43.28853,"lon":5.3585,"is_reserved":false,"is_disabled":false,"rental_uris":{"android":"levelo://app?vid=42b4fe2d-11a7-43fb-9c7c-b9b0a313e822","ios":"levelo://app?vid=42b4fe2d-11a7-43fb-9c7c-b9b0a313e822"},"vehicle_type_id":"4","last_reported":1734188907,"current_range_meters":10800,"station_id":"ce4bhb12rcd13ifvqem0","pricing_plan_id":"cebpf4jnsgd1na2vs0mg"},{"bike_id":"65e2bf86-e194-4f74-a571-374fa0593e55","system_id":"levelo_inurba_marseille","lat":43.27313,"lon":5.39096,"is_reserved":false,"is_disabled":false,"rental_uris":{"android":"levelo://app?vid=65e2bf86-e194-4f74-a571-374fa0593e55","ios":"levelo://app?vid=65e2bf86-e194-4f74-a571-374fa0593e55"},"vehicle_type_id":"4","last_reported":1734188907,"current_range_meters":2800,"station_id":"ce4bhgp2rcd13ifvqfe0","pricing_plan_id":"cebpf4jnsgd1na2vs0mg"},{"bike_id":"ef311535-8b3d-40de-81a1-67f78cf1efb7","system_id":"levelo_inurba_marseille","lat":43.26937,"lon":5.40259,"is_reserved":false,"is_disabled":false,"rental_uris":{"android":"levelo://app?vid=ef311535-8b3d-40de-81a1-67f78cf1efb7","ios":"levelo://app?vid=ef311535-8b3d-40de-81a1-67f78cf1efb7"},"vehicle_type_id":"4","last_reported":1734188907,"current_range_meters":28400,"station_id":"cjm6bp8fraef2m0cb0m0","pricing_plan_id":"cebpf4jnsgd1na2vs0mg"},{"bike_id":"af4d9c94-5fb1-4a22-9af0-6be552885b53","system_id":"levelo_inurba_marseille","lat":43.27865,"lon":5.42432,"is_reserved":false,"is_disabled":false,"rental_uris":{"android":"levelo://app?vid=af4d9c94-5fb1-4a22-9af0-6be552885b53","ios":"levelo://app?vid=af4d9c94-5fb1-4a22-9af0-6be552885b53"},"vehicle_type_id":"4","last_reported":1734188907,"current_range_meters":6000,"station_id":"","pricing_plan_id":"cebpf4jnsgd1na2vs0mg"},{"bike_id":"576b85f4-11bd-44e6-a2d7-0def17d06fe5","system_id":"levelo_inurba_marseille","lat":43.30357,"lon":5.39285,"is_reserved":false,"is_disabled":false,"rental_uris":{"android":"levelo://app?vid=576b85f4-11bd-44e6-a2d7-0def17d06fe5","ios":"levelo://app?vid=576b85f4-11bd-44e6-a2d7-0def17d06fe5"},"vehicle_type_id":"4","last_reported":1734188907,"current_range_meters":30400,"station_id":"ce4bgkh2rcd13ifvqbl0","pricing_plan_id":"cebpf4jnsgd1na2vs0mg"},{"bike_id":"8d6bb968-211a-4680-8176-509681807d1e","system_id":"levelo_inurba_marseille","lat":43.27325,"lon":5.39126,"is_reserved":false,"is_disabled":false,"rental_uris":{"android":"levelo://app?vid=8d6bb968-211a-4680-8176-509681807d1e","ios":"levelo://app?vid=8d6bb968-211a-4680-8176-509681807d1e"},"vehicle_type_id":"4","last_reported":1734188907,"current_range_meters":23200,"station_id":"ce4bhgp2rcd13ifvqfe0","pricing_plan_id":"cebpf4jnsgd1na2vs0mg"},{"bike_id":"8f3ac92d-1651-4772-899e-a1e56620faea","system_id":"levelo_inurba_marseille","lat":43.2396,"lon":5.36638,"is_reserved":false,"is_disabled":false,"rental_uris":{"android":"levelo://app?vid=8f3ac92d-1651-4772-899e-a1e56620faea","ios":"levelo://app?vid=8f3ac92d-1651-4772-899e-a1e56620faea"},"vehicle_type_id":"4","last_reported":1734188907,"current_range_meters":36000,"station_id":"ce4bhi12rcd13ifvqfp0","pricing_plan_id":"cebpf4jnsgd1na2vs0mg"},{"bike_id":"f2926aa7-9e5c-4a53-96ca-8a24fcc2aaa0","system_id":"levelo_inurba_marseille","lat":43.30539,"lon":5.38422,"is_reserved":false,"is_disabled":false,"rental_uris":{"android":"levelo://app?vid=f2926aa7-9e5c-4a53-96ca-8a24fcc2aaa0","ios":"levelo://app?vid=f2926aa7-9e5c-4a53-96ca-8a24fcc2aaa0"},"vehicle_type_id":"4","last_reported":1734188907,"current_range_meters":28400,"station_id":"ce4bgg92rcd13ifvqb30","pricing_plan_id":"cebpf4jnsgd1na2vs0mg"},{"bike_id":"6f9ded0b-b0f0-4763-8a9f-3b4a533a2c57","system_id":"levelo_inurba_marseille","lat":43.2989,"lon":5.43661,"is_reserved":false,"is_disabled":false,"rental_uris":{"android":"levelo://app?vid=6f9ded0b-b0f0-4763-8a9f-3b4a533a2c57","ios":"levelo://app?vid=6f9ded0b-b0f0-4763-8a9f-3b4a533a2c57"},"vehicle_type_id":"4","last_reported":1734188907,"current_range_meters":37600,"station_id":"ce4bhpp2rcd13ifvqhfg","pricing_plan_id":"cebpf4jnsgd1na2vs0mg"},{"bike_id":"cee47e0b-683d-4e61-8f41-f6f65194c574","system_id":"levelo_inurba_marseille","lat":43.27216,"lon":5.39169,"is_reserved":false,"is_disabled":false,"rental_uris":{"android":"levelo://app?vid=cee47e0b-683d-4e61-8f41-f6f65194c574","ios":"levelo://app?vid=cee47e0b-683d-4e61-8f41-f6f65194c574"},"vehicle_type_id":"4","last_reported":1734188907,"current_range_meters":39200,"station_id":"ce4bhhp2rcd13ifvqfm0","pricing_plan_id":"cebpf4jnsgd1na2vs0mg"},{"bike_id":"c2cb89ad-4e24-4aa8-b313-2cfd7bea03a1","system_id":"levelo_inurba_marseille","lat":43.28416,"lon":5.34973,"is_reserved":false,"is_disabled":false,"rental_uris":{"android":"levelo://app?vid=c2cb89ad-4e24-4aa8-b313-2cfd7bea03a1","ios":"levelo://app?vid=c2cb89ad-4e24-4aa8-b313-2cfd7bea03a1"},"vehicle_type_id":"4","last_reported":1734188907,"current_range_meters":25600,"station_id":"ce4bhbh2rcd13ifvqepg","pricing_plan_id":"cebpf4jnsgd1na2vs0mg"},{"bike_id":"07154a6e-1aad-4b6f-8cd5-49a1da2b8e24","system_id":"levelo_inurba_marseille","lat":43.23137,"lon":5.43735,"is_reserved":false,"is_disabled":false,"rental_uris":{"android":"levelo://app?vid=07154a6e-1aad-4b6f-8cd5-49a1da2b8e24","ios":"levelo://app?vid=07154a6e-1aad-4b6f-8cd5-49a1da2b8e24"},"vehicle_type_id":"4","last_reported":1734188907,"current_range_meters":32000,"station_id":"ce4bhmp2rcd13ifvqgog","pricing_plan_id":"cebpf4jnsgd1na2vs0mg"},{"bike_id":"1d733951-4247-4ba7-9aef-0607faf80e21","system_id":"levelo_inurba_marseille","lat":43.32057,"lon":5.41547,"is_reserved":false,"is_disabled":false,"rental_uris":{"android":"levelo://app?vid=1d733951-4247-4ba7-9aef-0607faf80e21","ios":"levelo://app?vid=1d733951-4247-4ba7-9aef-0607faf80e21"},"vehicle_type_id":"4","last_reported":1734188907,"current_range_meters":22800,"station_id":"ce4bhq92rcd13ifvqhkg","pricing_plan_id":"cebpf4jnsgd1na2vs0mg"},{"bike_id":"2a9bbe81-c578-430a-a2f2-77cf58fb1d2c","system_id":"levelo_inurba_marseille","lat":43.24176,"lon":5.39704,"is_reserved":false,"is_disabled":false,"rental_uris":{"android":"levelo://app?vid=2a9bbe81-c578-430a-a2f2-77cf58fb1d2c","ios":"levelo://app?vid=2a9bbe81-c578-430a-a2f2-77cf58fb1d2c"},"vehicle_type_id":"4","last_reported":1734188907,"current_range_meters":10000,"station_id":"ce4bhn12rcd13ifvqgpg","pricing_plan_id":"cebpf4jnsgd1na2vs0mg"},{"bike_id":"59aa9d72-27a3-40c5-b3ac-922f34234472","system_id":"levelo_inurba_marseille","lat":43.2743,"lon":5.39414,"is_reserved":false,"is_disabled":false,"rental_uris":{"android":"levelo://app?vid=59aa9d72-27a3-40c5-b3ac-922f34234472","ios":"levelo://app?vid=59aa9d72-27a3-40c5-b3ac-922f34234472"},"vehicle_type_id":"4","last_reported":1734188907,"current_range_meters":3600,"station_id":"ce4bhdp2rcd13ifvqf20","pricing_plan_id":"cebpf4jnsgd1na2vs0mg"},{"bike_id":"e449a8e0-586f-4472-bdbd-ef85569a394e","system_id":"levelo_inurba_marseille","lat":43.30525,"lon":5.36711,"is_reserved":false,"is_disabled":true,"rental_uris":{"android":"levelo://app?vid=e449a8e0-586f-4472-bdbd-ef85569a394e","ios":"levelo://app?vid=e449a8e0-586f-4472-bdbd-ef85569a394e"},"vehicle_type_id":"4","last_reported":1734188907,"current_range_meters":0,"station_id":"ce4bgrp2rcd13ifvqc9g","pricing_plan_id":"cebpf4jnsgd1na2vs0mg"},{"bike_id":"68ac001f-d461-4264-ae4c-847d5d8319b3","system_id":"levelo_inurba_marseille","lat":43.26199,"lon":5.37932,"is_reserved":false,"is_disabled":false,"rental_uris":{"android":"levelo://app?vid=68ac001f-d461-4264-ae4c-847d5d8319b3","ios":"levelo://app?vid=68ac001f-d461-4264-ae4c-847d5d8319b3"},"vehicle_type_id":"4","last_reported":1734188907,"current_range_meters":34000,"station_id":"ce4bhjp2rcd13ifvqg90","pricing_plan_id":"cebpf4jnsgd1na2vs0mg"},{"bike_id":"91bc6f38-f0e5-4266-96b0-b5a862348a34","system_id":"levelo_inurba_marseille","lat":43.26934,"lon":5.38928,"is_reserved":false,"is_disabled":false,"rental_uris":{"android":"levelo://app?vid=91bc6f38-f0e5-4266-96b0-b5a862348a34","ios":"levelo://app?vid=91bc6f38-f0e5-4266-96b0-b5a862348a34"},"vehicle_type_id":"4","last_reported":1734188907,"current_range_meters":38800,"station_id":"ce4bhhh2rcd13ifvqfl0","pricing_plan_id":"cebpf4jnsgd1na2vs0mg"},{"bike_id":"605ce9bb-d413-4ab8-b4d3-57f594b00fd4","system_id":"levelo_inurba_marseille","lat":43.27321,"lon":5.39073,"is_reserved":false,"is_disabled":false,"rental_uris":{"android":"levelo://app?vid=605ce9bb-d413-4ab8-b4d3-57f594b00fd4","ios":"levelo://app?vid=605ce9bb-d413-4ab8-b4d3-57f594b00fd4"},"vehicle_type_id":"4","last_reported":1734188907,"current_range_meters":37600,"station_id":"ce4bhgp2rcd13ifvqfe0","pricing_plan_id":"cebpf4jnsgd1na2vs0mg"},{"bike_id":"11fee723-2ec1-4785-90d8-aa13c712919c","system_id":"levelo_inurba_marseille","lat":43.32347,"lon":5.38894,"is_reserved":false,"is_disabled":false,"rental_uris":{"android":"levelo://app?vid=11fee723-2ec1-4785-90d8-aa13c712919c","ios":"levelo://app?vid=11fee723-2ec1-4785-90d8-aa13c712919c"},"vehicle_type_id":"4","last_reported":1734188907,"current_range_meters":34800,"station_id":"ce4bhqp2rcd13ifvqhog","pricing_plan_id":"cebpf4jnsgd1na2vs0mg"},{"bike_id":"34190251-d52c-4455-8258-a1c6f0d96fca","system_id":"levelo_inurba_marseille","lat":43.32046,"lon":5.41541,"is_reserved":false,"is_disabled":false,"rental_uris":{"android":"levelo://app?vid=34190251-d52c-4455-8258-a1c6f0d96fca","ios":"levelo://app?vid=34190251-d52c-4455-8258-a1c6f0d96fca"},"vehicle_type_id":"4","last_reported":1734188907,"current_range_meters":29600,"station_id":"ce4bhq92rcd13ifvqhkg","pricing_plan_id":"cebpf4jnsgd1na2vs0mg"},{"bike_id":"422a4e2a-f44e-4349-9346-2099143f971e","system_id":"levelo_inurba_marseille","lat":43.27214,"lon":5.39189,"is_reserved":false,"is_disabled":false,"rental_uris":{"android":"levelo://app?vid=422a4e2a-f44e-4349-9346-2099143f971e","ios":"levelo://app?vid=422a4e2a-f44e-4349-9346-2099143f971e"},"vehicle_type_id":"4","last_reported":1734188907,"current_range_meters":21600,"station_id":"ce4bhhp2rcd13ifvqfm0","pricing_plan_id":"cebpf4jnsgd1na2vs0mg"},{"bike_id":"7044882f-c373-4b6f-9fc4-1ac4c28bbe93","system_id":"levelo_inurba_marseille","lat":43.24071,"lon":5.37765,"is_reserved":false,"is_disabled":true,"rental_uris":{"android":"levelo://app?vid=7044882f-c373-4b6f-9fc4-1ac4c28bbe93","ios":"levelo://app?vid=7044882f-c373-4b6f-9fc4-1ac4c28bbe93"},"vehicle_type_id":"4","last_reported":1734188907,"current_range_meters":0,"station_id":"ce4bhnp2rcd13ifvqgvg","pricing_plan_id":"cebpf4jnsgd1na2vs0mg"},{"bike_id":"6aadc0dd-d854-4c08-9c03-8083806fe54c","system_id":"levelo_inurba_marseille","lat":43.27367,"lon":5.36261,"is_reserved":false,"is_disabled":false,"rental_uris":{"android":"levelo://app?vid=6aadc0dd-d854-4c08-9c03-8083806fe54c","ios":"levelo://app?vid=6aadc0dd-d854-4c08-9c03-8083806fe54c"},"vehicle_type_id":"4","last_reported":1734188907,"current_range_meters":39200,"station_id":"ce4bhbh2rcd13ifvqeo0","pricing_plan_id":"cebpf4jnsgd1na2vs0mg"},{"bike_id":"eb1496f4-67ed-47fd-8660-60023378367f","system_id":"levelo_inurba_marseille","lat":43.294212,"lon":5.374322,"is_reserved":false,"is_disabled":true,"rental_uris":{"android":"levelo://app?vid=eb1496f4-67ed-47fd-8660-60023378367f","ios":"levelo://app?vid=eb1496f4-67ed-47fd-8660-60023378367f"},"vehicle_type_id":"4","last_reported":1734188907,"current_range_meters":0,"station_id":"","pricing_plan_id":"cebpf4jnsgd1na2vs0mg"},{"bike_id":"31c7c931-55e2-482c-9ee5-63e523f58659","system_id":"levelo_inurba_marseille","lat":43.29967,"lon":5.37177,"is_reserved":false,"is_disabled":false,"rental_uris":{"android":"levelo://app?vid=31c7c931-55e2-482c-9ee5-63e523f58659","ios":"levelo://app?vid=31c7c931-55e2-482c-9ee5-63e523f58659"},"vehicle_type_id":"4","last_reported":1734188907,"current_range_meters":38400,"station_id":"ce4bgr92rcd13ifvqc7g","pricing_plan_id":"cebpf4jnsgd1na2vs0mg"},{"bike_id":"faf7cbfc-5a3b-4c27-83a7-aaa310de447c","system_id":"levelo_inurba_marseille","lat":43.27205,"lon":5.39196,"is_reserved":false,"is_disabled":false,"rental_uris":{"android":"levelo://app?vid=faf7cbfc-5a3b-4c27-83a7-aaa310de447c","ios":"levelo://app?vid=faf7cbfc-5a3b-4c27-83a7-aaa310de447c"},"vehicle_type_id":"4","last_reported":1734188907,"current_range_meters":37600,"station_id":"ce4bhhp2rcd13ifvqfm0","pricing_plan_id":"cebpf4jnsgd1na2vs0mg"},{"bike_id":"a5754fbb-2369-4ca9-ba0a-964bbf483bd3","system_id":"levelo_inurba_marseille","lat":43.23188,"lon":5.3555,"is_reserved":false,"is_disabled":true,"rental_uris":{"android":"levelo://app?vid=a5754fbb-2369-4ca9-ba0a-964bbf483bd3","ios":"levelo://app?vid=a5754fbb-2369-4ca9-ba0a-964bbf483bd3"},"vehicle_type_id":"4","last_reported":1734188907,"current_range_meters":1600,"station_id":"ce4bhu92rcd13ifvqi70","pricing_plan_id":"cebpf4jnsgd1na2vs0mg"},{"bike_id":"d01e4f85-f401-4160-a398-61e0e3663637","system_id":"levelo_inurba_marseille","lat":43.31263,"lon":5.40172,"is_reserved":false,"is_disabled":false,"rental_uris":{"android":"levelo://app?vid=d01e4f85-f401-4160-a398-61e0e3663637","ios":"levelo://app?vid=d01e4f85-f401-4160-a398-61e0e3663637"},"vehicle_type_id":"4","last_reported":1734188907,"current_range_meters":24000,"station_id":"ce4bh092rcd13ifvqd30","pricing_plan_id":"cebpf4jnsgd1na2vs0mg"},{"bike_id":"7598c6ce-cf6e-4fb0-841c-5c5c2ee94d30","system_id":"levelo_inurba_marseille","lat":43.23151,"lon":5.43715,"is_reserved":false,"is_disabled":false,"rental_uris":{"android":"levelo://app?vid=7598c6ce-cf6e-4fb0-841c-5c5c2ee94d30","ios":"levelo://app?vid=7598c6ce-cf6e-4fb0-841c-5c5c2ee94d30"},"vehicle_type_id":"4","last_reported":1734188907,"current_range_meters":38800,"station_id":"ce4bhmp2rcd13ifvqgog","pricing_plan_id":"cebpf4jnsgd1na2vs0mg"},{"bike_id":"3a747502-9fcd-407f-a43a-d089b925ca33","system_id":"levelo_inurba_marseille","lat":43.292,"lon":5.35806,"is_reserved":true,"is_disabled":false,"rental_uris":{"android":"levelo://app?vid=3a747502-9fcd-407f-a43a-d089b925ca33","ios":"levelo://app?vid=3a747502-9fcd-407f-a43a-d089b925ca33"},"vehicle_type_id":"4","last_reported":1734188907,"current_range_meters":27200,"station_id":"ce4bhb12rcd13ifvqel0","pricing_plan_id":"cebpf4jnsgd1na2vs0mg"},{"bike_id":"ec927667-9164-479a-b446-395f55c955bb","system_id":"levelo_inurba_marseille","lat":43.22914,"lon":5.35376,"is_reserved":false,"is_disabled":false,"rental_uris":{"android":"levelo://app?vid=ec927667-9164-479a-b446-395f55c955bb","ios":"levelo://app?vid=ec927667-9164-479a-b446-395f55c955bb"},"vehicle_type_id":"4","last_reported":1734188907,"current_range_meters":38800,"station_id":"cpo3532slgdg3j2ikp40","pricing_plan_id":"cebpf4jnsgd1na2vs0mg"},{"bike_id":"32e0f69c-ba54-4d2e-acc2-d072f3795850","system_id":"levelo_inurba_marseille","lat":43.29072,"lon":5.38137,"is_reserved":false,"is_disabled":true,"rental_uris":{"android":"levelo://app?vid=32e0f69c-ba54-4d2e-acc2-d072f3795850","ios":"levelo://app?vid=32e0f69c-ba54-4d2e-acc2-d072f3795850"},"vehicle_type_id":"4","last_reported":1734188907,"current_range_meters":400,"station_id":"ce4bh512rcd13ifvqe2g","pricing_plan_id":"cebpf4jnsgd1na2vs0mg"},{"bike_id":"e171553a-d499-40c6-b158-4c1c9a0d09dc","system_id":"levelo_inurba_marseille","lat":43.271872,"lon":5.40994,"is_reserved":false,"is_disabled":false,"rental_uris":{"android":"levelo://app?vid=e171553a-d499-40c6-b158-4c1c9a0d09dc","ios":"levelo://app?vid=e171553a-d499-40c6-b158-4c1c9a0d09dc"},"vehicle_type_id":"4","last_reported":1734188907,"current_range_meters":38800,"station_id":"ce4bhl12rcd13ifvqgf0","pricing_plan_id":"cebpf4jnsgd1na2vs0mg"},{"bike_id":"25dae841-5093-4270-907b-dab1b8962915","system_id":"levelo_inurba_marseille","lat":43.32284,"lon":5.38963,"is_reserved":false,"is_disabled":false,"rental_uris":{"android":"levelo://app?vid=25dae841-5093-4270-907b-dab1b8962915","ios":"levelo://app?vid=25dae841-5093-4270-907b-dab1b8962915"},"vehicle_type_id":"4","last_reported":1734188907,"current_range_meters":36800,"station_id":"","pricing_plan_id":"cebpf4jnsgd1na2vs0mg"},{"bike_id":"d0f616d3-4e1b-4801-b6b7-5762445f0e8a","system_id":"levelo_inurba_marseille","lat":43.25861,"lon":5.3991,"is_reserved":false,"is_disabled":false,"rental_uris":{"android":"levelo://app?vid=d0f616d3-4e1b-4801-b6b7-5762445f0e8a","ios":"levelo://app?vid=d0f616d3-4e1b-4801-b6b7-5762445f0e8a"},"vehicle_type_id":"4","last_reported":1734188907,"current_range_meters":6800,"station_id":"ce4bhl92rcd13ifvqghg","pricing_plan_id":"cebpf4jnsgd1na2vs0mg"},{"bike_id":"a02bce7c-288c-46c0-a9fd-8aa8e0178c35","system_id":"levelo_inurba_marseille","lat":43.2319,"lon":5.35553,"is_reserved":false,"is_disabled":false,"rental_uris":{"android":"levelo://app?vid=a02bce7c-288c-46c0-a9fd-8aa8e0178c35","ios":"levelo://app?vid=a02bce7c-288c-46c0-a9fd-8aa8e0178c35"},"vehicle_type_id":"4","last_reported":1734188907,"current_range_meters":24000,"station_id":"ce4bhu92rcd13ifvqi70","pricing_plan_id":"cebpf4jnsgd1na2vs0mg"},{"bike_id":"f1a06ee4-1d14-4634-9311-99ca126b78ec","system_id":"levelo_inurba_marseille","lat":43.23958,"lon":5.36642,"is_reserved":false,"is_disabled":false,"rental_uris":{"android":"levelo://app?vid=f1a06ee4-1d14-4634-9311-99ca126b78ec","ios":"levelo://app?vid=f1a06ee4-1d14-4634-9311-99ca126b78ec"},"vehicle_type_id":"4","last_reported":1734188907,"current_range_meters":3200,"station_id":"ce4bhi12rcd13ifvqfp0","pricing_plan_id":"cebpf4jnsgd1na2vs0mg"},{"bike_id":"af335707-f603-46ad-9ef2-27a37be6dc32","system_id":"levelo_inurba_marseille","lat":43.30444,"lon":5.37905,"is_reserved":false,"is_disabled":false,"rental_uris":{"android":"levelo://app?vid=af335707-f603-46ad-9ef2-27a37be6dc32","ios":"levelo://app?vid=af335707-f603-46ad-9ef2-27a37be6dc32"},"vehicle_type_id":"4","last_reported":1734188907,"current_range_meters":38800,"station_id":"ce4bgup2rcd13ifvqcn0","pricing_plan_id":"cebpf4jnsgd1na2vs0mg"},{"bike_id":"618ca708-ec26-49d8-9119-0e864f92b959","system_id":"levelo_inurba_marseille","lat":43.29974,"lon":5.38495,"is_reserved":false,"is_disabled":false,"rental_uris":{"android":"levelo://app?vid=618ca708-ec26-49d8-9119-0e864f92b959","ios":"levelo://app?vid=618ca708-ec26-49d8-9119-0e864f92b959"},"vehicle_type_id":"4","last_reported":1734188907,"current_range_meters":30800,"station_id":"ce4bgj92rcd13ifvqbd0","pricing_plan_id":"cebpf4jnsgd1na2vs0mg"},{"bike_id":"95ef7777-ba3b-4e0d-80bc-0757a23118fb","system_id":"levelo_inurba_marseille","lat":43.29791,"lon":5.38107,"is_reserved":false,"is_disabled":false,"rental_uris":{"android":"levelo://app?vid=95ef7777-ba3b-4e0d-80bc-0757a23118fb","ios":"levelo://app?vid=95ef7777-ba3b-4e0d-80bc-0757a23118fb"},"vehicle_type_id":"4","last_reported":1734188907,"current_range_meters":39200,"station_id":"ce4bgip2rcd13ifvqbb0","pricing_plan_id":"cebpf4jnsgd1na2vs0mg"},{"bike_id":"0d5b1b0c-54d0-463e-8e32-441120da14e0","system_id":"levelo_inurba_marseille","lat":43.26943,"lon":5.40245,"is_reserved":false,"is_disabled":false,"rental_uris":{"android":"levelo://app?vid=0d5b1b0c-54d0-463e-8e32-441120da14e0","ios":"levelo://app?vid=0d5b1b0c-54d0-463e-8e32-441120da14e0"},"vehicle_type_id":"4","last_reported":1734188907,"current_range_meters":24800,"station_id":"cjm6bp8fraef2m0cb0m0","pricing_plan_id":"cebpf4jnsgd1na2vs0mg"},{"bike_id":"5f4f873f-92ae-4de2-b54c-1a95dc7d21d1","system_id":"levelo_inurba_marseille","lat":43.29985,"lon":5.37177,"is_reserved":false,"is_disabled":false,"rental_uris":{"android":"levelo://app?vid=5f4f873f-92ae-4de2-b54c-1a95dc7d21d1","ios":"levelo://app?vid=5f4f873f-92ae-4de2-b54c-1a95dc7d21d1"},"vehicle_type_id":"4","last_reported":1734188907,"current_range_meters":38800,"station_id":"ce4bgr92rcd13ifvqc7g","pricing_plan_id":"cebpf4jnsgd1na2vs0mg"},{"bike_id":"ac28ff4c-48d6-495a-9486-eac4ab35d1a1","system_id":"levelo_inurba_marseille","lat":43.244,"lon":5.37056,"is_reserved":false,"is_disabled":false,"rental_uris":{"android":"levelo://app?vid=ac28ff4c-48d6-495a-9486-eac4ab35d1a1","ios":"levelo://app?vid=ac28ff4c-48d6-495a-9486-eac4ab35d1a1"},"vehicle_type_id":"4","last_reported":1734188907,"current_range_meters":17600,"station_id":"ce4bhhh2rcd13ifvqfk0","pricing_plan_id":"cebpf4jnsgd1na2vs0mg"},{"bike_id":"7691eeb5-458b-415d-8b8b-0369bf8ed1f5","system_id":"levelo_inurba_marseille","lat":43.27371,"lon":5.36259,"is_reserved":false,"is_disabled":false,"rental_uris":{"android":"levelo://app?vid=7691eeb5-458b-415d-8b8b-0369bf8ed1f5","ios":"levelo://app?vid=7691eeb5-458b-415d-8b8b-0369bf8ed1f5"},"vehicle_type_id":"4","last_reported":1734188907,"current_range_meters":39200,"station_id":"ce4bhbh2rcd13ifvqeo0","pricing_plan_id":"cebpf4jnsgd1na2vs0mg"},{"bike_id":"6347dac2-3384-4d85-977c-86b023f83fa8","system_id":"levelo_inurba_marseille","lat":43.31079,"lon":5.40091,"is_reserved":false,"is_disabled":false,"rental_uris":{"android":"levelo://app?vid=6347dac2-3384-4d85-977c-86b023f83fa8","ios":"levelo://app?vid=6347dac2-3384-4d85-977c-86b023f83fa8"},"vehicle_type_id":"4","last_reported":1734188907,"current_range_meters":35200,"station_id":"","pricing_plan_id":"cebpf4jnsgd1na2vs0mg"},{"bike_id":"c78779cc-c5b9-463e-a529-4d68efb7db1b","system_id":"levelo_inurba_marseille","lat":43.26944,"lon":5.40259,"is_reserved":false,"is_disabled":false,"rental_uris":{"android":"levelo://app?vid=c78779cc-c5b9-463e-a529-4d68efb7db1b","ios":"levelo://app?vid=c78779cc-c5b9-463e-a529-4d68efb7db1b"},"vehicle_type_id":"4","last_reported":1734188907,"current_range_meters":36800,"station_id":"cjm6bp8fraef2m0cb0m0","pricing_plan_id":"cebpf4jnsgd1na2vs0mg"},{"bike_id":"c51154b5-1034-4fc0-8fac-d1d2e91dba39","system_id":"levelo_inurba_marseille","lat":43.23057,"lon":5.35494,"is_reserved":false,"is_disabled":false,"rental_uris":{"android":"levelo://app?vid=c51154b5-1034-4fc0-8fac-d1d2e91dba39","ios":"levelo://app?vid=c51154b5-1034-4fc0-8fac-d1d2e91dba39"},"vehicle_type_id":"4","last_reported":1734188907,"current_range_meters":10800,"station_id":"cpo3342slgdg3j2ifvpg","pricing_plan_id":"cebpf4jnsgd1na2vs0mg"},{"bike_id":"a4787828-f21a-4f65-9395-0d1b00e6c5c0","system_id":"levelo_inurba_marseille","lat":43.27304,"lon":5.3908,"is_reserved":false,"is_disabled":false,"rental_uris":{"android":"levelo://app?vid=a4787828-f21a-4f65-9395-0d1b00e6c5c0","ios":"levelo://app?vid=a4787828-f21a-4f65-9395-0d1b00e6c5c0"},"vehicle_type_id":"4","last_reported":1734188907,"current_range_meters":25600,"station_id":"ce4bhgp2rcd13ifvqfe0","pricing_plan_id":"cebpf4jnsgd1na2vs0mg"},{"bike_id":"ed1b7e25-6d2b-4f13-bd87-7f9436c7177b","system_id":"levelo_inurba_marseille","lat":43.31168,"lon":5.38719,"is_reserved":false,"is_disabled":false,"rental_uris":{"android":"levelo://app?vid=ed1b7e25-6d2b-4f13-bd87-7f9436c7177b","ios":"levelo://app?vid=ed1b7e25-6d2b-4f13-bd87-7f9436c7177b"},"vehicle_type_id":"4","last_reported":1734188907,"current_range_meters":10800,"station_id":"ce4bgv12rcd13ifvqcp0","pricing_plan_id":"cebpf4jnsgd1na2vs0mg"},{"bike_id":"9898497d-08a8-4f3f-896d-f939d7b3fae3","system_id":"levelo_inurba_marseille","lat":43.29734,"lon":5.37679,"is_reserved":false,"is_disabled":false,"rental_uris":{"android":"levelo://app?vid=9898497d-08a8-4f3f-896d-f939d7b3fae3","ios":"levelo://app?vid=9898497d-08a8-4f3f-896d-f939d7b3fae3"},"vehicle_type_id":"4","last_reported":1734188907,"current_range_meters":27200,"station_id":"ce4bgkh2rcd13ifvqbl0","pricing_plan_id":"cebpf4jnsgd1na2vs0mg"},{"bike_id":"abe250a1-3d26-47a1-bae8-73bf3354b17a","system_id":"levelo_inurba_marseille","lat":43.27199,"lon":5.4099,"is_reserved":false,"is_disabled":false,"rental_uris":{"android":"levelo://app?vid=abe250a1-3d26-47a1-bae8-73bf3354b17a","ios":"levelo://app?vid=abe250a1-3d26-47a1-bae8-73bf3354b17a"},"vehicle_type_id":"4","last_reported":1734188907,"current_range_meters":10000,"station_id":"ce4bhl12rcd13ifvqgf0","pricing_plan_id":"cebpf4jnsgd1na2vs0mg"},{"bike_id":"c140f3b7-a6ca-4f73-9425-1c30a46e1ae1","system_id":"levelo_inurba_marseille","lat":43.32367,"lon":5.38883,"is_reserved":false,"is_disabled":false,"rental_uris":{"android":"levelo://app?vid=c140f3b7-a6ca-4f73-9425-1c30a46e1ae1","ios":"levelo://app?vid=c140f3b7-a6ca-4f73-9425-1c30a46e1ae1"},"vehicle_type_id":"4","last_reported":1734188907,"current_range_meters":10000,"station_id":"ce4bhqp2rcd13ifvqhog","pricing_plan_id":"cebpf4jnsgd1na2vs0mg"},{"bike_id":"23208aee-ef1c-43eb-bfd7-65beada6760f","system_id":"levelo_inurba_marseille","lat":43.271867,"lon":5.39138,"is_reserved":false,"is_disabled":false,"rental_uris":{"android":"levelo://app?vid=23208aee-ef1c-43eb-bfd7-65beada6760f","ios":"levelo://app?vid=23208aee-ef1c-43eb-bfd7-65beada6760f"},"vehicle_type_id":"4","last_reported":1734188907,"current_range_meters":16000,"station_id":"ce4bhhp2rcd13ifvqfm0","pricing_plan_id":"cebpf4jnsgd1na2vs0mg"},{"bike_id":"bad09c18-7711-41ee-bbb5-b5fd34fb1d4d","system_id":"levelo_inurba_marseille","lat":43.27168,"lon":5.40983,"is_reserved":false,"is_disabled":false,"rental_uris":{"android":"levelo://app?vid=bad09c18-7711-41ee-bbb5-b5fd34fb1d4d","ios":"levelo://app?vid=bad09c18-7711-41ee-bbb5-b5fd34fb1d4d"},"vehicle_type_id":"4","last_reported":1734188907,"current_range_meters":38800,"station_id":"ce4bhl12rcd13ifvqgf0","pricing_plan_id":"cebpf4jnsgd1na2vs0mg"},{"bike_id":"167ec91b-3271-4201-be22-ac9b6351ad63","system_id":"levelo_inurba_marseille","lat":43.27937,"lon":5.41053,"is_reserved":false,"is_disabled":false,"rental_uris":{"android":"levelo://app?vid=167ec91b-3271-4201-be22-ac9b6351ad63","ios":"levelo://app?vid=167ec91b-3271-4201-be22-ac9b6351ad63"},"vehicle_type_id":"4","last_reported":1734188907,"current_range_meters":28400,"station_id":"ce4bhnp2rcd13ifvqh0g","pricing_plan_id":"cebpf4jnsgd1na2vs0mg"},{"bike_id":"b9fd8210-1762-40eb-87aa-8f4b603c6aad","system_id":"levelo_inurba_marseille","lat":43.26028,"lon":5.37553,"is_reserved":false,"is_disabled":false,"rental_uris":{"android":"levelo://app?vid=b9fd8210-1762-40eb-87aa-8f4b603c6aad","ios":"levelo://app?vid=b9fd8210-1762-40eb-87aa-8f4b603c6aad"},"vehicle_type_id":"4","last_reported":1734188907,"current_range_meters":38800,"station_id":"ce4bhgh2rcd13ifvqfa0","pricing_plan_id":"cebpf4jnsgd1na2vs0mg"},{"bike_id":"fcc466ca-f4fd-41b0-80ee-2011176e1445","system_id":"levelo_inurba_marseille","lat":43.27206,"lon":5.39185,"is_reserved":false,"is_disabled":false,"rental_uris":{"android":"levelo://app?vid=fcc466ca-f4fd-41b0-80ee-2011176e1445","ios":"levelo://app?vid=fcc466ca-f4fd-41b0-80ee-2011176e1445"},"vehicle_type_id":"4","last_reported":1734188907,"current_range_meters":36800,"station_id":"ce4bhhp2rcd13ifvqfm0","pricing_plan_id":"cebpf4jnsgd1na2vs0mg"},{"bike_id":"af5005fc-d058-4152-a2f0-a599ec2fe143","system_id":"levelo_inurba_marseille","lat":43.32291,"lon":5.38283,"is_reserved":false,"is_disabled":false,"rental_uris":{"android":"levelo://app?vid=af5005fc-d058-4152-a2f0-a599ec2fe143","ios":"levelo://app?vid=af5005fc-d058-4152-a2f0-a599ec2fe143"},"vehicle_type_id":"4","last_reported":1734188907,"current_range_meters":39200,"station_id":"ce4bhr12rcd13ifvqhqg","pricing_plan_id":"cebpf4jnsgd1na2vs0mg"},{"bike_id":"3650d84c-d2fd-4728-abeb-b9accdfa7210","system_id":"levelo_inurba_marseille","lat":43.30239,"lon":5.40061,"is_reserved":false,"is_disabled":true,"rental_uris":{"android":"levelo://app?vid=3650d84c-d2fd-4728-abeb-b9accdfa7210","ios":"levelo://app?vid=3650d84c-d2fd-4728-abeb-b9accdfa7210"},"vehicle_type_id":"4","last_reported":1734188907,"current_range_meters":27200,"station_id":"ce4bgvh2rcd13ifvqcs0","pricing_plan_id":"cebpf4jnsgd1na2vs0mg"},{"bike_id":"c75bddd8-53e9-48da-b5b5-42395c8f7395","system_id":"levelo_inurba_marseille","lat":43.33741,"lon":5.39173,"is_reserved":false,"is_disabled":false,"rental_uris":{"android":"levelo://app?vid=c75bddd8-53e9-48da-b5b5-42395c8f7395","ios":"levelo://app?vid=c75bddd8-53e9-48da-b5b5-42395c8f7395"},"vehicle_type_id":"4","last_reported":1734188907,"current_range_meters":38000,"station_id":"ce4bhr92rcd13ifvqhsg","pricing_plan_id":"cebpf4jnsgd1na2vs0mg"},{"bike_id":"cf556c27-412d-4848-a84c-7a5dbb91f92e","system_id":"levelo_inurba_marseille","lat":43.25868,"lon":5.39898,"is_reserved":false,"is_disabled":false,"rental_uris":{"android":"levelo://app?vid=cf556c27-412d-4848-a84c-7a5dbb91f92e","ios":"levelo://app?vid=cf556c27-412d-4848-a84c-7a5dbb91f92e"},"vehicle_type_id":"4","last_reported":1734188907,"current_range_meters":35200,"station_id":"ce4bhl92rcd13ifvqghg","pricing_plan_id":"cebpf4jnsgd1na2vs0mg"},{"bike_id":"6836f582-3e0a-4b76-a9b8-410503d7385b","system_id":"levelo_inurba_marseille","lat":43.3043,"lon":5.38895,"is_reserved":false,"is_disabled":false,"rental_uris":{"android":"levelo://app?vid=6836f582-3e0a-4b76-a9b8-410503d7385b","ios":"levelo://app?vid=6836f582-3e0a-4b76-a9b8-410503d7385b"},"vehicle_type_id":"4","last_reported":1734188907,"current_range_meters":14800,"station_id":"ce4bgk12rcd13ifvqbi0","pricing_plan_id":"cebpf4jnsgd1na2vs0mg"},{"bike_id":"7c0b5968-6776-4d89-ab39-cd4492481ab3","system_id":"levelo_inurba_marseille","lat":43.32041,"lon":5.41579,"is_reserved":false,"is_disabled":false,"rental_uris":{"android":"levelo://app?vid=7c0b5968-6776-4d89-ab39-cd4492481ab3","ios":"levelo://app?vid=7c0b5968-6776-4d89-ab39-cd4492481ab3"},"vehicle_type_id":"4","last_reported":1734188907,"current_range_meters":10800,"station_id":"ce4bhq92rcd13ifvqhkg","pricing_plan_id":"cebpf4jnsgd1na2vs0mg"},{"bike_id":"fd1d6366-cf9f-4720-bfed-437d147382a8","system_id":"levelo_inurba_marseille","lat":43.2499,"lon":5.38921,"is_reserved":false,"is_disabled":false,"rental_uris":{"android":"levelo://app?vid=fd1d6366-cf9f-4720-bfed-437d147382a8","ios":"levelo://app?vid=fd1d6366-cf9f-4720-bfed-437d147382a8"},"vehicle_type_id":"4","last_reported":1734188907,"current_range_meters":38800,"station_id":"ce4bhgp2rcd13ifvqfd0","pricing_plan_id":"cebpf4jnsgd1na2vs0mg"},{"bike_id":"9fee3077-b6c4-4fb9-a670-d22c832b1afb","system_id":"levelo_inurba_marseille","lat":43.27986,"lon":5.41672,"is_reserved":false,"is_disabled":false,"rental_uris":{"android":"levelo://app?vid=9fee3077-b6c4-4fb9-a670-d22c832b1afb","ios":"levelo://app?vid=9fee3077-b6c4-4fb9-a670-d22c832b1afb"},"vehicle_type_id":"4","last_reported":1734188907,"current_range_meters":38800,"station_id":"ce4bho12rcd13ifvqh1g","pricing_plan_id":"cebpf4jnsgd1na2vs0mg"},{"bike_id":"6cb5f94f-eade-4b7c-b995-84c805be74f9","system_id":"levelo_inurba_marseille","lat":43.33779,"lon":5.37414,"is_reserved":false,"is_disabled":false,"rental_uris":{"android":"levelo://app?vid=6cb5f94f-eade-4b7c-b995-84c805be74f9","ios":"levelo://app?vid=6cb5f94f-eade-4b7c-b995-84c805be74f9"},"vehicle_type_id":"4","last_reported":1734188907,"current_range_meters":38800,"station_id":"","pricing_plan_id":"cebpf4jnsgd1na2vs0mg"},{"bike_id":"380c9a62-9355-46ea-aba6-5d39cd47ad4b","system_id":"levelo_inurba_marseille","lat":43.31386,"lon":5.40604,"is_reserved":false,"is_disabled":true,"rental_uris":{"android":"levelo://app?vid=380c9a62-9355-46ea-aba6-5d39cd47ad4b","ios":"levelo://app?vid=380c9a62-9355-46ea-aba6-5d39cd47ad4b"},"vehicle_type_id":"4","last_reported":1734188907,"current_range_meters":0,"station_id":"","pricing_plan_id":"cebpf4jnsgd1na2vs0mg"},{"bike_id":"dc382634-aed8-493e-8590-bf7f7a19747b","system_id":"levelo_inurba_marseille","lat":43.27306,"lon":5.39135,"is_reserved":false,"is_disabled":false,"rental_uris":{"android":"levelo://app?vid=dc382634-aed8-493e-8590-bf7f7a19747b","ios":"levelo://app?vid=dc382634-aed8-493e-8590-bf7f7a19747b"},"vehicle_type_id":"4","last_reported":1734188907,"current_range_meters":37600,"station_id":"","pricing_plan_id":"cebpf4jnsgd1na2vs0mg"},{"bike_id":"b484f544-dd31-4e84-ba59-25f12c5123bb","system_id":"levelo_inurba_marseille","lat":43.27669,"lon":5.38889,"is_reserved":false,"is_disabled":false,"rental_uris":{"android":"levelo://app?vid=b484f544-dd31-4e84-ba59-25f12c5123bb","ios":"levelo://app?vid=b484f544-dd31-4e84-ba59-25f12c5123bb"},"vehicle_type_id":"4","last_reported":1734188907,"current_range_meters":6000,"station_id":"ce4bhi12rcd13ifvqfo0","pricing_plan_id":"cebpf4jnsgd1na2vs0mg"},{"bike_id":"c5b3e478-06e9-40c6-83ff-c4f2a3011449","system_id":"levelo_inurba_marseille","lat":43.32034,"lon":5.4157,"is_reserved":false,"is_disabled":false,"rental_uris":{"android":"levelo://app?vid=c5b3e478-06e9-40c6-83ff-c4f2a3011449","ios":"levelo://app?vid=c5b3e478-06e9-40c6-83ff-c4f2a3011449"},"vehicle_type_id":"4","last_reported":1734188907,"current_range_meters":38800,"station_id":"ce4bhq92rcd13ifvqhkg","pricing_plan_id":"cebpf4jnsgd1na2vs0mg"},{"bike_id":"c6c1ca25-9d20-4592-8665-5e2613c6ef34","system_id":"levelo_inurba_marseille","lat":43.32482,"lon":5.36562,"is_reserved":false,"is_disabled":false,"rental_uris":{"android":"levelo://app?vid=c6c1ca25-9d20-4592-8665-5e2613c6ef34","ios":"levelo://app?vid=c6c1ca25-9d20-4592-8665-5e2613c6ef34"},"vehicle_type_id":"4","last_reported":1734188907,"current_range_meters":38800,"station_id":"ce4bhs12rcd13ifvqhvg","pricing_plan_id":"cebpf4jnsgd1na2vs0mg"},{"bike_id":"27524b8d-9acb-4c02-bc9e-4b8bb31c2a6d","system_id":"levelo_inurba_marseille","lat":43.26492,"lon":5.39543,"is_reserved":false,"is_disabled":false,"rental_uris":{"android":"levelo://app?vid=27524b8d-9acb-4c02-bc9e-4b8bb31c2a6d","ios":"levelo://app?vid=27524b8d-9acb-4c02-bc9e-4b8bb31c2a6d"},"vehicle_type_id":"4","last_reported":1734188907,"current_range_meters":28000,"station_id":"ce4bhi12rcd13ifvqfq0","pricing_plan_id":"cebpf4jnsgd1na2vs0mg"},{"bike_id":"ca59d865-1951-4846-a717-a349b9e50e7c","system_id":"levelo_inurba_marseille","lat":43.27613,"lon":5.361084,"is_reserved":false,"is_disabled":true,"rental_uris":{"android":"levelo://app?vid=ca59d865-1951-4846-a717-a349b9e50e7c","ios":"levelo://app?vid=ca59d865-1951-4846-a717-a349b9e50e7c"},"vehicle_type_id":"4","last_reported":1734188907,"current_range_meters":36400,"station_id":"ce4bgj92rcd13ifvqbe0","pricing_plan_id":"cebpf4jnsgd1na2vs0mg"},{"bike_id":"de0c724e-58ea-46fc-9ce2-e29adfbce5de","system_id":"levelo_inurba_marseille","lat":43.2905,"lon":5.35912,"is_reserved":false,"is_disabled":false,"rental_uris":{"android":"levelo://app?vid=de0c724e-58ea-46fc-9ce2-e29adfbce5de","ios":"levelo://app?vid=de0c724e-58ea-46fc-9ce2-e29adfbce5de"},"vehicle_type_id":"4","last_reported":1734188907,"current_range_meters":36800,"station_id":"ce4bha92rcd13ifvqeg0","pricing_plan_id":"cebpf4jnsgd1na2vs0mg"},{"bike_id":"283ec910-2b59-4ffd-bbff-9867d116f826","system_id":"levelo_inurba_marseille","lat":43.337444,"lon":5.374475,"is_reserved":false,"is_disabled":true,"rental_uris":{"android":"levelo://app?vid=283ec910-2b59-4ffd-bbff-9867d116f826","ios":"levelo://app?vid=283ec910-2b59-4ffd-bbff-9867d116f826"},"vehicle_type_id":"4","last_reported":1734188907,"current_range_meters":0,"station_id":"","pricing_plan_id":"cebpf4jnsgd1na2vs0mg"},{"bike_id":"0f5dd76c-789d-4a8a-87d5-53312ddd8136","system_id":"levelo_inurba_marseille","lat":43.3149,"lon":5.3731,"is_reserved":false,"is_disabled":false,"rental_uris":{"android":"levelo://app?vid=0f5dd76c-789d-4a8a-87d5-53312ddd8136","ios":"levelo://app?vid=0f5dd76c-789d-4a8a-87d5-53312ddd8136"},"vehicle_type_id":"4","last_reported":1734188907,"current_range_meters":16000,"station_id":"ce4bguh2rcd13ifvqcj0","pricing_plan_id":"cebpf4jnsgd1na2vs0mg"},{"bike_id":"17fd35d3-b5ae-4835-89d5-563396c39234","system_id":"levelo_inurba_marseille","lat":43.25582,"lon":5.38231,"is_reserved":false,"is_disabled":false,"rental_uris":{"android":"levelo://app?vid=17fd35d3-b5ae-4835-89d5-563396c39234","ios":"levelo://app?vid=17fd35d3-b5ae-4835-89d5-563396c39234"},"vehicle_type_id":"4","last_reported":1734188907,"current_range_meters":32000,"station_id":"ce4bhih2rcd13ifvqfs0","pricing_plan_id":"cebpf4jnsgd1na2vs0mg"},{"bike_id":"7937484b-3976-47e6-a69c-b16476636bc4","system_id":"levelo_inurba_marseille","lat":43.29217,"lon":5.36063,"is_reserved":false,"is_disabled":false,"rental_uris":{"android":"levelo://app?vid=7937484b-3976-47e6-a69c-b16476636bc4","ios":"levelo://app?vid=7937484b-3976-47e6-a69c-b16476636bc4"},"vehicle_type_id":"4","last_reported":1734188907,"current_range_meters":36800,"station_id":"ce4bhbh2rcd13ifvqeqg","pricing_plan_id":"cebpf4jnsgd1na2vs0mg"},{"bike_id":"c6234abb-f24f-4e51-8203-a434dd5a5cf7","system_id":"levelo_inurba_marseille","lat":43.27182,"lon":5.41003,"is_reserved":false,"is_disabled":false,"rental_uris":{"android":"levelo://app?vid=c6234abb-f24f-4e51-8203-a434dd5a5cf7","ios":"levelo://app?vid=c6234abb-f24f-4e51-8203-a434dd5a5cf7"},"vehicle_type_id":"4","last_reported":1734188907,"current_range_meters":38000,"station_id":"ce4bhl12rcd13ifvqgf0","pricing_plan_id":"cebpf4jnsgd1na2vs0mg"},{"bike_id":"6e6a004b-462d-4b03-aeaa-2611256f0d89","system_id":"levelo_inurba_marseille","lat":43.28113,"lon":5.38934,"is_reserved":false,"is_disabled":true,"rental_uris":{"android":"levelo://app?vid=6e6a004b-462d-4b03-aeaa-2611256f0d89","ios":"levelo://app?vid=6e6a004b-462d-4b03-aeaa-2611256f0d89"},"vehicle_type_id":"4","last_reported":1734188907,"current_range_meters":0,"station_id":"","pricing_plan_id":"cebpf4jnsgd1na2vs0mg"},{"bike_id":"3163e336-92c3-406e-a614-05c446418e38","system_id":"levelo_inurba_marseille","lat":43.28617,"lon":5.35104,"is_reserved":false,"is_disabled":false,"rental_uris":{"android":"levelo://app?vid=3163e336-92c3-406e-a614-05c446418e38","ios":"levelo://app?vid=3163e336-92c3-406e-a614-05c446418e38"},"vehicle_type_id":"4","last_reported":1734188907,"current_range_meters":38400,"station_id":"ce4bhch2rcd13ifvqeug","pricing_plan_id":"cebpf4jnsgd1na2vs0mg"},{"bike_id":"8d50806a-0e21-4afa-9b0d-4348cd7b11ee","system_id":"levelo_inurba_marseille","lat":43.27216,"lon":5.39186,"is_reserved":false,"is_disabled":false,"rental_uris":{"android":"levelo://app?vid=8d50806a-0e21-4afa-9b0d-4348cd7b11ee","ios":"levelo://app?vid=8d50806a-0e21-4afa-9b0d-4348cd7b11ee"},"vehicle_type_id":"4","last_reported":1734188907,"current_range_meters":14000,"station_id":"ce4bhhp2rcd13ifvqfm0","pricing_plan_id":"cebpf4jnsgd1na2vs0mg"},{"bike_id":"c189c9f0-967b-4656-b1e1-af9e73fa288c","system_id":"levelo_inurba_marseille","lat":43.27433,"lon":5.39418,"is_reserved":false,"is_disabled":false,"rental_uris":{"android":"levelo://app?vid=c189c9f0-967b-4656-b1e1-af9e73fa288c","ios":"levelo://app?vid=c189c9f0-967b-4656-b1e1-af9e73fa288c"},"vehicle_type_id":"4","last_reported":1734188907,"current_range_meters":30800,"station_id":"ce4bhdp2rcd13ifvqf20","pricing_plan_id":"cebpf4jnsgd1na2vs0mg"},{"bike_id":"c8727f36-6d82-45d4-8a0c-bd58abd6552f","system_id":"levelo_inurba_marseille","lat":43.28611,"lon":5.37064,"is_reserved":false,"is_disabled":false,"rental_uris":{"android":"levelo://app?vid=c8727f36-6d82-45d4-8a0c-bd58abd6552f","ios":"levelo://app?vid=c8727f36-6d82-45d4-8a0c-bd58abd6552f"},"vehicle_type_id":"4","last_reported":1734188907,"current_range_meters":38800,"station_id":"ce4bht12rcd13ifvqi60","pricing_plan_id":"cebpf4jnsgd1na2vs0mg"},{"bike_id":"78add740-1587-4905-bbbd-44b739c02b99","system_id":"levelo_inurba_marseille","lat":43.27055,"lon":5.4026,"is_reserved":false,"is_disabled":false,"rental_uris":{"android":"levelo://app?vid=78add740-1587-4905-bbbd-44b739c02b99","ios":"levelo://app?vid=78add740-1587-4905-bbbd-44b739c02b99"},"vehicle_type_id":"4","last_reported":1734188907,"current_range_meters":16000,"station_id":"ce4bhk92rcd13ifvqgc0","pricing_plan_id":"cebpf4jnsgd1na2vs0mg"},{"bike_id":"429b2efb-6772-42f0-96d6-2961bfdcc6c9","system_id":"levelo_inurba_marseille","lat":43.27206,"lon":5.39183,"is_reserved":false,"is_disabled":false,"rental_uris":{"android":"levelo://app?vid=429b2efb-6772-42f0-96d6-2961bfdcc6c9","ios":"levelo://app?vid=429b2efb-6772-42f0-96d6-2961bfdcc6c9"},"vehicle_type_id":"4","last_reported":1734188907,"current_range_meters":6800,"station_id":"ce4bhhp2rcd13ifvqfm0","pricing_plan_id":"cebpf4jnsgd1na2vs0mg"},{"bike_id":"702fe746-2950-4d83-96ad-da74f787e42f","system_id":"levelo_inurba_marseille","lat":43.25862,"lon":5.39902,"is_reserved":false,"is_disabled":false,"rental_uris":{"android":"levelo://app?vid=702fe746-2950-4d83-96ad-da74f787e42f","ios":"levelo://app?vid=702fe746-2950-4d83-96ad-da74f787e42f"},"vehicle_type_id":"4","last_reported":1734188907,"current_range_meters":36400,"station_id":"ce4bhl92rcd13ifvqghg","pricing_plan_id":"cebpf4jnsgd1na2vs0mg"},{"bike_id":"f5462292-e752-43c8-afad-790974936d42","system_id":"levelo_inurba_marseille","lat":43.27578,"lon":5.38419,"is_reserved":false,"is_disabled":false,"rental_uris":{"android":"levelo://app?vid=f5462292-e752-43c8-afad-790974936d42","ios":"levelo://app?vid=f5462292-e752-43c8-afad-790974936d42"},"vehicle_type_id":"4","last_reported":1734188907,"current_range_meters":30400,"station_id":"ce4bhh92rcd13ifvqfi0","pricing_plan_id":"cebpf4jnsgd1na2vs0mg"},{"bike_id":"7965bd8b-65b9-4460-9e65-36f253ebc53b","system_id":"levelo_inurba_marseille","lat":43.320489,"lon":5.415279,"is_reserved":false,"is_disabled":false,"rental_uris":{"android":"levelo://app?vid=7965bd8b-65b9-4460-9e65-36f253ebc53b","ios":"levelo://app?vid=7965bd8b-65b9-4460-9e65-36f253ebc53b"},"vehicle_type_id":"4","last_reported":1734188907,"current_range_meters":19200,"station_id":"ce4bhq92rcd13ifvqhkg","pricing_plan_id":"cebpf4jnsgd1na2vs0mg"},{"bike_id":"8ad8e67d-e633-4cc6-b17e-d811acbc59e5","system_id":"levelo_inurba_marseille","lat":43.30541,"lon":5.36553,"is_reserved":false,"is_disabled":false,"rental_uris":{"android":"levelo://app?vid=8ad8e67d-e633-4cc6-b17e-d811acbc59e5","ios":"levelo://app?vid=8ad8e67d-e633-4cc6-b17e-d811acbc59e5"},"vehicle_type_id":"4","last_reported":1734188907,"current_range_meters":12400,"station_id":"ce4bgs12rcd13ifvqcag","pricing_plan_id":"cebpf4jnsgd1na2vs0mg"},{"bike_id":"e5192aff-1008-4e7e-b82a-23b5df79d920","system_id":"levelo_inurba_marseille","lat":43.29547,"lon":5.42308,"is_reserved":false,"is_disabled":false,"rental_uris":{"android":"levelo://app?vid=e5192aff-1008-4e7e-b82a-23b5df79d920","ios":"levelo://app?vid=e5192aff-1008-4e7e-b82a-23b5df79d920"},"vehicle_type_id":"4","last_reported":1734188907,"current_range_meters":38000,"station_id":"ce4bhph2rcd13ifvqhdg","pricing_plan_id":"cebpf4jnsgd1na2vs0mg"},{"bike_id":"04f74f3a-620d-4cfe-a925-05d9d082937d","system_id":"levelo_inurba_marseille","lat":43.27997,"lon":5.41662,"is_reserved":false,"is_disabled":false,"rental_uris":{"android":"levelo://app?vid=04f74f3a-620d-4cfe-a925-05d9d082937d","ios":"levelo://app?vid=04f74f3a-620d-4cfe-a925-05d9d082937d"},"vehicle_type_id":"4","last_reported":1734188907,"current_range_meters":32400,"station_id":"ce4bho12rcd13ifvqh1g","pricing_plan_id":"cebpf4jnsgd1na2vs0mg"},{"bike_id":"07aaffff-6c5a-4390-a6e5-b91a437396ec","system_id":"levelo_inurba_marseille","lat":43.24163,"lon":5.36404,"is_reserved":false,"is_disabled":false,"rental_uris":{"android":"levelo://app?vid=07aaffff-6c5a-4390-a6e5-b91a437396ec","ios":"levelo://app?vid=07aaffff-6c5a-4390-a6e5-b91a437396ec"},"vehicle_type_id":"4","last_reported":1734188907,"current_range_meters":10800,"station_id":"cpo36qri1sfpv3e86is0","pricing_plan_id":"cebpf4jnsgd1na2vs0mg"},{"bike_id":"3fe39583-58e4-474a-8105-36a06d15f540","system_id":"levelo_inurba_marseille","lat":43.32482,"lon":5.36592,"is_reserved":false,"is_disabled":false,"rental_uris":{"android":"levelo://app?vid=3fe39583-58e4-474a-8105-36a06d15f540","ios":"levelo://app?vid=3fe39583-58e4-474a-8105-36a06d15f540"},"vehicle_type_id":"4","last_reported":1734188907,"current_range_meters":20800,"station_id":"ce4bhs12rcd13ifvqhvg","pricing_plan_id":"cebpf4jnsgd1na2vs0mg"},{"bike_id":"a5589391-a7e4-412b-9a87-f917b2322580","system_id":"levelo_inurba_marseille","lat":43.23054,"lon":5.35492,"is_reserved":false,"is_disabled":false,"rental_uris":{"android":"levelo://app?vid=a5589391-a7e4-412b-9a87-f917b2322580","ios":"levelo://app?vid=a5589391-a7e4-412b-9a87-f917b2322580"},"vehicle_type_id":"4","last_reported":1734188907,"current_range_meters":35600,"station_id":"cpo3342slgdg3j2ifvpg","pricing_plan_id":"cebpf4jnsgd1na2vs0mg"},{"bike_id":"a1acc031-48d1-48e2-b872-2d2bf15b18f5","system_id":"levelo_inurba_marseille","lat":43.32047,"lon":5.41584,"is_reserved":false,"is_disabled":false,"rental_uris":{"android":"levelo://app?vid=a1acc031-48d1-48e2-b872-2d2bf15b18f5","ios":"levelo://app?vid=a1acc031-48d1-48e2-b872-2d2bf15b18f5"},"vehicle_type_id":"4","last_reported":1734188907,"current_range_meters":39200,"station_id":"ce4bhq92rcd13ifvqhkg","pricing_plan_id":"cebpf4jnsgd1na2vs0mg"},{"bike_id":"94cb59f0-d33f-441e-8ccd-84870df561ff","system_id":"levelo_inurba_marseille","lat":43.24387,"lon":5.37055,"is_reserved":false,"is_disabled":true,"rental_uris":{"android":"levelo://app?vid=94cb59f0-d33f-441e-8ccd-84870df561ff","ios":"levelo://app?vid=94cb59f0-d33f-441e-8ccd-84870df561ff"},"vehicle_type_id":"4","last_reported":1734188907,"current_range_meters":1200,"station_id":"ce4bhhh2rcd13ifvqfk0","pricing_plan_id":"cebpf4jnsgd1na2vs0mg"},{"bike_id":"e77fdb56-8255-490e-b9ec-ef5989b433cf","system_id":"levelo_inurba_marseille","lat":43.30947,"lon":5.39068,"is_reserved":false,"is_disabled":false,"rental_uris":{"android":"levelo://app?vid=e77fdb56-8255-490e-b9ec-ef5989b433cf","ios":"levelo://app?vid=e77fdb56-8255-490e-b9ec-ef5989b433cf"},"vehicle_type_id":"4","last_reported":1734188907,"current_range_meters":17600,"station_id":"ce4bgup2rcd13ifvqco0","pricing_plan_id":"cebpf4jnsgd1na2vs0mg"},{"bike_id":"e8c8745f-8e0d-4ce9-8cc3-92cb96b2b19a","system_id":"levelo_inurba_marseille","lat":43.26195,"lon":5.3793,"is_reserved":false,"is_disabled":false,"rental_uris":{"android":"levelo://app?vid=e8c8745f-8e0d-4ce9-8cc3-92cb96b2b19a","ios":"levelo://app?vid=e8c8745f-8e0d-4ce9-8cc3-92cb96b2b19a"},"vehicle_type_id":"4","last_reported":1734188907,"current_range_meters":11200,"station_id":"ce4bhjp2rcd13ifvqg90","pricing_plan_id":"cebpf4jnsgd1na2vs0mg"},{"bike_id":"03855734-fbef-47bb-a528-1ffa6247890e","system_id":"levelo_inurba_marseille","lat":43.30468,"lon":5.37903,"is_reserved":false,"is_disabled":false,"rental_uris":{"android":"levelo://app?vid=03855734-fbef-47bb-a528-1ffa6247890e","ios":"levelo://app?vid=03855734-fbef-47bb-a528-1ffa6247890e"},"vehicle_type_id":"4","last_reported":1734188907,"current_range_meters":36800,"station_id":"ce4bgup2rcd13ifvqcn0","pricing_plan_id":"cebpf4jnsgd1na2vs0mg"},{"bike_id":"0a3acc54-8187-477d-8868-f9b4e53f36d2","system_id":"levelo_inurba_marseille","lat":43.28937,"lon":5.36643,"is_reserved":false,"is_disabled":false,"rental_uris":{"android":"levelo://app?vid=0a3acc54-8187-477d-8868-f9b4e53f36d2","ios":"levelo://app?vid=0a3acc54-8187-477d-8868-f9b4e53f36d2"},"vehicle_type_id":"4","last_reported":1734188907,"current_range_meters":6400,"station_id":"ce4bhap2rcd13ifvqek0","pricing_plan_id":"cebpf4jnsgd1na2vs0mg"},{"bike_id":"a8f0de7b-1973-4f72-99a5-213e7b2f08d7","system_id":"levelo_inurba_marseille","lat":43.27367,"lon":5.3626,"is_reserved":false,"is_disabled":false,"rental_uris":{"android":"levelo://app?vid=a8f0de7b-1973-4f72-99a5-213e7b2f08d7","ios":"levelo://app?vid=a8f0de7b-1973-4f72-99a5-213e7b2f08d7"},"vehicle_type_id":"4","last_reported":1734188907,"current_range_meters":39200,"station_id":"ce4bhbh2rcd13ifvqeo0","pricing_plan_id":"cebpf4jnsgd1na2vs0mg"},{"bike_id":"dd49a983-2577-4e6b-868c-63a9b34b146c","system_id":"levelo_inurba_marseille","lat":43.23198,"lon":5.3555,"is_reserved":false,"is_disabled":true,"rental_uris":{"android":"levelo://app?vid=dd49a983-2577-4e6b-868c-63a9b34b146c","ios":"levelo://app?vid=dd49a983-2577-4e6b-868c-63a9b34b146c"},"vehicle_type_id":"4","last_reported":1734188907,"current_range_meters":1200,"station_id":"ce4bhu92rcd13ifvqi70","pricing_plan_id":"cebpf4jnsgd1na2vs0mg"},{"bike_id":"082d0665-72bb-4a3f-a8bc-a9bef4ed2197","system_id":"levelo_inurba_marseille","lat":43.27073,"lon":5.42278,"is_reserved":false,"is_disabled":false,"rental_uris":{"android":"levelo://app?vid=082d0665-72bb-4a3f-a8bc-a9bef4ed2197","ios":"levelo://app?vid=082d0665-72bb-4a3f-a8bc-a9bef4ed2197"},"vehicle_type_id":"4","last_reported":1734188907,"current_range_meters":16800,"station_id":"ce4bhk92rcd13ifvqgb0","pricing_plan_id":"cebpf4jnsgd1na2vs0mg"},{"bike_id":"d7abb042-0978-4632-bd05-15f8e2238fe7","system_id":"levelo_inurba_marseille","lat":43.26031,"lon":5.37547,"is_reserved":false,"is_disabled":false,"rental_uris":{"android":"levelo://app?vid=d7abb042-0978-4632-bd05-15f8e2238fe7","ios":"levelo://app?vid=d7abb042-0978-4632-bd05-15f8e2238fe7"},"vehicle_type_id":"4","last_reported":1734188907,"current_range_meters":32400,"station_id":"ce4bhgh2rcd13ifvqfa0","pricing_plan_id":"cebpf4jnsgd1na2vs0mg"},{"bike_id":"0f4eef30-7e29-408b-8ee3-419dc1a14b44","system_id":"levelo_inurba_marseille","lat":43.26786,"lon":5.39416,"is_reserved":false,"is_disabled":false,"rental_uris":{"android":"levelo://app?vid=0f4eef30-7e29-408b-8ee3-419dc1a14b44","ios":"levelo://app?vid=0f4eef30-7e29-408b-8ee3-419dc1a14b44"},"vehicle_type_id":"4","last_reported":1734188907,"current_range_meters":22800,"station_id":"ce4bhh12rcd13ifvqfg0","pricing_plan_id":"cebpf4jnsgd1na2vs0mg"},{"bike_id":"7f8c885e-55c7-41c4-9c31-ee8840deb37a","system_id":"levelo_inurba_marseille","lat":43.2603,"lon":5.37551,"is_reserved":false,"is_disabled":false,"rental_uris":{"android":"levelo://app?vid=7f8c885e-55c7-41c4-9c31-ee8840deb37a","ios":"levelo://app?vid=7f8c885e-55c7-41c4-9c31-ee8840deb37a"},"vehicle_type_id":"4","last_reported":1734188907,"current_range_meters":32000,"station_id":"ce4bhgh2rcd13ifvqfa0","pricing_plan_id":"cebpf4jnsgd1na2vs0mg"},{"bike_id":"4646a01b-6664-420a-9fae-a24905986851","system_id":"levelo_inurba_marseille","lat":43.27055,"lon":5.40265,"is_reserved":false,"is_disabled":false,"rental_uris":{"android":"levelo://app?vid=4646a01b-6664-420a-9fae-a24905986851","ios":"levelo://app?vid=4646a01b-6664-420a-9fae-a24905986851"},"vehicle_type_id":"4","last_reported":1734188907,"current_range_meters":4000,"station_id":"ce4bhk92rcd13ifvqgc0","pricing_plan_id":"cebpf4jnsgd1na2vs0mg"},{"bike_id":"ca3bf6a0-806c-4046-b219-bbea4c2ba646","system_id":"levelo_inurba_marseille","lat":43.23194,"lon":5.35548,"is_reserved":false,"is_disabled":false,"rental_uris":{"android":"levelo://app?vid=ca3bf6a0-806c-4046-b219-bbea4c2ba646","ios":"levelo://app?vid=ca3bf6a0-806c-4046-b219-bbea4c2ba646"},"vehicle_type_id":"4","last_reported":1734188907,"current_range_meters":38800,"station_id":"ce4bhu92rcd13ifvqi70","pricing_plan_id":"cebpf4jnsgd1na2vs0mg"},{"bike_id":"166ac817-001a-4993-9d7c-99ef7f3463aa","system_id":"levelo_inurba_marseille","lat":43.29273,"lon":5.38435,"is_reserved":false,"is_disabled":true,"rental_uris":{"android":"levelo://app?vid=166ac817-001a-4993-9d7c-99ef7f3463aa","ios":"levelo://app?vid=166ac817-001a-4993-9d7c-99ef7f3463aa"},"vehicle_type_id":"4","last_reported":1734188907,"current_range_meters":23200,"station_id":"ce4bh692rcd13ifvqea0","pricing_plan_id":"cebpf4jnsgd1na2vs0mg"},{"bike_id":"ad47a73b-ae86-4931-83a4-77c3d592c249","system_id":"levelo_inurba_marseille","lat":43.24387,"lon":5.37063,"is_reserved":false,"is_disabled":false,"rental_uris":{"android":"levelo://app?vid=ad47a73b-ae86-4931-83a4-77c3d592c249","ios":"levelo://app?vid=ad47a73b-ae86-4931-83a4-77c3d592c249"},"vehicle_type_id":"4","last_reported":1734188907,"current_range_meters":3600,"station_id":"ce4bhhh2rcd13ifvqfk0","pricing_plan_id":"cebpf4jnsgd1na2vs0mg"},{"bike_id":"46b2fdec-0870-4ae2-84dc-b1f57512351e","system_id":"levelo_inurba_marseille","lat":43.337444,"lon":5.374475,"is_reserved":false,"is_disabled":true,"rental_uris":{"android":"levelo://app?vid=46b2fdec-0870-4ae2-84dc-b1f57512351e","ios":"levelo://app?vid=46b2fdec-0870-4ae2-84dc-b1f57512351e"},"vehicle_type_id":"4","last_reported":1734188907,"current_range_meters":0,"station_id":"","pricing_plan_id":"cebpf4jnsgd1na2vs0mg"},{"bike_id":"e07f8927-8121-4133-911c-f4fdbcb240cf","system_id":"levelo_inurba_marseille","lat":43.33763,"lon":5.37434,"is_reserved":false,"is_disabled":false,"rental_uris":{"android":"levelo://app?vid=e07f8927-8121-4133-911c-f4fdbcb240cf","ios":"levelo://app?vid=e07f8927-8121-4133-911c-f4fdbcb240cf"},"vehicle_type_id":"4","last_reported":1734188907,"current_range_meters":30400,"station_id":"","pricing_plan_id":"cebpf4jnsgd1na2vs0mg"},{"bike_id":"2d1621ab-e817-4a31-b19b-22c30129ac2e","system_id":"levelo_inurba_marseille","lat":43.27998,"lon":5.41661,"is_reserved":false,"is_disabled":false,"rental_uris":{"android":"levelo://app?vid=2d1621ab-e817-4a31-b19b-22c30129ac2e","ios":"levelo://app?vid=2d1621ab-e817-4a31-b19b-22c30129ac2e"},"vehicle_type_id":"4","last_reported":1734188907,"current_range_meters":16400,"station_id":"ce4bho12rcd13ifvqh1g","pricing_plan_id":"cebpf4jnsgd1na2vs0mg"},{"bike_id":"9d601bde-4f09-48e9-ac25-26eb16f97072","system_id":"levelo_inurba_marseille","lat":43.27217,"lon":5.39185,"is_reserved":false,"is_disabled":false,"rental_uris":{"android":"levelo://app?vid=9d601bde-4f09-48e9-ac25-26eb16f97072","ios":"levelo://app?vid=9d601bde-4f09-48e9-ac25-26eb16f97072"},"vehicle_type_id":"4","last_reported":1734188907,"current_range_meters":35200,"station_id":"ce4bhhp2rcd13ifvqfm0","pricing_plan_id":"cebpf4jnsgd1na2vs0mg"},{"bike_id":"59a4a5bc-f1ff-498c-8471-40a7bf183aa7","system_id":"levelo_inurba_marseille","lat":43.23193,"lon":5.35553,"is_reserved":false,"is_disabled":false,"rental_uris":{"android":"levelo://app?vid=59a4a5bc-f1ff-498c-8471-40a7bf183aa7","ios":"levelo://app?vid=59a4a5bc-f1ff-498c-8471-40a7bf183aa7"},"vehicle_type_id":"4","last_reported":1734188907,"current_range_meters":6400,"station_id":"ce4bhu92rcd13ifvqi70","pricing_plan_id":"cebpf4jnsgd1na2vs0mg"},{"bike_id":"06e66145-e4d9-4b75-9f0b-4a386446d2b5","system_id":"levelo_inurba_marseille","lat":43.27318,"lon":5.39136,"is_reserved":false,"is_disabled":false,"rental_uris":{"android":"levelo://app?vid=06e66145-e4d9-4b75-9f0b-4a386446d2b5","ios":"levelo://app?vid=06e66145-e4d9-4b75-9f0b-4a386446d2b5"},"vehicle_type_id":"4","last_reported":1734188907,"current_range_meters":28400,"station_id":"","pricing_plan_id":"cebpf4jnsgd1na2vs0mg"},{"bike_id":"5f11fdd9-45f0-4d70-8224-eef136d43616","system_id":"levelo_inurba_marseille","lat":43.27175,"lon":5.41007,"is_reserved":false,"is_disabled":false,"rental_uris":{"android":"levelo://app?vid=5f11fdd9-45f0-4d70-8224-eef136d43616","ios":"levelo://app?vid=5f11fdd9-45f0-4d70-8224-eef136d43616"},"vehicle_type_id":"4","last_reported":1734188907,"current_range_meters":33200,"station_id":"ce4bhl12rcd13ifvqgf0","pricing_plan_id":"cebpf4jnsgd1na2vs0mg"},{"bike_id":"d61ee836-6e0d-4895-a029-f0941d8a2682","system_id":"levelo_inurba_marseille","lat":43.284243,"lon":5.349778,"is_reserved":false,"is_disabled":false,"rental_uris":{"android":"levelo://app?vid=d61ee836-6e0d-4895-a029-f0941d8a2682","ios":"levelo://app?vid=d61ee836-6e0d-4895-a029-f0941d8a2682"},"vehicle_type_id":"4","last_reported":1734188907,"current_range_meters":36400,"station_id":"ce4bhbh2rcd13ifvqepg","pricing_plan_id":"cebpf4jnsgd1na2vs0mg"},{"bike_id":"0e7799bf-b3f4-4748-a553-10a881d636ec","system_id":"levelo_inurba_marseille","lat":43.27944,"lon":5.41048,"is_reserved":false,"is_disabled":true,"rental_uris":{"android":"levelo://app?vid=0e7799bf-b3f4-4748-a553-10a881d636ec","ios":"levelo://app?vid=0e7799bf-b3f4-4748-a553-10a881d636ec"},"vehicle_type_id":"4","last_reported":1734188907,"current_range_meters":0,"station_id":"ce4bhnp2rcd13ifvqh0g","pricing_plan_id":"cebpf4jnsgd1na2vs0mg"},{"bike_id":"2448f112-093b-44a4-8c49-c482af2ba024","system_id":"levelo_inurba_marseille","lat":43.2306,"lon":5.35479,"is_reserved":false,"is_disabled":false,"rental_uris":{"android":"levelo://app?vid=2448f112-093b-44a4-8c49-c482af2ba024","ios":"levelo://app?vid=2448f112-093b-44a4-8c49-c482af2ba024"},"vehicle_type_id":"4","last_reported":1734188907,"current_range_meters":21600,"station_id":"cpo3342slgdg3j2ifvpg","pricing_plan_id":"cebpf4jnsgd1na2vs0mg"},{"bike_id":"4e297458-9b1e-4fce-85b7-052fe9234e9c","system_id":"levelo_inurba_marseille","lat":43.23204,"lon":5.39969,"is_reserved":false,"is_disabled":false,"rental_uris":{"android":"levelo://app?vid=4e297458-9b1e-4fce-85b7-052fe9234e9c","ios":"levelo://app?vid=4e297458-9b1e-4fce-85b7-052fe9234e9c"},"vehicle_type_id":"4","last_reported":1734188907,"current_range_meters":27600,"station_id":"ce4bhn12rcd13ifvqgqg","pricing_plan_id":"cebpf4jnsgd1na2vs0mg"},{"bike_id":"976dd2ba-4ba9-44b1-aecd-42b1a4435324","system_id":"levelo_inurba_marseille","lat":43.30452,"lon":5.37902,"is_reserved":false,"is_disabled":false,"rental_uris":{"android":"levelo://app?vid=976dd2ba-4ba9-44b1-aecd-42b1a4435324","ios":"levelo://app?vid=976dd2ba-4ba9-44b1-aecd-42b1a4435324"},"vehicle_type_id":"4","last_reported":1734188907,"current_range_meters":26800,"station_id":"ce4bgup2rcd13ifvqcn0","pricing_plan_id":"cebpf4jnsgd1na2vs0mg"},{"bike_id":"d214c25f-242c-440b-993d-cd644c655be6","system_id":"levelo_inurba_marseille","lat":43.23062,"lon":5.35492,"is_reserved":false,"is_disabled":false,"rental_uris":{"android":"levelo://app?vid=d214c25f-242c-440b-993d-cd644c655be6","ios":"levelo://app?vid=d214c25f-242c-440b-993d-cd644c655be6"},"vehicle_type_id":"4","last_reported":1734188907,"current_range_meters":29600,"station_id":"cpo3342slgdg3j2ifvpg","pricing_plan_id":"cebpf4jnsgd1na2vs0mg"},{"bike_id":"a07c5162-4691-4c75-9e9a-18b55015c6ef","system_id":"levelo_inurba_marseille","lat":43.30924,"lon":5.40158,"is_reserved":false,"is_disabled":false,"rental_uris":{"android":"levelo://app?vid=a07c5162-4691-4c75-9e9a-18b55015c6ef","ios":"levelo://app?vid=a07c5162-4691-4c75-9e9a-18b55015c6ef"},"vehicle_type_id":"4","last_reported":1734188907,"current_range_meters":37600,"station_id":"ce4bgvp2rcd13ifvqct0","pricing_plan_id":"cebpf4jnsgd1na2vs0mg"},{"bike_id":"6f56edec-47f3-4089-9c04-11e42d2f2a26","system_id":"levelo_inurba_marseille","lat":43.30505,"lon":5.36679,"is_reserved":false,"is_disabled":false,"rental_uris":{"android":"levelo://app?vid=6f56edec-47f3-4089-9c04-11e42d2f2a26","ios":"levelo://app?vid=6f56edec-47f3-4089-9c04-11e42d2f2a26"},"vehicle_type_id":"4","last_reported":1734188907,"current_range_meters":33600,"station_id":"","pricing_plan_id":"cebpf4jnsgd1na2vs0mg"},{"bike_id":"6d05f7ba-808a-4403-b1f3-f8483fec843c","system_id":"levelo_inurba_marseille","lat":43.23186,"lon":5.35566,"is_reserved":false,"is_disabled":false,"rental_uris":{"android":"levelo://app?vid=6d05f7ba-808a-4403-b1f3-f8483fec843c","ios":"levelo://app?vid=6d05f7ba-808a-4403-b1f3-f8483fec843c"},"vehicle_type_id":"4","last_reported":1734188907,"current_range_meters":22000,"station_id":"ce4bhu92rcd13ifvqi70","pricing_plan_id":"cebpf4jnsgd1na2vs0mg"},{"bike_id":"a0b89159-70a1-4f4a-b88f-d6f74fb0338c","system_id":"levelo_inurba_marseille","lat":43.30442,"lon":5.37889,"is_reserved":false,"is_disabled":false,"rental_uris":{"android":"levelo://app?vid=a0b89159-70a1-4f4a-b88f-d6f74fb0338c","ios":"levelo://app?vid=a0b89159-70a1-4f4a-b88f-d6f74fb0338c"},"vehicle_type_id":"4","last_reported":1734188907,"current_range_meters":24800,"station_id":"ce4bgup2rcd13ifvqcn0","pricing_plan_id":"cebpf4jnsgd1na2vs0mg"},{"bike_id":"be950134-8ac5-4386-8841-b50c5f7cad6d","system_id":"levelo_inurba_marseille","lat":43.283539,"lon":5.350189,"is_reserved":false,"is_disabled":false,"rental_uris":{"android":"levelo://app?vid=be950134-8ac5-4386-8841-b50c5f7cad6d","ios":"levelo://app?vid=be950134-8ac5-4386-8841-b50c5f7cad6d"},"vehicle_type_id":"4","last_reported":1734188907,"current_range_meters":18000,"station_id":"ce4bhbh2rcd13ifvqepg","pricing_plan_id":"cebpf4jnsgd1na2vs0mg"},{"bike_id":"a5397efa-629d-4917-8594-0532aea74fe2","system_id":"levelo_inurba_marseille","lat":43.28454,"lon":5.35899,"is_reserved":false,"is_disabled":true,"rental_uris":{"android":"levelo://app?vid=a5397efa-629d-4917-8594-0532aea74fe2","ios":"levelo://app?vid=a5397efa-629d-4917-8594-0532aea74fe2"},"vehicle_type_id":"4","last_reported":1734188907,"current_range_meters":11600,"station_id":"ce4bhah2rcd13ifvqei0","pricing_plan_id":"cebpf4jnsgd1na2vs0mg"},{"bike_id":"8dc6ba3b-eadd-4bf8-84a4-63fd959b82ac","system_id":"levelo_inurba_marseille","lat":43.27317,"lon":5.39095,"is_reserved":false,"is_disabled":false,"rental_uris":{"android":"levelo://app?vid=8dc6ba3b-eadd-4bf8-84a4-63fd959b82ac","ios":"levelo://app?vid=8dc6ba3b-eadd-4bf8-84a4-63fd959b82ac"},"vehicle_type_id":"4","last_reported":1734188907,"current_range_meters":27600,"station_id":"ce4bhgp2rcd13ifvqfe0","pricing_plan_id":"cebpf4jnsgd1na2vs0mg"},{"bike_id":"b8c45ce9-6dee-4fcf-86a3-860523310ea8","system_id":"levelo_inurba_marseille","lat":43.29375,"lon":5.37858,"is_reserved":false,"is_disabled":true,"rental_uris":{"android":"levelo://app?vid=b8c45ce9-6dee-4fcf-86a3-860523310ea8","ios":"levelo://app?vid=b8c45ce9-6dee-4fcf-86a3-860523310ea8"},"vehicle_type_id":"4","last_reported":1734188907,"current_range_meters":0,"station_id":"ce4bgjh2rcd13ifvqbf0","pricing_plan_id":"cebpf4jnsgd1na2vs0mg"},{"bike_id":"9c8c1480-9ffa-4086-913c-c2125a6eb848","system_id":"levelo_inurba_marseille","lat":43.22933,"lon":5.35377,"is_reserved":false,"is_disabled":false,"rental_uris":{"android":"levelo://app?vid=9c8c1480-9ffa-4086-913c-c2125a6eb848","ios":"levelo://app?vid=9c8c1480-9ffa-4086-913c-c2125a6eb848"},"vehicle_type_id":"4","last_reported":1734188907,"current_range_meters":27600,"station_id":"cpo3532slgdg3j2ikp40","pricing_plan_id":"cebpf4jnsgd1na2vs0mg"},{"bike_id":"bcf74671-8c62-40b9-aa07-77db84144656","system_id":"levelo_inurba_marseille","lat":43.22929,"lon":5.35376,"is_reserved":false,"is_disabled":false,"rental_uris":{"android":"levelo://app?vid=bcf74671-8c62-40b9-aa07-77db84144656","ios":"levelo://app?vid=bcf74671-8c62-40b9-aa07-77db84144656"},"vehicle_type_id":"4","last_reported":1734188907,"current_range_meters":37600,"station_id":"cpo3532slgdg3j2ikp40","pricing_plan_id":"cebpf4jnsgd1na2vs0mg"},{"bike_id":"07890260-ab5a-434b-9508-1b78d49b91ec","system_id":"levelo_inurba_marseille","lat":43.30586,"lon":5.37199,"is_reserved":false,"is_disabled":false,"rental_uris":{"android":"levelo://app?vid=07890260-ab5a-434b-9508-1b78d49b91ec","ios":"levelo://app?vid=07890260-ab5a-434b-9508-1b78d49b91ec"},"vehicle_type_id":"4","last_reported":1734188907,"current_range_meters":4800,"station_id":"ce4bgqh2rcd13ifvqc4g","pricing_plan_id":"cebpf4jnsgd1na2vs0mg"},{"bike_id":"a8e64c22-66a2-4f25-bf2f-fb3eb6acebc1","system_id":"levelo_inurba_marseille","lat":43.29861,"lon":5.36296,"is_reserved":false,"is_disabled":false,"rental_uris":{"android":"levelo://app?vid=a8e64c22-66a2-4f25-bf2f-fb3eb6acebc1","ios":"levelo://app?vid=a8e64c22-66a2-4f25-bf2f-fb3eb6acebc1"},"vehicle_type_id":"4","last_reported":1734188907,"current_range_meters":36800,"station_id":"ce4bgpp2rcd13ifvqc3g","pricing_plan_id":"cebpf4jnsgd1na2vs0mg"},{"bike_id":"bbfae43d-1d15-4d73-842a-e7269bb01cc3","system_id":"levelo_inurba_marseille","lat":43.23143,"lon":5.43734,"is_reserved":false,"is_disabled":false,"rental_uris":{"android":"levelo://app?vid=bbfae43d-1d15-4d73-842a-e7269bb01cc3","ios":"levelo://app?vid=bbfae43d-1d15-4d73-842a-e7269bb01cc3"},"vehicle_type_id":"4","last_reported":1734188907,"current_range_meters":23200,"station_id":"ce4bhmp2rcd13ifvqgog","pricing_plan_id":"cebpf4jnsgd1na2vs0mg"},{"bike_id":"427c1ed1-765b-4f41-8d71-e7f5e97c7770","system_id":"levelo_inurba_marseille","lat":43.30949,"lon":5.39029,"is_reserved":false,"is_disabled":false,"rental_uris":{"android":"levelo://app?vid=427c1ed1-765b-4f41-8d71-e7f5e97c7770","ios":"levelo://app?vid=427c1ed1-765b-4f41-8d71-e7f5e97c7770"},"vehicle_type_id":"4","last_reported":1734188907,"current_range_meters":30800,"station_id":"ce4bgup2rcd13ifvqco0","pricing_plan_id":"cebpf4jnsgd1na2vs0mg"},{"bike_id":"9d5f11ae-e28b-41c9-9497-65a3dd46a68e","system_id":"levelo_inurba_marseille","lat":43.29486,"lon":5.3747,"is_reserved":false,"is_disabled":false,"rental_uris":{"android":"levelo://app?vid=9d5f11ae-e28b-41c9-9497-65a3dd46a68e","ios":"levelo://app?vid=9d5f11ae-e28b-41c9-9497-65a3dd46a68e"},"vehicle_type_id":"4","last_reported":1734188907,"current_range_meters":33600,"station_id":"","pricing_plan_id":"cebpf4jnsgd1na2vs0mg"},{"bike_id":"a49c8a43-6aa0-466a-aafc-992b9b807122","system_id":"levelo_inurba_marseille","lat":43.241703,"lon":5.363997,"is_reserved":false,"is_disabled":false,"rental_uris":{"android":"levelo://app?vid=a49c8a43-6aa0-466a-aafc-992b9b807122","ios":"levelo://app?vid=a49c8a43-6aa0-466a-aafc-992b9b807122"},