{"last_updated":1762950139,"ttl":60,"version":"2.2","data":{"bikes":[{"bike_id":"d7db12ce-11cc-4c98-8751-ac59baa5d7aa","system_id":"levelo_inurba_marseille","lat":43.337444,"lon":5.374475,"is_reserved":false,"is_disabled":false,"rental_uris":{"android":"levelo://app?vid=d7db12ce-11cc-4c98-8751-ac59baa5d7aa","ios":"levelo://app?vid=d7db12ce-11cc-4c98-8751-ac59baa5d7aa"},"vehicle_type_id":"4","last_reported":1762950139,"current_range_meters":0,"station_id":"","pricing_plan_id":"cebpf4jnsgd1na2vs0mg"},{"bike_id":"732c07ff-518b-45bc-8bdd-6de8f8ade45f","system_id":"levelo_inurba_marseille","lat":43.29255,"lon":5.38272,"is_reserved":false,"is_disabled":false,"rental_uris":{"android":"levelo://app?vid=732c07ff-518b-45bc-8bdd-6de8f8ade45f","ios":"levelo://app?vid=732c07ff-518b-45bc-8bdd-6de8f8ade45f"},"vehicle_type_id":"4","last_reported":1762950139,"current_range_meters":2800,"station_id":"","pricing_plan_id":"cebpf4jnsgd1na2vs0mg"},{"bike_id":"deb1622f-643f-4b12-b1b7-879cc694c4a2","system_id":"levelo_inurba_marseille","lat":43.26546,"lon":5.37291,"is_reserved":false,"is_disabled":false,"rental_uris":{"android":"levelo://app?vid=deb1622f-643f-4b12-b1b7-879cc694c4a2","ios":"levelo://app?vid=deb1622f-643f-4b12-b1b7-879cc694c4a2"},"vehicle_type_id":"4","last_reported":1762950139,"current_range_meters":2800,"station_id":"ce4bhg12rcd13ifvqf70","pricing_plan_id":"cebpf4jnsgd1na2vs0mg"},{"bike_id":"73177cfa-5136-451e-b441-b50ac15f6f39","system_id":"levelo_inurba_marseille","lat":43.28376,"lon":5.3878,"is_reserved":false,"is_disabled":false,"rental_uris":{"android":"levelo://app?vid=73177cfa-5136-451e-b441-b50ac15f6f39","ios":"levelo://app?vid=73177cfa-5136-451e-b441-b50ac15f6f39"},"vehicle_type_id":"4","last_reported":1762950139,"current_range_meters":3200,"station_id":"","pricing_plan_id":"cebpf4jnsgd1na2vs0mg"},{"bike_id":"5c8bf789-02f2-46c4-8135-58cefd2638fa","system_id":"levelo_inurba_marseille","lat":43.30128,"lon":5.39106,"is_reserved":false,"is_disabled":false,"rental_uris":{"android":"levelo://app?vid=5c8bf789-02f2-46c4-8135-58cefd2638fa","ios":"levelo://app?vid=5c8bf789-02f2-46c4-8135-58cefd2638fa"},"vehicle_type_id":"4","last_reported":1762950139,"current_range_meters":3200,"station_id":"","pricing_plan_id":"cebpf4jnsgd1na2vs0mg"},{"bike_id":"9d210d04-a7ca-4a5d-bc3e-39e3b9e76875","system_id":"levelo_inurba_marseille","lat":43.32542,"lon":5.41431,"is_reserved":false,"is_disabled":false,"rental_uris":{"android":"levelo://app?vid=9d210d04-a7ca-4a5d-bc3e-39e3b9e76875","ios":"levelo://app?vid=9d210d04-a7ca-4a5d-bc3e-39e3b9e76875"},"vehicle_type_id":"4","last_reported":1762950139,"current_range_meters":3200,"station_id":"ce4bhq12rcd13ifvqhhg","pricing_plan_id":"cebpf4jnsgd1na2vs0mg"},{"bike_id":"b2be4fa2-44ee-40dc-acc7-1755c74f1c5d","system_id":"levelo_inurba_marseille","lat":43.297456,"lon":5.411121,"is_reserved":false,"is_disabled":false,"rental_uris":{"android":"levelo://app?vid=b2be4fa2-44ee-40dc-acc7-1755c74f1c5d","ios":"levelo://app?vid=b2be4fa2-44ee-40dc-acc7-1755c74f1c5d"},"vehicle_type_id":"4","last_reported":1762950139,"current_range_meters":3600,"station_id":"","pricing_plan_id":"cebpf4jnsgd1na2vs0mg"},{"bike_id":"349b2ad9-adea-4dd9-9ac9-fffb121b5424","system_id":"levelo_inurba_marseille","lat":43.29892,"lon":5.37537,"is_reserved":false,"is_disabled":false,"rental_uris":{"android":"levelo://app?vid=349b2ad9-adea-4dd9-9ac9-fffb121b5424","ios":"levelo://app?vid=349b2ad9-adea-4dd9-9ac9-fffb121b5424"},"vehicle_type_id":"4","last_reported":1762950139,"current_range_meters":4400,"station_id":"","pricing_plan_id":"cebpf4jnsgd1na2vs0mg"},{"bike_id":"096a9242-d6ed-4111-8d51-7f01ae59dfc5","system_id":"levelo_inurba_marseille","lat":43.29284,"lon":5.40122,"is_reserved":false,"is_disabled":false,"rental_uris":{"android":"levelo://app?vid=096a9242-d6ed-4111-8d51-7f01ae59dfc5","ios":"levelo://app?vid=096a9242-d6ed-4111-8d51-7f01ae59dfc5"},"vehicle_type_id":"4","last_reported":1762950139,"current_range_meters":4400,"station_id":"ce4bh312rcd13ifvqdk0","pricing_plan_id":"cebpf4jnsgd1na2vs0mg"},{"bike_id":"3538517e-ddfe-41e0-a2db-52eb40ba6601","system_id":"levelo_inurba_marseille","lat":43.26496,"lon":5.3955,"is_reserved":false,"is_disabled":false,"rental_uris":{"android":"levelo://app?vid=3538517e-ddfe-41e0-a2db-52eb40ba6601","ios":"levelo://app?vid=3538517e-ddfe-41e0-a2db-52eb40ba6601"},"vehicle_type_id":"4","last_reported":1762950139,"current_range_meters":4400,"station_id":"ce4bhi12rcd13ifvqfq0","pricing_plan_id":"cebpf4jnsgd1na2vs0mg"},{"bike_id":"a0bfeccf-a703-4ce9-ba77-0d47533bc391","system_id":"levelo_inurba_marseille","lat":43.23189,"lon":5.39986,"is_reserved":false,"is_disabled":false,"rental_uris":{"android":"levelo://app?vid=a0bfeccf-a703-4ce9-ba77-0d47533bc391","ios":"levelo://app?vid=a0bfeccf-a703-4ce9-ba77-0d47533bc391"},"vehicle_type_id":"4","last_reported":1762950139,"current_range_meters":4400,"station_id":"ce4bhn12rcd13ifvqgqg","pricing_plan_id":"cebpf4jnsgd1na2vs0mg"},{"bike_id":"a714915f-aff3-456a-ac83-82a945eab060","system_id":"levelo_inurba_marseille","lat":43.297578,"lon":5.427811,"is_reserved":false,"is_disabled":false,"rental_uris":{"android":"levelo://app?vid=a714915f-aff3-456a-ac83-82a945eab060","ios":"levelo://app?vid=a714915f-aff3-456a-ac83-82a945eab060"},"vehicle_type_id":"4","last_reported":1762950139,"current_range_meters":4400,"station_id":"st_d3md5207bmas73dh9klg","pricing_plan_id":"cebpf4jnsgd1na2vs0mg"},{"bike_id":"2fc75e33-c866-4665-9ea7-ff1dec9ba728","system_id":"levelo_inurba_marseille","lat":43.24084,"lon":5.37754,"is_reserved":false,"is_disabled":false,"rental_uris":{"android":"levelo://app?vid=2fc75e33-c866-4665-9ea7-ff1dec9ba728","ios":"levelo://app?vid=2fc75e33-c866-4665-9ea7-ff1dec9ba728"},"vehicle_type_id":"4","last_reported":1762950139,"current_range_meters":4800,"station_id":"ce4bhnp2rcd13ifvqgvg","pricing_plan_id":"cebpf4jnsgd1na2vs0mg"},{"bike_id":"c845d6c3-2990-4c21-b034-5d2e186c317c","system_id":"levelo_inurba_marseille","lat":43.28947,"lon":5.36408,"is_reserved":false,"is_disabled":false,"rental_uris":{"android":"levelo://app?vid=c845d6c3-2990-4c21-b034-5d2e186c317c","ios":"levelo://app?vid=c845d6c3-2990-4c21-b034-5d2e186c317c"},"vehicle_type_id":"4","last_reported":1762950139,"current_range_meters":4800,"station_id":"ce4bhc92rcd13ifvqetg","pricing_plan_id":"cebpf4jnsgd1na2vs0mg"},{"bike_id":"627afaae-55f6-4a6e-9354-19c151d46eb4","system_id":"levelo_inurba_marseille","lat":43.3133,"lon":5.39685,"is_reserved":false,"is_disabled":false,"rental_uris":{"android":"levelo://app?vid=627afaae-55f6-4a6e-9354-19c151d46eb4","ios":"levelo://app?vid=627afaae-55f6-4a6e-9354-19c151d46eb4"},"vehicle_type_id":"4","last_reported":1762950139,"current_range_meters":4800,"station_id":"ce4bgvp2rcd13ifvqcu0","pricing_plan_id":"cebpf4jnsgd1na2vs0mg"},{"bike_id":"71c43ece-c85f-45c7-b4fc-98040570d311","system_id":"levelo_inurba_marseille","lat":43.28849,"lon":5.39305,"is_reserved":false,"is_disabled":false,"rental_uris":{"android":"levelo://app?vid=71c43ece-c85f-45c7-b4fc-98040570d311","ios":"levelo://app?vid=71c43ece-c85f-45c7-b4fc-98040570d311"},"vehicle_type_id":"4","last_reported":1762950139,"current_range_meters":4800,"station_id":"ce4bh2p2rcd13ifvqdi0","pricing_plan_id":"cebpf4jnsgd1na2vs0mg"},{"bike_id":"ad1fa3fc-3ddc-4863-8ab0-53207627dfe0","system_id":"levelo_inurba_marseille","lat":43.30484,"lon":5.37918,"is_reserved":false,"is_disabled":false,"rental_uris":{"android":"levelo://app?vid=ad1fa3fc-3ddc-4863-8ab0-53207627dfe0","ios":"levelo://app?vid=ad1fa3fc-3ddc-4863-8ab0-53207627dfe0"},"vehicle_type_id":"4","last_reported":1762950139,"current_range_meters":5600,"station_id":"","pricing_plan_id":"cebpf4jnsgd1na2vs0mg"},{"bike_id":"2fd8be53-e476-4744-bd05-a38b1d37e6b5","system_id":"levelo_inurba_marseille","lat":43.28605,"lon":5.37058,"is_reserved":false,"is_disabled":false,"rental_uris":{"android":"levelo://app?vid=2fd8be53-e476-4744-bd05-a38b1d37e6b5","ios":"levelo://app?vid=2fd8be53-e476-4744-bd05-a38b1d37e6b5"},"vehicle_type_id":"4","last_reported":1762950139,"current_range_meters":5600,"station_id":"ce4bht12rcd13ifvqi60","pricing_plan_id":"cebpf4jnsgd1na2vs0mg"},{"bike_id":"c620c9fc-398f-4dca-8fdd-2b652311235d","system_id":"levelo_inurba_marseille","lat":43.21197,"lon":5.35088,"is_reserved":false,"is_disabled":true,"rental_uris":{"android":"levelo://app?vid=c620c9fc-398f-4dca-8fdd-2b652311235d","ios":"levelo://app?vid=c620c9fc-398f-4dca-8fdd-2b652311235d"},"vehicle_type_id":"4","last_reported":1762950139,"current_range_meters":5600,"station_id":"st_cvj6sg6p6f1abm77japg","pricing_plan_id":"cebpf4jnsgd1na2vs0mg"},{"bike_id":"375d4787-7c30-41c9-90f9-ec9402419854","system_id":"levelo_inurba_marseille","lat":43.25582,"lon":5.38232,"is_reserved":false,"is_disabled":false,"rental_uris":{"android":"levelo://app?vid=375d4787-7c30-41c9-90f9-ec9402419854","ios":"levelo://app?vid=375d4787-7c30-41c9-90f9-ec9402419854"},"vehicle_type_id":"4","last_reported":1762950139,"current_range_meters":5600,"station_id":"ce4bhih2rcd13ifvqfs0","pricing_plan_id":"cebpf4jnsgd1na2vs0mg"},{"bike_id":"f576a472-224e-40fe-a74a-63b1575dd917","system_id":"levelo_inurba_marseille","lat":43.24396,"lon":5.37069,"is_reserved":false,"is_disabled":false,"rental_uris":{"android":"levelo://app?vid=f576a472-224e-40fe-a74a-63b1575dd917","ios":"levelo://app?vid=f576a472-224e-40fe-a74a-63b1575dd917"},"vehicle_type_id":"4","last_reported":1762950139,"current_range_meters":6000,"station_id":"ce4bhhh2rcd13ifvqfk0","pricing_plan_id":"cebpf4jnsgd1na2vs0mg"},{"bike_id":"16352e7f-c034-4ef1-8a6e-b54abc767aa3","system_id":"levelo_inurba_marseille","lat":43.31022,"lon":5.37927,"is_reserved":false,"is_disabled":false,"rental_uris":{"android":"levelo://app?vid=16352e7f-c034-4ef1-8a6e-b54abc767aa3","ios":"levelo://app?vid=16352e7f-c034-4ef1-8a6e-b54abc767aa3"},"vehicle_type_id":"4","last_reported":1762950139,"current_range_meters":6000,"station_id":"","pricing_plan_id":"cebpf4jnsgd1na2vs0mg"},{"bike_id":"70aa4417-e36a-4185-bc65-59e51d0a39b9","system_id":"levelo_inurba_marseille","lat":43.299408,"lon":5.372171,"is_reserved":false,"is_disabled":false,"rental_uris":{"android":"levelo://app?vid=70aa4417-e36a-4185-bc65-59e51d0a39b9","ios":"levelo://app?vid=70aa4417-e36a-4185-bc65-59e51d0a39b9"},"vehicle_type_id":"4","last_reported":1762950139,"current_range_meters":6000,"station_id":"ce4bgr92rcd13ifvqc7g","pricing_plan_id":"cebpf4jnsgd1na2vs0mg"},{"bike_id":"5e027d23-c1b8-484f-af93-2fef0c0a53d1","system_id":"levelo_inurba_marseille","lat":43.29264,"lon":5.38439,"is_reserved":false,"is_disabled":false,"rental_uris":{"android":"levelo://app?vid=5e027d23-c1b8-484f-af93-2fef0c0a53d1","ios":"levelo://app?vid=5e027d23-c1b8-484f-af93-2fef0c0a53d1"},"vehicle_type_id":"4","last_reported":1762950139,"current_range_meters":6000,"station_id":"ce4bh692rcd13ifvqea0","pricing_plan_id":"cebpf4jnsgd1na2vs0mg"},{"bike_id":"d7026fc3-a346-49bd-8209-179291ba2736","system_id":"levelo_inurba_marseille","lat":43.29883,"lon":5.38418,"is_reserved":false,"is_disabled":false,"rental_uris":{"android":"levelo://app?vid=d7026fc3-a346-49bd-8209-179291ba2736","ios":"levelo://app?vid=d7026fc3-a346-49bd-8209-179291ba2736"},"vehicle_type_id":"4","last_reported":1762950139,"current_range_meters":6000,"station_id":"","pricing_plan_id":"cebpf4jnsgd1na2vs0mg"},{"bike_id":"90dbad48-b750-422a-bf0c-d1d2a88e1cab","system_id":"levelo_inurba_marseille","lat":43.28272,"lon":5.35063,"is_reserved":false,"is_disabled":false,"rental_uris":{"android":"levelo://app?vid=90dbad48-b750-422a-bf0c-d1d2a88e1cab","ios":"levelo://app?vid=90dbad48-b750-422a-bf0c-d1d2a88e1cab"},"vehicle_type_id":"4","last_reported":1762950139,"current_range_meters":6400,"station_id":"ce4bhbp2rcd13ifvqerg","pricing_plan_id":"cebpf4jnsgd1na2vs0mg"},{"bike_id":"06a082a2-8b1a-435a-a650-874d3c0828ae","system_id":"levelo_inurba_marseille","lat":43.30471,"lon":5.37913,"is_reserved":false,"is_disabled":false,"rental_uris":{"android":"levelo://app?vid=06a082a2-8b1a-435a-a650-874d3c0828ae","ios":"levelo://app?vid=06a082a2-8b1a-435a-a650-874d3c0828ae"},"vehicle_type_id":"4","last_reported":1762950139,"current_range_meters":6800,"station_id":"ce4bgup2rcd13ifvqcn0","pricing_plan_id":"cebpf4jnsgd1na2vs0mg"},{"bike_id":"04699299-2180-4ccb-9f26-787b94772ec2","system_id":"levelo_inurba_marseille","lat":43.29203,"lon":5.39323,"is_reserved":false,"is_disabled":false,"rental_uris":{"android":"levelo://app?vid=04699299-2180-4ccb-9f26-787b94772ec2","ios":"levelo://app?vid=04699299-2180-4ccb-9f26-787b94772ec2"},"vehicle_type_id":"4","last_reported":1762950139,"current_range_meters":6800,"station_id":"ce4bh192rcd13ifvqdd0","pricing_plan_id":"cebpf4jnsgd1na2vs0mg"},{"bike_id":"861892f2-0af0-40fe-b698-191d9906341b","system_id":"levelo_inurba_marseille","lat":43.30882,"lon":5.37189,"is_reserved":false,"is_disabled":true,"rental_uris":{"android":"levelo://app?vid=861892f2-0af0-40fe-b698-191d9906341b","ios":"levelo://app?vid=861892f2-0af0-40fe-b698-191d9906341b"},"vehicle_type_id":"4","last_reported":1762950139,"current_range_meters":6800,"station_id":"ce4bguh2rcd13ifvqckg","pricing_plan_id":"cebpf4jnsgd1na2vs0mg"},{"bike_id":"1bef32cb-7d1e-4303-a020-1532c28fd3d9","system_id":"levelo_inurba_marseille","lat":43.29628,"lon":5.42341,"is_reserved":false,"is_disabled":false,"rental_uris":{"android":"levelo://app?vid=1bef32cb-7d1e-4303-a020-1532c28fd3d9","ios":"levelo://app?vid=1bef32cb-7d1e-4303-a020-1532c28fd3d9"},"vehicle_type_id":"4","last_reported":1762950139,"current_range_meters":6800,"station_id":"","pricing_plan_id":"cebpf4jnsgd1na2vs0mg"},{"bike_id":"20bb8acc-1199-41da-b8cd-aae1cca0c232","system_id":"levelo_inurba_marseille","lat":43.24179,"lon":5.39733,"is_reserved":false,"is_disabled":false,"rental_uris":{"android":"levelo://app?vid=20bb8acc-1199-41da-b8cd-aae1cca0c232","ios":"levelo://app?vid=20bb8acc-1199-41da-b8cd-aae1cca0c232"},"vehicle_type_id":"4","last_reported":1762950139,"current_range_meters":6800,"station_id":"ce4bhn12rcd13ifvqgpg","pricing_plan_id":"cebpf4jnsgd1na2vs0mg"},{"bike_id":"e0467342-2ee8-4c36-aeb9-27d25d94ead5","system_id":"levelo_inurba_marseille","lat":43.281589,"lon":5.426205,"is_reserved":false,"is_disabled":true,"rental_uris":{"android":"levelo://app?vid=e0467342-2ee8-4c36-aeb9-27d25d94ead5","ios":"levelo://app?vid=e0467342-2ee8-4c36-aeb9-27d25d94ead5"},"vehicle_type_id":"4","last_reported":1762950139,"current_range_meters":6800,"station_id":"ce4bhnh2rcd13ifvqgug","pricing_plan_id":"cebpf4jnsgd1na2vs0mg"},{"bike_id":"6a5e76f6-56de-4a62-8f3b-a05f01f56411","system_id":"levelo_inurba_marseille","lat":43.211975,"lon":5.350733,"is_reserved":false,"is_disabled":false,"rental_uris":{"android":"levelo://app?vid=6a5e76f6-56de-4a62-8f3b-a05f01f56411","ios":"levelo://app?vid=6a5e76f6-56de-4a62-8f3b-a05f01f56411"},"vehicle_type_id":"4","last_reported":1762950139,"current_range_meters":6800,"station_id":"","pricing_plan_id":"cebpf4jnsgd1na2vs0mg"},{"bike_id":"f210c5d9-e6c9-4a47-a92c-7d32d99c058f","system_id":"levelo_inurba_marseille","lat":43.303512,"lon":5.39697,"is_reserved":false,"is_disabled":false,"rental_uris":{"android":"levelo://app?vid=f210c5d9-e6c9-4a47-a92c-7d32d99c058f","ios":"levelo://app?vid=f210c5d9-e6c9-4a47-a92c-7d32d99c058f"},"vehicle_type_id":"4","last_reported":1762950139,"current_range_meters":7200,"station_id":"","pricing_plan_id":"cebpf4jnsgd1na2vs0mg"},{"bike_id":"69c338c1-d172-4e8a-8dd1-f4c178aac324","system_id":"levelo_inurba_marseille","lat":43.24244,"lon":5.396989,"is_reserved":false,"is_disabled":false,"rental_uris":{"android":"levelo://app?vid=69c338c1-d172-4e8a-8dd1-f4c178aac324","ios":"levelo://app?vid=69c338c1-d172-4e8a-8dd1-f4c178aac324"},"vehicle_type_id":"4","last_reported":1762950139,"current_range_meters":7200,"station_id":"ce4bhn12rcd13ifvqgpg","pricing_plan_id":"cebpf4jnsgd1na2vs0mg"},{"bike_id":"eb35893a-deb2-40c0-9023-6a55dc4d4592","system_id":"levelo_inurba_marseille","lat":43.28527,"lon":5.38378,"is_reserved":false,"is_disabled":false,"rental_uris":{"android":"levelo://app?vid=eb35893a-deb2-40c0-9023-6a55dc4d4592","ios":"levelo://app?vid=eb35893a-deb2-40c0-9023-6a55dc4d4592"},"vehicle_type_id":"4","last_reported":1762950139,"current_range_meters":7200,"station_id":"ce4bh412rcd13ifvqdr0","pricing_plan_id":"cebpf4jnsgd1na2vs0mg"},{"bike_id":"fdc9701f-c261-4a7f-92db-507c45338ace","system_id":"levelo_inurba_marseille","lat":43.278201,"lon":5.407218,"is_reserved":false,"is_disabled":false,"rental_uris":{"android":"levelo://app?vid=fdc9701f-c261-4a7f-92db-507c45338ace","ios":"levelo://app?vid=fdc9701f-c261-4a7f-92db-507c45338ace"},"vehicle_type_id":"4","last_reported":1762950139,"current_range_meters":8000,"station_id":"ce4bhnh2rcd13ifvqgtg","pricing_plan_id":"cebpf4jnsgd1na2vs0mg"},{"bike_id":"9aab732d-99d8-458a-aff5-1ef833353481","system_id":"levelo_inurba_marseille","lat":43.2985,"lon":5.37756,"is_reserved":false,"is_disabled":false,"rental_uris":{"android":"levelo://app?vid=9aab732d-99d8-458a-aff5-1ef833353481","ios":"levelo://app?vid=9aab732d-99d8-458a-aff5-1ef833353481"},"vehicle_type_id":"4","last_reported":1762950139,"current_range_meters":8000,"station_id":"","pricing_plan_id":"cebpf4jnsgd1na2vs0mg"},{"bike_id":"62a14efb-5f7a-4e0d-bbfa-d4a60d07f475","system_id":"levelo_inurba_marseille","lat":43.29753,"lon":5.3734,"is_reserved":false,"is_disabled":false,"rental_uris":{"android":"levelo://app?vid=62a14efb-5f7a-4e0d-bbfa-d4a60d07f475","ios":"levelo://app?vid=62a14efb-5f7a-4e0d-bbfa-d4a60d07f475"},"vehicle_type_id":"4","last_reported":1762950139,"current_range_meters":8000,"station_id":"","pricing_plan_id":"cebpf4jnsgd1na2vs0mg"},{"bike_id":"3e3ee1f8-ee85-45ee-ab53-31a320cc2c73","system_id":"levelo_inurba_marseille","lat":43.323673,"lon":5.388859,"is_reserved":false,"is_disabled":false,"rental_uris":{"android":"levelo://app?vid=3e3ee1f8-ee85-45ee-ab53-31a320cc2c73","ios":"levelo://app?vid=3e3ee1f8-ee85-45ee-ab53-31a320cc2c73"},"vehicle_type_id":"4","last_reported":1762950139,"current_range_meters":8000,"station_id":"ce4bhqp2rcd13ifvqhog","pricing_plan_id":"cebpf4jnsgd1na2vs0mg"},{"bike_id":"b1912dc6-562a-409a-b346-1626d61f3a69","system_id":"levelo_inurba_marseille","lat":43.25579,"lon":5.3824,"is_reserved":false,"is_disabled":true,"rental_uris":{"android":"levelo://app?vid=b1912dc6-562a-409a-b346-1626d61f3a69","ios":"levelo://app?vid=b1912dc6-562a-409a-b346-1626d61f3a69"},"vehicle_type_id":"4","last_reported":1762950139,"current_range_meters":8000,"station_id":"ce4bhih2rcd13ifvqfs0","pricing_plan_id":"cebpf4jnsgd1na2vs0mg"},{"bike_id":"a5bf9bbb-ffe4-43b7-9c00-b04c249581ab","system_id":"levelo_inurba_marseille","lat":43.27054,"lon":5.40264,"is_reserved":false,"is_disabled":false,"rental_uris":{"android":"levelo://app?vid=a5bf9bbb-ffe4-43b7-9c00-b04c249581ab","ios":"levelo://app?vid=a5bf9bbb-ffe4-43b7-9c00-b04c249581ab"},"vehicle_type_id":"4","last_reported":1762950139,"current_range_meters":8400,"station_id":"ce4bhk92rcd13ifvqgc0","pricing_plan_id":"cebpf4jnsgd1na2vs0mg"},{"bike_id":"602c4528-0276-4d56-a8cf-f118349542ad","system_id":"levelo_inurba_marseille","lat":43.297156,"lon":5.366087,"is_reserved":false,"is_disabled":false,"rental_uris":{"android":"levelo://app?vid=602c4528-0276-4d56-a8cf-f118349542ad","ios":"levelo://app?vid=602c4528-0276-4d56-a8cf-f118349542ad"},"vehicle_type_id":"4","last_reported":1762950139,"current_range_meters":8400,"station_id":"ce4bgn12rcd13ifvqbt0","pricing_plan_id":"cebpf4jnsgd1na2vs0mg"},{"bike_id":"f78c7ec5-7eab-4c37-a87e-d781e50bb8e6","system_id":"levelo_inurba_marseille","lat":43.304308,"lon":5.397468,"is_reserved":false,"is_disabled":false,"rental_uris":{"android":"levelo://app?vid=f78c7ec5-7eab-4c37-a87e-d781e50bb8e6","ios":"levelo://app?vid=f78c7ec5-7eab-4c37-a87e-d781e50bb8e6"},"vehicle_type_id":"4","last_reported":1762950139,"current_range_meters":8400,"station_id":"ce4bh092rcd13ifvqd20","pricing_plan_id":"cebpf4jnsgd1na2vs0mg"},{"bike_id":"3f8939ef-8275-4163-bae3-611939f44054","system_id":"levelo_inurba_marseille","lat":43.282692,"lon":5.350563,"is_reserved":false,"is_disabled":false,"rental_uris":{"android":"levelo://app?vid=3f8939ef-8275-4163-bae3-611939f44054","ios":"levelo://app?vid=3f8939ef-8275-4163-bae3-611939f44054"},"vehicle_type_id":"4","last_reported":1762950139,"current_range_meters":8400,"station_id":"ce4bhbp2rcd13ifvqerg","pricing_plan_id":"cebpf4jnsgd1na2vs0mg"},{"bike_id":"bb876394-8105-4de4-a1e8-77f82eee2e26","system_id":"levelo_inurba_marseille","lat":43.21747,"lon":5.34604,"is_reserved":false,"is_disabled":false,"rental_uris":{"android":"levelo://app?vid=bb876394-8105-4de4-a1e8-77f82eee2e26","ios":"levelo://app?vid=bb876394-8105-4de4-a1e8-77f82eee2e26"},"vehicle_type_id":"4","last_reported":1762950139,"current_range_meters":8800,"station_id":"st_cvj6r9ubvosntc0bgbag","pricing_plan_id":"cebpf4jnsgd1na2vs0mg"},{"bike_id":"d95a21b1-b13a-45f8-b924-38cbfddab1fa","system_id":"levelo_inurba_marseille","lat":43.31718,"lon":5.42396,"is_reserved":false,"is_disabled":false,"rental_uris":{"android":"levelo://app?vid=d95a21b1-b13a-45f8-b924-38cbfddab1fa","ios":"levelo://app?vid=d95a21b1-b13a-45f8-b924-38cbfddab1fa"},"vehicle_type_id":"4","last_reported":1762950139,"current_range_meters":8800,"station_id":"ce4bhp92rcd13ifvqhbg","pricing_plan_id":"cebpf4jnsgd1na2vs0mg"},{"bike_id":"7e756491-8a0f-44d7-8ffe-9904db1d0b4d","system_id":"levelo_inurba_marseille","lat":43.29712,"lon":5.36616,"is_reserved":false,"is_disabled":false,"rental_uris":{"android":"levelo://app?vid=7e756491-8a0f-44d7-8ffe-9904db1d0b4d","ios":"levelo://app?vid=7e756491-8a0f-44d7-8ffe-9904db1d0b4d"},"vehicle_type_id":"4","last_reported":1762950139,"current_range_meters":8800,"station_id":"ce4bgn12rcd13ifvqbt0","pricing_plan_id":"cebpf4jnsgd1na2vs0mg"},{"bike_id":"b41e24d8-65c5-426b-bb45-4cabc1a8ec44","system_id":"levelo_inurba_marseille","lat":43.29605,"lon":5.37699,"is_reserved":false,"is_disabled":true,"rental_uris":{"android":"levelo://app?vid=b41e24d8-65c5-426b-bb45-4cabc1a8ec44","ios":"levelo://app?vid=b41e24d8-65c5-426b-bb45-4cabc1a8ec44"},"vehicle_type_id":"4","last_reported":1762950139,"current_range_meters":8800,"station_id":"ce4bgi92rcd13ifvqb90","pricing_plan_id":"cebpf4jnsgd1na2vs0mg"},{"bike_id":"f6431dba-c070-4093-a68c-31be6a6dc968","system_id":"levelo_inurba_marseille","lat":43.326659,"lon":5.413508,"is_reserved":false,"is_disabled":false,"rental_uris":{"android":"levelo://app?vid=f6431dba-c070-4093-a68c-31be6a6dc968","ios":"levelo://app?vid=f6431dba-c070-4093-a68c-31be6a6dc968"},"vehicle_type_id":"4","last_reported":1762950139,"current_range_meters":8800,"station_id":"ce4bhq12rcd13ifvqhhg","pricing_plan_id":"cebpf4jnsgd1na2vs0mg"},{"bike_id":"42b323fb-b62c-4178-bf40-26f13ff4b577","system_id":"levelo_inurba_marseille","lat":43.24951,"lon":5.40482,"is_reserved":false,"is_disabled":false,"rental_uris":{"android":"levelo://app?vid=42b323fb-b62c-4178-bf40-26f13ff4b577","ios":"levelo://app?vid=42b323fb-b62c-4178-bf40-26f13ff4b577"},"vehicle_type_id":"4","last_reported":1762950139,"current_range_meters":8800,"station_id":"st_d2ngiaodas8pm72gd1h0","pricing_plan_id":"cebpf4jnsgd1na2vs0mg"},{"bike_id":"70bffdbe-3b81-49b7-8846-df5bf256346b","system_id":"levelo_inurba_marseille","lat":43.262105,"lon":5.379328,"is_reserved":false,"is_disabled":false,"rental_uris":{"android":"levelo://app?vid=70bffdbe-3b81-49b7-8846-df5bf256346b","ios":"levelo://app?vid=70bffdbe-3b81-49b7-8846-df5bf256346b"},"vehicle_type_id":"4","last_reported":1762950139,"current_range_meters":8800,"station_id":"","pricing_plan_id":"cebpf4jnsgd1na2vs0mg"},{"bike_id":"d078c905-c4fb-4a99-b423-71747d22de60","system_id":"levelo_inurba_marseille","lat":43.258845,"lon":5.394347,"is_reserved":false,"is_disabled":false,"rental_uris":{"android":"levelo://app?vid=d078c905-c4fb-4a99-b423-71747d22de60","ios":"levelo://app?vid=d078c905-c4fb-4a99-b423-71747d22de60"},"vehicle_type_id":"4","last_reported":1762950139,"current_range_meters":9200,"station_id":"ce4bhip2rcd13ifvqft0","pricing_plan_id":"cebpf4jnsgd1na2vs0mg"},{"bike_id":"bb673b1f-1f54-493f-92ad-48c99ddd3b6a","system_id":"levelo_inurba_marseille","lat":43.212079,"lon":5.350811,"is_reserved":false,"is_disabled":false,"rental_uris":{"android":"levelo://app?vid=bb673b1f-1f54-493f-92ad-48c99ddd3b6a","ios":"levelo://app?vid=bb673b1f-1f54-493f-92ad-48c99ddd3b6a"},"vehicle_type_id":"4","last_reported":1762950139,"current_range_meters":9200,"station_id":"","pricing_plan_id":"cebpf4jnsgd1na2vs0mg"},{"bike_id":"767b2f58-18a0-4123-8d37-86fe0b556d1c","system_id":"levelo_inurba_marseille","lat":43.28476,"lon":5.385631,"is_reserved":false,"is_disabled":false,"rental_uris":{"android":"levelo://app?vid=767b2f58-18a0-4123-8d37-86fe0b556d1c","ios":"levelo://app?vid=767b2f58-18a0-4123-8d37-86fe0b556d1c"},"vehicle_type_id":"4","last_reported":1762950139,"current_range_meters":9200,"station_id":"ce4bgup2rcd13ifvqco0","pricing_plan_id":"cebpf4jnsgd1na2vs0mg"},{"bike_id":"0db0b771-f2f3-4f51-a8e8-23c2e1e9a82b","system_id":"levelo_inurba_marseille","lat":43.28483,"lon":5.38573,"is_reserved":false,"is_disabled":false,"rental_uris":{"android":"levelo://app?vid=0db0b771-f2f3-4f51-a8e8-23c2e1e9a82b","ios":"levelo://app?vid=0db0b771-f2f3-4f51-a8e8-23c2e1e9a82b"},"vehicle_type_id":"4","last_reported":1762950139,"current_range_meters":9600,"station_id":"ce4bh8p2rcd13ifvqeb0","pricing_plan_id":"cebpf4jnsgd1na2vs0mg"},{"bike_id":"84aade2c-4b39-4bce-814f-cfa3d6ed46f7","system_id":"levelo_inurba_marseille","lat":43.28482,"lon":5.48389,"is_reserved":false,"is_disabled":false,"rental_uris":{"android":"levelo://app?vid=84aade2c-4b39-4bce-814f-cfa3d6ed46f7","ios":"levelo://app?vid=84aade2c-4b39-4bce-814f-cfa3d6ed46f7"},"vehicle_type_id":"4","last_reported":1762950139,"current_range_meters":9600,"station_id":"st_d3svhcjqgbts73a3dn0g","pricing_plan_id":"cebpf4jnsgd1na2vs0mg"},{"bike_id":"8b0027f2-2490-4f50-a47b-27c1369c6451","system_id":"levelo_inurba_marseille","lat":43.2977,"lon":5.37116,"is_reserved":false,"is_disabled":false,"rental_uris":{"android":"levelo://app?vid=8b0027f2-2490-4f50-a47b-27c1369c6451","ios":"levelo://app?vid=8b0027f2-2490-4f50-a47b-27c1369c6451"},"vehicle_type_id":"4","last_reported":1762950139,"current_range_meters":9600,"station_id":"ce4bgop2rcd13ifvqc1g","pricing_plan_id":"cebpf4jnsgd1na2vs0mg"},{"bike_id":"de965d61-9a4c-488e-9b6c-575893da6a99","system_id":"levelo_inurba_marseille","lat":43.28995,"lon":5.35617,"is_reserved":false,"is_disabled":false,"rental_uris":{"android":"levelo://app?vid=de965d61-9a4c-488e-9b6c-575893da6a99","ios":"levelo://app?vid=de965d61-9a4c-488e-9b6c-575893da6a99"},"vehicle_type_id":"4","last_reported":1762950139,"current_range_meters":10000,"station_id":"ce4bhb92rcd13ifvqen0","pricing_plan_id":"cebpf4jnsgd1na2vs0mg"},{"bike_id":"c47023ab-2905-4a00-af93-ffd0b768cdc9","system_id":"levelo_inurba_marseille","lat":43.2886,"lon":5.42493,"is_reserved":false,"is_disabled":false,"rental_uris":{"android":"levelo://app?vid=c47023ab-2905-4a00-af93-ffd0b768cdc9","ios":"levelo://app?vid=c47023ab-2905-4a00-af93-ffd0b768cdc9"},"vehicle_type_id":"4","last_reported":1762950139,"current_range_meters":10000,"station_id":"st_d3b462108ojc7389ooeg","pricing_plan_id":"cebpf4jnsgd1na2vs0mg"},{"bike_id":"f6134463-5782-4e59-875e-fa5ebcfbb229","system_id":"levelo_inurba_marseille","lat":43.2848,"lon":5.38449,"is_reserved":false,"is_disabled":true,"rental_uris":{"android":"levelo://app?vid=f6134463-5782-4e59-875e-fa5ebcfbb229","ios":"levelo://app?vid=f6134463-5782-4e59-875e-fa5ebcfbb229"},"vehicle_type_id":"4","last_reported":1762950139,"current_range_meters":10000,"station_id":"ce4bh512rcd13ifvqe3g","pricing_plan_id":"cebpf4jnsgd1na2vs0mg"},{"bike_id":"0ab86089-b031-4d3c-825e-338bf8f85e46","system_id":"levelo_inurba_marseille","lat":43.29946,"lon":5.36565,"is_reserved":false,"is_disabled":false,"rental_uris":{"android":"levelo://app?vid=0ab86089-b031-4d3c-825e-338bf8f85e46","ios":"levelo://app?vid=0ab86089-b031-4d3c-825e-338bf8f85e46"},"vehicle_type_id":"4","last_reported":1762950139,"current_range_meters":10000,"station_id":"ce4bgm92rcd13ifvqbr0","pricing_plan_id":"cebpf4jnsgd1na2vs0mg"},{"bike_id":"393ebba5-f26f-4f5b-ba37-0d7b5bd9041d","system_id":"levelo_inurba_marseille","lat":43.21778,"lon":5.34628,"is_reserved":false,"is_disabled":false,"rental_uris":{"android":"levelo://app?vid=393ebba5-f26f-4f5b-ba37-0d7b5bd9041d","ios":"levelo://app?vid=393ebba5-f26f-4f5b-ba37-0d7b5bd9041d"},"vehicle_type_id":"4","last_reported":1762950139,"current_range_meters":10000,"station_id":"","pricing_plan_id":"cebpf4jnsgd1na2vs0mg"},{"bike_id":"b512eca9-cac6-4efd-8495-2fc9db31ff23","system_id":"levelo_inurba_marseille","lat":43.28617,"lon":5.351037,"is_reserved":false,"is_disabled":false,"rental_uris":{"android":"levelo://app?vid=b512eca9-cac6-4efd-8495-2fc9db31ff23","ios":"levelo://app?vid=b512eca9-cac6-4efd-8495-2fc9db31ff23"},"vehicle_type_id":"4","last_reported":1762950139,"current_range_meters":10800,"station_id":"ce4bhch2rcd13ifvqeug","pricing_plan_id":"cebpf4jnsgd1na2vs0mg"},{"bike_id":"b7d093a9-dcd9-452d-a4f8-1565d088daf3","system_id":"levelo_inurba_marseille","lat":43.272242,"lon":5.391646,"is_reserved":false,"is_disabled":false,"rental_uris":{"android":"levelo://app?vid=b7d093a9-dcd9-452d-a4f8-1565d088daf3","ios":"levelo://app?vid=b7d093a9-dcd9-452d-a4f8-1565d088daf3"},"vehicle_type_id":"4","last_reported":1762950139,"current_range_meters":10800,"station_id":"ce4bhhp2rcd13ifvqfm0","pricing_plan_id":"cebpf4jnsgd1na2vs0mg"},{"bike_id":"142fd956-5435-472e-ad35-38a982befe87","system_id":"levelo_inurba_marseille","lat":43.28269,"lon":5.35069,"is_reserved":false,"is_disabled":false,"rental_uris":{"android":"levelo://app?vid=142fd956-5435-472e-ad35-38a982befe87","ios":"levelo://app?vid=142fd956-5435-472e-ad35-38a982befe87"},"vehicle_type_id":"4","last_reported":1762950139,"current_range_meters":10800,"station_id":"ce4bhbp2rcd13ifvqerg","pricing_plan_id":"cebpf4jnsgd1na2vs0mg"},{"bike_id":"50b661f0-112f-4780-95bd-167a8c61a238","system_id":"levelo_inurba_marseille","lat":43.21206,"lon":5.35077,"is_reserved":false,"is_disabled":true,"rental_uris":{"android":"levelo://app?vid=50b661f0-112f-4780-95bd-167a8c61a238","ios":"levelo://app?vid=50b661f0-112f-4780-95bd-167a8c61a238"},"vehicle_type_id":"4","last_reported":1762950139,"current_range_meters":10800,"station_id":"st_cvj6sg6p6f1abm77japg","pricing_plan_id":"cebpf4jnsgd1na2vs0mg"},{"bike_id":"9f7e5eac-75d8-4c9b-bb98-6aa8d53e3bdc","system_id":"levelo_inurba_marseille","lat":43.27842,"lon":5.39211,"is_reserved":false,"is_disabled":false,"rental_uris":{"android":"levelo://app?vid=9f7e5eac-75d8-4c9b-bb98-6aa8d53e3bdc","ios":"levelo://app?vid=9f7e5eac-75d8-4c9b-bb98-6aa8d53e3bdc"},"vehicle_type_id":"4","last_reported":1762950139,"current_range_meters":11200,"station_id":"ce4bhjp2rcd13ifvqga0","pricing_plan_id":"cebpf4jnsgd1na2vs0mg"},{"bike_id":"56eef425-c8cb-4530-9d40-eed0def84266","system_id":"levelo_inurba_marseille","lat":43.27617,"lon":5.36106,"is_reserved":false,"is_disabled":false,"rental_uris":{"android":"levelo://app?vid=56eef425-c8cb-4530-9d40-eed0def84266","ios":"levelo://app?vid=56eef425-c8cb-4530-9d40-eed0def84266"},"vehicle_type_id":"4","last_reported":1762950139,"current_range_meters":11200,"station_id":"ce4bgj92rcd13ifvqbe0","pricing_plan_id":"cebpf4jnsgd1na2vs0mg"},{"bike_id":"93691148-d580-4c99-a1f7-c22d822c6fdb","system_id":"levelo_inurba_marseille","lat":43.21195,"lon":5.35074,"is_reserved":false,"is_disabled":false,"rental_uris":{"android":"levelo://app?vid=93691148-d580-4c99-a1f7-c22d822c6fdb","ios":"levelo://app?vid=93691148-d580-4c99-a1f7-c22d822c6fdb"},"vehicle_type_id":"4","last_reported":1762950139,"current_range_meters":11200,"station_id":"st_cvj6sg6p6f1abm77japg","pricing_plan_id":"cebpf4jnsgd1na2vs0mg"},{"bike_id":"01e8cce2-ff84-43ff-914a-c0c695f60ca4","system_id":"levelo_inurba_marseille","lat":43.29427,"lon":5.38028,"is_reserved":false,"is_disabled":false,"rental_uris":{"android":"levelo://app?vid=01e8cce2-ff84-43ff-914a-c0c695f60ca4","ios":"levelo://app?vid=01e8cce2-ff84-43ff-914a-c0c695f60ca4"},"vehicle_type_id":"4","last_reported":1762950139,"current_range_meters":11600,"station_id":"","pricing_plan_id":"cebpf4jnsgd1na2vs0mg"},{"bike_id":"6911db79-d566-428b-8cb1-1532d67c2ceb","system_id":"levelo_inurba_marseille","lat":43.25926,"lon":5.40866,"is_reserved":false,"is_disabled":false,"rental_uris":{"android":"levelo://app?vid=6911db79-d566-428b-8cb1-1532d67c2ceb","ios":"levelo://app?vid=6911db79-d566-428b-8cb1-1532d67c2ceb"},"vehicle_type_id":"4","last_reported":1762950139,"current_range_meters":11600,"station_id":"ce4bhm92rcd13ifvqglg","pricing_plan_id":"cebpf4jnsgd1na2vs0mg"},{"bike_id":"ed0f0676-8362-4179-a361-5355a4ca3e01","system_id":"levelo_inurba_marseille","lat":43.30927,"lon":5.40147,"is_reserved":false,"is_disabled":false,"rental_uris":{"android":"levelo://app?vid=ed0f0676-8362-4179-a361-5355a4ca3e01","ios":"levelo://app?vid=ed0f0676-8362-4179-a361-5355a4ca3e01"},"vehicle_type_id":"4","last_reported":1762950139,"current_range_meters":11600,"station_id":"ce4bgvp2rcd13ifvqct0","pricing_plan_id":"cebpf4jnsgd1na2vs0mg"},{"bike_id":"edd7e3cc-3a55-41c4-8378-2f9ace1f2818","system_id":"levelo_inurba_marseille","lat":43.29606,"lon":5.38106,"is_reserved":false,"is_disabled":false,"rental_uris":{"android":"levelo://app?vid=edd7e3cc-3a55-41c4-8378-2f9ace1f2818","ios":"levelo://app?vid=edd7e3cc-3a55-41c4-8378-2f9ace1f2818"},"vehicle_type_id":"4","last_reported":1762950139,"current_range_meters":11600,"station_id":"ce4bgl12rcd13ifvqbo0","pricing_plan_id":"cebpf4jnsgd1na2vs0mg"},{"bike_id":"f09b69fd-4220-4b51-8365-9a85828617f1","system_id":"levelo_inurba_marseille","lat":43.330268,"lon":5.390397,"is_reserved":false,"is_disabled":false,"rental_uris":{"android":"levelo://app?vid=f09b69fd-4220-4b51-8365-9a85828617f1","ios":"levelo://app?vid=f09b69fd-4220-4b51-8365-9a85828617f1"},"vehicle_type_id":"4","last_reported":1762950139,"current_range_meters":12000,"station_id":"ce4bhr92rcd13ifvqhrg","pricing_plan_id":"cebpf4jnsgd1na2vs0mg"},{"bike_id":"b1460ca1-7289-4f1f-b10e-10e520aecc27","system_id":"levelo_inurba_marseille","lat":43.27356,"lon":5.42405,"is_reserved":false,"is_disabled":false,"rental_uris":{"android":"levelo://app?vid=b1460ca1-7289-4f1f-b10e-10e520aecc27","ios":"levelo://app?vid=b1460ca1-7289-4f1f-b10e-10e520aecc27"},"vehicle_type_id":"4","last_reported":1762950139,"current_range_meters":12000,"station_id":"","pricing_plan_id":"cebpf4jnsgd1na2vs0mg"},{"bike_id":"0161522f-532a-4059-9e93-fd8f6045278b","system_id":"levelo_inurba_marseille","lat":43.27066,"lon":5.42227,"is_reserved":false,"is_disabled":false,"rental_uris":{"android":"levelo://app?vid=0161522f-532a-4059-9e93-fd8f6045278b","ios":"levelo://app?vid=0161522f-532a-4059-9e93-fd8f6045278b"},"vehicle_type_id":"4","last_reported":1762950139,"current_range_meters":12000,"station_id":"ce4bhk92rcd13ifvqgb0","pricing_plan_id":"cebpf4jnsgd1na2vs0mg"},{"bike_id":"138acbc8-a44a-45ec-9d4e-f41258a8778e","system_id":"levelo_inurba_marseille","lat":43.29816,"lon":5.44076,"is_reserved":false,"is_disabled":false,"rental_uris":{"android":"levelo://app?vid=138acbc8-a44a-45ec-9d4e-f41258a8778e","ios":"levelo://app?vid=138acbc8-a44a-45ec-9d4e-f41258a8778e"},"vehicle_type_id":"4","last_reported":1762950139,"current_range_meters":12000,"station_id":"st_d3jp68qikq2c7381ktn0","pricing_plan_id":"cebpf4jnsgd1na2vs0mg"},{"bike_id":"26fd49f8-7b14-48da-831c-e9b25680731e","system_id":"levelo_inurba_marseille","lat":43.33765,"lon":5.37438,"is_reserved":false,"is_disabled":false,"rental_uris":{"android":"levelo://app?vid=26fd49f8-7b14-48da-831c-e9b25680731e","ios":"levelo://app?vid=26fd49f8-7b14-48da-831c-e9b25680731e"},"vehicle_type_id":"4","last_reported":1762950139,"current_range_meters":12000,"station_id":"","pricing_plan_id":"cebpf4jnsgd1na2vs0mg"},{"bike_id":"c86af3e3-2ed7-4b7b-86a8-00771ea5e4e4","system_id":"levelo_inurba_marseille","lat":43.29532,"lon":5.37538,"is_reserved":false,"is_disabled":false,"rental_uris":{"android":"levelo://app?vid=c86af3e3-2ed7-4b7b-86a8-00771ea5e4e4","ios":"levelo://app?vid=c86af3e3-2ed7-4b7b-86a8-00771ea5e4e4"},"vehicle_type_id":"4","last_reported":1762950139,"current_range_meters":12400,"station_id":"ce4bgkp2rcd13ifvqbmg","pricing_plan_id":"cebpf4jnsgd1na2vs0mg"},{"bike_id":"65062346-4963-425f-99a4-b5bf35095455","system_id":"levelo_inurba_marseille","lat":43.308043,"lon":5.381274,"is_reserved":false,"is_disabled":false,"rental_uris":{"android":"levelo://app?vid=65062346-4963-425f-99a4-b5bf35095455","ios":"levelo://app?vid=65062346-4963-425f-99a4-b5bf35095455"},"vehicle_type_id":"4","last_reported":1762950139,"current_range_meters":12400,"station_id":"ce4bgt12rcd13ifvqce0","pricing_plan_id":"cebpf4jnsgd1na2vs0mg"},{"bike_id":"5804ac99-3bd4-4091-bff1-7487e9285e0c","system_id":"levelo_inurba_marseille","lat":43.29197,"lon":5.37586,"is_reserved":false,"is_disabled":false,"rental_uris":{"android":"levelo://app?vid=5804ac99-3bd4-4091-bff1-7487e9285e0c","ios":"levelo://app?vid=5804ac99-3bd4-4091-bff1-7487e9285e0c"},"vehicle_type_id":"4","last_reported":1762950139,"current_range_meters":12400,"station_id":"","pricing_plan_id":"cebpf4jnsgd1na2vs0mg"},{"bike_id":"97150dc4-71e5-4187-8a3a-2188c13f6fe1","system_id":"levelo_inurba_marseille","lat":43.237823,"lon":5.366363,"is_reserved":false,"is_disabled":false,"rental_uris":{"android":"levelo://app?vid=97150dc4-71e5-4187-8a3a-2188c13f6fe1","ios":"levelo://app?vid=97150dc4-71e5-4187-8a3a-2188c13f6fe1"},"vehicle_type_id":"4","last_reported":1762950139,"current_range_meters":12400,"station_id":"st_d3nk18o9ro0c73en2l3g","pricing_plan_id":"cebpf4jnsgd1na2vs0mg"},{"bike_id":"087ebd05-7afe-4a0d-ad31-5e271e7bdf1b","system_id":"levelo_inurba_marseille","lat":43.30538,"lon":5.38067,"is_reserved":false,"is_disabled":false,"rental_uris":{"android":"levelo://app?vid=087ebd05-7afe-4a0d-ad31-5e271e7bdf1b","ios":"levelo://app?vid=087ebd05-7afe-4a0d-ad31-5e271e7bdf1b"},"vehicle_type_id":"4","last_reported":1762950139,"current_range_meters":12800,"station_id":"","pricing_plan_id":"cebpf4jnsgd1na2vs0mg"},{"bike_id":"2996db98-0e13-44d9-8a5e-417832519060","system_id":"levelo_inurba_marseille","lat":43.29554,"lon":5.42297,"is_reserved":false,"is_disabled":false,"rental_uris":{"android":"levelo://app?vid=2996db98-0e13-44d9-8a5e-417832519060","ios":"levelo://app?vid=2996db98-0e13-44d9-8a5e-417832519060"},"vehicle_type_id":"4","last_reported":1762950139,"current_range_meters":12800,"station_id":"ce4bhph2rcd13ifvqhdg","pricing_plan_id":"cebpf4jnsgd1na2vs0mg"},{"bike_id":"8b027115-1a9e-4312-923f-dbf5aec10ee4","system_id":"levelo_inurba_marseille","lat":43.302267,"lon":5.365095,"is_reserved":false,"is_disabled":false,"rental_uris":{"android":"levelo://app?vid=8b027115-1a9e-4312-923f-dbf5aec10ee4","ios":"levelo://app?vid=8b027115-1a9e-4312-923f-dbf5aec10ee4"},"vehicle_type_id":"4","last_reported":1762950139,"current_range_meters":12800,"station_id":"","pricing_plan_id":"cebpf4jnsgd1na2vs0mg"},{"bike_id":"72af7301-17a8-43a4-84c3-7077a9f4a252","system_id":"levelo_inurba_marseille","lat":43.26564,"lon":5.40329,"is_reserved":false,"is_disabled":false,"rental_uris":{"android":"levelo://app?vid=72af7301-17a8-43a4-84c3-7077a9f4a252","ios":"levelo://app?vid=72af7301-17a8-43a4-84c3-7077a9f4a252"},"vehicle_type_id":"4","last_reported":1762950139,"current_range_meters":13600,"station_id":"ce4bhmp2rcd13ifvqgng","pricing_plan_id":"cebpf4jnsgd1na2vs0mg"},{"bike_id":"841cb1e3-d7ff-4e82-a83c-eaf5e87abdbe","system_id":"levelo_inurba_marseille","lat":43.25581,"lon":5.38234,"is_reserved":false,"is_disabled":false,"rental_uris":{"android":"levelo://app?vid=841cb1e3-d7ff-4e82-a83c-eaf5e87abdbe","ios":"levelo://app?vid=841cb1e3-d7ff-4e82-a83c-eaf5e87abdbe"},"vehicle_type_id":"4","last_reported":1762950139,"current_range_meters":13600,"station_id":"ce4bhih2rcd13ifvqfs0","pricing_plan_id":"cebpf4jnsgd1na2vs0mg"},{"bike_id":"8fb005dc-f22a-47ad-9a64-3ce3a4116023","system_id":"levelo_inurba_marseille","lat":43.29205,"lon":5.39328,"is_reserved":false,"is_disabled":false,"rental_uris":{"android":"levelo://app?vid=8fb005dc-f22a-47ad-9a64-3ce3a4116023","ios":"levelo://app?vid=8fb005dc-f22a-47ad-9a64-3ce3a4116023"},"vehicle_type_id":"4","last_reported":1762950139,"current_range_meters":13600,"station_id":"ce4bh192rcd13ifvqdd0","pricing_plan_id":"cebpf4jnsgd1na2vs0mg"},{"bike_id":"665dd648-39fc-471a-9ff8-da7af6cb6638","system_id":"levelo_inurba_marseille","lat":43.26816,"lon":5.402675,"is_reserved":false,"is_disabled":false,"rental_uris":{"android":"levelo://app?vid=665dd648-39fc-471a-9ff8-da7af6cb6638","ios":"levelo://app?vid=665dd648-39fc-471a-9ff8-da7af6cb6638"},"vehicle_type_id":"4","last_reported":1762950139,"current_range_meters":13600,"station_id":"ce501612rcd8frsf0b60","pricing_plan_id":"cebpf4jnsgd1na2vs0mg"},{"bike_id":"5e6e0c2c-5aff-425c-b9f5-69ee0b364303","system_id":"levelo_inurba_marseille","lat":43.23183,"lon":5.35543,"is_reserved":false,"is_disabled":false,"rental_uris":{"android":"levelo://app?vid=5e6e0c2c-5aff-425c-b9f5-69ee0b364303","ios":"levelo://app?vid=5e6e0c2c-5aff-425c-b9f5-69ee0b364303"},"vehicle_type_id":"4","last_reported":1762950139,"current_range_meters":14000,"station_id":"ce4bhu92rcd13ifvqi70","pricing_plan_id":"cebpf4jnsgd1na2vs0mg"},{"bike_id":"0ad2cfba-f5bd-421b-8f78-57b370b88c29","system_id":"levelo_inurba_marseille","lat":43.231586,"lon":5.437019,"is_reserved":false,"is_disabled":false,"rental_uris":{"android":"levelo://app?vid=0ad2cfba-f5bd-421b-8f78-57b370b88c29","ios":"levelo://app?vid=0ad2cfba-f5bd-421b-8f78-57b370b88c29"},"vehicle_type_id":"4","last_reported":1762950139,"current_range_meters":14000,"station_id":"ce4bhmp2rcd13ifvqgog","pricing_plan_id":"cebpf4jnsgd1na2vs0mg"},{"bike_id":"f0413c71-e0c3-427b-98cb-cdf950c219e3","system_id":"levelo_inurba_marseille","lat":43.31013,"lon":5.40069,"is_reserved":false,"is_disabled":false,"rental_uris":{"android":"levelo://app?vid=f0413c71-e0c3-427b-98cb-cdf950c219e3","ios":"levelo://app?vid=f0413c71-e0c3-427b-98cb-cdf950c219e3"},"vehicle_type_id":"4","last_reported":1762950139,"current_range_meters":14000,"station_id":"","pricing_plan_id":"cebpf4jnsgd1na2vs0mg"},{"bike_id":"ad46cf30-c919-4007-9dac-0d51fc3b975c","system_id":"levelo_inurba_marseille","lat":43.2835,"lon":5.38104,"is_reserved":false,"is_disabled":false,"rental_uris":{"android":"levelo://app?vid=ad46cf30-c919-4007-9dac-0d51fc3b975c","ios":"levelo://app?vid=ad46cf30-c919-4007-9dac-0d51fc3b975c"},"vehicle_type_id":"4","last_reported":1762950139,"current_range_meters":14000,"station_id":"ce4bh412rcd13ifvqdr0","pricing_plan_id":"cebpf4jnsgd1na2vs0mg"},{"bike_id":"e13b78db-2231-48a0-b9e0-a153f32a43f4","system_id":"levelo_inurba_marseille","lat":43.23059,"lon":5.35492,"is_reserved":false,"is_disabled":false,"rental_uris":{"android":"levelo://app?vid=e13b78db-2231-48a0-b9e0-a153f32a43f4","ios":"levelo://app?vid=e13b78db-2231-48a0-b9e0-a153f32a43f4"},"vehicle_type_id":"4","last_reported":1762950139,"current_range_meters":14000,"station_id":"cpo3342slgdg3j2ifvpg","pricing_plan_id":"cebpf4jnsgd1na2vs0mg"},{"bike_id":"90a8e4f8-b2bf-47eb-8882-0bd6e601f36e","system_id":"levelo_inurba_marseille","lat":43.23189,"lon":5.39987,"is_reserved":false,"is_disabled":false,"rental_uris":{"android":"levelo://app?vid=90a8e4f8-b2bf-47eb-8882-0bd6e601f36e","ios":"levelo://app?vid=90a8e4f8-b2bf-47eb-8882-0bd6e601f36e"},"vehicle_type_id":"4","last_reported":1762950139,"current_range_meters":14000,"station_id":"ce4bhn12rcd13ifvqgqg","pricing_plan_id":"cebpf4jnsgd1na2vs0mg"},{"bike_id":"ea2ea199-ed55-425a-9b89-858fa94c1838","system_id":"levelo_inurba_marseille","lat":43.2668,"lon":5.38272,"is_reserved":false,"is_disabled":false,"rental_uris":{"android":"levelo://app?vid=ea2ea199-ed55-425a-9b89-858fa94c1838","ios":"levelo://app?vid=ea2ea199-ed55-425a-9b89-858fa94c1838"},"vehicle_type_id":"4","last_reported":1762950139,"current_range_meters":14000,"station_id":"ce4bhg92rcd13ifvqf90","pricing_plan_id":"cebpf4jnsgd1na2vs0mg"},{"bike_id":"23cf5617-2a8e-4b86-b9b4-9b049dde7593","system_id":"levelo_inurba_marseille","lat":43.323621,"lon":5.367625,"is_reserved":false,"is_disabled":false,"rental_uris":{"android":"levelo://app?vid=23cf5617-2a8e-4b86-b9b4-9b049dde7593","ios":"levelo://app?vid=23cf5617-2a8e-4b86-b9b4-9b049dde7593"},"vehicle_type_id":"4","last_reported":1762950139,"current_range_meters":14400,"station_id":"ce4bhsh2rcd13ifvqi2g","pricing_plan_id":"cebpf4jnsgd1na2vs0mg"},{"bike_id":"bd81f5e0-f006-4016-9713-9c23b54132e7","system_id":"levelo_inurba_marseille","lat":43.29042,"lon":5.39968,"is_reserved":false,"is_disabled":false,"rental_uris":{"android":"levelo://app?vid=bd81f5e0-f006-4016-9713-9c23b54132e7","ios":"levelo://app?vid=bd81f5e0-f006-4016-9713-9c23b54132e7"},"vehicle_type_id":"4","last_reported":1762950139,"current_range_meters":14400,"station_id":"ce4bh392rcd13ifvqdm0","pricing_plan_id":"cebpf4jnsgd1na2vs0mg"},{"bike_id":"d1562a83-9286-4173-9603-a08c676d773a","system_id":"levelo_inurba_marseille","lat":43.21196,"lon":5.3508,"is_reserved":false,"is_disabled":false,"rental_uris":{"android":"levelo://app?vid=d1562a83-9286-4173-9603-a08c676d773a","ios":"levelo://app?vid=d1562a83-9286-4173-9603-a08c676d773a"},"vehicle_type_id":"4","last_reported":1762950139,"current_range_meters":14400,"station_id":"st_cvj6sg6p6f1abm77japg","pricing_plan_id":"cebpf4jnsgd1na2vs0mg"},{"bike_id":"0528378f-1b50-41df-b328-6686306ee922","system_id":"levelo_inurba_marseille","lat":43.216292,"lon":5.344421,"is_reserved":false,"is_disabled":false,"rental_uris":{"android":"levelo://app?vid=0528378f-1b50-41df-b328-6686306ee922","ios":"levelo://app?vid=0528378f-1b50-41df-b328-6686306ee922"},"vehicle_type_id":"4","last_reported":1762950139,"current_range_meters":14400,"station_id":"","pricing_plan_id":"cebpf4jnsgd1na2vs0mg"},{"bike_id":"2f34f274-c8fc-492e-838a-720f2d384a9c","system_id":"levelo_inurba_marseille","lat":43.29987,"lon":5.37182,"is_reserved":false,"is_disabled":false,"rental_uris":{"android":"levelo://app?vid=2f34f274-c8fc-492e-838a-720f2d384a9c","ios":"levelo://app?vid=2f34f274-c8fc-492e-838a-720f2d384a9c"},"vehicle_type_id":"4","last_reported":1762950139,"current_range_meters":14800,"station_id":"ce4bgr92rcd13ifvqc7g","pricing_plan_id":"cebpf4jnsgd1na2vs0mg"},{"bike_id":"e3df63a1-f3d2-4d82-8bf6-df212c4e8b69","system_id":"levelo_inurba_marseille","lat":43.28479,"lon":5.48391,"is_reserved":false,"is_disabled":false,"rental_uris":{"android":"levelo://app?vid=e3df63a1-f3d2-4d82-8bf6-df212c4e8b69","ios":"levelo://app?vid=e3df63a1-f3d2-4d82-8bf6-df212c4e8b69"},"vehicle_type_id":"4","last_reported":1762950139,"current_range_meters":14800,"station_id":"st_d3svhcjqgbts73a3dn0g","pricing_plan_id":"cebpf4jnsgd1na2vs0mg"},{"bike_id":"7405fff1-54cb-4441-8d3b-98a0b2f0eb43","system_id":"levelo_inurba_marseille","lat":43.273281,"lon":5.390523,"is_reserved":false,"is_disabled":false,"rental_uris":{"android":"levelo://app?vid=7405fff1-54cb-4441-8d3b-98a0b2f0eb43","ios":"levelo://app?vid=7405fff1-54cb-4441-8d3b-98a0b2f0eb43"},"vehicle_type_id":"4","last_reported":1762950139,"current_range_meters":14800,"station_id":"","pricing_plan_id":"cebpf4jnsgd1na2vs0mg"},{"bike_id":"f19a854d-96e9-4cf0-92aa-d357813dc143","system_id":"levelo_inurba_marseille","lat":43.28475,"lon":5.38445,"is_reserved":false,"is_disabled":true,"rental_uris":{"android":"levelo://app?vid=f19a854d-96e9-4cf0-92aa-d357813dc143","ios":"levelo://app?vid=f19a854d-96e9-4cf0-92aa-d357813dc143"},"vehicle_type_id":"4","last_reported":1762950139,"current_range_meters":14800,"station_id":"ce4bh512rcd13ifvqe3g","pricing_plan_id":"cebpf4jnsgd1na2vs0mg"},{"bike_id":"485e911c-19fa-4487-bdc7-e815a69b3d13","system_id":"levelo_inurba_marseille","lat":43.24666,"lon":5.38164,"is_reserved":false,"is_disabled":false,"rental_uris":{"android":"levelo://app?vid=485e911c-19fa-4487-bdc7-e815a69b3d13","ios":"levelo://app?vid=485e911c-19fa-4487-bdc7-e815a69b3d13"},"vehicle_type_id":"4","last_reported":1762950139,"current_range_meters":14800,"station_id":"ce4bhih2rcd13ifvqfr0","pricing_plan_id":"cebpf4jnsgd1na2vs0mg"},{"bike_id":"3e9427b7-a28e-43eb-b57c-0cd637ed4284","system_id":"levelo_inurba_marseille","lat":43.23148,"lon":5.43723,"is_reserved":false,"is_disabled":false,"rental_uris":{"android":"levelo://app?vid=3e9427b7-a28e-43eb-b57c-0cd637ed4284","ios":"levelo://app?vid=3e9427b7-a28e-43eb-b57c-0cd637ed4284"},"vehicle_type_id":"4","last_reported":1762950139,"current_range_meters":14800,"station_id":"ce4bhmp2rcd13ifvqgog","pricing_plan_id":"cebpf4jnsgd1na2vs0mg"},{"bike_id":"7cd3fc91-8b4e-4cc9-a97a-8aec9cd4160c","system_id":"levelo_inurba_marseille","lat":43.29884,"lon":5.37196,"is_reserved":false,"is_disabled":true,"rental_uris":{"android":"levelo://app?vid=7cd3fc91-8b4e-4cc9-a97a-8aec9cd4160c","ios":"levelo://app?vid=7cd3fc91-8b4e-4cc9-a97a-8aec9cd4160c"},"vehicle_type_id":"4","last_reported":1762950139,"current_range_meters":15200,"station_id":"","pricing_plan_id":"cebpf4jnsgd1na2vs0mg"},{"bike_id":"edb00cb3-c6d5-453c-af7d-91c1a44df362","system_id":"levelo_inurba_marseille","lat":43.30161,"lon":5.38083,"is_reserved":false,"is_disabled":false,"rental_uris":{"android":"levelo://app?vid=edb00cb3-c6d5-453c-af7d-91c1a44df362","ios":"levelo://app?vid=edb00cb3-c6d5-453c-af7d-91c1a44df362"},"vehicle_type_id":"4","last_reported":1762950139,"current_range_meters":15200,"station_id":"ce4bgjp2rcd13ifvqbh0","pricing_plan_id":"cebpf4jnsgd1na2vs0mg"},{"bike_id":"a24d1ed3-7d2a-4935-9058-4a4ebef3dc61","system_id":"levelo_inurba_marseille","lat":43.26546,"lon":5.37289,"is_reserved":false,"is_disabled":false,"rental_uris":{"android":"levelo://app?vid=a24d1ed3-7d2a-4935-9058-4a4ebef3dc61","ios":"levelo://app?vid=a24d1ed3-7d2a-4935-9058-4a4ebef3dc61"},"vehicle_type_id":"4","last_reported":1762950139,"current_range_meters":15200,"station_id":"ce4bhg12rcd13ifvqf70","pricing_plan_id":"cebpf4jnsgd1na2vs0mg"},{"bike_id":"6dc8b84f-81c9-44ce-ba2d-d57b9ad31bcd","system_id":"levelo_inurba_marseille","lat":43.299375,"lon":5.365464,"is_reserved":false,"is_disabled":false,"rental_uris":{"android":"levelo://app?vid=6dc8b84f-81c9-44ce-ba2d-d57b9ad31bcd","ios":"levelo://app?vid=6dc8b84f-81c9-44ce-ba2d-d57b9ad31bcd"},"vehicle_type_id":"4","last_reported":1762950139,"current_range_meters":16000,"station_id":"ce4bgm92rcd13ifvqbr0","pricing_plan_id":"cebpf4jnsgd1na2vs0mg"},{"bike_id":"01571923-980e-446a-ba2d-4d18a11dfcdd","system_id":"levelo_inurba_marseille","lat":43.247893,"lon":5.374739,"is_reserved":false,"is_disabled":false,"rental_uris":{"android":"levelo://app?vid=01571923-980e-446a-ba2d-4d18a11dfcdd","ios":"levelo://app?vid=01571923-980e-446a-ba2d-4d18a11dfcdd"},"vehicle_type_id":"4","last_reported":1762950139,"current_range_meters":16000,"station_id":"","pricing_plan_id":"cebpf4jnsgd1na2vs0mg"},{"bike_id":"c32a49ee-76d4-48ba-b397-49e60fa82e4b","system_id":"levelo_inurba_marseille","lat":43.317,"lon":5.40467,"is_reserved":false,"is_disabled":false,"rental_uris":{"android":"levelo://app?vid=c32a49ee-76d4-48ba-b397-49e60fa82e4b","ios":"levelo://app?vid=c32a49ee-76d4-48ba-b397-49e60fa82e4b"},"vehicle_type_id":"4","last_reported":1762950139,"current_range_meters":16000,"station_id":"ce4bh012rcd13ifvqd00","pricing_plan_id":"cebpf4jnsgd1na2vs0mg"},{"bike_id":"63f48172-b098-4c29-8e4e-a412a60568dc","system_id":"levelo_inurba_marseille","lat":43.32537,"lon":5.41433,"is_reserved":false,"is_disabled":false,"rental_uris":{"android":"levelo://app?vid=63f48172-b098-4c29-8e4e-a412a60568dc","ios":"levelo://app?vid=63f48172-b098-4c29-8e4e-a412a60568dc"},"vehicle_type_id":"4","last_reported":1762950139,"current_range_meters":16000,"station_id":"ce4bhq12rcd13ifvqhhg","pricing_plan_id":"cebpf4jnsgd1na2vs0mg"},{"bike_id":"3ebfd771-15f9-440d-a339-6b112e22528e","system_id":"levelo_inurba_marseille","lat":43.31714,"lon":5.43705,"is_reserved":false,"is_disabled":false,"rental_uris":{"android":"levelo://app?vid=3ebfd771-15f9-440d-a339-6b112e22528e","ios":"levelo://app?vid=3ebfd771-15f9-440d-a339-6b112e22528e"},"vehicle_type_id":"4","last_reported":1762950139,"current_range_meters":16000,"station_id":"ce4bhp92rcd13ifvqhcg","pricing_plan_id":"cebpf4jnsgd1na2vs0mg"},{"bike_id":"1b0b7981-696f-4ec5-932c-764cd2899c70","system_id":"levelo_inurba_marseille","lat":43.2848,"lon":5.48405,"is_reserved":false,"is_disabled":false,"rental_uris":{"android":"levelo://app?vid=1b0b7981-696f-4ec5-932c-764cd2899c70","ios":"levelo://app?vid=1b0b7981-696f-4ec5-932c-764cd2899c70"},"vehicle_type_id":"4","last_reported":1762950139,"current_range_meters":16000,"station_id":"","pricing_plan_id":"cebpf4jnsgd1na2vs0mg"},{"bike_id":"9f77fce6-b576-455d-a43d-b1e175676c28","system_id":"levelo_inurba_marseille","lat":43.33773,"lon":5.37473,"is_reserved":false,"is_disabled":false,"rental_uris":{"android":"levelo://app?vid=9f77fce6-b576-455d-a43d-b1e175676c28","ios":"levelo://app?vid=9f77fce6-b576-455d-a43d-b1e175676c28"},"vehicle_type_id":"4","last_reported":1762950139,"current_range_meters":16000,"station_id":"","pricing_plan_id":"cebpf4jnsgd1na2vs0mg"},{"bike_id":"c01ee74c-0907-4ca7-82d0-a92efd488ad9","system_id":"levelo_inurba_marseille","lat":43.22564,"lon":5.41639,"is_reserved":false,"is_disabled":false,"rental_uris":{"android":"levelo://app?vid=c01ee74c-0907-4ca7-82d0-a92efd488ad9","ios":"levelo://app?vid=c01ee74c-0907-4ca7-82d0-a92efd488ad9"},"vehicle_type_id":"4","last_reported":1762950139,"current_range_meters":16000,"station_id":"st_d2o4gvlbi1j2169b742g","pricing_plan_id":"cebpf4jnsgd1na2vs0mg"},{"bike_id":"3210e757-4d1e-4efd-83c1-043a34b9a756","system_id":"levelo_inurba_marseille","lat":43.24176,"lon":5.39732,"is_reserved":false,"is_disabled":false,"rental_uris":{"android":"levelo://app?vid=3210e757-4d1e-4efd-83c1-043a34b9a756","ios":"levelo://app?vid=3210e757-4d1e-4efd-83c1-043a34b9a756"},"vehicle_type_id":"4","last_reported":1762950139,"current_range_meters":16000,"station_id":"ce4bhn12rcd13ifvqgpg","pricing_plan_id":"cebpf4jnsgd1na2vs0mg"},{"bike_id":"6aae056c-fb4e-4d6e-802b-626c53e8212e","system_id":"levelo_inurba_marseille","lat":43.27058,"lon":5.40257,"is_reserved":false,"is_disabled":false,"rental_uris":{"android":"levelo://app?vid=6aae056c-fb4e-4d6e-802b-626c53e8212e","ios":"levelo://app?vid=6aae056c-fb4e-4d6e-802b-626c53e8212e"},"vehicle_type_id":"4","last_reported":1762950139,"current_range_meters":16400,"station_id":"ce4bhk92rcd13ifvqgc0","pricing_plan_id":"cebpf4jnsgd1na2vs0mg"},{"bike_id":"a26712ac-c4dc-4d7c-9767-877ec57b4780","system_id":"levelo_inurba_marseille","lat":43.284889,"lon":5.483854,"is_reserved":false,"is_disabled":false,"rental_uris":{"android":"levelo://app?vid=a26712ac-c4dc-4d7c-9767-877ec57b4780","ios":"levelo://app?vid=a26712ac-c4dc-4d7c-9767-877ec57b4780"},"vehicle_type_id":"4","last_reported":1762950139,"current_range_meters":16400,"station_id":"st_d3svhcjqgbts73a3dn0g","pricing_plan_id":"cebpf4jnsgd1na2vs0mg"},{"bike_id":"c4d99a60-56bc-4f6e-96c8-b59c44660d79","system_id":"levelo_inurba_marseille","lat":43.24642,"lon":5.38899,"is_reserved":false,"is_disabled":false,"rental_uris":{"android":"levelo://app?vid=c4d99a60-56bc-4f6e-96c8-b59c44660d79","ios":"levelo://app?vid=c4d99a60-56bc-4f6e-96c8-b59c44660d79"},"vehicle_type_id":"4","last_reported":1762950139,"current_range_meters":16400,"station_id":"ce4bhg12rcd13ifvqf60","pricing_plan_id":"cebpf4jnsgd1na2vs0mg"},{"bike_id":"52d4b8ef-bd3b-4594-9933-6de587b7e338","system_id":"levelo_inurba_marseille","lat":43.22904,"lon":5.35407,"is_reserved":false,"is_disabled":false,"rental_uris":{"android":"levelo://app?vid=52d4b8ef-bd3b-4594-9933-6de587b7e338","ios":"levelo://app?vid=52d4b8ef-bd3b-4594-9933-6de587b7e338"},"vehicle_type_id":"4","last_reported":1762950139,"current_range_meters":16400,"station_id":"cpo3532slgdg3j2ikp40","pricing_plan_id":"cebpf4jnsgd1na2vs0mg"},{"bike_id":"5f4af480-3175-4691-b7b0-2fb7d215707c","system_id":"levelo_inurba_marseille","lat":43.292801,"lon":5.368508,"is_reserved":false,"is_disabled":false,"rental_uris":{"android":"levelo://app?vid=5f4af480-3175-4691-b7b0-2fb7d215707c","ios":"levelo://app?vid=5f4af480-3175-4691-b7b0-2fb7d215707c"},"vehicle_type_id":"4","last_reported":1762950139,"current_range_meters":16400,"station_id":"","pricing_plan_id":"cebpf4jnsgd1na2vs0mg"},{"bike_id":"5f24b40e-3707-4354-b3a5-1adb5f403839","system_id":"levelo_inurba_marseille","lat":43.2319,"lon":5.35564,"is_reserved":false,"is_disabled":false,"rental_uris":{"android":"levelo://app?vid=5f24b40e-3707-4354-b3a5-1adb5f403839","ios":"levelo://app?vid=5f24b40e-3707-4354-b3a5-1adb5f403839"},"vehicle_type_id":"4","last_reported":1762950139,"current_range_meters":16400,"station_id":"ce4bhu92rcd13ifvqi70","pricing_plan_id":"cebpf4jnsgd1na2vs0mg"},{"bike_id":"2a2ec83a-2b84-4bf4-b19a-cd864bece9fd","system_id":"levelo_inurba_marseille","lat":43.2463,"lon":5.43153,"is_reserved":false,"is_disabled":false,"rental_uris":{"android":"levelo://app?vid=2a2ec83a-2b84-4bf4-b19a-cd864bece9fd","ios":"levelo://app?vid=2a2ec83a-2b84-4bf4-b19a-cd864bece9fd"},"vehicle_type_id":"4","last_reported":1762950139,"current_range_meters":16400,"station_id":"st_d2m6c4gdas8pm72e190g","pricing_plan_id":"cebpf4jnsgd1na2vs0mg"},{"bike_id":"4ad83ca7-68ad-4882-b16a-f72778975926","system_id":"levelo_inurba_marseille","lat":43.27064,"lon":5.42293,"is_reserved":false,"is_disabled":false,"rental_uris":{"android":"levelo://app?vid=4ad83ca7-68ad-4882-b16a-f72778975926","ios":"levelo://app?vid=4ad83ca7-68ad-4882-b16a-f72778975926"},"vehicle_type_id":"4","last_reported":1762950139,"current_range_meters":16400,"station_id":"ce4bhk92rcd13ifvqgb0","pricing_plan_id":"cebpf4jnsgd1na2vs0mg"},{"bike_id":"a76ed384-8adb-4855-8ea9-608b64e9d92b","system_id":"levelo_inurba_marseille","lat":43.32282,"lon":5.36966,"is_reserved":false,"is_disabled":false,"rental_uris":{"android":"levelo://app?vid=a76ed384-8adb-4855-8ea9-608b64e9d92b","ios":"levelo://app?vid=a76ed384-8adb-4855-8ea9-608b64e9d92b"},"vehicle_type_id":"4","last_reported":1762950139,"current_range_meters":16800,"station_id":"","pricing_plan_id":"cebpf4jnsgd1na2vs0mg"},{"bike_id":"feba1818-bd8b-4490-b819-a63599738f3b","system_id":"levelo_inurba_marseille","lat":43.30302,"lon":5.36913,"is_reserved":false,"is_disabled":true,"rental_uris":{"android":"levelo://app?vid=feba1818-bd8b-4490-b819-a63599738f3b","ios":"levelo://app?vid=feba1818-bd8b-4490-b819-a63599738f3b"},"vehicle_type_id":"4","last_reported":1762950139,"current_range_meters":17200,"station_id":"ce4bgqh2rcd13ifvqc5g","pricing_plan_id":"cebpf4jnsgd1na2vs0mg"},{"bike_id":"ff56b803-7835-4838-9a1d-28b0bd0ab33c","system_id":"levelo_inurba_marseille","lat":43.27824,"lon":5.40705,"is_reserved":false,"is_disabled":false,"rental_uris":{"android":"levelo://app?vid=ff56b803-7835-4838-9a1d-28b0bd0ab33c","ios":"levelo://app?vid=ff56b803-7835-4838-9a1d-28b0bd0ab33c"},"vehicle_type_id":"4","last_reported":1762950139,"current_range_meters":17200,"station_id":"ce4bhnh2rcd13ifvqgtg","pricing_plan_id":"cebpf4jnsgd1na2vs0mg"},{"bike_id":"6beb25aa-8be2-4051-a3c2-823d29538ae2","system_id":"levelo_inurba_marseille","lat":43.29965,"lon":5.38498,"is_reserved":false,"is_disabled":false,"rental_uris":{"android":"levelo://app?vid=6beb25aa-8be2-4051-a3c2-823d29538ae2","ios":"levelo://app?vid=6beb25aa-8be2-4051-a3c2-823d29538ae2"},"vehicle_type_id":"4","last_reported":1762950139,"current_range_meters":17200,"station_id":"ce4bgj92rcd13ifvqbd0","pricing_plan_id":"cebpf4jnsgd1na2vs0mg"},{"bike_id":"98d9ed27-1c51-4232-bb05-142a9e7f98db","system_id":"levelo_inurba_marseille","lat":43.310777,"lon":5.383534,"is_reserved":false,"is_disabled":true,"rental_uris":{"android":"levelo://app?vid=98d9ed27-1c51-4232-bb05-142a9e7f98db","ios":"levelo://app?vid=98d9ed27-1c51-4232-bb05-142a9e7f98db"},"vehicle_type_id":"4","last_reported":1762950139,"current_range_meters":17200,"station_id":"ce4bgv92rcd13ifvqcr0","pricing_plan_id":"cebpf4jnsgd1na2vs0mg"},{"bike_id":"ac6da770-d4b7-4048-86ce-de6f9e251f8c","system_id":"levelo_inurba_marseille","lat":43.276252,"lon":5.361108,"is_reserved":false,"is_disabled":false,"rental_uris":{"android":"levelo://app?vid=ac6da770-d4b7-4048-86ce-de6f9e251f8c","ios":"levelo://app?vid=ac6da770-d4b7-4048-86ce-de6f9e251f8c"},"vehicle_type_id":"4","last_reported":1762950139,"current_range_meters":17200,"station_id":"ce4bgj92rcd13ifvqbe0","pricing_plan_id":"cebpf4jnsgd1na2vs0mg"},{"bike_id":"e0940536-8e97-445f-9fc3-1d0cc2c2fe80","system_id":"levelo_inurba_marseille","lat":43.337444,"lon":5.374475,"is_reserved":false,"is_disabled":false,"rental_uris":{"android":"levelo://app?vid=e0940536-8e97-445f-9fc3-1d0cc2c2fe80","ios":"levelo://app?vid=e0940536-8e97-445f-9fc3-1d0cc2c2fe80"},"vehicle_type_id":"4","last_reported":1762950139,"current_range_meters":17200,"station_id":"","pricing_plan_id":"cebpf4jnsgd1na2vs0mg"},{"bike_id":"e5fd2a35-bd51-4e9f-bea1-931955dab667","system_id":"levelo_inurba_marseille","lat":43.23192,"lon":5.39977,"is_reserved":false,"is_disabled":false,"rental_uris":{"android":"levelo://app?vid=e5fd2a35-bd51-4e9f-bea1-931955dab667","ios":"levelo://app?vid=e5fd2a35-bd51-4e9f-bea1-931955dab667"},"vehicle_type_id":"4","last_reported":1762950139,"current_range_meters":17200,"station_id":"ce4bhn12rcd13ifvqgqg","pricing_plan_id":"cebpf4jnsgd1na2vs0mg"},{"bike_id":"c8beb6b9-4bf6-4336-ad1d-8fa69e7ff53b","system_id":"levelo_inurba_marseille","lat":43.30162,"lon":5.38079,"is_reserved":false,"is_disabled":false,"rental_uris":{"android":"levelo://app?vid=c8beb6b9-4bf6-4336-ad1d-8fa69e7ff53b","ios":"levelo://app?vid=c8beb6b9-4bf6-4336-ad1d-8fa69e7ff53b"},"vehicle_type_id":"4","last_reported":1762950139,"current_range_meters":17600,"station_id":"ce4bgjp2rcd13ifvqbh0","pricing_plan_id":"cebpf4jnsgd1na2vs0mg"},{"bike_id":"ef3787f7-4815-49ad-b8f4-4132eb78b8f9","system_id":"levelo_inurba_marseille","lat":43.305343,"lon":5.365218,"is_reserved":false,"is_disabled":false,"rental_uris":{"android":"levelo://app?vid=ef3787f7-4815-49ad-b8f4-4132eb78b8f9","ios":"levelo://app?vid=ef3787f7-4815-49ad-b8f4-4132eb78b8f9"},"vehicle_type_id":"4","last_reported":1762950139,"current_range_meters":17600,"station_id":"ce4bgs12rcd13ifvqcag","pricing_plan_id":"cebpf4jnsgd1na2vs0mg"},{"bike_id":"dfbb618d-40ac-4f2f-a22f-91225168e334","system_id":"levelo_inurba_marseille","lat":43.27204,"lon":5.39192,"is_reserved":false,"is_disabled":true,"rental_uris":{"android":"levelo://app?vid=dfbb618d-40ac-4f2f-a22f-91225168e334","ios":"levelo://app?vid=dfbb618d-40ac-4f2f-a22f-91225168e334"},"vehicle_type_id":"4","last_reported":1762950139,"current_range_meters":17600,"station_id":"ce4bhhp2rcd13ifvqfm0","pricing_plan_id":"cebpf4jnsgd1na2vs0mg"},{"bike_id":"23f9c78c-ca0a-48be-8a9d-156c748920c2","system_id":"levelo_inurba_marseille","lat":43.27907,"lon":5.41043,"is_reserved":false,"is_disabled":false,"rental_uris":{"android":"levelo://app?vid=23f9c78c-ca0a-48be-8a9d-156c748920c2","ios":"levelo://app?vid=23f9c78c-ca0a-48be-8a9d-156c748920c2"},"vehicle_type_id":"4","last_reported":1762950139,"current_range_meters":17600,"station_id":"ce4bhnp2rcd13ifvqh0g","pricing_plan_id":"cebpf4jnsgd1na2vs0mg"},{"bike_id":"9f257429-210e-4187-b310-fa3b4c5c3978","system_id":"levelo_inurba_marseille","lat":43.27337,"lon":5.40164,"is_reserved":false,"is_disabled":false,"rental_uris":{"android":"levelo://app?vid=9f257429-210e-4187-b310-fa3b4c5c3978","ios":"levelo://app?vid=9f257429-210e-4187-b310-fa3b4c5c3978"},"vehicle_type_id":"4","last_reported":1762950139,"current_range_meters":17600,"station_id":"","pricing_plan_id":"cebpf4jnsgd1na2vs0mg"},{"bike_id":"d8581087-7ed1-4724-9ee7-56c91aacd970","system_id":"levelo_inurba_marseille","lat":43.306115,"lon":5.393561,"is_reserved":false,"is_disabled":false,"rental_uris":{"android":"levelo://app?vid=d8581087-7ed1-4724-9ee7-56c91aacd970","ios":"levelo://app?vid=d8581087-7ed1-4724-9ee7-56c91aacd970"},"vehicle_type_id":"4","last_reported":1762950139,"current_range_meters":17600,"station_id":"ce4bh0p2rcd13ifvqd80","pricing_plan_id":"cebpf4jnsgd1na2vs0mg"},{"bike_id":"e690290b-b188-4bf4-9457-b92ed6970cb4","system_id":"levelo_inurba_marseille","lat":43.21196,"lon":5.35076,"is_reserved":false,"is_disabled":true,"rental_uris":{"android":"levelo://app?vid=e690290b-b188-4bf4-9457-b92ed6970cb4","ios":"levelo://app?vid=e690290b-b188-4bf4-9457-b92ed6970cb4"},"vehicle_type_id":"4","last_reported":1762950139,"current_range_meters":17600,"station_id":"","pricing_plan_id":"cebpf4jnsgd1na2vs0mg"},{"bike_id":"f7a96af1-7aa0-49b3-80de-7bfb43b9f160","system_id":"levelo_inurba_marseille","lat":43.27617,"lon":5.36116,"is_reserved":false,"is_disabled":false,"rental_uris":{"android":"levelo://app?vid=f7a96af1-7aa0-49b3-80de-7bfb43b9f160","ios":"levelo://app?vid=f7a96af1-7aa0-49b3-80de-7bfb43b9f160"},"vehicle_type_id":"4","last_reported":1762950139,"current_range_meters":18000,"station_id":"ce4bgj92rcd13ifvqbe0","pricing_plan_id":"cebpf4jnsgd1na2vs0mg"},{"bike_id":"225316d1-feb8-4645-8ab2-c0ab8da6ef2a","system_id":"levelo_inurba_marseille","lat":43.25127,"lon":5.40305,"is_reserved":false,"is_disabled":false,"rental_uris":{"android":"levelo://app?vid=225316d1-feb8-4645-8ab2-c0ab8da6ef2a","ios":"levelo://app?vid=225316d1-feb8-4645-8ab2-c0ab8da6ef2a"},"vehicle_type_id":"4","last_reported":1762950139,"current_range_meters":18000,"station_id":"ce4bhlh2rcd13ifvqgig","pricing_plan_id":"cebpf4jnsgd1na2vs0mg"},{"bike_id":"6dcf0eb1-3f68-40e9-86c9-05624e80604b","system_id":"levelo_inurba_marseille","lat":43.27071,"lon":5.42282,"is_reserved":false,"is_disabled":false,"rental_uris":{"android":"levelo://app?vid=6dcf0eb1-3f68-40e9-86c9-05624e80604b","ios":"levelo://app?vid=6dcf0eb1-3f68-40e9-86c9-05624e80604b"},"vehicle_type_id":"4","last_reported":1762950139,"current_range_meters":18000,"station_id":"ce4bhk92rcd13ifvqgb0","pricing_plan_id":"cebpf4jnsgd1na2vs0mg"},{"bike_id":"424a7a30-b0f2-4a1f-bf5e-bf6cff7aaede","system_id":"levelo_inurba_marseille","lat":43.24394,"lon":5.37059,"is_reserved":false,"is_disabled":false,"rental_uris":{"android":"levelo://app?vid=424a7a30-b0f2-4a1f-bf5e-bf6cff7aaede","ios":"levelo://app?vid=424a7a30-b0f2-4a1f-bf5e-bf6cff7aaede"},"vehicle_type_id":"4","last_reported":1762950139,"current_range_meters":18000,"station_id":"ce4bhhh2rcd13ifvqfk0","pricing_plan_id":"cebpf4jnsgd1na2vs0mg"},{"bike_id":"5e31c7d8-3f5b-43e0-9a64-04fd6cacf51c","system_id":"levelo_inurba_marseille","lat":43.30917,"lon":5.36849,"is_reserved":false,"is_disabled":false,"rental_uris":{"android":"levelo://app?vid=5e31c7d8-3f5b-43e0-9a64-04fd6cacf51c","ios":"levelo://app?vid=5e31c7d8-3f5b-43e0-9a64-04fd6cacf51c"},"vehicle_type_id":"4","last_reported":1762950139,"current_range_meters":18000,"station_id":"ce4bgn92rcd13ifvqbvg","pricing_plan_id":"cebpf4jnsgd1na2vs0mg"},{"bike_id":"4f27c235-11df-4df2-bfdf-8938c3d9c6ba","system_id":"levelo_inurba_marseille","lat":43.33779,"lon":5.37411,"is_reserved":false,"is_disabled":false,"rental_uris":{"android":"levelo://app?vid=4f27c235-11df-4df2-bfdf-8938c3d9c6ba","ios":"levelo://app?vid=4f27c235-11df-4df2-bfdf-8938c3d9c6ba"},"vehicle_type_id":"4","last_reported":1762950139,"current_range_meters":18000,"station_id":"","pricing_plan_id":"cebpf4jnsgd1na2vs0mg"},{"bike_id":"0bb74cbf-7577-4ee3-b413-ef90f9125a08","system_id":"levelo_inurba_marseille","lat":43.303018,"lon":5.404345,"is_reserved":false,"is_disabled":false,"rental_uris":{"android":"levelo://app?vid=0bb74cbf-7577-4ee3-b413-ef90f9125a08","ios":"levelo://app?vid=0bb74cbf-7577-4ee3-b413-ef90f9125a08"},"vehicle_type_id":"4","last_reported":1762950139,"current_range_meters":18000,"station_id":"ce4bh012rcd13ifvqd10","pricing_plan_id":"cebpf4jnsgd1na2vs0mg"},{"bike_id":"4cfb2773-9b2c-4693-8c00-8ce3a2a20e36","system_id":"levelo_inurba_marseille","lat":43.25507,"lon":5.37662,"is_reserved":false,"is_disabled":false,"rental_uris":{"android":"levelo://app?vid=4cfb2773-9b2c-4693-8c00-8ce3a2a20e36","ios":"levelo://app?vid=4cfb2773-9b2c-4693-8c00-8ce3a2a20e36"},"vehicle_type_id":"4","last_reported":1762950139,"current_range_meters":18000,"station_id":"ce4bhh12rcd13ifvqff0","pricing_plan_id":"cebpf4jnsgd1na2vs0mg"},{"bike_id":"a68809aa-d0e6-461c-a5e6-8fdb1f2108c8","system_id":"levelo_inurba_marseille","lat":43.28306,"lon":5.35071,"is_reserved":false,"is_disabled":false,"rental_uris":{"android":"levelo://app?vid=a68809aa-d0e6-461c-a5e6-8fdb1f2108c8","ios":"levelo://app?vid=a68809aa-d0e6-461c-a5e6-8fdb1f2108c8"},"vehicle_type_id":"4","last_reported":1762950139,"current_range_meters":18000,"station_id":"ce4bhbp2rcd13ifvqerg","pricing_plan_id":"cebpf4jnsgd1na2vs0mg"},{"bike_id":"2380415b-651d-4cb4-9936-c30499ae6b46","system_id":"levelo_inurba_marseille","lat":43.217448,"lon":5.346074,"is_reserved":false,"is_disabled":true,"rental_uris":{"android":"levelo://app?vid=2380415b-651d-4cb4-9936-c30499ae6b46","ios":"levelo://app?vid=2380415b-651d-4cb4-9936-c30499ae6b46"},"vehicle_type_id":"4","last_reported":1762950139,"current_range_meters":18000,"station_id":"","pricing_plan_id":"cebpf4jnsgd1na2vs0mg"},{"bike_id":"b568d2c3-d20b-47ec-9444-65b9d0adcc4c","system_id":"levelo_inurba_marseille","lat":43.312583,"lon":5.368508,"is_reserved":false,"is_disabled":false,"rental_uris":{"android":"levelo://app?vid=b568d2c3-d20b-47ec-9444-65b9d0adcc4c","ios":"levelo://app?vid=b568d2c3-d20b-47ec-9444-65b9d0adcc4c"},"vehicle_type_id":"4","last_reported":1762950139,"current_range_meters":18800,"station_id":"ce4bgl92rcd13ifvqbq0","pricing_plan_id":"cebpf4jnsgd1na2vs0mg"},{"bike_id":"e2a7d982-d002-4482-859a-1dcfe7b5c54a","system_id":"levelo_inurba_marseille","lat":43.27949,"lon":5.41041,"is_reserved":false,"is_disabled":false,"rental_uris":{"android":"levelo://app?vid=e2a7d982-d002-4482-859a-1dcfe7b5c54a","ios":"levelo://app?vid=e2a7d982-d002-4482-859a-1dcfe7b5c54a"},"vehicle_type_id":"4","last_reported":1762950139,"current_range_meters":18800,"station_id":"ce4bhnp2rcd13ifvqh0g","pricing_plan_id":"cebpf4jnsgd1na2vs0mg"},{"bike_id":"3f3db3e0-8786-462c-9790-1156703a5fd2","system_id":"levelo_inurba_marseille","lat":43.22931,"lon":5.35399,"is_reserved":false,"is_disabled":false,"rental_uris":{"android":"levelo://app?vid=3f3db3e0-8786-462c-9790-1156703a5fd2","ios":"levelo://app?vid=3f3db3e0-8786-462c-9790-1156703a5fd2"},"vehicle_type_id":"4","last_reported":1762950139,"current_range_meters":18800,"station_id":"cpo3532slgdg3j2ikp40","pricing_plan_id":"cebpf4jnsgd1na2vs0mg"},{"bike_id":"0cab9ab8-a40c-42f7-b20b-00703e2e330a","system_id":"levelo_inurba_marseille","lat":43.289169,"lon":5.395521,"is_reserved":false,"is_disabled":false,"rental_uris":{"android":"levelo://app?vid=0cab9ab8-a40c-42f7-b20b-00703e2e330a","ios":"levelo://app?vid=0cab9ab8-a40c-42f7-b20b-00703e2e330a"},"vehicle_type_id":"4","last_reported":1762950139,"current_range_meters":18800,"station_id":"ce4bh3h2rcd13ifvqdn0","pricing_plan_id":"cebpf4jnsgd1na2vs0mg"},{"bike_id":"5a36232a-5263-4a1f-9d9f-c3c7a36c25ab","system_id":"levelo_inurba_marseille","lat":43.2975,"lon":5.37689,"is_reserved":false,"is_disabled":false,"rental_uris":{"android":"levelo://app?vid=5a36232a-5263-4a1f-9d9f-c3c7a36c25ab","ios":"levelo://app?vid=5a36232a-5263-4a1f-9d9f-c3c7a36c25ab"},"vehicle_type_id":"4","last_reported":1762950139,"current_range_meters":18800,"station_id":"ce4bgkh2rcd13ifvqbl0","pricing_plan_id":"cebpf4jnsgd1na2vs0mg"},{"bike_id":"702c9c35-d255-4669-a076-c93b47e35494","system_id":"levelo_inurba_marseille","lat":43.32536,"lon":5.41429,"is_reserved":false,"is_disabled":false,"rental_uris":{"android":"levelo://app?vid=702c9c35-d255-4669-a076-c93b47e35494","ios":"levelo://app?vid=702c9c35-d255-4669-a076-c93b47e35494"},"vehicle_type_id":"4","last_reported":1762950139,"current_range_meters":19200,"station_id":"ce4bhq12rcd13ifvqhhg","pricing_plan_id":"cebpf4jnsgd1na2vs0mg"},{"bike_id":"c83b5c1b-edab-4bfb-a2f2-d3468c55c2ba","system_id":"levelo_inurba_marseille","lat":43.29155,"lon":5.44873,"is_reserved":false,"is_disabled":false,"rental_uris":{"android":"levelo://app?vid=c83b5c1b-edab-4bfb-a2f2-d3468c55c2ba","ios":"levelo://app?vid=c83b5c1b-edab-4bfb-a2f2-d3468c55c2ba"},"vehicle_type_id":"4","last_reported":1762950139,"current_range_meters":19200,"station_id":"","pricing_plan_id":"cebpf4jnsgd1na2vs0mg"},{"bike_id":"21305870-e2f8-4c1e-9524-0c8018904895","system_id":"levelo_inurba_marseille","lat":43.29914,"lon":5.37475,"is_reserved":false,"is_disabled":false,"rental_uris":{"android":"levelo://app?vid=21305870-e2f8-4c1e-9524-0c8018904895","ios":"levelo://app?vid=21305870-e2f8-4c1e-9524-0c8018904895"},"vehicle_type_id":"4","last_reported":1762950139,"current_range_meters":19200,"station_id":"ce4bgjh2rcd13ifvqbg0","pricing_plan_id":"cebpf4jnsgd1na2vs0mg"},{"bike_id":"fb46e3c0-37e2-44f9-ac5c-3585b492ca31","system_id":"levelo_inurba_marseille","lat":43.28483,"lon":5.38556,"is_reserved":false,"is_disabled":false,"rental_uris":{"android":"levelo://app?vid=fb46e3c0-37e2-44f9-ac5c-3585b492ca31","ios":"levelo://app?vid=fb46e3c0-37e2-44f9-ac5c-3585b492ca31"},"vehicle_type_id":"4","last_reported":1762950139,"current_range_meters":19200,"station_id":"ce4bh8p2rcd13ifvqeb0","pricing_plan_id":"cebpf4jnsgd1na2vs0mg"},{"bike_id":"4643a7f8-47f1-4262-8c9c-737176f4dcf8","system_id":"levelo_inurba_marseille","lat":43.3237,"lon":5.3889,"is_reserved":false,"is_disabled":false,"rental_uris":{"android":"levelo://app?vid=4643a7f8-47f1-4262-8c9c-737176f4dcf8","ios":"levelo://app?vid=4643a7f8-47f1-4262-8c9c-737176f4dcf8"},"vehicle_type_id":"4","last_reported":1762950139,"current_range_meters":19200,"station_id":"ce4bhqp2rcd13ifvqhog","pricing_plan_id":"cebpf4jnsgd1na2vs0mg"},{"bike_id":"3d9ecbd2-3a7b-49f6-9333-c9b065aa9e25","system_id":"levelo_inurba_marseille","lat":43.257178,"lon":5.411119,"is_reserved":false,"is_disabled":false,"rental_uris":{"android":"levelo://app?vid=3d9ecbd2-3a7b-49f6-9333-c9b065aa9e25","ios":"levelo://app?vid=3d9ecbd2-3a7b-49f6-9333-c9b065aa9e25"},"vehicle_type_id":"4","last_reported":1762950139,"current_range_meters":19200,"station_id":"ce4bhkp2rcd13ifvqgd0","pricing_plan_id":"cebpf4jnsgd1na2vs0mg"},{"bike_id":"09e03606-acbe-4bba-8b1a-9a2d40f40d12","system_id":"levelo_inurba_marseille","lat":43.23972,"lon":5.36629,"is_reserved":false,"is_disabled":false,"rental_uris":{"android":"levelo://app?vid=09e03606-acbe-4bba-8b1a-9a2d40f40d12","ios":"levelo://app?vid=09e03606-acbe-4bba-8b1a-9a2d40f40d12"},"vehicle_type_id":"4","last_reported":1762950139,"current_range_meters":19200,"station_id":"ce4bhi12rcd13ifvqfp0","pricing_plan_id":"cebpf4jnsgd1na2vs0mg"},{"bike_id":"4930e871-eeac-40ca-b4ee-36ddc8ee3366","system_id":"levelo_inurba_marseille","lat":43.23198,"lon":5.35558,"is_reserved":false,"is_disabled":false,"rental_uris":{"android":"levelo://app?vid=4930e871-eeac-40ca-b4ee-36ddc8ee3366","ios":"levelo://app?vid=4930e871-eeac-40ca-b4ee-36ddc8ee3366"},"vehicle_type_id":"4","last_reported":1762950139,"current_range_meters":19200,"station_id":"ce4bhu92rcd13ifvqi70","pricing_plan_id":"cebpf4jnsgd1na2vs0mg"},{"bike_id":"48812cf1-d406-4ddc-ac37-09889e751308","system_id":"levelo_inurba_marseille","lat":43.3211,"lon":5.36788,"is_reserved":false,"is_disabled":false,"rental_uris":{"android":"levelo://app?vid=48812cf1-d406-4ddc-ac37-09889e751308","ios":"levelo://app?vid=48812cf1-d406-4ddc-ac37-09889e751308"},"vehicle_type_id":"4","last_reported":1762950139,"current_range_meters":19200,"station_id":"ce4bhrh2rcd13ifvqhug","pricing_plan_id":"cebpf4jnsgd1na2vs0mg"},{"bike_id":"a0a3151a-991b-40dd-8434-97570a8121cc","system_id":"levelo_inurba_marseille","lat":43.28579,"lon":5.39502,"is_reserved":false,"is_disabled":false,"rental_uris":{"android":"levelo://app?vid=a0a3151a-991b-40dd-8434-97570a8121cc","ios":"levelo://app?vid=a0a3151a-991b-40dd-8434-97570a8121cc"},"vehicle_type_id":"4","last_reported":1762950139,"current_range_meters":19200,"station_id":"ce4bh292rcd13ifvqdg0","pricing_plan_id":"cebpf4jnsgd1na2vs0mg"},{"bike_id":"1826021c-78d5-4bf7-9950-ab922f7cd7e0","system_id":"levelo_inurba_marseille","lat":43.32346,"lon":5.36751,"is_reserved":false,"is_disabled":false,"rental_uris":{"android":"levelo://app?vid=1826021c-78d5-4bf7-9950-ab922f7cd7e0","ios":"levelo://app?vid=1826021c-78d5-4bf7-9950-ab922f7cd7e0"},"vehicle_type_id":"4","last_reported":1762950139,"current_range_meters":19600,"station_id":"ce4bhsh2rcd13ifvqi2g","pricing_plan_id":"cebpf4jnsgd1na2vs0mg"},{"bike_id":"e94f0304-4778-4bbe-9c0b-ffdb802e2ad4","system_id":"levelo_inurba_marseille","lat":43.26212,"lon":5.37444,"is_reserved":false,"is_disabled":false,"rental_uris":{"android":"levelo://app?vid=e94f0304-4778-4bbe-9c0b-ffdb802e2ad4","ios":"levelo://app?vid=e94f0304-4778-4bbe-9c0b-ffdb802e2ad4"},"vehicle_type_id":"4","last_reported":1762950139,"current_range_meters":19600,"station_id":"ce4bhgp2rcd13ifvqfc0","pricing_plan_id":"cebpf4jnsgd1na2vs0mg"},{"bike_id":"7a1ef263-c216-402e-bafc-92d8214c104a","system_id":"levelo_inurba_marseille","lat":43.337444,"lon":5.374475,"is_reserved":false,"is_disabled":false,"rental_uris":{"android":"levelo://app?vid=7a1ef263-c216-402e-bafc-92d8214c104a","ios":"levelo://app?vid=7a1ef263-c216-402e-bafc-92d8214c104a"},"vehicle_type_id":"4","last_reported":1762950139,"current_range_meters":19600,"station_id":"","pricing_plan_id":"cebpf4jnsgd1na2vs0mg"},{"bike_id":"8fb42f02-18ff-415d-aad4-9898ce515f3f","system_id":"levelo_inurba_marseille","lat":43.23152,"lon":5.43722,"is_reserved":false,"is_disabled":false,"rental_uris":{"android":"levelo://app?vid=8fb42f02-18ff-415d-aad4-9898ce515f3f","ios":"levelo://app?vid=8fb42f02-18ff-415d-aad4-9898ce515f3f"},"vehicle_type_id":"4","last_reported":1762950139,"current_range_meters":19600,"station_id":"ce4bhmp2rcd13ifvqgog","pricing_plan_id":"cebpf4jnsgd1na2vs0mg"},{"bike_id":"3c66557c-a863-45dc-9556-0451fd386bae","system_id":"levelo_inurba_marseille","lat":43.32662,"lon":5.40994,"is_reserved":false,"is_disabled":false,"rental_uris":{"android":"levelo://app?vid=3c66557c-a863-45dc-9556-0451fd386bae","ios":"levelo://app?vid=3c66557c-a863-45dc-9556-0451fd386bae"},"vehicle_type_id":"4","last_reported":1762950139,"current_range_meters":19600,"station_id":"ce4bhpp2rcd13ifvqhgg","pricing_plan_id":"cebpf4jnsgd1na2vs0mg"},{"bike_id":"241cfd86-a3cf-4255-8508-aed7ab6b2187","system_id":"levelo_inurba_marseille","lat":43.24167,"lon":5.36399,"is_reserved":false,"is_disabled":false,"rental_uris":{"android":"levelo://app?vid=241cfd86-a3cf-4255-8508-aed7ab6b2187","ios":"levelo://app?vid=241cfd86-a3cf-4255-8508-aed7ab6b2187"},"vehicle_type_id":"4","last_reported":1762950139,"current_range_meters":19600,"station_id":"cpo36qri1sfpv3e86is0","pricing_plan_id":"cebpf4jnsgd1na2vs0mg"},{"bike_id":"af54c478-9567-441c-8802-eb3d7c9ad5d5","system_id":"levelo_inurba_marseille","lat":43.30023,"lon":5.3889,"is_reserved":false,"is_disabled":false,"rental_uris":{"android":"levelo://app?vid=af54c478-9567-441c-8802-eb3d7c9ad5d5","ios":"levelo://app?vid=af54c478-9567-441c-8802-eb3d7c9ad5d5"},"vehicle_type_id":"4","last_reported":1762950139,"current_range_meters":19600,"station_id":"","pricing_plan_id":"cebpf4jnsgd1na2vs0mg"},{"bike_id":"7cbbc2fb-70fd-4359-bcfa-13236dd902ab","system_id":"levelo_inurba_marseille","lat":43.279177,"lon":5.395705,"is_reserved":false,"is_disabled":false,"rental_uris":{"android":"levelo://app?vid=7cbbc2fb-70fd-4359-bcfa-13236dd902ab","ios":"levelo://app?vid=7cbbc2fb-70fd-4359-bcfa-13236dd902ab"},"vehicle_type_id":"4","last_reported":1762950139,"current_range_meters":19600,"station_id":"ce4bhf92rcd13ifvqf40","pricing_plan_id":"cebpf4jnsgd1na2vs0mg"},{"bike_id":"30b41e82-9b75-44bc-b241-bf93939ebc74","system_id":"levelo_inurba_marseille","lat":43.28866,"lon":5.4252,"is_reserved":false,"is_disabled":false,"rental_uris":{"android":"levelo://app?vid=30b41e82-9b75-44bc-b241-bf93939ebc74","ios":"levelo://app?vid=30b41e82-9b75-44bc-b241-bf93939ebc74"},"vehicle_type_id":"4","last_reported":1762950139,"current_range_meters":19600,"station_id":"st_d3b462108ojc7389ooeg","pricing_plan_id":"cebpf4jnsgd1na2vs0mg"},{"bike_id":"c3652b25-e673-4dd4-bbe8-06e118272bf3","system_id":"levelo_inurba_marseille","lat":43.30156,"lon":5.38097,"is_reserved":false,"is_disabled":false,"rental_uris":{"android":"levelo://app?vid=c3652b25-e673-4dd4-bbe8-06e118272bf3","ios":"levelo://app?vid=c3652b25-e673-4dd4-bbe8-06e118272bf3"},"vehicle_type_id":"4","last_reported":1762950139,"current_range_meters":19600,"station_id":"ce4bgjp2rcd13ifvqbh0","pricing_plan_id":"cebpf4jnsgd1na2vs0mg"},{"bike_id":"cc0f8ca4-ae33-432c-aefe-5c00c9e85faf","system_id":"levelo_inurba_marseille","lat":43.28835,"lon":5.42526,"is_reserved":false,"is_disabled":false,"rental_uris":{"android":"levelo://app?vid=cc0f8ca4-ae33-432c-aefe-5c00c9e85faf","ios":"levelo://app?vid=cc0f8ca4-ae33-432c-aefe-5c00c9e85faf"},"vehicle_type_id":"4","last_reported":1762950139,"current_range_meters":19600,"station_id":"st_d3b462108ojc7389ooeg","pricing_plan_id":"cebpf4jnsgd1na2vs0mg"},{"bike_id":"7a754c22-1967-4016-a009-5b766a5f8fdd","system_id":"levelo_inurba_marseille","lat":43.3028,"lon":5.37701,"is_reserved":false,"is_disabled":false,"rental_uris":{"android":"levelo://app?vid=7a754c22-1967-4016-a009-5b766a5f8fdd","ios":"levelo://app?vid=7a754c22-1967-4016-a009-5b766a5f8fdd"},"vehicle_type_id":"4","last_reported":1762950139,"current_range_meters":19600,"station_id":"ce4bguh2rcd13ifvqcj0","pricing_plan_id":"cebpf4jnsgd1na2vs0mg"},{"bike_id":"43ce8be6-8457-4fad-8532-6755f2c633c6","system_id":"levelo_inurba_marseille","lat":43.30143,"lon":5.39909,"is_reserved":false,"is_disabled":true,"rental_uris":{"android":"levelo://app?vid=43ce8be6-8457-4fad-8532-6755f2c633c6","ios":"levelo://app?vid=43ce8be6-8457-4fad-8532-6755f2c633c6"},"vehicle_type_id":"4","last_reported":1762950139,"current_range_meters":20000,"station_id":"ce4bh0h2rcd13ifvqd40","pricing_plan_id":"cebpf4jnsgd1na2vs0mg"},{"bike_id":"5c94fe7f-8bd8-42c1-b9c1-51a36da1d3b5","system_id":"levelo_inurba_marseille","lat":43.243884,"lon":5.370723,"is_reserved":false,"is_disabled":true,"rental_uris":{"android":"levelo://app?vid=5c94fe7f-8bd8-42c1-b9c1-51a36da1d3b5","ios":"levelo://app?vid=5c94fe7f-8bd8-42c1-b9c1-51a36da1d3b5"},"vehicle_type_id":"4","last_reported":1762950139,"current_range_meters":20000,"station_id":"ce4bhah2rcd13ifvqei0","pricing_plan_id":"cebpf4jnsgd1na2vs0mg"},{"bike_id":"391c3d89-50ac-43cb-8a56-a96ab0bc2aa5","system_id":"levelo_inurba_marseille","lat":43.25582,"lon":5.38227,"is_reserved":false,"is_disabled":false,"rental_uris":{"android":"levelo://app?vid=391c3d89-50ac-43cb-8a56-a96ab0bc2aa5","ios":"levelo://app?vid=391c3d89-50ac-43cb-8a56-a96ab0bc2aa5"},"vehicle_type_id":"4","last_reported":1762950139,"current_range_meters":20000,"station_id":"ce4bhih2rcd13ifvqfs0","pricing_plan_id":"cebpf4jnsgd1na2vs0mg"},{"bike_id":"f9f36748-9764-48ce-be89-00c313effd75","system_id":"levelo_inurba_marseille","lat":43.33549,"lon":5.37466,"is_reserved":false,"is_disabled":false,"rental_uris":{"android":"levelo://app?vid=f9f36748-9764-48ce-be89-00c313effd75","ios":"levelo://app?vid=f9f36748-9764-48ce-be89-00c313effd75"},"vehicle_type_id":"4","last_reported":1762950139,"current_range_meters":20000,"station_id":"st_d46tts09ee8s73dlu43g","pricing_plan_id":"cebpf4jnsgd1na2vs0mg"},{"bike_id":"7037c903-0534-445b-978c-50e262ac0575","system_id":"levelo_inurba_marseille","lat":43.28667,"lon":5.38667,"is_reserved":false,"is_disabled":false,"rental_uris":{"android":"levelo://app?vid=7037c903-0534-445b-978c-50e262ac0575","ios":"levelo://app?vid=7037c903-0534-445b-978c-50e262ac0575"},"vehicle_type_id":"4","last_reported":1762950139,"current_range_meters":20000,"station_id":"ce4bh492rcd13ifvqdug","pricing_plan_id":"cebpf4jnsgd1na2vs0mg"},{"bike_id":"1cd94639-ec8b-4901-a526-c1b3a8882626","system_id":"levelo_inurba_marseille","lat":43.217478,"lon":5.346,"is_reserved":false,"is_disabled":false,"rental_uris":{"android":"levelo://app?vid=1cd94639-ec8b-4901-a526-c1b3a8882626","ios":"levelo://app?vid=1cd94639-ec8b-4901-a526-c1b3a8882626"},"vehicle_type_id":"4","last_reported":1762950139,"current_range_meters":20400,"station_id":"","pricing_plan_id":"cebpf4jnsgd1na2vs0mg"},{"bike_id":"77fae82b-e712-46a1-88ca-405dade6d701","system_id":"levelo_inurba_marseille","lat":43.31701,"lon":5.37727,"is_reserved":false,"is_disabled":false,"rental_uris":{"android":"levelo://app?vid=77fae82b-e712-46a1-88ca-405dade6d701","ios":"levelo://app?vid=77fae82b-e712-46a1-88ca-405dade6d701"},"vehicle_type_id":"4","last_reported":1762950139,"current_range_meters":20400,"station_id":"ce4bgth2rcd13ifvqch0","pricing_plan_id":"cebpf4jnsgd1na2vs0mg"},{"bike_id":"ee953421-16ce-452f-8b50-360f35650091","system_id":"levelo_inurba_marseille","lat":43.266748,"lon":5.38263,"is_reserved":false,"is_disabled":false,"rental_uris":{"android":"levelo://app?vid=ee953421-16ce-452f-8b50-360f35650091","ios":"levelo://app?vid=ee953421-16ce-452f-8b50-360f35650091"},"vehicle_type_id":"4","last_reported":1762950139,"current_range_meters":20400,"station_id":"ce4bhg92rcd13ifvqf90","pricing_plan_id":"cebpf4jnsgd1na2vs0mg"},{"bike_id":"8e78faa9-ea29-48c7-8c21-477dcaba7885","system_id":"levelo_inurba_marseille","lat":43.31693,"lon":5.40457,"is_reserved":false,"is_disabled":false,"rental_uris":{"android":"levelo://app?vid=8e78faa9-ea29-48c7-8c21-477dcaba7885","ios":"levelo://app?vid=8e78faa9-ea29-48c7-8c21-477dcaba7885"},"vehicle_type_id":"4","last_reported":1762950139,"current_range_meters":20400,"station_id":"ce4bh012rcd13ifvqd00","pricing_plan_id":"cebpf4jnsgd1na2vs0mg"},{"bike_id":"30ae0b56-ce3d-43e0-a215-fa00d26209c8","system_id":"levelo_inurba_marseille","lat":43.28696,"lon":5.39994,"is_reserved":false,"is_disabled":true,"rental_uris":{"android":"levelo://app?vid=30ae0b56-ce3d-43e0-a215-fa00d26209c8","ios":"levelo://app?vid=30ae0b56-ce3d-43e0-a215-fa00d26209c8"},"vehicle_type_id":"4","last_reported":1762950139,"current_range_meters":20400,"station_id":"ce4bho92rcd13ifvqh3g","pricing_plan_id":"cebpf4jnsgd1na2vs0mg"},{"bike_id":"fc49e022-916b-4364-8aae-868a9613aae0","system_id":"levelo_inurba_marseille","lat":43.27812,"lon":5.40705,"is_reserved":false,"is_disabled":false,"rental_uris":{"android":"levelo://app?vid=fc49e022-916b-4364-8aae-868a9613aae0","ios":"levelo://app?vid=fc49e022-916b-4364-8aae-868a9613aae0"},"vehicle_type_id":"4","last_reported":1762950139,"current_range_meters":20400,"station_id":"ce4bhnh2rcd13ifvqgtg","pricing_plan_id":"cebpf4jnsgd1na2vs0mg"},{"bike_id":"c0c31b1c-1e77-4891-ad8e-24d0f43fed26","system_id":"levelo_inurba_marseille","lat":43.30893,"lon":5.37189,"is_reserved":false,"is_disabled":false,"rental_uris":{"android":"levelo://app?vid=c0c31b1c-1e77-4891-ad8e-24d0f43fed26","ios":"levelo://app?vid=c0c31b1c-1e77-4891-ad8e-24d0f43fed26"},"vehicle_type_id":"4","last_reported":1762950139,"current_range_meters":20400,"station_id":"ce4bguh2rcd13ifvqckg","pricing_plan_id":"cebpf4jnsgd1na2vs0mg"},{"bike_id":"a5177afe-2ccc-4812-b6dc-6f06e75bebff","system_id":"levelo_inurba_marseille","lat":43.29897,"lon":5.43671,"is_reserved":false,"is_disabled":false,"rental_uris":{"android":"levelo://app?vid=a5177afe-2ccc-4812-b6dc-6f06e75bebff","ios":"levelo://app?vid=a5177afe-2ccc-4812-b6dc-6f06e75bebff"},"vehicle_type_id":"4","last_reported":1762950139,"current_range_meters":20400,"station_id":"ce4bhpp2rcd13ifvqhfg","pricing_plan_id":"cebpf4jnsgd1na2vs0mg"},{"bike_id":"473b71a2-edd7-4927-9786-58202eba78dc","system_id":"levelo_inurba_marseille","lat":43.27212,"lon":5.39182,"is_reserved":false,"is_disabled":false,"rental_uris":{"android":"levelo://app?vid=473b71a2-edd7-4927-9786-58202eba78dc","ios":"levelo://app?vid=473b71a2-edd7-4927-9786-58202eba78dc"},"vehicle_type_id":"4","last_reported":1762950139,"current_range_meters":20400,"station_id":"ce4bhhp2rcd13ifvqfm0","pricing_plan_id":"cebpf4jnsgd1na2vs0mg"},{"bike_id":"12e60b8f-c1d1-4130-892e-ce669c750aed","system_id":"levelo_inurba_marseille","lat":43.32541,"lon":5.41423,"is_reserved":false,"is_disabled":false,"rental_uris":{"android":"levelo://app?vid=12e60b8f-c1d1-4130-892e-ce669c750aed","ios":"levelo://app?vid=12e60b8f-c1d1-4130-892e-ce669c750aed"},"vehicle_type_id":"4","last_reported":1762950139,"current_range_meters":20400,"station_id":"ce4bhq12rcd13ifvqhhg","pricing_plan_id":"cebpf4jnsgd1na2vs0mg"},{"bike_id":"d750f446-6926-4aba-a940-2446ace8eb37","system_id":"levelo_inurba_marseille","lat":43.28686,"lon":5.38665,"is_reserved":false,"is_disabled":false,"rental_uris":{"android":"levelo://app?vid=d750f446-6926-4aba-a940-2446ace8eb37","ios":"levelo://app?vid=d750f446-6926-4aba-a940-2446ace8eb37"},"vehicle_type_id":"4","last_reported":1762950139,"current_range_meters":20400,"station_id":"ce4bh492rcd13ifvqdug","pricing_plan_id":"cebpf4jnsgd1na2vs0mg"},{"bike_id":"727cf9f3-3e09-4a69-8d56-c2589152d43d","system_id":"levelo_inurba_marseille","lat":43.305383,"lon":5.365483,"is_reserved":false,"is_disabled":false,"rental_uris":{"android":"levelo://app?vid=727cf9f3-3e09-4a69-8d56-c2589152d43d","ios":"levelo://app?vid=727cf9f3-3e09-4a69-8d56-c2589152d43d"},"vehicle_type_id":"4","last_reported":1762950139,"current_range_meters":20400,"station_id":"ce4bgs12rcd13ifvqcag","pricing_plan_id":"cebpf4jnsgd1na2vs0mg"},{"bike_id":"06eb574a-64cf-47d8-af69-ac973ce42a77","system_id":"levelo_inurba_marseille","lat":43.255777,"lon":5.382272,"is_reserved":false,"is_disabled":false,"rental_uris":{"android":"levelo://app?vid=06eb574a-64cf-47d8-af69-ac973ce42a77","ios":"levelo://app?vid=06eb574a-64cf-47d8-af69-ac973ce42a77"},"vehicle_type_id":"4","last_reported":1762950139,"current_range_meters":20800,"station_id":"ce4bhih2rcd13ifvqfs0","pricing_plan_id":"cebpf4jnsgd1na2vs0mg"},{"bike_id":"463a2222-cf92-4007-943d-15872b32f98e","system_id":"levelo_inurba_marseille","lat":43.26558,"lon":5.38998,"is_reserved":false,"is_disabled":true,"rental_uris":{"android":"levelo://app?vid=463a2222-cf92-4007-943d-15872b32f98e","ios":"levelo://app?vid=463a2222-cf92-4007-943d-15872b32f98e"},"vehicle_type_id":"4","last_reported":1762950139,"current_range_meters":20800,"station_id":"ce4bhe12rcd13ifvqf30","pricing_plan_id":"cebpf4jnsgd1na2vs0mg"},{"bike_id":"6abc2022-b269-4931-8505-428339624a41","system_id":"levelo_inurba_marseille","lat":43.26556,"lon":5.3733,"is_reserved":false,"is_disabled":false,"rental_uris":{"android":"levelo://app?vid=6abc2022-b269-4931-8505-428339624a41","ios":"levelo://app?vid=6abc2022-b269-4931-8505-428339624a41"},"vehicle_type_id":"4","last_reported":1762950139,"current_range_meters":20800,"station_id":"ce4bhg12rcd13ifvqf70","pricing_plan_id":"cebpf4jnsgd1na2vs0mg"},{"bike_id":"20832689-4d63-4431-8cde-741943eba01d","system_id":"levelo_inurba_marseille","lat":43.32343,"lon":5.36723,"is_reserved":false,"is_disabled":false,"rental_uris":{"android":"levelo://app?vid=20832689-4d63-4431-8cde-741943eba01d","ios":"levelo://app?vid=20832689-4d63-4431-8cde-741943eba01d"},"vehicle_type_id":"4","last_reported":1762950139,"current_range_meters":20800,"station_id":"ce4bhsh2rcd13ifvqi2g","pricing_plan_id":"cebpf4jnsgd1na2vs0mg"},{"bike_id":"ef376023-8d12-4e39-9095-b616110889d9","system_id":"levelo_inurba_marseille","lat":43.29507,"lon":5.37395,"is_reserved":false,"is_disabled":false,"rental_uris":{"android":"levelo://app?vid=ef376023-8d12-4e39-9095-b616110889d9","ios":"levelo://app?vid=ef376023-8d12-4e39-9095-b616110889d9"},"vehicle_type_id":"4","last_reported":1762950139,"current_range_meters":20800,"station_id":"","pricing_plan_id":"cebpf4jnsgd1na2vs0mg"},{"bike_id":"1f4359ec-f7b6-4963-a5dc-bf4129e39333","system_id":"levelo_inurba_marseille","lat":43.309458,"lon":5.390258,"is_reserved":false,"is_disabled":false,"rental_uris":{"android":"levelo://app?vid=1f4359ec-f7b6-4963-a5dc-bf4129e39333","ios":"levelo://app?vid=1f4359ec-f7b6-4963-a5dc-bf4129e39333"},"vehicle_type_id":"4","last_reported":1762950139,"current_range_meters":20800,"station_id":"ce4bho92rcd13ifvqh4g","pricing_plan_id":"cebpf4jnsgd1na2vs0mg"},{"bike_id":"13f62cc8-b6b9-4817-8a3f-aa13b6c27ad0","system_id":"levelo_inurba_marseille","lat":43.231545,"lon":5.437467,"is_reserved":false,"is_disabled":false,"rental_uris":{"android":"levelo://app?vid=13f62cc8-b6b9-4817-8a3f-aa13b6c27ad0","ios":"levelo://app?vid=13f62cc8-b6b9-4817-8a3f-aa13b6c27ad0"},"vehicle_type_id":"4","last_reported":1762950139,"current_range_meters":20800,"station_id":"ce4bhmp2rcd13ifvqgog","pricing_plan_id":"cebpf4jnsgd1na2vs0mg"},{"bike_id":"c2b3576f-78a4-453a-be9f-eaf674ebfc80","system_id":"levelo_inurba_marseille","lat":43.305328,"lon":5.367192,"is_reserved":false,"is_disabled":false,"rental_uris":{"android":"levelo://app?vid=c2b3576f-78a4-453a-be9f-eaf674ebfc80","ios":"levelo://app?vid=c2b3576f-78a4-453a-be9f-eaf674ebfc80"},"vehicle_type_id":"4","last_reported":1762950139,"current_range_meters":20800,"station_id":"ce4bgrp2rcd13ifvqc9g","pricing_plan_id":"cebpf4jnsgd1na2vs0mg"},{"bike_id":"742f8f74-f1b1-4945-9811-7fcd5a8570d0","system_id":"levelo_inurba_marseille","lat":43.23783,"lon":5.36624,"is_reserved":false,"is_disabled":false,"rental_uris":{"android":"levelo://app?vid=742f8f74-f1b1-4945-9811-7fcd5a8570d0","ios":"levelo://app?vid=742f8f74-f1b1-4945-9811-7fcd5a8570d0"},"vehicle_type_id":"4","last_reported":1762950139,"current_range_meters":21600,"station_id":"st_d3nk18o9ro0c73en2l3g","pricing_plan_id":"cebpf4jnsgd1na2vs0mg"},{"bike_id":"d96e468c-f683-4e1c-9458-e6dd45cd86a1","system_id":"levelo_inurba_marseille","lat":43.299737,"lon":5.384816,"is_reserved":false,"is_disabled":false,"rental_uris":{"android":"levelo://app?vid=d96e468c-f683-4e1c-9458-e6dd45cd86a1","ios":"levelo://app?vid=d96e468c-f683-4e1c-9458-e6dd45cd86a1"},"vehicle_type_id":"4","last_reported":1762950139,"current_range_meters":21600,"station_id":"ce4bgj92rcd13ifvqbd0","pricing_plan_id":"cebpf4jnsgd1na2vs0mg"},{"bike_id":"6995c27a-f022-4c83-b753-ba1249eae797","system_id":"levelo_inurba_marseille","lat":43.308899,"lon":5.368222,"is_reserved":false,"is_disabled":false,"rental_uris":{"android":"levelo://app?vid=6995c27a-f022-4c83-b753-ba1249eae797","ios":"levelo://app?vid=6995c27a-f022-4c83-b753-ba1249eae797"},"vehicle_type_id":"4","last_reported":1762950139,"current_range_meters":21600,"station_id":"ce4bgn92rcd13ifvqbvg","pricing_plan_id":"cebpf4jnsgd1na2vs0mg"},{"bike_id":"3b80942b-ba05-4551-a078-dfe7492a6590","system_id":"levelo_inurba_marseille","lat":43.21191,"lon":5.35077,"is_reserved":false,"is_disabled":false,"rental_uris":{"android":"levelo://app?vid=3b80942b-ba05-4551-a078-dfe7492a6590","ios":"levelo://app?vid=3b80942b-ba05-4551-a078-dfe7492a6590"},"vehicle_type_id":"4","last_reported":1762950139,"current_range_meters":21600,"station_id":"st_cvj6sg6p6f1abm77japg","pricing_plan_id":"cebpf4jnsgd1na2vs0mg"},{"bike_id":"c0cfc4ab-b5d5-45ea-af34-9f878cdbb6b2","system_id":"levelo_inurba_marseille","lat":43.32982,"lon":5.39055,"is_reserved":false,"is_disabled":false,"rental_uris":{"android":"levelo://app?vid=c0cfc4ab-b5d5-45ea-af34-9f878cdbb6b2","ios":"levelo://app?vid=c0cfc4ab-b5d5-45ea-af34-9f878cdbb6b2"},"vehicle_type_id":"4","last_reported":1762950139,"current_range_meters":21600,"station_id":"ce4bhr92rcd13ifvqhrg","pricing_plan_id":"cebpf4jnsgd1na2vs0mg"},{"bike_id":"9606100b-974a-48bc-aa84-c80eed5bf8e2","system_id":"levelo_inurba_marseille","lat":43.30884,"lon":5.36882,"is_reserved":false,"is_disabled":true,"rental_uris":{"android":"levelo://app?vid=9606100b-974a-48bc-aa84-c80eed5bf8e2","ios":"levelo://app?vid=9606100b-974a-48bc-aa84-c80eed5bf8e2"},"vehicle_type_id":"4","last_reported":1762950139,"current_range_meters":21600,"station_id":"ce4bgn92rcd13ifvqbvg","pricing_plan_id":"cebpf4jnsgd1na2vs0mg"},{"bike_id":"c3720c1a-462f-454a-a3bd-ffabdab0eb7b","system_id":"levelo_inurba_marseille","lat":43.2744,"lon":5.39407,"is_reserved":false,"is_disabled":false,"rental_uris":{"android":"levelo://app?vid=c3720c1a-462f-454a-a3bd-ffabdab0eb7b","ios":"levelo://app?vid=c3720c1a-462f-454a-a3bd-ffabdab0eb7b"},"vehicle_type_id":"4","last_reported":1762950139,"current_range_meters":22000,"station_id":"ce4bhdp2rcd13ifvqf20","pricing_plan_id":"cebpf4jnsgd1na2vs0mg"},{"bike_id":"d3af20ce-09b7-4da5-88b3-378193580e60","system_id":"levelo_inurba_marseille","lat":43.246471,"lon":5.388856,"is_reserved":false,"is_disabled":false,"rental_uris":{"android":"levelo://app?vid=d3af20ce-09b7-4da5-88b3-378193580e60","ios":"levelo://app?vid=d3af20ce-09b7-4da5-88b3-378193580e60"},"vehicle_type_id":"4","last_reported":1762950139,"current_range_meters":22000,"station_id":"ce4bhg12rcd13ifvqf60","pricing_plan_id":"cebpf4jnsgd1na2vs0mg"},{"bike_id":"4dc49220-dfd5-4f92-b2f4-94d33fd67679","system_id":"levelo_inurba_marseille","lat":43.29281,"lon":5.40119,"is_reserved":false,"is_disabled":false,"rental_uris":{"android":"levelo://app?vid=4dc49220-dfd5-4f92-b2f4-94d33fd67679","ios":"levelo://app?vid=4dc49220-dfd5-4f92-b2f4-94d33fd67679"},"vehicle_type_id":"4","last_reported":1762950139,"current_range_meters":22000,"station_id":"ce4bh312rcd13ifvqdk0","pricing_plan_id":"cebpf4jnsgd1na2vs0mg"},{"bike_id":"c7be5219-ec31-4756-b2cb-5248dfb7f3c9","system_id":"levelo_inurba_marseille","lat":43.2892,"lon":5.38383,"is_reserved":false,"is_disabled":false,"rental_uris":{"android":"levelo://app?vid=c7be5219-ec31-4756-b2cb-5248dfb7f3c9","ios":"levelo://app?vid=c7be5219-ec31-4756-b2cb-5248dfb7f3c9"},"vehicle_type_id":"4","last_reported":1762950139,"current_range_meters":22000,"station_id":"ce4bh612rcd13ifvqe6g","pricing_plan_id":"cebpf4jnsgd1na2vs0mg"},{"bike_id":"3f5d937e-8358-496b-840f-5b3607a4ded5","system_id":"levelo_inurba_marseille","lat":43.28264,"lon":5.3506,"is_reserved":false,"is_disabled":false,"rental_uris":{"android":"levelo://app?vid=3f5d937e-8358-496b-840f-5b3607a4ded5","ios":"levelo://app?vid=3f5d937e-8358-496b-840f-5b3607a4ded5"},"vehicle_type_id":"4","last_reported":1762950139,"current_range_meters":22000,"station_id":"ce4bhbp2rcd13ifvqerg","pricing_plan_id":"cebpf4jnsgd1na2vs0mg"},{"bike_id":"a6230d30-0319-49f5-b631-2b331332b5fd","system_id":"levelo_inurba_marseille","lat":43.30926,"lon":5.40147,"is_reserved":false,"is_disabled":false,"rental_uris":{"android":"levelo://app?vid=a6230d30-0319-49f5-b631-2b331332b5fd","ios":"levelo://app?vid=a6230d30-0319-49f5-b631-2b331332b5fd"},"vehicle_type_id":"4","last_reported":1762950139,"current_range_meters":22000,"station_id":"ce4bgvp2rcd13ifvqct0","pricing_plan_id":"cebpf4jnsgd1na2vs0mg"},{"bike_id":"17c2c552-132f-4eb8-bdaa-75b8888374a4","system_id":"levelo_inurba_marseille","lat":43.24173,"lon":5.36406,"is_reserved":false,"is_disabled":false,"rental_uris":{"android":"levelo://app?vid=17c2c552-132f-4eb8-bdaa-75b8888374a4","ios":"levelo://app?vid=17c2c552-132f-4eb8-bdaa-75b8888374a4"},"vehicle_type_id":"4","last_reported":1762950139,"current_range_meters":22000,"station_id":"cpo36qri1sfpv3e86is0","pricing_plan_id":"cebpf4jnsgd1na2vs0mg"},{"bike_id":"6386f9e4-fbe4-4464-baee-72da7104d23c","system_id":"levelo_inurba_marseille","lat":43.288422,"lon":5.392651,"is_reserved":false,"is_disabled":false,"rental_uris":{"android":"levelo://app?vid=6386f9e4-fbe4-4464-baee-72da7104d23c","ios":"levelo://app?vid=6386f9e4-fbe4-4464-baee-72da7104d23c"},"vehicle_type_id":"4","last_reported":1762950139,"current_range_meters":22400,"station_id":"ce4bh2p2rcd13ifvqdi0","pricing_plan_id":"cebpf4jnsgd1na2vs0mg"},{"bike_id":"7680adf6-71f3-44a1-b407-6c459d20352f","system_id":"levelo_inurba_marseille","lat":43.28853,"lon":5.39311,"is_reserved":false,"is_disabled":false,"rental_uris":{"android":"levelo://app?vid=7680adf6-71f3-44a1-b407-6c459d20352f","ios":"levelo://app?vid=7680adf6-71f3-44a1-b407-6c459d20352f"},"vehicle_type_id":"4","last_reported":1762950139,"current_range_meters":22400,"station_id":"ce4bh2p2rcd13ifvqdi0","pricing_plan_id":"cebpf4jnsgd1na2vs0mg"},{"bike_id":"52be75c7-3e98-41cc-bc36-d62eeb2d92d7","system_id":"levelo_inurba_marseille","lat":43.306,"lon":5.39365,"is_reserved":false,"is_disabled":false,"rental_uris":{"android":"levelo://app?vid=52be75c7-3e98-41cc-bc36-d62eeb2d92d7","ios":"levelo://app?vid=52be75c7-3e98-41cc-bc36-d62eeb2d92d7"},"vehicle_type_id":"4","last_reported":1762950139,"current_range_meters":22400,"station_id":"ce4bh0p2rcd13ifvqd80","pricing_plan_id":"cebpf4jnsgd1na2vs0mg"},