{"last_updated":1700816824,"ttl":30,"version":"2.2","data":{"bikes":[{"bike_id":"3976ee32-97c3-4afa-965a-ffd466bdd50d","system_id":"levelo_inurba_marseille","lat":43.31341,"lon":5.367098,"is_reserved":false,"is_disabled":false,"rental_uris":{"android":"levelo://app?vid=3976ee32-97c3-4afa-965a-ffd466bdd50d","ios":"levelo://app?vid=3976ee32-97c3-4afa-965a-ffd466bdd50d"},"vehicle_type_id":"4","last_reported":1700816824,"current_range_meters":16400,"station_id":"ce4bgr92rcd13ifvqc6g","pricing_plan_id":"free"},{"bike_id":"f4d12bb3-dbf4-4762-8312-6a8151cd6f1f","system_id":"levelo_inurba_marseille","lat":43.31341,"lon":5.367098,"is_reserved":false,"is_disabled":false,"rental_uris":{"android":"levelo://app?vid=f4d12bb3-dbf4-4762-8312-6a8151cd6f1f","ios":"levelo://app?vid=f4d12bb3-dbf4-4762-8312-6a8151cd6f1f"},"vehicle_type_id":"4","last_reported":1700816824,"current_range_meters":31200,"station_id":"ce4bgr92rcd13ifvqc6g","pricing_plan_id":"free"},{"bike_id":"948f716d-72b7-4179-8340-c15726f2a948","system_id":"levelo_inurba_marseille","lat":43.313391,"lon":5.36706,"is_reserved":false,"is_disabled":false,"rental_uris":{"android":"levelo://app?vid=948f716d-72b7-4179-8340-c15726f2a948","ios":"levelo://app?vid=948f716d-72b7-4179-8340-c15726f2a948"},"vehicle_type_id":"4","last_reported":1700816824,"current_range_meters":7200,"station_id":"ce4bgr92rcd13ifvqc6g","pricing_plan_id":"free"},{"bike_id":"f0941033-81e8-4c11-8ccb-06d4ce7095b7","system_id":"levelo_inurba_marseille","lat":43.313391,"lon":5.36706,"is_reserved":false,"is_disabled":false,"rental_uris":{"android":"levelo://app?vid=f0941033-81e8-4c11-8ccb-06d4ce7095b7","ios":"levelo://app?vid=f0941033-81e8-4c11-8ccb-06d4ce7095b7"},"vehicle_type_id":"4","last_reported":1700816824,"current_range_meters":17600,"station_id":"ce4bgr92rcd13ifvqc6g","pricing_plan_id":"free"},{"bike_id":"5a427959-cf38-4f14-88b0-9897f052df1a","system_id":"levelo_inurba_marseille","lat":43.312239,"lon":5.368562,"is_reserved":false,"is_disabled":false,"rental_uris":{"android":"levelo://app?vid=5a427959-cf38-4f14-88b0-9897f052df1a","ios":"levelo://app?vid=5a427959-cf38-4f14-88b0-9897f052df1a"},"vehicle_type_id":"4","last_reported":1700816824,"current_range_meters":17600,"station_id":"ce4bgl92rcd13ifvqbq0","pricing_plan_id":"free"},{"bike_id":"76adfd12-b076-4dd2-9190-9442a8f202ff","system_id":"levelo_inurba_marseille","lat":43.312239,"lon":5.368562,"is_reserved":false,"is_disabled":false,"rental_uris":{"android":"levelo://app?vid=76adfd12-b076-4dd2-9190-9442a8f202ff","ios":"levelo://app?vid=76adfd12-b076-4dd2-9190-9442a8f202ff"},"vehicle_type_id":"4","last_reported":1700816824,"current_range_meters":4000,"station_id":"ce4bgl92rcd13ifvqbq0","pricing_plan_id":"free"},{"bike_id":"6f435786-82ed-4f45-ad5d-fd75ab222eee","system_id":"levelo_inurba_marseille","lat":43.30913,"lon":5.36857,"is_reserved":false,"is_disabled":false,"rental_uris":{"android":"levelo://app?vid=6f435786-82ed-4f45-ad5d-fd75ab222eee","ios":"levelo://app?vid=6f435786-82ed-4f45-ad5d-fd75ab222eee"},"vehicle_type_id":"4","last_reported":1700816824,"current_range_meters":4400,"station_id":"ce4bgn92rcd13ifvqbvg","pricing_plan_id":"free"},{"bike_id":"26606a7b-64ad-4b63-8caa-035305e09e52","system_id":"levelo_inurba_marseille","lat":43.309076,"lon":5.368465,"is_reserved":false,"is_disabled":false,"rental_uris":{"android":"levelo://app?vid=26606a7b-64ad-4b63-8caa-035305e09e52","ios":"levelo://app?vid=26606a7b-64ad-4b63-8caa-035305e09e52"},"vehicle_type_id":"4","last_reported":1700816824,"current_range_meters":18000,"station_id":"ce4bgn92rcd13ifvqbvg","pricing_plan_id":"free"},{"bike_id":"aff4c4bd-c502-4122-9fa9-5e0bd2b9e2bc","system_id":"levelo_inurba_marseille","lat":43.309076,"lon":5.368465,"is_reserved":false,"is_disabled":false,"rental_uris":{"android":"levelo://app?vid=aff4c4bd-c502-4122-9fa9-5e0bd2b9e2bc","ios":"levelo://app?vid=aff4c4bd-c502-4122-9fa9-5e0bd2b9e2bc"},"vehicle_type_id":"4","last_reported":1700816824,"current_range_meters":11200,"station_id":"ce4bgn92rcd13ifvqbvg","pricing_plan_id":"free"},{"bike_id":"11430954-102b-48d5-82d0-cd4738cf5660","system_id":"levelo_inurba_marseille","lat":43.309076,"lon":5.368465,"is_reserved":false,"is_disabled":false,"rental_uris":{"android":"levelo://app?vid=11430954-102b-48d5-82d0-cd4738cf5660","ios":"levelo://app?vid=11430954-102b-48d5-82d0-cd4738cf5660"},"vehicle_type_id":"4","last_reported":1700816824,"current_range_meters":22000,"station_id":"ce4bgn92rcd13ifvqbvg","pricing_plan_id":"free"},{"bike_id":"00810fed-52b8-45f4-8fa0-a3bbadff2793","system_id":"levelo_inurba_marseille","lat":43.309076,"lon":5.368465,"is_reserved":false,"is_disabled":false,"rental_uris":{"android":"levelo://app?vid=00810fed-52b8-45f4-8fa0-a3bbadff2793","ios":"levelo://app?vid=00810fed-52b8-45f4-8fa0-a3bbadff2793"},"vehicle_type_id":"4","last_reported":1700816824,"current_range_meters":2000,"station_id":"ce4bgn92rcd13ifvqbvg","pricing_plan_id":"free"},{"bike_id":"b446cbde-7096-4bbf-8b31-e65347b1284d","system_id":"levelo_inurba_marseille","lat":43.309039,"lon":5.371797,"is_reserved":false,"is_disabled":false,"rental_uris":{"android":"levelo://app?vid=b446cbde-7096-4bbf-8b31-e65347b1284d","ios":"levelo://app?vid=b446cbde-7096-4bbf-8b31-e65347b1284d"},"vehicle_type_id":"4","last_reported":1700816824,"current_range_meters":30400,"station_id":"ce4bguh2rcd13ifvqckg","pricing_plan_id":"free"},{"bike_id":"b87c10e0-e678-4edc-b76a-14a8cf744431","system_id":"levelo_inurba_marseille","lat":43.309039,"lon":5.371797,"is_reserved":false,"is_disabled":false,"rental_uris":{"android":"levelo://app?vid=b87c10e0-e678-4edc-b76a-14a8cf744431","ios":"levelo://app?vid=b87c10e0-e678-4edc-b76a-14a8cf744431"},"vehicle_type_id":"4","last_reported":1700816824,"current_range_meters":31200,"station_id":"ce4bguh2rcd13ifvqckg","pricing_plan_id":"free"},{"bike_id":"3f14d862-e471-4d8c-b98d-1f2cf1eedb5b","system_id":"levelo_inurba_marseille","lat":43.309039,"lon":5.371797,"is_reserved":false,"is_disabled":false,"rental_uris":{"android":"levelo://app?vid=3f14d862-e471-4d8c-b98d-1f2cf1eedb5b","ios":"levelo://app?vid=3f14d862-e471-4d8c-b98d-1f2cf1eedb5b"},"vehicle_type_id":"4","last_reported":1700816824,"current_range_meters":7200,"station_id":"ce4bguh2rcd13ifvqckg","pricing_plan_id":"free"},{"bike_id":"640493ea-a103-4b36-8082-f15642c5626a","system_id":"levelo_inurba_marseille","lat":43.305712,"lon":5.365641,"is_reserved":false,"is_disabled":false,"rental_uris":{"android":"levelo://app?vid=640493ea-a103-4b36-8082-f15642c5626a","ios":"levelo://app?vid=640493ea-a103-4b36-8082-f15642c5626a"},"vehicle_type_id":"4","last_reported":1700816824,"current_range_meters":8400,"station_id":"ce4bgs12rcd13ifvqcag","pricing_plan_id":"free"},{"bike_id":"222d7e37-6eff-4b3f-b420-7d27d2fea60f","system_id":"levelo_inurba_marseille","lat":43.305368,"lon":5.367343,"is_reserved":false,"is_disabled":false,"rental_uris":{"android":"levelo://app?vid=222d7e37-6eff-4b3f-b420-7d27d2fea60f","ios":"levelo://app?vid=222d7e37-6eff-4b3f-b420-7d27d2fea60f"},"vehicle_type_id":"4","last_reported":1700816824,"current_range_meters":22800,"station_id":"ce4bgrp2rcd13ifvqc9g","pricing_plan_id":"free"},{"bike_id":"4eb7930c-a1a5-4a3e-82d3-0f291dea745a","system_id":"levelo_inurba_marseille","lat":43.305368,"lon":5.367343,"is_reserved":false,"is_disabled":false,"rental_uris":{"android":"levelo://app?vid=4eb7930c-a1a5-4a3e-82d3-0f291dea745a","ios":"levelo://app?vid=4eb7930c-a1a5-4a3e-82d3-0f291dea745a"},"vehicle_type_id":"4","last_reported":1700816824,"current_range_meters":22800,"station_id":"ce4bgrp2rcd13ifvqc9g","pricing_plan_id":"free"},{"bike_id":"3906e35b-38d5-4683-8f59-5a9d671a6d8d","system_id":"levelo_inurba_marseille","lat":43.305714,"lon":5.365633,"is_reserved":false,"is_disabled":false,"rental_uris":{"android":"levelo://app?vid=3906e35b-38d5-4683-8f59-5a9d671a6d8d","ios":"levelo://app?vid=3906e35b-38d5-4683-8f59-5a9d671a6d8d"},"vehicle_type_id":"4","last_reported":1700816824,"current_range_meters":17600,"station_id":"ce4bgs12rcd13ifvqcag","pricing_plan_id":"free"},{"bike_id":"630a1bf5-3ea9-4e60-aa8d-fd106442c32b","system_id":"levelo_inurba_marseille","lat":43.305368,"lon":5.367343,"is_reserved":false,"is_disabled":false,"rental_uris":{"android":"levelo://app?vid=630a1bf5-3ea9-4e60-aa8d-fd106442c32b","ios":"levelo://app?vid=630a1bf5-3ea9-4e60-aa8d-fd106442c32b"},"vehicle_type_id":"4","last_reported":1700816824,"current_range_meters":22800,"station_id":"ce4bgrp2rcd13ifvqc9g","pricing_plan_id":"free"},{"bike_id":"8bc23b3e-7620-4590-91f5-766628ef04bd","system_id":"levelo_inurba_marseille","lat":43.305368,"lon":5.367343,"is_reserved":false,"is_disabled":false,"rental_uris":{"android":"levelo://app?vid=8bc23b3e-7620-4590-91f5-766628ef04bd","ios":"levelo://app?vid=8bc23b3e-7620-4590-91f5-766628ef04bd"},"vehicle_type_id":"4","last_reported":1700816824,"current_range_meters":25600,"station_id":"ce4bgrp2rcd13ifvqc9g","pricing_plan_id":"free"},{"bike_id":"c72bc89d-1dfb-4def-815b-6026950c5a6e","system_id":"levelo_inurba_marseille","lat":43.305714,"lon":5.365633,"is_reserved":false,"is_disabled":false,"rental_uris":{"android":"levelo://app?vid=c72bc89d-1dfb-4def-815b-6026950c5a6e","ios":"levelo://app?vid=c72bc89d-1dfb-4def-815b-6026950c5a6e"},"vehicle_type_id":"4","last_reported":1700816824,"current_range_meters":22400,"station_id":"ce4bgs12rcd13ifvqcag","pricing_plan_id":"free"},{"bike_id":"da038daf-9b63-43cc-a9a3-95b9d6b2b03a","system_id":"levelo_inurba_marseille","lat":43.305714,"lon":5.365633,"is_reserved":false,"is_disabled":false,"rental_uris":{"android":"levelo://app?vid=da038daf-9b63-43cc-a9a3-95b9d6b2b03a","ios":"levelo://app?vid=da038daf-9b63-43cc-a9a3-95b9d6b2b03a"},"vehicle_type_id":"4","last_reported":1700816824,"current_range_meters":15200,"station_id":"ce4bgs12rcd13ifvqcag","pricing_plan_id":"free"},{"bike_id":"a864e621-fb78-488f-8f4f-1165f8d80b90","system_id":"levelo_inurba_marseille","lat":43.305714,"lon":5.365633,"is_reserved":false,"is_disabled":false,"rental_uris":{"android":"levelo://app?vid=a864e621-fb78-488f-8f4f-1165f8d80b90","ios":"levelo://app?vid=a864e621-fb78-488f-8f4f-1165f8d80b90"},"vehicle_type_id":"4","last_reported":1700816824,"current_range_meters":22400,"station_id":"ce4bgs12rcd13ifvqcag","pricing_plan_id":"free"},{"bike_id":"51205c9b-3d27-46a9-8ca6-b4c68ad7cc5c","system_id":"levelo_inurba_marseille","lat":43.305714,"lon":5.365633,"is_reserved":false,"is_disabled":false,"rental_uris":{"android":"levelo://app?vid=51205c9b-3d27-46a9-8ca6-b4c68ad7cc5c","ios":"levelo://app?vid=51205c9b-3d27-46a9-8ca6-b4c68ad7cc5c"},"vehicle_type_id":"4","last_reported":1700816824,"current_range_meters":30000,"station_id":"ce4bgs12rcd13ifvqcag","pricing_plan_id":"free"},{"bike_id":"03aeff45-7844-4d47-acd1-8af45330d1a1","system_id":"levelo_inurba_marseille","lat":43.305714,"lon":5.365633,"is_reserved":false,"is_disabled":false,"rental_uris":{"android":"levelo://app?vid=03aeff45-7844-4d47-acd1-8af45330d1a1","ios":"levelo://app?vid=03aeff45-7844-4d47-acd1-8af45330d1a1"},"vehicle_type_id":"4","last_reported":1700816824,"current_range_meters":20000,"station_id":"ce4bgs12rcd13ifvqcag","pricing_plan_id":"free"},{"bike_id":"fe67b6cd-6da7-452b-a5aa-333b57ed9e58","system_id":"levelo_inurba_marseille","lat":43.305368,"lon":5.367343,"is_reserved":false,"is_disabled":false,"rental_uris":{"android":"levelo://app?vid=fe67b6cd-6da7-452b-a5aa-333b57ed9e58","ios":"levelo://app?vid=fe67b6cd-6da7-452b-a5aa-333b57ed9e58"},"vehicle_type_id":"4","last_reported":1700816824,"current_range_meters":0,"station_id":"ce4bgrp2rcd13ifvqc9g","pricing_plan_id":"free"},{"bike_id":"80b45c8b-c4fc-40e1-ac23-7604546e37bc","system_id":"levelo_inurba_marseille","lat":43.305714,"lon":5.365633,"is_reserved":false,"is_disabled":false,"rental_uris":{"android":"levelo://app?vid=80b45c8b-c4fc-40e1-ac23-7604546e37bc","ios":"levelo://app?vid=80b45c8b-c4fc-40e1-ac23-7604546e37bc"},"vehicle_type_id":"4","last_reported":1700816824,"current_range_meters":30000,"station_id":"ce4bgs12rcd13ifvqcag","pricing_plan_id":"free"},{"bike_id":"c1a9f473-0814-464f-bf69-299b0a8cd5c0","system_id":"levelo_inurba_marseille","lat":43.305714,"lon":5.365633,"is_reserved":false,"is_disabled":false,"rental_uris":{"android":"levelo://app?vid=c1a9f473-0814-464f-bf69-299b0a8cd5c0","ios":"levelo://app?vid=c1a9f473-0814-464f-bf69-299b0a8cd5c0"},"vehicle_type_id":"4","last_reported":1700816824,"current_range_meters":1600,"station_id":"ce4bgs12rcd13ifvqcag","pricing_plan_id":"free"},{"bike_id":"84fe0fec-ebb1-4d39-ae17-190a98ce8faa","system_id":"levelo_inurba_marseille","lat":43.305395,"lon":5.365581,"is_reserved":false,"is_disabled":false,"rental_uris":{"android":"levelo://app?vid=84fe0fec-ebb1-4d39-ae17-190a98ce8faa","ios":"levelo://app?vid=84fe0fec-ebb1-4d39-ae17-190a98ce8faa"},"vehicle_type_id":"4","last_reported":1700816824,"current_range_meters":14400,"station_id":"","pricing_plan_id":"free"},{"bike_id":"977c6683-b068-47b8-b6e9-f480e509ccdb","system_id":"levelo_inurba_marseille","lat":43.305368,"lon":5.367343,"is_reserved":false,"is_disabled":false,"rental_uris":{"android":"levelo://app?vid=977c6683-b068-47b8-b6e9-f480e509ccdb","ios":"levelo://app?vid=977c6683-b068-47b8-b6e9-f480e509ccdb"},"vehicle_type_id":"4","last_reported":1700816824,"current_range_meters":27200,"station_id":"ce4bgrp2rcd13ifvqc9g","pricing_plan_id":"free"},{"bike_id":"77eeb088-e463-4b29-80a5-8b7eb4a58a7b","system_id":"levelo_inurba_marseille","lat":43.305714,"lon":5.365633,"is_reserved":false,"is_disabled":false,"rental_uris":{"android":"levelo://app?vid=77eeb088-e463-4b29-80a5-8b7eb4a58a7b","ios":"levelo://app?vid=77eeb088-e463-4b29-80a5-8b7eb4a58a7b"},"vehicle_type_id":"4","last_reported":1700816824,"current_range_meters":26000,"station_id":"ce4bgs12rcd13ifvqcag","pricing_plan_id":"free"},{"bike_id":"b6dd5827-2613-44d3-acca-f7f13454348b","system_id":"levelo_inurba_marseille","lat":43.305368,"lon":5.367343,"is_reserved":false,"is_disabled":false,"rental_uris":{"android":"levelo://app?vid=b6dd5827-2613-44d3-acca-f7f13454348b","ios":"levelo://app?vid=b6dd5827-2613-44d3-acca-f7f13454348b"},"vehicle_type_id":"4","last_reported":1700816824,"current_range_meters":28400,"station_id":"ce4bgrp2rcd13ifvqc9g","pricing_plan_id":"free"},{"bike_id":"f8867632-c836-458f-8bd0-ffad506867e9","system_id":"levelo_inurba_marseille","lat":43.305368,"lon":5.367343,"is_reserved":false,"is_disabled":false,"rental_uris":{"android":"levelo://app?vid=f8867632-c836-458f-8bd0-ffad506867e9","ios":"levelo://app?vid=f8867632-c836-458f-8bd0-ffad506867e9"},"vehicle_type_id":"4","last_reported":1700816824,"current_range_meters":21600,"station_id":"ce4bgrp2rcd13ifvqc9g","pricing_plan_id":"free"},{"bike_id":"e72d5dbe-d923-4a6c-96ab-dbe9156e538f","system_id":"levelo_inurba_marseille","lat":43.305706,"lon":5.365654,"is_reserved":false,"is_disabled":false,"rental_uris":{"android":"levelo://app?vid=e72d5dbe-d923-4a6c-96ab-dbe9156e538f","ios":"levelo://app?vid=e72d5dbe-d923-4a6c-96ab-dbe9156e538f"},"vehicle_type_id":"4","last_reported":1700816824,"current_range_meters":31600,"station_id":"ce4bgs12rcd13ifvqcag","pricing_plan_id":"free"},{"bike_id":"43bf5cf6-ac0a-4035-9884-61a3aec3d997","system_id":"levelo_inurba_marseille","lat":43.305706,"lon":5.365654,"is_reserved":false,"is_disabled":false,"rental_uris":{"android":"levelo://app?vid=43bf5cf6-ac0a-4035-9884-61a3aec3d997","ios":"levelo://app?vid=43bf5cf6-ac0a-4035-9884-61a3aec3d997"},"vehicle_type_id":"4","last_reported":1700816824,"current_range_meters":30000,"station_id":"ce4bgs12rcd13ifvqcag","pricing_plan_id":"free"},{"bike_id":"51ff5fce-7c37-4c8b-9d23-1c4e7ef4baa5","system_id":"levelo_inurba_marseille","lat":43.305989,"lon":5.37225,"is_reserved":false,"is_disabled":false,"rental_uris":{"android":"levelo://app?vid=51ff5fce-7c37-4c8b-9d23-1c4e7ef4baa5","ios":"levelo://app?vid=51ff5fce-7c37-4c8b-9d23-1c4e7ef4baa5"},"vehicle_type_id":"4","last_reported":1700816824,"current_range_meters":25600,"station_id":"ce4bgqh2rcd13ifvqc4g","pricing_plan_id":"free"},{"bike_id":"6fda7dea-77f0-4422-943b-3e6a20e9cac5","system_id":"levelo_inurba_marseille","lat":43.305989,"lon":5.37225,"is_reserved":false,"is_disabled":false,"rental_uris":{"android":"levelo://app?vid=6fda7dea-77f0-4422-943b-3e6a20e9cac5","ios":"levelo://app?vid=6fda7dea-77f0-4422-943b-3e6a20e9cac5"},"vehicle_type_id":"4","last_reported":1700816824,"current_range_meters":22800,"station_id":"ce4bgqh2rcd13ifvqc4g","pricing_plan_id":"free"},{"bike_id":"12f1e750-7a87-43df-91a1-9d2388e2de09","system_id":"levelo_inurba_marseille","lat":43.311125,"lon":5.377624,"is_reserved":false,"is_disabled":false,"rental_uris":{"android":"levelo://app?vid=12f1e750-7a87-43df-91a1-9d2388e2de09","ios":"levelo://app?vid=12f1e750-7a87-43df-91a1-9d2388e2de09"},"vehicle_type_id":"4","last_reported":1700816824,"current_range_meters":22800,"station_id":"ce4bgt92rcd13ifvqcg0","pricing_plan_id":"free"},{"bike_id":"d69c1c85-1044-4c77-958a-bf353bfba4d2","system_id":"levelo_inurba_marseille","lat":43.30304,"lon":5.368987,"is_reserved":false,"is_disabled":false,"rental_uris":{"android":"levelo://app?vid=d69c1c85-1044-4c77-958a-bf353bfba4d2","ios":"levelo://app?vid=d69c1c85-1044-4c77-958a-bf353bfba4d2"},"vehicle_type_id":"4","last_reported":1700816824,"current_range_meters":19600,"station_id":"ce4bgqh2rcd13ifvqc5g","pricing_plan_id":"free"},{"bike_id":"1377a259-4089-4d93-b5f8-15bda2106c6b","system_id":"levelo_inurba_marseille","lat":43.30304,"lon":5.368987,"is_reserved":false,"is_disabled":false,"rental_uris":{"android":"levelo://app?vid=1377a259-4089-4d93-b5f8-15bda2106c6b","ios":"levelo://app?vid=1377a259-4089-4d93-b5f8-15bda2106c6b"},"vehicle_type_id":"4","last_reported":1700816824,"current_range_meters":31200,"station_id":"ce4bgqh2rcd13ifvqc5g","pricing_plan_id":"free"},{"bike_id":"0fc90eda-92f1-47c4-9c41-4082c9a377ba","system_id":"levelo_inurba_marseille","lat":43.303046,"lon":5.368981,"is_reserved":false,"is_disabled":false,"rental_uris":{"android":"levelo://app?vid=0fc90eda-92f1-47c4-9c41-4082c9a377ba","ios":"levelo://app?vid=0fc90eda-92f1-47c4-9c41-4082c9a377ba"},"vehicle_type_id":"4","last_reported":1700816824,"current_range_meters":26400,"station_id":"ce4bgqh2rcd13ifvqc5g","pricing_plan_id":"free"},{"bike_id":"5432ebe5-659a-45a0-a8e1-89d3238e7a59","system_id":"levelo_inurba_marseille","lat":43.303049,"lon":5.369153,"is_reserved":false,"is_disabled":false,"rental_uris":{"android":"levelo://app?vid=5432ebe5-659a-45a0-a8e1-89d3238e7a59","ios":"levelo://app?vid=5432ebe5-659a-45a0-a8e1-89d3238e7a59"},"vehicle_type_id":"4","last_reported":1700816824,"current_range_meters":13200,"station_id":"ce4bgqh2rcd13ifvqc5g","pricing_plan_id":"free"},{"bike_id":"508c56e1-bf28-4848-bca9-f164cc6e9124","system_id":"levelo_inurba_marseille","lat":43.303046,"lon":5.368981,"is_reserved":false,"is_disabled":false,"rental_uris":{"android":"levelo://app?vid=508c56e1-bf28-4848-bca9-f164cc6e9124","ios":"levelo://app?vid=508c56e1-bf28-4848-bca9-f164cc6e9124"},"vehicle_type_id":"4","last_reported":1700816824,"current_range_meters":30000,"station_id":"ce4bgqh2rcd13ifvqc5g","pricing_plan_id":"free"},{"bike_id":"cbe8a0af-06d1-4b67-91da-130694892392","system_id":"levelo_inurba_marseille","lat":43.301939,"lon":5.366286,"is_reserved":false,"is_disabled":false,"rental_uris":{"android":"levelo://app?vid=cbe8a0af-06d1-4b67-91da-130694892392","ios":"levelo://app?vid=cbe8a0af-06d1-4b67-91da-130694892392"},"vehicle_type_id":"4","last_reported":1700816824,"current_range_meters":30000,"station_id":"ce4bgrh2rcd13ifvqc8g","pricing_plan_id":"free"},{"bike_id":"8f601231-3856-411f-ab25-71f77a1a141a","system_id":"levelo_inurba_marseille","lat":43.304606,"lon":5.379026,"is_reserved":false,"is_disabled":false,"rental_uris":{"android":"levelo://app?vid=8f601231-3856-411f-ab25-71f77a1a141a","ios":"levelo://app?vid=8f601231-3856-411f-ab25-71f77a1a141a"},"vehicle_type_id":"4","last_reported":1700816824,"current_range_meters":24800,"station_id":"ce4bgup2rcd13ifvqcn0","pricing_plan_id":"free"},{"bike_id":"cb6473fa-4d3d-428d-876e-2a8d89dc00e1","system_id":"levelo_inurba_marseille","lat":43.304606,"lon":5.379026,"is_reserved":false,"is_disabled":false,"rental_uris":{"android":"levelo://app?vid=cb6473fa-4d3d-428d-876e-2a8d89dc00e1","ios":"levelo://app?vid=cb6473fa-4d3d-428d-876e-2a8d89dc00e1"},"vehicle_type_id":"4","last_reported":1700816824,"current_range_meters":29600,"station_id":"ce4bgup2rcd13ifvqcn0","pricing_plan_id":"free"},{"bike_id":"0a0ea16b-9cb2-4ca6-af29-0042edb6317c","system_id":"levelo_inurba_marseille","lat":43.304606,"lon":5.379026,"is_reserved":false,"is_disabled":false,"rental_uris":{"android":"levelo://app?vid=0a0ea16b-9cb2-4ca6-af29-0042edb6317c","ios":"levelo://app?vid=0a0ea16b-9cb2-4ca6-af29-0042edb6317c"},"vehicle_type_id":"4","last_reported":1700816824,"current_range_meters":6800,"station_id":"ce4bgup2rcd13ifvqcn0","pricing_plan_id":"free"},{"bike_id":"ca2ad060-9ff3-491f-8b90-837f5ab0dc21","system_id":"levelo_inurba_marseille","lat":43.304606,"lon":5.379026,"is_reserved":false,"is_disabled":false,"rental_uris":{"android":"levelo://app?vid=ca2ad060-9ff3-491f-8b90-837f5ab0dc21","ios":"levelo://app?vid=ca2ad060-9ff3-491f-8b90-837f5ab0dc21"},"vehicle_type_id":"4","last_reported":1700816824,"current_range_meters":21200,"station_id":"ce4bgup2rcd13ifvqcn0","pricing_plan_id":"free"},{"bike_id":"88f9885d-2aba-4ffd-98e6-b3afeb25071d","system_id":"levelo_inurba_marseille","lat":43.304606,"lon":5.379026,"is_reserved":false,"is_disabled":false,"rental_uris":{"android":"levelo://app?vid=88f9885d-2aba-4ffd-98e6-b3afeb25071d","ios":"levelo://app?vid=88f9885d-2aba-4ffd-98e6-b3afeb25071d"},"vehicle_type_id":"4","last_reported":1700816824,"current_range_meters":31600,"station_id":"ce4bgup2rcd13ifvqcn0","pricing_plan_id":"free"},{"bike_id":"efdfa84f-2b0a-4e51-90d2-dbab8524b5e5","system_id":"levelo_inurba_marseille","lat":43.304606,"lon":5.379026,"is_reserved":false,"is_disabled":false,"rental_uris":{"android":"levelo://app?vid=efdfa84f-2b0a-4e51-90d2-dbab8524b5e5","ios":"levelo://app?vid=efdfa84f-2b0a-4e51-90d2-dbab8524b5e5"},"vehicle_type_id":"4","last_reported":1700816824,"current_range_meters":26400,"station_id":"ce4bgup2rcd13ifvqcn0","pricing_plan_id":"free"},{"bike_id":"46f6982c-74ac-4d79-96a5-cea908411945","system_id":"levelo_inurba_marseille","lat":43.30461,"lon":5.37908,"is_reserved":false,"is_disabled":false,"rental_uris":{"android":"levelo://app?vid=46f6982c-74ac-4d79-96a5-cea908411945","ios":"levelo://app?vid=46f6982c-74ac-4d79-96a5-cea908411945"},"vehicle_type_id":"4","last_reported":1700816824,"current_range_meters":25600,"station_id":"ce4bgup2rcd13ifvqcn0","pricing_plan_id":"free"},{"bike_id":"771dec50-9859-4ba1-9101-9df1b92b6b00","system_id":"levelo_inurba_marseille","lat":43.301429,"lon":5.37413,"is_reserved":false,"is_disabled":false,"rental_uris":{"android":"levelo://app?vid=771dec50-9859-4ba1-9101-9df1b92b6b00","ios":"levelo://app?vid=771dec50-9859-4ba1-9101-9df1b92b6b00"},"vehicle_type_id":"4","last_reported":1700816824,"current_range_meters":27200,"station_id":"ce4bgs92rcd13ifvqcc0","pricing_plan_id":"free"},{"bike_id":"352cf774-61d8-45b0-a4a4-3da606ea7b11","system_id":"levelo_inurba_marseille","lat":43.301429,"lon":5.37413,"is_reserved":false,"is_disabled":false,"rental_uris":{"android":"levelo://app?vid=352cf774-61d8-45b0-a4a4-3da606ea7b11","ios":"levelo://app?vid=352cf774-61d8-45b0-a4a4-3da606ea7b11"},"vehicle_type_id":"4","last_reported":1700816824,"current_range_meters":2800,"station_id":"ce4bgs92rcd13ifvqcc0","pricing_plan_id":"free"},{"bike_id":"5b4a5770-e9df-4ccd-8169-0f84f572cebb","system_id":"levelo_inurba_marseille","lat":43.30143,"lon":5.37413,"is_reserved":false,"is_disabled":false,"rental_uris":{"android":"levelo://app?vid=5b4a5770-e9df-4ccd-8169-0f84f572cebb","ios":"levelo://app?vid=5b4a5770-e9df-4ccd-8169-0f84f572cebb"},"vehicle_type_id":"4","last_reported":1700816824,"current_range_meters":26400,"station_id":"ce4bgs92rcd13ifvqcc0","pricing_plan_id":"free"},{"bike_id":"62418d8b-9e21-42fa-9f55-e83f8166274a","system_id":"levelo_inurba_marseille","lat":43.30143,"lon":5.37413,"is_reserved":false,"is_disabled":false,"rental_uris":{"android":"levelo://app?vid=62418d8b-9e21-42fa-9f55-e83f8166274a","ios":"levelo://app?vid=62418d8b-9e21-42fa-9f55-e83f8166274a"},"vehicle_type_id":"4","last_reported":1700816824,"current_range_meters":26000,"station_id":"ce4bgs92rcd13ifvqcc0","pricing_plan_id":"free"},{"bike_id":"cf7ba4d9-bc2c-4cbb-9182-eba8f1ad5c38","system_id":"levelo_inurba_marseille","lat":43.301429,"lon":5.37413,"is_reserved":false,"is_disabled":false,"rental_uris":{"android":"levelo://app?vid=cf7ba4d9-bc2c-4cbb-9182-eba8f1ad5c38","ios":"levelo://app?vid=cf7ba4d9-bc2c-4cbb-9182-eba8f1ad5c38"},"vehicle_type_id":"4","last_reported":1700816824,"current_range_meters":24400,"station_id":"ce4bgs92rcd13ifvqcc0","pricing_plan_id":"free"},{"bike_id":"11da3c25-7041-40e0-9019-e3b0e611e701","system_id":"levelo_inurba_marseille","lat":43.301429,"lon":5.37413,"is_reserved":false,"is_disabled":false,"rental_uris":{"android":"levelo://app?vid=11da3c25-7041-40e0-9019-e3b0e611e701","ios":"levelo://app?vid=11da3c25-7041-40e0-9019-e3b0e611e701"},"vehicle_type_id":"4","last_reported":1700816824,"current_range_meters":15200,"station_id":"ce4bgs92rcd13ifvqcc0","pricing_plan_id":"free"},{"bike_id":"725dcb49-737c-4112-b5fa-a3b286a2b98a","system_id":"levelo_inurba_marseille","lat":43.30143,"lon":5.37413,"is_reserved":false,"is_disabled":false,"rental_uris":{"android":"levelo://app?vid=725dcb49-737c-4112-b5fa-a3b286a2b98a","ios":"levelo://app?vid=725dcb49-737c-4112-b5fa-a3b286a2b98a"},"vehicle_type_id":"4","last_reported":1700816824,"current_range_meters":31200,"station_id":"ce4bgs92rcd13ifvqcc0","pricing_plan_id":"free"},{"bike_id":"ddcd8fb5-e6f9-4509-b663-a5f016a9be0b","system_id":"levelo_inurba_marseille","lat":43.32001,"lon":5.38148,"is_reserved":false,"is_disabled":false,"rental_uris":{"android":"levelo://app?vid=ddcd8fb5-e6f9-4509-b663-a5f016a9be0b","ios":"levelo://app?vid=ddcd8fb5-e6f9-4509-b663-a5f016a9be0b"},"vehicle_type_id":"4","last_reported":1700816824,"current_range_meters":4400,"station_id":"ce4bhr12rcd13ifvqhpg","pricing_plan_id":"free"},{"bike_id":"52b3d9e0-eb07-4b48-a73d-f17c79b4d433","system_id":"levelo_inurba_marseille","lat":43.319935,"lon":5.381699,"is_reserved":false,"is_disabled":false,"rental_uris":{"android":"levelo://app?vid=52b3d9e0-eb07-4b48-a73d-f17c79b4d433","ios":"levelo://app?vid=52b3d9e0-eb07-4b48-a73d-f17c79b4d433"},"vehicle_type_id":"4","last_reported":1700816824,"current_range_meters":6400,"station_id":"ce4bhr12rcd13ifvqhpg","pricing_plan_id":"free"},{"bike_id":"b35d98a3-9c0d-4bc9-b7aa-dab5b52650cb","system_id":"levelo_inurba_marseille","lat":43.30202,"lon":5.38044,"is_reserved":false,"is_disabled":false,"rental_uris":{"android":"levelo://app?vid=b35d98a3-9c0d-4bc9-b7aa-dab5b52650cb","ios":"levelo://app?vid=b35d98a3-9c0d-4bc9-b7aa-dab5b52650cb"},"vehicle_type_id":"4","last_reported":1700816824,"current_range_meters":13200,"station_id":"","pricing_plan_id":"free"},{"bike_id":"50823ce2-7b61-40fa-b7f8-f2b19d70cf5c","system_id":"levelo_inurba_marseille","lat":43.305364,"lon":5.384119,"is_reserved":false,"is_disabled":false,"rental_uris":{"android":"levelo://app?vid=50823ce2-7b61-40fa-b7f8-f2b19d70cf5c","ios":"levelo://app?vid=50823ce2-7b61-40fa-b7f8-f2b19d70cf5c"},"vehicle_type_id":"4","last_reported":1700816824,"current_range_meters":28400,"station_id":"ce4bgg92rcd13ifvqb30","pricing_plan_id":"free"},{"bike_id":"c9491a41-4b0e-4d43-aeb2-6ceda6d39c87","system_id":"levelo_inurba_marseille","lat":43.298433,"lon":5.362774,"is_reserved":false,"is_disabled":false,"rental_uris":{"android":"levelo://app?vid=c9491a41-4b0e-4d43-aeb2-6ceda6d39c87","ios":"levelo://app?vid=c9491a41-4b0e-4d43-aeb2-6ceda6d39c87"},"vehicle_type_id":"4","last_reported":1700816824,"current_range_meters":19600,"station_id":"ce4bgpp2rcd13ifvqc3g","pricing_plan_id":"free"},{"bike_id":"e79aaac7-d93e-4e0d-aead-1d624209370f","system_id":"levelo_inurba_marseille","lat":43.305364,"lon":5.384119,"is_reserved":false,"is_disabled":false,"rental_uris":{"android":"levelo://app?vid=e79aaac7-d93e-4e0d-aead-1d624209370f","ios":"levelo://app?vid=e79aaac7-d93e-4e0d-aead-1d624209370f"},"vehicle_type_id":"4","last_reported":1700816824,"current_range_meters":29200,"station_id":"ce4bgg92rcd13ifvqb30","pricing_plan_id":"free"},{"bike_id":"3f61182c-8e06-48a9-848e-d3a1293e2985","system_id":"levelo_inurba_marseille","lat":43.298433,"lon":5.362774,"is_reserved":false,"is_disabled":false,"rental_uris":{"android":"levelo://app?vid=3f61182c-8e06-48a9-848e-d3a1293e2985","ios":"levelo://app?vid=3f61182c-8e06-48a9-848e-d3a1293e2985"},"vehicle_type_id":"4","last_reported":1700816824,"current_range_meters":11200,"station_id":"ce4bgpp2rcd13ifvqc3g","pricing_plan_id":"free"},{"bike_id":"799d357f-fd17-4290-b18b-f7a5ba9ec4b3","system_id":"levelo_inurba_marseille","lat":43.298433,"lon":5.362774,"is_reserved":false,"is_disabled":false,"rental_uris":{"android":"levelo://app?vid=799d357f-fd17-4290-b18b-f7a5ba9ec4b3","ios":"levelo://app?vid=799d357f-fd17-4290-b18b-f7a5ba9ec4b3"},"vehicle_type_id":"4","last_reported":1700816824,"current_range_meters":18400,"station_id":"ce4bgpp2rcd13ifvqc3g","pricing_plan_id":"free"},{"bike_id":"57f07daa-f979-41b2-bf81-49ff7a829b2a","system_id":"levelo_inurba_marseille","lat":43.322849,"lon":5.382598,"is_reserved":false,"is_disabled":false,"rental_uris":{"android":"levelo://app?vid=57f07daa-f979-41b2-bf81-49ff7a829b2a","ios":"levelo://app?vid=57f07daa-f979-41b2-bf81-49ff7a829b2a"},"vehicle_type_id":"4","last_reported":1700816824,"current_range_meters":7200,"station_id":"ce4bhr12rcd13ifvqhqg","pricing_plan_id":"free"},{"bike_id":"8eccf735-9f13-4d66-89ee-04a7bf59eec2","system_id":"levelo_inurba_marseille","lat":43.322872,"lon":5.382756,"is_reserved":false,"is_disabled":false,"rental_uris":{"android":"levelo://app?vid=8eccf735-9f13-4d66-89ee-04a7bf59eec2","ios":"levelo://app?vid=8eccf735-9f13-4d66-89ee-04a7bf59eec2"},"vehicle_type_id":"4","last_reported":1700816824,"current_range_meters":30000,"station_id":"ce4bhr12rcd13ifvqhqg","pricing_plan_id":"free"},{"bike_id":"5169e814-1b84-49ba-be67-78f670ac569e","system_id":"levelo_inurba_marseille","lat":43.322872,"lon":5.382756,"is_reserved":false,"is_disabled":false,"rental_uris":{"android":"levelo://app?vid=5169e814-1b84-49ba-be67-78f670ac569e","ios":"levelo://app?vid=5169e814-1b84-49ba-be67-78f670ac569e"},"vehicle_type_id":"4","last_reported":1700816824,"current_range_meters":27600,"station_id":"ce4bhr12rcd13ifvqhqg","pricing_plan_id":"free"},{"bike_id":"ddd3fff7-fc57-48f9-825f-f47d18d1dbee","system_id":"levelo_inurba_marseille","lat":43.328291,"lon":5.366833,"is_reserved":false,"is_disabled":false,"rental_uris":{"android":"levelo://app?vid=ddd3fff7-fc57-48f9-825f-f47d18d1dbee","ios":"levelo://app?vid=ddd3fff7-fc57-48f9-825f-f47d18d1dbee"},"vehicle_type_id":"4","last_reported":1700816824,"current_range_meters":400,"station_id":"ce4bhs92rcd13ifvqi0g","pricing_plan_id":"free"},{"bike_id":"02f1d3d5-0f04-4159-9b7b-17f28025ba66","system_id":"levelo_inurba_marseille","lat":43.328371,"lon":5.366909,"is_reserved":false,"is_disabled":false,"rental_uris":{"android":"levelo://app?vid=02f1d3d5-0f04-4159-9b7b-17f28025ba66","ios":"levelo://app?vid=02f1d3d5-0f04-4159-9b7b-17f28025ba66"},"vehicle_type_id":"4","last_reported":1700816824,"current_range_meters":6800,"station_id":"ce4bhs92rcd13ifvqi0g","pricing_plan_id":"free"},{"bike_id":"4d7509f5-9559-42ca-a60d-bef9e80f0981","system_id":"levelo_inurba_marseille","lat":43.299579,"lon":5.379146,"is_reserved":false,"is_disabled":false,"rental_uris":{"android":"levelo://app?vid=4d7509f5-9559-42ca-a60d-bef9e80f0981","ios":"levelo://app?vid=4d7509f5-9559-42ca-a60d-bef9e80f0981"},"vehicle_type_id":"4","last_reported":1700816824,"current_range_meters":0,"station_id":"","pricing_plan_id":"free"},{"bike_id":"db88048b-0760-4bb5-b986-7347baf246a8","system_id":"levelo_inurba_marseille","lat":43.296131,"lon":5.370773,"is_reserved":false,"is_disabled":false,"rental_uris":{"android":"levelo://app?vid=db88048b-0760-4bb5-b986-7347baf246a8","ios":"levelo://app?vid=db88048b-0760-4bb5-b986-7347baf246a8"},"vehicle_type_id":"4","last_reported":1700816824,"current_range_meters":10800,"station_id":"ce4bgnh2rcd13ifvqc0g","pricing_plan_id":"free"},{"bike_id":"f950440e-18b4-40bc-a1c8-2dd81a70e72d","system_id":"levelo_inurba_marseille","lat":43.29573,"lon":5.367355,"is_reserved":false,"is_disabled":false,"rental_uris":{"android":"levelo://app?vid=f950440e-18b4-40bc-a1c8-2dd81a70e72d","ios":"levelo://app?vid=f950440e-18b4-40bc-a1c8-2dd81a70e72d"},"vehicle_type_id":"4","last_reported":1700816824,"current_range_meters":18800,"station_id":"ce4bgph2rcd13ifvqc2g","pricing_plan_id":"free"},{"bike_id":"17861d66-83e2-491a-ba99-fdabce045b76","system_id":"levelo_inurba_marseille","lat":43.296921,"lon":5.376579,"is_reserved":false,"is_disabled":false,"rental_uris":{"android":"levelo://app?vid=17861d66-83e2-491a-ba99-fdabce045b76","ios":"levelo://app?vid=17861d66-83e2-491a-ba99-fdabce045b76"},"vehicle_type_id":"4","last_reported":1700816824,"current_range_meters":15200,"station_id":"ce4bgkh2rcd13ifvqbl0","pricing_plan_id":"free"},{"bike_id":"2a695ef4-b090-459e-8fd0-25e339883ac5","system_id":"levelo_inurba_marseille","lat":43.309589,"lon":5.390258,"is_reserved":false,"is_disabled":false,"rental_uris":{"android":"levelo://app?vid=2a695ef4-b090-459e-8fd0-25e339883ac5","ios":"levelo://app?vid=2a695ef4-b090-459e-8fd0-25e339883ac5"},"vehicle_type_id":"4","last_reported":1700816824,"current_range_meters":31200,"station_id":"ce4bgup2rcd13ifvqco0","pricing_plan_id":"free"},{"bike_id":"7eda32d5-a144-4d41-8ba1-8a7b167efa3e","system_id":"levelo_inurba_marseille","lat":43.309589,"lon":5.390258,"is_reserved":false,"is_disabled":false,"rental_uris":{"android":"levelo://app?vid=7eda32d5-a144-4d41-8ba1-8a7b167efa3e","ios":"levelo://app?vid=7eda32d5-a144-4d41-8ba1-8a7b167efa3e"},"vehicle_type_id":"4","last_reported":1700816824,"current_range_meters":17200,"station_id":"ce4bgup2rcd13ifvqco0","pricing_plan_id":"free"},{"bike_id":"5733243b-f660-48cd-889a-61ae82f9f001","system_id":"levelo_inurba_marseille","lat":43.305714,"lon":5.365633,"is_reserved":false,"is_disabled":false,"rental_uris":{"android":"levelo://app?vid=5733243b-f660-48cd-889a-61ae82f9f001","ios":"levelo://app?vid=5733243b-f660-48cd-889a-61ae82f9f001"},"vehicle_type_id":"4","last_reported":1700816824,"current_range_meters":18800,"station_id":"ce4bgs12rcd13ifvqcag","pricing_plan_id":"free"},{"bike_id":"5d3fc9e2-b7a3-40bc-ae24-042208810db4","system_id":"levelo_inurba_marseille","lat":43.309589,"lon":5.390258,"is_reserved":false,"is_disabled":false,"rental_uris":{"android":"levelo://app?vid=5d3fc9e2-b7a3-40bc-ae24-042208810db4","ios":"levelo://app?vid=5d3fc9e2-b7a3-40bc-ae24-042208810db4"},"vehicle_type_id":"4","last_reported":1700816824,"current_range_meters":18400,"station_id":"ce4bgup2rcd13ifvqco0","pricing_plan_id":"free"},{"bike_id":"7bbfaa23-e6f5-4611-a5f9-38c97c00eb43","system_id":"levelo_inurba_marseille","lat":43.309589,"lon":5.390258,"is_reserved":false,"is_disabled":false,"rental_uris":{"android":"levelo://app?vid=7bbfaa23-e6f5-4611-a5f9-38c97c00eb43","ios":"levelo://app?vid=7bbfaa23-e6f5-4611-a5f9-38c97c00eb43"},"vehicle_type_id":"4","last_reported":1700816824,"current_range_meters":20400,"station_id":"ce4bgup2rcd13ifvqco0","pricing_plan_id":"free"},{"bike_id":"1dd7041b-e111-421a-8fc5-e2b7ab6f439a","system_id":"levelo_inurba_marseille","lat":43.309589,"lon":5.390258,"is_reserved":false,"is_disabled":false,"rental_uris":{"android":"levelo://app?vid=1dd7041b-e111-421a-8fc5-e2b7ab6f439a","ios":"levelo://app?vid=1dd7041b-e111-421a-8fc5-e2b7ab6f439a"},"vehicle_type_id":"4","last_reported":1700816824,"current_range_meters":25200,"station_id":"ce4bgup2rcd13ifvqco0","pricing_plan_id":"free"},{"bike_id":"d1113f72-0eeb-4976-83c6-c0d158318d47","system_id":"levelo_inurba_marseille","lat":43.309589,"lon":5.390258,"is_reserved":false,"is_disabled":false,"rental_uris":{"android":"levelo://app?vid=d1113f72-0eeb-4976-83c6-c0d158318d47","ios":"levelo://app?vid=d1113f72-0eeb-4976-83c6-c0d158318d47"},"vehicle_type_id":"4","last_reported":1700816824,"current_range_meters":12800,"station_id":"ce4bgup2rcd13ifvqco0","pricing_plan_id":"free"},{"bike_id":"31568333-bf5b-4440-a70f-76fe5fca58ed","system_id":"levelo_inurba_marseille","lat":43.309589,"lon":5.390258,"is_reserved":false,"is_disabled":false,"rental_uris":{"android":"levelo://app?vid=31568333-bf5b-4440-a70f-76fe5fca58ed","ios":"levelo://app?vid=31568333-bf5b-4440-a70f-76fe5fca58ed"},"vehicle_type_id":"4","last_reported":1700816824,"current_range_meters":19200,"station_id":"ce4bgup2rcd13ifvqco0","pricing_plan_id":"free"},{"bike_id":"bb9c7f63-df46-4b37-ba59-1c47d313712d","system_id":"levelo_inurba_marseille","lat":43.309589,"lon":5.390258,"is_reserved":false,"is_disabled":false,"rental_uris":{"android":"levelo://app?vid=bb9c7f63-df46-4b37-ba59-1c47d313712d","ios":"levelo://app?vid=bb9c7f63-df46-4b37-ba59-1c47d313712d"},"vehicle_type_id":"4","last_reported":1700816824,"current_range_meters":21200,"station_id":"ce4bgup2rcd13ifvqco0","pricing_plan_id":"free"},{"bike_id":"16304e3b-4bd7-49a6-8adf-29afefb83b38","system_id":"levelo_inurba_marseille","lat":43.309589,"lon":5.390258,"is_reserved":false,"is_disabled":false,"rental_uris":{"android":"levelo://app?vid=16304e3b-4bd7-49a6-8adf-29afefb83b38","ios":"levelo://app?vid=16304e3b-4bd7-49a6-8adf-29afefb83b38"},"vehicle_type_id":"4","last_reported":1700816824,"current_range_meters":29600,"station_id":"ce4bgup2rcd13ifvqco0","pricing_plan_id":"free"},{"bike_id":"e870a805-2fbd-40ae-aeb8-108dc772ed5d","system_id":"levelo_inurba_marseille","lat":43.31759,"lon":5.390244,"is_reserved":false,"is_disabled":false,"rental_uris":{"android":"levelo://app?vid=e870a805-2fbd-40ae-aeb8-108dc772ed5d","ios":"levelo://app?vid=e870a805-2fbd-40ae-aeb8-108dc772ed5d"},"vehicle_type_id":"4","last_reported":1700816824,"current_range_meters":0,"station_id":"ce4bhqp2rcd13ifvqhng","pricing_plan_id":"free"},{"bike_id":"cea6da67-6909-4b72-b511-9fb44d3e0b92","system_id":"levelo_inurba_marseille","lat":43.298037,"lon":5.381066,"is_reserved":false,"is_disabled":false,"rental_uris":{"android":"levelo://app?vid=cea6da67-6909-4b72-b511-9fb44d3e0b92","ios":"levelo://app?vid=cea6da67-6909-4b72-b511-9fb44d3e0b92"},"vehicle_type_id":"4","last_reported":1700816824,"current_range_meters":0,"station_id":"ce4bgip2rcd13ifvqbb0","pricing_plan_id":"free"},{"bike_id":"d084e364-3395-4f38-8e0e-830a3c4c2faf","system_id":"levelo_inurba_marseille","lat":43.304274,"lon":5.388873,"is_reserved":false,"is_disabled":false,"rental_uris":{"android":"levelo://app?vid=d084e364-3395-4f38-8e0e-830a3c4c2faf","ios":"levelo://app?vid=d084e364-3395-4f38-8e0e-830a3c4c2faf"},"vehicle_type_id":"4","last_reported":1700816824,"current_range_meters":23200,"station_id":"ce4bgk12rcd13ifvqbi0","pricing_plan_id":"free"},{"bike_id":"3343097e-1ed6-4fab-b521-f8a7f986cbf7","system_id":"levelo_inurba_marseille","lat":43.29533,"lon":5.37509,"is_reserved":false,"is_disabled":false,"rental_uris":{"android":"levelo://app?vid=3343097e-1ed6-4fab-b521-f8a7f986cbf7","ios":"levelo://app?vid=3343097e-1ed6-4fab-b521-f8a7f986cbf7"},"vehicle_type_id":"4","last_reported":1700816824,"current_range_meters":0,"station_id":"ce4bgkp2rcd13ifvqbmg","pricing_plan_id":"free"},{"bike_id":"6b621983-5e9e-42f7-990d-ad5a093820d2","system_id":"levelo_inurba_marseille","lat":43.293801,"lon":5.363066,"is_reserved":false,"is_disabled":false,"rental_uris":{"android":"levelo://app?vid=6b621983-5e9e-42f7-990d-ad5a093820d2","ios":"levelo://app?vid=6b621983-5e9e-42f7-990d-ad5a093820d2"},"vehicle_type_id":"4","last_reported":1700816824,"current_range_meters":5200,"station_id":"","pricing_plan_id":"free"},{"bike_id":"6b26e9e5-3cd4-4f81-9992-f42a57fed9c7","system_id":"levelo_inurba_marseille","lat":43.29602,"lon":5.381084,"is_reserved":false,"is_disabled":false,"rental_uris":{"android":"levelo://app?vid=6b26e9e5-3cd4-4f81-9992-f42a57fed9c7","ios":"levelo://app?vid=6b26e9e5-3cd4-4f81-9992-f42a57fed9c7"},"vehicle_type_id":"4","last_reported":1700816824,"current_range_meters":10400,"station_id":"ce4bgl12rcd13ifvqbo0","pricing_plan_id":"free"},{"bike_id":"4f4e05cd-7e88-4ca0-a752-91e2aa2ae27c","system_id":"levelo_inurba_marseille","lat":43.29276,"lon":5.36845,"is_reserved":false,"is_disabled":false,"rental_uris":{"android":"levelo://app?vid=4f4e05cd-7e88-4ca0-a752-91e2aa2ae27c","ios":"levelo://app?vid=4f4e05cd-7e88-4ca0-a752-91e2aa2ae27c"},"vehicle_type_id":"4","last_reported":1700816824,"current_range_meters":0,"station_id":"ce4bhbp2rcd13ifvqesg","pricing_plan_id":"free"},{"bike_id":"00292b70-a802-4607-a194-4a8e37a78ffa","system_id":"levelo_inurba_marseille","lat":43.2936,"lon":5.37835,"is_reserved":false,"is_disabled":false,"rental_uris":{"android":"levelo://app?vid=00292b70-a802-4607-a194-4a8e37a78ffa","ios":"levelo://app?vid=00292b70-a802-4607-a194-4a8e37a78ffa"},"vehicle_type_id":"4","last_reported":1700816824,"current_range_meters":4000,"station_id":"ce4bgjh2rcd13ifvqbf0","pricing_plan_id":"free"},{"bike_id":"02373417-abc7-43e6-b306-e53bcdc36c36","system_id":"levelo_inurba_marseille","lat":43.29373,"lon":5.37858,"is_reserved":false,"is_disabled":false,"rental_uris":{"android":"levelo://app?vid=02373417-abc7-43e6-b306-e53bcdc36c36","ios":"levelo://app?vid=02373417-abc7-43e6-b306-e53bcdc36c36"},"vehicle_type_id":"4","last_reported":1700816824,"current_range_meters":0,"station_id":"ce4bgjh2rcd13ifvqbf0","pricing_plan_id":"free"},{"bike_id":"9c57409e-5087-42d6-b22a-6ee10a492fbc","system_id":"levelo_inurba_marseille","lat":43.292311,"lon":5.360731,"is_reserved":false,"is_disabled":false,"rental_uris":{"android":"levelo://app?vid=9c57409e-5087-42d6-b22a-6ee10a492fbc","ios":"levelo://app?vid=9c57409e-5087-42d6-b22a-6ee10a492fbc"},"vehicle_type_id":"4","last_reported":1700816824,"current_range_meters":14400,"station_id":"ce4bhbh2rcd13ifvqeqg","pricing_plan_id":"free"},{"bike_id":"8c2ee3d6-bbbc-4d1d-905f-2bc7816896a0","system_id":"levelo_inurba_marseille","lat":43.300852,"lon":5.390859,"is_reserved":false,"is_disabled":false,"rental_uris":{"android":"levelo://app?vid=8c2ee3d6-bbbc-4d1d-905f-2bc7816896a0","ios":"levelo://app?vid=8c2ee3d6-bbbc-4d1d-905f-2bc7816896a0"},"vehicle_type_id":"4","last_reported":1700816824,"current_range_meters":25600,"station_id":"ce4bh192rcd13ifvqdb0","pricing_plan_id":"free"},{"bike_id":"4e1a8b58-6bff-4830-8550-58036b8a6323","system_id":"levelo_inurba_marseille","lat":43.298764,"lon":5.388973,"is_reserved":false,"is_disabled":false,"rental_uris":{"android":"levelo://app?vid=4e1a8b58-6bff-4830-8550-58036b8a6323","ios":"levelo://app?vid=4e1a8b58-6bff-4830-8550-58036b8a6323"},"vehicle_type_id":"4","last_reported":1700816824,"current_range_meters":25600,"station_id":"ce4bh392rcd13ifvqdl0","pricing_plan_id":"free"},{"bike_id":"75c74531-f605-4ae5-85f3-9cecaeede22f","system_id":"levelo_inurba_marseille","lat":43.298764,"lon":5.388973,"is_reserved":false,"is_disabled":false,"rental_uris":{"android":"levelo://app?vid=75c74531-f605-4ae5-85f3-9cecaeede22f","ios":"levelo://app?vid=75c74531-f605-4ae5-85f3-9cecaeede22f"},"vehicle_type_id":"4","last_reported":1700816824,"current_range_meters":22000,"station_id":"ce4bh392rcd13ifvqdl0","pricing_plan_id":"free"},{"bike_id":"521a90ca-f2eb-4368-9001-aca7a0930240","system_id":"levelo_inurba_marseille","lat":43.29189,"lon":5.35809,"is_reserved":false,"is_disabled":false,"rental_uris":{"android":"levelo://app?vid=521a90ca-f2eb-4368-9001-aca7a0930240","ios":"levelo://app?vid=521a90ca-f2eb-4368-9001-aca7a0930240"},"vehicle_type_id":"4","last_reported":1700816824,"current_range_meters":13600,"station_id":"ce4bhb12rcd13ifvqel0","pricing_plan_id":"free"},{"bike_id":"1d10a1b1-d55f-4279-928a-9c6858f32ca9","system_id":"levelo_inurba_marseille","lat":43.33211,"lon":5.38112,"is_reserved":false,"is_disabled":false,"rental_uris":{"android":"levelo://app?vid=1d10a1b1-d55f-4279-928a-9c6858f32ca9","ios":"levelo://app?vid=1d10a1b1-d55f-4279-928a-9c6858f32ca9"},"vehicle_type_id":"4","last_reported":1700816824,"current_range_meters":0,"station_id":"","pricing_plan_id":"free"},{"bike_id":"cb127e81-2d70-4092-bc36-f57635d0138b","system_id":"levelo_inurba_marseille","lat":43.29532,"lon":5.38537,"is_reserved":false,"is_disabled":false,"rental_uris":{"android":"levelo://app?vid=cb127e81-2d70-4092-bc36-f57635d0138b","ios":"levelo://app?vid=cb127e81-2d70-4092-bc36-f57635d0138b"},"vehicle_type_id":"4","last_reported":1700816824,"current_range_meters":15200,"station_id":"ce4bgih2rcd13ifvqba0","pricing_plan_id":"free"},{"bike_id":"69c90218-874e-49b9-a522-04dec4f2ef16","system_id":"levelo_inurba_marseille","lat":43.302008,"lon":5.394694,"is_reserved":false,"is_disabled":false,"rental_uris":{"android":"levelo://app?vid=69c90218-874e-49b9-a522-04dec4f2ef16","ios":"levelo://app?vid=69c90218-874e-49b9-a522-04dec4f2ef16"},"vehicle_type_id":"4","last_reported":1700816824,"current_range_meters":17200,"station_id":"ce4bh0p2rcd13ifvqd70","pricing_plan_id":"free"},{"bike_id":"03c1c5f9-500f-4057-9929-5bc84d4e1004","system_id":"levelo_inurba_marseille","lat":43.3021,"lon":5.39466,"is_reserved":false,"is_disabled":false,"rental_uris":{"android":"levelo://app?vid=03c1c5f9-500f-4057-9929-5bc84d4e1004","ios":"levelo://app?vid=03c1c5f9-500f-4057-9929-5bc84d4e1004"},"vehicle_type_id":"4","last_reported":1700816824,"current_range_meters":0,"station_id":"ce4bh0p2rcd13ifvqd70","pricing_plan_id":"free"},{"bike_id":"dda51396-54d5-4eb3-ba9a-06aa07ce040d","system_id":"levelo_inurba_marseille","lat":43.298681,"lon":5.397225,"is_reserved":false,"is_disabled":false,"rental_uris":{"android":"levelo://app?vid=dda51396-54d5-4eb3-ba9a-06aa07ce040d","ios":"levelo://app?vid=dda51396-54d5-4eb3-ba9a-06aa07ce040d"},"vehicle_type_id":"4","last_reported":1700816824,"current_range_meters":17600,"station_id":"ce4bh0h2rcd13ifvqd50","pricing_plan_id":"free"},{"bike_id":"fdcfe2de-505e-47bd-9010-1d1a28e07dc8","system_id":"levelo_inurba_marseille","lat":43.290327,"lon":5.375711,"is_reserved":false,"is_disabled":false,"rental_uris":{"android":"levelo://app?vid=fdcfe2de-505e-47bd-9010-1d1a28e07dc8","ios":"levelo://app?vid=fdcfe2de-505e-47bd-9010-1d1a28e07dc8"},"vehicle_type_id":"4","last_reported":1700816824,"current_range_meters":3600,"station_id":"ce4bh692rcd13ifvqe90","pricing_plan_id":"free"},{"bike_id":"9a245a66-21a0-486b-92b6-14f97ea9ebf3","system_id":"levelo_inurba_marseille","lat":43.290327,"lon":5.375711,"is_reserved":false,"is_disabled":false,"rental_uris":{"android":"levelo://app?vid=9a245a66-21a0-486b-92b6-14f97ea9ebf3","ios":"levelo://app?vid=9a245a66-21a0-486b-92b6-14f97ea9ebf3"},"vehicle_type_id":"4","last_reported":1700816824,"current_range_meters":31600,"station_id":"ce4bh692rcd13ifvqe90","pricing_plan_id":"free"},{"bike_id":"772dcdf4-7a73-49da-b203-2267d268a56a","system_id":"levelo_inurba_marseille","lat":43.289184,"lon":5.366408,"is_reserved":false,"is_disabled":false,"rental_uris":{"android":"levelo://app?vid=772dcdf4-7a73-49da-b203-2267d268a56a","ios":"levelo://app?vid=772dcdf4-7a73-49da-b203-2267d268a56a"},"vehicle_type_id":"4","last_reported":1700816824,"current_range_meters":22000,"station_id":"ce4bhap2rcd13ifvqek0","pricing_plan_id":"free"},{"bike_id":"7d1411af-5171-48f6-86f2-df426fc48b67","system_id":"levelo_inurba_marseille","lat":43.289184,"lon":5.366408,"is_reserved":false,"is_disabled":false,"rental_uris":{"android":"levelo://app?vid=7d1411af-5171-48f6-86f2-df426fc48b67","ios":"levelo://app?vid=7d1411af-5171-48f6-86f2-df426fc48b67"},"vehicle_type_id":"4","last_reported":1700816824,"current_range_meters":10800,"station_id":"ce4bhap2rcd13ifvqek0","pricing_plan_id":"free"},{"bike_id":"6904b484-132c-42a8-a3c7-a1f453b205cd","system_id":"levelo_inurba_marseille","lat":43.3304,"lon":5.38919,"is_reserved":false,"is_disabled":false,"rental_uris":{"android":"levelo://app?vid=6904b484-132c-42a8-a3c7-a1f453b205cd","ios":"levelo://app?vid=6904b484-132c-42a8-a3c7-a1f453b205cd"},"vehicle_type_id":"4","last_reported":1700816824,"current_range_meters":18800,"station_id":"ce4bhr92rcd13ifvqhrg","pricing_plan_id":"free"},{"bike_id":"55466b2d-38b9-49ee-bda8-84fa58cf75ed","system_id":"levelo_inurba_marseille","lat":43.33045,"lon":5.38913,"is_reserved":false,"is_disabled":false,"rental_uris":{"android":"levelo://app?vid=55466b2d-38b9-49ee-bda8-84fa58cf75ed","ios":"levelo://app?vid=55466b2d-38b9-49ee-bda8-84fa58cf75ed"},"vehicle_type_id":"4","last_reported":1700816824,"current_range_meters":0,"station_id":"ce4bhr92rcd13ifvqhrg","pricing_plan_id":"free"},{"bike_id":"0c0219a0-af77-4aae-82ba-9a2680e1b023","system_id":"levelo_inurba_marseille","lat":43.290995,"lon":5.381361,"is_reserved":false,"is_disabled":false,"rental_uris":{"android":"levelo://app?vid=0c0219a0-af77-4aae-82ba-9a2680e1b023","ios":"levelo://app?vid=0c0219a0-af77-4aae-82ba-9a2680e1b023"},"vehicle_type_id":"4","last_reported":1700816824,"current_range_meters":15600,"station_id":"ce4bh512rcd13ifvqe2g","pricing_plan_id":"free"},{"bike_id":"0a9f7f36-0045-481a-b56e-cc9004786f53","system_id":"levelo_inurba_marseille","lat":43.290995,"lon":5.381361,"is_reserved":false,"is_disabled":false,"rental_uris":{"android":"levelo://app?vid=0a9f7f36-0045-481a-b56e-cc9004786f53","ios":"levelo://app?vid=0a9f7f36-0045-481a-b56e-cc9004786f53"},"vehicle_type_id":"4","last_reported":1700816824,"current_range_meters":0,"station_id":"ce4bh512rcd13ifvqe2g","pricing_plan_id":"free"},{"bike_id":"84918dca-6cae-4eef-8d16-76bcf3c99103","system_id":"levelo_inurba_marseille","lat":43.289743,"lon":5.378304,"is_reserved":false,"is_disabled":false,"rental_uris":{"android":"levelo://app?vid=84918dca-6cae-4eef-8d16-76bcf3c99103","ios":"levelo://app?vid=84918dca-6cae-4eef-8d16-76bcf3c99103"},"vehicle_type_id":"4","last_reported":1700816824,"current_range_meters":26000,"station_id":"ce4bh9p2rcd13ifvqed0","pricing_plan_id":"free"},{"bike_id":"96dcc26d-50b9-4410-ba9c-bfd3acd9794b","system_id":"levelo_inurba_marseille","lat":43.290094,"lon":5.381264,"is_reserved":false,"is_disabled":false,"rental_uris":{"android":"levelo://app?vid=96dcc26d-50b9-4410-ba9c-bfd3acd9794b","ios":"levelo://app?vid=96dcc26d-50b9-4410-ba9c-bfd3acd9794b"},"vehicle_type_id":"4","last_reported":1700816824,"current_range_meters":13600,"station_id":"ce4bh4p2rcd13ifvqe1g","pricing_plan_id":"free"},{"bike_id":"41a75350-71e5-4494-9c53-2d9f9a785c2e","system_id":"levelo_inurba_marseille","lat":43.290094,"lon":5.381264,"is_reserved":false,"is_disabled":false,"rental_uris":{"android":"levelo://app?vid=41a75350-71e5-4494-9c53-2d9f9a785c2e","ios":"levelo://app?vid=41a75350-71e5-4494-9c53-2d9f9a785c2e"},"vehicle_type_id":"4","last_reported":1700816824,"current_range_meters":2800,"station_id":"ce4bh4p2rcd13ifvqe1g","pricing_plan_id":"free"},{"bike_id":"00f06c00-d9de-4e59-8408-fed3b9c2d8e4","system_id":"levelo_inurba_marseille","lat":43.28856,"lon":5.358371,"is_reserved":false,"is_disabled":false,"rental_uris":{"android":"levelo://app?vid=00f06c00-d9de-4e59-8408-fed3b9c2d8e4","ios":"levelo://app?vid=00f06c00-d9de-4e59-8408-fed3b9c2d8e4"},"vehicle_type_id":"4","last_reported":1700816824,"current_range_meters":31200,"station_id":"ce4bhb12rcd13ifvqem0","pricing_plan_id":"free"},{"bike_id":"0404cb31-60a9-4d7d-88ed-a6835fe05630","system_id":"levelo_inurba_marseille","lat":43.31267,"lon":5.40161,"is_reserved":false,"is_disabled":false,"rental_uris":{"android":"levelo://app?vid=0404cb31-60a9-4d7d-88ed-a6835fe05630","ios":"levelo://app?vid=0404cb31-60a9-4d7d-88ed-a6835fe05630"},"vehicle_type_id":"4","last_reported":1700816824,"current_range_meters":16000,"station_id":"ce4bh092rcd13ifvqd30","pricing_plan_id":"free"},{"bike_id":"79d8db78-5205-4751-8b3d-0abf3249fb91","system_id":"levelo_inurba_marseille","lat":43.301117,"lon":5.398795,"is_reserved":false,"is_disabled":false,"rental_uris":{"android":"levelo://app?vid=79d8db78-5205-4751-8b3d-0abf3249fb91","ios":"levelo://app?vid=79d8db78-5205-4751-8b3d-0abf3249fb91"},"vehicle_type_id":"4","last_reported":1700816824,"current_range_meters":19600,"station_id":"ce4bh0h2rcd13ifvqd40","pricing_plan_id":"free"},{"bike_id":"498ed203-9434-46cd-ba33-3ba434a30334","system_id":"levelo_inurba_marseille","lat":43.295194,"lon":5.39397,"is_reserved":false,"is_disabled":false,"rental_uris":{"android":"levelo://app?vid=498ed203-9434-46cd-ba33-3ba434a30334","ios":"levelo://app?vid=498ed203-9434-46cd-ba33-3ba434a30334"},"vehicle_type_id":"4","last_reported":1700816824,"current_range_meters":20000,"station_id":"ce4bh292rcd13ifvqdf0","pricing_plan_id":"free"},{"bike_id":"d14cd9f7-531b-464e-9c84-1fbc4cc3adf7","system_id":"levelo_inurba_marseille","lat":43.287185,"lon":5.379373,"is_reserved":false,"is_disabled":false,"rental_uris":{"android":"levelo://app?vid=d14cd9f7-531b-464e-9c84-1fbc4cc3adf7","ios":"levelo://app?vid=d14cd9f7-531b-464e-9c84-1fbc4cc3adf7"},"vehicle_type_id":"4","last_reported":1700816824,"current_range_meters":26400,"station_id":"ce4bh9p2rcd13ifvqec0","pricing_plan_id":"free"},{"bike_id":"63184321-57ab-4d35-aa1c-d8e9a29cc81a","system_id":"levelo_inurba_marseille","lat":43.295713,"lon":5.399639,"is_reserved":false,"is_disabled":false,"rental_uris":{"android":"levelo://app?vid=63184321-57ab-4d35-aa1c-d8e9a29cc81a","ios":"levelo://app?vid=63184321-57ab-4d35-aa1c-d8e9a29cc81a"},"vehicle_type_id":"4","last_reported":1700816824,"current_range_meters":7600,"station_id":"ce4bh312rcd13ifvqdj0","pricing_plan_id":"free"},{"bike_id":"b0b670bf-ab3f-4983-b02a-2b41d6b1568a","system_id":"levelo_inurba_marseille","lat":43.295713,"lon":5.399639,"is_reserved":false,"is_disabled":false,"rental_uris":{"android":"levelo://app?vid=b0b670bf-ab3f-4983-b02a-2b41d6b1568a","ios":"levelo://app?vid=b0b670bf-ab3f-4983-b02a-2b41d6b1568a"},"vehicle_type_id":"4","last_reported":1700816824,"current_range_meters":800,"station_id":"ce4bh312rcd13ifvqdj0","pricing_plan_id":"free"},{"bike_id":"0fc449a4-d365-430e-b0fa-32368ba65ccd","system_id":"levelo_inurba_marseille","lat":43.319003,"lon":5.407433,"is_reserved":false,"is_disabled":false,"rental_uris":{"android":"levelo://app?vid=0fc449a4-d365-430e-b0fa-32368ba65ccd","ios":"levelo://app?vid=0fc449a4-d365-430e-b0fa-32368ba65ccd"},"vehicle_type_id":"4","last_reported":1700816824,"current_range_meters":11200,"station_id":"ce4bhq12rcd13ifvqhig","pricing_plan_id":"free"},{"bike_id":"420de239-9282-46ac-bc23-450502fc5b71","system_id":"levelo_inurba_marseille","lat":43.284787,"lon":5.384116,"is_reserved":false,"is_disabled":false,"rental_uris":{"android":"levelo://app?vid=420de239-9282-46ac-bc23-450502fc5b71","ios":"levelo://app?vid=420de239-9282-46ac-bc23-450502fc5b71"},"vehicle_type_id":"4","last_reported":1700816824,"current_range_meters":16800,"station_id":"ce4bh512rcd13ifvqe3g","pricing_plan_id":"free"},{"bike_id":"05ae287f-284a-454f-9f8a-64cc15df985b","system_id":"levelo_inurba_marseille","lat":43.284787,"lon":5.384116,"is_reserved":false,"is_disabled":false,"rental_uris":{"android":"levelo://app?vid=05ae287f-284a-454f-9f8a-64cc15df985b","ios":"levelo://app?vid=05ae287f-284a-454f-9f8a-64cc15df985b"},"vehicle_type_id":"4","last_reported":1700816824,"current_range_meters":0,"station_id":"ce4bh512rcd13ifvqe3g","pricing_plan_id":"free"},{"bike_id":"912616c8-c2c8-42a7-814c-81d78fcd1da5","system_id":"levelo_inurba_marseille","lat":43.288501,"lon":5.393087,"is_reserved":false,"is_disabled":false,"rental_uris":{"android":"levelo://app?vid=912616c8-c2c8-42a7-814c-81d78fcd1da5","ios":"levelo://app?vid=912616c8-c2c8-42a7-814c-81d78fcd1da5"},"vehicle_type_id":"4","last_reported":1700816824,"current_range_meters":21600,"station_id":"ce4bh2p2rcd13ifvqdi0","pricing_plan_id":"free"},{"bike_id":"e2284003-4e46-4e0a-93e7-73d05c3666d9","system_id":"levelo_inurba_marseille","lat":43.33479,"lon":5.39788,"is_reserved":false,"is_disabled":false,"rental_uris":{"android":"levelo://app?vid=e2284003-4e46-4e0a-93e7-73d05c3666d9","ios":"levelo://app?vid=e2284003-4e46-4e0a-93e7-73d05c3666d9"},"vehicle_type_id":"4","last_reported":1700816824,"current_range_meters":25200,"station_id":"","pricing_plan_id":"free"},{"bike_id":"b4bc6c19-20e6-4b1e-b989-40d4ba171e93","system_id":"levelo_inurba_marseille","lat":43.335272,"lon":5.397556,"is_reserved":false,"is_disabled":false,"rental_uris":{"android":"levelo://app?vid=b4bc6c19-20e6-4b1e-b989-40d4ba171e93","ios":"levelo://app?vid=b4bc6c19-20e6-4b1e-b989-40d4ba171e93"},"vehicle_type_id":"4","last_reported":1700816824,"current_range_meters":6400,"station_id":"","pricing_plan_id":"free"},{"bike_id":"fc231c5f-d015-44c9-bf62-cb4400e16e74","system_id":"levelo_inurba_marseille","lat":43.29178,"lon":5.40008,"is_reserved":false,"is_disabled":false,"rental_uris":{"android":"levelo://app?vid=fc231c5f-d015-44c9-bf62-cb4400e16e74","ios":"levelo://app?vid=fc231c5f-d015-44c9-bf62-cb4400e16e74"},"vehicle_type_id":"4","last_reported":1700816824,"current_range_meters":6800,"station_id":"","pricing_plan_id":"free"},{"bike_id":"11128761-6914-49db-a417-29528d7b7f60","system_id":"levelo_inurba_marseille","lat":43.282754,"lon":5.350519,"is_reserved":false,"is_disabled":false,"rental_uris":{"android":"levelo://app?vid=11128761-6914-49db-a417-29528d7b7f60","ios":"levelo://app?vid=11128761-6914-49db-a417-29528d7b7f60"},"vehicle_type_id":"4","last_reported":1700816824,"current_range_meters":23600,"station_id":"ce4bhbp2rcd13ifvqerg","pricing_plan_id":"free"},{"bike_id":"83d19639-0ce5-4d4c-80d6-7ca65c30818d","system_id":"levelo_inurba_marseille","lat":43.282744,"lon":5.350533,"is_reserved":false,"is_disabled":false,"rental_uris":{"android":"levelo://app?vid=83d19639-0ce5-4d4c-80d6-7ca65c30818d","ios":"levelo://app?vid=83d19639-0ce5-4d4c-80d6-7ca65c30818d"},"vehicle_type_id":"4","last_reported":1700816824,"current_range_meters":17200,"station_id":"ce4bhbp2rcd13ifvqerg","pricing_plan_id":"free"},{"bike_id":"9dc06acf-6924-47bd-86e5-6a89e48fc859","system_id":"levelo_inurba_marseille","lat":43.283502,"lon":5.386471,"is_reserved":false,"is_disabled":false,"rental_uris":{"android":"levelo://app?vid=9dc06acf-6924-47bd-86e5-6a89e48fc859","ios":"levelo://app?vid=9dc06acf-6924-47bd-86e5-6a89e48fc859"},"vehicle_type_id":"4","last_reported":1700816824,"current_range_meters":14000,"station_id":"ce4bh492rcd13ifvqdvg","pricing_plan_id":"free"},{"bike_id":"cfc63d42-fe74-41f4-a4b9-3ce9bfed6fe2","system_id":"levelo_inurba_marseille","lat":43.28039,"lon":5.369297,"is_reserved":false,"is_disabled":false,"rental_uris":{"android":"levelo://app?vid=cfc63d42-fe74-41f4-a4b9-3ce9bfed6fe2","ios":"levelo://app?vid=cfc63d42-fe74-41f4-a4b9-3ce9bfed6fe2"},"vehicle_type_id":"4","last_reported":1700816824,"current_range_meters":16000,"station_id":"ce4bha12rcd13ifvqef0","pricing_plan_id":"free"},{"bike_id":"f77ca963-f276-4c25-9579-651c12791a8b","system_id":"levelo_inurba_marseille","lat":43.28039,"lon":5.369297,"is_reserved":false,"is_disabled":false,"rental_uris":{"android":"levelo://app?vid=f77ca963-f276-4c25-9579-651c12791a8b","ios":"levelo://app?vid=f77ca963-f276-4c25-9579-651c12791a8b"},"vehicle_type_id":"4","last_reported":1700816824,"current_range_meters":12000,"station_id":"ce4bha12rcd13ifvqef0","pricing_plan_id":"free"},{"bike_id":"c47c3ee8-9713-4e24-99a3-200a628e27e1","system_id":"levelo_inurba_marseille","lat":43.29041,"lon":5.399634,"is_reserved":false,"is_disabled":false,"rental_uris":{"android":"levelo://app?vid=c47c3ee8-9713-4e24-99a3-200a628e27e1","ios":"levelo://app?vid=c47c3ee8-9713-4e24-99a3-200a628e27e1"},"vehicle_type_id":"4","last_reported":1700816824,"current_range_meters":3600,"station_id":"ce4bh392rcd13ifvqdm0","pricing_plan_id":"free"},{"bike_id":"73de893b-d1ea-4f44-9f18-1b2e7283f96a","system_id":"levelo_inurba_marseille","lat":43.284462,"lon":5.392121,"is_reserved":false,"is_disabled":false,"rental_uris":{"android":"levelo://app?vid=73de893b-d1ea-4f44-9f18-1b2e7283f96a","ios":"levelo://app?vid=73de893b-d1ea-4f44-9f18-1b2e7283f96a"},"vehicle_type_id":"4","last_reported":1700816824,"current_range_meters":19200,"station_id":"ce4bhoh2rcd13ifvqh5g","pricing_plan_id":"free"},{"bike_id":"5de45e7e-42bc-4fd8-9d52-80f700812aa8","system_id":"levelo_inurba_marseille","lat":43.326605,"lon":5.409903,"is_reserved":false,"is_disabled":false,"rental_uris":{"android":"levelo://app?vid=5de45e7e-42bc-4fd8-9d52-80f700812aa8","ios":"levelo://app?vid=5de45e7e-42bc-4fd8-9d52-80f700812aa8"},"vehicle_type_id":"4","last_reported":1700816824,"current_range_meters":20000,"station_id":"ce4bhpp2rcd13ifvqhgg","pricing_plan_id":"free"},{"bike_id":"109fcf71-4962-44ff-9de8-26cba3a767e0","system_id":"levelo_inurba_marseille","lat":43.326605,"lon":5.409903,"is_reserved":false,"is_disabled":false,"rental_uris":{"android":"levelo://app?vid=109fcf71-4962-44ff-9de8-26cba3a767e0","ios":"levelo://app?vid=109fcf71-4962-44ff-9de8-26cba3a767e0"},"vehicle_type_id":"4","last_reported":1700816824,"current_range_meters":3600,"station_id":"ce4bhpp2rcd13ifvqhgg","pricing_plan_id":"free"},{"bike_id":"e8997d84-e9e0-4aaa-a76a-c6d2af7271c7","system_id":"levelo_inurba_marseille","lat":43.298788,"lon":5.410111,"is_reserved":false,"is_disabled":false,"rental_uris":{"android":"levelo://app?vid=e8997d84-e9e0-4aaa-a76a-c6d2af7271c7","ios":"levelo://app?vid=e8997d84-e9e0-4aaa-a76a-c6d2af7271c7"},"vehicle_type_id":"4","last_reported":1700816824,"current_range_meters":400,"station_id":"","pricing_plan_id":"free"},{"bike_id":"f647e0ac-bfa6-4394-b023-3375fbd48b70","system_id":"levelo_inurba_marseille","lat":43.304188,"lon":5.412904,"is_reserved":false,"is_disabled":false,"rental_uris":{"android":"levelo://app?vid=f647e0ac-bfa6-4394-b023-3375fbd48b70","ios":"levelo://app?vid=f647e0ac-bfa6-4394-b023-3375fbd48b70"},"vehicle_type_id":"4","last_reported":1700816824,"current_range_meters":800,"station_id":"ce4bhop2rcd13ifvqh8g","pricing_plan_id":"free"},{"bike_id":"91ca6450-6d75-4404-8000-882f9e1c0c3d","system_id":"levelo_inurba_marseille","lat":43.287154,"lon":5.399979,"is_reserved":false,"is_disabled":false,"rental_uris":{"android":"levelo://app?vid=91ca6450-6d75-4404-8000-882f9e1c0c3d","ios":"levelo://app?vid=91ca6450-6d75-4404-8000-882f9e1c0c3d"},"vehicle_type_id":"4","last_reported":1700816824,"current_range_meters":21600,"station_id":"ce4bho92rcd13ifvqh3g","pricing_plan_id":"free"},{"bike_id":"c3f7afb2-506a-4fcc-88d0-4be035d3ea75","system_id":"levelo_inurba_marseille","lat":43.320045,"lon":5.415046,"is_reserved":false,"is_disabled":false,"rental_uris":{"android":"levelo://app?vid=c3f7afb2-506a-4fcc-88d0-4be035d3ea75","ios":"levelo://app?vid=c3f7afb2-506a-4fcc-88d0-4be035d3ea75"},"vehicle_type_id":"4","last_reported":1700816824,"current_range_meters":31200,"station_id":"ce4bhq92rcd13ifvqhkg","pricing_plan_id":"free"},{"bike_id":"bdabd637-cc3c-4369-9625-418e6a341241","system_id":"levelo_inurba_marseille","lat":43.279742,"lon":5.38744,"is_reserved":false,"is_disabled":false,"rental_uris":{"android":"levelo://app?vid=bdabd637-cc3c-4369-9625-418e6a341241","ios":"levelo://app?vid=bdabd637-cc3c-4369-9625-418e6a341241"},"vehicle_type_id":"4","last_reported":1700816824,"current_range_meters":17200,"station_id":"ce4bhg12rcd13ifvqf80","pricing_plan_id":"free"},{"bike_id":"a76f9693-87a9-46e0-8d6f-53150f454b87","system_id":"levelo_inurba_marseille","lat":43.279742,"lon":5.38744,"is_reserved":false,"is_disabled":false,"rental_uris":{"android":"levelo://app?vid=a76f9693-87a9-46e0-8d6f-53150f454b87","ios":"levelo://app?vid=a76f9693-87a9-46e0-8d6f-53150f454b87"},"vehicle_type_id":"4","last_reported":1700816824,"current_range_meters":27600,"station_id":"ce4bhg12rcd13ifvqf80","pricing_plan_id":"free"},{"bike_id":"3fa6d708-4d9d-48ab-aef5-e883d0c4115e","system_id":"levelo_inurba_marseille","lat":43.279742,"lon":5.38744,"is_reserved":false,"is_disabled":false,"rental_uris":{"android":"levelo://app?vid=3fa6d708-4d9d-48ab-aef5-e883d0c4115e","ios":"levelo://app?vid=3fa6d708-4d9d-48ab-aef5-e883d0c4115e"},"vehicle_type_id":"4","last_reported":1700816824,"current_range_meters":23600,"station_id":"ce4bhg12rcd13ifvqf80","pricing_plan_id":"free"},{"bike_id":"e0992a0d-3dca-4037-b504-626819a84e37","system_id":"levelo_inurba_marseille","lat":43.320045,"lon":5.415046,"is_reserved":false,"is_disabled":false,"rental_uris":{"android":"levelo://app?vid=e0992a0d-3dca-4037-b504-626819a84e37","ios":"levelo://app?vid=e0992a0d-3dca-4037-b504-626819a84e37"},"vehicle_type_id":"4","last_reported":1700816824,"current_range_meters":17600,"station_id":"ce4bhq92rcd13ifvqhkg","pricing_plan_id":"free"},{"bike_id":"a954200a-e694-4ead-9ad3-420e90b99780","system_id":"levelo_inurba_marseille","lat":43.29252,"lon":5.40908,"is_reserved":false,"is_disabled":false,"rental_uris":{"android":"levelo://app?vid=a954200a-e694-4ead-9ad3-420e90b99780","ios":"levelo://app?vid=a954200a-e694-4ead-9ad3-420e90b99780"},"vehicle_type_id":"4","last_reported":1700816824,"current_range_meters":0,"station_id":"ce4bh192rcd13ifvqdc0","pricing_plan_id":"free"},{"bike_id":"380bea03-66b9-494a-9d3c-ad0da1c35a22","system_id":"levelo_inurba_marseille","lat":43.29367,"lon":5.41263,"is_reserved":false,"is_disabled":false,"rental_uris":{"android":"levelo://app?vid=380bea03-66b9-494a-9d3c-ad0da1c35a22","ios":"levelo://app?vid=380bea03-66b9-494a-9d3c-ad0da1c35a22"},"vehicle_type_id":"4","last_reported":1700816824,"current_range_meters":0,"station_id":"","pricing_plan_id":"free"},{"bike_id":"2e63016a-34e5-40f5-84d9-668c39bbde6d","system_id":"levelo_inurba_marseille","lat":43.336134,"lon":5.410341,"is_reserved":false,"is_disabled":false,"rental_uris":{"android":"levelo://app?vid=2e63016a-34e5-40f5-84d9-668c39bbde6d","ios":"levelo://app?vid=2e63016a-34e5-40f5-84d9-668c39bbde6d"},"vehicle_type_id":"4","last_reported":1700816824,"current_range_meters":12800,"station_id":"ce4bhqh2rcd13ifvqhmg","pricing_plan_id":"free"},{"bike_id":"5bffbe1d-75d2-4b99-ba49-14f6b8c8c1e7","system_id":"levelo_inurba_marseille","lat":43.278401,"lon":5.392152,"is_reserved":false,"is_disabled":false,"rental_uris":{"android":"levelo://app?vid=5bffbe1d-75d2-4b99-ba49-14f6b8c8c1e7","ios":"levelo://app?vid=5bffbe1d-75d2-4b99-ba49-14f6b8c8c1e7"},"vehicle_type_id":"4","last_reported":1700816824,"current_range_meters":20400,"station_id":"ce4bhjp2rcd13ifvqga0","pricing_plan_id":"free"},{"bike_id":"df1b074b-8a41-42e6-afe2-2ad135f82612","system_id":"levelo_inurba_marseille","lat":43.278401,"lon":5.392152,"is_reserved":false,"is_disabled":false,"rental_uris":{"android":"levelo://app?vid=df1b074b-8a41-42e6-afe2-2ad135f82612","ios":"levelo://app?vid=df1b074b-8a41-42e6-afe2-2ad135f82612"},"vehicle_type_id":"4","last_reported":1700816824,"current_range_meters":30000,"station_id":"ce4bhjp2rcd13ifvqga0","pricing_plan_id":"free"},{"bike_id":"c5ae214e-77b0-4e1a-a611-67c3f962f647","system_id":"levelo_inurba_marseille","lat":43.27575,"lon":5.38423,"is_reserved":false,"is_disabled":false,"rental_uris":{"android":"levelo://app?vid=c5ae214e-77b0-4e1a-a611-67c3f962f647","ios":"levelo://app?vid=c5ae214e-77b0-4e1a-a611-67c3f962f647"},"vehicle_type_id":"4","last_reported":1700816824,"current_range_meters":13600,"station_id":"","pricing_plan_id":"free"},{"bike_id":"527d3a54-4afb-4a3d-bb86-010129ce6bd7","system_id":"levelo_inurba_marseille","lat":43.273613,"lon":5.362705,"is_reserved":false,"is_disabled":false,"rental_uris":{"android":"levelo://app?vid=527d3a54-4afb-4a3d-bb86-010129ce6bd7","ios":"levelo://app?vid=527d3a54-4afb-4a3d-bb86-010129ce6bd7"},"vehicle_type_id":"4","last_reported":1700816824,"current_range_meters":20400,"station_id":"ce4bhbh2rcd13ifvqeo0","pricing_plan_id":"free"},{"bike_id":"ad9fbbfd-a631-4f7d-954a-00dfd627a043","system_id":"levelo_inurba_marseille","lat":43.275625,"lon":5.384392,"is_reserved":false,"is_disabled":false,"rental_uris":{"android":"levelo://app?vid=ad9fbbfd-a631-4f7d-954a-00dfd627a043","ios":"levelo://app?vid=ad9fbbfd-a631-4f7d-954a-00dfd627a043"},"vehicle_type_id":"4","last_reported":1700816824,"current_range_meters":23600,"station_id":"ce4bhh92rcd13ifvqfi0","pricing_plan_id":"free"},{"bike_id":"9a8f26ec-f183-465f-9363-2c44d4d80177","system_id":"levelo_inurba_marseille","lat":43.33612,"lon":5.410321,"is_reserved":false,"is_disabled":false,"rental_uris":{"android":"levelo://app?vid=9a8f26ec-f183-465f-9363-2c44d4d80177","ios":"levelo://app?vid=9a8f26ec-f183-465f-9363-2c44d4d80177"},"vehicle_type_id":"4","last_reported":1700816824,"current_range_meters":26800,"station_id":"ce4bhqh2rcd13ifvqhmg","pricing_plan_id":"free"},{"bike_id":"7302e833-b74e-4d7c-a973-5c04354dcbe1","system_id":"levelo_inurba_marseille","lat":43.33612,"lon":5.410321,"is_reserved":false,"is_disabled":false,"rental_uris":{"android":"levelo://app?vid=7302e833-b74e-4d7c-a973-5c04354dcbe1","ios":"levelo://app?vid=7302e833-b74e-4d7c-a973-5c04354dcbe1"},"vehicle_type_id":"4","last_reported":1700816824,"current_range_meters":18400,"station_id":"ce4bhqh2rcd13ifvqhmg","pricing_plan_id":"free"},{"bike_id":"99cdfccc-b6d1-4d42-a20b-b719e8222b3e","system_id":"levelo_inurba_marseille","lat":43.33612,"lon":5.410321,"is_reserved":false,"is_disabled":false,"rental_uris":{"android":"levelo://app?vid=99cdfccc-b6d1-4d42-a20b-b719e8222b3e","ios":"levelo://app?vid=99cdfccc-b6d1-4d42-a20b-b719e8222b3e"},"vehicle_type_id":"4","last_reported":1700816824,"current_range_meters":29600,"station_id":"ce4bhqh2rcd13ifvqhmg","pricing_plan_id":"free"},{"bike_id":"9727dd18-da00-428a-b0bf-9b307ede4eba","system_id":"levelo_inurba_marseille","lat":43.276771,"lon":5.388799,"is_reserved":false,"is_disabled":false,"rental_uris":{"android":"levelo://app?vid=9727dd18-da00-428a-b0bf-9b307ede4eba","ios":"levelo://app?vid=9727dd18-da00-428a-b0bf-9b307ede4eba"},"vehicle_type_id":"4","last_reported":1700816824,"current_range_meters":26400,"station_id":"ce4bhi12rcd13ifvqfo0","pricing_plan_id":"free"},{"bike_id":"052cba5a-1cbf-4bdf-b154-378643cd8888","system_id":"levelo_inurba_marseille","lat":43.276771,"lon":5.388799,"is_reserved":false,"is_disabled":false,"rental_uris":{"android":"levelo://app?vid=052cba5a-1cbf-4bdf-b154-378643cd8888","ios":"levelo://app?vid=052cba5a-1cbf-4bdf-b154-378643cd8888"},"vehicle_type_id":"4","last_reported":1700816824,"current_range_meters":27600,"station_id":"ce4bhi12rcd13ifvqfo0","pricing_plan_id":"free"},{"bike_id":"fc8a50fc-7fb9-4b58-ae5e-3658ebaf4b71","system_id":"levelo_inurba_marseille","lat":43.3418,"lon":5.40609,"is_reserved":false,"is_disabled":false,"rental_uris":{"android":"levelo://app?vid=fc8a50fc-7fb9-4b58-ae5e-3658ebaf4b71","ios":"levelo://app?vid=fc8a50fc-7fb9-4b58-ae5e-3658ebaf4b71"},"vehicle_type_id":"4","last_reported":1700816824,"current_range_meters":4800,"station_id":"","pricing_plan_id":"free"},{"bike_id":"ee3353de-ad16-41b2-900b-c0d5b5e68caf","system_id":"levelo_inurba_marseille","lat":43.340804,"lon":5.410219,"is_reserved":false,"is_disabled":false,"rental_uris":{"android":"levelo://app?vid=ee3353de-ad16-41b2-900b-c0d5b5e68caf","ios":"levelo://app?vid=ee3353de-ad16-41b2-900b-c0d5b5e68caf"},"vehicle_type_id":"4","last_reported":1700816824,"current_range_meters":31200,"station_id":"ce4bhqh2rcd13ifvqhlg","pricing_plan_id":"free"},{"bike_id":"f6d19d1b-693b-4963-ba5a-4b930cec88fd","system_id":"levelo_inurba_marseille","lat":43.340804,"lon":5.410219,"is_reserved":false,"is_disabled":false,"rental_uris":{"android":"levelo://app?vid=f6d19d1b-693b-4963-ba5a-4b930cec88fd","ios":"levelo://app?vid=f6d19d1b-693b-4963-ba5a-4b930cec88fd"},"vehicle_type_id":"4","last_reported":1700816824,"current_range_meters":30800,"station_id":"ce4bhqh2rcd13ifvqhlg","pricing_plan_id":"free"},{"bike_id":"784eedf8-1ff9-494d-91cc-6d6e4e868912","system_id":"levelo_inurba_marseille","lat":43.340804,"lon":5.410219,"is_reserved":false,"is_disabled":false,"rental_uris":{"android":"levelo://app?vid=784eedf8-1ff9-494d-91cc-6d6e4e868912","ios":"levelo://app?vid=784eedf8-1ff9-494d-91cc-6d6e4e868912"},"vehicle_type_id":"4","last_reported":1700816824,"current_range_meters":28400,"station_id":"ce4bhqh2rcd13ifvqhlg","pricing_plan_id":"free"},{"bike_id":"e0251fd8-4e40-4ecc-8379-605029ccde6c","system_id":"levelo_inurba_marseille","lat":43.340804,"lon":5.410219,"is_reserved":false,"is_disabled":false,"rental_uris":{"android":"levelo://app?vid=e0251fd8-4e40-4ecc-8379-605029ccde6c","ios":"levelo://app?vid=e0251fd8-4e40-4ecc-8379-605029ccde6c"},"vehicle_type_id":"4","last_reported":1700816824,"current_range_meters":19600,"station_id":"ce4bhqh2rcd13ifvqhlg","pricing_plan_id":"free"},{"bike_id":"8cf32a11-a7f1-4b41-a589-35b58f8d38f6","system_id":"levelo_inurba_marseille","lat":43.340804,"lon":5.410219,"is_reserved":false,"is_disabled":false,"rental_uris":{"android":"levelo://app?vid=8cf32a11-a7f1-4b41-a589-35b58f8d38f6","ios":"levelo://app?vid=8cf32a11-a7f1-4b41-a589-35b58f8d38f6"},"vehicle_type_id":"4","last_reported":1700816824,"current_range_meters":24000,"station_id":"ce4bhqh2rcd13ifvqhlg","pricing_plan_id":"free"},{"bike_id":"48565e36-de67-4c6a-8337-460138cf3900","system_id":"levelo_inurba_marseille","lat":43.340804,"lon":5.410219,"is_reserved":false,"is_disabled":false,"rental_uris":{"android":"levelo://app?vid=48565e36-de67-4c6a-8337-460138cf3900","ios":"levelo://app?vid=48565e36-de67-4c6a-8337-460138cf3900"},"vehicle_type_id":"4","last_reported":1700816824,"current_range_meters":13200,"station_id":"ce4bhqh2rcd13ifvqhlg","pricing_plan_id":"free"},{"bike_id":"422eaa23-7465-45a6-8f34-ef03bb0d0a13","system_id":"levelo_inurba_marseille","lat":43.340804,"lon":5.410219,"is_reserved":false,"is_disabled":false,"rental_uris":{"android":"levelo://app?vid=422eaa23-7465-45a6-8f34-ef03bb0d0a13","ios":"levelo://app?vid=422eaa23-7465-45a6-8f34-ef03bb0d0a13"},"vehicle_type_id":"4","last_reported":1700816824,"current_range_meters":24400,"station_id":"ce4bhqh2rcd13ifvqhlg","pricing_plan_id":"free"},{"bike_id":"42402f9f-a5de-4464-b628-42de40584ac1","system_id":"levelo_inurba_marseille","lat":43.340804,"lon":5.410219,"is_reserved":false,"is_disabled":false,"rental_uris":{"android":"levelo://app?vid=42402f9f-a5de-4464-b628-42de40584ac1","ios":"levelo://app?vid=42402f9f-a5de-4464-b628-42de40584ac1"},"vehicle_type_id":"4","last_reported":1700816824,"current_range_meters":2800,"station_id":"ce4bhqh2rcd13ifvqhlg","pricing_plan_id":"free"},{"bike_id":"04c48993-d044-41c4-9cb8-117723655329","system_id":"levelo_inurba_marseille","lat":43.340804,"lon":5.410219,"is_reserved":false,"is_disabled":false,"rental_uris":{"android":"levelo://app?vid=04c48993-d044-41c4-9cb8-117723655329","ios":"levelo://app?vid=04c48993-d044-41c4-9cb8-117723655329"},"vehicle_type_id":"4","last_reported":1700816824,"current_range_meters":20000,"station_id":"ce4bhqh2rcd13ifvqhlg","pricing_plan_id":"free"},{"bike_id":"614f7aec-0302-4ab4-b9a6-259e7ed28ad7","system_id":"levelo_inurba_marseille","lat":43.2743,"lon":5.39393,"is_reserved":false,"is_disabled":false,"rental_uris":{"android":"levelo://app?vid=614f7aec-0302-4ab4-b9a6-259e7ed28ad7","ios":"levelo://app?vid=614f7aec-0302-4ab4-b9a6-259e7ed28ad7"},"vehicle_type_id":"4","last_reported":1700816824,"current_range_meters":16000,"station_id":"ce4bhdp2rcd13ifvqf20","pricing_plan_id":"free"},{"bike_id":"0b9c598b-3185-4b81-a8cc-dbcc658d8615","system_id":"levelo_inurba_marseille","lat":43.27314,"lon":5.39092,"is_reserved":false,"is_disabled":false,"rental_uris":{"android":"levelo://app?vid=0b9c598b-3185-4b81-a8cc-dbcc658d8615","ios":"levelo://app?vid=0b9c598b-3185-4b81-a8cc-dbcc658d8615"},"vehicle_type_id":"4","last_reported":1700816824,"current_range_meters":19600,"station_id":"ce4bhgp2rcd13ifvqfe0","pricing_plan_id":"free"},{"bike_id":"bda7536b-a64d-4e0d-aa00-8717a0191105","system_id":"levelo_inurba_marseille","lat":43.273125,"lon":5.390731,"is_reserved":false,"is_disabled":false,"rental_uris":{"android":"levelo://app?vid=bda7536b-a64d-4e0d-aa00-8717a0191105","ios":"levelo://app?vid=bda7536b-a64d-4e0d-aa00-8717a0191105"},"vehicle_type_id":"4","last_reported":1700816824,"current_range_meters":23600,"station_id":"ce4bhgp2rcd13ifvqfe0","pricing_plan_id":"free"},{"bike_id":"8e4053a5-c9e1-4cda-bd78-8c66eae6e10c","system_id":"levelo_inurba_marseille","lat":43.273028,"lon":5.390706,"is_reserved":false,"is_disabled":false,"rental_uris":{"android":"levelo://app?vid=8e4053a5-c9e1-4cda-bd78-8c66eae6e10c","ios":"levelo://app?vid=8e4053a5-c9e1-4cda-bd78-8c66eae6e10c"},"vehicle_type_id":"4","last_reported":1700816824,"current_range_meters":24000,"station_id":"","pricing_plan_id":"free"},{"bike_id":"b4a5d5cd-5d81-4f67-9d4e-a2d43e55e054","system_id":"levelo_inurba_marseille","lat":43.295523,"lon":5.422926,"is_reserved":false,"is_disabled":false,"rental_uris":{"android":"levelo://app?vid=b4a5d5cd-5d81-4f67-9d4e-a2d43e55e054","ios":"levelo://app?vid=b4a5d5cd-5d81-4f67-9d4e-a2d43e55e054"},"vehicle_type_id":"4","last_reported":1700816824,"current_range_meters":29600,"station_id":"ce4bhph2rcd13ifvqhdg","pricing_plan_id":"free"},{"bike_id":"5deb2256-70f7-4837-8641-5ba46cb66066","system_id":"levelo_inurba_marseille","lat":43.272116,"lon":5.391763,"is_reserved":false,"is_disabled":false,"rental_uris":{"android":"levelo://app?vid=5deb2256-70f7-4837-8641-5ba46cb66066","ios":"levelo://app?vid=5deb2256-70f7-4837-8641-5ba46cb66066"},"vehicle_type_id":"4","last_reported":1700816824,"current_range_meters":0,"station_id":"ce4bhhp2rcd13ifvqfm0","pricing_plan_id":"free"},{"bike_id":"26a58160-3014-4b5c-9d48-16edbc7c982c","system_id":"levelo_inurba_marseille","lat":43.27207,"lon":5.39191,"is_reserved":false,"is_disabled":false,"rental_uris":{"android":"levelo://app?vid=26a58160-3014-4b5c-9d48-16edbc7c982c","ios":"levelo://app?vid=26a58160-3014-4b5c-9d48-16edbc7c982c"},"vehicle_type_id":"4","last_reported":1700816824,"current_range_meters":16800,"station_id":"ce4bhhp2rcd13ifvqfm0","pricing_plan_id":"free"},{"bike_id":"48c1fbfb-e6c4-4c56-a75c-55416f8bb4c3","system_id":"levelo_inurba_marseille","lat":43.27189,"lon":5.39306,"is_reserved":false,"is_disabled":false,"rental_uris":{"android":"levelo://app?vid=48c1fbfb-e6c4-4c56-a75c-55416f8bb4c3","ios":"levelo://app?vid=48c1fbfb-e6c4-4c56-a75c-55416f8bb4c3"},"vehicle_type_id":"4","last_reported":1700816824,"current_range_meters":24800,"station_id":"","pricing_plan_id":"free"},{"bike_id":"30a3118b-b8f9-4fc1-98b6-e119d9ea32a9","system_id":"levelo_inurba_marseille","lat":43.27811,"lon":5.40716,"is_reserved":false,"is_disabled":false,"rental_uris":{"android":"levelo://app?vid=30a3118b-b8f9-4fc1-98b6-e119d9ea32a9","ios":"levelo://app?vid=30a3118b-b8f9-4fc1-98b6-e119d9ea32a9"},"vehicle_type_id":"4","last_reported":1700816824,"current_range_meters":0,"station_id":"ce4bhnh2rcd13ifvqgtg","pricing_plan_id":"free"},{"bike_id":"91cf7d6d-6a48-40d6-a390-a469feb9c050","system_id":"levelo_inurba_marseille","lat":43.269467,"lon":5.386439,"is_reserved":false,"is_disabled":false,"rental_uris":{"android":"levelo://app?vid=91cf7d6d-6a48-40d6-a390-a469feb9c050","ios":"levelo://app?vid=91cf7d6d-6a48-40d6-a390-a469feb9c050"},"vehicle_type_id":"4","last_reported":1700816824,"current_range_meters":11200,"station_id":"ce4bhh92rcd13ifvqfh0","pricing_plan_id":"free"},{"bike_id":"c9ac3473-4cdb-4cf1-9a12-26cab065a558","system_id":"levelo_inurba_marseille","lat":43.269467,"lon":5.386439,"is_reserved":false,"is_disabled":false,"rental_uris":{"android":"levelo://app?vid=c9ac3473-4cdb-4cf1-9a12-26cab065a558","ios":"levelo://app?vid=c9ac3473-4cdb-4cf1-9a12-26cab065a558"},"vehicle_type_id":"4","last_reported":1700816824,"current_range_meters":25600,"station_id":"ce4bhh92rcd13ifvqfh0","pricing_plan_id":"free"},{"bike_id":"5dc0f627-0f35-4ff0-98bb-de9d38eb222a","system_id":"levelo_inurba_marseille","lat":43.269467,"lon":5.386439,"is_reserved":false,"is_disabled":false,"rental_uris":{"android":"levelo://app?vid=5dc0f627-0f35-4ff0-98bb-de9d38eb222a","ios":"levelo://app?vid=5dc0f627-0f35-4ff0-98bb-de9d38eb222a"},"vehicle_type_id":"4","last_reported":1700816824,"current_range_meters":28800,"station_id":"ce4bhh92rcd13ifvqfh0","pricing_plan_id":"free"},{"bike_id":"c00a7075-0c49-4d7a-8c3c-816c2fc5c06f","system_id":"levelo_inurba_marseille","lat":43.269467,"lon":5.386439,"is_reserved":false,"is_disabled":false,"rental_uris":{"android":"levelo://app?vid=c00a7075-0c49-4d7a-8c3c-816c2fc5c06f","ios":"levelo://app?vid=c00a7075-0c49-4d7a-8c3c-816c2fc5c06f"},"vehicle_type_id":"4","last_reported":1700816824,"current_range_meters":30400,"station_id":"ce4bhh92rcd13ifvqfh0","pricing_plan_id":"free"},{"bike_id":"f3cc7aeb-d1d9-41cf-bc7f-7c49b6322b39","system_id":"levelo_inurba_marseille","lat":43.269467,"lon":5.386439,"is_reserved":false,"is_disabled":false,"rental_uris":{"android":"levelo://app?vid=f3cc7aeb-d1d9-41cf-bc7f-7c49b6322b39","ios":"levelo://app?vid=f3cc7aeb-d1d9-41cf-bc7f-7c49b6322b39"},"vehicle_type_id":"4","last_reported":1700816824,"current_range_meters":11600,"station_id":"ce4bhh92rcd13ifvqfh0","pricing_plan_id":"free"},{"bike_id":"0dce8a02-28e4-4bd7-970b-ba8635323d25","system_id":"levelo_inurba_marseille","lat":43.269467,"lon":5.386439,"is_reserved":false,"is_disabled":false,"rental_uris":{"android":"levelo://app?vid=0dce8a02-28e4-4bd7-970b-ba8635323d25","ios":"levelo://app?vid=0dce8a02-28e4-4bd7-970b-ba8635323d25"},"vehicle_type_id":"4","last_reported":1700816824,"current_range_meters":20800,"station_id":"ce4bhh92rcd13ifvqfh0","pricing_plan_id":"free"},{"bike_id":"3f890ca1-7eba-46c6-b86b-b0f92424a267","system_id":"levelo_inurba_marseille","lat":43.269467,"lon":5.386439,"is_reserved":false,"is_disabled":false,"rental_uris":{"android":"levelo://app?vid=3f890ca1-7eba-46c6-b86b-b0f92424a267","ios":"levelo://app?vid=3f890ca1-7eba-46c6-b86b-b0f92424a267"},"vehicle_type_id":"4","last_reported":1700816824,"current_range_meters":20000,"station_id":"ce4bhh92rcd13ifvqfh0","pricing_plan_id":"free"},{"bike_id":"f60e0cdd-f643-4f09-b32f-53fdd78bcbb4","system_id":"levelo_inurba_marseille","lat":43.279562,"lon":5.41049,"is_reserved":false,"is_disabled":false,"rental_uris":{"android":"levelo://app?vid=f60e0cdd-f643-4f09-b32f-53fdd78bcbb4","ios":"levelo://app?vid=f60e0cdd-f643-4f09-b32f-53fdd78bcbb4"},"vehicle_type_id":"4","last_reported":1700816824,"current_range_meters":0,"station_id":"ce4bhnp2rcd13ifvqh0g","pricing_plan_id":"free"},{"bike_id":"4b084f2c-adb7-4cd1-9f15-6c7d7b135df0","system_id":"levelo_inurba_marseille","lat":43.26681,"lon":5.382694,"is_reserved":false,"is_disabled":false,"rental_uris":{"android":"levelo://app?vid=4b084f2c-adb7-4cd1-9f15-6c7d7b135df0","ios":"levelo://app?vid=4b084f2c-adb7-4cd1-9f15-6c7d7b135df0"},"vehicle_type_id":"4","last_reported":1700816824,"current_range_meters":12800,"station_id":"ce4bhg92rcd13ifvqf90","pricing_plan_id":"free"},{"bike_id":"e5e9fc9f-3310-44d2-aece-a9a06023fa18","system_id":"levelo_inurba_marseille","lat":43.26681,"lon":5.382694,"is_reserved":false,"is_disabled":false,"rental_uris":{"android":"levelo://app?vid=e5e9fc9f-3310-44d2-aece-a9a06023fa18","ios":"levelo://app?vid=e5e9fc9f-3310-44d2-aece-a9a06023fa18"},"vehicle_type_id":"4","last_reported":1700816824,"current_range_meters":24000,"station_id":"ce4bhg92rcd13ifvqf90","pricing_plan_id":"free"},{"bike_id":"7dbe6933-5cdc-4140-acb7-c4617a3c5263","system_id":"levelo_inurba_marseille","lat":43.26681,"lon":5.382694,"is_reserved":false,"is_disabled":false,"rental_uris":{"android":"levelo://app?vid=7dbe6933-5cdc-4140-acb7-c4617a3c5263","ios":"levelo://app?vid=7dbe6933-5cdc-4140-acb7-c4617a3c5263"},"vehicle_type_id":"4","last_reported":1700816824,"current_range_meters":24000,"station_id":"ce4bhg92rcd13ifvqf90","pricing_plan_id":"free"},{"bike_id":"41de51a6-505b-4bd1-af98-8b03e9811828","system_id":"levelo_inurba_marseille","lat":43.26681,"lon":5.382694,"is_reserved":false,"is_disabled":false,"rental_uris":{"android":"levelo://app?vid=41de51a6-505b-4bd1-af98-8b03e9811828","ios":"levelo://app?vid=41de51a6-505b-4bd1-af98-8b03e9811828"},"vehicle_type_id":"4","last_reported":1700816824,"current_range_meters":31200,"station_id":"ce4bhg92rcd13ifvqf90","pricing_plan_id":"free"},{"bike_id":"0be125ec-fbaf-4743-ada4-8c6df08c6219","system_id":"levelo_inurba_marseille","lat":43.26683,"lon":5.38271,"is_reserved":false,"is_disabled":false,"rental_uris":{"android":"levelo://app?vid=0be125ec-fbaf-4743-ada4-8c6df08c6219","ios":"levelo://app?vid=0be125ec-fbaf-4743-ada4-8c6df08c6219"},"vehicle_type_id":"4","last_reported":1700816824,"current_range_meters":2800,"station_id":"ce4bhg92rcd13ifvqf90","pricing_plan_id":"free"},{"bike_id":"c4074fae-ec9c-4ed9-95a4-6884210b5735","system_id":"levelo_inurba_marseille","lat":43.26683,"lon":5.38276,"is_reserved":false,"is_disabled":false,"rental_uris":{"android":"levelo://app?vid=c4074fae-ec9c-4ed9-95a4-6884210b5735","ios":"levelo://app?vid=c4074fae-ec9c-4ed9-95a4-6884210b5735"},"vehicle_type_id":"4","last_reported":1700816824,"current_range_meters":17200,"station_id":"ce4bhg92rcd13ifvqf90","pricing_plan_id":"free"},{"bike_id":"b449913f-9aa9-4545-a71e-3edfee803c9a","system_id":"levelo_inurba_marseille","lat":43.26681,"lon":5.382694,"is_reserved":false,"is_disabled":false,"rental_uris":{"android":"levelo://app?vid=b449913f-9aa9-4545-a71e-3edfee803c9a","ios":"levelo://app?vid=b449913f-9aa9-4545-a71e-3edfee803c9a"},"vehicle_type_id":"4","last_reported":1700816824,"current_range_meters":13200,"station_id":"ce4bhg92rcd13ifvqf90","pricing_plan_id":"free"},{"bike_id":"a1c6dbae-6a50-4808-b409-93cda7db7bfc","system_id":"levelo_inurba_marseille","lat":43.266808,"lon":5.382745,"is_reserved":false,"is_disabled":false,"rental_uris":{"android":"levelo://app?vid=a1c6dbae-6a50-4808-b409-93cda7db7bfc","ios":"levelo://app?vid=a1c6dbae-6a50-4808-b409-93cda7db7bfc"},"vehicle_type_id":"4","last_reported":1700816824,"current_range_meters":5200,"station_id":"ce4bhg92rcd13ifvqf90","pricing_plan_id":"free"},{"bike_id":"e00df8e9-8083-4b8d-bd2f-958912a002c0","system_id":"levelo_inurba_marseille","lat":43.26681,"lon":5.382694,"is_reserved":false,"is_disabled":false,"rental_uris":{"android":"levelo://app?vid=e00df8e9-8083-4b8d-bd2f-958912a002c0","ios":"levelo://app?vid=e00df8e9-8083-4b8d-bd2f-958912a002c0"},"vehicle_type_id":"4","last_reported":1700816824,"current_range_meters":30800,"station_id":"ce4bhg92rcd13ifvqf90","pricing_plan_id":"free"},{"bike_id":"afca0fe0-702c-4607-8149-ab8757df2f63","system_id":"levelo_inurba_marseille","lat":43.26555,"lon":5.37284,"is_reserved":false,"is_disabled":false,"rental_uris":{"android":"levelo://app?vid=afca0fe0-702c-4607-8149-ab8757df2f63","ios":"levelo://app?vid=afca0fe0-702c-4607-8149-ab8757df2f63"},"vehicle_type_id":"4","last_reported":1700816824,"current_range_meters":0,"station_id":"ce4bhg12rcd13ifvqf70","pricing_plan_id":"free"},{"bike_id":"72b1047d-07d2-47c4-9805-d565409aa9fb","system_id":"levelo_inurba_marseille","lat":43.26677,"lon":5.38275,"is_reserved":false,"is_disabled":false,"rental_uris":{"android":"levelo://app?vid=72b1047d-07d2-47c4-9805-d565409aa9fb","ios":"levelo://app?vid=72b1047d-07d2-47c4-9805-d565409aa9fb"},"vehicle_type_id":"4","last_reported":1700816824,"current_range_meters":24000,"station_id":"ce4bhg92rcd13ifvqf90","pricing_plan_id":"free"},{"bike_id":"28e8ce00-6b21-4e06-9930-c7c4408cc650","system_id":"levelo_inurba_marseille","lat":43.326174,"lon":5.430584,"is_reserved":false,"is_disabled":false,"rental_uris":{"android":"levelo://app?vid=28e8ce00-6b21-4e06-9930-c7c4408cc650","ios":"levelo://app?vid=28e8ce00-6b21-4e06-9930-c7c4408cc650"},"vehicle_type_id":"4","last_reported":1700816824,"current_range_meters":0,"station_id":"","pricing_plan_id":"free"},{"bike_id":"e1c5aebc-ee6b-4705-aa75-1033e20494cf","system_id":"levelo_inurba_marseille","lat":43.27991,"lon":5.41669,"is_reserved":false,"is_disabled":false,"rental_uris":{"android":"levelo://app?vid=e1c5aebc-ee6b-4705-aa75-1033e20494cf","ios":"levelo://app?vid=e1c5aebc-ee6b-4705-aa75-1033e20494cf"},"vehicle_type_id":"4","last_reported":1700816824,"current_range_meters":0,"station_id":"ce4bho12rcd13ifvqh1g","pricing_plan_id":"free"},{"bike_id":"773975ec-023c-4304-b0d2-ca92c1b7d94e","system_id":"levelo_inurba_marseille","lat":43.267966,"lon":5.393976,"is_reserved":false,"is_disabled":false,"rental_uris":{"android":"levelo://app?vid=773975ec-023c-4304-b0d2-ca92c1b7d94e","ios":"levelo://app?vid=773975ec-023c-4304-b0d2-ca92c1b7d94e"},"vehicle_type_id":"4","last_reported":1700816824,"current_range_meters":23600,"station_id":"ce4bhh12rcd13ifvqfg0","pricing_plan_id":"free"},{"bike_id":"2b5f0b27-ae58-4e9e-bd76-c585f78e8a73","system_id":"levelo_inurba_marseille","lat":43.26386,"lon":5.37454,"is_reserved":false,"is_disabled":false,"rental_uris":{"android":"levelo://app?vid=2b5f0b27-ae58-4e9e-bd76-c585f78e8a73","ios":"levelo://app?vid=2b5f0b27-ae58-4e9e-bd76-c585f78e8a73"},"vehicle_type_id":"4","last_reported":1700816824,"current_range_meters":15200,"station_id":"","pricing_plan_id":"free"},{"bike_id":"4db5e7f8-040a-4b85-a370-2342eb4a1f4f","system_id":"levelo_inurba_marseille","lat":43.267966,"lon":5.393976,"is_reserved":false,"is_disabled":false,"rental_uris":{"android":"levelo://app?vid=4db5e7f8-040a-4b85-a370-2342eb4a1f4f","ios":"levelo://app?vid=4db5e7f8-040a-4b85-a370-2342eb4a1f4f"},"vehicle_type_id":"4","last_reported":1700816824,"current_range_meters":25600,"station_id":"ce4bhh12rcd13ifvqfg0","pricing_plan_id":"free"},{"bike_id":"077feb49-0b77-43e5-b5b8-20e98b7b2224","system_id":"levelo_inurba_marseille","lat":43.265571,"lon":5.390032,"is_reserved":false,"is_disabled":false,"rental_uris":{"android":"levelo://app?vid=077feb49-0b77-43e5-b5b8-20e98b7b2224","ios":"levelo://app?vid=077feb49-0b77-43e5-b5b8-20e98b7b2224"},"vehicle_type_id":"4","last_reported":1700816824,"current_range_meters":11600,"station_id":"ce4bhe12rcd13ifvqf30","pricing_plan_id":"free"},{"bike_id":"6f8a2a5c-2acd-409e-819e-5be97e56985e","system_id":"levelo_inurba_marseille","lat":43.265569,"lon":5.390047,"is_reserved":false,"is_disabled":false,"rental_uris":{"android":"levelo://app?vid=6f8a2a5c-2acd-409e-819e-5be97e56985e","ios":"levelo://app?vid=6f8a2a5c-2acd-409e-819e-5be97e56985e"},"vehicle_type_id":"4","last_reported":1700816824,"current_range_meters":18400,"station_id":"ce4bhe12rcd13ifvqf30","pricing_plan_id":"free"},{"bike_id":"17bf2bed-5e1c-4ca5-9bf6-eb5beb8569f6","system_id":"levelo_inurba_marseille","lat":43.26941,"lon":5.40248,"is_reserved":false,"is_disabled":false,"rental_uris":{"android":"levelo://app?vid=17bf2bed-5e1c-4ca5-9bf6-eb5beb8569f6","ios":"levelo://app?vid=17bf2bed-5e1c-4ca5-9bf6-eb5beb8569f6"},"vehicle_type_id":"4","last_reported":1700816824,"current_range_meters":19600,"station_id":"cjm6bp8fraef2m0cb0m0","pricing_plan_id":"free"},{"bike_id":"92ed0def-c9c5-4d24-8da1-621168b74215","system_id":"levelo_inurba_marseille","lat":43.26942,"lon":5.40256,"is_reserved":false,"is_disabled":false,"rental_uris":{"android":"levelo://app?vid=92ed0def-c9c5-4d24-8da1-621168b74215","ios":"levelo://app?vid=92ed0def-c9c5-4d24-8da1-621168b74215"},"vehicle_type_id":"4","last_reported":1700816824,"current_range_meters":19200,"station_id":"cjm6bp8fraef2m0cb0m0","pricing_plan_id":"free"},{"bike_id":"849ed7f5-836a-414f-8b74-25667ab40080","system_id":"levelo_inurba_marseille","lat":43.261782,"lon":5.374515,"is_reserved":false,"is_disabled":false,"rental_uris":{"android":"levelo://app?vid=849ed7f5-836a-414f-8b74-25667ab40080","ios":"levelo://app?vid=849ed7f5-836a-414f-8b74-25667ab40080"},"vehicle_type_id":"4","last_reported":1700816824,"current_range_meters":8000,"station_id":"ce4bhgp2rcd13ifvqfc0","pricing_plan_id":"free"},{"bike_id":"d924d271-f127-4834-b6ef-9ee3219f6397","system_id":"levelo_inurba_marseille","lat":43.262012,"lon":5.379307,"is_reserved":false,"is_disabled":false,"rental_uris":{"android":"levelo://app?vid=d924d271-f127-4834-b6ef-9ee3219f6397","ios":"levelo://app?vid=d924d271-f127-4834-b6ef-9ee3219f6397"},"vehicle_type_id":"4","last_reported":1700816824,"current_range_meters":27600,"station_id":"ce4bhjp2rcd13ifvqg90","pricing_plan_id":"free"},{"bike_id":"d0bb53f7-f1b8-4609-a668-27efdac67f66","system_id":"levelo_inurba_marseille","lat":43.26301,"lon":5.38842,"is_reserved":false,"is_disabled":false,"rental_uris":{"android":"levelo://app?vid=d0bb53f7-f1b8-4609-a668-27efdac67f66","ios":"levelo://app?vid=d0bb53f7-f1b8-4609-a668-27efdac67f66"},"vehicle_type_id":"4","last_reported":1700816824,"current_range_meters":0,"station_id":"","pricing_plan_id":"free"},{"bike_id":"efe02d19-0356-4f27-85ef-675447d0f7ba","system_id":"levelo_inurba_marseille","lat":43.29897,"lon":5.43659,"is_reserved":false,"is_disabled":false,"rental_uris":{"android":"levelo://app?vid=efe02d19-0356-4f27-85ef-675447d0f7ba","ios":"levelo://app?vid=efe02d19-0356-4f27-85ef-675447d0f7ba"},"vehicle_type_id":"4","last_reported":1700816824,"current_range_meters":14800,"station_id":"ce4bhpp2rcd13ifvqhfg","pricing_plan_id":"free"},{"bike_id":"c8e0aad3-4462-4f8b-93ce-b770998879ce","system_id":"levelo_inurba_marseille","lat":43.29896,"lon":5.43674,"is_reserved":false,"is_disabled":false,"rental_uris":{"android":"levelo://app?vid=c8e0aad3-4462-4f8b-93ce-b770998879ce","ios":"levelo://app?vid=c8e0aad3-4462-4f8b-93ce-b770998879ce"},"vehicle_type_id":"4","last_reported":1700816824,"current_range_meters":30000,"station_id":"ce4bhpp2rcd13ifvqhfg","pricing_plan_id":"free"},{"bike_id":"03cbab79-793c-4835-9336-cb0ceff9c47c","system_id":"levelo_inurba_marseille","lat":43.2607,"lon":5.393983,"is_reserved":false,"is_disabled":false,"rental_uris":{"android":"levelo://app?vid=03cbab79-793c-4835-9336-cb0ceff9c47c","ios":"levelo://app?vid=03cbab79-793c-4835-9336-cb0ceff9c47c"},"vehicle_type_id":"4","last_reported":1700816824,"current_range_meters":28000,"station_id":"ce4bhh92rcd13ifvqfj0","pricing_plan_id":"free"},{"bike_id":"72f4a611-649e-4cb9-9a5a-ce2a051b3e2e","system_id":"levelo_inurba_marseille","lat":43.2607,"lon":5.393983,"is_reserved":false,"is_disabled":false,"rental_uris":{"android":"levelo://app?vid=72f4a611-649e-4cb9-9a5a-ce2a051b3e2e","ios":"levelo://app?vid=72f4a611-649e-4cb9-9a5a-ce2a051b3e2e"},"vehicle_type_id":"4","last_reported":1700816824,"current_range_meters":20000,"station_id":"ce4bhh92rcd13ifvqfj0","pricing_plan_id":"free"},{"bike_id":"ee1f21d9-e728-4825-bbc9-c37df6a08238","system_id":"levelo_inurba_marseille","lat":43.275028,"lon":5.424534,"is_reserved":false,"is_disabled":false,"rental_uris":{"android":"levelo://app?vid=ee1f21d9-e728-4825-bbc9-c37df6a08238","ios":"levelo://app?vid=ee1f21d9-e728-4825-bbc9-c37df6a08238"},"vehicle_type_id":"4","last_reported":1700816824,"current_range_meters":19200,"station_id":"ce4bhn92rcd13ifvqgrg","pricing_plan_id":"free"},{"bike_id":"f0a3069b-711c-411d-9a5c-272050b4df33","system_id":"levelo_inurba_marseille","lat":43.275028,"lon":5.424534,"is_reserved":false,"is_disabled":false,"rental_uris":{"android":"levelo://app?vid=f0a3069b-711c-411d-9a5c-272050b4df33","ios":"levelo://app?vid=f0a3069b-711c-411d-9a5c-272050b4df33"},"vehicle_type_id":"4","last_reported":1700816824,"current_range_meters":31600,"station_id":"ce4bhn92rcd13ifvqgrg","pricing_plan_id":"free"},{"bike_id":"2d5f8104-4ad1-4747-a697-468266bbe403","system_id":"levelo_inurba_marseille","lat":43.26093,"lon":5.3976,"is_reserved":false,"is_disabled":false,"rental_uris":{"android":"levelo://app?vid=2d5f8104-4ad1-4747-a697-468266bbe403","ios":"levelo://app?vid=2d5f8104-4ad1-4747-a697-468266bbe403"},"vehicle_type_id":"4","last_reported":1700816824,"current_range_meters":18800,"station_id":"ce4bhi12rcd13ifvqfq0","pricing_plan_id":"free"},{"bike_id":"b9ecb8a7-c5d6-4138-8dd6-b536db94eeac","system_id":"levelo_inurba_marseille","lat":43.275028,"lon":5.424534,"is_reserved":false,"is_disabled":false,"rental_uris":{"android":"levelo://app?vid=b9ecb8a7-c5d6-4138-8dd6-b536db94eeac","ios":"levelo://app?vid=b9ecb8a7-c5d6-4138-8dd6-b536db94eeac"},"vehicle_type_id":"4","last_reported":1700816824,"current_range_meters":5600,"station_id":"ce4bhn92rcd13ifvqgrg","pricing_plan_id":"free"},{"bike_id":"380242c1-c942-45d3-be6f-c8a94ac0f92c","system_id":"levelo_inurba_marseille","lat":43.275028,"lon":5.424534,"is_reserved":false,"is_disabled":false,"rental_uris":{"android":"levelo://app?vid=380242c1-c942-45d3-be6f-c8a94ac0f92c","ios":"levelo://app?vid=380242c1-c942-45d3-be6f-c8a94ac0f92c"},"vehicle_type_id":"4","last_reported":1700816824,"current_range_meters":25200,"station_id":"ce4bhn92rcd13ifvqgrg","pricing_plan_id":"free"},{"bike_id":"85c7641d-2eab-4387-90d8-46403395a09c","system_id":"levelo_inurba_marseille","lat":43.275028,"lon":5.424534,"is_reserved":false,"is_disabled":false,"rental_uris":{"android":"levelo://app?vid=85c7641d-2eab-4387-90d8-46403395a09c","ios":"levelo://app?vid=85c7641d-2eab-4387-90d8-46403395a09c"},"vehicle_type_id":"4","last_reported":1700816824,"current_range_meters":22400,"station_id":"ce4bhn92rcd13ifvqgrg","pricing_plan_id":"free"},{"bike_id":"d5428c69-6267-42b0-ad5b-23c28eb35f4e","system_id":"levelo_inurba_marseille","lat":43.275028,"lon":5.424534,"is_reserved":false,"is_disabled":false,"rental_uris":{"android":"levelo://app?vid=d5428c69-6267-42b0-ad5b-23c28eb35f4e","ios":"levelo://app?vid=d5428c69-6267-42b0-ad5b-23c28eb35f4e"},"vehicle_type_id":"4","last_reported":1700816824,"current_range_meters":31200,"station_id":"ce4bhn92rcd13ifvqgrg","pricing_plan_id":"free"},{"bike_id":"4375544f-4bb5-438a-aea0-9fbd66f75851","system_id":"levelo_inurba_marseille","lat":43.275028,"lon":5.424534,"is_reserved":false,"is_disabled":false,"rental_uris":{"android":"levelo://app?vid=4375544f-4bb5-438a-aea0-9fbd66f75851","ios":"levelo://app?vid=4375544f-4bb5-438a-aea0-9fbd66f75851"},"vehicle_type_id":"4","last_reported":1700816824,"current_range_meters":31600,"station_id":"ce4bhn92rcd13ifvqgrg","pricing_plan_id":"free"},{"bike_id":"29779f80-e84a-4c79-8764-79089d58678b","system_id":"levelo_inurba_marseille","lat":43.26091,"lon":5.39763,"is_reserved":false,"is_disabled":false,"rental_uris":{"android":"levelo://app?vid=29779f80-e84a-4c79-8764-79089d58678b","ios":"levelo://app?vid=29779f80-e84a-4c79-8764-79089d58678b"},"vehicle_type_id":"4","last_reported":1700816824,"current_range_meters":14000,"station_id":"ce4bhi12rcd13ifvqfq0","pricing_plan_id":"free"},{"bike_id":"381815bd-688d-4474-8e8a-19f47e360cf0","system_id":"levelo_inurba_marseille","lat":43.275028,"lon":5.424534,"is_reserved":false,"is_disabled":false,"rental_uris":{"android":"levelo://app?vid=381815bd-688d-4474-8e8a-19f47e360cf0","ios":"levelo://app?vid=381815bd-688d-4474-8e8a-19f47e360cf0"},"vehicle_type_id":"4","last_reported":1700816824,"current_range_meters":23200,"station_id":"ce4bhn92rcd13ifvqgrg","pricing_plan_id":"free"},{"bike_id":"53958ed3-2b8c-4b58-9b6c-8a41a3f0cd86","system_id":"levelo_inurba_marseille","lat":43.275028,"lon":5.424534,"is_reserved":false,"is_disabled":false,"rental_uris":{"android":"levelo://app?vid=53958ed3-2b8c-4b58-9b6c-8a41a3f0cd86","ios":"levelo://app?vid=53958ed3-2b8c-4b58-9b6c-8a41a3f0cd86"},"vehicle_type_id":"4","last_reported":1700816824,"current_range_meters":16000,"station_id":"ce4bhn92rcd13ifvqgrg","pricing_plan_id":"free"},{"bike_id":"40939fb8-fbda-486c-9153-887730788ea2","system_id":"levelo_inurba_marseille","lat":43.275028,"lon":5.424534,"is_reserved":false,"is_disabled":false,"rental_uris":{"android":"levelo://app?vid=40939fb8-fbda-486c-9153-887730788ea2","ios":"levelo://app?vid=40939fb8-fbda-486c-9153-887730788ea2"},"vehicle_type_id":"4","last_reported":1700816824,"current_range_meters":31200,"station_id":"ce4bhn92rcd13ifvqgrg","pricing_plan_id":"free"},{"bike_id":"13ceecd1-0152-4fe3-ba15-3cca81dce8a4","system_id":"levelo_inurba_marseille","lat":43.260909,"lon":5.397591,"is_reserved":false,"is_disabled":false,"rental_uris":{"android":"levelo://app?vid=13ceecd1-0152-4fe3-ba15-3cca81dce8a4","ios":"levelo://app?vid=13ceecd1-0152-4fe3-ba15-3cca81dce8a4"},"vehicle_type_id":"4","last_reported":1700816824,"current_range_meters":28800,"station_id":"ce4bhi12rcd13ifvqfq0","pricing_plan_id":"free"},{"bike_id":"b3384bf5-3f46-46e0-a888-8bacfbf48075","system_id":"levelo_inurba_marseille","lat":43.258224,"lon":5.394369,"is_reserved":false,"is_disabled":false,"rental_uris":{"android":"levelo://app?vid=b3384bf5-3f46-46e0-a888-8bacfbf48075","ios":"levelo://app?vid=b3384bf5-3f46-46e0-a888-8bacfbf48075"},