{"last_updated":1701425292,"ttl":30,"version":"2.2","data":{"bikes":[{"bike_id":"d31a2eec-0c51-4bec-a643-2d0d690a9642","system_id":"levelo_inurba_marseille","lat":43.31341,"lon":5.367098,"is_reserved":false,"is_disabled":false,"rental_uris":{"android":"levelo://app?vid=d31a2eec-0c51-4bec-a643-2d0d690a9642","ios":"levelo://app?vid=d31a2eec-0c51-4bec-a643-2d0d690a9642"},"vehicle_type_id":"4","last_reported":1701425292,"current_range_meters":18800,"station_id":"ce4bgr92rcd13ifvqc6g","pricing_plan_id":"free"},{"bike_id":"edcccf5a-9912-4a81-954a-48a819d3434c","system_id":"levelo_inurba_marseille","lat":43.313391,"lon":5.36706,"is_reserved":false,"is_disabled":false,"rental_uris":{"android":"levelo://app?vid=edcccf5a-9912-4a81-954a-48a819d3434c","ios":"levelo://app?vid=edcccf5a-9912-4a81-954a-48a819d3434c"},"vehicle_type_id":"4","last_reported":1701425292,"current_range_meters":24800,"station_id":"ce4bgr92rcd13ifvqc6g","pricing_plan_id":"free"},{"bike_id":"b251a47d-5e15-4d8b-bc37-fa99487a2a7a","system_id":"levelo_inurba_marseille","lat":43.313391,"lon":5.36706,"is_reserved":false,"is_disabled":false,"rental_uris":{"android":"levelo://app?vid=b251a47d-5e15-4d8b-bc37-fa99487a2a7a","ios":"levelo://app?vid=b251a47d-5e15-4d8b-bc37-fa99487a2a7a"},"vehicle_type_id":"4","last_reported":1701425292,"current_range_meters":19600,"station_id":"ce4bgr92rcd13ifvqc6g","pricing_plan_id":"free"},{"bike_id":"1a76aa3d-1a6d-4927-9799-d53f46ab134d","system_id":"levelo_inurba_marseille","lat":43.31341,"lon":5.367098,"is_reserved":false,"is_disabled":false,"rental_uris":{"android":"levelo://app?vid=1a76aa3d-1a6d-4927-9799-d53f46ab134d","ios":"levelo://app?vid=1a76aa3d-1a6d-4927-9799-d53f46ab134d"},"vehicle_type_id":"4","last_reported":1701425292,"current_range_meters":1600,"station_id":"ce4bgr92rcd13ifvqc6g","pricing_plan_id":"free"},{"bike_id":"850b513c-e180-463d-933e-e187c3a0d6b3","system_id":"levelo_inurba_marseille","lat":43.31341,"lon":5.367098,"is_reserved":false,"is_disabled":false,"rental_uris":{"android":"levelo://app?vid=850b513c-e180-463d-933e-e187c3a0d6b3","ios":"levelo://app?vid=850b513c-e180-463d-933e-e187c3a0d6b3"},"vehicle_type_id":"4","last_reported":1701425292,"current_range_meters":22800,"station_id":"ce4bgr92rcd13ifvqc6g","pricing_plan_id":"free"},{"bike_id":"62728fc6-a951-4e8d-a74b-29a96e980a38","system_id":"levelo_inurba_marseille","lat":43.312239,"lon":5.368562,"is_reserved":false,"is_disabled":false,"rental_uris":{"android":"levelo://app?vid=62728fc6-a951-4e8d-a74b-29a96e980a38","ios":"levelo://app?vid=62728fc6-a951-4e8d-a74b-29a96e980a38"},"vehicle_type_id":"4","last_reported":1701425292,"current_range_meters":16400,"station_id":"ce4bgl92rcd13ifvqbq0","pricing_plan_id":"free"},{"bike_id":"98052f90-fd8a-4055-aa05-7fd8f142eeed","system_id":"levelo_inurba_marseille","lat":43.309076,"lon":5.368465,"is_reserved":false,"is_disabled":false,"rental_uris":{"android":"levelo://app?vid=98052f90-fd8a-4055-aa05-7fd8f142eeed","ios":"levelo://app?vid=98052f90-fd8a-4055-aa05-7fd8f142eeed"},"vehicle_type_id":"4","last_reported":1701425292,"current_range_meters":31600,"station_id":"ce4bgn92rcd13ifvqbvg","pricing_plan_id":"free"},{"bike_id":"8f16ac6f-a8d7-4472-8174-fdf1a7e66d17","system_id":"levelo_inurba_marseille","lat":43.309076,"lon":5.368465,"is_reserved":false,"is_disabled":false,"rental_uris":{"android":"levelo://app?vid=8f16ac6f-a8d7-4472-8174-fdf1a7e66d17","ios":"levelo://app?vid=8f16ac6f-a8d7-4472-8174-fdf1a7e66d17"},"vehicle_type_id":"4","last_reported":1701425292,"current_range_meters":31600,"station_id":"ce4bgn92rcd13ifvqbvg","pricing_plan_id":"free"},{"bike_id":"7c0f5ca9-b27f-4b66-b1d4-a0204ffbb399","system_id":"levelo_inurba_marseille","lat":43.309076,"lon":5.368465,"is_reserved":false,"is_disabled":false,"rental_uris":{"android":"levelo://app?vid=7c0f5ca9-b27f-4b66-b1d4-a0204ffbb399","ios":"levelo://app?vid=7c0f5ca9-b27f-4b66-b1d4-a0204ffbb399"},"vehicle_type_id":"4","last_reported":1701425292,"current_range_meters":30800,"station_id":"ce4bgn92rcd13ifvqbvg","pricing_plan_id":"free"},{"bike_id":"748c29bb-d2e3-4519-b63a-4c8242bea451","system_id":"levelo_inurba_marseille","lat":43.309085,"lon":5.368535,"is_reserved":false,"is_disabled":false,"rental_uris":{"android":"levelo://app?vid=748c29bb-d2e3-4519-b63a-4c8242bea451","ios":"levelo://app?vid=748c29bb-d2e3-4519-b63a-4c8242bea451"},"vehicle_type_id":"4","last_reported":1701425292,"current_range_meters":22800,"station_id":"ce4bgn92rcd13ifvqbvg","pricing_plan_id":"free"},{"bike_id":"85ebfaaa-3017-45f3-906e-a6c2319c069c","system_id":"levelo_inurba_marseille","lat":43.30873,"lon":5.36861,"is_reserved":false,"is_disabled":false,"rental_uris":{"android":"levelo://app?vid=85ebfaaa-3017-45f3-906e-a6c2319c069c","ios":"levelo://app?vid=85ebfaaa-3017-45f3-906e-a6c2319c069c"},"vehicle_type_id":"4","last_reported":1701425292,"current_range_meters":11200,"station_id":"ce4bgn92rcd13ifvqbvg","pricing_plan_id":"free"},{"bike_id":"2eee2b91-64aa-4115-afdf-6589bf1aba9c","system_id":"levelo_inurba_marseille","lat":43.314811,"lon":5.373103,"is_reserved":false,"is_disabled":false,"rental_uris":{"android":"levelo://app?vid=2eee2b91-64aa-4115-afdf-6589bf1aba9c","ios":"levelo://app?vid=2eee2b91-64aa-4115-afdf-6589bf1aba9c"},"vehicle_type_id":"4","last_reported":1701425292,"current_range_meters":4400,"station_id":"ce4bgt12rcd13ifvqcd0","pricing_plan_id":"free"},{"bike_id":"1d139042-1941-4d0f-bc0f-0a38f8cd266d","system_id":"levelo_inurba_marseille","lat":43.305712,"lon":5.365641,"is_reserved":false,"is_disabled":false,"rental_uris":{"android":"levelo://app?vid=1d139042-1941-4d0f-bc0f-0a38f8cd266d","ios":"levelo://app?vid=1d139042-1941-4d0f-bc0f-0a38f8cd266d"},"vehicle_type_id":"4","last_reported":1701425292,"current_range_meters":18800,"station_id":"ce4bgs12rcd13ifvqcag","pricing_plan_id":"free"},{"bike_id":"3ed42a43-d2b2-4453-8681-8ff3b266458f","system_id":"levelo_inurba_marseille","lat":43.305714,"lon":5.365633,"is_reserved":false,"is_disabled":false,"rental_uris":{"android":"levelo://app?vid=3ed42a43-d2b2-4453-8681-8ff3b266458f","ios":"levelo://app?vid=3ed42a43-d2b2-4453-8681-8ff3b266458f"},"vehicle_type_id":"4","last_reported":1701425292,"current_range_meters":21600,"station_id":"ce4bgs12rcd13ifvqcag","pricing_plan_id":"free"},{"bike_id":"e8610a3e-8f46-49f3-82a1-c01c20430d0c","system_id":"levelo_inurba_marseille","lat":43.305714,"lon":5.365633,"is_reserved":false,"is_disabled":false,"rental_uris":{"android":"levelo://app?vid=e8610a3e-8f46-49f3-82a1-c01c20430d0c","ios":"levelo://app?vid=e8610a3e-8f46-49f3-82a1-c01c20430d0c"},"vehicle_type_id":"4","last_reported":1701425292,"current_range_meters":23600,"station_id":"ce4bgs12rcd13ifvqcag","pricing_plan_id":"free"},{"bike_id":"652bdf15-0322-4e94-9c8d-7cd42baef8a6","system_id":"levelo_inurba_marseille","lat":43.305714,"lon":5.365633,"is_reserved":false,"is_disabled":false,"rental_uris":{"android":"levelo://app?vid=652bdf15-0322-4e94-9c8d-7cd42baef8a6","ios":"levelo://app?vid=652bdf15-0322-4e94-9c8d-7cd42baef8a6"},"vehicle_type_id":"4","last_reported":1701425292,"current_range_meters":21200,"station_id":"ce4bgs12rcd13ifvqcag","pricing_plan_id":"free"},{"bike_id":"3b24f21f-f1f7-4d99-afea-2fa584e3d664","system_id":"levelo_inurba_marseille","lat":43.305706,"lon":5.365654,"is_reserved":false,"is_disabled":false,"rental_uris":{"android":"levelo://app?vid=3b24f21f-f1f7-4d99-afea-2fa584e3d664","ios":"levelo://app?vid=3b24f21f-f1f7-4d99-afea-2fa584e3d664"},"vehicle_type_id":"4","last_reported":1701425292,"current_range_meters":30800,"station_id":"ce4bgs12rcd13ifvqcag","pricing_plan_id":"free"},{"bike_id":"9204e4e9-9259-4b00-af32-cf1621761ebb","system_id":"levelo_inurba_marseille","lat":43.305706,"lon":5.365654,"is_reserved":false,"is_disabled":false,"rental_uris":{"android":"levelo://app?vid=9204e4e9-9259-4b00-af32-cf1621761ebb","ios":"levelo://app?vid=9204e4e9-9259-4b00-af32-cf1621761ebb"},"vehicle_type_id":"4","last_reported":1701425292,"current_range_meters":30400,"station_id":"ce4bgs12rcd13ifvqcag","pricing_plan_id":"free"},{"bike_id":"081fc797-391d-4f24-9d91-ced3a512d87e","system_id":"levelo_inurba_marseille","lat":43.305706,"lon":5.365654,"is_reserved":false,"is_disabled":false,"rental_uris":{"android":"levelo://app?vid=081fc797-391d-4f24-9d91-ced3a512d87e","ios":"levelo://app?vid=081fc797-391d-4f24-9d91-ced3a512d87e"},"vehicle_type_id":"4","last_reported":1701425292,"current_range_meters":28800,"station_id":"ce4bgs12rcd13ifvqcag","pricing_plan_id":"free"},{"bike_id":"357a3305-a851-44b8-88bb-1066216409f3","system_id":"levelo_inurba_marseille","lat":43.305989,"lon":5.37225,"is_reserved":false,"is_disabled":false,"rental_uris":{"android":"levelo://app?vid=357a3305-a851-44b8-88bb-1066216409f3","ios":"levelo://app?vid=357a3305-a851-44b8-88bb-1066216409f3"},"vehicle_type_id":"4","last_reported":1701425292,"current_range_meters":14000,"station_id":"ce4bgqh2rcd13ifvqc4g","pricing_plan_id":"free"},{"bike_id":"7bdbcfe9-924e-49e5-849f-fb7276f261aa","system_id":"levelo_inurba_marseille","lat":43.31052,"lon":5.377478,"is_reserved":false,"is_disabled":false,"rental_uris":{"android":"levelo://app?vid=7bdbcfe9-924e-49e5-849f-fb7276f261aa","ios":"levelo://app?vid=7bdbcfe9-924e-49e5-849f-fb7276f261aa"},"vehicle_type_id":"4","last_reported":1701425292,"current_range_meters":11600,"station_id":"","pricing_plan_id":"free"},{"bike_id":"af7c4d80-eb38-4be0-8069-9d69c45299c8","system_id":"levelo_inurba_marseille","lat":43.311125,"lon":5.377624,"is_reserved":false,"is_disabled":false,"rental_uris":{"android":"levelo://app?vid=af7c4d80-eb38-4be0-8069-9d69c45299c8","ios":"levelo://app?vid=af7c4d80-eb38-4be0-8069-9d69c45299c8"},"vehicle_type_id":"4","last_reported":1701425292,"current_range_meters":25200,"station_id":"ce4bgt92rcd13ifvqcg0","pricing_plan_id":"free"},{"bike_id":"727d231a-d425-4d8f-ad3f-99b5a47572e8","system_id":"levelo_inurba_marseille","lat":43.30439,"lon":5.36753,"is_reserved":false,"is_disabled":false,"rental_uris":{"android":"levelo://app?vid=727d231a-d425-4d8f-ad3f-99b5a47572e8","ios":"levelo://app?vid=727d231a-d425-4d8f-ad3f-99b5a47572e8"},"vehicle_type_id":"4","last_reported":1701425292,"current_range_meters":28800,"station_id":"","pricing_plan_id":"free"},{"bike_id":"f427a2c3-6e4a-446b-ae2f-9be8aa7f4122","system_id":"levelo_inurba_marseille","lat":43.31719,"lon":5.376813,"is_reserved":false,"is_disabled":false,"rental_uris":{"android":"levelo://app?vid=f427a2c3-6e4a-446b-ae2f-9be8aa7f4122","ios":"levelo://app?vid=f427a2c3-6e4a-446b-ae2f-9be8aa7f4122"},"vehicle_type_id":"4","last_reported":1701425292,"current_range_meters":2400,"station_id":"","pricing_plan_id":"free"},{"bike_id":"e913f328-1e31-4c22-bd87-f809ea246de4","system_id":"levelo_inurba_marseille","lat":43.317168,"lon":5.376883,"is_reserved":false,"is_disabled":false,"rental_uris":{"android":"levelo://app?vid=e913f328-1e31-4c22-bd87-f809ea246de4","ios":"levelo://app?vid=e913f328-1e31-4c22-bd87-f809ea246de4"},"vehicle_type_id":"4","last_reported":1701425292,"current_range_meters":4800,"station_id":"","pricing_plan_id":"free"},{"bike_id":"228fac3b-0ce1-4e34-a001-370e222cbbe9","system_id":"levelo_inurba_marseille","lat":43.303046,"lon":5.368981,"is_reserved":false,"is_disabled":false,"rental_uris":{"android":"levelo://app?vid=228fac3b-0ce1-4e34-a001-370e222cbbe9","ios":"levelo://app?vid=228fac3b-0ce1-4e34-a001-370e222cbbe9"},"vehicle_type_id":"4","last_reported":1701425292,"current_range_meters":27200,"station_id":"ce4bgqh2rcd13ifvqc5g","pricing_plan_id":"free"},{"bike_id":"a79b584b-238b-4e0c-b220-0a2955fa3423","system_id":"levelo_inurba_marseille","lat":43.303046,"lon":5.368981,"is_reserved":false,"is_disabled":false,"rental_uris":{"android":"levelo://app?vid=a79b584b-238b-4e0c-b220-0a2955fa3423","ios":"levelo://app?vid=a79b584b-238b-4e0c-b220-0a2955fa3423"},"vehicle_type_id":"4","last_reported":1701425292,"current_range_meters":18000,"station_id":"ce4bgqh2rcd13ifvqc5g","pricing_plan_id":"free"},{"bike_id":"70b34fc7-7cc3-4fef-b605-26f0573c40d0","system_id":"levelo_inurba_marseille","lat":43.303046,"lon":5.368981,"is_reserved":false,"is_disabled":false,"rental_uris":{"android":"levelo://app?vid=70b34fc7-7cc3-4fef-b605-26f0573c40d0","ios":"levelo://app?vid=70b34fc7-7cc3-4fef-b605-26f0573c40d0"},"vehicle_type_id":"4","last_reported":1701425292,"current_range_meters":22800,"station_id":"ce4bgqh2rcd13ifvqc5g","pricing_plan_id":"free"},{"bike_id":"a353da53-2844-47b1-b7b8-563a86bb4f14","system_id":"levelo_inurba_marseille","lat":43.315293,"lon":5.380349,"is_reserved":false,"is_disabled":false,"rental_uris":{"android":"levelo://app?vid=a353da53-2844-47b1-b7b8-563a86bb4f14","ios":"levelo://app?vid=a353da53-2844-47b1-b7b8-563a86bb4f14"},"vehicle_type_id":"4","last_reported":1701425292,"current_range_meters":20800,"station_id":"ce4bhsp2rcd13ifvqi50","pricing_plan_id":"free"},{"bike_id":"fc1b05fd-3fa3-4853-93d1-6db0223a8de0","system_id":"levelo_inurba_marseille","lat":43.308012,"lon":5.381511,"is_reserved":false,"is_disabled":false,"rental_uris":{"android":"levelo://app?vid=fc1b05fd-3fa3-4853-93d1-6db0223a8de0","ios":"levelo://app?vid=fc1b05fd-3fa3-4853-93d1-6db0223a8de0"},"vehicle_type_id":"4","last_reported":1701425292,"current_range_meters":19600,"station_id":"ce4bgt12rcd13ifvqce0","pricing_plan_id":"free"},{"bike_id":"31f69935-efce-4174-bf44-d3eebc8d9b0d","system_id":"levelo_inurba_marseille","lat":43.30459,"lon":5.37915,"is_reserved":false,"is_disabled":false,"rental_uris":{"android":"levelo://app?vid=31f69935-efce-4174-bf44-d3eebc8d9b0d","ios":"levelo://app?vid=31f69935-efce-4174-bf44-d3eebc8d9b0d"},"vehicle_type_id":"4","last_reported":1701425292,"current_range_meters":4800,"station_id":"ce4bgup2rcd13ifvqcn0","pricing_plan_id":"free"},{"bike_id":"f5590548-a543-4166-b63f-4793c8899830","system_id":"levelo_inurba_marseille","lat":43.30143,"lon":5.37413,"is_reserved":false,"is_disabled":false,"rental_uris":{"android":"levelo://app?vid=f5590548-a543-4166-b63f-4793c8899830","ios":"levelo://app?vid=f5590548-a543-4166-b63f-4793c8899830"},"vehicle_type_id":"4","last_reported":1701425292,"current_range_meters":2800,"station_id":"ce4bgs92rcd13ifvqcc0","pricing_plan_id":"free"},{"bike_id":"4ea5b8dc-f83a-4933-aff2-85d2b05689f0","system_id":"levelo_inurba_marseille","lat":43.301429,"lon":5.37413,"is_reserved":false,"is_disabled":false,"rental_uris":{"android":"levelo://app?vid=4ea5b8dc-f83a-4933-aff2-85d2b05689f0","ios":"levelo://app?vid=4ea5b8dc-f83a-4933-aff2-85d2b05689f0"},"vehicle_type_id":"4","last_reported":1701425292,"current_range_meters":15200,"station_id":"ce4bgs92rcd13ifvqcc0","pricing_plan_id":"free"},{"bike_id":"09e01f44-f909-4852-ba39-6eedd97688e1","system_id":"levelo_inurba_marseille","lat":43.301429,"lon":5.37413,"is_reserved":false,"is_disabled":false,"rental_uris":{"android":"levelo://app?vid=09e01f44-f909-4852-ba39-6eedd97688e1","ios":"levelo://app?vid=09e01f44-f909-4852-ba39-6eedd97688e1"},"vehicle_type_id":"4","last_reported":1701425292,"current_range_meters":22400,"station_id":"ce4bgs92rcd13ifvqcc0","pricing_plan_id":"free"},{"bike_id":"5a8ea3c7-15b0-4f1d-ab6c-8c42fc7edd80","system_id":"levelo_inurba_marseille","lat":43.301429,"lon":5.37413,"is_reserved":false,"is_disabled":false,"rental_uris":{"android":"levelo://app?vid=5a8ea3c7-15b0-4f1d-ab6c-8c42fc7edd80","ios":"levelo://app?vid=5a8ea3c7-15b0-4f1d-ab6c-8c42fc7edd80"},"vehicle_type_id":"4","last_reported":1701425292,"current_range_meters":6400,"station_id":"ce4bgs92rcd13ifvqcc0","pricing_plan_id":"free"},{"bike_id":"9f2dcaa3-86f6-4ca1-98d7-163e7a543245","system_id":"levelo_inurba_marseille","lat":43.301429,"lon":5.37413,"is_reserved":false,"is_disabled":false,"rental_uris":{"android":"levelo://app?vid=9f2dcaa3-86f6-4ca1-98d7-163e7a543245","ios":"levelo://app?vid=9f2dcaa3-86f6-4ca1-98d7-163e7a543245"},"vehicle_type_id":"4","last_reported":1701425292,"current_range_meters":18000,"station_id":"ce4bgs92rcd13ifvqcc0","pricing_plan_id":"free"},{"bike_id":"0007c01c-a7cf-47cc-b942-ed6a1818dd46","system_id":"levelo_inurba_marseille","lat":43.301429,"lon":5.37413,"is_reserved":false,"is_disabled":false,"rental_uris":{"android":"levelo://app?vid=0007c01c-a7cf-47cc-b942-ed6a1818dd46","ios":"levelo://app?vid=0007c01c-a7cf-47cc-b942-ed6a1818dd46"},"vehicle_type_id":"4","last_reported":1701425292,"current_range_meters":31200,"station_id":"ce4bgs92rcd13ifvqcc0","pricing_plan_id":"free"},{"bike_id":"2275aca5-3158-4c2c-8022-ca5d2714bc86","system_id":"levelo_inurba_marseille","lat":43.319997,"lon":5.381594,"is_reserved":false,"is_disabled":false,"rental_uris":{"android":"levelo://app?vid=2275aca5-3158-4c2c-8022-ca5d2714bc86","ios":"levelo://app?vid=2275aca5-3158-4c2c-8022-ca5d2714bc86"},"vehicle_type_id":"4","last_reported":1701425292,"current_range_meters":19600,"station_id":"ce4bhr12rcd13ifvqhpg","pricing_plan_id":"free"},{"bike_id":"de2960d0-e4b2-4ab7-b096-12eac14e4edc","system_id":"levelo_inurba_marseille","lat":43.313571,"lon":5.384829,"is_reserved":false,"is_disabled":false,"rental_uris":{"android":"levelo://app?vid=de2960d0-e4b2-4ab7-b096-12eac14e4edc","ios":"levelo://app?vid=de2960d0-e4b2-4ab7-b096-12eac14e4edc"},"vehicle_type_id":"4","last_reported":1701425292,"current_range_meters":7200,"station_id":"ce4bgt92rcd13ifvqcf0","pricing_plan_id":"free"},{"bike_id":"6824764b-9e9f-4fae-a7d5-0c4370a47c6f","system_id":"levelo_inurba_marseille","lat":43.299724,"lon":5.371829,"is_reserved":false,"is_disabled":false,"rental_uris":{"android":"levelo://app?vid=6824764b-9e9f-4fae-a7d5-0c4370a47c6f","ios":"levelo://app?vid=6824764b-9e9f-4fae-a7d5-0c4370a47c6f"},"vehicle_type_id":"4","last_reported":1701425292,"current_range_meters":14400,"station_id":"ce4bgr92rcd13ifvqc7g","pricing_plan_id":"free"},{"bike_id":"b6bfc572-9ec3-45d7-8329-6b42fd966be3","system_id":"levelo_inurba_marseille","lat":43.299724,"lon":5.371829,"is_reserved":false,"is_disabled":false,"rental_uris":{"android":"levelo://app?vid=b6bfc572-9ec3-45d7-8329-6b42fd966be3","ios":"levelo://app?vid=b6bfc572-9ec3-45d7-8329-6b42fd966be3"},"vehicle_type_id":"4","last_reported":1701425292,"current_range_meters":20000,"station_id":"ce4bgr92rcd13ifvqc7g","pricing_plan_id":"free"},{"bike_id":"bc78d325-38f0-4ca6-8328-030e1a3885fa","system_id":"levelo_inurba_marseille","lat":43.299724,"lon":5.371829,"is_reserved":false,"is_disabled":false,"rental_uris":{"android":"levelo://app?vid=bc78d325-38f0-4ca6-8328-030e1a3885fa","ios":"levelo://app?vid=bc78d325-38f0-4ca6-8328-030e1a3885fa"},"vehicle_type_id":"4","last_reported":1701425292,"current_range_meters":24400,"station_id":"ce4bgr92rcd13ifvqc7g","pricing_plan_id":"free"},{"bike_id":"64c5f7ba-a202-4b6d-94a6-53b7c1d2dc8b","system_id":"levelo_inurba_marseille","lat":43.298929,"lon":5.366472,"is_reserved":false,"is_disabled":false,"rental_uris":{"android":"levelo://app?vid=64c5f7ba-a202-4b6d-94a6-53b7c1d2dc8b","ios":"levelo://app?vid=64c5f7ba-a202-4b6d-94a6-53b7c1d2dc8b"},"vehicle_type_id":"4","last_reported":1701425292,"current_range_meters":8400,"station_id":"ce4bgm92rcd13ifvqbr0","pricing_plan_id":"free"},{"bike_id":"748d12ab-8e09-4ecd-b2d2-cbe0ea9624f6","system_id":"levelo_inurba_marseille","lat":43.298548,"lon":5.367637,"is_reserved":false,"is_disabled":false,"rental_uris":{"android":"levelo://app?vid=748d12ab-8e09-4ecd-b2d2-cbe0ea9624f6","ios":"levelo://app?vid=748d12ab-8e09-4ecd-b2d2-cbe0ea9624f6"},"vehicle_type_id":"4","last_reported":1701425292,"current_range_meters":11200,"station_id":"","pricing_plan_id":"free"},{"bike_id":"4630c308-79d1-4a34-9681-6085cd478ee0","system_id":"levelo_inurba_marseille","lat":43.305364,"lon":5.384119,"is_reserved":false,"is_disabled":false,"rental_uris":{"android":"levelo://app?vid=4630c308-79d1-4a34-9681-6085cd478ee0","ios":"levelo://app?vid=4630c308-79d1-4a34-9681-6085cd478ee0"},"vehicle_type_id":"4","last_reported":1701425292,"current_range_meters":26000,"station_id":"ce4bgg92rcd13ifvqb30","pricing_plan_id":"free"},{"bike_id":"d2abccd0-3a2e-4cdd-b882-c28549dd88fc","system_id":"levelo_inurba_marseille","lat":43.298433,"lon":5.362774,"is_reserved":false,"is_disabled":false,"rental_uris":{"android":"levelo://app?vid=d2abccd0-3a2e-4cdd-b882-c28549dd88fc","ios":"levelo://app?vid=d2abccd0-3a2e-4cdd-b882-c28549dd88fc"},"vehicle_type_id":"4","last_reported":1701425292,"current_range_meters":30400,"station_id":"ce4bgpp2rcd13ifvqc3g","pricing_plan_id":"free"},{"bike_id":"4c06f9be-7b97-4bdb-a530-fa10b066c687","system_id":"levelo_inurba_marseille","lat":43.298433,"lon":5.362774,"is_reserved":false,"is_disabled":false,"rental_uris":{"android":"levelo://app?vid=4c06f9be-7b97-4bdb-a530-fa10b066c687","ios":"levelo://app?vid=4c06f9be-7b97-4bdb-a530-fa10b066c687"},"vehicle_type_id":"4","last_reported":1701425292,"current_range_meters":28000,"station_id":"ce4bgpp2rcd13ifvqc3g","pricing_plan_id":"free"},{"bike_id":"b5fc145e-57b8-4e1b-8b35-8095f3d738c2","system_id":"levelo_inurba_marseille","lat":43.299243,"lon":5.37481,"is_reserved":false,"is_disabled":false,"rental_uris":{"android":"levelo://app?vid=b5fc145e-57b8-4e1b-8b35-8095f3d738c2","ios":"levelo://app?vid=b5fc145e-57b8-4e1b-8b35-8095f3d738c2"},"vehicle_type_id":"4","last_reported":1701425292,"current_range_meters":25600,"station_id":"ce4bgjh2rcd13ifvqbg0","pricing_plan_id":"free"},{"bike_id":"1d2952a7-dbae-48f7-bf1d-bf83c6029c5a","system_id":"levelo_inurba_marseille","lat":43.299008,"lon":5.374735,"is_reserved":false,"is_disabled":false,"rental_uris":{"android":"levelo://app?vid=1d2952a7-dbae-48f7-bf1d-bf83c6029c5a","ios":"levelo://app?vid=1d2952a7-dbae-48f7-bf1d-bf83c6029c5a"},"vehicle_type_id":"4","last_reported":1701425292,"current_range_meters":0,"station_id":"ce4bgjh2rcd13ifvqbg0","pricing_plan_id":"free"},{"bike_id":"aebb5f1f-3a1e-4323-a4f0-ae83e0b78d14","system_id":"levelo_inurba_marseille","lat":43.327603,"lon":5.36705,"is_reserved":false,"is_disabled":false,"rental_uris":{"android":"levelo://app?vid=aebb5f1f-3a1e-4323-a4f0-ae83e0b78d14","ios":"levelo://app?vid=aebb5f1f-3a1e-4323-a4f0-ae83e0b78d14"},"vehicle_type_id":"4","last_reported":1701425292,"current_range_meters":21200,"station_id":"","pricing_plan_id":"free"},{"bike_id":"a2af724e-f197-4193-8260-000c0bd186d1","system_id":"levelo_inurba_marseille","lat":43.297774,"lon":5.370875,"is_reserved":false,"is_disabled":false,"rental_uris":{"android":"levelo://app?vid=a2af724e-f197-4193-8260-000c0bd186d1","ios":"levelo://app?vid=a2af724e-f197-4193-8260-000c0bd186d1"},"vehicle_type_id":"4","last_reported":1701425292,"current_range_meters":30800,"station_id":"ce4bgop2rcd13ifvqc1g","pricing_plan_id":"free"},{"bike_id":"d29c3c0b-74e5-4869-b0c5-ca64bac7ce3d","system_id":"levelo_inurba_marseille","lat":43.297794,"lon":5.370888,"is_reserved":false,"is_disabled":false,"rental_uris":{"android":"levelo://app?vid=d29c3c0b-74e5-4869-b0c5-ca64bac7ce3d","ios":"levelo://app?vid=d29c3c0b-74e5-4869-b0c5-ca64bac7ce3d"},"vehicle_type_id":"4","last_reported":1701425292,"current_range_meters":30400,"station_id":"ce4bgop2rcd13ifvqc1g","pricing_plan_id":"free"},{"bike_id":"c4d76982-39c2-41bf-95d5-494400c210ce","system_id":"levelo_inurba_marseille","lat":43.322872,"lon":5.382756,"is_reserved":false,"is_disabled":false,"rental_uris":{"android":"levelo://app?vid=c4d76982-39c2-41bf-95d5-494400c210ce","ios":"levelo://app?vid=c4d76982-39c2-41bf-95d5-494400c210ce"},"vehicle_type_id":"4","last_reported":1701425292,"current_range_meters":13200,"station_id":"ce4bhr12rcd13ifvqhqg","pricing_plan_id":"free"},{"bike_id":"2484d89c-f06b-463b-bfb4-4415361ed078","system_id":"levelo_inurba_marseille","lat":43.328371,"lon":5.366909,"is_reserved":false,"is_disabled":false,"rental_uris":{"android":"levelo://app?vid=2484d89c-f06b-463b-bfb4-4415361ed078","ios":"levelo://app?vid=2484d89c-f06b-463b-bfb4-4415361ed078"},"vehicle_type_id":"4","last_reported":1701425292,"current_range_meters":20400,"station_id":"ce4bhs92rcd13ifvqi0g","pricing_plan_id":"free"},{"bike_id":"189a0943-83c4-4d4e-a324-3b5a36ac2944","system_id":"levelo_inurba_marseille","lat":43.29712,"lon":5.36618,"is_reserved":false,"is_disabled":false,"rental_uris":{"android":"levelo://app?vid=189a0943-83c4-4d4e-a324-3b5a36ac2944","ios":"levelo://app?vid=189a0943-83c4-4d4e-a324-3b5a36ac2944"},"vehicle_type_id":"4","last_reported":1701425292,"current_range_meters":17600,"station_id":"ce4bgn12rcd13ifvqbt0","pricing_plan_id":"free"},{"bike_id":"5983625d-69f5-485f-a399-daec2999c965","system_id":"levelo_inurba_marseille","lat":43.321534,"lon":5.385734,"is_reserved":false,"is_disabled":false,"rental_uris":{"android":"levelo://app?vid=5983625d-69f5-485f-a399-daec2999c965","ios":"levelo://app?vid=5983625d-69f5-485f-a399-daec2999c965"},"vehicle_type_id":"4","last_reported":1701425292,"current_range_meters":6800,"station_id":"","pricing_plan_id":"free"},{"bike_id":"76b6d16b-b40d-4238-9bcd-d112ec59c279","system_id":"levelo_inurba_marseille","lat":43.2968,"lon":5.37291,"is_reserved":false,"is_disabled":false,"rental_uris":{"android":"levelo://app?vid=76b6d16b-b40d-4238-9bcd-d112ec59c279","ios":"levelo://app?vid=76b6d16b-b40d-4238-9bcd-d112ec59c279"},"vehicle_type_id":"4","last_reported":1701425292,"current_range_meters":31200,"station_id":"ce4bgk12rcd13ifvqbj0","pricing_plan_id":"free"},{"bike_id":"6f5cd253-b98b-40bf-b838-48f4f1b9f80b","system_id":"levelo_inurba_marseille","lat":43.2968,"lon":5.37291,"is_reserved":false,"is_disabled":false,"rental_uris":{"android":"levelo://app?vid=6f5cd253-b98b-40bf-b838-48f4f1b9f80b","ios":"levelo://app?vid=6f5cd253-b98b-40bf-b838-48f4f1b9f80b"},"vehicle_type_id":"4","last_reported":1701425292,"current_range_meters":8800,"station_id":"ce4bgk12rcd13ifvqbj0","pricing_plan_id":"free"},{"bike_id":"d068864e-3768-4cb7-8f2c-e01febcf4d60","system_id":"levelo_inurba_marseille","lat":43.29615,"lon":5.36513,"is_reserved":false,"is_disabled":false,"rental_uris":{"android":"levelo://app?vid=d068864e-3768-4cb7-8f2c-e01febcf4d60","ios":"levelo://app?vid=d068864e-3768-4cb7-8f2c-e01febcf4d60"},"vehicle_type_id":"4","last_reported":1701425292,"current_range_meters":8400,"station_id":"","pricing_plan_id":"free"},{"bike_id":"9acbcc9e-6470-407a-a296-2d6537b02f77","system_id":"levelo_inurba_marseille","lat":43.296921,"lon":5.376579,"is_reserved":false,"is_disabled":false,"rental_uris":{"android":"levelo://app?vid=9acbcc9e-6470-407a-a296-2d6537b02f77","ios":"levelo://app?vid=9acbcc9e-6470-407a-a296-2d6537b02f77"},"vehicle_type_id":"4","last_reported":1701425292,"current_range_meters":15600,"station_id":"ce4bgkh2rcd13ifvqbl0","pricing_plan_id":"free"},{"bike_id":"47e23ecc-b811-4080-9e75-41f6b033c79f","system_id":"levelo_inurba_marseille","lat":43.299028,"lon":5.381509,"is_reserved":false,"is_disabled":false,"rental_uris":{"android":"levelo://app?vid=47e23ecc-b811-4080-9e75-41f6b033c79f","ios":"levelo://app?vid=47e23ecc-b811-4080-9e75-41f6b033c79f"},"vehicle_type_id":"4","last_reported":1701425292,"current_range_meters":17600,"station_id":"ce4bgj12rcd13ifvqbc0","pricing_plan_id":"free"},{"bike_id":"56983fdd-347c-4b47-a32b-c9e7739a6b37","system_id":"levelo_inurba_marseille","lat":43.295748,"lon":5.37522,"is_reserved":false,"is_disabled":false,"rental_uris":{"android":"levelo://app?vid=56983fdd-347c-4b47-a32b-c9e7739a6b37","ios":"levelo://app?vid=56983fdd-347c-4b47-a32b-c9e7739a6b37"},"vehicle_type_id":"4","last_reported":1701425292,"current_range_meters":10400,"station_id":"ce4bgh92rcd13ifvqb50","pricing_plan_id":"free"},{"bike_id":"a9c8a498-52e3-4329-bc4c-6ee477ee8ff7","system_id":"levelo_inurba_marseille","lat":43.295748,"lon":5.37522,"is_reserved":false,"is_disabled":false,"rental_uris":{"android":"levelo://app?vid=a9c8a498-52e3-4329-bc4c-6ee477ee8ff7","ios":"levelo://app?vid=a9c8a498-52e3-4329-bc4c-6ee477ee8ff7"},"vehicle_type_id":"4","last_reported":1701425292,"current_range_meters":24000,"station_id":"ce4bgh92rcd13ifvqb50","pricing_plan_id":"free"},{"bike_id":"c3708a1d-d576-4f4a-a9ae-b38d92fa97b4","system_id":"levelo_inurba_marseille","lat":43.308012,"lon":5.381511,"is_reserved":false,"is_disabled":false,"rental_uris":{"android":"levelo://app?vid=c3708a1d-d576-4f4a-a9ae-b38d92fa97b4","ios":"levelo://app?vid=c3708a1d-d576-4f4a-a9ae-b38d92fa97b4"},"vehicle_type_id":"4","last_reported":1701425292,"current_range_meters":28000,"station_id":"ce4bgt12rcd13ifvqce0","pricing_plan_id":"free"},{"bike_id":"fe2e9a49-4248-418d-9ef0-134a5532eba2","system_id":"levelo_inurba_marseille","lat":43.296263,"lon":5.377094,"is_reserved":false,"is_disabled":false,"rental_uris":{"android":"levelo://app?vid=fe2e9a49-4248-418d-9ef0-134a5532eba2","ios":"levelo://app?vid=fe2e9a49-4248-418d-9ef0-134a5532eba2"},"vehicle_type_id":"4","last_reported":1701425292,"current_range_meters":20400,"station_id":"ce4bgi92rcd13ifvqb90","pricing_plan_id":"free"},{"bike_id":"cb922300-2958-44e5-aec5-9e8f5e47bc2a","system_id":"levelo_inurba_marseille","lat":43.2968,"lon":5.37291,"is_reserved":false,"is_disabled":false,"rental_uris":{"android":"levelo://app?vid=cb922300-2958-44e5-aec5-9e8f5e47bc2a","ios":"levelo://app?vid=cb922300-2958-44e5-aec5-9e8f5e47bc2a"},"vehicle_type_id":"4","last_reported":1701425292,"current_range_meters":11600,"station_id":"ce4bgk12rcd13ifvqbj0","pricing_plan_id":"free"},{"bike_id":"be3cdb11-f790-4e2d-9459-0715f8840e49","system_id":"levelo_inurba_marseille","lat":43.299707,"lon":5.384859,"is_reserved":false,"is_disabled":false,"rental_uris":{"android":"levelo://app?vid=be3cdb11-f790-4e2d-9459-0715f8840e49","ios":"levelo://app?vid=be3cdb11-f790-4e2d-9459-0715f8840e49"},"vehicle_type_id":"4","last_reported":1701425292,"current_range_meters":26400,"station_id":"ce4bgj92rcd13ifvqbd0","pricing_plan_id":"free"},{"bike_id":"1178d7eb-1ddb-4d3c-a94b-11b6f49137f7","system_id":"levelo_inurba_marseille","lat":43.295279,"lon":5.375048,"is_reserved":false,"is_disabled":false,"rental_uris":{"android":"levelo://app?vid=1178d7eb-1ddb-4d3c-a94b-11b6f49137f7","ios":"levelo://app?vid=1178d7eb-1ddb-4d3c-a94b-11b6f49137f7"},"vehicle_type_id":"4","last_reported":1701425292,"current_range_meters":15600,"station_id":"ce4bgkp2rcd13ifvqbmg","pricing_plan_id":"free"},{"bike_id":"81c81765-686e-4ef8-8ba0-60d7276501a3","system_id":"levelo_inurba_marseille","lat":43.32365,"lon":5.388853,"is_reserved":false,"is_disabled":false,"rental_uris":{"android":"levelo://app?vid=81c81765-686e-4ef8-8ba0-60d7276501a3","ios":"levelo://app?vid=81c81765-686e-4ef8-8ba0-60d7276501a3"},"vehicle_type_id":"4","last_reported":1701425292,"current_range_meters":26800,"station_id":"ce4bhqp2rcd13ifvqhog","pricing_plan_id":"free"},{"bike_id":"eaa0e7e7-2390-47fa-909b-7b240952cbef","system_id":"levelo_inurba_marseille","lat":43.31947,"lon":5.39217,"is_reserved":false,"is_disabled":false,"rental_uris":{"android":"levelo://app?vid=eaa0e7e7-2390-47fa-909b-7b240952cbef","ios":"levelo://app?vid=eaa0e7e7-2390-47fa-909b-7b240952cbef"},"vehicle_type_id":"4","last_reported":1701425292,"current_range_meters":18800,"station_id":"","pricing_plan_id":"free"},{"bike_id":"c0c0f0de-78d0-4587-8d8c-54af5ec8a791","system_id":"levelo_inurba_marseille","lat":43.29602,"lon":5.381084,"is_reserved":false,"is_disabled":false,"rental_uris":{"android":"levelo://app?vid=c0c0f0de-78d0-4587-8d8c-54af5ec8a791","ios":"levelo://app?vid=c0c0f0de-78d0-4587-8d8c-54af5ec8a791"},"vehicle_type_id":"4","last_reported":1701425292,"current_range_meters":15600,"station_id":"ce4bgl12rcd13ifvqbo0","pricing_plan_id":"free"},{"bike_id":"78974ab3-d388-46f3-a86a-3410f044af03","system_id":"levelo_inurba_marseille","lat":43.305994,"lon":5.393687,"is_reserved":false,"is_disabled":false,"rental_uris":{"android":"levelo://app?vid=78974ab3-d388-46f3-a86a-3410f044af03","ios":"levelo://app?vid=78974ab3-d388-46f3-a86a-3410f044af03"},"vehicle_type_id":"4","last_reported":1701425292,"current_range_meters":26000,"station_id":"ce4bh0p2rcd13ifvqd80","pricing_plan_id":"free"},{"bike_id":"981e9920-72e9-41c7-8cd8-2da2a192b5b5","system_id":"levelo_inurba_marseille","lat":43.2936,"lon":5.37835,"is_reserved":false,"is_disabled":false,"rental_uris":{"android":"levelo://app?vid=981e9920-72e9-41c7-8cd8-2da2a192b5b5","ios":"levelo://app?vid=981e9920-72e9-41c7-8cd8-2da2a192b5b5"},"vehicle_type_id":"4","last_reported":1701425292,"current_range_meters":18400,"station_id":"ce4bgjh2rcd13ifvqbf0","pricing_plan_id":"free"},{"bike_id":"3abb3d84-bd13-4e8e-a1c8-f28a1b64b2a1","system_id":"levelo_inurba_marseille","lat":43.2936,"lon":5.37835,"is_reserved":false,"is_disabled":false,"rental_uris":{"android":"levelo://app?vid=3abb3d84-bd13-4e8e-a1c8-f28a1b64b2a1","ios":"levelo://app?vid=3abb3d84-bd13-4e8e-a1c8-f28a1b64b2a1"},"vehicle_type_id":"4","last_reported":1701425292,"current_range_meters":24000,"station_id":"ce4bgjh2rcd13ifvqbf0","pricing_plan_id":"free"},{"bike_id":"8f35eb39-ebbc-4f36-9c6a-d4098ff4388e","system_id":"levelo_inurba_marseille","lat":43.2936,"lon":5.37835,"is_reserved":false,"is_disabled":false,"rental_uris":{"android":"levelo://app?vid=8f35eb39-ebbc-4f36-9c6a-d4098ff4388e","ios":"levelo://app?vid=8f35eb39-ebbc-4f36-9c6a-d4098ff4388e"},"vehicle_type_id":"4","last_reported":1701425292,"current_range_meters":24400,"station_id":"ce4bgjh2rcd13ifvqbf0","pricing_plan_id":"free"},{"bike_id":"f76aeba3-034d-460f-828b-68b91803406a","system_id":"levelo_inurba_marseille","lat":43.2936,"lon":5.37835,"is_reserved":false,"is_disabled":false,"rental_uris":{"android":"levelo://app?vid=f76aeba3-034d-460f-828b-68b91803406a","ios":"levelo://app?vid=f76aeba3-034d-460f-828b-68b91803406a"},"vehicle_type_id":"4","last_reported":1701425292,"current_range_meters":19200,"station_id":"ce4bgjh2rcd13ifvqbf0","pricing_plan_id":"free"},{"bike_id":"bd73e8fd-d6f5-4744-9d85-195d675bc3d3","system_id":"levelo_inurba_marseille","lat":43.292663,"lon":5.376394,"is_reserved":false,"is_disabled":false,"rental_uris":{"android":"levelo://app?vid=bd73e8fd-d6f5-4744-9d85-195d675bc3d3","ios":"levelo://app?vid=bd73e8fd-d6f5-4744-9d85-195d675bc3d3"},"vehicle_type_id":"4","last_reported":1701425292,"current_range_meters":25200,"station_id":"ce4bgi12rcd13ifvqb80","pricing_plan_id":"free"},{"bike_id":"2e1c658b-a19e-4489-a827-896923bb10d9","system_id":"levelo_inurba_marseille","lat":43.292663,"lon":5.376394,"is_reserved":false,"is_disabled":false,"rental_uris":{"android":"levelo://app?vid=2e1c658b-a19e-4489-a827-896923bb10d9","ios":"levelo://app?vid=2e1c658b-a19e-4489-a827-896923bb10d9"},"vehicle_type_id":"4","last_reported":1701425292,"current_range_meters":30000,"station_id":"ce4bgi12rcd13ifvqb80","pricing_plan_id":"free"},{"bike_id":"a483e22b-1f93-4d47-9942-bfadabfcb125","system_id":"levelo_inurba_marseille","lat":43.291675,"lon":5.371583,"is_reserved":false,"is_disabled":false,"rental_uris":{"android":"levelo://app?vid=a483e22b-1f93-4d47-9942-bfadabfcb125","ios":"levelo://app?vid=a483e22b-1f93-4d47-9942-bfadabfcb125"},"vehicle_type_id":"4","last_reported":1701425292,"current_range_meters":20000,"station_id":"ce4bha92rcd13ifvqeh0","pricing_plan_id":"free"},{"bike_id":"94c1b43d-53e8-40eb-9d54-9b0a7de481b6","system_id":"levelo_inurba_marseille","lat":43.29195,"lon":5.35804,"is_reserved":false,"is_disabled":false,"rental_uris":{"android":"levelo://app?vid=94c1b43d-53e8-40eb-9d54-9b0a7de481b6","ios":"levelo://app?vid=94c1b43d-53e8-40eb-9d54-9b0a7de481b6"},"vehicle_type_id":"4","last_reported":1701425292,"current_range_meters":18800,"station_id":"ce4bhb12rcd13ifvqel0","pricing_plan_id":"free"},{"bike_id":"e117ec44-e551-4e66-a9e4-015359b21872","system_id":"levelo_inurba_marseille","lat":43.290327,"lon":5.375711,"is_reserved":false,"is_disabled":false,"rental_uris":{"android":"levelo://app?vid=e117ec44-e551-4e66-a9e4-015359b21872","ios":"levelo://app?vid=e117ec44-e551-4e66-a9e4-015359b21872"},"vehicle_type_id":"4","last_reported":1701425292,"current_range_meters":31600,"station_id":"ce4bh692rcd13ifvqe90","pricing_plan_id":"free"},{"bike_id":"adfa9e48-7d35-4208-b4cf-bc9d2cc03272","system_id":"levelo_inurba_marseille","lat":43.289184,"lon":5.366408,"is_reserved":false,"is_disabled":false,"rental_uris":{"android":"levelo://app?vid=adfa9e48-7d35-4208-b4cf-bc9d2cc03272","ios":"levelo://app?vid=adfa9e48-7d35-4208-b4cf-bc9d2cc03272"},"vehicle_type_id":"4","last_reported":1701425292,"current_range_meters":0,"station_id":"ce4bhap2rcd13ifvqek0","pricing_plan_id":"free"},{"bike_id":"3ae39e67-a55d-4fcf-a339-287ef7901132","system_id":"levelo_inurba_marseille","lat":43.294114,"lon":5.386185,"is_reserved":false,"is_disabled":false,"rental_uris":{"android":"levelo://app?vid=3ae39e67-a55d-4fcf-a339-287ef7901132","ios":"levelo://app?vid=3ae39e67-a55d-4fcf-a339-287ef7901132"},"vehicle_type_id":"4","last_reported":1701425292,"current_range_meters":18000,"station_id":"","pricing_plan_id":"free"},{"bike_id":"0d11a82e-82a1-4ec1-a0ff-a9d15c92c616","system_id":"levelo_inurba_marseille","lat":43.304296,"lon":5.397513,"is_reserved":false,"is_disabled":false,"rental_uris":{"android":"levelo://app?vid=0d11a82e-82a1-4ec1-a0ff-a9d15c92c616","ios":"levelo://app?vid=0d11a82e-82a1-4ec1-a0ff-a9d15c92c616"},"vehicle_type_id":"4","last_reported":1701425292,"current_range_meters":15600,"station_id":"ce4bh092rcd13ifvqd20","pricing_plan_id":"free"},{"bike_id":"8e7f2006-2a0d-4bdb-a8aa-abf6f4f85120","system_id":"levelo_inurba_marseille","lat":43.292642,"lon":5.384254,"is_reserved":false,"is_disabled":false,"rental_uris":{"android":"levelo://app?vid=8e7f2006-2a0d-4bdb-a8aa-abf6f4f85120","ios":"levelo://app?vid=8e7f2006-2a0d-4bdb-a8aa-abf6f4f85120"},"vehicle_type_id":"4","last_reported":1701425292,"current_range_meters":2400,"station_id":"ce4bh692rcd13ifvqea0","pricing_plan_id":"free"},{"bike_id":"fdc2fc9e-2f29-4c49-bcea-7a560d4446be","system_id":"levelo_inurba_marseille","lat":43.33044,"lon":5.38915,"is_reserved":false,"is_disabled":false,"rental_uris":{"android":"levelo://app?vid=fdc2fc9e-2f29-4c49-bcea-7a560d4446be","ios":"levelo://app?vid=fdc2fc9e-2f29-4c49-bcea-7a560d4446be"},"vehicle_type_id":"4","last_reported":1701425292,"current_range_meters":13600,"station_id":"ce4bhr92rcd13ifvqhrg","pricing_plan_id":"free"},{"bike_id":"f71bec80-1512-44cd-95d2-3d7fdee5df30","system_id":"levelo_inurba_marseille","lat":43.33045,"lon":5.38919,"is_reserved":false,"is_disabled":false,"rental_uris":{"android":"levelo://app?vid=f71bec80-1512-44cd-95d2-3d7fdee5df30","ios":"levelo://app?vid=f71bec80-1512-44cd-95d2-3d7fdee5df30"},"vehicle_type_id":"4","last_reported":1701425292,"current_range_meters":16800,"station_id":"ce4bhr92rcd13ifvqhrg","pricing_plan_id":"free"},{"bike_id":"433c11ae-8306-4bbf-850d-086e9b9b8b2e","system_id":"levelo_inurba_marseille","lat":43.2909,"lon":5.381212,"is_reserved":false,"is_disabled":false,"rental_uris":{"android":"levelo://app?vid=433c11ae-8306-4bbf-850d-086e9b9b8b2e","ios":"levelo://app?vid=433c11ae-8306-4bbf-850d-086e9b9b8b2e"},"vehicle_type_id":"4","last_reported":1701425292,"current_range_meters":14800,"station_id":"ce4bh512rcd13ifvqe2g","pricing_plan_id":"free"},{"bike_id":"a2c112a6-58e1-4e8b-8be8-80d2c9d8d3d7","system_id":"levelo_inurba_marseille","lat":43.31265,"lon":5.401699,"is_reserved":false,"is_disabled":false,"rental_uris":{"android":"levelo://app?vid=a2c112a6-58e1-4e8b-8be8-80d2c9d8d3d7","ios":"levelo://app?vid=a2c112a6-58e1-4e8b-8be8-80d2c9d8d3d7"},"vehicle_type_id":"4","last_reported":1701425292,"current_range_meters":14800,"station_id":"","pricing_plan_id":"free"},{"bike_id":"9b2181bc-0896-4e4d-8b0c-f331655eb540","system_id":"levelo_inurba_marseille","lat":43.31269,"lon":5.40174,"is_reserved":false,"is_disabled":false,"rental_uris":{"android":"levelo://app?vid=9b2181bc-0896-4e4d-8b0c-f331655eb540","ios":"levelo://app?vid=9b2181bc-0896-4e4d-8b0c-f331655eb540"},"vehicle_type_id":"4","last_reported":1701425292,"current_range_meters":22800,"station_id":"ce4bh092rcd13ifvqd30","pricing_plan_id":"free"},{"bike_id":"363872b8-fd07-4ff5-8d1e-415548401c0c","system_id":"levelo_inurba_marseille","lat":43.30933,"lon":5.40144,"is_reserved":false,"is_disabled":false,"rental_uris":{"android":"levelo://app?vid=363872b8-fd07-4ff5-8d1e-415548401c0c","ios":"levelo://app?vid=363872b8-fd07-4ff5-8d1e-415548401c0c"},"vehicle_type_id":"4","last_reported":1701425292,"current_range_meters":24000,"station_id":"ce4bgvp2rcd13ifvqct0","pricing_plan_id":"free"},{"bike_id":"27f2f5b0-cab9-49c9-ae68-f465c3096012","system_id":"levelo_inurba_marseille","lat":43.30642,"lon":5.401031,"is_reserved":false,"is_disabled":false,"rental_uris":{"android":"levelo://app?vid=27f2f5b0-cab9-49c9-ae68-f465c3096012","ios":"levelo://app?vid=27f2f5b0-cab9-49c9-ae68-f465c3096012"},"vehicle_type_id":"4","last_reported":1701425292,"current_range_meters":2000,"station_id":"ce4bh112rcd13ifvqda0","pricing_plan_id":"free"},{"bike_id":"f0816853-0967-44e2-9e60-752479a64a91","system_id":"levelo_inurba_marseille","lat":43.295194,"lon":5.39397,"is_reserved":false,"is_disabled":false,"rental_uris":{"android":"levelo://app?vid=f0816853-0967-44e2-9e60-752479a64a91","ios":"levelo://app?vid=f0816853-0967-44e2-9e60-752479a64a91"},"vehicle_type_id":"4","last_reported":1701425292,"current_range_meters":26400,"station_id":"ce4bh292rcd13ifvqdf0","pricing_plan_id":"free"},{"bike_id":"51e80092-f709-463a-96a2-8b25587b914d","system_id":"levelo_inurba_marseille","lat":43.286039,"lon":5.370681,"is_reserved":false,"is_disabled":false,"rental_uris":{"android":"levelo://app?vid=51e80092-f709-463a-96a2-8b25587b914d","ios":"levelo://app?vid=51e80092-f709-463a-96a2-8b25587b914d"},"vehicle_type_id":"4","last_reported":1701425292,"current_range_meters":2400,"station_id":"ce4bht12rcd13ifvqi60","pricing_plan_id":"free"},{"bike_id":"88ec5cce-ee20-43df-aeb0-594fe3569828","system_id":"levelo_inurba_marseille","lat":43.287184,"lon":5.37937,"is_reserved":false,"is_disabled":false,"rental_uris":{"android":"levelo://app?vid=88ec5cce-ee20-43df-aeb0-594fe3569828","ios":"levelo://app?vid=88ec5cce-ee20-43df-aeb0-594fe3569828"},"vehicle_type_id":"4","last_reported":1701425292,"current_range_meters":21200,"station_id":"ce4bh9p2rcd13ifvqec0","pricing_plan_id":"free"},{"bike_id":"c64abbd9-83e6-40f7-a16e-72e1c40f00d7","system_id":"levelo_inurba_marseille","lat":43.319179,"lon":5.407725,"is_reserved":false,"is_disabled":false,"rental_uris":{"android":"levelo://app?vid=c64abbd9-83e6-40f7-a16e-72e1c40f00d7","ios":"levelo://app?vid=c64abbd9-83e6-40f7-a16e-72e1c40f00d7"},"vehicle_type_id":"4","last_reported":1701425292,"current_range_meters":26400,"station_id":"ce4bhq12rcd13ifvqhig","pricing_plan_id":"free"},{"bike_id":"11d25991-4e02-4cd5-af98-b74a360492d1","system_id":"levelo_inurba_marseille","lat":43.319179,"lon":5.407725,"is_reserved":false,"is_disabled":false,"rental_uris":{"android":"levelo://app?vid=11d25991-4e02-4cd5-af98-b74a360492d1","ios":"levelo://app?vid=11d25991-4e02-4cd5-af98-b74a360492d1"},"vehicle_type_id":"4","last_reported":1701425292,"current_range_meters":16000,"station_id":"ce4bhq12rcd13ifvqhig","pricing_plan_id":"free"},{"bike_id":"dc021086-a114-401b-a9ad-5d833e71037d","system_id":"levelo_inurba_marseille","lat":43.288501,"lon":5.393087,"is_reserved":false,"is_disabled":false,"rental_uris":{"android":"levelo://app?vid=dc021086-a114-401b-a9ad-5d833e71037d","ios":"levelo://app?vid=dc021086-a114-401b-a9ad-5d833e71037d"},"vehicle_type_id":"4","last_reported":1701425292,"current_range_meters":23200,"station_id":"ce4bh2p2rcd13ifvqdi0","pricing_plan_id":"free"},{"bike_id":"b780ecc7-a0d0-4a4d-95ef-68b7074da86f","system_id":"levelo_inurba_marseille","lat":43.282744,"lon":5.350533,"is_reserved":false,"is_disabled":false,"rental_uris":{"android":"levelo://app?vid=b780ecc7-a0d0-4a4d-95ef-68b7074da86f","ios":"levelo://app?vid=b780ecc7-a0d0-4a4d-95ef-68b7074da86f"},"vehicle_type_id":"4","last_reported":1701425292,"current_range_meters":30800,"station_id":"ce4bhbp2rcd13ifvqerg","pricing_plan_id":"free"},{"bike_id":"fb51bac7-4c0c-4c3b-abf1-56ae9ca3f739","system_id":"levelo_inurba_marseille","lat":43.282744,"lon":5.350533,"is_reserved":false,"is_disabled":false,"rental_uris":{"android":"levelo://app?vid=fb51bac7-4c0c-4c3b-abf1-56ae9ca3f739","ios":"levelo://app?vid=fb51bac7-4c0c-4c3b-abf1-56ae9ca3f739"},"vehicle_type_id":"4","last_reported":1701425292,"current_range_meters":26000,"station_id":"ce4bhbp2rcd13ifvqerg","pricing_plan_id":"free"},{"bike_id":"d1a5cd16-76d9-4909-939a-e6115a6ba0a4","system_id":"levelo_inurba_marseille","lat":43.282744,"lon":5.350533,"is_reserved":false,"is_disabled":false,"rental_uris":{"android":"levelo://app?vid=d1a5cd16-76d9-4909-939a-e6115a6ba0a4","ios":"levelo://app?vid=d1a5cd16-76d9-4909-939a-e6115a6ba0a4"},"vehicle_type_id":"4","last_reported":1701425292,"current_range_meters":18000,"station_id":"ce4bhbp2rcd13ifvqerg","pricing_plan_id":"free"},{"bike_id":"695cb04f-530a-4122-8521-4ffae64177e5","system_id":"levelo_inurba_marseille","lat":43.28039,"lon":5.369297,"is_reserved":false,"is_disabled":false,"rental_uris":{"android":"levelo://app?vid=695cb04f-530a-4122-8521-4ffae64177e5","ios":"levelo://app?vid=695cb04f-530a-4122-8521-4ffae64177e5"},"vehicle_type_id":"4","last_reported":1701425292,"current_range_meters":27200,"station_id":"ce4bha12rcd13ifvqef0","pricing_plan_id":"free"},{"bike_id":"9b15ef46-30df-42fe-824d-23282580e785","system_id":"levelo_inurba_marseille","lat":43.28039,"lon":5.369297,"is_reserved":false,"is_disabled":false,"rental_uris":{"android":"levelo://app?vid=9b15ef46-30df-42fe-824d-23282580e785","ios":"levelo://app?vid=9b15ef46-30df-42fe-824d-23282580e785"},"vehicle_type_id":"4","last_reported":1701425292,"current_range_meters":31600,"station_id":"ce4bha12rcd13ifvqef0","pricing_plan_id":"free"},{"bike_id":"e4df42fb-4202-4e91-b3e3-1d4bfa7ee058","system_id":"levelo_inurba_marseille","lat":43.29034,"lon":5.39983,"is_reserved":false,"is_disabled":false,"rental_uris":{"android":"levelo://app?vid=e4df42fb-4202-4e91-b3e3-1d4bfa7ee058","ios":"levelo://app?vid=e4df42fb-4202-4e91-b3e3-1d4bfa7ee058"},"vehicle_type_id":"4","last_reported":1701425292,"current_range_meters":22000,"station_id":"ce4bh392rcd13ifvqdm0","pricing_plan_id":"free"},{"bike_id":"b6d8bf4c-7256-4c4a-b54d-7ebdd80e5af6","system_id":"levelo_inurba_marseille","lat":43.29027,"lon":5.39978,"is_reserved":false,"is_disabled":false,"rental_uris":{"android":"levelo://app?vid=b6d8bf4c-7256-4c4a-b54d-7ebdd80e5af6","ios":"levelo://app?vid=b6d8bf4c-7256-4c4a-b54d-7ebdd80e5af6"},"vehicle_type_id":"4","last_reported":1701425292,"current_range_meters":21600,"station_id":"ce4bh392rcd13ifvqdm0","pricing_plan_id":"free"},{"bike_id":"4b5df17a-ea63-46c6-9745-01946fcabdbb","system_id":"levelo_inurba_marseille","lat":43.284317,"lon":5.391844,"is_reserved":false,"is_disabled":false,"rental_uris":{"android":"levelo://app?vid=4b5df17a-ea63-46c6-9745-01946fcabdbb","ios":"levelo://app?vid=4b5df17a-ea63-46c6-9745-01946fcabdbb"},"vehicle_type_id":"4","last_reported":1701425292,"current_range_meters":0,"station_id":"ce4bhoh2rcd13ifvqh5g","pricing_plan_id":"free"},{"bike_id":"80632a84-7204-46f4-a6b8-96cec846656e","system_id":"levelo_inurba_marseille","lat":43.285742,"lon":5.395004,"is_reserved":false,"is_disabled":false,"rental_uris":{"android":"levelo://app?vid=80632a84-7204-46f4-a6b8-96cec846656e","ios":"levelo://app?vid=80632a84-7204-46f4-a6b8-96cec846656e"},"vehicle_type_id":"4","last_reported":1701425292,"current_range_meters":20400,"station_id":"ce4bh292rcd13ifvqdg0","pricing_plan_id":"free"},{"bike_id":"5d88c0e3-21e9-4f59-894b-c801e4262c59","system_id":"levelo_inurba_marseille","lat":43.326605,"lon":5.409903,"is_reserved":false,"is_disabled":false,"rental_uris":{"android":"levelo://app?vid=5d88c0e3-21e9-4f59-894b-c801e4262c59","ios":"levelo://app?vid=5d88c0e3-21e9-4f59-894b-c801e4262c59"},"vehicle_type_id":"4","last_reported":1701425292,"current_range_meters":11200,"station_id":"ce4bhpp2rcd13ifvqhgg","pricing_plan_id":"free"},{"bike_id":"edccd163-f6e1-4e7d-bc68-768d7ebe881c","system_id":"levelo_inurba_marseille","lat":43.32535,"lon":5.41084,"is_reserved":false,"is_disabled":false,"rental_uris":{"android":"levelo://app?vid=edccd163-f6e1-4e7d-bc68-768d7ebe881c","ios":"levelo://app?vid=edccd163-f6e1-4e7d-bc68-768d7ebe881c"},"vehicle_type_id":"4","last_reported":1701425292,"current_range_meters":26400,"station_id":"","pricing_plan_id":"free"},{"bike_id":"7b26b907-740c-4b7e-b2b0-1ffb0dcf43c3","system_id":"levelo_inurba_marseille","lat":43.287154,"lon":5.399979,"is_reserved":false,"is_disabled":false,"rental_uris":{"android":"levelo://app?vid=7b26b907-740c-4b7e-b2b0-1ffb0dcf43c3","ios":"levelo://app?vid=7b26b907-740c-4b7e-b2b0-1ffb0dcf43c3"},"vehicle_type_id":"4","last_reported":1701425292,"current_range_meters":28400,"station_id":"ce4bho92rcd13ifvqh3g","pricing_plan_id":"free"},{"bike_id":"33ba7301-99f3-45e9-b0f5-2b3b058a9961","system_id":"levelo_inurba_marseille","lat":43.320045,"lon":5.415046,"is_reserved":false,"is_disabled":false,"rental_uris":{"android":"levelo://app?vid=33ba7301-99f3-45e9-b0f5-2b3b058a9961","ios":"levelo://app?vid=33ba7301-99f3-45e9-b0f5-2b3b058a9961"},"vehicle_type_id":"4","last_reported":1701425292,"current_range_meters":22800,"station_id":"ce4bhq92rcd13ifvqhkg","pricing_plan_id":"free"},{"bike_id":"4a5aba63-c01c-4815-bb8c-2dcaeefa3378","system_id":"levelo_inurba_marseille","lat":43.325233,"lon":5.414318,"is_reserved":false,"is_disabled":false,"rental_uris":{"android":"levelo://app?vid=4a5aba63-c01c-4815-bb8c-2dcaeefa3378","ios":"levelo://app?vid=4a5aba63-c01c-4815-bb8c-2dcaeefa3378"},"vehicle_type_id":"4","last_reported":1701425292,"current_range_meters":16400,"station_id":"ce4bhq12rcd13ifvqhhg","pricing_plan_id":"free"},{"bike_id":"b733fb37-a63f-44e3-a557-fb3456feeea0","system_id":"levelo_inurba_marseille","lat":43.325233,"lon":5.414318,"is_reserved":false,"is_disabled":false,"rental_uris":{"android":"levelo://app?vid=b733fb37-a63f-44e3-a557-fb3456feeea0","ios":"levelo://app?vid=b733fb37-a63f-44e3-a557-fb3456feeea0"},"vehicle_type_id":"4","last_reported":1701425292,"current_range_meters":17200,"station_id":"ce4bhq12rcd13ifvqhhg","pricing_plan_id":"free"},{"bike_id":"ce731c0a-a769-41a0-af12-a21b87ce2ef8","system_id":"levelo_inurba_marseille","lat":43.325243,"lon":5.414326,"is_reserved":false,"is_disabled":false,"rental_uris":{"android":"levelo://app?vid=ce731c0a-a769-41a0-af12-a21b87ce2ef8","ios":"levelo://app?vid=ce731c0a-a769-41a0-af12-a21b87ce2ef8"},"vehicle_type_id":"4","last_reported":1701425292,"current_range_meters":31200,"station_id":"ce4bhq12rcd13ifvqhhg","pricing_plan_id":"free"},{"bike_id":"9c2fb779-cc47-4c75-a304-c12ef2aa2b25","system_id":"levelo_inurba_marseille","lat":43.27618,"lon":5.36101,"is_reserved":false,"is_disabled":false,"rental_uris":{"android":"levelo://app?vid=9c2fb779-cc47-4c75-a304-c12ef2aa2b25","ios":"levelo://app?vid=9c2fb779-cc47-4c75-a304-c12ef2aa2b25"},"vehicle_type_id":"4","last_reported":1701425292,"current_range_meters":14000,"station_id":"ce4bgj92rcd13ifvqbe0","pricing_plan_id":"free"},{"bike_id":"a0ba15a3-d12e-4ea4-b1d7-15f758773042","system_id":"levelo_inurba_marseille","lat":43.273613,"lon":5.362705,"is_reserved":false,"is_disabled":false,"rental_uris":{"android":"levelo://app?vid=a0ba15a3-d12e-4ea4-b1d7-15f758773042","ios":"levelo://app?vid=a0ba15a3-d12e-4ea4-b1d7-15f758773042"},"vehicle_type_id":"4","last_reported":1701425292,"current_range_meters":22400,"station_id":"ce4bhbh2rcd13ifvqeo0","pricing_plan_id":"free"},{"bike_id":"7a8bc633-5cb7-4cb8-aa03-1d1b4da3af70","system_id":"levelo_inurba_marseille","lat":43.273609,"lon":5.362708,"is_reserved":false,"is_disabled":false,"rental_uris":{"android":"levelo://app?vid=7a8bc633-5cb7-4cb8-aa03-1d1b4da3af70","ios":"levelo://app?vid=7a8bc633-5cb7-4cb8-aa03-1d1b4da3af70"},"vehicle_type_id":"4","last_reported":1701425292,"current_range_meters":28000,"station_id":"ce4bhbh2rcd13ifvqeo0","pricing_plan_id":"free"},{"bike_id":"4105c0c2-28ef-4989-8112-480de19fb62f","system_id":"levelo_inurba_marseille","lat":43.336122,"lon":5.410257,"is_reserved":false,"is_disabled":false,"rental_uris":{"android":"levelo://app?vid=4105c0c2-28ef-4989-8112-480de19fb62f","ios":"levelo://app?vid=4105c0c2-28ef-4989-8112-480de19fb62f"},"vehicle_type_id":"4","last_reported":1701425292,"current_range_meters":0,"station_id":"ce4bhqh2rcd13ifvqhmg","pricing_plan_id":"free"},{"bike_id":"75d0f960-80ea-40d1-a755-552035939c7a","system_id":"levelo_inurba_marseille","lat":43.273613,"lon":5.362705,"is_reserved":false,"is_disabled":false,"rental_uris":{"android":"levelo://app?vid=75d0f960-80ea-40d1-a755-552035939c7a","ios":"levelo://app?vid=75d0f960-80ea-40d1-a755-552035939c7a"},"vehicle_type_id":"4","last_reported":1701425292,"current_range_meters":27600,"station_id":"ce4bhbh2rcd13ifvqeo0","pricing_plan_id":"free"},{"bike_id":"9dc16fa2-eebc-47fb-b528-f9f861ddda62","system_id":"levelo_inurba_marseille","lat":43.279952,"lon":5.400085,"is_reserved":false,"is_disabled":false,"rental_uris":{"android":"levelo://app?vid=9dc16fa2-eebc-47fb-b528-f9f861ddda62","ios":"levelo://app?vid=9dc16fa2-eebc-47fb-b528-f9f861ddda62"},"vehicle_type_id":"4","last_reported":1701425292,"current_range_meters":26400,"station_id":"ce4bho92rcd13ifvqh4g","pricing_plan_id":"free"},{"bike_id":"a862f8d3-9c65-4e03-8387-7b9d5fb1832b","system_id":"levelo_inurba_marseille","lat":43.310785,"lon":5.424305,"is_reserved":false,"is_disabled":false,"rental_uris":{"android":"levelo://app?vid=a862f8d3-9c65-4e03-8387-7b9d5fb1832b","ios":"levelo://app?vid=a862f8d3-9c65-4e03-8387-7b9d5fb1832b"},"vehicle_type_id":"4","last_reported":1701425292,"current_range_meters":31600,"station_id":"ce4bhp92rcd13ifvqhag","pricing_plan_id":"free"},{"bike_id":"717e71d4-a423-4e33-ac89-92ec18fed671","system_id":"levelo_inurba_marseille","lat":43.310785,"lon":5.424305,"is_reserved":false,"is_disabled":false,"rental_uris":{"android":"levelo://app?vid=717e71d4-a423-4e33-ac89-92ec18fed671","ios":"levelo://app?vid=717e71d4-a423-4e33-ac89-92ec18fed671"},"vehicle_type_id":"4","last_reported":1701425292,"current_range_meters":26800,"station_id":"ce4bhp92rcd13ifvqhag","pricing_plan_id":"free"},{"bike_id":"2f711f01-b9ab-4fa4-b7ee-42fd5a353234","system_id":"levelo_inurba_marseille","lat":43.310785,"lon":5.424305,"is_reserved":false,"is_disabled":false,"rental_uris":{"android":"levelo://app?vid=2f711f01-b9ab-4fa4-b7ee-42fd5a353234","ios":"levelo://app?vid=2f711f01-b9ab-4fa4-b7ee-42fd5a353234"},"vehicle_type_id":"4","last_reported":1701425292,"current_range_meters":31600,"station_id":"ce4bhp92rcd13ifvqhag","pricing_plan_id":"free"},{"bike_id":"d6cd08ef-c934-44a0-a330-510b886d15f8","system_id":"levelo_inurba_marseille","lat":43.310785,"lon":5.424305,"is_reserved":false,"is_disabled":false,"rental_uris":{"android":"levelo://app?vid=d6cd08ef-c934-44a0-a330-510b886d15f8","ios":"levelo://app?vid=d6cd08ef-c934-44a0-a330-510b886d15f8"},"vehicle_type_id":"4","last_reported":1701425292,"current_range_meters":31600,"station_id":"ce4bhp92rcd13ifvqhag","pricing_plan_id":"free"},{"bike_id":"d4026725-dd25-4c54-b587-ef51a846128e","system_id":"levelo_inurba_marseille","lat":43.340804,"lon":5.410219,"is_reserved":false,"is_disabled":false,"rental_uris":{"android":"levelo://app?vid=d4026725-dd25-4c54-b587-ef51a846128e","ios":"levelo://app?vid=d4026725-dd25-4c54-b587-ef51a846128e"},"vehicle_type_id":"4","last_reported":1701425292,"current_range_meters":31200,"station_id":"ce4bhqh2rcd13ifvqhlg","pricing_plan_id":"free"},{"bike_id":"de3e8642-1450-4df2-80c0-78076ea97a99","system_id":"levelo_inurba_marseille","lat":43.340804,"lon":5.410219,"is_reserved":false,"is_disabled":false,"rental_uris":{"android":"levelo://app?vid=de3e8642-1450-4df2-80c0-78076ea97a99","ios":"levelo://app?vid=de3e8642-1450-4df2-80c0-78076ea97a99"},"vehicle_type_id":"4","last_reported":1701425292,"current_range_meters":27600,"station_id":"ce4bhqh2rcd13ifvqhlg","pricing_plan_id":"free"},{"bike_id":"86719305-f7f3-4319-9d78-57f0031ff8dc","system_id":"levelo_inurba_marseille","lat":43.340804,"lon":5.410219,"is_reserved":false,"is_disabled":false,"rental_uris":{"android":"levelo://app?vid=86719305-f7f3-4319-9d78-57f0031ff8dc","ios":"levelo://app?vid=86719305-f7f3-4319-9d78-57f0031ff8dc"},"vehicle_type_id":"4","last_reported":1701425292,"current_range_meters":26800,"station_id":"ce4bhqh2rcd13ifvqhlg","pricing_plan_id":"free"},{"bike_id":"f20db6c3-195c-42dd-9124-356ddcc60d6f","system_id":"levelo_inurba_marseille","lat":43.340804,"lon":5.410219,"is_reserved":false,"is_disabled":false,"rental_uris":{"android":"levelo://app?vid=f20db6c3-195c-42dd-9124-356ddcc60d6f","ios":"levelo://app?vid=f20db6c3-195c-42dd-9124-356ddcc60d6f"},"vehicle_type_id":"4","last_reported":1701425292,"current_range_meters":24000,"station_id":"ce4bhqh2rcd13ifvqhlg","pricing_plan_id":"free"},{"bike_id":"711f49d9-ea68-4848-9a43-ccbe2434fa65","system_id":"levelo_inurba_marseille","lat":43.274099,"lon":5.394019,"is_reserved":false,"is_disabled":false,"rental_uris":{"android":"levelo://app?vid=711f49d9-ea68-4848-9a43-ccbe2434fa65","ios":"levelo://app?vid=711f49d9-ea68-4848-9a43-ccbe2434fa65"},"vehicle_type_id":"4","last_reported":1701425292,"current_range_meters":15200,"station_id":"ce4bhdp2rcd13ifvqf20","pricing_plan_id":"free"},{"bike_id":"b02c6bcc-ce83-4c24-adf8-11b8afb0e7d9","system_id":"levelo_inurba_marseille","lat":43.274099,"lon":5.394019,"is_reserved":false,"is_disabled":false,"rental_uris":{"android":"levelo://app?vid=b02c6bcc-ce83-4c24-adf8-11b8afb0e7d9","ios":"levelo://app?vid=b02c6bcc-ce83-4c24-adf8-11b8afb0e7d9"},"vehicle_type_id":"4","last_reported":1701425292,"current_range_meters":29600,"station_id":"ce4bhdp2rcd13ifvqf20","pricing_plan_id":"free"},{"bike_id":"05c44749-814b-4016-8217-6a54a529baa4","system_id":"levelo_inurba_marseille","lat":43.26681,"lon":5.382694,"is_reserved":false,"is_disabled":false,"rental_uris":{"android":"levelo://app?vid=05c44749-814b-4016-8217-6a54a529baa4","ios":"levelo://app?vid=05c44749-814b-4016-8217-6a54a529baa4"},"vehicle_type_id":"4","last_reported":1701425292,"current_range_meters":23200,"station_id":"ce4bhg92rcd13ifvqf90","pricing_plan_id":"free"},{"bike_id":"074d7c53-c267-4753-aa33-3da5891509f9","system_id":"levelo_inurba_marseille","lat":43.295523,"lon":5.422926,"is_reserved":false,"is_disabled":false,"rental_uris":{"android":"levelo://app?vid=074d7c53-c267-4753-aa33-3da5891509f9","ios":"levelo://app?vid=074d7c53-c267-4753-aa33-3da5891509f9"},"vehicle_type_id":"4","last_reported":1701425292,"current_range_meters":9600,"station_id":"ce4bhph2rcd13ifvqhdg","pricing_plan_id":"free"},{"bike_id":"417c69e6-6a4f-4bdd-963e-5db439dc6333","system_id":"levelo_inurba_marseille","lat":43.295523,"lon":5.422926,"is_reserved":false,"is_disabled":false,"rental_uris":{"android":"levelo://app?vid=417c69e6-6a4f-4bdd-963e-5db439dc6333","ios":"levelo://app?vid=417c69e6-6a4f-4bdd-963e-5db439dc6333"},"vehicle_type_id":"4","last_reported":1701425292,"current_range_meters":18400,"station_id":"ce4bhph2rcd13ifvqhdg","pricing_plan_id":"free"},{"bike_id":"eff3e467-b6de-457a-b6cd-4671a56a96b0","system_id":"levelo_inurba_marseille","lat":43.295511,"lon":5.422926,"is_reserved":false,"is_disabled":false,"rental_uris":{"android":"levelo://app?vid=eff3e467-b6de-457a-b6cd-4671a56a96b0","ios":"levelo://app?vid=eff3e467-b6de-457a-b6cd-4671a56a96b0"},"vehicle_type_id":"4","last_reported":1701425292,"current_range_meters":24400,"station_id":"ce4bhph2rcd13ifvqhdg","pricing_plan_id":"free"},{"bike_id":"ad319ad3-5072-496b-979f-e5645940bdaf","system_id":"levelo_inurba_marseille","lat":43.29548,"lon":5.42297,"is_reserved":false,"is_disabled":false,"rental_uris":{"android":"levelo://app?vid=ad319ad3-5072-496b-979f-e5645940bdaf","ios":"levelo://app?vid=ad319ad3-5072-496b-979f-e5645940bdaf"},"vehicle_type_id":"4","last_reported":1701425292,"current_range_meters":22400,"station_id":"ce4bhph2rcd13ifvqhdg","pricing_plan_id":"free"},{"bike_id":"3dde0544-2c14-4c75-8559-52db2d4b1824","system_id":"levelo_inurba_marseille","lat":43.272124,"lon":5.391768,"is_reserved":false,"is_disabled":false,"rental_uris":{"android":"levelo://app?vid=3dde0544-2c14-4c75-8559-52db2d4b1824","ios":"levelo://app?vid=3dde0544-2c14-4c75-8559-52db2d4b1824"},"vehicle_type_id":"4","last_reported":1701425292,"current_range_meters":16000,"station_id":"ce4bhhp2rcd13ifvqfm0","pricing_plan_id":"free"},{"bike_id":"ecf5fc08-392f-4626-8ff3-ad8d84813f71","system_id":"levelo_inurba_marseille","lat":43.278128,"lon":5.407195,"is_reserved":false,"is_disabled":false,"rental_uris":{"android":"levelo://app?vid=ecf5fc08-392f-4626-8ff3-ad8d84813f71","ios":"levelo://app?vid=ecf5fc08-392f-4626-8ff3-ad8d84813f71"},"vehicle_type_id":"4","last_reported":1701425292,"current_range_meters":17600,"station_id":"ce4bhnh2rcd13ifvqgtg","pricing_plan_id":"free"},{"bike_id":"b9eb8be7-7bda-48a7-86b9-0631fb094831","system_id":"levelo_inurba_marseille","lat":43.278128,"lon":5.407195,"is_reserved":false,"is_disabled":false,"rental_uris":{"android":"levelo://app?vid=b9eb8be7-7bda-48a7-86b9-0631fb094831","ios":"levelo://app?vid=b9eb8be7-7bda-48a7-86b9-0631fb094831"},"vehicle_type_id":"4","last_reported":1701425292,"current_range_meters":30000,"station_id":"ce4bhnh2rcd13ifvqgtg","pricing_plan_id":"free"},{"bike_id":"120de992-b7b7-47ce-af26-2eb102c4a443","system_id":"levelo_inurba_marseille","lat":43.278128,"lon":5.407195,"is_reserved":false,"is_disabled":false,"rental_uris":{"android":"levelo://app?vid=120de992-b7b7-47ce-af26-2eb102c4a443","ios":"levelo://app?vid=120de992-b7b7-47ce-af26-2eb102c4a443"},"vehicle_type_id":"4","last_reported":1701425292,"current_range_meters":9200,"station_id":"ce4bhnh2rcd13ifvqgtg","pricing_plan_id":"free"},{"bike_id":"f008a1a1-d71b-4e90-9a8e-e9814ce1b31a","system_id":"levelo_inurba_marseille","lat":43.269467,"lon":5.386439,"is_reserved":false,"is_disabled":false,"rental_uris":{"android":"levelo://app?vid=f008a1a1-d71b-4e90-9a8e-e9814ce1b31a","ios":"levelo://app?vid=f008a1a1-d71b-4e90-9a8e-e9814ce1b31a"},"vehicle_type_id":"4","last_reported":1701425292,"current_range_meters":14000,"station_id":"ce4bhh92rcd13ifvqfh0","pricing_plan_id":"free"},{"bike_id":"0a22af23-c25d-475b-966f-cad84d1c4a89","system_id":"levelo_inurba_marseille","lat":43.26681,"lon":5.382694,"is_reserved":false,"is_disabled":false,"rental_uris":{"android":"levelo://app?vid=0a22af23-c25d-475b-966f-cad84d1c4a89","ios":"levelo://app?vid=0a22af23-c25d-475b-966f-cad84d1c4a89"},"vehicle_type_id":"4","last_reported":1701425292,"current_range_meters":24400,"station_id":"ce4bhg92rcd13ifvqf90","pricing_plan_id":"free"},{"bike_id":"32755a4f-fc5c-4036-affd-002a1d512c5c","system_id":"levelo_inurba_marseille","lat":43.26681,"lon":5.382694,"is_reserved":false,"is_disabled":false,"rental_uris":{"android":"levelo://app?vid=32755a4f-fc5c-4036-affd-002a1d512c5c","ios":"levelo://app?vid=32755a4f-fc5c-4036-affd-002a1d512c5c"},"vehicle_type_id":"4","last_reported":1701425292,"current_range_meters":23200,"station_id":"ce4bhg92rcd13ifvqf90","pricing_plan_id":"free"},{"bike_id":"1ca85fb9-0671-49ef-bfab-c205e4334a98","system_id":"levelo_inurba_marseille","lat":43.26681,"lon":5.382694,"is_reserved":false,"is_disabled":false,"rental_uris":{"android":"levelo://app?vid=1ca85fb9-0671-49ef-bfab-c205e4334a98","ios":"levelo://app?vid=1ca85fb9-0671-49ef-bfab-c205e4334a98"},"vehicle_type_id":"4","last_reported":1701425292,"current_range_meters":27200,"station_id":"ce4bhg92rcd13ifvqf90","pricing_plan_id":"free"},{"bike_id":"62b579b1-b710-40d1-93c0-0a9fb777bc87","system_id":"levelo_inurba_marseille","lat":43.26681,"lon":5.382694,"is_reserved":false,"is_disabled":false,"rental_uris":{"android":"levelo://app?vid=62b579b1-b710-40d1-93c0-0a9fb777bc87","ios":"levelo://app?vid=62b579b1-b710-40d1-93c0-0a9fb777bc87"},"vehicle_type_id":"4","last_reported":1701425292,"current_range_meters":11600,"station_id":"ce4bhg92rcd13ifvqf90","pricing_plan_id":"free"},{"bike_id":"51691c18-c89c-4fff-bd7f-ca085470dcf8","system_id":"levelo_inurba_marseille","lat":43.26681,"lon":5.382694,"is_reserved":false,"is_disabled":false,"rental_uris":{"android":"levelo://app?vid=51691c18-c89c-4fff-bd7f-ca085470dcf8","ios":"levelo://app?vid=51691c18-c89c-4fff-bd7f-ca085470dcf8"},"vehicle_type_id":"4","last_reported":1701425292,"current_range_meters":10400,"station_id":"ce4bhg92rcd13ifvqf90","pricing_plan_id":"free"},{"bike_id":"70e785fb-a7de-44b8-a8c4-01afa0c2577c","system_id":"levelo_inurba_marseille","lat":43.26681,"lon":5.382694,"is_reserved":false,"is_disabled":false,"rental_uris":{"android":"levelo://app?vid=70e785fb-a7de-44b8-a8c4-01afa0c2577c","ios":"levelo://app?vid=70e785fb-a7de-44b8-a8c4-01afa0c2577c"},"vehicle_type_id":"4","last_reported":1701425292,"current_range_meters":22000,"station_id":"ce4bhg92rcd13ifvqf90","pricing_plan_id":"free"},{"bike_id":"354f21f6-fa94-458d-b209-6a7c70048ea6","system_id":"levelo_inurba_marseille","lat":43.26681,"lon":5.382694,"is_reserved":false,"is_disabled":false,"rental_uris":{"android":"levelo://app?vid=354f21f6-fa94-458d-b209-6a7c70048ea6","ios":"levelo://app?vid=354f21f6-fa94-458d-b209-6a7c70048ea6"},"vehicle_type_id":"4","last_reported":1701425292,"current_range_meters":19600,"station_id":"ce4bhg92rcd13ifvqf90","pricing_plan_id":"free"},{"bike_id":"bc0bf0ac-ab02-43a5-add1-5a50b7dffb98","system_id":"levelo_inurba_marseille","lat":43.265714,"lon":5.372891,"is_reserved":false,"is_disabled":false,"rental_uris":{"android":"levelo://app?vid=bc0bf0ac-ab02-43a5-add1-5a50b7dffb98","ios":"levelo://app?vid=bc0bf0ac-ab02-43a5-add1-5a50b7dffb98"},"vehicle_type_id":"4","last_reported":1701425292,"current_range_meters":29600,"station_id":"ce4bhg12rcd13ifvqf70","pricing_plan_id":"free"},{"bike_id":"3fdabccc-9366-442c-866d-685c36da6b9d","system_id":"levelo_inurba_marseille","lat":43.26549,"lon":5.37308,"is_reserved":false,"is_disabled":false,"rental_uris":{"android":"levelo://app?vid=3fdabccc-9366-442c-866d-685c36da6b9d","ios":"levelo://app?vid=3fdabccc-9366-442c-866d-685c36da6b9d"},"vehicle_type_id":"4","last_reported":1701425292,"current_range_meters":26800,"station_id":"ce4bhg12rcd13ifvqf70","pricing_plan_id":"free"},{"bike_id":"d896a507-2006-420c-bc66-9de9579ee388","system_id":"levelo_inurba_marseille","lat":43.27996,"lon":5.416624,"is_reserved":false,"is_disabled":false,"rental_uris":{"android":"levelo://app?vid=d896a507-2006-420c-bc66-9de9579ee388","ios":"levelo://app?vid=d896a507-2006-420c-bc66-9de9579ee388"},"vehicle_type_id":"4","last_reported":1701425292,"current_range_meters":26400,"station_id":"ce4bho12rcd13ifvqh1g","pricing_plan_id":"free"},{"bike_id":"b72968a7-c841-450c-aee6-e38f6afcbfaa","system_id":"levelo_inurba_marseille","lat":43.265714,"lon":5.372891,"is_reserved":false,"is_disabled":false,"rental_uris":{"android":"levelo://app?vid=b72968a7-c841-450c-aee6-e38f6afcbfaa","ios":"levelo://app?vid=b72968a7-c841-450c-aee6-e38f6afcbfaa"},"vehicle_type_id":"4","last_reported":1701425292,"current_range_meters":15600,"station_id":"ce4bhg12rcd13ifvqf70","pricing_plan_id":"free"},{"bike_id":"6394474e-85a8-4fc5-ba69-bca97359fd9e","system_id":"levelo_inurba_marseille","lat":43.317104,"lon":5.436818,"is_reserved":false,"is_disabled":false,"rental_uris":{"android":"levelo://app?vid=6394474e-85a8-4fc5-ba69-bca97359fd9e","ios":"levelo://app?vid=6394474e-85a8-4fc5-ba69-bca97359fd9e"},"vehicle_type_id":"4","last_reported":1701425292,"current_range_meters":11600,"station_id":"ce4bhp92rcd13ifvqhcg","pricing_plan_id":"free"},{"bike_id":"f034ef14-36cd-4aca-ba0d-4a84bd730784","system_id":"levelo_inurba_marseille","lat":43.261782,"lon":5.374515,"is_reserved":false,"is_disabled":false,"rental_uris":{"android":"levelo://app?vid=f034ef14-36cd-4aca-ba0d-4a84bd730784","ios":"levelo://app?vid=f034ef14-36cd-4aca-ba0d-4a84bd730784"},"vehicle_type_id":"4","last_reported":1701425292,"current_range_meters":30400,"station_id":"ce4bhgp2rcd13ifvqfc0","pricing_plan_id":"free"},{"bike_id":"4f4774f0-e07c-48ea-98cc-72cd130182cd","system_id":"levelo_inurba_marseille","lat":43.271368,"lon":5.40928,"is_reserved":false,"is_disabled":false,"rental_uris":{"android":"levelo://app?vid=4f4774f0-e07c-48ea-98cc-72cd130182cd","ios":"levelo://app?vid=4f4774f0-e07c-48ea-98cc-72cd130182cd"},"vehicle_type_id":"4","last_reported":1701425292,"current_range_meters":29600,"station_id":"ce4bhl12rcd13ifvqgf0","pricing_plan_id":"free"},{"bike_id":"a2c49e56-bf78-4ddf-a929-e9fc6999f390","system_id":"levelo_inurba_marseille","lat":43.267959,"lon":5.402685,"is_reserved":false,"is_disabled":false,"rental_uris":{"android":"levelo://app?vid=a2c49e56-bf78-4ddf-a929-e9fc6999f390","ios":"levelo://app?vid=a2c49e56-bf78-4ddf-a929-e9fc6999f390"},"vehicle_type_id":"4","last_reported":1701425292,"current_range_meters":29200,"station_id":"ce501612rcd8frsf0b60","pricing_plan_id":"free"},{"bike_id":"3e4fb47e-33e8-4ee2-bfc1-1bd948cfa529","system_id":"levelo_inurba_marseille","lat":43.281548,"lon":5.42643,"is_reserved":false,"is_disabled":false,"rental_uris":{"android":"levelo://app?vid=3e4fb47e-33e8-4ee2-bfc1-1bd948cfa529","ios":"levelo://app?vid=3e4fb47e-33e8-4ee2-bfc1-1bd948cfa529"},"vehicle_type_id":"4","last_reported":1701425292,"current_range_meters":31200,"station_id":"ce4bhnh2rcd13ifvqgug","pricing_plan_id":"free"},{"bike_id":"a265f57d-2203-4406-8278-bc194922c399","system_id":"levelo_inurba_marseille","lat":43.28151,"lon":5.42639,"is_reserved":false,"is_disabled":false,"rental_uris":{"android":"levelo://app?vid=a265f57d-2203-4406-8278-bc194922c399","ios":"levelo://app?vid=a265f57d-2203-4406-8278-bc194922c399"},"vehicle_type_id":"4","last_reported":1701425292,"current_range_meters":31200,"station_id":"ce4bhnh2rcd13ifvqgug","pricing_plan_id":"free"},{"bike_id":"661b081b-30d3-46e6-9099-960f25586a56","system_id":"levelo_inurba_marseille","lat":43.281548,"lon":5.42643,"is_reserved":false,"is_disabled":false,"rental_uris":{"android":"levelo://app?vid=661b081b-30d3-46e6-9099-960f25586a56","ios":"levelo://app?vid=661b081b-30d3-46e6-9099-960f25586a56"},"vehicle_type_id":"4","last_reported":1701425292,"current_range_meters":18000,"station_id":"ce4bhnh2rcd13ifvqgug","pricing_plan_id":"free"},{"bike_id":"cb609a7b-f9ee-4981-a18f-2f84ebe6425d","system_id":"levelo_inurba_marseille","lat":43.281548,"lon":5.42643,"is_reserved":false,"is_disabled":false,"rental_uris":{"android":"levelo://app?vid=cb609a7b-f9ee-4981-a18f-2f84ebe6425d","ios":"levelo://app?vid=cb609a7b-f9ee-4981-a18f-2f84ebe6425d"},"vehicle_type_id":"4","last_reported":1701425292,"current_range_meters":30000,"station_id":"ce4bhnh2rcd13ifvqgug","pricing_plan_id":"free"},{"bike_id":"08ee9831-e27a-4de6-b434-68bc147048ef","system_id":"levelo_inurba_marseille","lat":43.281548,"lon":5.42643,"is_reserved":false,"is_disabled":false,"rental_uris":{"android":"levelo://app?vid=08ee9831-e27a-4de6-b434-68bc147048ef","ios":"levelo://app?vid=08ee9831-e27a-4de6-b434-68bc147048ef"},"vehicle_type_id":"4","last_reported":1701425292,"current_range_meters":31200,"station_id":"ce4bhnh2rcd13ifvqgug","pricing_plan_id":"free"},{"bike_id":"3532a786-7312-4db1-88be-2e5e8a274941","system_id":"levelo_inurba_marseille","lat":43.281548,"lon":5.42643,"is_reserved":false,"is_disabled":false,"rental_uris":{"android":"levelo://app?vid=3532a786-7312-4db1-88be-2e5e8a274941","ios":"levelo://app?vid=3532a786-7312-4db1-88be-2e5e8a274941"},"vehicle_type_id":"4","last_reported":1701425292,"current_range_meters":26800,"station_id":"ce4bhnh2rcd13ifvqgug","pricing_plan_id":"free"},{"bike_id":"c0542724-5adc-45ab-85e0-291da76b61a2","system_id":"levelo_inurba_marseille","lat":43.27497,"lon":5.42444,"is_reserved":false,"is_disabled":false,"rental_uris":{"android":"levelo://app?vid=c0542724-5adc-45ab-85e0-291da76b61a2","ios":"levelo://app?vid=c0542724-5adc-45ab-85e0-291da76b61a2"},"vehicle_type_id":"4","last_reported":1701425292,"current_range_meters":18800,"station_id":"ce4bhn92rcd13ifvqgrg","pricing_plan_id":"free"},{"bike_id":"6a220d8f-ad77-4977-a672-f4a2573116d3","system_id":"levelo_inurba_marseille","lat":43.274958,"lon":5.42448,"is_reserved":false,"is_disabled":false,"rental_uris":{"android":"levelo://app?vid=6a220d8f-ad77-4977-a672-f4a2573116d3","ios":"levelo://app?vid=6a220d8f-ad77-4977-a672-f4a2573116d3"},"vehicle_type_id":"4","last_reported":1701425292,"current_range_meters":20000,"station_id":"ce4bhn92rcd13ifvqgrg","pricing_plan_id":"free"},{"bike_id":"5275b2c7-f1b0-4393-bb76-e3a85b467510","system_id":"levelo_inurba_marseille","lat":43.26088,"lon":5.39762,"is_reserved":false,"is_disabled":false,"rental_uris":{"android":"levelo://app?vid=5275b2c7-f1b0-4393-bb76-e3a85b467510","ios":"levelo://app?vid=5275b2c7-f1b0-4393-bb76-e3a85b467510"},"vehicle_type_id":"4","last_reported":1701425292,"current_range_meters":21200,"station_id":"","pricing_plan_id":"free"},{"bike_id":"3239c9df-4933-4bb8-82ad-ec0f8b9c511d","system_id":"levelo_inurba_marseille","lat":43.25579,"lon":5.38234,"is_reserved":false,"is_disabled":false,"rental_uris":{"android":"levelo://app?vid=3239c9df-4933-4bb8-82ad-ec0f8b9c511d","ios":"levelo://app?vid=3239c9df-4933-4bb8-82ad-ec0f8b9c511d"},"vehicle_type_id":"4","last_reported":1701425292,"current_range_meters":24000,"station_id":"ce4bhih2rcd13ifvqfs0","pricing_plan_id":"free"},{"bike_id":"7b5a692f-8620-4269-b938-b35847cae01d","system_id":"levelo_inurba_marseille","lat":43.258224,"lon":5.394369,"is_reserved":false,"is_disabled":false,"rental_uris":{"android":"levelo://app?vid=7b5a692f-8620-4269-b938-b35847cae01d","ios":"levelo://app?vid=7b5a692f-8620-4269-b938-b35847cae01d"},"vehicle_type_id":"4","last_reported":1701425292,"current_range_meters":30400,"station_id":"ce4bhip2rcd13ifvqft0","pricing_plan_id":"free"},{"bike_id":"8299eda0-ba6f-4c6d-93a9-7aacddef83f3","system_id":"levelo_inurba_marseille","lat":43.254947,"lon":5.376454,"is_reserved":false,"is_disabled":false,"rental_uris":{"android":"levelo://app?vid=8299eda0-ba6f-4c6d-93a9-7aacddef83f3","ios":"levelo://app?vid=8299eda0-ba6f-4c6d-93a9-7aacddef83f3"},"vehicle_type_id":"4","last_reported":1701425292,"current_range_meters":30000,"station_id":"ce4bhh12rcd13ifvqff0","pricing_plan_id":"free"},{"bike_id":"4b6cd26e-9f31-4ae2-97cb-a20cc5c3fe7e","system_id":"levelo_inurba_marseille","lat":43.27073,"lon":5.42279,"is_reserved":false,"is_disabled":false,"rental_uris":{"android":"levelo://app?vid=4b6cd26e-9f31-4ae2-97cb-a20cc5c3fe7e","ios":"levelo://app?vid=4b6cd26e-9f31-4ae2-97cb-a20cc5c3fe7e"},"vehicle_type_id":"4","last_reported":1701425292,"current_range_meters":15200,"station_id":"ce4bhk92rcd13ifvqgb0","pricing_plan_id":"free"},{"bike_id":"39a41fc6-fb12-4304-b9bd-c12fd73ba948","system_id":"levelo_inurba_marseille","lat":43.270721,"lon":5.422764,"is_reserved":false,"is_disabled":false,"rental_uris":{"android":"levelo://app?vid=39a41fc6-fb12-4304-b9bd-c12fd73ba948","ios":"levelo://app?vid=39a41fc6-fb12-4304-b9bd-c12fd73ba948"},"vehicle_type_id":"4","last_reported":1701425292,"current_range_meters":31200,"station_id":"ce4bhk92rcd13ifvqgb0","pricing_plan_id":"free"},{"bike_id":"d28c2101-138c-4829-a4d2-de1aa91912ed","system_id":"levelo_inurba_marseille","lat":43.270721,"lon":5.422764,"is_reserved":false,"is_disabled":false,"rental_uris":{"android":"levelo://app?vid=d28c2101-138c-4829-a4d2-de1aa91912ed","ios":"levelo://app?vid=d28c2101-138c-4829-a4d2-de1aa91912ed"},"vehicle_type_id":"4","last_reported":1701425292,"current_range_meters":10000,"station_id":"ce4bhk92rcd13ifvqgb0","pricing_plan_id":"free"},{"bike_id":"2e8cc1f5-1e9a-4211-8d71-225cdc6b3eb9","system_id":"levelo_inurba_marseille","lat":43.250023,"lon":5.38919,"is_reserved":false,"is_disabled":false,"rental_uris":{"android":"levelo://app?vid=2e8cc1f5-1e9a-4211-8d71-225cdc6b3eb9","ios":"levelo://app?vid=2e8cc1f5-1e9a-4211-8d71-225cdc6b3eb9"},"vehicle_type_id":"4","last_reported":1701425292,"current_range_meters":9200,"station_id":"ce4bhgp2rcd13ifvqfd0","pricing_plan_id":"free"},{"bike_id":"02c6733d-102c-435d-9d26-d75c3b9a8ca5","system_id":"levelo_inurba_marseille","lat":43.250023,"lon":5.38919,"is_reserved":false,"is_disabled":false,"rental_uris":{"android":"levelo://app?vid=02c6733d-102c-435d-9d26-d75c3b9a8ca5","ios":"levelo://app?vid=02c6733d-102c-435d-9d26-d75c3b9a8ca5"},"vehicle_type_id":"4","last_reported":1701425292,"current_range_meters":7200,"station_id":"ce4bhgp2rcd13ifvqfd0","pricing_plan_id":"free"},{"bike_id":"be30aff5-fbcc-4b18-b536-1b1e3fd71369","system_id":"levelo_inurba_marseille","lat":43.250023,"lon":5.38919,"is_reserved":false,"is_disabled":false,"rental_uris":{"android":"levelo://app?vid=be30aff5-fbcc-4b18-b536-1b1e3fd71369","ios":"levelo://app?vid=be30aff5-fbcc-4b18-b536-1b1e3fd71369"},"vehicle_type_id":"4","last_reported":1701425292,"current_range_meters":30800,"station_id":"ce4bhgp2rcd13ifvqfd0","pricing_plan_id":"free"},{"bike_id":"81add6dd-6142-4032-b31b-4d68dd335bf5","system_id":"levelo_inurba_marseille","lat":43.249939,"lon":5.389443,"is_reserved":false,"is_disabled":false,"rental_uris":{"android":"levelo://app?vid=81add6dd-6142-4032-b31b-4d68dd335bf5","ios":"levelo://app?vid=81add6dd-6142-4032-b31b-4d68dd335bf5"},"vehicle_type_id":"4","last_reported":1701425292,"current_range_meters":19200,"station_id":"","pricing_plan_id":"free"},{"bike_id":"732665e2-c9f6-46bb-8f74-6cb0802c01f7","system_id":"levelo_inurba_marseille","lat":43.24666,"lon":5.38158,"is_reserved":false,"is_disabled":false,"rental_uris":{"android":"levelo://app?vid=732665e2-c9f6-46bb-8f74-6cb0802c01f7","ios":"levelo://app?vid=732665e2-c9f6-46bb-8f74-6cb0802c01f7"},"vehicle_type_id":"4","last_reported":1701425292,"current_range_meters":0,"station_id":"ce4bhih2rcd13ifvqfr0","pricing_plan_id":"free"},{"bike_id":"59cf6d6b-d7f0-4625-8cd9-7b7a3fc5ea32","system_id":"levelo_inurba_marseille","lat":43.25102,"lon":5.403214,"is_reserved":false,"is_disabled":false,"rental_uris":{"android":"levelo://app?vid=59cf6d6b-d7f0-4625-8cd9-7b7a3fc5ea32","ios":"levelo://app?vid=59cf6d6b-d7f0-4625-8cd9-7b7a3fc5ea32"},"vehicle_type_id":"4","last_reported":1701425292,"current_range_meters":27200,"station_id":"ce4bhlh2rcd13ifvqgig","pricing_plan_id":"free"},{"bike_id":"a6fb93bb-27c3-4cc3-95bf-e4dbd1c05b01","system_id":"levelo_inurba_marseille","lat":43.25102,"lon":5.403214,"is_reserved":false,"is_disabled":false,"rental_uris":{"android":"levelo://app?vid=a6fb93bb-27c3-4cc3-95bf-e4dbd1c05b01","ios":"levelo://app?vid=a6fb93bb-27c3-4cc3-95bf-e4dbd1c05b01"},"vehicle_type_id":"4","last_reported":1701425292,"current_range_meters":30800,"station_id":"ce4bhlh2rcd13ifvqgig","pricing_plan_id":"free"},{"bike_id":"c2f1e999-97d1-4144-8d54-51ab8659f27c","system_id":"levelo_inurba_marseille","lat":43.25102,"lon":5.403214,"is_reserved":false,"is_disabled":false,"rental_uris":{"android":"levelo://app?vid=c2f1e999-97d1-4144-8d54-51ab8659f27c","ios":"levelo://app?vid=c2f1e999-97d1-4144-8d54-51ab8659f27c"},"vehicle_type_id":"4","last_reported":1701425292,"current_range_meters":22000,"station_id":"ce4bhlh2rcd13ifvqgig","pricing_plan_id":"free"},{"bike_id":"e791f8d3-8957-42b4-8101-aea576b91388","system_id":"levelo_inurba_marseille","lat":43.25102,"lon":5.403214,"is_reserved":false,"is_disabled":false,"rental_uris":{"android":"levelo://app?vid=e791f8d3-8957-42b4-8101-aea576b91388","ios":"levelo://app?vid=e791f8d3-8957-42b4-8101-aea576b91388"},"vehicle_type_id":"4","last_reported":1701425292,"current_range_meters":31600,"station_id":"ce4bhlh2rcd13ifvqgig","pricing_plan_id":"free"},{"bike_id":"fd3461e4-1744-459a-9a63-ffaaba8fe639","system_id":"levelo_inurba_marseille","lat":43.25102,"lon":5.403214,"is_reserved":false,"is_disabled":false,"rental_uris":{"android":"levelo://app?vid=fd3461e4-1744-459a-9a63-ffaaba8fe639","ios":"levelo://app?vid=fd3461e4-1744-459a-9a63-ffaaba8fe639"},"vehicle_type_id":"4","last_reported":1701425292,"current_range_meters":5600,"station_id":"ce4bhlh2rcd13ifvqgig","pricing_plan_id":"free"},{"bike_id":"251ce5e7-acea-418e-9a44-6e58b0a9a360","system_id":"levelo_inurba_marseille","lat":43.2511,"lon":5.4033,"is_reserved":false,"is_disabled":false,"rental_uris":{"android":"levelo://app?vid=251ce5e7-acea-418e-9a44-6e58b0a9a360","ios":"levelo://app?vid=251ce5e7-acea-418e-9a44-6e58b0a9a360"},"vehicle_type_id":"4","last_reported":1701425292,"current_range_meters":19200,"station_id":"","pricing_plan_id":"free"},{"bike_id":"edc0e680-2548-4339-8fb5-1532d40e4393","system_id":"levelo_inurba_marseille","lat":43.25102,"lon":5.403214,"is_reserved":false,"is_disabled":false,"rental_uris":{"android":"levelo://app?vid=edc0e680-2548-4339-8fb5-1532d40e4393","ios":"levelo://app?vid=edc0e680-2548-4339-8fb5-1532d40e4393"},"vehicle_type_id":"4","last_reported":1701425292,"current_range_meters":29600,"station_id":"ce4bhlh2rcd13ifvqgig","pricing_plan_id":"free"},{"bike_id":"c0e62aaa-5463-40b9-b530-ba2c8260d22b","system_id":"levelo_inurba_marseille","lat":43.25102,"lon":5.403214,"is_reserved":false,"is_disabled":false,"rental_uris":{"android":"levelo://app?vid=c0e62aaa-5463-40b9-b530-ba2c8260d22b","ios":"levelo://app?vid=c0e62aaa-5463-40b9-b530-ba2c8260d22b"},"vehicle_type_id":"4","last_reported":1701425292,"current_range_meters":28400,"station_id":"ce4bhlh2rcd13ifvqgig","pricing_plan_id":"free"},{"bike_id":"6328460b-f25d-447a-9163-7305c5a26e54","system_id":"levelo_inurba_marseille","lat":43.25059,"lon":5.40391,"is_reserved":false,"is_disabled":false,"rental_uris":{"android":"levelo://app?vid=6328460b-f25d-447a-9163-7305c5a26e54","ios":"levelo://app?vid=6328460b-f25d-447a-9163-7305c5a26e54"},"vehicle_type_id":"4","last_reported":1701425292,"current_range_meters":23600,"station_id":"","pricing_plan_id":"free"},{"bike_id":"3da38adb-17bb-47a1-b2b1-5ea50dcafb3d","system_id":"levelo_inurba_marseille","lat":43.25095,"lon":5.4055,"is_reserved":false,"is_disabled":false,"rental_uris":{"android":"levelo://app?vid=3da38adb-17bb-47a1-b2b1-5ea50dcafb3d","ios":"levelo://app?vid=3da38adb-17bb-47a1-b2b1-5ea50dcafb3d"},"vehicle_type_id":"4","last_reported":1701425292,"current_range_meters":14000,"station_id":"","pricing_plan_id":"free"},{"bike_id":"e0e24483-9bcf-45d9-bbfa-46e4151a6b36","system_id":"levelo_inurba_marseille","lat":43.25072,"lon":5.40536,"is_reserved":false,"is_disabled":false,"rental_uris":{"android":"levelo://app?vid=e0e24483-9bcf-45d9-bbfa-46e4151a6b36","ios":"levelo://app?vid=e0e24483-9bcf-45d9-bbfa-46e4151a6b36"},"vehicle_type_id":"4","last_reported":1701425292,"current_range_meters":30800,"station_id":"","pricing_plan_id":"free"},{"bike_id":"7ba9088a-340f-416f-8ba5-cad713ef11a0","system_id":"levelo_inurba_marseille","lat":43.243883,"lon":5.370578,"is_reserved":false,"is_disabled":false,"rental_uris":{"android":"levelo://app?vid=7ba9088a-340f-416f-8ba5-cad713ef11a0","ios":"levelo://app?vid=7ba9088a-340f-416f-8ba5-cad713ef11a0"},"vehicle_type_id":"4","last_reported":1701425292,"current_range_meters":27200,"station_id":"ce4bhnp2rcd13ifvqgvg","pricing_plan_id":"free"},{"bike_id":"617c2135-7e00-4ffc-8c72-4702fa3c52ad","system_id":"levelo_inurba_marseille","lat":43.24077,"lon":5.3776,"is_reserved":false,"is_disabled":false,"rental_uris":{"android":"levelo://app?vid=617c2135-7e00-4ffc-8c72-4702fa3c52ad","ios":"levelo://app?vid=617c2135-7e00-4ffc-8c72-4702fa3c52ad"},"vehicle_type_id":"4","last_reported":1701425292,"current_range_meters":21200,"station_id":"ce4bhnp2rcd13ifvqgvg","pricing_plan_id":"free"},{"bike_id":"ae5f639a-05f1-4fb3-b63d-63646b9331ef","system_id":"levelo_inurba_marseille","lat":43.24076,"lon":5.37755,"is_reserved":false,"is_disabled":false,"rental_uris":{"android":"levelo://app?vid=ae5f639a-05f1-4fb3-b63d-63646b9331ef","ios":"levelo://app?vid=ae5f639a-05f1-4fb3-b63d-63646b9331ef"},"vehicle_type_id":"4","last_reported":1701425292,"current_range_meters":6000,"station_id":"ce4bhnp2rcd13ifvqgvg","pricing_plan_id":"free"},{"bike_id":"93f73566-622c-4ec8-9b11-ebca7fafe29d","system_id":"levelo_inurba_marseille","lat":43.24076,"lon":5.37756,"is_reserved":false,"is_disabled":false,"rental_uris":{"android":"levelo://app?vid=93f73566-622c-4ec8-9b11-ebca7fafe29d","ios":"levelo://app?vid=93f73566-622c-4ec8-9b11-ebca7fafe29d"},"vehicle_type_id":"4","last_reported":1701425292,"current_range_meters":14000,"station_id":"ce4bhnp2rcd13ifvqgvg","pricing_plan_id":"free"},{"bike_id":"da2c7a8c-76d4-4d96-9cc0-dd7ac3cc02c3","system_id":"levelo_inurba_marseille","lat":43.24076,"lon":5.3776,"is_reserved":false,"is_disabled":false,"rental_uris":{"android":"levelo://app?vid=da2c7a8c-76d4-4d96-9cc0-dd7ac3cc02c3","ios":"levelo://app?vid=da2c7a8c-76d4-4d96-9cc0-dd7ac3cc02c3"},"vehicle_type_id":"4","last_reported":1701425292,"current_range_meters":10800,"station_id":"ce4bhnp2rcd13ifvqgvg","pricing_plan_id":"free"},{"bike_id":"22af8a33-5d19-4f58-a48b-393cf5164aa7","system_id":"levelo_inurba_marseille","lat":43.24075,"lon":5.37756,"is_reserved":false,"is_disabled":false,"rental_uris":{"android":"levelo://app?vid=22af8a33-5d19-4f58-a48b-393cf5164aa7","ios":"levelo://app?vid=22af8a33-5d19-4f58-a48b-393cf5164aa7"},"vehicle_type_id":"4","last_reported":1701425292,"current_range_meters":30400,"station_id":"ce4bhnp2rcd13ifvqgvg","pricing_plan_id":"free"},{"bike_id":"168c9a65-5caf-4575-a261-728005b57a26","system_id":"levelo_inurba_marseille","lat":43.24075,"lon":5.3776,"is_reserved":false,"is_disabled":false,"rental_uris":{"android":"levelo://app?vid=168c9a65-5caf-4575-a261-728005b57a26","ios":"levelo://app?vid=168c9a65-5caf-4575-a261-728005b57a26"},"vehicle_type_id":"4","last_reported":1701425292,"current_range_meters":17200,"station_id":"ce4bhnp2rcd13ifvqgvg","pricing_plan_id":"free"},{"bike_id":"1ff49f5f-c774-4946-b848-51862abc125d","system_id":"levelo_inurba_marseille","lat":43.24075,"lon":5.37763,"is_reserved":false,"is_disabled":false,"rental_uris":{"android":"levelo://app?vid=1ff49f5f-c774-4946-b848-51862abc125d","ios":"levelo://app?vid=1ff49f5f-c774-4946-b848-51862abc125d"},"vehicle_type_id":"4","last_reported":1701425292,"current_range_meters":26400,"station_id":"ce4bhnp2rcd13ifvqgvg","pricing_plan_id":"free"},{"bike_id":"397cfeeb-d1ee-48f7-a8de-062693bea79f","system_id":"levelo_inurba_marseille","lat":43.24075,"lon":5.37763,"is_reserved":false,"is_disabled":false,"rental_uris":{"android":"levelo://app?vid=397cfeeb-d1ee-48f7-a8de-062693bea79f","ios":"levelo://app?vid=397cfeeb-d1ee-48f7-a8de-062693bea79f"},"vehicle_type_id":"4","last_reported":1701425292,"current_range_meters":27200,"station_id":"ce4bhnp2rcd13ifvqgvg","pricing_plan_id":"free"},{"bike_id":"973b3db1-6e56-41e5-aa86-9a576de460be","system_id":"levelo_inurba_marseille","lat":43.24074,"lon":5.37756,"is_reserved":false,"is_disabled":false,"rental_uris":{"android":"levelo://app?vid=973b3db1-6e56-41e5-aa86-9a576de460be","ios":"levelo://app?vid=973b3db1-6e56-41e5-aa86-9a576de460be"},"vehicle_type_id":"4","last_reported":1701425292,"current_range_meters":18000,"station_id":"ce4bhnp2rcd13ifvqgvg","pricing_plan_id":"free"},{"bike_id":"3d27939c-c0b8-496e-adbb-2f99216c2220","system_id":"levelo_inurba_marseille","lat":43.24074,"lon":5.37759,"is_reserved":false,"is_disabled":false,"rental_uris":{"android":"levelo://app?vid=3d27939c-c0b8-496e-adbb-2f99216c2220","ios":"levelo://app?vid=3d27939c-c0b8-496e-adbb-2f99216c2220"},"vehicle_type_id":"4","last_reported":1701425292,"current_range_meters":27200,"station_id":"ce4bhnp2rcd13ifvqgvg","pricing_plan_id":"free"},{"bike_id":"f1464391-aa4c-4383-be86-daa5a1d1f34d","system_id":"levelo_inurba_marseille","lat":43.24074,"lon":5.3776,"is_reserved":false,"is_disabled":false,"rental_uris":{"android":"levelo://app?vid=f1464391-aa4c-4383-be86-daa5a1d1f34d","ios":"levelo://app?vid=f1464391-aa4c-4383-be86-daa5a1d1f34d"},"vehicle_type_id":"4","last_reported":1701425292,"current_range_meters":31200,"station_id":"ce4bhnp2rcd13ifvqgvg","pricing_plan_id":"free"},{"bike_id":"99fe24b8-9eff-45db-a967-9c89872d3c9a","system_id":"levelo_inurba_marseille","lat":43.24074,"lon":5.37762,"is_reserved":false,"is_disabled":false,"rental_uris":{"android":"levelo://app?vid=99fe24b8-9eff-45db-a967-9c89872d3c9a","ios":"levelo://app?vid=99fe24b8-9eff-45db-a967-9c89872d3c9a"},"vehicle_type_id":"4","last_reported":1701425292,"current_range_meters":27600,"station_id":"ce4bhnp2rcd13ifvqgvg","pricing_plan_id":"free"},{"bike_id":"e3c78006-5ac2-4c7b-9373-b1a04f04badf","system_id":"levelo_inurba_marseille","lat":43.24073,"lon":5.37756,"is_reserved":false,"is_disabled":false,"rental_uris":{"android":"levelo://app?vid=e3c78006-5ac2-4c7b-9373-b1a04f04badf","ios":"levelo://app?vid=e3c78006-5ac2-4c7b-9373-b1a04f04badf"},"vehicle_type_id":"4","last_reported":1701425292,"current_range_meters":6800,"station_id":"ce4bhnp2rcd13ifvqgvg","pricing_plan_id":"free"},{"bike_id":"a517b7b3-e439-4e17-9498-8c7862bdde7e","system_id":"levelo_inurba_marseille","lat":43.24073,"lon":5.37762,"is_reserved":false,"is_disabled":false,"rental_uris":{"android":"levelo://app?vid=a517b7b3-e439-4e17-9498-8c7862bdde7e","ios":"levelo://app?vid=a517b7b3-e439-4e17-9498-8c7862bdde7e"},"vehicle_type_id":"4","last_reported":1701425292,"current_range_meters":29200,"station_id":"ce4bhnp2rcd13ifvqgvg","pricing_plan_id":"free"},{"bike_id":"e7762de2-56c9-4a88-a831-b1e9d9255480","system_id":"levelo_inurba_marseille","lat":43.240716,"lon":5.37754,"is_reserved":false,"is_disabled":false,"rental_uris":{"android":"levelo://app?vid=e7762de2-56c9-4a88-a831-b1e9d9255480","ios":"levelo://app?vid=e7762de2-56c9-4a88-a831-b1e9d9255480"},"vehicle_type_id":"4","last_reported":1701425292,"current_range_meters":21600,"station_id":"ce4bhnp2rcd13ifvqgvg","pricing_plan_id":"free"},{"bike_id":"c7a4e119-a725-4d8e-b2b5-b0b67991847d","system_id":"levelo_inurba_marseille","lat":43.24072,"lon":5.3776,"is_reserved":false,"is_disabled":false,"rental_uris":{"android":"levelo://app?vid=c7a4e119-a725-4d8e-b2b5-b0b67991847d","ios":"levelo://app?vid=c7a4e119-a725-4d8e-b2b5-b0b67991847d"},"vehicle_type_id":"4","last_reported":1701425292,"current_range_meters":17600,"station_id":"ce4bhnp2rcd13ifvqgvg","pricing_plan_id":"free"},{"bike_id":"aeccdc95-2abc-4c4c-84cc-de036b1e6846","system_id":"levelo_inurba_marseille","lat":43.24071,"lon":5.37763,"is_reserved":false,"is_disabled":false,"rental_uris":{"android":"levelo://app?vid=aeccdc95-2abc-4c4c-84cc-de036b1e6846","ios":"levelo://app?vid=aeccdc95-2abc-4c4c-84cc-de036b1e6846"},"vehicle_type_id":"4","last_reported":1701425292,"current_range_meters":16800,"station_id":"ce4bhnp2rcd13ifvqgvg","pricing_plan_id":"free"},{"bike_id":"3d54e59c-bc47-4924-ac20-98760540093b","system_id":"levelo_inurba_marseille","lat":43.24071,"lon":5.37764,"is_reserved":false,"is_disabled":false,"rental_uris":{"android":"levelo://app?vid=3d54e59c-bc47-4924-ac20-98760540093b","ios":"levelo://app?vid=3d54e59c-bc47-4924-ac20-98760540093b"},"vehicle_type_id":"4","last_reported":1701425292,"current_range_meters":14000,"station_id":"ce4bhnp2rcd13ifvqgvg","pricing_plan_id":"free"},{"bike_id":"ccc95f14-5660-4983-a8bb-1ed35dfa6071","system_id":"levelo_inurba_marseille","lat":43.240696,"lon":5.377516,"is_reserved":false,"is_disabled":false,"rental_uris":{"android":"levelo://app?vid=ccc95f14-5660-4983-a8bb-1ed35dfa6071","ios":"levelo://app?vid=ccc95f14-5660-4983-a8bb-1ed35dfa6071"},"vehicle_type_id":"4","last_reported":1701425292,"current_range_meters":12800,"station_id":"ce4bhnp2rcd13ifvqgvg","pricing_plan_id":"free"},{"bike_id":"c4294243-9247-480c-8ace-6895488fd199","system_id":"levelo_inurba_marseille","lat":43.240623,"lon":5.377642,"is_reserved":false,"is_disabled":false,"rental_uris":{"android":"levelo://app?vid=c4294243-9247-480c-8ace-6895488fd199","ios":"levelo://app?vid=c4294243-9247-480c-8ace-6895488fd199"},"vehicle_type_id":"4","last_reported":1701425292,"current_range_meters":15200,"station_id":"ce4bhnp2rcd13ifvqgvg","pricing_plan_id":"free"},{"bike_id":"c0d1ff7b-8424-4190-b143-8989c86900e5","system_id":"levelo_inurba_marseille","lat":43.2407,"lon":5.3777,"is_reserved":false,"is_disabled":false,"rental_uris":{"android":"levelo://app?vid=c0d1ff7b-8424-4190-b143-8989c86900e5","ios":"levelo://app?vid=c0d1ff7b-8424-4190-b143-8989c86900e5"},"vehicle_type_id":"4","last_reported":1701425292,"current_range_meters":20000,"station_id":"ce4bhnp2rcd13ifvqgvg","pricing_plan_id":"free"},{"bike_id":"e47d7064-1951-4979-b605-3fd7f7608f13","system_id":"levelo_inurba_marseille","lat":43.240623,"lon":5.377642,"is_reserved":false,"is_disabled":false,"rental_uris":{"android":"levelo://app?vid=e47d7064-1951-4979-b605-3fd7f7608f13","ios":"levelo://app?vid=e47d7064-1951-4979-b605-3fd7f7608f13"},"vehicle_type_id":"4","last_reported":1701425292,"current_range_meters":28400,"station_id":"ce4bhnp2rcd13ifvqgvg","pricing_plan_id":"free"},{"bike_id":"38f35d2c-d533-4571-ab2d-69fd942234f3","system_id":"levelo_inurba_marseille","lat":43.239588,"lon":5.366238,"is_reserved":false,"is_disabled":false,"rental_uris":{"android":"levelo://app?vid=38f35d2c-d533-4571-ab2d-69fd942234f3","ios":"levelo://app?vid=38f35d2c-d533-4571-ab2d-69fd942234f3"},"vehicle_type_id":"4","last_reported":1701425292,"current_range_meters":24800,"station_id":"ce4bhi12rcd13ifvqfp0","pricing_plan_id":"free"},{"bike_id":"45f87a80-0787-4ece-99c5-480ea800c2a1","system_id":"levelo_inurba_marseille","lat":43.241782,"lon":5.397261,"is_reserved":false,"is_disabled":false,"rental_uris":{"android":"levelo://app?vid=45f87a80-0787-4ece-99c5-480ea800c2a1","ios":"levelo://app?vid=45f87a80-0787-4ece-99c5-480ea800c2a1"},"vehicle_type_id":"4","last_reported":1701425292,"current_range_meters":15200,"station_id":"ce4bhn12rcd13ifvqgpg","pricing_plan_id":"free"},{"bike_id":"d01409a0-2320-406c-90b1-4e4da8a40d17","system_id":"levelo_inurba_marseille","lat":43.241798,"lon":5.397277,"is_reserved":false,"is_disabled":false,"rental_uris":{"android":"levelo://app?vid=d01409a0-2320-406c-90b1-4e4da8a40d17","ios":"levelo://app?vid=d01409a0-2320-406c-90b1-4e4da8a40d17"},"vehicle_type_id":"4","last_reported":1701425292,"current_range_meters":12400,"station_id":"ce4bhn12rcd13ifvqgpg","pricing_plan_id":"free"},{"bike_id":"460ff11d-43d6-4fa0-9381-c598ad26d49a","system_id":"levelo_inurba_marseille","lat":43.24179,"lon":5.39732,"is_reserved":false,"is_disabled":false,"rental_uris":{"android":"levelo://app?vid=460ff11d-43d6-4fa0-9381-c598ad26d49a","ios":"levelo://app?vid=460ff11d-43d6-4fa0-9381-c598ad26d49a"},"vehicle_type_id":"4","last_reported":1701425292,"current_range_meters":22400,"station_id":"ce4bhn12rcd13ifvqgpg","pricing_plan_id":"free"},{"bike_id":"148b4f22-a405-4cb9-8089-ea7264a000b4","system_id":"levelo_inurba_marseille","lat":43.24177,"lon":5.39727,"is_reserved":false,"is_disabled":false,"rental_uris":{"android":"levelo://app?vid=148b4f22-a405-4cb9-8089-ea7264a000b4","ios":"levelo://app?vid=148b4f22-a405-4cb9-8089-ea7264a000b4"},"vehicle_type_id":"4","last_reported":1701425292,"current_range_meters":26400,"station_id":"ce4bhn12rcd13ifvqgpg","pricing_plan_id":"free"},{"bike_id":"8b5a9e96-b412-406d-b5d0-2555e0d1eb4e","system_id":"levelo_inurba_marseille","lat":43.241782,"lon":5.397261,"is_reserved":false,"is_disabled":false,"rental_uris":{"android":"levelo://app?vid=8b5a9e96-b412-406d-b5d0-2555e0d1eb4e","ios":"levelo://app?vid=8b5a9e96-b412-406d-b5d0-2555e0d1eb4e"},"vehicle_type_id":"4","last_reported":1701425292,"current_range_meters":26800,"station_id":"ce4bhn12rcd13ifvqgpg","pricing_plan_id":"free"},{"bike_id":"8fcd3957-57da-4704-960c-aeae958283c0","system_id":"levelo_inurba_marseille","lat":43.241782,"lon":5.397261,"is_reserved":false,"is_disabled":false,"rental_uris":{"android":"levelo://app?vid=8fcd3957-57da-4704-960c-aeae958283c0","ios":"levelo://app?vid=8fcd3957-57da-4704-960c-aeae958283c0"},"vehicle_type_id":"4","last_reported":1701425292,"current_range_meters":17200,"station_id":"ce4bhn12rcd13ifvqgpg","pricing_plan_id":"free"},{"bike_id":"3ecf9bd9-273b-44cb-bcf5-e6a8b3379dfc","system_id":"levelo_inurba_marseille","lat":43.241725,"lon":5.397221,"is_reserved":false,"is_disabled":false,"rental_uris":{"android":"levelo://app?vid=3ecf9bd9-273b-44cb-bcf5-e6a8b3379dfc","ios":"levelo://app?vid=3ecf9bd9-273b-44cb-bcf5-e6a8b3379dfc"},"vehicle_type_id":"4","last_reported":1701425292,"current_range_meters":22000,"station_id":"ce4bhn12rcd13ifvqgpg","pricing_plan_id":"free"},{"bike_id":"6382809b-45d0-4ad2-8be7-697249f82077","system_id":"levelo_inurba_marseille","lat":43.231919,"lon":5.355532,"is_reserved":false,"is_disabled":false,"rental_uris":{"android":"levelo://app?vid=6382809b-45d0-4ad2-8be7-697249f82077","ios":"levelo://app?vid=6382809b-45d0-4ad2-8be7-697249f82077"},"vehicle_type_id":"4","last_reported":1701425292,"current_range_meters":31600,"station_id":"ce4bhu92rcd13ifvqi70","pricing_plan_id":"free"},{"bike_id":"d1703505-b125-4a98-a807-11024241bc04","system_id":"levelo_inurba_marseille","lat":43.231923,"lon":5.355545,"is_reserved":false,"is_disabled":false,"rental_uris":{"android":"levelo://app?vid=d1703505-b125-4a98-a807-11024241bc04","ios":"levelo://app?vid=d1703505-b125-4a98-a807-11024241bc04"},"vehicle_type_id":"4","last_reported":1701425292,"current_range_meters":31600,"station_id":"ce4bhu92rcd13ifvqi70","pricing_plan_id":"free"},{"bike_id":"cf3102c4-88e0-4a41-86b7-69a76932d3e6","system_id":"levelo_inurba_marseille","lat":43.231923,"lon":5.355545,"is_reserved":false,"is_disabled":false,"rental_uris":{"android":"levelo://app?vid=cf3102c4-88e0-4a41-86b7-69a76932d3e6","ios":"levelo://app?vid=cf3102c4-88e0-4a41-86b7-69a76932d3e6"},"vehicle_type_id":"4","last_reported":1701425292,"current_range_meters":31600,"station_id":"ce4bhu92rcd13ifvqi70","pricing_plan_id":"free"},{"bike_id":"66719f55-6c67-4dd7-aaf5-4fd75626464f","system_id":"levelo_inurba_marseille","lat":43.231919,"lon":5.355532,"is_reserved":false,"is_disabled":false,"rental_uris":{"android":"levelo://app?vid=66719f55-6c67-4dd7-aaf5-4fd75626464f","ios":"levelo://app?vid=66719f55-6c67-4dd7-aaf5-4fd75626464f"},"vehicle_type_id":"4","last_reported":1701425292,"current_range_meters":10400,"station_id":"ce4bhu92rcd13ifvqi70","pricing_plan_id":"free"},{"bike_id":"cdfcf9d8-5b42-40a1-9c86-605bac4b94e5","system_id":"levelo_inurba_marseille","lat":43.23189,"lon":5.39987,"is_reserved":false,"is_disabled":false,"rental_uris":{"android":"levelo://app?vid=cdfcf9d8-5b42-40a1-9c86-605bac4b94e5","ios":"levelo://app?vid=cdfcf9d8-5b42-40a1-9c86-605bac4b94e5"},"vehicle_type_id":"4","last_reported":1701425292,"current_range_meters":17600,"station_id":"ce4bhn12rcd13ifvqgqg","pricing_plan_id":"free"},{"bike_id":"1eeab9a5-d341-4bc8-8d21-ee151ff9d9b2","system_id":"levelo_inurba_marseille","lat":43.231864,"lon":5.399869,"is_reserved":false,"is_disabled":false,"rental_uris":{"android":"levelo://app?vid=1eeab9a5-d341-4bc8-8d21-ee151ff9d9b2","ios":"levelo://app?vid=1eeab9a5-d341-4bc8-8d21-ee151ff9d9b2"},"vehicle_type_id":"4","last_reported":1701425292,"current_range_meters":24400,"station_id":"ce4bhn12rcd13ifvqgqg","pricing_plan_id":"free"},{"bike_id":"8eb0ca37-48be-46c0-a9a9-f5b046dc44f1","system_id":"levelo_inurba_marseille","lat":43.231794,"lon":5.400052,"is_reserved":false,"is_disabled":false,"rental_uris":{"android":"levelo://app?vid=8eb0ca37-48be-46c0-a9a9-f5b046dc44f1","ios":"levelo://app?vid=8eb0ca37-48be-46c0-a9a9-f5b046dc44f1"},"vehicle_type_id":"4","last_reported":1701425292,"current_range_meters":31600,"station_id":"ce4bhn12rcd13ifvqgqg","pricing_plan_id":"free"},{"bike_id":"16142c69-3ea7-4628-8f42-f75831211f2c","system_id":"levelo_inurba_marseille","lat":43.231562,"lon":5.436933,"is_reserved":false,"is_disabled":false,"rental_uris":{"android":"levelo://app?vid=16142c69-3ea7-4628-8f42-f75831211f2c","ios":"levelo://app?vid=16142c69-3ea7-4628-8f42-f75831211f2c"},"vehicle_type_id":"4","last_reported":1701425292,"current_range_meters":6400,"station_id":"ce4bhmp2rcd13ifvqgog","pricing_plan_id":"free"},{"bike_id":"383114a7-e4f1-409e-9d6b-2c253e0d1c0b","system_id":"levelo_inurba_marseille","lat":43.231562,"lon":5.436933,"is_reserved":false,"is_disabled":false,"rental_uris":{"android":"levelo://app?vid=383114a7-e4f1-409e-9d6b-2c253e0d1c0b","ios":"levelo://app?vid=383114a7-e4f1-409e-9d6b-2c253e0d1c0b"},"vehicle_type_id":"4","last_reported":1701425292,"current_range_meters":22800,"station_id":"ce4bhmp2rcd13ifvqgog","pricing_plan_id":"free"},{"bike_id":"a0f5c625-3bfb-4403-ad46-47ba6496d5b4","system_id":"levelo_inurba_marseille","lat":43.231562,"lon":5.436933,"is_reserved":false,"is_disabled":false,"rental_uris":{"android":"levelo://app?vid=a0f5c625-3bfb-4403-ad46-47ba6496d5b4","ios":"levelo://app?vid=a0f5c625-3bfb-4403-ad46-47ba6496d5b4"},