{"last_updated":1766941764,"ttl":60,"version":"2.2","data":{"bikes":[{"bike_id":"282e9138-7df7-405c-b8f3-d64eee0d3225","system_id":"levelo_inurba_marseille","lat":43.284808,"lon":5.384114,"is_reserved":false,"is_disabled":false,"rental_uris":{"android":"levelo://app?vid=282e9138-7df7-405c-b8f3-d64eee0d3225","ios":"levelo://app?vid=282e9138-7df7-405c-b8f3-d64eee0d3225"},"vehicle_type_id":"4","last_reported":1766941764,"current_range_meters":2800,"station_id":"ce4bh512rcd13ifvqe3g","pricing_plan_id":"cebpf4jnsgd1na2vs0mg"},{"bike_id":"2653af72-11c0-4207-a387-11b08ca8aebe","system_id":"levelo_inurba_marseille","lat":43.27057,"lon":5.383,"is_reserved":false,"is_disabled":false,"rental_uris":{"android":"levelo://app?vid=2653af72-11c0-4207-a387-11b08ca8aebe","ios":"levelo://app?vid=2653af72-11c0-4207-a387-11b08ca8aebe"},"vehicle_type_id":"4","last_reported":1766941764,"current_range_meters":2800,"station_id":"st_d3n2fo6cfp8s73cte1j0","pricing_plan_id":"cebpf4jnsgd1na2vs0mg"},{"bike_id":"74de0718-8c99-4e22-ac94-467131fbc9d2","system_id":"levelo_inurba_marseille","lat":43.29796,"lon":5.40405,"is_reserved":false,"is_disabled":false,"rental_uris":{"android":"levelo://app?vid=74de0718-8c99-4e22-ac94-467131fbc9d2","ios":"levelo://app?vid=74de0718-8c99-4e22-ac94-467131fbc9d2"},"vehicle_type_id":"4","last_reported":1766941764,"current_range_meters":2800,"station_id":"ce4bh112rcd13ifvqd90","pricing_plan_id":"cebpf4jnsgd1na2vs0mg"},{"bike_id":"26b1f407-3cf1-43ef-8579-1546eb265efc","system_id":"levelo_inurba_marseille","lat":43.28673,"lon":5.3865,"is_reserved":false,"is_disabled":false,"rental_uris":{"android":"levelo://app?vid=26b1f407-3cf1-43ef-8579-1546eb265efc","ios":"levelo://app?vid=26b1f407-3cf1-43ef-8579-1546eb265efc"},"vehicle_type_id":"4","last_reported":1766941764,"current_range_meters":3200,"station_id":"ce4bh492rcd13ifvqdug","pricing_plan_id":"cebpf4jnsgd1na2vs0mg"},{"bike_id":"9be227a5-2698-4a86-9eca-ed429a08182c","system_id":"levelo_inurba_marseille","lat":43.29266,"lon":5.37648,"is_reserved":false,"is_disabled":false,"rental_uris":{"android":"levelo://app?vid=9be227a5-2698-4a86-9eca-ed429a08182c","ios":"levelo://app?vid=9be227a5-2698-4a86-9eca-ed429a08182c"},"vehicle_type_id":"4","last_reported":1766941764,"current_range_meters":3200,"station_id":"ce4bgi12rcd13ifvqb80","pricing_plan_id":"cebpf4jnsgd1na2vs0mg"},{"bike_id":"384632ca-d1ef-428f-8507-f24e896d0207","system_id":"levelo_inurba_marseille","lat":43.26783,"lon":5.39418,"is_reserved":false,"is_disabled":false,"rental_uris":{"android":"levelo://app?vid=384632ca-d1ef-428f-8507-f24e896d0207","ios":"levelo://app?vid=384632ca-d1ef-428f-8507-f24e896d0207"},"vehicle_type_id":"4","last_reported":1766941764,"current_range_meters":3200,"station_id":"ce4bhh12rcd13ifvqfg0","pricing_plan_id":"cebpf4jnsgd1na2vs0mg"},{"bike_id":"19c72f66-bd70-479c-91d4-f05cfbe2bf97","system_id":"levelo_inurba_marseille","lat":43.28914,"lon":5.36617,"is_reserved":false,"is_disabled":false,"rental_uris":{"android":"levelo://app?vid=19c72f66-bd70-479c-91d4-f05cfbe2bf97","ios":"levelo://app?vid=19c72f66-bd70-479c-91d4-f05cfbe2bf97"},"vehicle_type_id":"4","last_reported":1766941764,"current_range_meters":3200,"station_id":"ce4bhap2rcd13ifvqek0","pricing_plan_id":"cebpf4jnsgd1na2vs0mg"},{"bike_id":"c6c751ca-f0d9-4d7d-924c-b26f574b394e","system_id":"levelo_inurba_marseille","lat":43.26749,"lon":5.38409,"is_reserved":false,"is_disabled":false,"rental_uris":{"android":"levelo://app?vid=c6c751ca-f0d9-4d7d-924c-b26f574b394e","ios":"levelo://app?vid=c6c751ca-f0d9-4d7d-924c-b26f574b394e"},"vehicle_type_id":"4","last_reported":1766941764,"current_range_meters":3200,"station_id":"","pricing_plan_id":"cebpf4jnsgd1na2vs0mg"},{"bike_id":"7889c44c-66c5-491e-bce1-ab4755d90e40","system_id":"levelo_inurba_marseille","lat":43.25332,"lon":5.39353,"is_reserved":false,"is_disabled":false,"rental_uris":{"android":"levelo://app?vid=7889c44c-66c5-491e-bce1-ab4755d90e40","ios":"levelo://app?vid=7889c44c-66c5-491e-bce1-ab4755d90e40"},"vehicle_type_id":"4","last_reported":1766941764,"current_range_meters":3600,"station_id":"","pricing_plan_id":"cebpf4jnsgd1na2vs0mg"},{"bike_id":"7eab46ce-249b-40fc-ac59-f5247f8017db","system_id":"levelo_inurba_marseille","lat":43.29264,"lon":5.38451,"is_reserved":false,"is_disabled":false,"rental_uris":{"android":"levelo://app?vid=7eab46ce-249b-40fc-ac59-f5247f8017db","ios":"levelo://app?vid=7eab46ce-249b-40fc-ac59-f5247f8017db"},"vehicle_type_id":"4","last_reported":1766941764,"current_range_meters":3600,"station_id":"ce4bh692rcd13ifvqea0","pricing_plan_id":"cebpf4jnsgd1na2vs0mg"},{"bike_id":"1f45b2b1-d2e0-4187-926d-9979c716f8a5","system_id":"levelo_inurba_marseille","lat":43.25069,"lon":5.40462,"is_reserved":false,"is_disabled":false,"rental_uris":{"android":"levelo://app?vid=1f45b2b1-d2e0-4187-926d-9979c716f8a5","ios":"levelo://app?vid=1f45b2b1-d2e0-4187-926d-9979c716f8a5"},"vehicle_type_id":"4","last_reported":1766941764,"current_range_meters":3600,"station_id":"","pricing_plan_id":"cebpf4jnsgd1na2vs0mg"},{"bike_id":"9c1ff02c-df35-4545-98b6-54b455499ca0","system_id":"levelo_inurba_marseille","lat":43.271876,"lon":5.409979,"is_reserved":false,"is_disabled":true,"rental_uris":{"android":"levelo://app?vid=9c1ff02c-df35-4545-98b6-54b455499ca0","ios":"levelo://app?vid=9c1ff02c-df35-4545-98b6-54b455499ca0"},"vehicle_type_id":"4","last_reported":1766941764,"current_range_meters":4000,"station_id":"ce4bhl12rcd13ifvqgf0","pricing_plan_id":"cebpf4jnsgd1na2vs0mg"},{"bike_id":"5792b066-4444-4308-9572-421f0e92178e","system_id":"levelo_inurba_marseille","lat":43.309509,"lon":5.390287,"is_reserved":false,"is_disabled":false,"rental_uris":{"android":"levelo://app?vid=5792b066-4444-4308-9572-421f0e92178e","ios":"levelo://app?vid=5792b066-4444-4308-9572-421f0e92178e"},"vehicle_type_id":"4","last_reported":1766941764,"current_range_meters":4000,"station_id":"ce4bgup2rcd13ifvqco0","pricing_plan_id":"cebpf4jnsgd1na2vs0mg"},{"bike_id":"772788cf-bf32-48cb-8369-7ad4566b0130","system_id":"levelo_inurba_marseille","lat":43.29974,"lon":5.38492,"is_reserved":false,"is_disabled":false,"rental_uris":{"android":"levelo://app?vid=772788cf-bf32-48cb-8369-7ad4566b0130","ios":"levelo://app?vid=772788cf-bf32-48cb-8369-7ad4566b0130"},"vehicle_type_id":"4","last_reported":1766941764,"current_range_meters":4000,"station_id":"ce4bgj92rcd13ifvqbd0","pricing_plan_id":"cebpf4jnsgd1na2vs0mg"},{"bike_id":"339a0c71-2a9a-4cfb-a54e-2a5557b4296a","system_id":"levelo_inurba_marseille","lat":43.241667,"lon":5.364035,"is_reserved":false,"is_disabled":false,"rental_uris":{"android":"levelo://app?vid=339a0c71-2a9a-4cfb-a54e-2a5557b4296a","ios":"levelo://app?vid=339a0c71-2a9a-4cfb-a54e-2a5557b4296a"},"vehicle_type_id":"4","last_reported":1766941764,"current_range_meters":4400,"station_id":"cpo36qri1sfpv3e86is0","pricing_plan_id":"cebpf4jnsgd1na2vs0mg"},{"bike_id":"156d2780-d738-496e-a6c5-18ceba45f5c4","system_id":"levelo_inurba_marseille","lat":43.29532,"lon":5.38547,"is_reserved":false,"is_disabled":false,"rental_uris":{"android":"levelo://app?vid=156d2780-d738-496e-a6c5-18ceba45f5c4","ios":"levelo://app?vid=156d2780-d738-496e-a6c5-18ceba45f5c4"},"vehicle_type_id":"4","last_reported":1766941764,"current_range_meters":4400,"station_id":"ce4bgih2rcd13ifvqba0","pricing_plan_id":"cebpf4jnsgd1na2vs0mg"},{"bike_id":"5f0a6474-9a0e-4778-be9f-677b5a06caee","system_id":"levelo_inurba_marseille","lat":43.27569,"lon":5.3842,"is_reserved":false,"is_disabled":false,"rental_uris":{"android":"levelo://app?vid=5f0a6474-9a0e-4778-be9f-677b5a06caee","ios":"levelo://app?vid=5f0a6474-9a0e-4778-be9f-677b5a06caee"},"vehicle_type_id":"4","last_reported":1766941764,"current_range_meters":4400,"station_id":"ce4bhh92rcd13ifvqfi0","pricing_plan_id":"cebpf4jnsgd1na2vs0mg"},{"bike_id":"60fde192-72cc-42cc-913f-6800b4e031d7","system_id":"levelo_inurba_marseille","lat":43.29219,"lon":5.36054,"is_reserved":false,"is_disabled":false,"rental_uris":{"android":"levelo://app?vid=60fde192-72cc-42cc-913f-6800b4e031d7","ios":"levelo://app?vid=60fde192-72cc-42cc-913f-6800b4e031d7"},"vehicle_type_id":"4","last_reported":1766941764,"current_range_meters":4800,"station_id":"ce4bhbh2rcd13ifvqeqg","pricing_plan_id":"cebpf4jnsgd1na2vs0mg"},{"bike_id":"dac24c5c-9a42-4fdf-bf17-c0729a4a9a2a","system_id":"levelo_inurba_marseille","lat":43.32511,"lon":5.41219,"is_reserved":false,"is_disabled":false,"rental_uris":{"android":"levelo://app?vid=dac24c5c-9a42-4fdf-bf17-c0729a4a9a2a","ios":"levelo://app?vid=dac24c5c-9a42-4fdf-bf17-c0729a4a9a2a"},"vehicle_type_id":"4","last_reported":1766941764,"current_range_meters":4800,"station_id":"","pricing_plan_id":"cebpf4jnsgd1na2vs0mg"},{"bike_id":"1f37a5da-90b6-4c93-a651-2414053aa3c9","system_id":"levelo_inurba_marseille","lat":43.26759,"lon":5.39462,"is_reserved":false,"is_disabled":false,"rental_uris":{"android":"levelo://app?vid=1f37a5da-90b6-4c93-a651-2414053aa3c9","ios":"levelo://app?vid=1f37a5da-90b6-4c93-a651-2414053aa3c9"},"vehicle_type_id":"4","last_reported":1766941764,"current_range_meters":4800,"station_id":"ce4bhh12rcd13ifvqfg0","pricing_plan_id":"cebpf4jnsgd1na2vs0mg"},{"bike_id":"5e3f4feb-570e-4d98-bbff-99622c4ef1b1","system_id":"levelo_inurba_marseille","lat":43.292694,"lon":5.368483,"is_reserved":false,"is_disabled":false,"rental_uris":{"android":"levelo://app?vid=5e3f4feb-570e-4d98-bbff-99622c4ef1b1","ios":"levelo://app?vid=5e3f4feb-570e-4d98-bbff-99622c4ef1b1"},"vehicle_type_id":"4","last_reported":1766941764,"current_range_meters":5600,"station_id":"ce4bhbp2rcd13ifvqesg","pricing_plan_id":"cebpf4jnsgd1na2vs0mg"},{"bike_id":"535cf7ca-0db7-4fc4-8bc4-e3261ddbc78b","system_id":"levelo_inurba_marseille","lat":43.29283,"lon":5.4012,"is_reserved":false,"is_disabled":false,"rental_uris":{"android":"levelo://app?vid=535cf7ca-0db7-4fc4-8bc4-e3261ddbc78b","ios":"levelo://app?vid=535cf7ca-0db7-4fc4-8bc4-e3261ddbc78b"},"vehicle_type_id":"4","last_reported":1766941764,"current_range_meters":6000,"station_id":"ce4bh312rcd13ifvqdk0","pricing_plan_id":"cebpf4jnsgd1na2vs0mg"},{"bike_id":"8f1fbae4-9ae2-42cf-94dd-daad6d586514","system_id":"levelo_inurba_marseille","lat":43.22568,"lon":5.41635,"is_reserved":false,"is_disabled":false,"rental_uris":{"android":"levelo://app?vid=8f1fbae4-9ae2-42cf-94dd-daad6d586514","ios":"levelo://app?vid=8f1fbae4-9ae2-42cf-94dd-daad6d586514"},"vehicle_type_id":"4","last_reported":1766941764,"current_range_meters":6000,"station_id":"st_d2o4gvlbi1j2169b742g","pricing_plan_id":"cebpf4jnsgd1na2vs0mg"},{"bike_id":"a57476fb-da41-4d31-8776-ccab7fd91559","system_id":"levelo_inurba_marseille","lat":43.30417,"lon":5.3975,"is_reserved":false,"is_disabled":false,"rental_uris":{"android":"levelo://app?vid=a57476fb-da41-4d31-8776-ccab7fd91559","ios":"levelo://app?vid=a57476fb-da41-4d31-8776-ccab7fd91559"},"vehicle_type_id":"4","last_reported":1766941764,"current_range_meters":6000,"station_id":"ce4bh092rcd13ifvqd20","pricing_plan_id":"cebpf4jnsgd1na2vs0mg"},{"bike_id":"9946c4ed-7a05-42ed-9877-9de77083527d","system_id":"levelo_inurba_marseille","lat":43.337444,"lon":5.374475,"is_reserved":false,"is_disabled":false,"rental_uris":{"android":"levelo://app?vid=9946c4ed-7a05-42ed-9877-9de77083527d","ios":"levelo://app?vid=9946c4ed-7a05-42ed-9877-9de77083527d"},"vehicle_type_id":"4","last_reported":1766941764,"current_range_meters":6000,"station_id":"ce4bgqh2rcd13ifvqc4g","pricing_plan_id":"cebpf4jnsgd1na2vs0mg"},{"bike_id":"8ae2c467-618c-4762-80c0-e9b89171ebce","system_id":"levelo_inurba_marseille","lat":43.31213,"lon":5.36893,"is_reserved":false,"is_disabled":false,"rental_uris":{"android":"levelo://app?vid=8ae2c467-618c-4762-80c0-e9b89171ebce","ios":"levelo://app?vid=8ae2c467-618c-4762-80c0-e9b89171ebce"},"vehicle_type_id":"4","last_reported":1766941764,"current_range_meters":6400,"station_id":"","pricing_plan_id":"cebpf4jnsgd1na2vs0mg"},{"bike_id":"9c494ab4-6064-41cc-867f-94d1d4b9902e","system_id":"levelo_inurba_marseille","lat":43.29067,"lon":5.36564,"is_reserved":false,"is_disabled":false,"rental_uris":{"android":"levelo://app?vid=9c494ab4-6064-41cc-867f-94d1d4b9902e","ios":"levelo://app?vid=9c494ab4-6064-41cc-867f-94d1d4b9902e"},"vehicle_type_id":"4","last_reported":1766941764,"current_range_meters":6400,"station_id":"","pricing_plan_id":"cebpf4jnsgd1na2vs0mg"},{"bike_id":"0cb5447a-cfaa-4eb9-96bd-0ba22efde85c","system_id":"levelo_inurba_marseille","lat":43.27318,"lon":5.39127,"is_reserved":false,"is_disabled":false,"rental_uris":{"android":"levelo://app?vid=0cb5447a-cfaa-4eb9-96bd-0ba22efde85c","ios":"levelo://app?vid=0cb5447a-cfaa-4eb9-96bd-0ba22efde85c"},"vehicle_type_id":"4","last_reported":1766941764,"current_range_meters":6400,"station_id":"ce4bhgp2rcd13ifvqfe0","pricing_plan_id":"cebpf4jnsgd1na2vs0mg"},{"bike_id":"23278711-b3d1-49bd-9192-79a1440c411b","system_id":"levelo_inurba_marseille","lat":43.309265,"lon":5.401511,"is_reserved":false,"is_disabled":false,"rental_uris":{"android":"levelo://app?vid=23278711-b3d1-49bd-9192-79a1440c411b","ios":"levelo://app?vid=23278711-b3d1-49bd-9192-79a1440c411b"},"vehicle_type_id":"4","last_reported":1766941764,"current_range_meters":6400,"station_id":"ce4bgvp2rcd13ifvqct0","pricing_plan_id":"cebpf4jnsgd1na2vs0mg"},{"bike_id":"bc568f99-2d83-4e5a-8b80-4c8ab7d8ad1f","system_id":"levelo_inurba_marseille","lat":43.24156,"lon":5.37652,"is_reserved":false,"is_disabled":false,"rental_uris":{"android":"levelo://app?vid=bc568f99-2d83-4e5a-8b80-4c8ab7d8ad1f","ios":"levelo://app?vid=bc568f99-2d83-4e5a-8b80-4c8ab7d8ad1f"},"vehicle_type_id":"4","last_reported":1766941764,"current_range_meters":6400,"station_id":"","pricing_plan_id":"cebpf4jnsgd1na2vs0mg"},{"bike_id":"cde75731-be94-4954-af76-b79651b240b9","system_id":"levelo_inurba_marseille","lat":43.29901,"lon":5.39401,"is_reserved":false,"is_disabled":false,"rental_uris":{"android":"levelo://app?vid=cde75731-be94-4954-af76-b79651b240b9","ios":"levelo://app?vid=cde75731-be94-4954-af76-b79651b240b9"},"vehicle_type_id":"4","last_reported":1766941764,"current_range_meters":6800,"station_id":"","pricing_plan_id":"cebpf4jnsgd1na2vs0mg"},{"bike_id":"8526cb13-c70f-4134-9aed-80c4c9d31e4e","system_id":"levelo_inurba_marseille","lat":43.27895,"lon":5.39157,"is_reserved":false,"is_disabled":false,"rental_uris":{"android":"levelo://app?vid=8526cb13-c70f-4134-9aed-80c4c9d31e4e","ios":"levelo://app?vid=8526cb13-c70f-4134-9aed-80c4c9d31e4e"},"vehicle_type_id":"4","last_reported":1766941764,"current_range_meters":6800,"station_id":"","pricing_plan_id":"cebpf4jnsgd1na2vs0mg"},{"bike_id":"474434a9-d546-42bc-a5bb-96f99de370c7","system_id":"levelo_inurba_marseille","lat":43.265385,"lon":5.372888,"is_reserved":false,"is_disabled":true,"rental_uris":{"android":"levelo://app?vid=474434a9-d546-42bc-a5bb-96f99de370c7","ios":"levelo://app?vid=474434a9-d546-42bc-a5bb-96f99de370c7"},"vehicle_type_id":"4","last_reported":1766941764,"current_range_meters":6800,"station_id":"","pricing_plan_id":"cebpf4jnsgd1na2vs0mg"},{"bike_id":"1c79eb29-135e-40c1-8651-901759d4aaa6","system_id":"levelo_inurba_marseille","lat":43.28573,"lon":5.353033,"is_reserved":false,"is_disabled":false,"rental_uris":{"android":"levelo://app?vid=1c79eb29-135e-40c1-8651-901759d4aaa6","ios":"levelo://app?vid=1c79eb29-135e-40c1-8651-901759d4aaa6"},"vehicle_type_id":"4","last_reported":1766941764,"current_range_meters":6800,"station_id":"","pricing_plan_id":"cebpf4jnsgd1na2vs0mg"},{"bike_id":"7ef0cae7-d0ce-42f4-8945-1ef1b36c8fff","system_id":"levelo_inurba_marseille","lat":43.29053,"lon":5.39939,"is_reserved":false,"is_disabled":false,"rental_uris":{"android":"levelo://app?vid=7ef0cae7-d0ce-42f4-8945-1ef1b36c8fff","ios":"levelo://app?vid=7ef0cae7-d0ce-42f4-8945-1ef1b36c8fff"},"vehicle_type_id":"4","last_reported":1766941764,"current_range_meters":6800,"station_id":"ce4bh392rcd13ifvqdm0","pricing_plan_id":"cebpf4jnsgd1na2vs0mg"},{"bike_id":"009a7a68-4265-42d4-9da8-13cb93ff2baf","system_id":"levelo_inurba_marseille","lat":43.28365,"lon":5.38626,"is_reserved":false,"is_disabled":false,"rental_uris":{"android":"levelo://app?vid=009a7a68-4265-42d4-9da8-13cb93ff2baf","ios":"levelo://app?vid=009a7a68-4265-42d4-9da8-13cb93ff2baf"},"vehicle_type_id":"4","last_reported":1766941764,"current_range_meters":6800,"station_id":"ce4bh492rcd13ifvqdvg","pricing_plan_id":"cebpf4jnsgd1na2vs0mg"},{"bike_id":"e4c29ad7-fc11-4e21-ac8f-ee889630bca4","system_id":"levelo_inurba_marseille","lat":43.291984,"lon":5.39316,"is_reserved":false,"is_disabled":false,"rental_uris":{"android":"levelo://app?vid=e4c29ad7-fc11-4e21-ac8f-ee889630bca4","ios":"levelo://app?vid=e4c29ad7-fc11-4e21-ac8f-ee889630bca4"},"vehicle_type_id":"4","last_reported":1766941764,"current_range_meters":6800,"station_id":"","pricing_plan_id":"cebpf4jnsgd1na2vs0mg"},{"bike_id":"bfe55525-a371-49b4-b5c7-998b6a951b89","system_id":"levelo_inurba_marseille","lat":43.30214,"lon":5.39465,"is_reserved":false,"is_disabled":false,"rental_uris":{"android":"levelo://app?vid=bfe55525-a371-49b4-b5c7-998b6a951b89","ios":"levelo://app?vid=bfe55525-a371-49b4-b5c7-998b6a951b89"},"vehicle_type_id":"4","last_reported":1766941764,"current_range_meters":6800,"station_id":"ce4bh0p2rcd13ifvqd70","pricing_plan_id":"cebpf4jnsgd1na2vs0mg"},{"bike_id":"08f4624a-a23d-4738-b794-a8bd53bfd7e8","system_id":"levelo_inurba_marseille","lat":43.29845,"lon":5.37643,"is_reserved":false,"is_disabled":false,"rental_uris":{"android":"levelo://app?vid=08f4624a-a23d-4738-b794-a8bd53bfd7e8","ios":"levelo://app?vid=08f4624a-a23d-4738-b794-a8bd53bfd7e8"},"vehicle_type_id":"4","last_reported":1766941764,"current_range_meters":7200,"station_id":"","pricing_plan_id":"cebpf4jnsgd1na2vs0mg"},{"bike_id":"ca54b8c2-a6c5-4699-8603-0ca8d9b98b82","system_id":"levelo_inurba_marseille","lat":43.3042,"lon":5.41279,"is_reserved":false,"is_disabled":false,"rental_uris":{"android":"levelo://app?vid=ca54b8c2-a6c5-4699-8603-0ca8d9b98b82","ios":"levelo://app?vid=ca54b8c2-a6c5-4699-8603-0ca8d9b98b82"},"vehicle_type_id":"4","last_reported":1766941764,"current_range_meters":7200,"station_id":"ce4bhop2rcd13ifvqh8g","pricing_plan_id":"cebpf4jnsgd1na2vs0mg"},{"bike_id":"80e5704f-ad4a-47fa-8434-b81adbddb3a7","system_id":"levelo_inurba_marseille","lat":43.28005,"lon":5.4102,"is_reserved":false,"is_disabled":true,"rental_uris":{"android":"levelo://app?vid=80e5704f-ad4a-47fa-8434-b81adbddb3a7","ios":"levelo://app?vid=80e5704f-ad4a-47fa-8434-b81adbddb3a7"},"vehicle_type_id":"4","last_reported":1766941764,"current_range_meters":7200,"station_id":"","pricing_plan_id":"cebpf4jnsgd1na2vs0mg"},{"bike_id":"50f2d474-ee9b-4c75-ad2b-2a2a28d29ffb","system_id":"levelo_inurba_marseille","lat":43.29677,"lon":5.38557,"is_reserved":false,"is_disabled":false,"rental_uris":{"android":"levelo://app?vid=50f2d474-ee9b-4c75-ad2b-2a2a28d29ffb","ios":"levelo://app?vid=50f2d474-ee9b-4c75-ad2b-2a2a28d29ffb"},"vehicle_type_id":"4","last_reported":1766941764,"current_range_meters":7200,"station_id":"","pricing_plan_id":"cebpf4jnsgd1na2vs0mg"},{"bike_id":"56a92fb4-64ff-443d-9454-d95cb35003d7","system_id":"levelo_inurba_marseille","lat":43.29296,"lon":5.37457,"is_reserved":false,"is_disabled":false,"rental_uris":{"android":"levelo://app?vid=56a92fb4-64ff-443d-9454-d95cb35003d7","ios":"levelo://app?vid=56a92fb4-64ff-443d-9454-d95cb35003d7"},"vehicle_type_id":"4","last_reported":1766941764,"current_range_meters":7200,"station_id":"ce4bgi12rcd13ifvqb70","pricing_plan_id":"cebpf4jnsgd1na2vs0mg"},{"bike_id":"9d21dcb0-ce26-48db-a303-317550439f40","system_id":"levelo_inurba_marseille","lat":43.28483,"lon":5.48387,"is_reserved":false,"is_disabled":false,"rental_uris":{"android":"levelo://app?vid=9d21dcb0-ce26-48db-a303-317550439f40","ios":"levelo://app?vid=9d21dcb0-ce26-48db-a303-317550439f40"},"vehicle_type_id":"4","last_reported":1766941764,"current_range_meters":7200,"station_id":"","pricing_plan_id":"cebpf4jnsgd1na2vs0mg"},{"bike_id":"fb5f9a2b-b9ce-4484-86e2-ef0f93c02244","system_id":"levelo_inurba_marseille","lat":43.29704,"lon":5.36598,"is_reserved":false,"is_disabled":false,"rental_uris":{"android":"levelo://app?vid=fb5f9a2b-b9ce-4484-86e2-ef0f93c02244","ios":"levelo://app?vid=fb5f9a2b-b9ce-4484-86e2-ef0f93c02244"},"vehicle_type_id":"4","last_reported":1766941764,"current_range_meters":7200,"station_id":"ce4bgn12rcd13ifvqbt0","pricing_plan_id":"cebpf4jnsgd1na2vs0mg"},{"bike_id":"ae6f5036-1aa0-4a83-abdc-77ced3fab898","system_id":"levelo_inurba_marseille","lat":43.30933,"lon":5.38027,"is_reserved":false,"is_disabled":false,"rental_uris":{"android":"levelo://app?vid=ae6f5036-1aa0-4a83-abdc-77ced3fab898","ios":"levelo://app?vid=ae6f5036-1aa0-4a83-abdc-77ced3fab898"},"vehicle_type_id":"4","last_reported":1766941764,"current_range_meters":8000,"station_id":"","pricing_plan_id":"cebpf4jnsgd1na2vs0mg"},{"bike_id":"7451e2f1-97cc-4a6a-824e-1c725c74e9d6","system_id":"levelo_inurba_marseille","lat":43.32365,"lon":5.38414,"is_reserved":false,"is_disabled":false,"rental_uris":{"android":"levelo://app?vid=7451e2f1-97cc-4a6a-824e-1c725c74e9d6","ios":"levelo://app?vid=7451e2f1-97cc-4a6a-824e-1c725c74e9d6"},"vehicle_type_id":"4","last_reported":1766941764,"current_range_meters":8000,"station_id":"","pricing_plan_id":"cebpf4jnsgd1na2vs0mg"},{"bike_id":"50a4ce5f-a474-46a7-9bd4-4f00dcd7fee7","system_id":"levelo_inurba_marseille","lat":43.28838,"lon":5.35848,"is_reserved":false,"is_disabled":false,"rental_uris":{"android":"levelo://app?vid=50a4ce5f-a474-46a7-9bd4-4f00dcd7fee7","ios":"levelo://app?vid=50a4ce5f-a474-46a7-9bd4-4f00dcd7fee7"},"vehicle_type_id":"4","last_reported":1766941764,"current_range_meters":8000,"station_id":"ce4bhb12rcd13ifvqem0","pricing_plan_id":"cebpf4jnsgd1na2vs0mg"},{"bike_id":"c0723a55-d0d0-493e-a4c5-9479bcaeff93","system_id":"levelo_inurba_marseille","lat":43.28464,"lon":5.48399,"is_reserved":false,"is_disabled":false,"rental_uris":{"android":"levelo://app?vid=c0723a55-d0d0-493e-a4c5-9479bcaeff93","ios":"levelo://app?vid=c0723a55-d0d0-493e-a4c5-9479bcaeff93"},"vehicle_type_id":"4","last_reported":1766941764,"current_range_meters":8000,"station_id":"","pricing_plan_id":"cebpf4jnsgd1na2vs0mg"},{"bike_id":"7c5ef131-acab-4659-999a-8e7261371087","system_id":"levelo_inurba_marseille","lat":43.29861,"lon":5.37846,"is_reserved":false,"is_disabled":true,"rental_uris":{"android":"levelo://app?vid=7c5ef131-acab-4659-999a-8e7261371087","ios":"levelo://app?vid=7c5ef131-acab-4659-999a-8e7261371087"},"vehicle_type_id":"4","last_reported":1766941764,"current_range_meters":8000,"station_id":"","pricing_plan_id":"cebpf4jnsgd1na2vs0mg"},{"bike_id":"2774eca9-c878-4033-8514-2330fd47f167","system_id":"levelo_inurba_marseille","lat":43.28455,"lon":5.48409,"is_reserved":false,"is_disabled":false,"rental_uris":{"android":"levelo://app?vid=2774eca9-c878-4033-8514-2330fd47f167","ios":"levelo://app?vid=2774eca9-c878-4033-8514-2330fd47f167"},"vehicle_type_id":"4","last_reported":1766941764,"current_range_meters":8000,"station_id":"st_d3svhcjqgbts73a3dn0g","pricing_plan_id":"cebpf4jnsgd1na2vs0mg"},{"bike_id":"bafbac57-f95d-474f-9ab8-4089c3a4d706","system_id":"levelo_inurba_marseille","lat":43.2853,"lon":5.44103,"is_reserved":false,"is_disabled":false,"rental_uris":{"android":"levelo://app?vid=bafbac57-f95d-474f-9ab8-4089c3a4d706","ios":"levelo://app?vid=bafbac57-f95d-474f-9ab8-4089c3a4d706"},"vehicle_type_id":"4","last_reported":1766941764,"current_range_meters":8000,"station_id":"st_d3j3df2ikq2c7380ej80","pricing_plan_id":"cebpf4jnsgd1na2vs0mg"},{"bike_id":"1bfe457c-4b73-4e36-84fd-95591946394d","system_id":"levelo_inurba_marseille","lat":43.30536,"lon":5.36534,"is_reserved":false,"is_disabled":false,"rental_uris":{"android":"levelo://app?vid=1bfe457c-4b73-4e36-84fd-95591946394d","ios":"levelo://app?vid=1bfe457c-4b73-4e36-84fd-95591946394d"},"vehicle_type_id":"4","last_reported":1766941764,"current_range_meters":8000,"station_id":"ce4bgs12rcd13ifvqcag","pricing_plan_id":"cebpf4jnsgd1na2vs0mg"},{"bike_id":"d0acdcb0-b5b6-48c9-ab8e-dcbbc8f107be","system_id":"levelo_inurba_marseille","lat":43.28422,"lon":5.34982,"is_reserved":false,"is_disabled":false,"rental_uris":{"android":"levelo://app?vid=d0acdcb0-b5b6-48c9-ab8e-dcbbc8f107be","ios":"levelo://app?vid=d0acdcb0-b5b6-48c9-ab8e-dcbbc8f107be"},"vehicle_type_id":"4","last_reported":1766941764,"current_range_meters":8000,"station_id":"ce4bhbh2rcd13ifvqepg","pricing_plan_id":"cebpf4jnsgd1na2vs0mg"},{"bike_id":"23887e2e-6364-4691-94bb-f54bd67e804e","system_id":"levelo_inurba_marseille","lat":43.30551,"lon":5.36519,"is_reserved":false,"is_disabled":false,"rental_uris":{"android":"levelo://app?vid=23887e2e-6364-4691-94bb-f54bd67e804e","ios":"levelo://app?vid=23887e2e-6364-4691-94bb-f54bd67e804e"},"vehicle_type_id":"4","last_reported":1766941764,"current_range_meters":8400,"station_id":"ce4bgs12rcd13ifvqcag","pricing_plan_id":"cebpf4jnsgd1na2vs0mg"},{"bike_id":"97848435-e4dc-4eee-ab50-f0d1b0b6b0f3","system_id":"levelo_inurba_marseille","lat":43.25848,"lon":5.39907,"is_reserved":false,"is_disabled":true,"rental_uris":{"android":"levelo://app?vid=97848435-e4dc-4eee-ab50-f0d1b0b6b0f3","ios":"levelo://app?vid=97848435-e4dc-4eee-ab50-f0d1b0b6b0f3"},"vehicle_type_id":"4","last_reported":1766941764,"current_range_meters":8400,"station_id":"ce4bhl92rcd13ifvqghg","pricing_plan_id":"cebpf4jnsgd1na2vs0mg"},{"bike_id":"6baba0a9-8e75-4061-9208-ac16fff817bf","system_id":"levelo_inurba_marseille","lat":43.27985,"lon":5.41661,"is_reserved":false,"is_disabled":false,"rental_uris":{"android":"levelo://app?vid=6baba0a9-8e75-4061-9208-ac16fff817bf","ios":"levelo://app?vid=6baba0a9-8e75-4061-9208-ac16fff817bf"},"vehicle_type_id":"4","last_reported":1766941764,"current_range_meters":8400,"station_id":"ce4bho12rcd13ifvqh1g","pricing_plan_id":"cebpf4jnsgd1na2vs0mg"},{"bike_id":"30754e3c-9b6d-4a7b-a571-ac555d0043a4","system_id":"levelo_inurba_marseille","lat":43.25475,"lon":5.37641,"is_reserved":false,"is_disabled":false,"rental_uris":{"android":"levelo://app?vid=30754e3c-9b6d-4a7b-a571-ac555d0043a4","ios":"levelo://app?vid=30754e3c-9b6d-4a7b-a571-ac555d0043a4"},"vehicle_type_id":"4","last_reported":1766941764,"current_range_meters":8400,"station_id":"ce4bhh12rcd13ifvqff0","pricing_plan_id":"cebpf4jnsgd1na2vs0mg"},{"bike_id":"364a48f3-8473-4e00-9d33-2eb0fe242911","system_id":"levelo_inurba_marseille","lat":43.27662,"lon":5.38916,"is_reserved":false,"is_disabled":true,"rental_uris":{"android":"levelo://app?vid=364a48f3-8473-4e00-9d33-2eb0fe242911","ios":"levelo://app?vid=364a48f3-8473-4e00-9d33-2eb0fe242911"},"vehicle_type_id":"4","last_reported":1766941764,"current_range_meters":8800,"station_id":"ce4bhi12rcd13ifvqfo0","pricing_plan_id":"cebpf4jnsgd1na2vs0mg"},{"bike_id":"c98336ca-86f7-4772-8e37-1dcb1e99e62b","system_id":"levelo_inurba_marseille","lat":43.23789,"lon":5.36633,"is_reserved":false,"is_disabled":false,"rental_uris":{"android":"levelo://app?vid=c98336ca-86f7-4772-8e37-1dcb1e99e62b","ios":"levelo://app?vid=c98336ca-86f7-4772-8e37-1dcb1e99e62b"},"vehicle_type_id":"4","last_reported":1766941764,"current_range_meters":8800,"station_id":"st_d3nk18o9ro0c73en2l3g","pricing_plan_id":"cebpf4jnsgd1na2vs0mg"},{"bike_id":"693e74ec-09b8-47f6-83d7-d5e8d99e0141","system_id":"levelo_inurba_marseille","lat":43.312587,"lon":5.389431,"is_reserved":false,"is_disabled":false,"rental_uris":{"android":"levelo://app?vid=693e74ec-09b8-47f6-83d7-d5e8d99e0141","ios":"levelo://app?vid=693e74ec-09b8-47f6-83d7-d5e8d99e0141"},"vehicle_type_id":"4","last_reported":1766941764,"current_range_meters":8800,"station_id":"","pricing_plan_id":"cebpf4jnsgd1na2vs0mg"},{"bike_id":"3c6dfb34-82b5-4988-93a7-7ce81fb8808f","system_id":"levelo_inurba_marseille","lat":43.27924,"lon":5.39569,"is_reserved":false,"is_disabled":true,"rental_uris":{"android":"levelo://app?vid=3c6dfb34-82b5-4988-93a7-7ce81fb8808f","ios":"levelo://app?vid=3c6dfb34-82b5-4988-93a7-7ce81fb8808f"},"vehicle_type_id":"4","last_reported":1766941764,"current_range_meters":8800,"station_id":"ce4bhf92rcd13ifvqf40","pricing_plan_id":"cebpf4jnsgd1na2vs0mg"},{"bike_id":"83b6cc26-bb79-4d79-9cba-ac8d1b8504f3","system_id":"levelo_inurba_marseille","lat":43.30155,"lon":5.38099,"is_reserved":false,"is_disabled":false,"rental_uris":{"android":"levelo://app?vid=83b6cc26-bb79-4d79-9cba-ac8d1b8504f3","ios":"levelo://app?vid=83b6cc26-bb79-4d79-9cba-ac8d1b8504f3"},"vehicle_type_id":"4","last_reported":1766941764,"current_range_meters":8800,"station_id":"ce4bgjp2rcd13ifvqbh0","pricing_plan_id":"cebpf4jnsgd1na2vs0mg"},{"bike_id":"3a5b4be7-4581-4544-abed-bcc89ddc3cf8","system_id":"levelo_inurba_marseille","lat":43.28945,"lon":5.36756,"is_reserved":false,"is_disabled":false,"rental_uris":{"android":"levelo://app?vid=3a5b4be7-4581-4544-abed-bcc89ddc3cf8","ios":"levelo://app?vid=3a5b4be7-4581-4544-abed-bcc89ddc3cf8"},"vehicle_type_id":"4","last_reported":1766941764,"current_range_meters":8800,"station_id":"","pricing_plan_id":"cebpf4jnsgd1na2vs0mg"},{"bike_id":"d7ee54e6-2519-4ac6-8f67-c3a659f7d88b","system_id":"levelo_inurba_marseille","lat":43.285,"lon":5.44125,"is_reserved":false,"is_disabled":false,"rental_uris":{"android":"levelo://app?vid=d7ee54e6-2519-4ac6-8f67-c3a659f7d88b","ios":"levelo://app?vid=d7ee54e6-2519-4ac6-8f67-c3a659f7d88b"},"vehicle_type_id":"4","last_reported":1766941764,"current_range_meters":8800,"station_id":"st_d3j3df2ikq2c7380ej80","pricing_plan_id":"cebpf4jnsgd1na2vs0mg"},{"bike_id":"40218198-d99c-42e2-908f-d455d655286e","system_id":"levelo_inurba_marseille","lat":43.296204,"lon":5.371638,"is_reserved":false,"is_disabled":false,"rental_uris":{"android":"levelo://app?vid=40218198-d99c-42e2-908f-d455d655286e","ios":"levelo://app?vid=40218198-d99c-42e2-908f-d455d655286e"},"vehicle_type_id":"4","last_reported":1766941764,"current_range_meters":9200,"station_id":"ce4bgnh2rcd13ifvqc0g","pricing_plan_id":"cebpf4jnsgd1na2vs0mg"},{"bike_id":"2cf6866a-136a-434d-82a4-46c095e51c85","system_id":"levelo_inurba_marseille","lat":43.27576,"lon":5.38416,"is_reserved":false,"is_disabled":false,"rental_uris":{"android":"levelo://app?vid=2cf6866a-136a-434d-82a4-46c095e51c85","ios":"levelo://app?vid=2cf6866a-136a-434d-82a4-46c095e51c85"},"vehicle_type_id":"4","last_reported":1766941764,"current_range_meters":9200,"station_id":"ce4bhh92rcd13ifvqfi0","pricing_plan_id":"cebpf4jnsgd1na2vs0mg"},{"bike_id":"e44fdb7f-8720-46ac-981c-054c6ce20310","system_id":"levelo_inurba_marseille","lat":43.28462,"lon":5.48416,"is_reserved":false,"is_disabled":true,"rental_uris":{"android":"levelo://app?vid=e44fdb7f-8720-46ac-981c-054c6ce20310","ios":"levelo://app?vid=e44fdb7f-8720-46ac-981c-054c6ce20310"},"vehicle_type_id":"4","last_reported":1766941764,"current_range_meters":9200,"station_id":"st_d3svhcjqgbts73a3dn0g","pricing_plan_id":"cebpf4jnsgd1na2vs0mg"},{"bike_id":"5c6e3ec7-cc1e-4910-93fe-8737f63c13e6","system_id":"levelo_inurba_marseille","lat":43.34145,"lon":5.40899,"is_reserved":false,"is_disabled":false,"rental_uris":{"android":"levelo://app?vid=5c6e3ec7-cc1e-4910-93fe-8737f63c13e6","ios":"levelo://app?vid=5c6e3ec7-cc1e-4910-93fe-8737f63c13e6"},"vehicle_type_id":"4","last_reported":1766941764,"current_range_meters":9200,"station_id":"ce4bhqh2rcd13ifvqhlg","pricing_plan_id":"cebpf4jnsgd1na2vs0mg"},{"bike_id":"fa86f11b-364c-47b2-b2dd-058225bb80dc","system_id":"levelo_inurba_marseille","lat":43.295579,"lon":5.375132,"is_reserved":false,"is_disabled":false,"rental_uris":{"android":"levelo://app?vid=fa86f11b-364c-47b2-b2dd-058225bb80dc","ios":"levelo://app?vid=fa86f11b-364c-47b2-b2dd-058225bb80dc"},"vehicle_type_id":"4","last_reported":1766941764,"current_range_meters":9200,"station_id":"ce4bgh92rcd13ifvqb50","pricing_plan_id":"cebpf4jnsgd1na2vs0mg"},{"bike_id":"0625f816-0391-42d2-88f9-327d95d0abe0","system_id":"levelo_inurba_marseille","lat":43.31012,"lon":5.3677,"is_reserved":false,"is_disabled":false,"rental_uris":{"android":"levelo://app?vid=0625f816-0391-42d2-88f9-327d95d0abe0","ios":"levelo://app?vid=0625f816-0391-42d2-88f9-327d95d0abe0"},"vehicle_type_id":"4","last_reported":1766941764,"current_range_meters":9200,"station_id":"","pricing_plan_id":"cebpf4jnsgd1na2vs0mg"},{"bike_id":"a44a592f-2078-4ceb-a95a-8c754eff4139","system_id":"levelo_inurba_marseille","lat":43.29784,"lon":5.38104,"is_reserved":false,"is_disabled":false,"rental_uris":{"android":"levelo://app?vid=a44a592f-2078-4ceb-a95a-8c754eff4139","ios":"levelo://app?vid=a44a592f-2078-4ceb-a95a-8c754eff4139"},"vehicle_type_id":"4","last_reported":1766941764,"current_range_meters":9200,"station_id":"ce4bgip2rcd13ifvqbb0","pricing_plan_id":"cebpf4jnsgd1na2vs0mg"},{"bike_id":"278b026d-7c90-4296-9421-3e0684d777fa","system_id":"levelo_inurba_marseille","lat":43.30048,"lon":5.3821,"is_reserved":false,"is_disabled":false,"rental_uris":{"android":"levelo://app?vid=278b026d-7c90-4296-9421-3e0684d777fa","ios":"levelo://app?vid=278b026d-7c90-4296-9421-3e0684d777fa"},"vehicle_type_id":"4","last_reported":1766941764,"current_range_meters":9200,"station_id":"","pricing_plan_id":"cebpf4jnsgd1na2vs0mg"},{"bike_id":"17a49efb-d179-4b85-b20c-4afe87c0613f","system_id":"levelo_inurba_marseille","lat":43.31048,"lon":5.37143,"is_reserved":false,"is_disabled":true,"rental_uris":{"android":"levelo://app?vid=17a49efb-d179-4b85-b20c-4afe87c0613f","ios":"levelo://app?vid=17a49efb-d179-4b85-b20c-4afe87c0613f"},"vehicle_type_id":"4","last_reported":1766941764,"current_range_meters":9200,"station_id":"st_d4kl2rp97mjs73e7tdfg","pricing_plan_id":"cebpf4jnsgd1na2vs0mg"},{"bike_id":"64dab700-518e-4ce1-915c-2d842c37ec5e","system_id":"levelo_inurba_marseille","lat":43.2861,"lon":5.35098,"is_reserved":false,"is_disabled":false,"rental_uris":{"android":"levelo://app?vid=64dab700-518e-4ce1-915c-2d842c37ec5e","ios":"levelo://app?vid=64dab700-518e-4ce1-915c-2d842c37ec5e"},"vehicle_type_id":"4","last_reported":1766941764,"current_range_meters":9200,"station_id":"ce4bhch2rcd13ifvqeug","pricing_plan_id":"cebpf4jnsgd1na2vs0mg"},{"bike_id":"8542e20d-b468-47cd-a203-122e57497fd6","system_id":"levelo_inurba_marseille","lat":43.30526,"lon":5.3671,"is_reserved":false,"is_disabled":false,"rental_uris":{"android":"levelo://app?vid=8542e20d-b468-47cd-a203-122e57497fd6","ios":"levelo://app?vid=8542e20d-b468-47cd-a203-122e57497fd6"},"vehicle_type_id":"4","last_reported":1766941764,"current_range_meters":9200,"station_id":"ce4bgrp2rcd13ifvqc9g","pricing_plan_id":"cebpf4jnsgd1na2vs0mg"},{"bike_id":"f7c5eda3-748c-42a8-a173-69d6df7542b6","system_id":"levelo_inurba_marseille","lat":43.29788,"lon":5.38122,"is_reserved":false,"is_disabled":false,"rental_uris":{"android":"levelo://app?vid=f7c5eda3-748c-42a8-a173-69d6df7542b6","ios":"levelo://app?vid=f7c5eda3-748c-42a8-a173-69d6df7542b6"},"vehicle_type_id":"4","last_reported":1766941764,"current_range_meters":9200,"station_id":"ce4bgip2rcd13ifvqbb0","pricing_plan_id":"cebpf4jnsgd1na2vs0mg"},{"bike_id":"fa7accbb-c645-444f-83ac-c8726bf249f6","system_id":"levelo_inurba_marseille","lat":43.28941,"lon":5.36386,"is_reserved":false,"is_disabled":false,"rental_uris":{"android":"levelo://app?vid=fa7accbb-c645-444f-83ac-c8726bf249f6","ios":"levelo://app?vid=fa7accbb-c645-444f-83ac-c8726bf249f6"},"vehicle_type_id":"4","last_reported":1766941764,"current_range_meters":9600,"station_id":"ce4bhc92rcd13ifvqetg","pricing_plan_id":"cebpf4jnsgd1na2vs0mg"},{"bike_id":"ec3a5f28-5370-4e1c-b1b6-6097f5c40c08","system_id":"levelo_inurba_marseille","lat":43.28771,"lon":5.38423,"is_reserved":false,"is_disabled":false,"rental_uris":{"android":"levelo://app?vid=ec3a5f28-5370-4e1c-b1b6-6097f5c40c08","ios":"levelo://app?vid=ec3a5f28-5370-4e1c-b1b6-6097f5c40c08"},"vehicle_type_id":"4","last_reported":1766941764,"current_range_meters":9600,"station_id":"","pricing_plan_id":"cebpf4jnsgd1na2vs0mg"},{"bike_id":"ae3f9245-01e2-4899-a70f-5ad6b9712c38","system_id":"levelo_inurba_marseille","lat":43.295704,"lon":5.375212,"is_reserved":false,"is_disabled":false,"rental_uris":{"android":"levelo://app?vid=ae3f9245-01e2-4899-a70f-5ad6b9712c38","ios":"levelo://app?vid=ae3f9245-01e2-4899-a70f-5ad6b9712c38"},"vehicle_type_id":"4","last_reported":1766941764,"current_range_meters":9600,"station_id":"ce4bgh92rcd13ifvqb50","pricing_plan_id":"cebpf4jnsgd1na2vs0mg"},{"bike_id":"b6ba703c-aeb1-4fc3-bb0b-db2c361bc5a1","system_id":"levelo_inurba_marseille","lat":43.288612,"lon":5.425169,"is_reserved":false,"is_disabled":false,"rental_uris":{"android":"levelo://app?vid=b6ba703c-aeb1-4fc3-bb0b-db2c361bc5a1","ios":"levelo://app?vid=b6ba703c-aeb1-4fc3-bb0b-db2c361bc5a1"},"vehicle_type_id":"4","last_reported":1766941764,"current_range_meters":9600,"station_id":"st_d3b462108ojc7389ooeg","pricing_plan_id":"cebpf4jnsgd1na2vs0mg"},{"bike_id":"898113a0-4857-44ff-94de-b1b7a47646b6","system_id":"levelo_inurba_marseille","lat":43.303,"lon":5.38455,"is_reserved":false,"is_disabled":false,"rental_uris":{"android":"levelo://app?vid=898113a0-4857-44ff-94de-b1b7a47646b6","ios":"levelo://app?vid=898113a0-4857-44ff-94de-b1b7a47646b6"},"vehicle_type_id":"4","last_reported":1766941764,"current_range_meters":9600,"station_id":"","pricing_plan_id":"cebpf4jnsgd1na2vs0mg"},{"bike_id":"b7166de2-1d61-4c79-9744-9f412287c996","system_id":"levelo_inurba_marseille","lat":43.31231,"lon":5.38085,"is_reserved":false,"is_disabled":false,"rental_uris":{"android":"levelo://app?vid=b7166de2-1d61-4c79-9744-9f412287c996","ios":"levelo://app?vid=b7166de2-1d61-4c79-9744-9f412287c996"},"vehicle_type_id":"4","last_reported":1766941764,"current_range_meters":10000,"station_id":"","pricing_plan_id":"cebpf4jnsgd1na2vs0mg"},{"bike_id":"c4841078-6c77-4db6-bd87-68a697b4299e","system_id":"levelo_inurba_marseille","lat":43.31228,"lon":5.36858,"is_reserved":false,"is_disabled":false,"rental_uris":{"android":"levelo://app?vid=c4841078-6c77-4db6-bd87-68a697b4299e","ios":"levelo://app?vid=c4841078-6c77-4db6-bd87-68a697b4299e"},"vehicle_type_id":"4","last_reported":1766941764,"current_range_meters":10000,"station_id":"ce4bgl92rcd13ifvqbq0","pricing_plan_id":"cebpf4jnsgd1na2vs0mg"},{"bike_id":"80de60ca-64a0-4e5b-8a4a-906f78b8b649","system_id":"levelo_inurba_marseille","lat":43.2707,"lon":5.42274,"is_reserved":false,"is_disabled":false,"rental_uris":{"android":"levelo://app?vid=80de60ca-64a0-4e5b-8a4a-906f78b8b649","ios":"levelo://app?vid=80de60ca-64a0-4e5b-8a4a-906f78b8b649"},"vehicle_type_id":"4","last_reported":1766941764,"current_range_meters":10000,"station_id":"ce4bhk92rcd13ifvqgb0","pricing_plan_id":"cebpf4jnsgd1na2vs0mg"},{"bike_id":"13510b18-4a9b-47d0-a954-6d7cdc2c118c","system_id":"levelo_inurba_marseille","lat":43.28489,"lon":5.48396,"is_reserved":false,"is_disabled":false,"rental_uris":{"android":"levelo://app?vid=13510b18-4a9b-47d0-a954-6d7cdc2c118c","ios":"levelo://app?vid=13510b18-4a9b-47d0-a954-6d7cdc2c118c"},"vehicle_type_id":"4","last_reported":1766941764,"current_range_meters":10000,"station_id":"st_d3svhcjqgbts73a3dn0g","pricing_plan_id":"cebpf4jnsgd1na2vs0mg"},{"bike_id":"bbf79c3d-08ca-4c87-b5f9-8b31cf1aef88","system_id":"levelo_inurba_marseille","lat":43.320576,"lon":5.415416,"is_reserved":false,"is_disabled":false,"rental_uris":{"android":"levelo://app?vid=bbf79c3d-08ca-4c87-b5f9-8b31cf1aef88","ios":"levelo://app?vid=bbf79c3d-08ca-4c87-b5f9-8b31cf1aef88"},"vehicle_type_id":"4","last_reported":1766941764,"current_range_meters":10000,"station_id":"ce4bhq92rcd13ifvqhkg","pricing_plan_id":"cebpf4jnsgd1na2vs0mg"},{"bike_id":"f21fe9bf-f3b6-40e2-a040-797febd6921f","system_id":"levelo_inurba_marseille","lat":43.24243,"lon":5.39326,"is_reserved":false,"is_disabled":false,"rental_uris":{"android":"levelo://app?vid=f21fe9bf-f3b6-40e2-a040-797febd6921f","ios":"levelo://app?vid=f21fe9bf-f3b6-40e2-a040-797febd6921f"},"vehicle_type_id":"4","last_reported":1766941764,"current_range_meters":10000,"station_id":"","pricing_plan_id":"cebpf4jnsgd1na2vs0mg"},{"bike_id":"17122469-6fe8-44cc-83aa-2add588c9ff0","system_id":"levelo_inurba_marseille","lat":43.27069,"lon":5.42272,"is_reserved":false,"is_disabled":false,"rental_uris":{"android":"levelo://app?vid=17122469-6fe8-44cc-83aa-2add588c9ff0","ios":"levelo://app?vid=17122469-6fe8-44cc-83aa-2add588c9ff0"},"vehicle_type_id":"4","last_reported":1766941764,"current_range_meters":10000,"station_id":"ce4bhk92rcd13ifvqgb0","pricing_plan_id":"cebpf4jnsgd1na2vs0mg"},{"bike_id":"4db2dd6f-8183-4e90-af8a-d7adac78a5ac","system_id":"levelo_inurba_marseille","lat":43.27206,"lon":5.39184,"is_reserved":false,"is_disabled":true,"rental_uris":{"android":"levelo://app?vid=4db2dd6f-8183-4e90-af8a-d7adac78a5ac","ios":"levelo://app?vid=4db2dd6f-8183-4e90-af8a-d7adac78a5ac"},"vehicle_type_id":"4","last_reported":1766941764,"current_range_meters":10000,"station_id":"ce4bhhp2rcd13ifvqfm0","pricing_plan_id":"cebpf4jnsgd1na2vs0mg"},{"bike_id":"96cff8a2-c8e3-4b17-8132-2de8c70febcb","system_id":"levelo_inurba_marseille","lat":43.2853,"lon":5.44107,"is_reserved":false,"is_disabled":false,"rental_uris":{"android":"levelo://app?vid=96cff8a2-c8e3-4b17-8132-2de8c70febcb","ios":"levelo://app?vid=96cff8a2-c8e3-4b17-8132-2de8c70febcb"},"vehicle_type_id":"4","last_reported":1766941764,"current_range_meters":10800,"station_id":"st_d3j3df2ikq2c7380ej80","pricing_plan_id":"cebpf4jnsgd1na2vs0mg"},{"bike_id":"f01cc437-ef1e-483b-a62b-741f6f5f54be","system_id":"levelo_inurba_marseille","lat":43.29613,"lon":5.37727,"is_reserved":false,"is_disabled":false,"rental_uris":{"android":"levelo://app?vid=f01cc437-ef1e-483b-a62b-741f6f5f54be","ios":"levelo://app?vid=f01cc437-ef1e-483b-a62b-741f6f5f54be"},"vehicle_type_id":"4","last_reported":1766941764,"current_range_meters":10800,"station_id":"ce4bgi92rcd13ifvqb90","pricing_plan_id":"cebpf4jnsgd1na2vs0mg"},{"bike_id":"e530bd8f-98e0-4aff-a63e-440e2a2c9c33","system_id":"levelo_inurba_marseille","lat":43.30141,"lon":5.38778,"is_reserved":false,"is_disabled":false,"rental_uris":{"android":"levelo://app?vid=e530bd8f-98e0-4aff-a63e-440e2a2c9c33","ios":"levelo://app?vid=e530bd8f-98e0-4aff-a63e-440e2a2c9c33"},"vehicle_type_id":"4","last_reported":1766941764,"current_range_meters":10800,"station_id":"ce4bghh2rcd13ifvqb60","pricing_plan_id":"cebpf4jnsgd1na2vs0mg"},{"bike_id":"cf0e2dfe-8751-4251-bbd3-3ad00be9f3ad","system_id":"levelo_inurba_marseille","lat":43.28474,"lon":5.48418,"is_reserved":false,"is_disabled":false,"rental_uris":{"android":"levelo://app?vid=cf0e2dfe-8751-4251-bbd3-3ad00be9f3ad","ios":"levelo://app?vid=cf0e2dfe-8751-4251-bbd3-3ad00be9f3ad"},"vehicle_type_id":"4","last_reported":1766941764,"current_range_meters":10800,"station_id":"st_d3svhcjqgbts73a3dn0g","pricing_plan_id":"cebpf4jnsgd1na2vs0mg"},{"bike_id":"81062f73-91d6-4254-837a-3a79f2f3a1d9","system_id":"levelo_inurba_marseille","lat":43.28134,"lon":5.38944,"is_reserved":false,"is_disabled":false,"rental_uris":{"android":"levelo://app?vid=81062f73-91d6-4254-837a-3a79f2f3a1d9","ios":"levelo://app?vid=81062f73-91d6-4254-837a-3a79f2f3a1d9"},"vehicle_type_id":"4","last_reported":1766941764,"current_range_meters":10800,"station_id":"","pricing_plan_id":"cebpf4jnsgd1na2vs0mg"},{"bike_id":"c5365846-c619-4f12-8c92-97c9f9725a15","system_id":"levelo_inurba_marseille","lat":43.29516,"lon":5.37936,"is_reserved":false,"is_disabled":false,"rental_uris":{"android":"levelo://app?vid=c5365846-c619-4f12-8c92-97c9f9725a15","ios":"levelo://app?vid=c5365846-c619-4f12-8c92-97c9f9725a15"},"vehicle_type_id":"4","last_reported":1766941764,"current_range_meters":10800,"station_id":"","pricing_plan_id":"cebpf4jnsgd1na2vs0mg"},{"bike_id":"7a26756b-c1db-416d-85d9-644bca1f1fea","system_id":"levelo_inurba_marseille","lat":43.28612,"lon":5.37068,"is_reserved":false,"is_disabled":false,"rental_uris":{"android":"levelo://app?vid=7a26756b-c1db-416d-85d9-644bca1f1fea","ios":"levelo://app?vid=7a26756b-c1db-416d-85d9-644bca1f1fea"},"vehicle_type_id":"4","last_reported":1766941764,"current_range_meters":10800,"station_id":"ce4bht12rcd13ifvqi60","pricing_plan_id":"cebpf4jnsgd1na2vs0mg"},{"bike_id":"aec7723b-aa32-4163-9e48-d2409ae98963","system_id":"levelo_inurba_marseille","lat":43.28871,"lon":5.35838,"is_reserved":false,"is_disabled":false,"rental_uris":{"android":"levelo://app?vid=aec7723b-aa32-4163-9e48-d2409ae98963","ios":"levelo://app?vid=aec7723b-aa32-4163-9e48-d2409ae98963"},"vehicle_type_id":"4","last_reported":1766941764,"current_range_meters":10800,"station_id":"ce4bhb12rcd13ifvqem0","pricing_plan_id":"cebpf4jnsgd1na2vs0mg"},{"bike_id":"c158f259-4ed8-43f2-9e50-78aa6b77af52","system_id":"levelo_inurba_marseille","lat":43.29177,"lon":5.39311,"is_reserved":false,"is_disabled":false,"rental_uris":{"android":"levelo://app?vid=c158f259-4ed8-43f2-9e50-78aa6b77af52","ios":"levelo://app?vid=c158f259-4ed8-43f2-9e50-78aa6b77af52"},"vehicle_type_id":"4","last_reported":1766941764,"current_range_meters":10800,"station_id":"ce4bh192rcd13ifvqdd0","pricing_plan_id":"cebpf4jnsgd1na2vs0mg"},{"bike_id":"9016c1de-520e-4429-85a2-2967a8b371c6","system_id":"levelo_inurba_marseille","lat":43.32053,"lon":5.41551,"is_reserved":false,"is_disabled":false,"rental_uris":{"android":"levelo://app?vid=9016c1de-520e-4429-85a2-2967a8b371c6","ios":"levelo://app?vid=9016c1de-520e-4429-85a2-2967a8b371c6"},"vehicle_type_id":"4","last_reported":1766941764,"current_range_meters":11200,"station_id":"ce4bhq92rcd13ifvqhkg","pricing_plan_id":"cebpf4jnsgd1na2vs0mg"},{"bike_id":"945eb126-c9ee-4f01-8c11-f3e0bd3eb3ad","system_id":"levelo_inurba_marseille","lat":43.29708,"lon":5.37699,"is_reserved":false,"is_disabled":false,"rental_uris":{"android":"levelo://app?vid=945eb126-c9ee-4f01-8c11-f3e0bd3eb3ad","ios":"levelo://app?vid=945eb126-c9ee-4f01-8c11-f3e0bd3eb3ad"},"vehicle_type_id":"4","last_reported":1766941764,"current_range_meters":11200,"station_id":"ce4bgkh2rcd13ifvqbl0","pricing_plan_id":"cebpf4jnsgd1na2vs0mg"},{"bike_id":"30796b1a-66ff-488a-b163-6a100203e5a4","system_id":"levelo_inurba_marseille","lat":43.2919,"lon":5.35805,"is_reserved":false,"is_disabled":false,"rental_uris":{"android":"levelo://app?vid=30796b1a-66ff-488a-b163-6a100203e5a4","ios":"levelo://app?vid=30796b1a-66ff-488a-b163-6a100203e5a4"},"vehicle_type_id":"4","last_reported":1766941764,"current_range_meters":11200,"station_id":"ce4bhb12rcd13ifvqel0","pricing_plan_id":"cebpf4jnsgd1na2vs0mg"},{"bike_id":"92003d41-514c-45c6-9ada-13ae76c9b8b5","system_id":"levelo_inurba_marseille","lat":43.28607,"lon":5.37065,"is_reserved":false,"is_disabled":false,"rental_uris":{"android":"levelo://app?vid=92003d41-514c-45c6-9ada-13ae76c9b8b5","ios":"levelo://app?vid=92003d41-514c-45c6-9ada-13ae76c9b8b5"},"vehicle_type_id":"4","last_reported":1766941764,"current_range_meters":11200,"station_id":"ce4bht12rcd13ifvqi60","pricing_plan_id":"cebpf4jnsgd1na2vs0mg"},{"bike_id":"651c8d18-a513-45b6-8ce4-7babf693645e","system_id":"levelo_inurba_marseille","lat":43.29599,"lon":5.37543,"is_reserved":false,"is_disabled":false,"rental_uris":{"android":"levelo://app?vid=651c8d18-a513-45b6-8ce4-7babf693645e","ios":"levelo://app?vid=651c8d18-a513-45b6-8ce4-7babf693645e"},"vehicle_type_id":"4","last_reported":1766941764,"current_range_meters":11200,"station_id":"ce4bgh92rcd13ifvqb50","pricing_plan_id":"cebpf4jnsgd1na2vs0mg"},{"bike_id":"19f74941-04e4-478b-8e11-a2167d213916","system_id":"levelo_inurba_marseille","lat":43.265537,"lon":5.390255,"is_reserved":false,"is_disabled":false,"rental_uris":{"android":"levelo://app?vid=19f74941-04e4-478b-8e11-a2167d213916","ios":"levelo://app?vid=19f74941-04e4-478b-8e11-a2167d213916"},"vehicle_type_id":"4","last_reported":1766941764,"current_range_meters":11200,"station_id":"ce4bhe12rcd13ifvqf30","pricing_plan_id":"cebpf4jnsgd1na2vs0mg"},{"bike_id":"e77a2825-2f18-453f-84dc-7cda1b3d469d","system_id":"levelo_inurba_marseille","lat":43.2901,"lon":5.3813,"is_reserved":false,"is_disabled":true,"rental_uris":{"android":"levelo://app?vid=e77a2825-2f18-453f-84dc-7cda1b3d469d","ios":"levelo://app?vid=e77a2825-2f18-453f-84dc-7cda1b3d469d"},"vehicle_type_id":"4","last_reported":1766941764,"current_range_meters":11200,"station_id":"ce4bh4p2rcd13ifvqe1g","pricing_plan_id":"cebpf4jnsgd1na2vs0mg"},{"bike_id":"dc6ff905-7ca3-48a0-af38-f825adacbaa7","system_id":"levelo_inurba_marseille","lat":43.28478,"lon":5.38412,"is_reserved":false,"is_disabled":false,"rental_uris":{"android":"levelo://app?vid=dc6ff905-7ca3-48a0-af38-f825adacbaa7","ios":"levelo://app?vid=dc6ff905-7ca3-48a0-af38-f825adacbaa7"},"vehicle_type_id":"4","last_reported":1766941764,"current_range_meters":11200,"station_id":"ce4bh512rcd13ifvqe3g","pricing_plan_id":"cebpf4jnsgd1na2vs0mg"},{"bike_id":"36e3ab74-d85b-46de-9904-53928a1da310","system_id":"levelo_inurba_marseille","lat":43.25673,"lon":5.40018,"is_reserved":false,"is_disabled":false,"rental_uris":{"android":"levelo://app?vid=36e3ab74-d85b-46de-9904-53928a1da310","ios":"levelo://app?vid=36e3ab74-d85b-46de-9904-53928a1da310"},"vehicle_type_id":"4","last_reported":1766941764,"current_range_meters":11200,"station_id":"","pricing_plan_id":"cebpf4jnsgd1na2vs0mg"},{"bike_id":"492eb07e-46fa-4acf-a89b-e9bd66a0108c","system_id":"levelo_inurba_marseille","lat":43.281036,"lon":5.378321,"is_reserved":false,"is_disabled":false,"rental_uris":{"android":"levelo://app?vid=492eb07e-46fa-4acf-a89b-e9bd66a0108c","ios":"levelo://app?vid=492eb07e-46fa-4acf-a89b-e9bd66a0108c"},"vehicle_type_id":"4","last_reported":1766941764,"current_range_meters":11200,"station_id":"ce4bha12rcd13ifvqee0","pricing_plan_id":"cebpf4jnsgd1na2vs0mg"},{"bike_id":"b8359eb8-309f-4919-a9d8-14bc8a289068","system_id":"levelo_inurba_marseille","lat":43.29845,"lon":5.381046,"is_reserved":false,"is_disabled":false,"rental_uris":{"android":"levelo://app?vid=b8359eb8-309f-4919-a9d8-14bc8a289068","ios":"levelo://app?vid=b8359eb8-309f-4919-a9d8-14bc8a289068"},"vehicle_type_id":"4","last_reported":1766941764,"current_range_meters":11200,"station_id":"","pricing_plan_id":"cebpf4jnsgd1na2vs0mg"},{"bike_id":"5b749fe2-f403-49d1-914b-4e5a1f99b92b","system_id":"levelo_inurba_marseille","lat":43.25343,"lon":5.42181,"is_reserved":false,"is_disabled":false,"rental_uris":{"android":"levelo://app?vid=5b749fe2-f403-49d1-914b-4e5a1f99b92b","ios":"levelo://app?vid=5b749fe2-f403-49d1-914b-4e5a1f99b92b"},"vehicle_type_id":"4","last_reported":1766941764,"current_range_meters":11200,"station_id":"st_d2m65c5bi1j21697t3ng","pricing_plan_id":"cebpf4jnsgd1na2vs0mg"},{"bike_id":"6f43cfcd-5b7c-4880-b513-fb31e9502d04","system_id":"levelo_inurba_marseille","lat":43.280119,"lon":5.440314,"is_reserved":false,"is_disabled":false,"rental_uris":{"android":"levelo://app?vid=6f43cfcd-5b7c-4880-b513-fb31e9502d04","ios":"levelo://app?vid=6f43cfcd-5b7c-4880-b513-fb31e9502d04"},"vehicle_type_id":"4","last_reported":1766941764,"current_range_meters":11200,"station_id":"","pricing_plan_id":"cebpf4jnsgd1na2vs0mg"},{"bike_id":"12520dd9-4a2d-4b9d-a404-90231b595245","system_id":"levelo_inurba_marseille","lat":43.295572,"lon":5.398035,"is_reserved":false,"is_disabled":false,"rental_uris":{"android":"levelo://app?vid=12520dd9-4a2d-4b9d-a404-90231b595245","ios":"levelo://app?vid=12520dd9-4a2d-4b9d-a404-90231b595245"},"vehicle_type_id":"4","last_reported":1766941764,"current_range_meters":11200,"station_id":"ce4bh312rcd13ifvqdj0","pricing_plan_id":"cebpf4jnsgd1na2vs0mg"},{"bike_id":"b26a7c0a-3024-4423-8d4e-980c16bef4b3","system_id":"levelo_inurba_marseille","lat":43.30125,"lon":5.39874,"is_reserved":false,"is_disabled":false,"rental_uris":{"android":"levelo://app?vid=b26a7c0a-3024-4423-8d4e-980c16bef4b3","ios":"levelo://app?vid=b26a7c0a-3024-4423-8d4e-980c16bef4b3"},"vehicle_type_id":"4","last_reported":1766941764,"current_range_meters":11200,"station_id":"ce4bh0h2rcd13ifvqd40","pricing_plan_id":"cebpf4jnsgd1na2vs0mg"},{"bike_id":"417386cf-4059-4a1f-ab41-a9b62b453096","system_id":"levelo_inurba_marseille","lat":43.33781,"lon":5.3742,"is_reserved":false,"is_disabled":false,"rental_uris":{"android":"levelo://app?vid=417386cf-4059-4a1f-ab41-a9b62b453096","ios":"levelo://app?vid=417386cf-4059-4a1f-ab41-a9b62b453096"},"vehicle_type_id":"4","last_reported":1766941764,"current_range_meters":11200,"station_id":"","pricing_plan_id":"cebpf4jnsgd1na2vs0mg"},{"bike_id":"f4bd4050-bbb2-4a3a-89ad-dc72c5505cbb","system_id":"levelo_inurba_marseille","lat":43.29747,"lon":5.37684,"is_reserved":false,"is_disabled":false,"rental_uris":{"android":"levelo://app?vid=f4bd4050-bbb2-4a3a-89ad-dc72c5505cbb","ios":"levelo://app?vid=f4bd4050-bbb2-4a3a-89ad-dc72c5505cbb"},"vehicle_type_id":"4","last_reported":1766941764,"current_range_meters":11200,"station_id":"ce4bgkh2rcd13ifvqbl0","pricing_plan_id":"cebpf4jnsgd1na2vs0mg"},{"bike_id":"469978cf-c689-4fef-9465-204265d4f0de","system_id":"levelo_inurba_marseille","lat":43.279325,"lon":5.414768,"is_reserved":false,"is_disabled":false,"rental_uris":{"android":"levelo://app?vid=469978cf-c689-4fef-9465-204265d4f0de","ios":"levelo://app?vid=469978cf-c689-4fef-9465-204265d4f0de"},"vehicle_type_id":"4","last_reported":1766941764,"current_range_meters":11200,"station_id":"ce4bhnp2rcd13ifvqh0g","pricing_plan_id":"cebpf4jnsgd1na2vs0mg"},{"bike_id":"93668d68-d030-4a6b-8a18-92aae4171ebd","system_id":"levelo_inurba_marseille","lat":43.30559,"lon":5.3655,"is_reserved":false,"is_disabled":false,"rental_uris":{"android":"levelo://app?vid=93668d68-d030-4a6b-8a18-92aae4171ebd","ios":"levelo://app?vid=93668d68-d030-4a6b-8a18-92aae4171ebd"},"vehicle_type_id":"4","last_reported":1766941764,"current_range_meters":11600,"station_id":"ce4bgs12rcd13ifvqcag","pricing_plan_id":"cebpf4jnsgd1na2vs0mg"},{"bike_id":"88a12502-53ae-4f57-b64f-7e83e76f0e28","system_id":"levelo_inurba_marseille","lat":43.24545,"lon":5.39522,"is_reserved":false,"is_disabled":false,"rental_uris":{"android":"levelo://app?vid=88a12502-53ae-4f57-b64f-7e83e76f0e28","ios":"levelo://app?vid=88a12502-53ae-4f57-b64f-7e83e76f0e28"},"vehicle_type_id":"4","last_reported":1766941764,"current_range_meters":11600,"station_id":"ce4bhlp2rcd13ifvqgjg","pricing_plan_id":"cebpf4jnsgd1na2vs0mg"},{"bike_id":"b854b6ee-7341-4f78-909e-177f500ef203","system_id":"levelo_inurba_marseille","lat":43.28481,"lon":5.38411,"is_reserved":false,"is_disabled":false,"rental_uris":{"android":"levelo://app?vid=b854b6ee-7341-4f78-909e-177f500ef203","ios":"levelo://app?vid=b854b6ee-7341-4f78-909e-177f500ef203"},"vehicle_type_id":"4","last_reported":1766941764,"current_range_meters":11600,"station_id":"ce4bh512rcd13ifvqe3g","pricing_plan_id":"cebpf4jnsgd1na2vs0mg"},{"bike_id":"55f4031c-6e42-485f-ae51-f9e74d654db0","system_id":"levelo_inurba_marseille","lat":43.2962,"lon":5.37163,"is_reserved":false,"is_disabled":false,"rental_uris":{"android":"levelo://app?vid=55f4031c-6e42-485f-ae51-f9e74d654db0","ios":"levelo://app?vid=55f4031c-6e42-485f-ae51-f9e74d654db0"},"vehicle_type_id":"4","last_reported":1766941764,"current_range_meters":11600,"station_id":"ce4bgnh2rcd13ifvqc0g","pricing_plan_id":"cebpf4jnsgd1na2vs0mg"},{"bike_id":"d6a449d9-67ef-4444-ae17-bd1e29b48728","system_id":"levelo_inurba_marseille","lat":43.285767,"lon":5.429835,"is_reserved":false,"is_disabled":false,"rental_uris":{"android":"levelo://app?vid=d6a449d9-67ef-4444-ae17-bd1e29b48728","ios":"levelo://app?vid=d6a449d9-67ef-4444-ae17-bd1e29b48728"},"vehicle_type_id":"4","last_reported":1766941764,"current_range_meters":11600,"station_id":"","pricing_plan_id":"cebpf4jnsgd1na2vs0mg"},{"bike_id":"9b2d0712-3ac5-402d-bf31-0ee5331ac79b","system_id":"levelo_inurba_marseille","lat":43.29997,"lon":5.37898,"is_reserved":false,"is_disabled":false,"rental_uris":{"android":"levelo://app?vid=9b2d0712-3ac5-402d-bf31-0ee5331ac79b","ios":"levelo://app?vid=9b2d0712-3ac5-402d-bf31-0ee5331ac79b"},"vehicle_type_id":"4","last_reported":1766941764,"current_range_meters":11600,"station_id":"","pricing_plan_id":"cebpf4jnsgd1na2vs0mg"},{"bike_id":"591ac124-781b-413d-bcb1-b8d0ca6929e8","system_id":"levelo_inurba_marseille","lat":43.299169,"lon":5.37462,"is_reserved":false,"is_disabled":false,"rental_uris":{"android":"levelo://app?vid=591ac124-781b-413d-bcb1-b8d0ca6929e8","ios":"levelo://app?vid=591ac124-781b-413d-bcb1-b8d0ca6929e8"},"vehicle_type_id":"4","last_reported":1766941764,"current_range_meters":11600,"station_id":"ce4bgjh2rcd13ifvqbg0","pricing_plan_id":"cebpf4jnsgd1na2vs0mg"},{"bike_id":"288d269f-f0c6-4422-a385-c2440e16dd70","system_id":"levelo_inurba_marseille","lat":43.28929,"lon":5.36636,"is_reserved":false,"is_disabled":false,"rental_uris":{"android":"levelo://app?vid=288d269f-f0c6-4422-a385-c2440e16dd70","ios":"levelo://app?vid=288d269f-f0c6-4422-a385-c2440e16dd70"},"vehicle_type_id":"4","last_reported":1766941764,"current_range_meters":12000,"station_id":"ce4bhap2rcd13ifvqek0","pricing_plan_id":"cebpf4jnsgd1na2vs0mg"},{"bike_id":"8b31d071-5fde-4a77-9541-06c44ba6f416","system_id":"levelo_inurba_marseille","lat":43.2719,"lon":5.40994,"is_reserved":false,"is_disabled":false,"rental_uris":{"android":"levelo://app?vid=8b31d071-5fde-4a77-9541-06c44ba6f416","ios":"levelo://app?vid=8b31d071-5fde-4a77-9541-06c44ba6f416"},"vehicle_type_id":"4","last_reported":1766941764,"current_range_meters":12000,"station_id":"ce4bhl12rcd13ifvqgf0","pricing_plan_id":"cebpf4jnsgd1na2vs0mg"},{"bike_id":"9197e0cd-d425-4870-b05c-e97175fb7e55","system_id":"levelo_inurba_marseille","lat":43.28006,"lon":5.41664,"is_reserved":false,"is_disabled":false,"rental_uris":{"android":"levelo://app?vid=9197e0cd-d425-4870-b05c-e97175fb7e55","ios":"levelo://app?vid=9197e0cd-d425-4870-b05c-e97175fb7e55"},"vehicle_type_id":"4","last_reported":1766941764,"current_range_meters":12000,"station_id":"ce4bho12rcd13ifvqh1g","pricing_plan_id":"cebpf4jnsgd1na2vs0mg"},{"bike_id":"12c38b32-5974-4311-910a-572392b8079a","system_id":"levelo_inurba_marseille","lat":43.28066,"lon":5.35076,"is_reserved":false,"is_disabled":false,"rental_uris":{"android":"levelo://app?vid=12c38b32-5974-4311-910a-572392b8079a","ios":"levelo://app?vid=12c38b32-5974-4311-910a-572392b8079a"},"vehicle_type_id":"4","last_reported":1766941764,"current_range_meters":12000,"station_id":"","pricing_plan_id":"cebpf4jnsgd1na2vs0mg"},{"bike_id":"c5ceed16-6dfe-409f-82bf-89ae8b5810cf","system_id":"levelo_inurba_marseille","lat":43.28474,"lon":5.44055,"is_reserved":false,"is_disabled":false,"rental_uris":{"android":"levelo://app?vid=c5ceed16-6dfe-409f-82bf-89ae8b5810cf","ios":"levelo://app?vid=c5ceed16-6dfe-409f-82bf-89ae8b5810cf"},"vehicle_type_id":"4","last_reported":1766941764,"current_range_meters":12000,"station_id":"st_d3j3df2ikq2c7380ej80","pricing_plan_id":"cebpf4jnsgd1na2vs0mg"},{"bike_id":"97256c06-8d4f-4f4e-80ea-bddc6cd6c535","system_id":"levelo_inurba_marseille","lat":43.2837,"lon":5.38633,"is_reserved":false,"is_disabled":false,"rental_uris":{"android":"levelo://app?vid=97256c06-8d4f-4f4e-80ea-bddc6cd6c535","ios":"levelo://app?vid=97256c06-8d4f-4f4e-80ea-bddc6cd6c535"},"vehicle_type_id":"4","last_reported":1766941764,"current_range_meters":12000,"station_id":"ce4bh492rcd13ifvqdvg","pricing_plan_id":"cebpf4jnsgd1na2vs0mg"},{"bike_id":"e9ffa096-acd4-4048-a7b2-1c444588a8ee","system_id":"levelo_inurba_marseille","lat":43.285362,"lon":5.440819,"is_reserved":false,"is_disabled":false,"rental_uris":{"android":"levelo://app?vid=e9ffa096-acd4-4048-a7b2-1c444588a8ee","ios":"levelo://app?vid=e9ffa096-acd4-4048-a7b2-1c444588a8ee"},"vehicle_type_id":"4","last_reported":1766941764,"current_range_meters":12000,"station_id":"st_d3j3df2ikq2c7380ej80","pricing_plan_id":"cebpf4jnsgd1na2vs0mg"},{"bike_id":"3d8062de-4bd0-49c7-86a6-7bf3b5df4845","system_id":"levelo_inurba_marseille","lat":43.28479,"lon":5.48403,"is_reserved":false,"is_disabled":false,"rental_uris":{"android":"levelo://app?vid=3d8062de-4bd0-49c7-86a6-7bf3b5df4845","ios":"levelo://app?vid=3d8062de-4bd0-49c7-86a6-7bf3b5df4845"},"vehicle_type_id":"4","last_reported":1766941764,"current_range_meters":12000,"station_id":"","pricing_plan_id":"cebpf4jnsgd1na2vs0mg"},{"bike_id":"8e9d5089-31e7-465f-ac6c-3a93651db4d5","system_id":"levelo_inurba_marseille","lat":43.319,"lon":5.36724,"is_reserved":false,"is_disabled":false,"rental_uris":{"android":"levelo://app?vid=8e9d5089-31e7-465f-ac6c-3a93651db4d5","ios":"levelo://app?vid=8e9d5089-31e7-465f-ac6c-3a93651db4d5"},"vehicle_type_id":"4","last_reported":1766941764,"current_range_meters":12000,"station_id":"","pricing_plan_id":"cebpf4jnsgd1na2vs0mg"},{"bike_id":"32bdb708-f56d-4386-afd4-9a017b72c814","system_id":"levelo_inurba_marseille","lat":43.258217,"lon":5.39437,"is_reserved":false,"is_disabled":false,"rental_uris":{"android":"levelo://app?vid=32bdb708-f56d-4386-afd4-9a017b72c814","ios":"levelo://app?vid=32bdb708-f56d-4386-afd4-9a017b72c814"},"vehicle_type_id":"4","last_reported":1766941764,"current_range_meters":12000,"station_id":"ce4bhip2rcd13ifvqft0","pricing_plan_id":"cebpf4jnsgd1na2vs0mg"},{"bike_id":"f6e6dcdd-f74f-4d28-9f48-2ce11c11db83","system_id":"levelo_inurba_marseille","lat":43.29574,"lon":5.37506,"is_reserved":false,"is_disabled":false,"rental_uris":{"android":"levelo://app?vid=f6e6dcdd-f74f-4d28-9f48-2ce11c11db83","ios":"levelo://app?vid=f6e6dcdd-f74f-4d28-9f48-2ce11c11db83"},"vehicle_type_id":"4","last_reported":1766941764,"current_range_meters":12400,"station_id":"ce4bgh92rcd13ifvqb50","pricing_plan_id":"cebpf4jnsgd1na2vs0mg"},{"bike_id":"5e62b23f-3386-4337-a1a4-edfe3d7f3411","system_id":"levelo_inurba_marseille","lat":43.28153,"lon":5.42638,"is_reserved":false,"is_disabled":false,"rental_uris":{"android":"levelo://app?vid=5e62b23f-3386-4337-a1a4-edfe3d7f3411","ios":"levelo://app?vid=5e62b23f-3386-4337-a1a4-edfe3d7f3411"},"vehicle_type_id":"4","last_reported":1766941764,"current_range_meters":12400,"station_id":"ce4bhnh2rcd13ifvqgug","pricing_plan_id":"cebpf4jnsgd1na2vs0mg"},{"bike_id":"29fe9c73-68f9-4808-81a4-ddd93340fcf1","system_id":"levelo_inurba_marseille","lat":43.29603,"lon":5.38099,"is_reserved":false,"is_disabled":false,"rental_uris":{"android":"levelo://app?vid=29fe9c73-68f9-4808-81a4-ddd93340fcf1","ios":"levelo://app?vid=29fe9c73-68f9-4808-81a4-ddd93340fcf1"},"vehicle_type_id":"4","last_reported":1766941764,"current_range_meters":12400,"station_id":"ce4bgl12rcd13ifvqbo0","pricing_plan_id":"cebpf4jnsgd1na2vs0mg"},{"bike_id":"11aad13e-8ff2-4c7a-8e77-493024f570dc","system_id":"levelo_inurba_marseille","lat":43.30249,"lon":5.40065,"is_reserved":false,"is_disabled":false,"rental_uris":{"android":"levelo://app?vid=11aad13e-8ff2-4c7a-8e77-493024f570dc","ios":"levelo://app?vid=11aad13e-8ff2-4c7a-8e77-493024f570dc"},"vehicle_type_id":"4","last_reported":1766941764,"current_range_meters":12400,"station_id":"ce4bgvh2rcd13ifvqcs0","pricing_plan_id":"cebpf4jnsgd1na2vs0mg"},{"bike_id":"5f21b680-0e53-4e6f-9ac5-fe1b3088ec26","system_id":"levelo_inurba_marseille","lat":43.29607,"lon":5.37721,"is_reserved":false,"is_disabled":false,"rental_uris":{"android":"levelo://app?vid=5f21b680-0e53-4e6f-9ac5-fe1b3088ec26","ios":"levelo://app?vid=5f21b680-0e53-4e6f-9ac5-fe1b3088ec26"},"vehicle_type_id":"4","last_reported":1766941764,"current_range_meters":12400,"station_id":"ce4bgi92rcd13ifvqb90","pricing_plan_id":"cebpf4jnsgd1na2vs0mg"},{"bike_id":"ef10592e-adff-49b5-8467-d9f686a1a24b","system_id":"levelo_inurba_marseille","lat":43.28147,"lon":5.42654,"is_reserved":false,"is_disabled":false,"rental_uris":{"android":"levelo://app?vid=ef10592e-adff-49b5-8467-d9f686a1a24b","ios":"levelo://app?vid=ef10592e-adff-49b5-8467-d9f686a1a24b"},"vehicle_type_id":"4","last_reported":1766941764,"current_range_meters":12400,"station_id":"ce4bhnh2rcd13ifvqgug","pricing_plan_id":"cebpf4jnsgd1na2vs0mg"},{"bike_id":"3840688d-cc44-40a4-80d2-25998707e735","system_id":"levelo_inurba_marseille","lat":43.26516,"lon":5.39523,"is_reserved":false,"is_disabled":false,"rental_uris":{"android":"levelo://app?vid=3840688d-cc44-40a4-80d2-25998707e735","ios":"levelo://app?vid=3840688d-cc44-40a4-80d2-25998707e735"},"vehicle_type_id":"4","last_reported":1766941764,"current_range_meters":12400,"station_id":"ce4bhi12rcd13ifvqfq0","pricing_plan_id":"cebpf4jnsgd1na2vs0mg"},{"bike_id":"94b65cfe-edaf-4322-865d-06eff46e3ede","system_id":"levelo_inurba_marseille","lat":43.30039,"lon":5.3736,"is_reserved":false,"is_disabled":false,"rental_uris":{"android":"levelo://app?vid=94b65cfe-edaf-4322-865d-06eff46e3ede","ios":"levelo://app?vid=94b65cfe-edaf-4322-865d-06eff46e3ede"},"vehicle_type_id":"4","last_reported":1766941764,"current_range_meters":12400,"station_id":"","pricing_plan_id":"cebpf4jnsgd1na2vs0mg"},{"bike_id":"c84b8e47-5802-4c21-b1cc-1df47c4f26c2","system_id":"levelo_inurba_marseille","lat":43.28448,"lon":5.48423,"is_reserved":false,"is_disabled":false,"rental_uris":{"android":"levelo://app?vid=c84b8e47-5802-4c21-b1cc-1df47c4f26c2","ios":"levelo://app?vid=c84b8e47-5802-4c21-b1cc-1df47c4f26c2"},"vehicle_type_id":"4","last_reported":1766941764,"current_range_meters":12400,"station_id":"st_d3svhcjqgbts73a3dn0g","pricing_plan_id":"cebpf4jnsgd1na2vs0mg"},{"bike_id":"c58b5fbe-ad23-41d6-9e67-c61ddfb04479","system_id":"levelo_inurba_marseille","lat":43.24807,"lon":5.37461,"is_reserved":false,"is_disabled":false,"rental_uris":{"android":"levelo://app?vid=c58b5fbe-ad23-41d6-9e67-c61ddfb04479","ios":"levelo://app?vid=c58b5fbe-ad23-41d6-9e67-c61ddfb04479"},"vehicle_type_id":"4","last_reported":1766941764,"current_range_meters":12400,"station_id":"ce4bhgh2rcd13ifvqfb0","pricing_plan_id":"cebpf4jnsgd1na2vs0mg"},{"bike_id":"5089722c-f7e0-4066-8ac8-35582342af82","system_id":"levelo_inurba_marseille","lat":43.29914,"lon":5.37473,"is_reserved":false,"is_disabled":false,"rental_uris":{"android":"levelo://app?vid=5089722c-f7e0-4066-8ac8-35582342af82","ios":"levelo://app?vid=5089722c-f7e0-4066-8ac8-35582342af82"},"vehicle_type_id":"4","last_reported":1766941764,"current_range_meters":12800,"station_id":"ce4bgjh2rcd13ifvqbg0","pricing_plan_id":"cebpf4jnsgd1na2vs0mg"},{"bike_id":"a4821bb1-a15b-42d7-b80c-382f45814acf","system_id":"levelo_inurba_marseille","lat":43.31888,"lon":5.40739,"is_reserved":false,"is_disabled":false,"rental_uris":{"android":"levelo://app?vid=a4821bb1-a15b-42d7-b80c-382f45814acf","ios":"levelo://app?vid=a4821bb1-a15b-42d7-b80c-382f45814acf"},"vehicle_type_id":"4","last_reported":1766941764,"current_range_meters":12800,"station_id":"ce4bhq12rcd13ifvqhig","pricing_plan_id":"cebpf4jnsgd1na2vs0mg"},{"bike_id":"d07dc22c-a864-4104-81e7-c60339403064","system_id":"levelo_inurba_marseille","lat":43.29919,"lon":5.38261,"is_reserved":false,"is_disabled":false,"rental_uris":{"android":"levelo://app?vid=d07dc22c-a864-4104-81e7-c60339403064","ios":"levelo://app?vid=d07dc22c-a864-4104-81e7-c60339403064"},"vehicle_type_id":"4","last_reported":1766941764,"current_range_meters":12800,"station_id":"","pricing_plan_id":"cebpf4jnsgd1na2vs0mg"},{"bike_id":"84edb561-7951-432d-ad1a-5c5c09f836c7","system_id":"levelo_inurba_marseille","lat":43.21192,"lon":5.3507,"is_reserved":false,"is_disabled":false,"rental_uris":{"android":"levelo://app?vid=84edb561-7951-432d-ad1a-5c5c09f836c7","ios":"levelo://app?vid=84edb561-7951-432d-ad1a-5c5c09f836c7"},"vehicle_type_id":"4","last_reported":1766941764,"current_range_meters":12800,"station_id":"st_cvj6sg6p6f1abm77japg","pricing_plan_id":"cebpf4jnsgd1na2vs0mg"},{"bike_id":"2d1f2209-fa8f-4966-ab1f-91511897e2bc","system_id":"levelo_inurba_marseille","lat":43.23965,"lon":5.36634,"is_reserved":false,"is_disabled":false,"rental_uris":{"android":"levelo://app?vid=2d1f2209-fa8f-4966-ab1f-91511897e2bc","ios":"levelo://app?vid=2d1f2209-fa8f-4966-ab1f-91511897e2bc"},"vehicle_type_id":"4","last_reported":1766941764,"current_range_meters":12800,"station_id":"ce4bhi12rcd13ifvqfp0","pricing_plan_id":"cebpf4jnsgd1na2vs0mg"},{"bike_id":"80dbd64a-bc91-4c6f-885a-5048f29c86df","system_id":"levelo_inurba_marseille","lat":43.264996,"lon":5.395294,"is_reserved":false,"is_disabled":false,"rental_uris":{"android":"levelo://app?vid=80dbd64a-bc91-4c6f-885a-5048f29c86df","ios":"levelo://app?vid=80dbd64a-bc91-4c6f-885a-5048f29c86df"},"vehicle_type_id":"4","last_reported":1766941764,"current_range_meters":12800,"station_id":"ce4bhi12rcd13ifvqfq0","pricing_plan_id":"cebpf4jnsgd1na2vs0mg"},{"bike_id":"c605bec8-3e35-4e72-8ffc-bde333842368","system_id":"levelo_inurba_marseille","lat":43.25826,"lon":5.39437,"is_reserved":false,"is_disabled":false,"rental_uris":{"android":"levelo://app?vid=c605bec8-3e35-4e72-8ffc-bde333842368","ios":"levelo://app?vid=c605bec8-3e35-4e72-8ffc-bde333842368"},"vehicle_type_id":"4","last_reported":1766941764,"current_range_meters":12800,"station_id":"ce4bhip2rcd13ifvqft0","pricing_plan_id":"cebpf4jnsgd1na2vs0mg"},{"bike_id":"c03aa070-26a3-46a4-b104-b236ef7e32dd","system_id":"levelo_inurba_marseille","lat":43.2988,"lon":5.3627,"is_reserved":false,"is_disabled":false,"rental_uris":{"android":"levelo://app?vid=c03aa070-26a3-46a4-b104-b236ef7e32dd","ios":"levelo://app?vid=c03aa070-26a3-46a4-b104-b236ef7e32dd"},"vehicle_type_id":"4","last_reported":1766941764,"current_range_meters":12800,"station_id":"ce4bgpp2rcd13ifvqc3g","pricing_plan_id":"cebpf4jnsgd1na2vs0mg"},{"bike_id":"7af3df8d-22dd-46d1-8a51-6ea855ba95c5","system_id":"levelo_inurba_marseille","lat":43.29542,"lon":5.39053,"is_reserved":false,"is_disabled":false,"rental_uris":{"android":"levelo://app?vid=7af3df8d-22dd-46d1-8a51-6ea855ba95c5","ios":"levelo://app?vid=7af3df8d-22dd-46d1-8a51-6ea855ba95c5"},"vehicle_type_id":"4","last_reported":1766941764,"current_range_meters":12800,"station_id":"ce4bh3p2rcd13ifvqdp0","pricing_plan_id":"cebpf4jnsgd1na2vs0mg"},{"bike_id":"de4385f1-aa77-4586-be45-30664e41a66a","system_id":"levelo_inurba_marseille","lat":43.29224,"lon":5.36841,"is_reserved":false,"is_disabled":false,"rental_uris":{"android":"levelo://app?vid=de4385f1-aa77-4586-be45-30664e41a66a","ios":"levelo://app?vid=de4385f1-aa77-4586-be45-30664e41a66a"},"vehicle_type_id":"4","last_reported":1766941764,"current_range_meters":12800,"station_id":"","pricing_plan_id":"cebpf4jnsgd1na2vs0mg"},{"bike_id":"eb087d7f-76f2-4f0e-ab86-400d39571005","system_id":"levelo_inurba_marseille","lat":43.28431,"lon":5.39169,"is_reserved":false,"is_disabled":true,"rental_uris":{"android":"levelo://app?vid=eb087d7f-76f2-4f0e-ab86-400d39571005","ios":"levelo://app?vid=eb087d7f-76f2-4f0e-ab86-400d39571005"},"vehicle_type_id":"4","last_reported":1766941764,"current_range_meters":12800,"station_id":"ce4bhoh2rcd13ifvqh5g","pricing_plan_id":"cebpf4jnsgd1na2vs0mg"},{"bike_id":"009a3abe-17db-45a4-962d-ccda5205be12","system_id":"levelo_inurba_marseille","lat":43.30564,"lon":5.36518,"is_reserved":false,"is_disabled":false,"rental_uris":{"android":"levelo://app?vid=009a3abe-17db-45a4-962d-ccda5205be12","ios":"levelo://app?vid=009a3abe-17db-45a4-962d-ccda5205be12"},"vehicle_type_id":"4","last_reported":1766941764,"current_range_meters":12800,"station_id":"ce4bgs12rcd13ifvqcag","pricing_plan_id":"cebpf4jnsgd1na2vs0mg"},{"bike_id":"9f81db56-9f18-4d2c-a126-f0fd49630ab7","system_id":"levelo_inurba_marseille","lat":43.32039,"lon":5.41564,"is_reserved":false,"is_disabled":false,"rental_uris":{"android":"levelo://app?vid=9f81db56-9f18-4d2c-a126-f0fd49630ab7","ios":"levelo://app?vid=9f81db56-9f18-4d2c-a126-f0fd49630ab7"},"vehicle_type_id":"4","last_reported":1766941764,"current_range_meters":12800,"station_id":"ce4bhq92rcd13ifvqhkg","pricing_plan_id":"cebpf4jnsgd1na2vs0mg"},{"bike_id":"1de69d14-56d0-4d5b-955d-40d9ddfaf4e6","system_id":"levelo_inurba_marseille","lat":43.2846,"lon":5.35879,"is_reserved":false,"is_disabled":false,"rental_uris":{"android":"levelo://app?vid=1de69d14-56d0-4d5b-955d-40d9ddfaf4e6","ios":"levelo://app?vid=1de69d14-56d0-4d5b-955d-40d9ddfaf4e6"},"vehicle_type_id":"4","last_reported":1766941764,"current_range_meters":12800,"station_id":"ce4bhah2rcd13ifvqei0","pricing_plan_id":"cebpf4jnsgd1na2vs0mg"},{"bike_id":"fd5cd993-4b09-4646-bbbe-9f81fe896843","system_id":"levelo_inurba_marseille","lat":43.21746,"lon":5.346034,"is_reserved":false,"is_disabled":false,"rental_uris":{"android":"levelo://app?vid=fd5cd993-4b09-4646-bbbe-9f81fe896843","ios":"levelo://app?vid=fd5cd993-4b09-4646-bbbe-9f81fe896843"},"vehicle_type_id":"4","last_reported":1766941764,"current_range_meters":12800,"station_id":"","pricing_plan_id":"cebpf4jnsgd1na2vs0mg"},{"bike_id":"49166d3a-7d57-41ae-b5e6-9a6cbabce031","system_id":"levelo_inurba_marseille","lat":43.29686,"lon":5.36771,"is_reserved":false,"is_disabled":false,"rental_uris":{"android":"levelo://app?vid=49166d3a-7d57-41ae-b5e6-9a6cbabce031","ios":"levelo://app?vid=49166d3a-7d57-41ae-b5e6-9a6cbabce031"},"vehicle_type_id":"4","last_reported":1766941764,"current_range_meters":13600,"station_id":"","pricing_plan_id":"cebpf4jnsgd1na2vs0mg"},{"bike_id":"b672c522-aca1-4885-98f6-4e99eceec109","system_id":"levelo_inurba_marseille","lat":43.30091,"lon":5.38692,"is_reserved":false,"is_disabled":true,"rental_uris":{"android":"levelo://app?vid=b672c522-aca1-4885-98f6-4e99eceec109","ios":"levelo://app?vid=b672c522-aca1-4885-98f6-4e99eceec109"},"vehicle_type_id":"4","last_reported":1766941764,"current_range_meters":13600,"station_id":"","pricing_plan_id":"cebpf4jnsgd1na2vs0mg"},{"bike_id":"010f640b-8c43-4285-8342-8aa6197561a4","system_id":"levelo_inurba_marseille","lat":43.28473,"lon":5.38403,"is_reserved":false,"is_disabled":false,"rental_uris":{"android":"levelo://app?vid=010f640b-8c43-4285-8342-8aa6197561a4","ios":"levelo://app?vid=010f640b-8c43-4285-8342-8aa6197561a4"},"vehicle_type_id":"4","last_reported":1766941764,"current_range_meters":13600,"station_id":"ce4bh512rcd13ifvqe3g","pricing_plan_id":"cebpf4jnsgd1na2vs0mg"},{"bike_id":"dc173000-f45f-4b8c-b88f-e31e54e05f23","system_id":"levelo_inurba_marseille","lat":43.28456,"lon":5.35885,"is_reserved":false,"is_disabled":false,"rental_uris":{"android":"levelo://app?vid=dc173000-f45f-4b8c-b88f-e31e54e05f23","ios":"levelo://app?vid=dc173000-f45f-4b8c-b88f-e31e54e05f23"},"vehicle_type_id":"4","last_reported":1766941764,"current_range_meters":13600,"station_id":"ce4bhah2rcd13ifvqei0","pricing_plan_id":"cebpf4jnsgd1na2vs0mg"},{"bike_id":"dc47a473-6377-4424-adf4-6498be065ab5","system_id":"levelo_inurba_marseille","lat":43.26931,"lon":5.38894,"is_reserved":false,"is_disabled":false,"rental_uris":{"android":"levelo://app?vid=dc47a473-6377-4424-adf4-6498be065ab5","ios":"levelo://app?vid=dc47a473-6377-4424-adf4-6498be065ab5"},"vehicle_type_id":"4","last_reported":1766941764,"current_range_meters":13600,"station_id":"ce4bhhh2rcd13ifvqfl0","pricing_plan_id":"cebpf4jnsgd1na2vs0mg"},{"bike_id":"4ac20ed1-ab47-463c-96de-d7def8de3118","system_id":"levelo_inurba_marseille","lat":43.32351,"lon":5.36756,"is_reserved":false,"is_disabled":true,"rental_uris":{"android":"levelo://app?vid=4ac20ed1-ab47-463c-96de-d7def8de3118","ios":"levelo://app?vid=4ac20ed1-ab47-463c-96de-d7def8de3118"},"vehicle_type_id":"4","last_reported":1766941764,"current_range_meters":13600,"station_id":"ce4bhsh2rcd13ifvqi2g","pricing_plan_id":"cebpf4jnsgd1na2vs0mg"},{"bike_id":"f1e029ec-966a-4c18-90a6-6313298321ec","system_id":"levelo_inurba_marseille","lat":43.24247,"lon":5.39348,"is_reserved":false,"is_disabled":false,"rental_uris":{"android":"levelo://app?vid=f1e029ec-966a-4c18-90a6-6313298321ec","ios":"levelo://app?vid=f1e029ec-966a-4c18-90a6-6313298321ec"},"vehicle_type_id":"4","last_reported":1766941764,"current_range_meters":13600,"station_id":"","pricing_plan_id":"cebpf4jnsgd1na2vs0mg"},{"bike_id":"ac674099-70d8-4cdc-97e6-f0209215976d","system_id":"levelo_inurba_marseille","lat":43.33549,"lon":5.37458,"is_reserved":false,"is_disabled":false,"rental_uris":{"android":"levelo://app?vid=ac674099-70d8-4cdc-97e6-f0209215976d","ios":"levelo://app?vid=ac674099-70d8-4cdc-97e6-f0209215976d"},"vehicle_type_id":"4","last_reported":1766941764,"current_range_meters":13600,"station_id":"st_d46tts09ee8s73dlu43g","pricing_plan_id":"cebpf4jnsgd1na2vs0mg"},{"bike_id":"1ec8d824-485a-483c-8333-4d2c33cbb3ea","system_id":"levelo_inurba_marseille","lat":43.30143,"lon":5.39876,"is_reserved":false,"is_disabled":false,"rental_uris":{"android":"levelo://app?vid=1ec8d824-485a-483c-8333-4d2c33cbb3ea","ios":"levelo://app?vid=1ec8d824-485a-483c-8333-4d2c33cbb3ea"},"vehicle_type_id":"4","last_reported":1766941764,"current_range_meters":13600,"station_id":"ce4bh0h2rcd13ifvqd40","pricing_plan_id":"cebpf4jnsgd1na2vs0mg"},{"bike_id":"e0f1c987-4196-40b1-9087-f94f3c3d116d","system_id":"levelo_inurba_marseille","lat":43.27057,"lon":5.40257,"is_reserved":false,"is_disabled":false,"rental_uris":{"android":"levelo://app?vid=e0f1c987-4196-40b1-9087-f94f3c3d116d","ios":"levelo://app?vid=e0f1c987-4196-40b1-9087-f94f3c3d116d"},"vehicle_type_id":"4","last_reported":1766941764,"current_range_meters":13600,"station_id":"ce4bhk92rcd13ifvqgc0","pricing_plan_id":"cebpf4jnsgd1na2vs0mg"},{"bike_id":"5f26fd32-d57c-4a0b-a416-65f73ea2479e","system_id":"levelo_inurba_marseille","lat":43.32785,"lon":5.4066,"is_reserved":false,"is_disabled":false,"rental_uris":{"android":"levelo://app?vid=5f26fd32-d57c-4a0b-a416-65f73ea2479e","ios":"levelo://app?vid=5f26fd32-d57c-4a0b-a416-65f73ea2479e"},"vehicle_type_id":"4","last_reported":1766941764,"current_range_meters":13600,"station_id":"","pricing_plan_id":"cebpf4jnsgd1na2vs0mg"},{"bike_id":"9ed771ac-eca7-498f-ab71-09b59c20bf40","system_id":"levelo_inurba_marseille","lat":43.240765,"lon":5.377318,"is_reserved":false,"is_disabled":false,"rental_uris":{"android":"levelo://app?vid=9ed771ac-eca7-498f-ab71-09b59c20bf40","ios":"levelo://app?vid=9ed771ac-eca7-498f-ab71-09b59c20bf40"},"vehicle_type_id":"4","last_reported":1766941764,"current_range_meters":13600,"station_id":"ce4bhnp2rcd13ifvqgvg","pricing_plan_id":"cebpf4jnsgd1na2vs0mg"},{"bike_id":"93238dbe-7e18-4ff9-acc5-cf08ef47ac5a","system_id":"levelo_inurba_marseille","lat":43.27426,"lon":5.41462,"is_reserved":false,"is_disabled":false,"rental_uris":{"android":"levelo://app?vid=93238dbe-7e18-4ff9-acc5-cf08ef47ac5a","ios":"levelo://app?vid=93238dbe-7e18-4ff9-acc5-cf08ef47ac5a"},"vehicle_type_id":"4","last_reported":1766941764,"current_range_meters":14000,"station_id":"","pricing_plan_id":"cebpf4jnsgd1na2vs0mg"},{"bike_id":"f9aefd96-ff9f-436b-9129-ecd99bd3e479","system_id":"levelo_inurba_marseille","lat":43.29573,"lon":5.39957,"is_reserved":false,"is_disabled":false,"rental_uris":{"android":"levelo://app?vid=f9aefd96-ff9f-436b-9129-ecd99bd3e479","ios":"levelo://app?vid=f9aefd96-ff9f-436b-9129-ecd99bd3e479"},"vehicle_type_id":"4","last_reported":1766941764,"current_range_meters":14000,"station_id":"ce4bh312rcd13ifvqdj0","pricing_plan_id":"cebpf4jnsgd1na2vs0mg"},{"bike_id":"abcc46fa-90f6-427d-ac75-5aa9381ed986","system_id":"levelo_inurba_marseille","lat":43.29274,"lon":5.3685,"is_reserved":false,"is_disabled":false,"rental_uris":{"android":"levelo://app?vid=abcc46fa-90f6-427d-ac75-5aa9381ed986","ios":"levelo://app?vid=abcc46fa-90f6-427d-ac75-5aa9381ed986"},"vehicle_type_id":"4","last_reported":1766941764,"current_range_meters":14000,"station_id":"ce4bhbp2rcd13ifvqesg","pricing_plan_id":"cebpf4jnsgd1na2vs0mg"},{"bike_id":"11b98af3-c435-4c49-b9a3-6f66ee04ce85","system_id":"levelo_inurba_marseille","lat":43.30416,"lon":5.41285,"is_reserved":false,"is_disabled":false,"rental_uris":{"android":"levelo://app?vid=11b98af3-c435-4c49-b9a3-6f66ee04ce85","ios":"levelo://app?vid=11b98af3-c435-4c49-b9a3-6f66ee04ce85"},"vehicle_type_id":"4","last_reported":1766941764,"current_range_meters":14000,"station_id":"ce4bhop2rcd13ifvqh8g","pricing_plan_id":"cebpf4jnsgd1na2vs0mg"},{"bike_id":"757122f6-080a-424e-8657-a7d9bec52449","system_id":"levelo_inurba_marseille","lat":43.31335,"lon":5.36725,"is_reserved":false,"is_disabled":false,"rental_uris":{"android":"levelo://app?vid=757122f6-080a-424e-8657-a7d9bec52449","ios":"levelo://app?vid=757122f6-080a-424e-8657-a7d9bec52449"},"vehicle_type_id":"4","last_reported":1766941764,"current_range_meters":14000,"station_id":"ce4bgr92rcd13ifvqc6g","pricing_plan_id":"cebpf4jnsgd1na2vs0mg"},{"bike_id":"294b9c6b-2600-4837-b49d-5cad25f48e46","system_id":"levelo_inurba_marseille","lat":43.24805,"lon":5.37457,"is_reserved":false,"is_disabled":false,"rental_uris":{"android":"levelo://app?vid=294b9c6b-2600-4837-b49d-5cad25f48e46","ios":"levelo://app?vid=294b9c6b-2600-4837-b49d-5cad25f48e46"},"vehicle_type_id":"4","last_reported":1766941764,"current_range_meters":14000,"station_id":"ce4bhgh2rcd13ifvqfb0","pricing_plan_id":"cebpf4jnsgd1na2vs0mg"},{"bike_id":"8c27f8dd-49de-48cb-b4c0-2c146ce86148","system_id":"levelo_inurba_marseille","lat":43.29592,"lon":5.38153,"is_reserved":false,"is_disabled":false,"rental_uris":{"android":"levelo://app?vid=8c27f8dd-49de-48cb-b4c0-2c146ce86148","ios":"levelo://app?vid=8c27f8dd-49de-48cb-b4c0-2c146ce86148"},"vehicle_type_id":"4","last_reported":1766941764,"current_range_meters":14000,"station_id":"ce4bgl12rcd13ifvqbo0","pricing_plan_id":"cebpf4jnsgd1na2vs0mg"},{"bike_id":"89564c03-9bb2-426b-be49-8ec9f3898e21","system_id":"levelo_inurba_marseille","lat":43.30312,"lon":5.36896,"is_reserved":false,"is_disabled":false,"rental_uris":{"android":"levelo://app?vid=89564c03-9bb2-426b-be49-8ec9f3898e21","ios":"levelo://app?vid=89564c03-9bb2-426b-be49-8ec9f3898e21"},"vehicle_type_id":"4","last_reported":1766941764,"current_range_meters":14000,"station_id":"ce4bgqh2rcd13ifvqc5g","pricing_plan_id":"cebpf4jnsgd1na2vs0mg"},{"bike_id":"c716b9c9-0fb0-4ddd-9ec8-29130ccf5bf6","system_id":"levelo_inurba_marseille","lat":43.32112,"lon":5.36768,"is_reserved":false,"is_disabled":false,"rental_uris":{"android":"levelo://app?vid=c716b9c9-0fb0-4ddd-9ec8-29130ccf5bf6","ios":"levelo://app?vid=c716b9c9-0fb0-4ddd-9ec8-29130ccf5bf6"},"vehicle_type_id":"4","last_reported":1766941764,"current_range_meters":14000,"station_id":"ce4bhrh2rcd13ifvqhug","pricing_plan_id":"cebpf4jnsgd1na2vs0mg"},{"bike_id":"a944d8b8-16d2-4f8f-ad76-bfa63a6f7554","system_id":"levelo_inurba_marseille","lat":43.26958,"lon":5.38624,"is_reserved":false,"is_disabled":false,"rental_uris":{"android":"levelo://app?vid=a944d8b8-16d2-4f8f-ad76-bfa63a6f7554","ios":"levelo://app?vid=a944d8b8-16d2-4f8f-ad76-bfa63a6f7554"},"vehicle_type_id":"4","last_reported":1766941764,"current_range_meters":14000,"station_id":"ce4bhh92rcd13ifvqfh0","pricing_plan_id":"cebpf4jnsgd1na2vs0mg"},{"bike_id":"04b61149-510d-4bf6-81d6-a065cc99d735","system_id":"levelo_inurba_marseille","lat":43.231848,"lon":5.399827,"is_reserved":false,"is_disabled":false,"rental_uris":{"android":"levelo://app?vid=04b61149-510d-4bf6-81d6-a065cc99d735","ios":"levelo://app?vid=04b61149-510d-4bf6-81d6-a065cc99d735"},"vehicle_type_id":"4","last_reported":1766941764,"current_range_meters":14000,"station_id":"ce4bhn12rcd13ifvqgqg","pricing_plan_id":"cebpf4jnsgd1na2vs0mg"},{"bike_id":"adaef4d2-0ba2-4f7f-80c1-63379e0b5fdc","system_id":"levelo_inurba_marseille","lat":43.29782,"lon":5.38106,"is_reserved":false,"is_disabled":false,"rental_uris":{"android":"levelo://app?vid=adaef4d2-0ba2-4f7f-80c1-63379e0b5fdc","ios":"levelo://app?vid=adaef4d2-0ba2-4f7f-80c1-63379e0b5fdc"},"vehicle_type_id":"4","last_reported":1766941764,"current_range_meters":14000,"station_id":"ce4bgip2rcd13ifvqbb0","pricing_plan_id":"cebpf4jnsgd1na2vs0mg"},{"bike_id":"37b5581b-7896-4bc8-89a6-9f3aaa164561","system_id":"levelo_inurba_marseille","lat":43.29611,"lon":5.37727,"is_reserved":false,"is_disabled":false,"rental_uris":{"android":"levelo://app?vid=37b5581b-7896-4bc8-89a6-9f3aaa164561","ios":"levelo://app?vid=37b5581b-7896-4bc8-89a6-9f3aaa164561"},"vehicle_type_id":"4","last_reported":1766941764,"current_range_meters":14400,"station_id":"ce4bgi92rcd13ifvqb90","pricing_plan_id":"cebpf4jnsgd1na2vs0mg"},{"bike_id":"8e408ba0-2118-43f7-a8ba-d277410a9103","system_id":"levelo_inurba_marseille","lat":43.31239,"lon":5.3807,"is_reserved":false,"is_disabled":false,"rental_uris":{"android":"levelo://app?vid=8e408ba0-2118-43f7-a8ba-d277410a9103","ios":"levelo://app?vid=8e408ba0-2118-43f7-a8ba-d277410a9103"},"vehicle_type_id":"4","last_reported":1766941764,"current_range_meters":14400,"station_id":"","pricing_plan_id":"cebpf4jnsgd1na2vs0mg"},{"bike_id":"d1dc8efa-dd66-42cd-93bc-e2e6f65b4cd3","system_id":"levelo_inurba_marseille","lat":43.29932,"lon":5.38137,"is_reserved":false,"is_disabled":false,"rental_uris":{"android":"levelo://app?vid=d1dc8efa-dd66-42cd-93bc-e2e6f65b4cd3","ios":"levelo://app?vid=d1dc8efa-dd66-42cd-93bc-e2e6f65b4cd3"},"vehicle_type_id":"4","last_reported":1766941764,"current_range_meters":14400,"station_id":"ce4bgj12rcd13ifvqbc0","pricing_plan_id":"cebpf4jnsgd1na2vs0mg"},{"bike_id":"62cf4cee-7c0c-4908-8bd6-9190e5298cee","system_id":"levelo_inurba_marseille","lat":43.22569,"lon":5.41622,"is_reserved":false,"is_disabled":false,"rental_uris":{"android":"levelo://app?vid=62cf4cee-7c0c-4908-8bd6-9190e5298cee","ios":"levelo://app?vid=62cf4cee-7c0c-4908-8bd6-9190e5298cee"},"vehicle_type_id":"4","last_reported":1766941764,"current_range_meters":14400,"station_id":"st_d2o4gvlbi1j2169b742g","pricing_plan_id":"cebpf4jnsgd1na2vs0mg"},{"bike_id":"a431f10d-1c1b-486a-93bf-1bf3d2057a18","system_id":"levelo_inurba_marseille","lat":43.2732,"lon":5.39114,"is_reserved":false,"is_disabled":false,"rental_uris":{"android":"levelo://app?vid=a431f10d-1c1b-486a-93bf-1bf3d2057a18","ios":"levelo://app?vid=a431f10d-1c1b-486a-93bf-1bf3d2057a18"},"vehicle_type_id":"4","last_reported":1766941764,"current_range_meters":14400,"station_id":"ce4bhgp2rcd13ifvqfe0","pricing_plan_id":"cebpf4jnsgd1na2vs0mg"},{"bike_id":"78039576-c8c3-4c49-a798-f19dacb4adff","system_id":"levelo_inurba_marseille","lat":43.30149,"lon":5.38097,"is_reserved":false,"is_disabled":false,"rental_uris":{"android":"levelo://app?vid=78039576-c8c3-4c49-a798-f19dacb4adff","ios":"levelo://app?vid=78039576-c8c3-4c49-a798-f19dacb4adff"},"vehicle_type_id":"4","last_reported":1766941764,"current_range_meters":14400,"station_id":"ce4bgjp2rcd13ifvqbh0","pricing_plan_id":"cebpf4jnsgd1na2vs0mg"},{"bike_id":"0587f04e-e1d2-45f2-83bf-7bb7cf6afa1b","system_id":"levelo_inurba_marseille","lat":43.2314,"lon":5.43691,"is_reserved":false,"is_disabled":true,"rental_uris":{"android":"levelo://app?vid=0587f04e-e1d2-45f2-83bf-7bb7cf6afa1b","ios":"levelo://app?vid=0587f04e-e1d2-45f2-83bf-7bb7cf6afa1b"},"vehicle_type_id":"4","last_reported":1766941764,"current_range_meters":14400,"station_id":"ce4bhmp2rcd13ifvqgog","pricing_plan_id":"cebpf4jnsgd1na2vs0mg"},{"bike_id":"54928690-97c0-48f0-b287-763b4f8d51ba","system_id":"levelo_inurba_marseille","lat":43.281513,"lon":5.426356,"is_reserved":false,"is_disabled":false,"rental_uris":{"android":"levelo://app?vid=54928690-97c0-48f0-b287-763b4f8d51ba","ios":"levelo://app?vid=54928690-97c0-48f0-b287-763b4f8d51ba"},"vehicle_type_id":"4","last_reported":1766941764,"current_range_meters":14400,"station_id":"ce4bhnh2rcd13ifvqgug","pricing_plan_id":"cebpf4jnsgd1na2vs0mg"},{"bike_id":"4da4d4a4-6ba6-462c-b911-56889a9a05c2","system_id":"levelo_inurba_marseille","lat":43.29964,"lon":5.38514,"is_reserved":false,"is_disabled":false,"rental_uris":{"android":"levelo://app?vid=4da4d4a4-6ba6-462c-b911-56889a9a05c2","ios":"levelo://app?vid=4da4d4a4-6ba6-462c-b911-56889a9a05c2"},"vehicle_type_id":"4","last_reported":1766941764,"current_range_meters":14400,"station_id":"ce4bgip2rcd13ifvqbb0","pricing_plan_id":"cebpf4jnsgd1na2vs0mg"},{"bike_id":"2959011c-1ba7-48fe-a67a-5bbd5cd550a7","system_id":"levelo_inurba_marseille","lat":43.26364,"lon":5.41045,"is_reserved":false,"is_disabled":false,"rental_uris":{"android":"levelo://app?vid=2959011c-1ba7-48fe-a67a-5bbd5cd550a7","ios":"levelo://app?vid=2959011c-1ba7-48fe-a67a-5bbd5cd550a7"},"vehicle_type_id":"4","last_reported":1766941764,"current_range_meters":14400,"station_id":"st_d4e5ca6na9uc73bfl5fg","pricing_plan_id":"cebpf4jnsgd1na2vs0mg"},{"bike_id":"af1f9193-90aa-4f34-b2c4-fb0bbaea183c","system_id":"levelo_inurba_marseille","lat":43.28481,"lon":5.48406,"is_reserved":false,"is_disabled":false,"rental_uris":{"android":"levelo://app?vid=af1f9193-90aa-4f34-b2c4-fb0bbaea183c","ios":"levelo://app?vid=af1f9193-90aa-4f34-b2c4-fb0bbaea183c"},"vehicle_type_id":"4","last_reported":1766941764,"current_range_meters":14400,"station_id":"","pricing_plan_id":"cebpf4jnsgd1na2vs0mg"},{"bike_id":"63af8fb4-530c-4fb4-9a09-1db45822a440","system_id":"levelo_inurba_marseille","lat":43.29879,"lon":5.3973,"is_reserved":false,"is_disabled":false,"rental_uris":{"android":"levelo://app?vid=63af8fb4-530c-4fb4-9a09-1db45822a440","ios":"levelo://app?vid=63af8fb4-530c-4fb4-9a09-1db45822a440"},"vehicle_type_id":"4","last_reported":1766941764,"current_range_meters":14400,"station_id":"ce4bh0h2rcd13ifvqd50","pricing_plan_id":"cebpf4jnsgd1na2vs0mg"},{"bike_id":"05529623-bee0-4fc7-8cb6-1ab1da084930","system_id":"levelo_inurba_marseille","lat":43.28228,"lon":5.39042,"is_reserved":false,"is_disabled":false,"rental_uris":{"android":"levelo://app?vid=05529623-bee0-4fc7-8cb6-1ab1da084930","ios":"levelo://app?vid=05529623-bee0-4fc7-8cb6-1ab1da084930"},"vehicle_type_id":"4","last_reported":1766941764,"current_range_meters":14400,"station_id":"ce4bh8p2rcd13ifvqeb0","pricing_plan_id":"cebpf4jnsgd1na2vs0mg"},{"bike_id":"2f9b1f72-cc3d-4901-b915-3d7bc2868e52","system_id":"levelo_inurba_marseille","lat":43.25589,"lon":5.38211,"is_reserved":false,"is_disabled":false,"rental_uris":{"android":"levelo://app?vid=2f9b1f72-cc3d-4901-b915-3d7bc2868e52","ios":"levelo://app?vid=2f9b1f72-cc3d-4901-b915-3d7bc2868e52"},"vehicle_type_id":"4","last_reported":1766941764,"current_range_meters":14400,"station_id":"ce4bhih2rcd13ifvqfs0","pricing_plan_id":"cebpf4jnsgd1na2vs0mg"},{"bike_id":"23fef27e-16b1-41b3-8527-38d1a2c1bd4c","system_id":"levelo_inurba_marseille","lat":43.30534,"lon":5.36539,"is_reserved":false,"is_disabled":false,"rental_uris":{"android":"levelo://app?vid=23fef27e-16b1-41b3-8527-38d1a2c1bd4c","ios":"levelo://app?vid=23fef27e-16b1-41b3-8527-38d1a2c1bd4c"},"vehicle_type_id":"4","last_reported":1766941764,"current_range_meters":14800,"station_id":"ce4bgs12rcd13ifvqcag","pricing_plan_id":"cebpf4jnsgd1na2vs0mg"},{"bike_id":"59ce43fb-ff44-4d6d-a90f-61c10ba0732a","system_id":"levelo_inurba_marseille","lat":43.2754,"lon":5.42446,"is_reserved":false,"is_disabled":false,"rental_uris":{"android":"levelo://app?vid=59ce43fb-ff44-4d6d-a90f-61c10ba0732a","ios":"levelo://app?vid=59ce43fb-ff44-4d6d-a90f-61c10ba0732a"},"vehicle_type_id":"4","last_reported":1766941764,"current_range_meters":14800,"station_id":"ce4bhn92rcd13ifvqgrg","pricing_plan_id":"cebpf4jnsgd1na2vs0mg"},{"bike_id":"631b4917-b2c5-4925-86d4-958dd23950ab","system_id":"levelo_inurba_marseille","lat":43.3074,"lon":5.424488,"is_reserved":false,"is_disabled":false,"rental_uris":{"android":"levelo://app?vid=631b4917-b2c5-4925-86d4-958dd23950ab","ios":"levelo://app?vid=631b4917-b2c5-4925-86d4-958dd23950ab"},"vehicle_type_id":"4","last_reported":1766941764,"current_range_meters":14800,"station_id":"st_cvj6ca6bvosntc0bfgr0","pricing_plan_id":"cebpf4jnsgd1na2vs0mg"},{"bike_id":"0ab236f4-714d-4f83-b124-2b3bc8970a00","system_id":"levelo_inurba_marseille","lat":43.32117,"lon":5.36775,"is_reserved":false,"is_disabled":false,"rental_uris":{"android":"levelo://app?vid=0ab236f4-714d-4f83-b124-2b3bc8970a00","ios":"levelo://app?vid=0ab236f4-714d-4f83-b124-2b3bc8970a00"},"vehicle_type_id":"4","last_reported":1766941764,"current_range_meters":14800,"station_id":"ce4bhrh2rcd13ifvqhug","pricing_plan_id":"cebpf4jnsgd1na2vs0mg"},{"bike_id":"055a5c28-aca7-4bc0-a4c6-38f4660d5840","system_id":"levelo_inurba_marseille","lat":43.293665,"lon":5.378438,"is_reserved":false,"is_disabled":false,"rental_uris":{"android":"levelo://app?vid=055a5c28-aca7-4bc0-a4c6-38f4660d5840","ios":"levelo://app?vid=055a5c28-aca7-4bc0-a4c6-38f4660d5840"},"vehicle_type_id":"4","last_reported":1766941764,"current_range_meters":14800,"station_id":"ce4bgjh2rcd13ifvqbf0","pricing_plan_id":"cebpf4jnsgd1na2vs0mg"},{"bike_id":"f5af0494-5769-4401-ac91-00a00ec12598","system_id":"levelo_inurba_marseille","lat":43.26851,"lon":5.3945,"is_reserved":false,"is_disabled":false,"rental_uris":{"android":"levelo://app?vid=f5af0494-5769-4401-ac91-00a00ec12598","ios":"levelo://app?vid=f5af0494-5769-4401-ac91-00a00ec12598"},"vehicle_type_id":"4","last_reported":1766941764,"current_range_meters":14800,"station_id":"ce4bhh12rcd13ifvqfg0","pricing_plan_id":"cebpf4jnsgd1na2vs0mg"},{"bike_id":"31704bec-4f9a-49bc-bf97-b66633aba2e8","system_id":"levelo_inurba_marseille","lat":43.260102,"lon":5.417432,"is_reserved":false,"is_disabled":false,"rental_uris":{"android":"levelo://app?vid=31704bec-4f9a-49bc-bf97-b66633aba2e8","ios":"levelo://app?vid=31704bec-4f9a-49bc-bf97-b66633aba2e8"},"vehicle_type_id":"4","last_reported":1766941764,"current_range_meters":14800,"station_id":"","pricing_plan_id":"cebpf4jnsgd1na2vs0mg"},{"bike_id":"8edc1ab8-c82c-4ca3-afef-ae2ed37ce96b","system_id":"levelo_inurba_marseille","lat":43.31209,"lon":5.36878,"is_reserved":false,"is_disabled":false,"rental_uris":{"android":"levelo://app?vid=8edc1ab8-c82c-4ca3-afef-ae2ed37ce96b","ios":"levelo://app?vid=8edc1ab8-c82c-4ca3-afef-ae2ed37ce96b"},"vehicle_type_id":"4","last_reported":1766941764,"current_range_meters":15200,"station_id":"ce4bgl92rcd13ifvqbq0","pricing_plan_id":"cebpf4jnsgd1na2vs0mg"},{"bike_id":"5294767e-dd69-4945-8c8e-03dd74e904a7","system_id":"levelo_inurba_marseille","lat":43.230631,"lon":5.35491,"is_reserved":false,"is_disabled":false,"rental_uris":{"android":"levelo://app?vid=5294767e-dd69-4945-8c8e-03dd74e904a7","ios":"levelo://app?vid=5294767e-dd69-4945-8c8e-03dd74e904a7"},"vehicle_type_id":"4","last_reported":1766941764,"current_range_meters":15200,"station_id":"","pricing_plan_id":"cebpf4jnsgd1na2vs0mg"},{"bike_id":"fdd77af3-8e6b-4198-9033-45b5ff3a53e7","system_id":"levelo_inurba_marseille","lat":43.31235,"lon":5.36842,"is_reserved":false,"is_disabled":false,"rental_uris":{"android":"levelo://app?vid=fdd77af3-8e6b-4198-9033-45b5ff3a53e7","ios":"levelo://app?vid=fdd77af3-8e6b-4198-9033-45b5ff3a53e7"},"vehicle_type_id":"4","last_reported":1766941764,"current_range_meters":15200,"station_id":"ce4bgl92rcd13ifvqbq0","pricing_plan_id":"cebpf4jnsgd1na2vs0mg"},{"bike_id":"409f22f5-c320-45ca-851d-1966d2bb3619","system_id":"levelo_inurba_marseille","lat":43.30753,"lon":5.37018,"is_reserved":false,"is_disabled":false,"rental_uris":{"android":"levelo://app?vid=409f22f5-c320-45ca-851d-1966d2bb3619","ios":"levelo://app?vid=409f22f5-c320-45ca-851d-1966d2bb3619"},"vehicle_type_id":"4","last_reported":1766941764,"current_range_meters":15200,"station_id":"","pricing_plan_id":"cebpf4jnsgd1na2vs0mg"},{"bike_id":"4466e4e7-7d9e-4691-9c78-17a073c9b554","system_id":"levelo_inurba_marseille","lat":43.32493,"lon":5.36574,"is_reserved":false,"is_disabled":false,"rental_uris":{"android":"levelo://app?vid=4466e4e7-7d9e-4691-9c78-17a073c9b554","ios":"levelo://app?vid=4466e4e7-7d9e-4691-9c78-17a073c9b554"},"vehicle_type_id":"4","last_reported":1766941764,"current_range_meters":15200,"station_id":"ce4bhs12rcd13ifvqhvg","pricing_plan_id":"cebpf4jnsgd1na2vs0mg"},{"bike_id":"98cdd9ef-1486-4911-a5b9-8e16bd6fb050","system_id":"levelo_inurba_marseille","lat":43.29269,"lon":5.3844,"is_reserved":false,"is_disabled":false,"rental_uris":{"android":"levelo://app?vid=98cdd9ef-1486-4911-a5b9-8e16bd6fb050","ios":"levelo://app?vid=98cdd9ef-1486-4911-a5b9-8e16bd6fb050"},"vehicle_type_id":"4","last_reported":1766941764,"current_range_meters":15200,"station_id":"ce4bh692rcd13ifvqea0","pricing_plan_id":"cebpf4jnsgd1na2vs0mg"},{"bike_id":"d5157bc4-281e-4273-a854-3dd0ece413ba","system_id":"levelo_inurba_marseille","lat":43.30744,"lon":5.42442,"is_reserved":false,"is_disabled":false,"rental_uris":{"android":"levelo://app?vid=d5157bc4-281e-4273-a854-3dd0ece413ba","ios":"levelo://app?vid=d5157bc4-281e-4273-a854-3dd0ece413ba"},"vehicle_type_id":"4","last_reported":1766941764,"current_range_meters":15200,"station_id":"st_cvj6ca6bvosntc0bfgr0","pricing_plan_id":"cebpf4jnsgd1na2vs0mg"},{"bike_id":"3a7d51a9-02fa-49c0-9323-106c627a2fee","system_id":"levelo_inurba_marseille","lat":43.29798,"lon":5.38079,"is_reserved":false,"is_disabled":false,"rental_uris":{"android":"levelo://app?vid=3a7d51a9-02fa-49c0-9323-106c627a2fee","ios":"levelo://app?vid=3a7d51a9-02fa-49c0-9323-106c627a2fee"},"vehicle_type_id":"4","last_reported":1766941764,"current_range_meters":15200,"station_id":"ce4bgip2rcd13ifvqbb0","pricing_plan_id":"cebpf4jnsgd1na2vs0mg"},{"bike_id":"14ae9959-6d18-4598-8253-e78df69f7308","system_id":"levelo_inurba_marseille","lat":43.303162,"lon":5.369192,"is_reserved":false,"is_disabled":false,"rental_uris":{"android":"levelo://app?vid=14ae9959-6d18-4598-8253-e78df69f7308","ios":"levelo://app?vid=14ae9959-6d18-4598-8253-e78df69f7308"},"vehicle_type_id":"4","last_reported":1766941764,"current_range_meters":15200,"station_id":"ce4bgqh2rcd13ifvqc5g","pricing_plan_id":"cebpf4jnsgd1na2vs0mg"},{"bike_id":"1b98c6d3-988a-40e8-a138-836b264a962b","system_id":"levelo_inurba_marseille","lat":43.32331,"lon":5.36678,"is_reserved":false,"is_disabled":false,"rental_uris":{"android":"levelo://app?vid=1b98c6d3-988a-40e8-a138-836b264a962b","ios":"levelo://app?vid=1b98c6d3-988a-40e8-a138-836b264a962b"},"vehicle_type_id":"4","last_reported":1766941764,"current_range_meters":15200,"station_id":"","pricing_plan_id":"cebpf4jnsgd1na2vs0mg"},{"bike_id":"d256e78a-a653-4742-acf5-80fcd9be5f91","system_id":"levelo_inurba_marseille","lat":43.32096,"lon":5.36788,"is_reserved":false,"is_disabled":false,"rental_uris":{"android":"levelo://app?vid=d256e78a-a653-4742-acf5-80fcd9be5f91","ios":"levelo://app?vid=d256e78a-a653-4742-acf5-80fcd9be5f91"},"vehicle_type_id":"4","last_reported":1766941764,"current_range_meters":15200,"station_id":"ce4bhrh2rcd13ifvqhug","pricing_plan_id":"cebpf4jnsgd1na2vs0mg"},{"bike_id":"0324683c-4043-4512-bd18-614da6ff13bb","system_id":"levelo_inurba_marseille","lat":43.320569,"lon":5.415428,"is_reserved":false,"is_disabled":false,"rental_uris":{"android":"levelo://app?vid=0324683c-4043-4512-bd18-614da6ff13bb","ios":"levelo://app?vid=0324683c-4043-4512-bd18-614da6ff13bb"},"vehicle_type_id":"4","last_reported":1766941764,"current_range_meters":15200,"station_id":"ce4bhq92rcd13ifvqhkg","pricing_plan_id":"cebpf4jnsgd1na2vs0mg"},{"bike_id":"bfcbb115-9c21-4a2a-9c47-cbadbc60b211","system_id":"levelo_inurba_marseille","lat":43.28933,"lon":5.36634,"is_reserved":false,"is_disabled":false,"rental_uris":{"android":"levelo://app?vid=bfcbb115-9c21-4a2a-9c47-cbadbc60b211","ios":"levelo://app?vid=bfcbb115-9c21-4a2a-9c47-cbadbc60b211"},"vehicle_type_id":"4","last_reported":1766941764,"current_range_meters":15200,"station_id":"ce4bhap2rcd13ifvqek0","pricing_plan_id":"cebpf4jnsgd1na2vs0mg"},{"bike_id":"8a0495a7-0c65-4221-9d31-5939737c06bb","system_id":"levelo_inurba_marseille","lat":43.26537,"lon":5.37297,"is_reserved":false,"is_disabled":false,"rental_uris":{"android":"levelo://app?vid=8a0495a7-0c65-4221-9d31-5939737c06bb","ios":"levelo://app?vid=8a0495a7-0c65-4221-9d31-5939737c06bb"},"vehicle_type_id":"4","last_reported":1766941764,"current_range_meters":15200,"station_id":"ce4bhg12rcd13ifvqf70","pricing_plan_id":"cebpf4jnsgd1na2vs0mg"},{"bike_id":"9a2077a2-cebc-468c-82f9-fecda68a9ec3","system_id":"levelo_inurba_marseille","lat":43.29439,"lon":5.40981,"is_reserved":false,"is_disabled":false,"rental_uris":{"android":"levelo://app?vid=9a2077a2-cebc-468c-82f9-fecda68a9ec3","ios":"levelo://app?vid=9a2077a2-cebc-468c-82f9-fecda68a9ec3"},"vehicle_type_id":"4","last_reported":1766941764,"current_range_meters":15200,"station_id":"","pricing_plan_id":"cebpf4jnsgd1na2vs0mg"},{"bike_id":"cfc68cfa-696a-4683-bc70-2f0af19ddd34","system_id":"levelo_inurba_marseille","lat":43.337598,"lon":5.374618,"is_reserved":false,"is_disabled":false,"rental_uris":{"android":"levelo://app?vid=cfc68cfa-696a-4683-bc70-2f0af19ddd34","ios":"levelo://app?vid=cfc68cfa-696a-4683-bc70-2f0af19ddd34"},"vehicle_type_id":"4","last_reported":1766941764,"current_range_meters":15200,"station_id":"","pricing_plan_id":"cebpf4jnsgd1na2vs0mg"},{"bike_id":"d92812f8-5b57-4c59-8c7f-259f28af8665","system_id":"levelo_inurba_marseille","lat":43.28221,"lon":5.43095,"is_reserved":false,"is_disabled":false,"rental_uris":{"android":"levelo://app?vid=d92812f8-5b57-4c59-8c7f-259f28af8665","ios":"levelo://app?vid=d92812f8-5b57-4c59-8c7f-259f28af8665"},"vehicle_type_id":"4","last_reported":1766941764,"current_range_meters":15200,"station_id":"","pricing_plan_id":"cebpf4jnsgd1na2vs0mg"},