{"last_updated":1741699185,"ttl":60,"version":"2.2","data":{"bikes":[{"bike_id":"46c805d2-7df9-4baa-9f19-301b216cc990","system_id":"levelo_inurba_marseille","lat":43.28698,"lon":5.38618,"is_reserved":false,"is_disabled":false,"rental_uris":{"android":"levelo://app?vid=46c805d2-7df9-4baa-9f19-301b216cc990","ios":"levelo://app?vid=46c805d2-7df9-4baa-9f19-301b216cc990"},"vehicle_type_id":"4","last_reported":1741699186,"current_range_meters":2800,"station_id":"","pricing_plan_id":"cebpf4jnsgd1na2vs0mg"},{"bike_id":"9ca55634-bb08-42a8-ba0e-edd2059844df","system_id":"levelo_inurba_marseille","lat":43.29305,"lon":5.37184,"is_reserved":false,"is_disabled":false,"rental_uris":{"android":"levelo://app?vid=9ca55634-bb08-42a8-ba0e-edd2059844df","ios":"levelo://app?vid=9ca55634-bb08-42a8-ba0e-edd2059844df"},"vehicle_type_id":"4","last_reported":1741699186,"current_range_meters":2800,"station_id":"ce4bgh92rcd13ifvqb40","pricing_plan_id":"cebpf4jnsgd1na2vs0mg"},{"bike_id":"dd232ac3-a11d-4e21-b9d3-edaa7f7cb4f9","system_id":"levelo_inurba_marseille","lat":43.27771,"lon":5.38375,"is_reserved":false,"is_disabled":false,"rental_uris":{"android":"levelo://app?vid=dd232ac3-a11d-4e21-b9d3-edaa7f7cb4f9","ios":"levelo://app?vid=dd232ac3-a11d-4e21-b9d3-edaa7f7cb4f9"},"vehicle_type_id":"4","last_reported":1741699186,"current_range_meters":3200,"station_id":"ce4bhh92rcd13ifvqfi0","pricing_plan_id":"cebpf4jnsgd1na2vs0mg"},{"bike_id":"90fe5136-8169-4e2a-a97d-ccb461e35c1d","system_id":"levelo_inurba_marseille","lat":43.30458,"lon":5.37903,"is_reserved":false,"is_disabled":false,"rental_uris":{"android":"levelo://app?vid=90fe5136-8169-4e2a-a97d-ccb461e35c1d","ios":"levelo://app?vid=90fe5136-8169-4e2a-a97d-ccb461e35c1d"},"vehicle_type_id":"4","last_reported":1741699186,"current_range_meters":3600,"station_id":"ce4bgup2rcd13ifvqcn0","pricing_plan_id":"cebpf4jnsgd1na2vs0mg"},{"bike_id":"7606ea45-0055-4067-8d2f-56244b470f26","system_id":"levelo_inurba_marseille","lat":43.28268,"lon":5.35063,"is_reserved":false,"is_disabled":false,"rental_uris":{"android":"levelo://app?vid=7606ea45-0055-4067-8d2f-56244b470f26","ios":"levelo://app?vid=7606ea45-0055-4067-8d2f-56244b470f26"},"vehicle_type_id":"4","last_reported":1741699186,"current_range_meters":3600,"station_id":"ce4bhbp2rcd13ifvqerg","pricing_plan_id":"cebpf4jnsgd1na2vs0mg"},{"bike_id":"b104001a-10f7-4c93-b613-2b76cb885027","system_id":"levelo_inurba_marseille","lat":43.311528,"lon":5.371108,"is_reserved":false,"is_disabled":false,"rental_uris":{"android":"levelo://app?vid=b104001a-10f7-4c93-b613-2b76cb885027","ios":"levelo://app?vid=b104001a-10f7-4c93-b613-2b76cb885027"},"vehicle_type_id":"4","last_reported":1741699186,"current_range_meters":3600,"station_id":"","pricing_plan_id":"cebpf4jnsgd1na2vs0mg"},{"bike_id":"125b7cea-d107-4841-a25c-d71124e66585","system_id":"levelo_inurba_marseille","lat":43.27495,"lon":5.42455,"is_reserved":false,"is_disabled":false,"rental_uris":{"android":"levelo://app?vid=125b7cea-d107-4841-a25c-d71124e66585","ios":"levelo://app?vid=125b7cea-d107-4841-a25c-d71124e66585"},"vehicle_type_id":"4","last_reported":1741699186,"current_range_meters":4000,"station_id":"ce4bhn92rcd13ifvqgrg","pricing_plan_id":"cebpf4jnsgd1na2vs0mg"},{"bike_id":"2fbb2f0e-b64e-445e-a2b3-ee5227dc63e4","system_id":"levelo_inurba_marseille","lat":43.26931,"lon":5.36711,"is_reserved":false,"is_disabled":false,"rental_uris":{"android":"levelo://app?vid=2fbb2f0e-b64e-445e-a2b3-ee5227dc63e4","ios":"levelo://app?vid=2fbb2f0e-b64e-445e-a2b3-ee5227dc63e4"},"vehicle_type_id":"4","last_reported":1741699186,"current_range_meters":4400,"station_id":"","pricing_plan_id":"cebpf4jnsgd1na2vs0mg"},{"bike_id":"679bd88a-88e1-49e3-9a8a-d2972f19c067","system_id":"levelo_inurba_marseille","lat":43.29795,"lon":5.38104,"is_reserved":false,"is_disabled":false,"rental_uris":{"android":"levelo://app?vid=679bd88a-88e1-49e3-9a8a-d2972f19c067","ios":"levelo://app?vid=679bd88a-88e1-49e3-9a8a-d2972f19c067"},"vehicle_type_id":"4","last_reported":1741699186,"current_range_meters":4400,"station_id":"ce4bgip2rcd13ifvqbb0","pricing_plan_id":"cebpf4jnsgd1na2vs0mg"},{"bike_id":"7f08542c-3622-4bee-8852-d0974c0ec085","system_id":"levelo_inurba_marseille","lat":43.24184,"lon":5.36319,"is_reserved":false,"is_disabled":false,"rental_uris":{"android":"levelo://app?vid=7f08542c-3622-4bee-8852-d0974c0ec085","ios":"levelo://app?vid=7f08542c-3622-4bee-8852-d0974c0ec085"},"vehicle_type_id":"4","last_reported":1741699186,"current_range_meters":4400,"station_id":"","pricing_plan_id":"cebpf4jnsgd1na2vs0mg"},{"bike_id":"6833dd83-01a7-4f68-ac2e-134d668388cd","system_id":"levelo_inurba_marseille","lat":43.29017,"lon":5.38138,"is_reserved":false,"is_disabled":false,"rental_uris":{"android":"levelo://app?vid=6833dd83-01a7-4f68-ac2e-134d668388cd","ios":"levelo://app?vid=6833dd83-01a7-4f68-ac2e-134d668388cd"},"vehicle_type_id":"4","last_reported":1741699186,"current_range_meters":4400,"station_id":"ce4bh4p2rcd13ifvqe1g","pricing_plan_id":"cebpf4jnsgd1na2vs0mg"},{"bike_id":"2db034f6-a556-4ad1-82fc-e99cb4e760f6","system_id":"levelo_inurba_marseille","lat":43.27497,"lon":5.4245,"is_reserved":false,"is_disabled":false,"rental_uris":{"android":"levelo://app?vid=2db034f6-a556-4ad1-82fc-e99cb4e760f6","ios":"levelo://app?vid=2db034f6-a556-4ad1-82fc-e99cb4e760f6"},"vehicle_type_id":"4","last_reported":1741699186,"current_range_meters":4400,"station_id":"ce4bhn92rcd13ifvqgrg","pricing_plan_id":"cebpf4jnsgd1na2vs0mg"},{"bike_id":"e68c899d-ec39-4761-8a03-7a0de4e53c96","system_id":"levelo_inurba_marseille","lat":43.30313,"lon":5.36894,"is_reserved":false,"is_disabled":false,"rental_uris":{"android":"levelo://app?vid=e68c899d-ec39-4761-8a03-7a0de4e53c96","ios":"levelo://app?vid=e68c899d-ec39-4761-8a03-7a0de4e53c96"},"vehicle_type_id":"4","last_reported":1741699186,"current_range_meters":4800,"station_id":"ce4bgqh2rcd13ifvqc5g","pricing_plan_id":"cebpf4jnsgd1na2vs0mg"},{"bike_id":"341e50ef-beb3-4c9e-a73f-8c43887339b4","system_id":"levelo_inurba_marseille","lat":43.32541,"lon":5.41438,"is_reserved":false,"is_disabled":false,"rental_uris":{"android":"levelo://app?vid=341e50ef-beb3-4c9e-a73f-8c43887339b4","ios":"levelo://app?vid=341e50ef-beb3-4c9e-a73f-8c43887339b4"},"vehicle_type_id":"4","last_reported":1741699186,"current_range_meters":4800,"station_id":"ce4bhq12rcd13ifvqhhg","pricing_plan_id":"cebpf4jnsgd1na2vs0mg"},{"bike_id":"6c707fb7-4aeb-4cea-8c9c-973983a9ac92","system_id":"levelo_inurba_marseille","lat":43.28487,"lon":5.38422,"is_reserved":false,"is_disabled":false,"rental_uris":{"android":"levelo://app?vid=6c707fb7-4aeb-4cea-8c9c-973983a9ac92","ios":"levelo://app?vid=6c707fb7-4aeb-4cea-8c9c-973983a9ac92"},"vehicle_type_id":"4","last_reported":1741699186,"current_range_meters":4800,"station_id":"ce4bh512rcd13ifvqe3g","pricing_plan_id":"cebpf4jnsgd1na2vs0mg"},{"bike_id":"1359a05a-1902-43bc-bd2d-900e1acd67fe","system_id":"levelo_inurba_marseille","lat":43.29802,"lon":5.38084,"is_reserved":false,"is_disabled":false,"rental_uris":{"android":"levelo://app?vid=1359a05a-1902-43bc-bd2d-900e1acd67fe","ios":"levelo://app?vid=1359a05a-1902-43bc-bd2d-900e1acd67fe"},"vehicle_type_id":"4","last_reported":1741699186,"current_range_meters":4800,"station_id":"ce4bgip2rcd13ifvqbb0","pricing_plan_id":"cebpf4jnsgd1na2vs0mg"},{"bike_id":"641e1e08-9bc4-4492-812b-197b499ff3ea","system_id":"levelo_inurba_marseille","lat":43.30602,"lon":5.36638,"is_reserved":false,"is_disabled":false,"rental_uris":{"android":"levelo://app?vid=641e1e08-9bc4-4492-812b-197b499ff3ea","ios":"levelo://app?vid=641e1e08-9bc4-4492-812b-197b499ff3ea"},"vehicle_type_id":"4","last_reported":1741699186,"current_range_meters":5600,"station_id":"","pricing_plan_id":"cebpf4jnsgd1na2vs0mg"},{"bike_id":"95d1f2a6-c28e-4a19-bc0c-908c3de03515","system_id":"levelo_inurba_marseille","lat":43.295967,"lon":5.381038,"is_reserved":false,"is_disabled":false,"rental_uris":{"android":"levelo://app?vid=95d1f2a6-c28e-4a19-bc0c-908c3de03515","ios":"levelo://app?vid=95d1f2a6-c28e-4a19-bc0c-908c3de03515"},"vehicle_type_id":"4","last_reported":1741699186,"current_range_meters":5600,"station_id":"ce4bha92rcd13ifvqeh0","pricing_plan_id":"cebpf4jnsgd1na2vs0mg"},{"bike_id":"56dc6b03-d319-4cc6-9b78-3bdf304dc11d","system_id":"levelo_inurba_marseille","lat":43.29007,"lon":5.35611,"is_reserved":false,"is_disabled":false,"rental_uris":{"android":"levelo://app?vid=56dc6b03-d319-4cc6-9b78-3bdf304dc11d","ios":"levelo://app?vid=56dc6b03-d319-4cc6-9b78-3bdf304dc11d"},"vehicle_type_id":"4","last_reported":1741699186,"current_range_meters":5600,"station_id":"ce4bhb92rcd13ifvqen0","pricing_plan_id":"cebpf4jnsgd1na2vs0mg"},{"bike_id":"1f30b668-3e9e-4416-a7a5-e4592a87067b","system_id":"levelo_inurba_marseille","lat":43.298257,"lon":5.375551,"is_reserved":false,"is_disabled":false,"rental_uris":{"android":"levelo://app?vid=1f30b668-3e9e-4416-a7a5-e4592a87067b","ios":"levelo://app?vid=1f30b668-3e9e-4416-a7a5-e4592a87067b"},"vehicle_type_id":"4","last_reported":1741699186,"current_range_meters":6000,"station_id":"ce4bgup2rcd13ifvqco0","pricing_plan_id":"cebpf4jnsgd1na2vs0mg"},{"bike_id":"7d7fd250-2656-4ccc-858d-cdf57d351781","system_id":"levelo_inurba_marseille","lat":43.28494,"lon":5.38564,"is_reserved":false,"is_disabled":false,"rental_uris":{"android":"levelo://app?vid=7d7fd250-2656-4ccc-858d-cdf57d351781","ios":"levelo://app?vid=7d7fd250-2656-4ccc-858d-cdf57d351781"},"vehicle_type_id":"4","last_reported":1741699186,"current_range_meters":6000,"station_id":"ce4bh8p2rcd13ifvqeb0","pricing_plan_id":"cebpf4jnsgd1na2vs0mg"},{"bike_id":"09c08ade-89aa-4169-a7b1-d869e5b3cd6d","system_id":"levelo_inurba_marseille","lat":43.27967,"lon":5.38748,"is_reserved":false,"is_disabled":false,"rental_uris":{"android":"levelo://app?vid=09c08ade-89aa-4169-a7b1-d869e5b3cd6d","ios":"levelo://app?vid=09c08ade-89aa-4169-a7b1-d869e5b3cd6d"},"vehicle_type_id":"4","last_reported":1741699186,"current_range_meters":6000,"station_id":"ce4bhg12rcd13ifvqf80","pricing_plan_id":"cebpf4jnsgd1na2vs0mg"},{"bike_id":"4db736b9-68d3-4f2a-9431-002ce7a44183","system_id":"levelo_inurba_marseille","lat":43.23162,"lon":5.43721,"is_reserved":false,"is_disabled":false,"rental_uris":{"android":"levelo://app?vid=4db736b9-68d3-4f2a-9431-002ce7a44183","ios":"levelo://app?vid=4db736b9-68d3-4f2a-9431-002ce7a44183"},"vehicle_type_id":"4","last_reported":1741699186,"current_range_meters":6000,"station_id":"ce4bhmp2rcd13ifvqgog","pricing_plan_id":"cebpf4jnsgd1na2vs0mg"},{"bike_id":"58e479a9-c3a4-4826-ad96-179cb000b7c3","system_id":"levelo_inurba_marseille","lat":43.31334,"lon":5.36735,"is_reserved":false,"is_disabled":false,"rental_uris":{"android":"levelo://app?vid=58e479a9-c3a4-4826-ad96-179cb000b7c3","ios":"levelo://app?vid=58e479a9-c3a4-4826-ad96-179cb000b7c3"},"vehicle_type_id":"4","last_reported":1741699186,"current_range_meters":6400,"station_id":"ce4bgr92rcd13ifvqc6g","pricing_plan_id":"cebpf4jnsgd1na2vs0mg"},{"bike_id":"15e74b16-5d2e-47fd-9cbd-c8ed22a04a66","system_id":"levelo_inurba_marseille","lat":43.28714,"lon":5.37938,"is_reserved":false,"is_disabled":false,"rental_uris":{"android":"levelo://app?vid=15e74b16-5d2e-47fd-9cbd-c8ed22a04a66","ios":"levelo://app?vid=15e74b16-5d2e-47fd-9cbd-c8ed22a04a66"},"vehicle_type_id":"4","last_reported":1741699186,"current_range_meters":6400,"station_id":"ce4bh9p2rcd13ifvqec0","pricing_plan_id":"cebpf4jnsgd1na2vs0mg"},{"bike_id":"7f57e9e8-2862-42b3-b2f3-5988b8e30cb8","system_id":"levelo_inurba_marseille","lat":43.25407,"lon":5.39966,"is_reserved":false,"is_disabled":false,"rental_uris":{"android":"levelo://app?vid=7f57e9e8-2862-42b3-b2f3-5988b8e30cb8","ios":"levelo://app?vid=7f57e9e8-2862-42b3-b2f3-5988b8e30cb8"},"vehicle_type_id":"4","last_reported":1741699186,"current_range_meters":6400,"station_id":"ce4bhlh2rcd13ifvqgig","pricing_plan_id":"cebpf4jnsgd1na2vs0mg"},{"bike_id":"edb857b4-1bfb-4342-b5b8-95cfecfaa77c","system_id":"levelo_inurba_marseille","lat":43.25034,"lon":5.38958,"is_reserved":false,"is_disabled":false,"rental_uris":{"android":"levelo://app?vid=edb857b4-1bfb-4342-b5b8-95cfecfaa77c","ios":"levelo://app?vid=edb857b4-1bfb-4342-b5b8-95cfecfaa77c"},"vehicle_type_id":"4","last_reported":1741699186,"current_range_meters":6800,"station_id":"ce4bhgp2rcd13ifvqfd0","pricing_plan_id":"cebpf4jnsgd1na2vs0mg"},{"bike_id":"9304249e-ea54-4fea-b75b-04bc5885393e","system_id":"levelo_inurba_marseille","lat":43.33601,"lon":5.41022,"is_reserved":false,"is_disabled":false,"rental_uris":{"android":"levelo://app?vid=9304249e-ea54-4fea-b75b-04bc5885393e","ios":"levelo://app?vid=9304249e-ea54-4fea-b75b-04bc5885393e"},"vehicle_type_id":"4","last_reported":1741699186,"current_range_meters":6800,"station_id":"ce4bhqh2rcd13ifvqhmg","pricing_plan_id":"cebpf4jnsgd1na2vs0mg"},{"bike_id":"f191978d-c2b4-45b7-bc9f-f2ef7cf4e3ac","system_id":"levelo_inurba_marseille","lat":43.30176,"lon":5.36608,"is_reserved":false,"is_disabled":false,"rental_uris":{"android":"levelo://app?vid=f191978d-c2b4-45b7-bc9f-f2ef7cf4e3ac","ios":"levelo://app?vid=f191978d-c2b4-45b7-bc9f-f2ef7cf4e3ac"},"vehicle_type_id":"4","last_reported":1741699186,"current_range_meters":6800,"station_id":"ce4bgrh2rcd13ifvqc8g","pricing_plan_id":"cebpf4jnsgd1na2vs0mg"},{"bike_id":"f1459b28-1738-42f1-b12a-1bb0ad48378e","system_id":"levelo_inurba_marseille","lat":43.24657,"lon":5.38171,"is_reserved":false,"is_disabled":false,"rental_uris":{"android":"levelo://app?vid=f1459b28-1738-42f1-b12a-1bb0ad48378e","ios":"levelo://app?vid=f1459b28-1738-42f1-b12a-1bb0ad48378e"},"vehicle_type_id":"4","last_reported":1741699186,"current_range_meters":6800,"station_id":"ce4bhih2rcd13ifvqfr0","pricing_plan_id":"cebpf4jnsgd1na2vs0mg"},{"bike_id":"af7cad9e-fa8d-48b7-9985-2a246121bd34","system_id":"levelo_inurba_marseille","lat":43.28615,"lon":5.35108,"is_reserved":false,"is_disabled":false,"rental_uris":{"android":"levelo://app?vid=af7cad9e-fa8d-48b7-9985-2a246121bd34","ios":"levelo://app?vid=af7cad9e-fa8d-48b7-9985-2a246121bd34"},"vehicle_type_id":"4","last_reported":1741699186,"current_range_meters":6800,"station_id":"ce4bhch2rcd13ifvqeug","pricing_plan_id":"cebpf4jnsgd1na2vs0mg"},{"bike_id":"e1fb214b-50ac-4f88-a289-c135b5a642f9","system_id":"levelo_inurba_marseille","lat":43.31367,"lon":5.36706,"is_reserved":false,"is_disabled":false,"rental_uris":{"android":"levelo://app?vid=e1fb214b-50ac-4f88-a289-c135b5a642f9","ios":"levelo://app?vid=e1fb214b-50ac-4f88-a289-c135b5a642f9"},"vehicle_type_id":"4","last_reported":1741699186,"current_range_meters":6800,"station_id":"ce4bgr92rcd13ifvqc6g","pricing_plan_id":"cebpf4jnsgd1na2vs0mg"},{"bike_id":"4b19b6d9-fe46-44e6-8c71-98c5b5e0fc06","system_id":"levelo_inurba_marseille","lat":43.27682,"lon":5.38872,"is_reserved":false,"is_disabled":false,"rental_uris":{"android":"levelo://app?vid=4b19b6d9-fe46-44e6-8c71-98c5b5e0fc06","ios":"levelo://app?vid=4b19b6d9-fe46-44e6-8c71-98c5b5e0fc06"},"vehicle_type_id":"4","last_reported":1741699186,"current_range_meters":6800,"station_id":"ce4bhi12rcd13ifvqfo0","pricing_plan_id":"cebpf4jnsgd1na2vs0mg"},{"bike_id":"701895df-0534-46f2-b5ec-cbdac87723ad","system_id":"levelo_inurba_marseille","lat":43.30632,"lon":5.36622,"is_reserved":false,"is_disabled":false,"rental_uris":{"android":"levelo://app?vid=701895df-0534-46f2-b5ec-cbdac87723ad","ios":"levelo://app?vid=701895df-0534-46f2-b5ec-cbdac87723ad"},"vehicle_type_id":"4","last_reported":1741699186,"current_range_meters":6800,"station_id":"ce4bgs12rcd13ifvqcag","pricing_plan_id":"cebpf4jnsgd1na2vs0mg"},{"bike_id":"9d410888-5b43-43fc-9107-db7cb5fff0b1","system_id":"levelo_inurba_marseille","lat":43.31236,"lon":5.36884,"is_reserved":false,"is_disabled":false,"rental_uris":{"android":"levelo://app?vid=9d410888-5b43-43fc-9107-db7cb5fff0b1","ios":"levelo://app?vid=9d410888-5b43-43fc-9107-db7cb5fff0b1"},"vehicle_type_id":"4","last_reported":1741699186,"current_range_meters":6800,"station_id":"ce4bgl92rcd13ifvqbq0","pricing_plan_id":"cebpf4jnsgd1na2vs0mg"},{"bike_id":"1d84424d-fc51-49e5-9721-134f17aa62b6","system_id":"levelo_inurba_marseille","lat":43.32482,"lon":5.36576,"is_reserved":false,"is_disabled":false,"rental_uris":{"android":"levelo://app?vid=1d84424d-fc51-49e5-9721-134f17aa62b6","ios":"levelo://app?vid=1d84424d-fc51-49e5-9721-134f17aa62b6"},"vehicle_type_id":"4","last_reported":1741699186,"current_range_meters":6800,"station_id":"ce4bhs12rcd13ifvqhvg","pricing_plan_id":"cebpf4jnsgd1na2vs0mg"},{"bike_id":"12dc8f65-e740-4a44-9dc2-8c606e59b5b3","system_id":"levelo_inurba_marseille","lat":43.2937,"lon":5.37858,"is_reserved":false,"is_disabled":false,"rental_uris":{"android":"levelo://app?vid=12dc8f65-e740-4a44-9dc2-8c606e59b5b3","ios":"levelo://app?vid=12dc8f65-e740-4a44-9dc2-8c606e59b5b3"},"vehicle_type_id":"4","last_reported":1741699186,"current_range_meters":6400,"station_id":"ce4bgjh2rcd13ifvqbf0","pricing_plan_id":"cebpf4jnsgd1na2vs0mg"},{"bike_id":"42b8606a-5a39-4c18-ab8e-ae2998dcaace","system_id":"levelo_inurba_marseille","lat":43.29892,"lon":5.43668,"is_reserved":false,"is_disabled":false,"rental_uris":{"android":"levelo://app?vid=42b8606a-5a39-4c18-ab8e-ae2998dcaace","ios":"levelo://app?vid=42b8606a-5a39-4c18-ab8e-ae2998dcaace"},"vehicle_type_id":"4","last_reported":1741699186,"current_range_meters":7200,"station_id":"ce4bhpp2rcd13ifvqhfg","pricing_plan_id":"cebpf4jnsgd1na2vs0mg"},{"bike_id":"43f29997-d29c-4cec-b6d6-7b2c65fc38b7","system_id":"levelo_inurba_marseille","lat":43.26947,"lon":5.38634,"is_reserved":false,"is_disabled":false,"rental_uris":{"android":"levelo://app?vid=43f29997-d29c-4cec-b6d6-7b2c65fc38b7","ios":"levelo://app?vid=43f29997-d29c-4cec-b6d6-7b2c65fc38b7"},"vehicle_type_id":"4","last_reported":1741699186,"current_range_meters":7200,"station_id":"ce4bhh92rcd13ifvqfh0","pricing_plan_id":"cebpf4jnsgd1na2vs0mg"},{"bike_id":"54afd193-ee95-4f5e-975a-c9018d9dcb98","system_id":"levelo_inurba_marseille","lat":43.32376,"lon":5.36737,"is_reserved":false,"is_disabled":false,"rental_uris":{"android":"levelo://app?vid=54afd193-ee95-4f5e-975a-c9018d9dcb98","ios":"levelo://app?vid=54afd193-ee95-4f5e-975a-c9018d9dcb98"},"vehicle_type_id":"4","last_reported":1741699186,"current_range_meters":7200,"station_id":"ce4bhsh2rcd13ifvqi2g","pricing_plan_id":"cebpf4jnsgd1na2vs0mg"},{"bike_id":"4f4b5ef4-acef-44eb-8850-c3fc7f77be7b","system_id":"levelo_inurba_marseille","lat":43.27819,"lon":5.40715,"is_reserved":false,"is_disabled":false,"rental_uris":{"android":"levelo://app?vid=4f4b5ef4-acef-44eb-8850-c3fc7f77be7b","ios":"levelo://app?vid=4f4b5ef4-acef-44eb-8850-c3fc7f77be7b"},"vehicle_type_id":"4","last_reported":1741699186,"current_range_meters":6400,"station_id":"ce4bhnh2rcd13ifvqgtg","pricing_plan_id":"cebpf4jnsgd1na2vs0mg"},{"bike_id":"c86d68f5-55ee-4a68-ba82-758fa1373f1d","system_id":"levelo_inurba_marseille","lat":43.31728,"lon":5.43698,"is_reserved":false,"is_disabled":false,"rental_uris":{"android":"levelo://app?vid=c86d68f5-55ee-4a68-ba82-758fa1373f1d","ios":"levelo://app?vid=c86d68f5-55ee-4a68-ba82-758fa1373f1d"},"vehicle_type_id":"4","last_reported":1741699186,"current_range_meters":8000,"station_id":"ce4bhp92rcd13ifvqhcg","pricing_plan_id":"cebpf4jnsgd1na2vs0mg"},{"bike_id":"89111247-713b-4073-ab3b-a83ca1677c2f","system_id":"levelo_inurba_marseille","lat":43.2835,"lon":5.38102,"is_reserved":false,"is_disabled":false,"rental_uris":{"android":"levelo://app?vid=89111247-713b-4073-ab3b-a83ca1677c2f","ios":"levelo://app?vid=89111247-713b-4073-ab3b-a83ca1677c2f"},"vehicle_type_id":"4","last_reported":1741699186,"current_range_meters":8000,"station_id":"ce4bh412rcd13ifvqdr0","pricing_plan_id":"cebpf4jnsgd1na2vs0mg"},{"bike_id":"18337703-f499-45da-b8de-dec522f874e6","system_id":"levelo_inurba_marseille","lat":43.31255,"lon":5.40193,"is_reserved":false,"is_disabled":false,"rental_uris":{"android":"levelo://app?vid=18337703-f499-45da-b8de-dec522f874e6","ios":"levelo://app?vid=18337703-f499-45da-b8de-dec522f874e6"},"vehicle_type_id":"4","last_reported":1741699186,"current_range_meters":8000,"station_id":"ce4bh092rcd13ifvqd30","pricing_plan_id":"cebpf4jnsgd1na2vs0mg"},{"bike_id":"1ec50d2e-dcc7-4d1d-80fb-1e6430e2cbfc","system_id":"levelo_inurba_marseille","lat":43.30909,"lon":5.36846,"is_reserved":false,"is_disabled":false,"rental_uris":{"android":"levelo://app?vid=1ec50d2e-dcc7-4d1d-80fb-1e6430e2cbfc","ios":"levelo://app?vid=1ec50d2e-dcc7-4d1d-80fb-1e6430e2cbfc"},"vehicle_type_id":"4","last_reported":1741699186,"current_range_meters":8000,"station_id":"ce4bgn92rcd13ifvqbvg","pricing_plan_id":"cebpf4jnsgd1na2vs0mg"},{"bike_id":"4f0370e9-4ecb-48a3-a3dc-47efe18ea0f8","system_id":"levelo_inurba_marseille","lat":43.27502,"lon":5.42438,"is_reserved":false,"is_disabled":false,"rental_uris":{"android":"levelo://app?vid=4f0370e9-4ecb-48a3-a3dc-47efe18ea0f8","ios":"levelo://app?vid=4f0370e9-4ecb-48a3-a3dc-47efe18ea0f8"},"vehicle_type_id":"4","last_reported":1741699186,"current_range_meters":8000,"station_id":"ce4bhn92rcd13ifvqgrg","pricing_plan_id":"cebpf4jnsgd1na2vs0mg"},{"bike_id":"2690aa88-93e2-4a67-9df3-969097b4bb6f","system_id":"levelo_inurba_marseille","lat":43.30543,"lon":5.36538,"is_reserved":false,"is_disabled":false,"rental_uris":{"android":"levelo://app?vid=2690aa88-93e2-4a67-9df3-969097b4bb6f","ios":"levelo://app?vid=2690aa88-93e2-4a67-9df3-969097b4bb6f"},"vehicle_type_id":"4","last_reported":1741699186,"current_range_meters":8400,"station_id":"ce4bgs12rcd13ifvqcag","pricing_plan_id":"cebpf4jnsgd1na2vs0mg"},{"bike_id":"cbd6f8ee-d91a-4c06-a50f-8aefa40d8ceb","system_id":"levelo_inurba_marseille","lat":43.29891,"lon":5.43665,"is_reserved":false,"is_disabled":false,"rental_uris":{"android":"levelo://app?vid=cbd6f8ee-d91a-4c06-a50f-8aefa40d8ceb","ios":"levelo://app?vid=cbd6f8ee-d91a-4c06-a50f-8aefa40d8ceb"},"vehicle_type_id":"4","last_reported":1741699186,"current_range_meters":8400,"station_id":"ce4bhpp2rcd13ifvqhfg","pricing_plan_id":"cebpf4jnsgd1na2vs0mg"},{"bike_id":"27a81ae8-2db8-457f-b320-1ad76b2c0006","system_id":"levelo_inurba_marseille","lat":43.28409,"lon":5.37522,"is_reserved":false,"is_disabled":false,"rental_uris":{"android":"levelo://app?vid=27a81ae8-2db8-457f-b320-1ad76b2c0006","ios":"levelo://app?vid=27a81ae8-2db8-457f-b320-1ad76b2c0006"},"vehicle_type_id":"4","last_reported":1741699186,"current_range_meters":8400,"station_id":"ce4bh412rcd13ifvqds0","pricing_plan_id":"cebpf4jnsgd1na2vs0mg"},{"bike_id":"1f1826a3-f54a-4534-a067-4e1ce319471b","system_id":"levelo_inurba_marseille","lat":43.29735,"lon":5.37681,"is_reserved":false,"is_disabled":false,"rental_uris":{"android":"levelo://app?vid=1f1826a3-f54a-4534-a067-4e1ce319471b","ios":"levelo://app?vid=1f1826a3-f54a-4534-a067-4e1ce319471b"},"vehicle_type_id":"4","last_reported":1741699186,"current_range_meters":8000,"station_id":"ce4bgkh2rcd13ifvqbl0","pricing_plan_id":"cebpf4jnsgd1na2vs0mg"},{"bike_id":"09bbb690-af86-458c-bbad-70d10e2033ee","system_id":"levelo_inurba_marseille","lat":43.23056,"lon":5.35498,"is_reserved":false,"is_disabled":false,"rental_uris":{"android":"levelo://app?vid=09bbb690-af86-458c-bbad-70d10e2033ee","ios":"levelo://app?vid=09bbb690-af86-458c-bbad-70d10e2033ee"},"vehicle_type_id":"4","last_reported":1741699186,"current_range_meters":8400,"station_id":"cpo3342slgdg3j2ifvpg","pricing_plan_id":"cebpf4jnsgd1na2vs0mg"},{"bike_id":"9cd8ccf2-616c-44cd-8c19-24777655c8a9","system_id":"levelo_inurba_marseille","lat":43.28096,"lon":5.37844,"is_reserved":false,"is_disabled":false,"rental_uris":{"android":"levelo://app?vid=9cd8ccf2-616c-44cd-8c19-24777655c8a9","ios":"levelo://app?vid=9cd8ccf2-616c-44cd-8c19-24777655c8a9"},"vehicle_type_id":"4","last_reported":1741699186,"current_range_meters":8400,"station_id":"ce4bha12rcd13ifvqee0","pricing_plan_id":"cebpf4jnsgd1na2vs0mg"},{"bike_id":"e6bfedde-b8d3-483f-9c12-e45beb87d7c9","system_id":"levelo_inurba_marseille","lat":43.23152,"lon":5.43711,"is_reserved":false,"is_disabled":false,"rental_uris":{"android":"levelo://app?vid=e6bfedde-b8d3-483f-9c12-e45beb87d7c9","ios":"levelo://app?vid=e6bfedde-b8d3-483f-9c12-e45beb87d7c9"},"vehicle_type_id":"4","last_reported":1741699186,"current_range_meters":8400,"station_id":"ce4bhmp2rcd13ifvqgog","pricing_plan_id":"cebpf4jnsgd1na2vs0mg"},{"bike_id":"7967c65f-c8a6-43c6-9b08-5a1f5b9319e4","system_id":"levelo_inurba_marseille","lat":43.28615,"lon":5.35101,"is_reserved":false,"is_disabled":false,"rental_uris":{"android":"levelo://app?vid=7967c65f-c8a6-43c6-9b08-5a1f5b9319e4","ios":"levelo://app?vid=7967c65f-c8a6-43c6-9b08-5a1f5b9319e4"},"vehicle_type_id":"4","last_reported":1741699186,"current_range_meters":8400,"station_id":"ce4bhch2rcd13ifvqeug","pricing_plan_id":"cebpf4jnsgd1na2vs0mg"},{"bike_id":"acc1658b-7ea3-44a5-a65b-40f1faa0438d","system_id":"levelo_inurba_marseille","lat":43.32506,"lon":5.41421,"is_reserved":false,"is_disabled":false,"rental_uris":{"android":"levelo://app?vid=acc1658b-7ea3-44a5-a65b-40f1faa0438d","ios":"levelo://app?vid=acc1658b-7ea3-44a5-a65b-40f1faa0438d"},"vehicle_type_id":"4","last_reported":1741699186,"current_range_meters":8800,"station_id":"ce4bhq12rcd13ifvqhhg","pricing_plan_id":"cebpf4jnsgd1na2vs0mg"},{"bike_id":"53345374-62cd-4cde-8448-e19f44d3073b","system_id":"levelo_inurba_marseille","lat":43.28944,"lon":5.36628,"is_reserved":false,"is_disabled":false,"rental_uris":{"android":"levelo://app?vid=53345374-62cd-4cde-8448-e19f44d3073b","ios":"levelo://app?vid=53345374-62cd-4cde-8448-e19f44d3073b"},"vehicle_type_id":"4","last_reported":1741699186,"current_range_meters":8800,"station_id":"ce4bhap2rcd13ifvqek0","pricing_plan_id":"cebpf4jnsgd1na2vs0mg"},{"bike_id":"fe4583ff-cb5c-460c-8b1d-c30d7f52fc99","system_id":"levelo_inurba_marseille","lat":43.26955,"lon":5.38628,"is_reserved":false,"is_disabled":false,"rental_uris":{"android":"levelo://app?vid=fe4583ff-cb5c-460c-8b1d-c30d7f52fc99","ios":"levelo://app?vid=fe4583ff-cb5c-460c-8b1d-c30d7f52fc99"},"vehicle_type_id":"4","last_reported":1741699186,"current_range_meters":8800,"station_id":"ce4bhh92rcd13ifvqfh0","pricing_plan_id":"cebpf4jnsgd1na2vs0mg"},{"bike_id":"8dc2c2dc-de0f-4fd2-b739-faf253fff5e5","system_id":"levelo_inurba_marseille","lat":43.23173,"lon":5.43708,"is_reserved":false,"is_disabled":false,"rental_uris":{"android":"levelo://app?vid=8dc2c2dc-de0f-4fd2-b739-faf253fff5e5","ios":"levelo://app?vid=8dc2c2dc-de0f-4fd2-b739-faf253fff5e5"},"vehicle_type_id":"4","last_reported":1741699186,"current_range_meters":8800,"station_id":"ce4bhmp2rcd13ifvqgog","pricing_plan_id":"cebpf4jnsgd1na2vs0mg"},{"bike_id":"80771939-f406-42f7-81c5-33180fd8a338","system_id":"levelo_inurba_marseille","lat":43.23197,"lon":5.35556,"is_reserved":false,"is_disabled":false,"rental_uris":{"android":"levelo://app?vid=80771939-f406-42f7-81c5-33180fd8a338","ios":"levelo://app?vid=80771939-f406-42f7-81c5-33180fd8a338"},"vehicle_type_id":"4","last_reported":1741699186,"current_range_meters":8800,"station_id":"ce4bhu92rcd13ifvqi70","pricing_plan_id":"cebpf4jnsgd1na2vs0mg"},{"bike_id":"f8772176-aecc-4b5f-8d3d-ee9a047cd9f4","system_id":"levelo_inurba_marseille","lat":43.2989,"lon":5.39735,"is_reserved":false,"is_disabled":false,"rental_uris":{"android":"levelo://app?vid=f8772176-aecc-4b5f-8d3d-ee9a047cd9f4","ios":"levelo://app?vid=f8772176-aecc-4b5f-8d3d-ee9a047cd9f4"},"vehicle_type_id":"4","last_reported":1741699186,"current_range_meters":8800,"station_id":"ce4bh0h2rcd13ifvqd50","pricing_plan_id":"cebpf4jnsgd1na2vs0mg"},{"bike_id":"0c94086f-e387-4c95-bd6b-ff1031391f41","system_id":"levelo_inurba_marseille","lat":43.30576,"lon":5.36514,"is_reserved":false,"is_disabled":false,"rental_uris":{"android":"levelo://app?vid=0c94086f-e387-4c95-bd6b-ff1031391f41","ios":"levelo://app?vid=0c94086f-e387-4c95-bd6b-ff1031391f41"},"vehicle_type_id":"4","last_reported":1741699186,"current_range_meters":9200,"station_id":"ce4bgs12rcd13ifvqcag","pricing_plan_id":"cebpf4jnsgd1na2vs0mg"},{"bike_id":"01778146-758f-45fe-82c6-b332729010f2","system_id":"levelo_inurba_marseille","lat":43.28338,"lon":5.38101,"is_reserved":false,"is_disabled":false,"rental_uris":{"android":"levelo://app?vid=01778146-758f-45fe-82c6-b332729010f2","ios":"levelo://app?vid=01778146-758f-45fe-82c6-b332729010f2"},"vehicle_type_id":"4","last_reported":1741699186,"current_range_meters":9200,"station_id":"ce4bh412rcd13ifvqdr0","pricing_plan_id":"cebpf4jnsgd1na2vs0mg"},{"bike_id":"c30a5f55-cc1b-4590-b8ef-3b9f2512cc45","system_id":"levelo_inurba_marseille","lat":43.26071,"lon":5.39373,"is_reserved":false,"is_disabled":false,"rental_uris":{"android":"levelo://app?vid=c30a5f55-cc1b-4590-b8ef-3b9f2512cc45","ios":"levelo://app?vid=c30a5f55-cc1b-4590-b8ef-3b9f2512cc45"},"vehicle_type_id":"4","last_reported":1741699186,"current_range_meters":9200,"station_id":"ce4bhh92rcd13ifvqfj0","pricing_plan_id":"cebpf4jnsgd1na2vs0mg"},{"bike_id":"7149a3a6-c294-4380-b503-11be24516f33","system_id":"levelo_inurba_marseille","lat":43.30934,"lon":5.36802,"is_reserved":false,"is_disabled":false,"rental_uris":{"android":"levelo://app?vid=7149a3a6-c294-4380-b503-11be24516f33","ios":"levelo://app?vid=7149a3a6-c294-4380-b503-11be24516f33"},"vehicle_type_id":"4","last_reported":1741699186,"current_range_meters":9200,"station_id":"ce4bgn92rcd13ifvqbvg","pricing_plan_id":"cebpf4jnsgd1na2vs0mg"},{"bike_id":"c1bda9e2-cfd4-46ef-b129-54b2ad3b2e00","system_id":"levelo_inurba_marseille","lat":43.26974,"lon":5.38599,"is_reserved":false,"is_disabled":false,"rental_uris":{"android":"levelo://app?vid=c1bda9e2-cfd4-46ef-b129-54b2ad3b2e00","ios":"levelo://app?vid=c1bda9e2-cfd4-46ef-b129-54b2ad3b2e00"},"vehicle_type_id":"4","last_reported":1741699186,"current_range_meters":9200,"station_id":"ce4bhh92rcd13ifvqfh0","pricing_plan_id":"cebpf4jnsgd1na2vs0mg"},{"bike_id":"ffb286e2-62fa-45b6-a590-5e88edf52383","system_id":"levelo_inurba_marseille","lat":43.29303,"lon":5.37441,"is_reserved":false,"is_disabled":false,"rental_uris":{"android":"levelo://app?vid=ffb286e2-62fa-45b6-a590-5e88edf52383","ios":"levelo://app?vid=ffb286e2-62fa-45b6-a590-5e88edf52383"},"vehicle_type_id":"4","last_reported":1741699186,"current_range_meters":9600,"station_id":"","pricing_plan_id":"cebpf4jnsgd1na2vs0mg"},{"bike_id":"11cdaade-4836-4802-b7cf-22f2329127d2","system_id":"levelo_inurba_marseille","lat":43.30416,"lon":5.41282,"is_reserved":false,"is_disabled":false,"rental_uris":{"android":"levelo://app?vid=11cdaade-4836-4802-b7cf-22f2329127d2","ios":"levelo://app?vid=11cdaade-4836-4802-b7cf-22f2329127d2"},"vehicle_type_id":"4","last_reported":1741699186,"current_range_meters":9600,"station_id":"ce4bhop2rcd13ifvqh8g","pricing_plan_id":"cebpf4jnsgd1na2vs0mg"},{"bike_id":"301c8de4-8782-48bb-ba23-25ee745d055a","system_id":"levelo_inurba_marseille","lat":43.26924,"lon":5.38643,"is_reserved":false,"is_disabled":false,"rental_uris":{"android":"levelo://app?vid=301c8de4-8782-48bb-ba23-25ee745d055a","ios":"levelo://app?vid=301c8de4-8782-48bb-ba23-25ee745d055a"},"vehicle_type_id":"4","last_reported":1741699186,"current_range_meters":9600,"station_id":"ce4bhh92rcd13ifvqfh0","pricing_plan_id":"cebpf4jnsgd1na2vs0mg"},{"bike_id":"a6907114-91e5-4406-958d-4b895c3084d0","system_id":"levelo_inurba_marseille","lat":43.29893,"lon":5.43664,"is_reserved":false,"is_disabled":false,"rental_uris":{"android":"levelo://app?vid=a6907114-91e5-4406-958d-4b895c3084d0","ios":"levelo://app?vid=a6907114-91e5-4406-958d-4b895c3084d0"},"vehicle_type_id":"4","last_reported":1741699186,"current_range_meters":9600,"station_id":"ce4bhpp2rcd13ifvqhfg","pricing_plan_id":"cebpf4jnsgd1na2vs0mg"},{"bike_id":"b3100d6d-6f89-495c-a01a-be18c35695dd","system_id":"levelo_inurba_marseille","lat":43.30209,"lon":5.39461,"is_reserved":false,"is_disabled":false,"rental_uris":{"android":"levelo://app?vid=b3100d6d-6f89-495c-a01a-be18c35695dd","ios":"levelo://app?vid=b3100d6d-6f89-495c-a01a-be18c35695dd"},"vehicle_type_id":"4","last_reported":1741699186,"current_range_meters":9600,"station_id":"ce4bh0p2rcd13ifvqd70","pricing_plan_id":"cebpf4jnsgd1na2vs0mg"},{"bike_id":"79f51b89-608d-42fc-9457-860b0569ad19","system_id":"levelo_inurba_marseille","lat":43.28401,"lon":5.37513,"is_reserved":false,"is_disabled":true,"rental_uris":{"android":"levelo://app?vid=79f51b89-608d-42fc-9457-860b0569ad19","ios":"levelo://app?vid=79f51b89-608d-42fc-9457-860b0569ad19"},"vehicle_type_id":"4","last_reported":1741699186,"current_range_meters":9600,"station_id":"ce4bh412rcd13ifvqds0","pricing_plan_id":"cebpf4jnsgd1na2vs0mg"},{"bike_id":"bcf2c972-114e-411f-8261-6e54fe7e5705","system_id":"levelo_inurba_marseille","lat":43.28164,"lon":5.42639,"is_reserved":false,"is_disabled":false,"rental_uris":{"android":"levelo://app?vid=bcf2c972-114e-411f-8261-6e54fe7e5705","ios":"levelo://app?vid=bcf2c972-114e-411f-8261-6e54fe7e5705"},"vehicle_type_id":"4","last_reported":1741699186,"current_range_meters":9600,"station_id":"ce4bhnh2rcd13ifvqgug","pricing_plan_id":"cebpf4jnsgd1na2vs0mg"},{"bike_id":"0d9431e1-f868-427a-acb7-8ddd048ba317","system_id":"levelo_inurba_marseille","lat":43.29849,"lon":5.36271,"is_reserved":false,"is_disabled":false,"rental_uris":{"android":"levelo://app?vid=0d9431e1-f868-427a-acb7-8ddd048ba317","ios":"levelo://app?vid=0d9431e1-f868-427a-acb7-8ddd048ba317"},"vehicle_type_id":"4","last_reported":1741699186,"current_range_meters":9600,"station_id":"ce4bgpp2rcd13ifvqc3g","pricing_plan_id":"cebpf4jnsgd1na2vs0mg"},{"bike_id":"4d880f84-a76e-4d99-a57d-d8b063d0be53","system_id":"levelo_inurba_marseille","lat":43.29042,"lon":5.39968,"is_reserved":false,"is_disabled":false,"rental_uris":{"android":"levelo://app?vid=4d880f84-a76e-4d99-a57d-d8b063d0be53","ios":"levelo://app?vid=4d880f84-a76e-4d99-a57d-d8b063d0be53"},"vehicle_type_id":"4","last_reported":1741699186,"current_range_meters":9600,"station_id":"ce4bh392rcd13ifvqdm0","pricing_plan_id":"cebpf4jnsgd1na2vs0mg"},{"bike_id":"9ec52ed9-9c0e-4e61-a378-5327e3711632","system_id":"levelo_inurba_marseille","lat":43.24774,"lon":5.41255,"is_reserved":false,"is_disabled":false,"rental_uris":{"android":"levelo://app?vid=9ec52ed9-9c0e-4e61-a378-5327e3711632","ios":"levelo://app?vid=9ec52ed9-9c0e-4e61-a378-5327e3711632"},"vehicle_type_id":"4","last_reported":1741699186,"current_range_meters":9600,"station_id":"","pricing_plan_id":"cebpf4jnsgd1na2vs0mg"},{"bike_id":"b9680ac6-d12e-4a12-9dd8-1396db5e067b","system_id":"levelo_inurba_marseille","lat":43.23154,"lon":5.43707,"is_reserved":false,"is_disabled":false,"rental_uris":{"android":"levelo://app?vid=b9680ac6-d12e-4a12-9dd8-1396db5e067b","ios":"levelo://app?vid=b9680ac6-d12e-4a12-9dd8-1396db5e067b"},"vehicle_type_id":"4","last_reported":1741699186,"current_range_meters":10000,"station_id":"ce4bhmp2rcd13ifvqgog","pricing_plan_id":"cebpf4jnsgd1na2vs0mg"},{"bike_id":"1118824c-8a47-4408-ba38-d35bafacbe41","system_id":"levelo_inurba_marseille","lat":43.26214,"lon":5.40446,"is_reserved":false,"is_disabled":false,"rental_uris":{"android":"levelo://app?vid=1118824c-8a47-4408-ba38-d35bafacbe41","ios":"levelo://app?vid=1118824c-8a47-4408-ba38-d35bafacbe41"},"vehicle_type_id":"4","last_reported":1741699186,"current_range_meters":10000,"station_id":"ce4bhmh2rcd13ifvqgmg","pricing_plan_id":"cebpf4jnsgd1na2vs0mg"},{"bike_id":"bfe76b26-4cce-4a8d-8e2e-190cbae21f24","system_id":"levelo_inurba_marseille","lat":43.27201,"lon":5.40996,"is_reserved":false,"is_disabled":false,"rental_uris":{"android":"levelo://app?vid=bfe76b26-4cce-4a8d-8e2e-190cbae21f24","ios":"levelo://app?vid=bfe76b26-4cce-4a8d-8e2e-190cbae21f24"},"vehicle_type_id":"4","last_reported":1741699186,"current_range_meters":10000,"station_id":"ce4bhl12rcd13ifvqgf0","pricing_plan_id":"cebpf4jnsgd1na2vs0mg"},{"bike_id":"e1ce99ed-b155-467b-9243-b2d91a93828b","system_id":"levelo_inurba_marseille","lat":43.25938,"lon":5.40902,"is_reserved":false,"is_disabled":false,"rental_uris":{"android":"levelo://app?vid=e1ce99ed-b155-467b-9243-b2d91a93828b","ios":"levelo://app?vid=e1ce99ed-b155-467b-9243-b2d91a93828b"},"vehicle_type_id":"4","last_reported":1741699186,"current_range_meters":10000,"station_id":"ce4bhm92rcd13ifvqglg","pricing_plan_id":"cebpf4jnsgd1na2vs0mg"},{"bike_id":"e16b05d9-1853-455a-be62-19208ab4ead2","system_id":"levelo_inurba_marseille","lat":43.29797,"lon":5.38102,"is_reserved":false,"is_disabled":false,"rental_uris":{"android":"levelo://app?vid=e16b05d9-1853-455a-be62-19208ab4ead2","ios":"levelo://app?vid=e16b05d9-1853-455a-be62-19208ab4ead2"},"vehicle_type_id":"4","last_reported":1741699186,"current_range_meters":10000,"station_id":"ce4bgip2rcd13ifvqbb0","pricing_plan_id":"cebpf4jnsgd1na2vs0mg"},{"bike_id":"c835eee2-01bf-4ff1-a164-4c90e0a065d9","system_id":"levelo_inurba_marseille","lat":43.25015,"lon":5.38935,"is_reserved":false,"is_disabled":false,"rental_uris":{"android":"levelo://app?vid=c835eee2-01bf-4ff1-a164-4c90e0a065d9","ios":"levelo://app?vid=c835eee2-01bf-4ff1-a164-4c90e0a065d9"},"vehicle_type_id":"4","last_reported":1741699186,"current_range_meters":10000,"station_id":"ce4bhgp2rcd13ifvqfd0","pricing_plan_id":"cebpf4jnsgd1na2vs0mg"},{"bike_id":"f640465e-8c9e-425a-8e36-08d8d5201bf6","system_id":"levelo_inurba_marseille","lat":43.23198,"lon":5.3554,"is_reserved":false,"is_disabled":false,"rental_uris":{"android":"levelo://app?vid=f640465e-8c9e-425a-8e36-08d8d5201bf6","ios":"levelo://app?vid=f640465e-8c9e-425a-8e36-08d8d5201bf6"},"vehicle_type_id":"4","last_reported":1741699186,"current_range_meters":10000,"station_id":"ce4bhu92rcd13ifvqi70","pricing_plan_id":"cebpf4jnsgd1na2vs0mg"},{"bike_id":"58d1b5b3-d322-4418-97d0-3066ec3d9afc","system_id":"levelo_inurba_marseille","lat":43.23193,"lon":5.35554,"is_reserved":false,"is_disabled":false,"rental_uris":{"android":"levelo://app?vid=58d1b5b3-d322-4418-97d0-3066ec3d9afc","ios":"levelo://app?vid=58d1b5b3-d322-4418-97d0-3066ec3d9afc"},"vehicle_type_id":"4","last_reported":1741699186,"current_range_meters":10000,"station_id":"ce4bhu92rcd13ifvqi70","pricing_plan_id":"cebpf4jnsgd1na2vs0mg"},{"bike_id":"08ace7c2-d904-4174-9db1-3488abc407fd","system_id":"levelo_inurba_marseille","lat":43.30957,"lon":5.39048,"is_reserved":false,"is_disabled":true,"rental_uris":{"android":"levelo://app?vid=08ace7c2-d904-4174-9db1-3488abc407fd","ios":"levelo://app?vid=08ace7c2-d904-4174-9db1-3488abc407fd"},"vehicle_type_id":"4","last_reported":1741699186,"current_range_meters":10800,"station_id":"ce4bgup2rcd13ifvqco0","pricing_plan_id":"cebpf4jnsgd1na2vs0mg"},{"bike_id":"c66cc751-cdfa-4024-91c9-be58dad0ac0d","system_id":"levelo_inurba_marseille","lat":43.27487,"lon":5.42489,"is_reserved":false,"is_disabled":false,"rental_uris":{"android":"levelo://app?vid=c66cc751-cdfa-4024-91c9-be58dad0ac0d","ios":"levelo://app?vid=c66cc751-cdfa-4024-91c9-be58dad0ac0d"},"vehicle_type_id":"4","last_reported":1741699186,"current_range_meters":10800,"station_id":"ce4bhn92rcd13ifvqgrg","pricing_plan_id":"cebpf4jnsgd1na2vs0mg"},{"bike_id":"d1dab548-e6e0-4589-ba56-49c689da7b0c","system_id":"levelo_inurba_marseille","lat":43.28031,"lon":5.36956,"is_reserved":false,"is_disabled":false,"rental_uris":{"android":"levelo://app?vid=d1dab548-e6e0-4589-ba56-49c689da7b0c","ios":"levelo://app?vid=d1dab548-e6e0-4589-ba56-49c689da7b0c"},"vehicle_type_id":"4","last_reported":1741699186,"current_range_meters":10800,"station_id":"ce4bha12rcd13ifvqef0","pricing_plan_id":"cebpf4jnsgd1na2vs0mg"},{"bike_id":"edb3920a-fcef-42b0-96fd-39dcdda2a77b","system_id":"levelo_inurba_marseille","lat":43.27498,"lon":5.4245,"is_reserved":false,"is_disabled":false,"rental_uris":{"android":"levelo://app?vid=edb3920a-fcef-42b0-96fd-39dcdda2a77b","ios":"levelo://app?vid=edb3920a-fcef-42b0-96fd-39dcdda2a77b"},"vehicle_type_id":"4","last_reported":1741699186,"current_range_meters":10800,"station_id":"ce4bhn92rcd13ifvqgrg","pricing_plan_id":"cebpf4jnsgd1na2vs0mg"},{"bike_id":"a3bd0fe5-209e-4d37-8eac-9e1ea1a2eb8f","system_id":"levelo_inurba_marseille","lat":43.26681,"lon":5.38264,"is_reserved":false,"is_disabled":false,"rental_uris":{"android":"levelo://app?vid=a3bd0fe5-209e-4d37-8eac-9e1ea1a2eb8f","ios":"levelo://app?vid=a3bd0fe5-209e-4d37-8eac-9e1ea1a2eb8f"},"vehicle_type_id":"4","last_reported":1741699186,"current_range_meters":10800,"station_id":"ce4bhg92rcd13ifvqf90","pricing_plan_id":"cebpf4jnsgd1na2vs0mg"},{"bike_id":"51bead88-7696-4efb-9522-148994f0510e","system_id":"levelo_inurba_marseille","lat":43.32539,"lon":5.41448,"is_reserved":false,"is_disabled":false,"rental_uris":{"android":"levelo://app?vid=51bead88-7696-4efb-9522-148994f0510e","ios":"levelo://app?vid=51bead88-7696-4efb-9522-148994f0510e"},"vehicle_type_id":"4","last_reported":1741699186,"current_range_meters":11200,"station_id":"ce4bhq12rcd13ifvqhhg","pricing_plan_id":"cebpf4jnsgd1na2vs0mg"},{"bike_id":"fcee370b-f82c-48c0-b77d-1302e6eb0cbd","system_id":"levelo_inurba_marseille","lat":43.29004,"lon":5.35615,"is_reserved":false,"is_disabled":false,"rental_uris":{"android":"levelo://app?vid=fcee370b-f82c-48c0-b77d-1302e6eb0cbd","ios":"levelo://app?vid=fcee370b-f82c-48c0-b77d-1302e6eb0cbd"},"vehicle_type_id":"4","last_reported":1741699186,"current_range_meters":11200,"station_id":"ce4bhb92rcd13ifvqen0","pricing_plan_id":"cebpf4jnsgd1na2vs0mg"},{"bike_id":"69af4c50-9077-436a-8c73-2ffdc4c386f1","system_id":"levelo_inurba_marseille","lat":43.24175,"lon":5.39718,"is_reserved":false,"is_disabled":false,"rental_uris":{"android":"levelo://app?vid=69af4c50-9077-436a-8c73-2ffdc4c386f1","ios":"levelo://app?vid=69af4c50-9077-436a-8c73-2ffdc4c386f1"},"vehicle_type_id":"4","last_reported":1741699186,"current_range_meters":11200,"station_id":"ce4bhn12rcd13ifvqgpg","pricing_plan_id":"cebpf4jnsgd1na2vs0mg"},{"bike_id":"dde5be23-6c08-4fa2-bc65-daafc99079b4","system_id":"levelo_inurba_marseille","lat":43.29883,"lon":5.39735,"is_reserved":false,"is_disabled":false,"rental_uris":{"android":"levelo://app?vid=dde5be23-6c08-4fa2-bc65-daafc99079b4","ios":"levelo://app?vid=dde5be23-6c08-4fa2-bc65-daafc99079b4"},"vehicle_type_id":"4","last_reported":1741699186,"current_range_meters":9600,"station_id":"ce4bh0h2rcd13ifvqd50","pricing_plan_id":"cebpf4jnsgd1na2vs0mg"},{"bike_id":"9acab34d-76c9-4fd5-bed6-0265a89df8bb","system_id":"levelo_inurba_marseille","lat":43.25738,"lon":5.41088,"is_reserved":false,"is_disabled":false,"rental_uris":{"android":"levelo://app?vid=9acab34d-76c9-4fd5-bed6-0265a89df8bb","ios":"levelo://app?vid=9acab34d-76c9-4fd5-bed6-0265a89df8bb"},"vehicle_type_id":"4","last_reported":1741699186,"current_range_meters":11200,"station_id":"ce4bhkp2rcd13ifvqgd0","pricing_plan_id":"cebpf4jnsgd1na2vs0mg"},{"bike_id":"d82a53f8-3d13-4c6e-afa8-dd94888af1dc","system_id":"levelo_inurba_marseille","lat":43.28355,"lon":5.38111,"is_reserved":false,"is_disabled":false,"rental_uris":{"android":"levelo://app?vid=d82a53f8-3d13-4c6e-afa8-dd94888af1dc","ios":"levelo://app?vid=d82a53f8-3d13-4c6e-afa8-dd94888af1dc"},"vehicle_type_id":"4","last_reported":1741699186,"current_range_meters":11200,"station_id":"ce4bh412rcd13ifvqdr0","pricing_plan_id":"cebpf4jnsgd1na2vs0mg"},{"bike_id":"602d068b-17ec-4c43-a941-51f4b635d1bf","system_id":"levelo_inurba_marseille","lat":43.25929,"lon":5.40886,"is_reserved":false,"is_disabled":false,"rental_uris":{"android":"levelo://app?vid=602d068b-17ec-4c43-a941-51f4b635d1bf","ios":"levelo://app?vid=602d068b-17ec-4c43-a941-51f4b635d1bf"},"vehicle_type_id":"4","last_reported":1741699186,"current_range_meters":11200,"station_id":"ce4bhm92rcd13ifvqglg","pricing_plan_id":"cebpf4jnsgd1na2vs0mg"},{"bike_id":"132d16ce-ae64-4e50-b6b7-8e1ec220cc55","system_id":"levelo_inurba_marseille","lat":43.30143,"lon":5.39858,"is_reserved":false,"is_disabled":false,"rental_uris":{"android":"levelo://app?vid=132d16ce-ae64-4e50-b6b7-8e1ec220cc55","ios":"levelo://app?vid=132d16ce-ae64-4e50-b6b7-8e1ec220cc55"},"vehicle_type_id":"4","last_reported":1741699186,"current_range_meters":11600,"station_id":"ce4bh0h2rcd13ifvqd40","pricing_plan_id":"cebpf4jnsgd1na2vs0mg"},{"bike_id":"415e7a31-245d-4ead-9f33-dad092a04302","system_id":"levelo_inurba_marseille","lat":43.23069,"lon":5.35469,"is_reserved":false,"is_disabled":false,"rental_uris":{"android":"levelo://app?vid=415e7a31-245d-4ead-9f33-dad092a04302","ios":"levelo://app?vid=415e7a31-245d-4ead-9f33-dad092a04302"},"vehicle_type_id":"4","last_reported":1741699186,"current_range_meters":11600,"station_id":"cpo3342slgdg3j2ifvpg","pricing_plan_id":"cebpf4jnsgd1na2vs0mg"},{"bike_id":"b146f5c4-1e39-47d2-91e5-727e395dcaf0","system_id":"levelo_inurba_marseille","lat":43.25934,"lon":5.40905,"is_reserved":false,"is_disabled":false,"rental_uris":{"android":"levelo://app?vid=b146f5c4-1e39-47d2-91e5-727e395dcaf0","ios":"levelo://app?vid=b146f5c4-1e39-47d2-91e5-727e395dcaf0"},"vehicle_type_id":"4","last_reported":1741699186,"current_range_meters":11600,"station_id":"ce4bhm92rcd13ifvqglg","pricing_plan_id":"cebpf4jnsgd1na2vs0mg"},{"bike_id":"fb629ba8-b376-4f9a-a280-fa2aa29efcd1","system_id":"levelo_inurba_marseille","lat":43.29815,"lon":5.36327,"is_reserved":false,"is_disabled":false,"rental_uris":{"android":"levelo://app?vid=fb629ba8-b376-4f9a-a280-fa2aa29efcd1","ios":"levelo://app?vid=fb629ba8-b376-4f9a-a280-fa2aa29efcd1"},"vehicle_type_id":"4","last_reported":1741699186,"current_range_meters":11600,"station_id":"","pricing_plan_id":"cebpf4jnsgd1na2vs0mg"},{"bike_id":"3ddad719-1d99-4248-81e8-11ff52d4c2ad","system_id":"levelo_inurba_marseille","lat":43.24074,"lon":5.37763,"is_reserved":false,"is_disabled":false,"rental_uris":{"android":"levelo://app?vid=3ddad719-1d99-4248-81e8-11ff52d4c2ad","ios":"levelo://app?vid=3ddad719-1d99-4248-81e8-11ff52d4c2ad"},"vehicle_type_id":"4","last_reported":1741699186,"current_range_meters":11600,"station_id":"ce4bhnp2rcd13ifvqgvg","pricing_plan_id":"cebpf4jnsgd1na2vs0mg"},{"bike_id":"228482f1-6808-4ced-8b21-3f22c088c97f","system_id":"levelo_inurba_marseille","lat":43.28204,"lon":5.40266,"is_reserved":false,"is_disabled":false,"rental_uris":{"android":"levelo://app?vid=228482f1-6808-4ced-8b21-3f22c088c97f","ios":"levelo://app?vid=228482f1-6808-4ced-8b21-3f22c088c97f"},"vehicle_type_id":"4","last_reported":1741699186,"current_range_meters":11600,"station_id":"","pricing_plan_id":"cebpf4jnsgd1na2vs0mg"},{"bike_id":"024764eb-102c-4959-a4a7-e8a97fc1ec35","system_id":"levelo_inurba_marseille","lat":43.28938,"lon":5.36638,"is_reserved":false,"is_disabled":false,"rental_uris":{"android":"levelo://app?vid=024764eb-102c-4959-a4a7-e8a97fc1ec35","ios":"levelo://app?vid=024764eb-102c-4959-a4a7-e8a97fc1ec35"},"vehicle_type_id":"4","last_reported":1741699186,"current_range_meters":12000,"station_id":"ce4bhap2rcd13ifvqek0","pricing_plan_id":"cebpf4jnsgd1na2vs0mg"},{"bike_id":"03ce7837-8f57-49a2-9fb4-2f4ab1598744","system_id":"levelo_inurba_marseille","lat":43.29628,"lon":5.40645,"is_reserved":false,"is_disabled":false,"rental_uris":{"android":"levelo://app?vid=03ce7837-8f57-49a2-9fb4-2f4ab1598744","ios":"levelo://app?vid=03ce7837-8f57-49a2-9fb4-2f4ab1598744"},"vehicle_type_id":"4","last_reported":1741699186,"current_range_meters":12000,"station_id":"ce4bh0h2rcd13ifvqd60","pricing_plan_id":"cebpf4jnsgd1na2vs0mg"},{"bike_id":"4ac2caed-67c0-4a4f-ab4c-86dfa96f88e5","system_id":"levelo_inurba_marseille","lat":43.23157,"lon":5.43715,"is_reserved":false,"is_disabled":false,"rental_uris":{"android":"levelo://app?vid=4ac2caed-67c0-4a4f-ab4c-86dfa96f88e5","ios":"levelo://app?vid=4ac2caed-67c0-4a4f-ab4c-86dfa96f88e5"},"vehicle_type_id":"4","last_reported":1741699186,"current_range_meters":12000,"station_id":"ce4bhmp2rcd13ifvqgog","pricing_plan_id":"cebpf4jnsgd1na2vs0mg"},{"bike_id":"6443b02f-22ef-45d3-b61b-24a41c747b79","system_id":"levelo_inurba_marseille","lat":43.289347,"lon":5.366213,"is_reserved":false,"is_disabled":false,"rental_uris":{"android":"levelo://app?vid=6443b02f-22ef-45d3-b61b-24a41c747b79","ios":"levelo://app?vid=6443b02f-22ef-45d3-b61b-24a41c747b79"},"vehicle_type_id":"4","last_reported":1741699186,"current_range_meters":12000,"station_id":"ce4bhap2rcd13ifvqek0","pricing_plan_id":"cebpf4jnsgd1na2vs0mg"},{"bike_id":"bf431789-d89e-470f-bc03-eaa828c0427b","system_id":"levelo_inurba_marseille","lat":43.32539,"lon":5.41435,"is_reserved":false,"is_disabled":false,"rental_uris":{"android":"levelo://app?vid=bf431789-d89e-470f-bc03-eaa828c0427b","ios":"levelo://app?vid=bf431789-d89e-470f-bc03-eaa828c0427b"},"vehicle_type_id":"4","last_reported":1741699186,"current_range_meters":12400,"station_id":"ce4bhq12rcd13ifvqhhg","pricing_plan_id":"cebpf4jnsgd1na2vs0mg"},{"bike_id":"4d4be64c-67fd-4ea6-8c42-35b446fbf455","system_id":"levelo_inurba_marseille","lat":43.28853,"lon":5.39316,"is_reserved":false,"is_disabled":false,"rental_uris":{"android":"levelo://app?vid=4d4be64c-67fd-4ea6-8c42-35b446fbf455","ios":"levelo://app?vid=4d4be64c-67fd-4ea6-8c42-35b446fbf455"},"vehicle_type_id":"4","last_reported":1741699186,"current_range_meters":12000,"station_id":"ce4bh2p2rcd13ifvqdi0","pricing_plan_id":"cebpf4jnsgd1na2vs0mg"},{"bike_id":"716492ae-81b6-4ed5-8177-f4759b370b67","system_id":"levelo_inurba_marseille","lat":43.28149,"lon":5.42634,"is_reserved":false,"is_disabled":false,"rental_uris":{"android":"levelo://app?vid=716492ae-81b6-4ed5-8177-f4759b370b67","ios":"levelo://app?vid=716492ae-81b6-4ed5-8177-f4759b370b67"},"vehicle_type_id":"4","last_reported":1741699186,"current_range_meters":12000,"station_id":"ce4bhnh2rcd13ifvqgug","pricing_plan_id":"cebpf4jnsgd1na2vs0mg"},{"bike_id":"2931d81f-abb3-45b8-9224-dc3fce2fae31","system_id":"levelo_inurba_marseille","lat":43.32364,"lon":5.36763,"is_reserved":false,"is_disabled":false,"rental_uris":{"android":"levelo://app?vid=2931d81f-abb3-45b8-9224-dc3fce2fae31","ios":"levelo://app?vid=2931d81f-abb3-45b8-9224-dc3fce2fae31"},"vehicle_type_id":"4","last_reported":1741699186,"current_range_meters":12400,"station_id":"ce4bhsh2rcd13ifvqi2g","pricing_plan_id":"cebpf4jnsgd1na2vs0mg"},{"bike_id":"06040d95-b19b-4cb2-aac1-7e1fb6297f52","system_id":"levelo_inurba_marseille","lat":43.30151,"lon":5.39882,"is_reserved":false,"is_disabled":false,"rental_uris":{"android":"levelo://app?vid=06040d95-b19b-4cb2-aac1-7e1fb6297f52","ios":"levelo://app?vid=06040d95-b19b-4cb2-aac1-7e1fb6297f52"},"vehicle_type_id":"4","last_reported":1741699186,"current_range_meters":12000,"station_id":"ce4bh0h2rcd13ifvqd40","pricing_plan_id":"cebpf4jnsgd1na2vs0mg"},{"bike_id":"78cb8786-1e67-4d63-90df-4d7f0d56dec1","system_id":"levelo_inurba_marseille","lat":43.29886,"lon":5.39743,"is_reserved":false,"is_disabled":false,"rental_uris":{"android":"levelo://app?vid=78cb8786-1e67-4d63-90df-4d7f0d56dec1","ios":"levelo://app?vid=78cb8786-1e67-4d63-90df-4d7f0d56dec1"},"vehicle_type_id":"4","last_reported":1741699186,"current_range_meters":12400,"station_id":"ce4bh0h2rcd13ifvqd50","pricing_plan_id":"cebpf4jnsgd1na2vs0mg"},{"bike_id":"20c1e358-1c7f-4912-9588-5a74dcb84090","system_id":"levelo_inurba_marseille","lat":43.25007,"lon":5.38937,"is_reserved":false,"is_disabled":false,"rental_uris":{"android":"levelo://app?vid=20c1e358-1c7f-4912-9588-5a74dcb84090","ios":"levelo://app?vid=20c1e358-1c7f-4912-9588-5a74dcb84090"},"vehicle_type_id":"4","last_reported":1741699186,"current_range_meters":12400,"station_id":"ce4bhgp2rcd13ifvqfd0","pricing_plan_id":"cebpf4jnsgd1na2vs0mg"},{"bike_id":"a1a61f35-c835-4ebd-8124-f5eb60ba2e4c","system_id":"levelo_inurba_marseille","lat":43.27205,"lon":5.39199,"is_reserved":false,"is_disabled":false,"rental_uris":{"android":"levelo://app?vid=a1a61f35-c835-4ebd-8124-f5eb60ba2e4c","ios":"levelo://app?vid=a1a61f35-c835-4ebd-8124-f5eb60ba2e4c"},"vehicle_type_id":"4","last_reported":1741699186,"current_range_meters":12400,"station_id":"ce4bhhp2rcd13ifvqfm0","pricing_plan_id":"cebpf4jnsgd1na2vs0mg"},{"bike_id":"1e27a5ac-4301-4fae-a15d-974556243300","system_id":"levelo_inurba_marseille","lat":43.240952,"lon":5.377026,"is_reserved":false,"is_disabled":false,"rental_uris":{"android":"levelo://app?vid=1e27a5ac-4301-4fae-a15d-974556243300","ios":"levelo://app?vid=1e27a5ac-4301-4fae-a15d-974556243300"},"vehicle_type_id":"4","last_reported":1741699186,"current_range_meters":12400,"station_id":"ce4bhn12rcd13ifvqgqg","pricing_plan_id":"cebpf4jnsgd1na2vs0mg"},{"bike_id":"b6eceb47-4161-4dcc-af15-d009400f0b07","system_id":"levelo_inurba_marseille","lat":43.3094,"lon":5.40115,"is_reserved":false,"is_disabled":false,"rental_uris":{"android":"levelo://app?vid=b6eceb47-4161-4dcc-af15-d009400f0b07","ios":"levelo://app?vid=b6eceb47-4161-4dcc-af15-d009400f0b07"},"vehicle_type_id":"4","last_reported":1741699186,"current_range_meters":12400,"station_id":"ce4bgvp2rcd13ifvqct0","pricing_plan_id":"cebpf4jnsgd1na2vs0mg"},{"bike_id":"7efac877-4bac-4d33-81c2-5e8339d415d6","system_id":"levelo_inurba_marseille","lat":43.31376,"lon":5.36742,"is_reserved":false,"is_disabled":false,"rental_uris":{"android":"levelo://app?vid=7efac877-4bac-4d33-81c2-5e8339d415d6","ios":"levelo://app?vid=7efac877-4bac-4d33-81c2-5e8339d415d6"},"vehicle_type_id":"4","last_reported":1741699186,"current_range_meters":12800,"station_id":"ce4bgr92rcd13ifvqc6g","pricing_plan_id":"cebpf4jnsgd1na2vs0mg"},{"bike_id":"3f537e6b-56cb-45f0-8608-f841c10cff33","system_id":"levelo_inurba_marseille","lat":43.30182,"lon":5.36608,"is_reserved":false,"is_disabled":false,"rental_uris":{"android":"levelo://app?vid=3f537e6b-56cb-45f0-8608-f841c10cff33","ios":"levelo://app?vid=3f537e6b-56cb-45f0-8608-f841c10cff33"},"vehicle_type_id":"4","last_reported":1741699186,"current_range_meters":12800,"station_id":"ce4bgrh2rcd13ifvqc8g","pricing_plan_id":"cebpf4jnsgd1na2vs0mg"},{"bike_id":"d16abc31-b01a-4bf0-b2b2-a4307b92f0ed","system_id":"levelo_inurba_marseille","lat":43.25585,"lon":5.3823,"is_reserved":false,"is_disabled":false,"rental_uris":{"android":"levelo://app?vid=d16abc31-b01a-4bf0-b2b2-a4307b92f0ed","ios":"levelo://app?vid=d16abc31-b01a-4bf0-b2b2-a4307b92f0ed"},"vehicle_type_id":"4","last_reported":1741699186,"current_range_meters":12800,"station_id":"ce4bhih2rcd13ifvqfs0","pricing_plan_id":"cebpf4jnsgd1na2vs0mg"},{"bike_id":"ebdc0adc-86d4-4882-8983-2d6c86413625","system_id":"levelo_inurba_marseille","lat":43.23172,"lon":5.43705,"is_reserved":false,"is_disabled":false,"rental_uris":{"android":"levelo://app?vid=ebdc0adc-86d4-4882-8983-2d6c86413625","ios":"levelo://app?vid=ebdc0adc-86d4-4882-8983-2d6c86413625"},"vehicle_type_id":"4","last_reported":1741699186,"current_range_meters":12800,"station_id":"ce4bhmp2rcd13ifvqgog","pricing_plan_id":"cebpf4jnsgd1na2vs0mg"},{"bike_id":"0e8b0eb9-28cc-40e9-a96d-bf971f563ec3","system_id":"levelo_inurba_marseille","lat":43.29798,"lon":5.38094,"is_reserved":false,"is_disabled":false,"rental_uris":{"android":"levelo://app?vid=0e8b0eb9-28cc-40e9-a96d-bf971f563ec3","ios":"levelo://app?vid=0e8b0eb9-28cc-40e9-a96d-bf971f563ec3"},"vehicle_type_id":"4","last_reported":1741699186,"current_range_meters":12800,"station_id":"ce4bgip2rcd13ifvqbb0","pricing_plan_id":"cebpf4jnsgd1na2vs0mg"},{"bike_id":"f3bb8725-4b68-4c77-94ca-e14587dc5a22","system_id":"levelo_inurba_marseille","lat":43.24167,"lon":5.39733,"is_reserved":false,"is_disabled":false,"rental_uris":{"android":"levelo://app?vid=f3bb8725-4b68-4c77-94ca-e14587dc5a22","ios":"levelo://app?vid=f3bb8725-4b68-4c77-94ca-e14587dc5a22"},"vehicle_type_id":"4","last_reported":1741699186,"current_range_meters":12800,"station_id":"ce4bhn12rcd13ifvqgpg","pricing_plan_id":"cebpf4jnsgd1na2vs0mg"},{"bike_id":"2050d8a1-7d72-4ab8-b58b-014905a5ac16","system_id":"levelo_inurba_marseille","lat":43.30953,"lon":5.3903,"is_reserved":false,"is_disabled":false,"rental_uris":{"android":"levelo://app?vid=2050d8a1-7d72-4ab8-b58b-014905a5ac16","ios":"levelo://app?vid=2050d8a1-7d72-4ab8-b58b-014905a5ac16"},"vehicle_type_id":"4","last_reported":1741699186,"current_range_meters":11200,"station_id":"ce4bgup2rcd13ifvqco0","pricing_plan_id":"cebpf4jnsgd1na2vs0mg"},{"bike_id":"21a98077-97a5-4182-b1fc-3570e927fac1","system_id":"levelo_inurba_marseille","lat":43.25821,"lon":5.39427,"is_reserved":false,"is_disabled":false,"rental_uris":{"android":"levelo://app?vid=21a98077-97a5-4182-b1fc-3570e927fac1","ios":"levelo://app?vid=21a98077-97a5-4182-b1fc-3570e927fac1"},"vehicle_type_id":"4","last_reported":1741699186,"current_range_meters":12800,"station_id":"ce4bhip2rcd13ifvqft0","pricing_plan_id":"cebpf4jnsgd1na2vs0mg"},{"bike_id":"1f4164dd-d377-44a5-b6ae-b5c9910d9cf7","system_id":"levelo_inurba_marseille","lat":43.30539,"lon":5.36691,"is_reserved":false,"is_disabled":false,"rental_uris":{"android":"levelo://app?vid=1f4164dd-d377-44a5-b6ae-b5c9910d9cf7","ios":"levelo://app?vid=1f4164dd-d377-44a5-b6ae-b5c9910d9cf7"},"vehicle_type_id":"4","last_reported":1741699186,"current_range_meters":12800,"station_id":"ce4bgrp2rcd13ifvqc9g","pricing_plan_id":"cebpf4jnsgd1na2vs0mg"},{"bike_id":"68b5ae6e-7af4-47b4-90b3-a0a875e8756e","system_id":"levelo_inurba_marseille","lat":43.25287,"lon":5.40239,"is_reserved":false,"is_disabled":false,"rental_uris":{"android":"levelo://app?vid=68b5ae6e-7af4-47b4-90b3-a0a875e8756e","ios":"levelo://app?vid=68b5ae6e-7af4-47b4-90b3-a0a875e8756e"},"vehicle_type_id":"4","last_reported":1741699186,"current_range_meters":13600,"station_id":"ce4bhlp2rcd13ifvqgjg","pricing_plan_id":"cebpf4jnsgd1na2vs0mg"},{"bike_id":"9776d519-3376-4f51-aaa3-2da63911d7cc","system_id":"levelo_inurba_marseille","lat":43.25092,"lon":5.39519,"is_reserved":false,"is_disabled":false,"rental_uris":{"android":"levelo://app?vid=9776d519-3376-4f51-aaa3-2da63911d7cc","ios":"levelo://app?vid=9776d519-3376-4f51-aaa3-2da63911d7cc"},"vehicle_type_id":"4","last_reported":1741699186,"current_range_meters":13600,"station_id":"ce4bhm12rcd13ifvqgkg","pricing_plan_id":"cebpf4jnsgd1na2vs0mg"},{"bike_id":"d725f4c1-5e86-40aa-af79-5130b6b81496","system_id":"levelo_inurba_marseille","lat":43.30596,"lon":5.3723,"is_reserved":false,"is_disabled":false,"rental_uris":{"android":"levelo://app?vid=d725f4c1-5e86-40aa-af79-5130b6b81496","ios":"levelo://app?vid=d725f4c1-5e86-40aa-af79-5130b6b81496"},"vehicle_type_id":"4","last_reported":1741699186,"current_range_meters":13600,"station_id":"ce4bgqh2rcd13ifvqc4g","pricing_plan_id":"cebpf4jnsgd1na2vs0mg"},{"bike_id":"2d53c94b-429b-445f-aefa-95d1715fcb4d","system_id":"levelo_inurba_marseille","lat":43.337444,"lon":5.374475,"is_reserved":false,"is_disabled":true,"rental_uris":{"android":"levelo://app?vid=2d53c94b-429b-445f-aefa-95d1715fcb4d","ios":"levelo://app?vid=2d53c94b-429b-445f-aefa-95d1715fcb4d"},"vehicle_type_id":"4","last_reported":1741699186,"current_range_meters":13600,"station_id":"","pricing_plan_id":"cebpf4jnsgd1na2vs0mg"},{"bike_id":"a3e991cd-2936-493d-9fcb-48f77e04aeb1","system_id":"levelo_inurba_marseille","lat":43.30603,"lon":5.36592,"is_reserved":false,"is_disabled":false,"rental_uris":{"android":"levelo://app?vid=a3e991cd-2936-493d-9fcb-48f77e04aeb1","ios":"levelo://app?vid=a3e991cd-2936-493d-9fcb-48f77e04aeb1"},"vehicle_type_id":"4","last_reported":1741699186,"current_range_meters":14000,"station_id":"ce4bgs12rcd13ifvqcag","pricing_plan_id":"cebpf4jnsgd1na2vs0mg"},{"bike_id":"87d8d514-93e1-44ca-9048-c115564ac71b","system_id":"levelo_inurba_marseille","lat":43.30134,"lon":5.37422,"is_reserved":false,"is_disabled":false,"rental_uris":{"android":"levelo://app?vid=87d8d514-93e1-44ca-9048-c115564ac71b","ios":"levelo://app?vid=87d8d514-93e1-44ca-9048-c115564ac71b"},"vehicle_type_id":"4","last_reported":1741699186,"current_range_meters":14000,"station_id":"ce4bgs92rcd13ifvqcc0","pricing_plan_id":"cebpf4jnsgd1na2vs0mg"},{"bike_id":"f939654e-1bc2-4130-9859-f7b0b16b242b","system_id":"levelo_inurba_marseille","lat":43.26958,"lon":5.38621,"is_reserved":false,"is_disabled":false,"rental_uris":{"android":"levelo://app?vid=f939654e-1bc2-4130-9859-f7b0b16b242b","ios":"levelo://app?vid=f939654e-1bc2-4130-9859-f7b0b16b242b"},"vehicle_type_id":"4","last_reported":1741699186,"current_range_meters":14000,"station_id":"ce4bhh92rcd13ifvqfh0","pricing_plan_id":"cebpf4jnsgd1na2vs0mg"},{"bike_id":"c1fdf776-5ff6-4f38-96ad-d3bee4a7cebb","system_id":"levelo_inurba_marseille","lat":43.23132,"lon":5.43751,"is_reserved":false,"is_disabled":false,"rental_uris":{"android":"levelo://app?vid=c1fdf776-5ff6-4f38-96ad-d3bee4a7cebb","ios":"levelo://app?vid=c1fdf776-5ff6-4f38-96ad-d3bee4a7cebb"},"vehicle_type_id":"4","last_reported":1741699186,"current_range_meters":14000,"station_id":"ce4bhmp2rcd13ifvqgog","pricing_plan_id":"cebpf4jnsgd1na2vs0mg"},{"bike_id":"2a042781-c7f2-4e7d-8584-fc7b539687b4","system_id":"levelo_inurba_marseille","lat":43.30127,"lon":5.37412,"is_reserved":false,"is_disabled":false,"rental_uris":{"android":"levelo://app?vid=2a042781-c7f2-4e7d-8584-fc7b539687b4","ios":"levelo://app?vid=2a042781-c7f2-4e7d-8584-fc7b539687b4"},"vehicle_type_id":"4","last_reported":1741699186,"current_range_meters":14000,"station_id":"ce4bgs92rcd13ifvqcc0","pricing_plan_id":"cebpf4jnsgd1na2vs0mg"},{"bike_id":"bd345312-47b7-4103-95ea-1c00ff27dabb","system_id":"levelo_inurba_marseille","lat":43.29887,"lon":5.39728,"is_reserved":false,"is_disabled":false,"rental_uris":{"android":"levelo://app?vid=bd345312-47b7-4103-95ea-1c00ff27dabb","ios":"levelo://app?vid=bd345312-47b7-4103-95ea-1c00ff27dabb"},"vehicle_type_id":"4","last_reported":1741699186,"current_range_meters":14000,"station_id":"ce4bh0h2rcd13ifvqd50","pricing_plan_id":"cebpf4jnsgd1na2vs0mg"},{"bike_id":"2188d93d-7132-432a-b1d4-0fdfadcd1af3","system_id":"levelo_inurba_marseille","lat":43.26688,"lon":5.38271,"is_reserved":false,"is_disabled":false,"rental_uris":{"android":"levelo://app?vid=2188d93d-7132-432a-b1d4-0fdfadcd1af3","ios":"levelo://app?vid=2188d93d-7132-432a-b1d4-0fdfadcd1af3"},"vehicle_type_id":"4","last_reported":1741699186,"current_range_meters":14400,"station_id":"ce4bhg92rcd13ifvqf90","pricing_plan_id":"cebpf4jnsgd1na2vs0mg"},{"bike_id":"262ed5cd-dcd3-4df4-8953-e5f7601271d9","system_id":"levelo_inurba_marseille","lat":43.26963,"lon":5.38621,"is_reserved":false,"is_disabled":false,"rental_uris":{"android":"levelo://app?vid=262ed5cd-dcd3-4df4-8953-e5f7601271d9","ios":"levelo://app?vid=262ed5cd-dcd3-4df4-8953-e5f7601271d9"},"vehicle_type_id":"4","last_reported":1741699186,"current_range_meters":14400,"station_id":"ce4bhh92rcd13ifvqfh0","pricing_plan_id":"cebpf4jnsgd1na2vs0mg"},{"bike_id":"43e68270-89e8-45fa-961c-78d4430bbd60","system_id":"levelo_inurba_marseille","lat":43.29886,"lon":5.3973,"is_reserved":false,"is_disabled":false,"rental_uris":{"android":"levelo://app?vid=43e68270-89e8-45fa-961c-78d4430bbd60","ios":"levelo://app?vid=43e68270-89e8-45fa-961c-78d4430bbd60"},"vehicle_type_id":"4","last_reported":1741699186,"current_range_meters":14000,"station_id":"ce4bh0h2rcd13ifvqd50","pricing_plan_id":"cebpf4jnsgd1na2vs0mg"},{"bike_id":"5c2aa1ed-67ce-4ac7-a122-1eabfecc0b35","system_id":"levelo_inurba_marseille","lat":43.32111,"lon":5.36808,"is_reserved":false,"is_disabled":false,"rental_uris":{"android":"levelo://app?vid=5c2aa1ed-67ce-4ac7-a122-1eabfecc0b35","ios":"levelo://app?vid=5c2aa1ed-67ce-4ac7-a122-1eabfecc0b35"},"vehicle_type_id":"4","last_reported":1741699186,"current_range_meters":14400,"station_id":"ce4bhrh2rcd13ifvqhug","pricing_plan_id":"cebpf4jnsgd1na2vs0mg"},{"bike_id":"37e6d503-9d47-4d9d-a3fc-9e83bcf4b4a1","system_id":"levelo_inurba_marseille","lat":43.29352,"lon":5.37462,"is_reserved":false,"is_disabled":false,"rental_uris":{"android":"levelo://app?vid=37e6d503-9d47-4d9d-a3fc-9e83bcf4b4a1","ios":"levelo://app?vid=37e6d503-9d47-4d9d-a3fc-9e83bcf4b4a1"},"vehicle_type_id":"4","last_reported":1741699186,"current_range_meters":14400,"station_id":"","pricing_plan_id":"cebpf4jnsgd1na2vs0mg"},{"bike_id":"1c2bd3ff-6a42-47d7-af4d-d017c3e97049","system_id":"levelo_inurba_marseille","lat":43.27319,"lon":5.39081,"is_reserved":false,"is_disabled":false,"rental_uris":{"android":"levelo://app?vid=1c2bd3ff-6a42-47d7-af4d-d017c3e97049","ios":"levelo://app?vid=1c2bd3ff-6a42-47d7-af4d-d017c3e97049"},"vehicle_type_id":"4","last_reported":1741699186,"current_range_meters":14400,"station_id":"ce4bhgp2rcd13ifvqfe0","pricing_plan_id":"cebpf4jnsgd1na2vs0mg"},{"bike_id":"511a478b-16c6-4549-a89d-177a4b1ec633","system_id":"levelo_inurba_marseille","lat":43.240771,"lon":5.377595,"is_reserved":false,"is_disabled":false,"rental_uris":{"android":"levelo://app?vid=511a478b-16c6-4549-a89d-177a4b1ec633","ios":"levelo://app?vid=511a478b-16c6-4549-a89d-177a4b1ec633"},"vehicle_type_id":"4","last_reported":1741699186,"current_range_meters":14400,"station_id":"ce4bhnp2rcd13ifvqgvg","pricing_plan_id":"cebpf4jnsgd1na2vs0mg"},{"bike_id":"a268dcbc-ddd2-4b2c-89cc-fbb307910755","system_id":"levelo_inurba_marseille","lat":43.30485,"lon":5.37906,"is_reserved":false,"is_disabled":false,"rental_uris":{"android":"levelo://app?vid=a268dcbc-ddd2-4b2c-89cc-fbb307910755","ios":"levelo://app?vid=a268dcbc-ddd2-4b2c-89cc-fbb307910755"},"vehicle_type_id":"4","last_reported":1741699186,"current_range_meters":14400,"station_id":"ce4bgup2rcd13ifvqcn0","pricing_plan_id":"cebpf4jnsgd1na2vs0mg"},{"bike_id":"90e4636f-5acf-4803-a3ed-f0ba6d29d559","system_id":"levelo_inurba_marseille","lat":43.30446,"lon":5.38914,"is_reserved":false,"is_disabled":false,"rental_uris":{"android":"levelo://app?vid=90e4636f-5acf-4803-a3ed-f0ba6d29d559","ios":"levelo://app?vid=90e4636f-5acf-4803-a3ed-f0ba6d29d559"},"vehicle_type_id":"4","last_reported":1741699186,"current_range_meters":14800,"station_id":"ce4bgk12rcd13ifvqbi0","pricing_plan_id":"cebpf4jnsgd1na2vs0mg"},{"bike_id":"6c124d56-d1a8-4ea3-a802-b979b73bec96","system_id":"levelo_inurba_marseille","lat":43.30145,"lon":5.39876,"is_reserved":false,"is_disabled":false,"rental_uris":{"android":"levelo://app?vid=6c124d56-d1a8-4ea3-a802-b979b73bec96","ios":"levelo://app?vid=6c124d56-d1a8-4ea3-a802-b979b73bec96"},"vehicle_type_id":"4","last_reported":1741699186,"current_range_meters":14800,"station_id":"ce4bh0h2rcd13ifvqd40","pricing_plan_id":"cebpf4jnsgd1na2vs0mg"},{"bike_id":"c71864f3-c624-4c45-94cc-30da534648c4","system_id":"levelo_inurba_marseille","lat":43.27073,"lon":5.42283,"is_reserved":false,"is_disabled":false,"rental_uris":{"android":"levelo://app?vid=c71864f3-c624-4c45-94cc-30da534648c4","ios":"levelo://app?vid=c71864f3-c624-4c45-94cc-30da534648c4"},"vehicle_type_id":"4","last_reported":1741699186,"current_range_meters":15200,"station_id":"ce4bhk92rcd13ifvqgb0","pricing_plan_id":"cebpf4jnsgd1na2vs0mg"},{"bike_id":"1f20e11a-c513-4585-a635-49fbcdea784a","system_id":"levelo_inurba_marseille","lat":43.30913,"lon":5.36852,"is_reserved":false,"is_disabled":false,"rental_uris":{"android":"levelo://app?vid=1f20e11a-c513-4585-a635-49fbcdea784a","ios":"levelo://app?vid=1f20e11a-c513-4585-a635-49fbcdea784a"},"vehicle_type_id":"4","last_reported":1741699186,"current_range_meters":15200,"station_id":"ce4bgn92rcd13ifvqbvg","pricing_plan_id":"cebpf4jnsgd1na2vs0mg"},{"bike_id":"b3789eaf-6105-456f-9c70-bcc79b45cd81","system_id":"levelo_inurba_marseille","lat":43.27059,"lon":5.40253,"is_reserved":false,"is_disabled":false,"rental_uris":{"android":"levelo://app?vid=b3789eaf-6105-456f-9c70-bcc79b45cd81","ios":"levelo://app?vid=b3789eaf-6105-456f-9c70-bcc79b45cd81"},"vehicle_type_id":"4","last_reported":1741699186,"current_range_meters":15200,"station_id":"ce4bhk92rcd13ifvqgc0","pricing_plan_id":"cebpf4jnsgd1na2vs0mg"},{"bike_id":"537df463-df28-4906-bcb8-3f200926bf1e","system_id":"levelo_inurba_marseille","lat":43.30887,"lon":5.39651,"is_reserved":false,"is_disabled":false,"rental_uris":{"android":"levelo://app?vid=537df463-df28-4906-bcb8-3f200926bf1e","ios":"levelo://app?vid=537df463-df28-4906-bcb8-3f200926bf1e"},"vehicle_type_id":"4","last_reported":1741699186,"current_range_meters":12800,"station_id":"ce4bh012rcd13ifvqcv0","pricing_plan_id":"cebpf4jnsgd1na2vs0mg"},{"bike_id":"74507df6-c077-40ba-b871-f44d6f9625f0","system_id":"levelo_inurba_marseille","lat":43.31227,"lon":5.36864,"is_reserved":false,"is_disabled":false,"rental_uris":{"android":"levelo://app?vid=74507df6-c077-40ba-b871-f44d6f9625f0","ios":"levelo://app?vid=74507df6-c077-40ba-b871-f44d6f9625f0"},"vehicle_type_id":"4","last_reported":1741699186,"current_range_meters":15200,"station_id":"ce4bgl92rcd13ifvqbq0","pricing_plan_id":"cebpf4jnsgd1na2vs0mg"},{"bike_id":"8bca6b52-28c0-4932-8ec1-82b13d2e0c6d","system_id":"levelo_inurba_marseille","lat":43.29262,"lon":5.37642,"is_reserved":false,"is_disabled":false,"rental_uris":{"android":"levelo://app?vid=8bca6b52-28c0-4932-8ec1-82b13d2e0c6d","ios":"levelo://app?vid=8bca6b52-28c0-4932-8ec1-82b13d2e0c6d"},"vehicle_type_id":"4","last_reported":1741699186,"current_range_meters":16000,"station_id":"ce4bgi12rcd13ifvqb80","pricing_plan_id":"cebpf4jnsgd1na2vs0mg"},{"bike_id":"c012cb5d-cc6c-48db-8d04-a321ffc6e266","system_id":"levelo_inurba_marseille","lat":43.305445,"lon":5.367015,"is_reserved":false,"is_disabled":false,"rental_uris":{"android":"levelo://app?vid=c012cb5d-cc6c-48db-8d04-a321ffc6e266","ios":"levelo://app?vid=c012cb5d-cc6c-48db-8d04-a321ffc6e266"},"vehicle_type_id":"4","last_reported":1741699186,"current_range_meters":16000,"station_id":"ce4bgrp2rcd13ifvqc9g","pricing_plan_id":"cebpf4jnsgd1na2vs0mg"},{"bike_id":"28ddcdf4-024a-4f42-80ff-fb3bac3f5f61","system_id":"levelo_inurba_marseille","lat":43.24169,"lon":5.36406,"is_reserved":false,"is_disabled":false,"rental_uris":{"android":"levelo://app?vid=28ddcdf4-024a-4f42-80ff-fb3bac3f5f61","ios":"levelo://app?vid=28ddcdf4-024a-4f42-80ff-fb3bac3f5f61"},"vehicle_type_id":"4","last_reported":1741699186,"current_range_meters":16000,"station_id":"cpo36qri1sfpv3e86is0","pricing_plan_id":"cebpf4jnsgd1na2vs0mg"},{"bike_id":"f7301556-9f74-4938-bcdb-73e4a735fa3c","system_id":"levelo_inurba_marseille","lat":43.30299,"lon":5.39225,"is_reserved":false,"is_disabled":false,"rental_uris":{"android":"levelo://app?vid=f7301556-9f74-4938-bcdb-73e4a735fa3c","ios":"levelo://app?vid=f7301556-9f74-4938-bcdb-73e4a735fa3c"},"vehicle_type_id":"4","last_reported":1741699186,"current_range_meters":16000,"station_id":"ce4bgkh2rcd13ifvqbk0","pricing_plan_id":"cebpf4jnsgd1na2vs0mg"},{"bike_id":"81c0e1ec-e0cb-49fa-b94a-6f6b1c28b3dd","system_id":"levelo_inurba_marseille","lat":43.30138,"lon":5.39886,"is_reserved":false,"is_disabled":false,"rental_uris":{"android":"levelo://app?vid=81c0e1ec-e0cb-49fa-b94a-6f6b1c28b3dd","ios":"levelo://app?vid=81c0e1ec-e0cb-49fa-b94a-6f6b1c28b3dd"},"vehicle_type_id":"4","last_reported":1741699186,"current_range_meters":16000,"station_id":"ce4bh0h2rcd13ifvqd40","pricing_plan_id":"cebpf4jnsgd1na2vs0mg"},{"bike_id":"03246e91-16f4-42e2-8b0b-94d335643d91","system_id":"levelo_inurba_marseille","lat":43.3047,"lon":5.37907,"is_reserved":false,"is_disabled":false,"rental_uris":{"android":"levelo://app?vid=03246e91-16f4-42e2-8b0b-94d335643d91","ios":"levelo://app?vid=03246e91-16f4-42e2-8b0b-94d335643d91"},"vehicle_type_id":"4","last_reported":1741699186,"current_range_meters":16000,"station_id":"ce4bgup2rcd13ifvqcn0","pricing_plan_id":"cebpf4jnsgd1na2vs0mg"},{"bike_id":"be04fb7b-49e7-491b-ab49-5893cbae4799","system_id":"levelo_inurba_marseille","lat":43.25004,"lon":5.38914,"is_reserved":false,"is_disabled":false,"rental_uris":{"android":"levelo://app?vid=be04fb7b-49e7-491b-ab49-5893cbae4799","ios":"levelo://app?vid=be04fb7b-49e7-491b-ab49-5893cbae4799"},"vehicle_type_id":"4","last_reported":1741699186,"current_range_meters":16000,"station_id":"ce4bhgp2rcd13ifvqfd0","pricing_plan_id":"cebpf4jnsgd1na2vs0mg"},{"bike_id":"a1afebd4-af2a-4e30-af2e-1c83772cdf3d","system_id":"levelo_inurba_marseille","lat":43.23177,"lon":5.43694,"is_reserved":false,"is_disabled":false,"rental_uris":{"android":"levelo://app?vid=a1afebd4-af2a-4e30-af2e-1c83772cdf3d","ios":"levelo://app?vid=a1afebd4-af2a-4e30-af2e-1c83772cdf3d"},"vehicle_type_id":"4","last_reported":1741699186,"current_range_meters":16000,"station_id":"ce4bhmp2rcd13ifvqgog","pricing_plan_id":"cebpf4jnsgd1na2vs0mg"},{"bike_id":"5b40fcbb-5339-4d09-8622-7ef474631ab1","system_id":"levelo_inurba_marseille","lat":43.30554,"lon":5.36695,"is_reserved":false,"is_disabled":false,"rental_uris":{"android":"levelo://app?vid=5b40fcbb-5339-4d09-8622-7ef474631ab1","ios":"levelo://app?vid=5b40fcbb-5339-4d09-8622-7ef474631ab1"},"vehicle_type_id":"4","last_reported":1741699186,"current_range_meters":16000,"station_id":"ce4bgrp2rcd13ifvqc9g","pricing_plan_id":"cebpf4jnsgd1na2vs0mg"},{"bike_id":"d5d24051-d528-45fd-854d-cdbb315a5477","system_id":"levelo_inurba_marseille","lat":43.2972,"lon":5.36608,"is_reserved":false,"is_disabled":false,"rental_uris":{"android":"levelo://app?vid=d5d24051-d528-45fd-854d-cdbb315a5477","ios":"levelo://app?vid=d5d24051-d528-45fd-854d-cdbb315a5477"},"vehicle_type_id":"4","last_reported":1741699186,"current_range_meters":16000,"station_id":"ce4bgn12rcd13ifvqbt0","pricing_plan_id":"cebpf4jnsgd1na2vs0mg"},{"bike_id":"aac30127-a1e3-4c73-9272-f3afaf1d3a7f","system_id":"levelo_inurba_marseille","lat":43.24076,"lon":5.37751,"is_reserved":false,"is_disabled":false,"rental_uris":{"android":"levelo://app?vid=aac30127-a1e3-4c73-9272-f3afaf1d3a7f","ios":"levelo://app?vid=aac30127-a1e3-4c73-9272-f3afaf1d3a7f"},"vehicle_type_id":"4","last_reported":1741699186,"current_range_meters":16000,"station_id":"ce4bhnp2rcd13ifvqgvg","pricing_plan_id":"cebpf4jnsgd1na2vs0mg"},{"bike_id":"03fcef79-f017-4d15-a10d-891c5cd96db2","system_id":"levelo_inurba_marseille","lat":43.23067,"lon":5.35489,"is_reserved":false,"is_disabled":false,"rental_uris":{"android":"levelo://app?vid=03fcef79-f017-4d15-a10d-891c5cd96db2","ios":"levelo://app?vid=03fcef79-f017-4d15-a10d-891c5cd96db2"},"vehicle_type_id":"4","last_reported":1741699186,"current_range_meters":16000,"station_id":"cpo3342slgdg3j2ifvpg","pricing_plan_id":"cebpf4jnsgd1na2vs0mg"},{"bike_id":"f829a819-671e-4b71-9c22-56c5f8047725","system_id":"levelo_inurba_marseille","lat":43.32361,"lon":5.36761,"is_reserved":false,"is_disabled":false,"rental_uris":{"android":"levelo://app?vid=f829a819-671e-4b71-9c22-56c5f8047725","ios":"levelo://app?vid=f829a819-671e-4b71-9c22-56c5f8047725"},"vehicle_type_id":"4","last_reported":1741699186,"current_range_meters":16000,"station_id":"ce4bhsh2rcd13ifvqi2g","pricing_plan_id":"cebpf4jnsgd1na2vs0mg"},{"bike_id":"064a7988-ef05-4b3d-80d9-de2409a89127","system_id":"levelo_inurba_marseille","lat":43.25084,"lon":5.39527,"is_reserved":false,"is_disabled":false,"rental_uris":{"android":"levelo://app?vid=064a7988-ef05-4b3d-80d9-de2409a89127","ios":"levelo://app?vid=064a7988-ef05-4b3d-80d9-de2409a89127"},"vehicle_type_id":"4","last_reported":1741699186,"current_range_meters":16400,"station_id":"ce4bhm12rcd13ifvqgkg","pricing_plan_id":"cebpf4jnsgd1na2vs0mg"},{"bike_id":"3f380368-38c0-4730-8fec-5bdc47b44cef","system_id":"levelo_inurba_marseille","lat":43.30188,"lon":5.36611,"is_reserved":false,"is_disabled":false,"rental_uris":{"android":"levelo://app?vid=3f380368-38c0-4730-8fec-5bdc47b44cef","ios":"levelo://app?vid=3f380368-38c0-4730-8fec-5bdc47b44cef"},"vehicle_type_id":"4","last_reported":1741699186,"current_range_meters":16400,"station_id":"ce4bgrh2rcd13ifvqc8g","pricing_plan_id":"cebpf4jnsgd1na2vs0mg"},{"bike_id":"f8799fa5-ca2a-4e80-b486-ecb57168174e","system_id":"levelo_inurba_marseille","lat":43.3095,"lon":5.3903,"is_reserved":false,"is_disabled":false,"rental_uris":{"android":"levelo://app?vid=f8799fa5-ca2a-4e80-b486-ecb57168174e","ios":"levelo://app?vid=f8799fa5-ca2a-4e80-b486-ecb57168174e"},"vehicle_type_id":"4","last_reported":1741699186,"current_range_meters":16400,"station_id":"ce4bgup2rcd13ifvqco0","pricing_plan_id":"cebpf4jnsgd1na2vs0mg"},{"bike_id":"a44d4005-ea75-4cfc-b235-e251de1c5fca","system_id":"levelo_inurba_marseille","lat":43.27678,"lon":5.38872,"is_reserved":false,"is_disabled":false,"rental_uris":{"android":"levelo://app?vid=a44d4005-ea75-4cfc-b235-e251de1c5fca","ios":"levelo://app?vid=a44d4005-ea75-4cfc-b235-e251de1c5fca"},"vehicle_type_id":"4","last_reported":1741699186,"current_range_meters":17200,"station_id":"ce4bhi12rcd13ifvqfo0","pricing_plan_id":"cebpf4jnsgd1na2vs0mg"},{"bike_id":"51bb4d06-8f06-4c81-9967-3f775de2b65e","system_id":"levelo_inurba_marseille","lat":43.24163,"lon":5.36418,"is_reserved":false,"is_disabled":false,"rental_uris":{"android":"levelo://app?vid=51bb4d06-8f06-4c81-9967-3f775de2b65e","ios":"levelo://app?vid=51bb4d06-8f06-4c81-9967-3f775de2b65e"},"vehicle_type_id":"4","last_reported":1741699186,"current_range_meters":16400,"station_id":"cpo36qri1sfpv3e86is0","pricing_plan_id":"cebpf4jnsgd1na2vs0mg"},{"bike_id":"f3b197bc-36e4-4968-b987-704264304381","system_id":"levelo_inurba_marseille","lat":43.27061,"lon":5.4026,"is_reserved":false,"is_disabled":false,"rental_uris":{"android":"levelo://app?vid=f3b197bc-36e4-4968-b987-704264304381","ios":"levelo://app?vid=f3b197bc-36e4-4968-b987-704264304381"},"vehicle_type_id":"4","last_reported":1741699186,"current_range_meters":16400,"station_id":"ce4bhk92rcd13ifvqgc0","pricing_plan_id":"cebpf4jnsgd1na2vs0mg"},{"bike_id":"0eecd69f-4814-4099-9308-41706ca678d7","system_id":"levelo_inurba_marseille","lat":43.29934,"lon":5.36546,"is_reserved":false,"is_disabled":false,"rental_uris":{"android":"levelo://app?vid=0eecd69f-4814-4099-9308-41706ca678d7","ios":"levelo://app?vid=0eecd69f-4814-4099-9308-41706ca678d7"},"vehicle_type_id":"4","last_reported":1741699186,"current_range_meters":16400,"station_id":"ce4bgm92rcd13ifvqbr0","pricing_plan_id":"cebpf4jnsgd1na2vs0mg"},{"bike_id":"6f47f575-56b9-4d02-80b8-deca40ed0e8e","system_id":"levelo_inurba_marseille","lat":43.3029,"lon":5.39203,"is_reserved":false,"is_disabled":false,"rental_uris":{"android":"levelo://app?vid=6f47f575-56b9-4d02-80b8-deca40ed0e8e","ios":"levelo://app?vid=6f47f575-56b9-4d02-80b8-deca40ed0e8e"},"vehicle_type_id":"4","last_reported":1741699186,"current_range_meters":16400,"station_id":"ce4bgkh2rcd13ifvqbk0","pricing_plan_id":"cebpf4jnsgd1na2vs0mg"},{"bike_id":"312dd01b-28b9-4330-bdff-d9bb6f321fde","system_id":"levelo_inurba_marseille","lat":43.32542,"lon":5.41436,"is_reserved":false,"is_disabled":false,"rental_uris":{"android":"levelo://app?vid=312dd01b-28b9-4330-bdff-d9bb6f321fde","ios":"levelo://app?vid=312dd01b-28b9-4330-bdff-d9bb6f321fde"},"vehicle_type_id":"4","last_reported":1741699186,"current_range_meters":16400,"station_id":"ce4bhq12rcd13ifvqhhg","pricing_plan_id":"cebpf4jnsgd1na2vs0mg"},{"bike_id":"b44022d5-a3c8-45f9-9984-eaba76929c7b","system_id":"levelo_inurba_marseille","lat":43.27844,"lon":5.40693,"is_reserved":false,"is_disabled":false,"rental_uris":{"android":"levelo://app?vid=b44022d5-a3c8-45f9-9984-eaba76929c7b","ios":"levelo://app?vid=b44022d5-a3c8-45f9-9984-eaba76929c7b"},"vehicle_type_id":"4","last_reported":1741699186,"current_range_meters":16400,"station_id":"ce4bhnh2rcd13ifvqgtg","pricing_plan_id":"cebpf4jnsgd1na2vs0mg"},{"bike_id":"9d5c6f66-5ffc-4f1c-98ec-076956a105d4","system_id":"levelo_inurba_marseille","lat":43.28701,"lon":5.37904,"is_reserved":false,"is_disabled":false,"rental_uris":{"android":"levelo://app?vid=9d5c6f66-5ffc-4f1c-98ec-076956a105d4","ios":"levelo://app?vid=9d5c6f66-5ffc-4f1c-98ec-076956a105d4"},"vehicle_type_id":"4","last_reported":1741699186,"current_range_meters":16400,"station_id":"ce4bh9p2rcd13ifvqec0","pricing_plan_id":"cebpf4jnsgd1na2vs0mg"},{"bike_id":"6f3d7979-1941-425d-a7ad-7098bdc17d80","system_id":"levelo_inurba_marseille","lat":43.31348,"lon":5.36732,"is_reserved":false,"is_disabled":false,"rental_uris":{"android":"levelo://app?vid=6f3d7979-1941-425d-a7ad-7098bdc17d80","ios":"levelo://app?vid=6f3d7979-1941-425d-a7ad-7098bdc17d80"},"vehicle_type_id":"4","last_reported":1741699186,"current_range_meters":16400,"station_id":"ce4bgr92rcd13ifvqc6g","pricing_plan_id":"cebpf4jnsgd1na2vs0mg"},{"bike_id":"a4ce6389-69c8-41eb-a2cb-27e113df5153","system_id":"levelo_inurba_marseille","lat":43.2861,"lon":5.35112,"is_reserved":false,"is_disabled":false,"rental_uris":{"android":"levelo://app?vid=a4ce6389-69c8-41eb-a2cb-27e113df5153","ios":"levelo://app?vid=a4ce6389-69c8-41eb-a2cb-27e113df5153"},"vehicle_type_id":"4","last_reported":1741699186,"current_range_meters":16800,"station_id":"ce4bhch2rcd13ifvqeug","pricing_plan_id":"cebpf4jnsgd1na2vs0mg"},{"bike_id":"0a995a9a-6122-4f4b-b298-a8b06cbca7e2","system_id":"levelo_inurba_marseille","lat":43.25004,"lon":5.38914,"is_reserved":false,"is_disabled":false,"rental_uris":{"android":"levelo://app?vid=0a995a9a-6122-4f4b-b298-a8b06cbca7e2","ios":"levelo://app?vid=0a995a9a-6122-4f4b-b298-a8b06cbca7e2"},"vehicle_type_id":"4","last_reported":1741699186,"current_range_meters":16800,"station_id":"ce4bhgp2rcd13ifvqfd0","pricing_plan_id":"cebpf4jnsgd1na2vs0mg"},{"bike_id":"bd61afa9-c73c-4c27-baad-5bbcf752eafb","system_id":"levelo_inurba_marseille","lat":43.26735,"lon":5.3821,"is_reserved":false,"is_disabled":false,"rental_uris":{"android":"levelo://app?vid=bd61afa9-c73c-4c27-baad-5bbcf752eafb","ios":"levelo://app?vid=bd61afa9-c73c-4c27-baad-5bbcf752eafb"},"vehicle_type_id":"4","last_reported":1741699186,"current_range_meters":16800,"station_id":"ce4bhg92rcd13ifvqf90","pricing_plan_id":"cebpf4jnsgd1na2vs0mg"},{"bike_id":"4f23cdcb-4a0c-482b-92b2-ae01477750dd","system_id":"levelo_inurba_marseille","lat":43.29634,"lon":5.37569,"is_reserved":false,"is_disabled":false,"rental_uris":{"android":"levelo://app?vid=4f23cdcb-4a0c-482b-92b2-ae01477750dd","ios":"levelo://app?vid=4f23cdcb-4a0c-482b-92b2-ae01477750dd"},"vehicle_type_id":"4","last_reported":1741699186,"current_range_meters":16800,"station_id":"","pricing_plan_id":"cebpf4jnsgd1na2vs0mg"},{"bike_id":"0a6985ed-b84c-4033-8e3e-05aa091718f5","system_id":"levelo_inurba_marseille","lat":43.29879,"lon":5.39726,"is_reserved":false,"is_disabled":false,"rental_uris":{"android":"levelo://app?vid=0a6985ed-b84c-4033-8e3e-05aa091718f5","ios":"levelo://app?vid=0a6985ed-b84c-4033-8e3e-05aa091718f5"},"vehicle_type_id":"4","last_reported":1741699186,"current_range_meters":16800,"station_id":"ce4bh0h2rcd13ifvqd50","pricing_plan_id":"cebpf4jnsgd1na2vs0mg"},{"bike_id":"24b4b104-5c89-4fc6-8924-6d1684e13415","system_id":"levelo_inurba_marseille","lat":43.23159,"lon":5.43677,"is_reserved":false,"is_disabled":false,"rental_uris":{"android":"levelo://app?vid=24b4b104-5c89-4fc6-8924-6d1684e13415","ios":"levelo://app?vid=24b4b104-5c89-4fc6-8924-6d1684e13415"},"vehicle_type_id":"4","last_reported":1741699186,"current_range_meters":16800,"station_id":"ce4bhmp2rcd13ifvqgog","pricing_plan_id":"cebpf4jnsgd1na2vs0mg"},{"bike_id":"d9e3dc6b-3ce5-4e11-b340-6eb3eded2f40","system_id":"levelo_inurba_marseille","lat":43.29415,"lon":5.38625,"is_reserved":false,"is_disabled":false,"rental_uris":{"android":"levelo://app?vid=d9e3dc6b-3ce5-4e11-b340-6eb3eded2f40","ios":"levelo://app?vid=d9e3dc6b-3ce5-4e11-b340-6eb3eded2f40"},"vehicle_type_id":"4","last_reported":1741699186,"current_range_meters":14400,"station_id":"ce4bh2h2rcd13ifvqdh0","pricing_plan_id":"cebpf4jnsgd1na2vs0mg"},{"bike_id":"97a476ec-ebb2-47e9-9d47-3f7832a2c8e6","system_id":"levelo_inurba_marseille","lat":43.29842,"lon":5.36276,"is_reserved":false,"is_disabled":false,"rental_uris":{"android":"levelo://app?vid=97a476ec-ebb2-47e9-9d47-3f7832a2c8e6","ios":"levelo://app?vid=97a476ec-ebb2-47e9-9d47-3f7832a2c8e6"},"vehicle_type_id":"4","last_reported":1741699186,"current_range_meters":16800,"station_id":"ce4bgpp2rcd13ifvqc3g","pricing_plan_id":"cebpf4jnsgd1na2vs0mg"},{"bike_id":"0373d851-0e68-4e12-aa72-9c00b653dcb5","system_id":"levelo_inurba_marseille","lat":43.314296,"lon":5.376466,"is_reserved":false,"is_disabled":false,"rental_uris":{"android":"levelo://app?vid=0373d851-0e68-4e12-aa72-9c00b653dcb5","ios":"levelo://app?vid=0373d851-0e68-4e12-aa72-9c00b653dcb5"},"vehicle_type_id":"4","last_reported":1741699186,"current_range_meters":16800,"station_id":"","pricing_plan_id":"cebpf4jnsgd1na2vs0mg"},{"bike_id":"b592ce66-4778-42be-8d7e-54bfdb981d8c","system_id":"levelo_inurba_marseille","lat":43.30314,"lon":5.36903,"is_reserved":false,"is_disabled":false,"rental_uris":{"android":"levelo://app?vid=b592ce66-4778-42be-8d7e-54bfdb981d8c","ios":"levelo://app?vid=b592ce66-4778-42be-8d7e-54bfdb981d8c"},"vehicle_type_id":"4","last_reported":1741699186,"current_range_meters":16800,"station_id":"ce4bgqh2rcd13ifvqc5g","pricing_plan_id":"cebpf4jnsgd1na2vs0mg"},{"bike_id":"43b90319-9aab-4d21-a82b-4d2d61deb991","system_id":"levelo_inurba_marseille","lat":43.2984,"lon":5.36265,"is_reserved":false,"is_disabled":false,"rental_uris":{"android":"levelo://app?vid=43b90319-9aab-4d21-a82b-4d2d61deb991","ios":"levelo://app?vid=43b90319-9aab-4d21-a82b-4d2d61deb991"},"vehicle_type_id":"4","last_reported":1741699186,"current_range_meters":16800,"station_id":"ce4bgpp2rcd13ifvqc3g","pricing_plan_id":"cebpf4jnsgd1na2vs0mg"},{"bike_id":"9628c319-1d30-4907-b2ce-a981d4401107","system_id":"levelo_inurba_marseille","lat":43.28351,"lon":5.3811,"is_reserved":false,"is_disabled":false,"rental_uris":{"android":"levelo://app?vid=9628c319-1d30-4907-b2ce-a981d4401107","ios":"levelo://app?vid=9628c319-1d30-4907-b2ce-a981d4401107"},"vehicle_type_id":"4","last_reported":1741699186,"current_range_meters":16800,"station_id":"ce4bh412rcd13ifvqdr0","pricing_plan_id":"cebpf4jnsgd1na2vs0mg"},{"bike_id":"2c635068-974f-4166-a545-1f70681b798b","system_id":"levelo_inurba_marseille","lat":43.33055,"lon":5.39014,"is_reserved":false,"is_disabled":false,"rental_uris":{"android":"levelo://app?vid=2c635068-974f-4166-a545-1f70681b798b","ios":"levelo://app?vid=2c635068-974f-4166-a545-1f70681b798b"},"vehicle_type_id":"4","last_reported":1741699186,"current_range_meters":16400,"station_id":"ce4bhr92rcd13ifvqhrg","pricing_plan_id":"cebpf4jnsgd1na2vs0mg"},{"bike_id":"6dbc9b4a-c5a1-4dbf-a00f-5bb7462d2694","system_id":"levelo_inurba_marseille","lat":43.28109,"lon":5.39854,"is_reserved":false,"is_disabled":false,"rental_uris":{"android":"levelo://app?vid=6dbc9b4a-c5a1-4dbf-a00f-5bb7462d2694","ios":"levelo://app?vid=6dbc9b4a-c5a1-4dbf-a00f-5bb7462d2694"},"vehicle_type_id":"4","last_reported":1741699186,"current_range_meters":16800,"station_id":"","pricing_plan_id":"cebpf4jnsgd1na2vs0mg"},{"bike_id":"2b10e36d-260c-42c8-806c-9a9bf73e9953","system_id":"levelo_inurba_marseille","lat":43.29031,"lon":5.38642,"is_reserved":false,"is_disabled":false,"rental_uris":{"android":"levelo://app?vid=2b10e36d-260c-42c8-806c-9a9bf73e9953","ios":"levelo://app?vid=2b10e36d-260c-42c8-806c-9a9bf73e9953"},"vehicle_type_id":"4","last_reported":1741699186,"current_range_meters":16000,"station_id":"ce4bh4p2rcd13ifvqe0g","pricing_plan_id":"cebpf4jnsgd1na2vs0mg"},{"bike_id":"24526035-95ab-40e9-88c7-da58c659f6ae","system_id":"levelo_inurba_marseille","lat":43.29556,"lon":5.4229,"is_reserved":false,"is_disabled":false,"rental_uris":{"android":"levelo://app?vid=24526035-95ab-40e9-88c7-da58c659f6ae","ios":"levelo://app?vid=24526035-95ab-40e9-88c7-da58c659f6ae"},"vehicle_type_id":"4","last_reported":1741699186,"current_range_meters":17600,"station_id":"ce4bhph2rcd13ifvqhdg","pricing_plan_id":"cebpf4jnsgd1na2vs0mg"},{"bike_id":"a7063367-88b4-4f70-8a13-bbd78a86f142","system_id":"levelo_inurba_marseille","lat":43.28723,"lon":5.37941,"is_reserved":false,"is_disabled":false,"rental_uris":{"android":"levelo://app?vid=a7063367-88b4-4f70-8a13-bbd78a86f142","ios":"levelo://app?vid=a7063367-88b4-4f70-8a13-bbd78a86f142"},"vehicle_type_id":"4","last_reported":1741699186,"current_range_meters":17200,"station_id":"ce4bh9p2rcd13ifvqec0","pricing_plan_id":"cebpf4jnsgd1na2vs0mg"},{"bike_id":"4f9fa1e1-cb7c-40b8-b540-c9864c7d3b32","system_id":"levelo_inurba_marseille","lat":43.29576,"lon":5.36741,"is_reserved":false,"is_disabled":false,"rental_uris":{"android":"levelo://app?vid=4f9fa1e1-cb7c-40b8-b540-c9864c7d3b32","ios":"levelo://app?vid=4f9fa1e1-cb7c-40b8-b540-c9864c7d3b32"},"vehicle_type_id":"4","last_reported":1741699186,"current_range_meters":17200,"station_id":"ce4bgph2rcd13ifvqc2g","pricing_plan_id":"cebpf4jnsgd1na2vs0mg"},{"bike_id":"4c72d302-7bdc-4e5a-9753-06e1f61a5d6d","system_id":"levelo_inurba_marseille","lat":43.25821,"lon":5.39438,"is_reserved":false,"is_disabled":false,"rental_uris":{"android":"levelo://app?vid=4c72d302-7bdc-4e5a-9753-06e1f61a5d6d","ios":"levelo://app?vid=4c72d302-7bdc-4e5a-9753-06e1f61a5d6d"},"vehicle_type_id":"4","last_reported":1741699186,"current_range_meters":17600,"station_id":"ce4bhip2rcd13ifvqft0","pricing_plan_id":"cebpf4jnsgd1na2vs0mg"},{"bike_id":"d927fc07-dae3-4a33-823e-664a59ce84fe","system_id":"levelo_inurba_marseille","lat":43.2815,"lon":5.42639,"is_reserved":false,"is_disabled":false,"rental_uris":{"android":"levelo://app?vid=d927fc07-dae3-4a33-823e-664a59ce84fe","ios":"levelo://app?vid=d927fc07-dae3-4a33-823e-664a59ce84fe"},"vehicle_type_id":"4","last_reported":1741699186,"current_range_meters":17200,"station_id":"ce4bhnh2rcd13ifvqgug","pricing_plan_id":"cebpf4jnsgd1na2vs0mg"},{"bike_id":"10f6d00d-cc17-481c-974e-615935f6830b","system_id":"levelo_inurba_marseille","lat":43.255803,"lon":5.38233,"is_reserved":false,"is_disabled":false,"rental_uris":{"android":"levelo://app?vid=10f6d00d-cc17-481c-974e-615935f6830b","ios":"levelo://app?vid=10f6d00d-cc17-481c-974e-615935f6830b"},"vehicle_type_id":"4","last_reported":1741699186,"current_range_meters":17200,"station_id":"ce4bhih2rcd13ifvqfs0","pricing_plan_id":"cebpf4jnsgd1na2vs0mg"},{"bike_id":"c4250e82-8c81-4e44-ba6b-37b6bdb4676e","system_id":"levelo_inurba_marseille","lat":43.30533,"lon":5.36703,"is_reserved":false,"is_disabled":false,"rental_uris":{"android":"levelo://app?vid=c4250e82-8c81-4e44-ba6b-37b6bdb4676e","ios":"levelo://app?vid=c4250e82-8c81-4e44-ba6b-37b6bdb4676e"},"vehicle_type_id":"4","last_reported":1741699186,"current_range_meters":17200,"station_id":"ce4bgrp2rcd13ifvqc9g","pricing_plan_id":"cebpf4jnsgd1na2vs0mg"},{"bike_id":"4b9caf4b-22d5-4170-ac88-2bf8c178cc36","system_id":"levelo_inurba_marseille","lat":43.2991,"lon":5.3814,"is_reserved":false,"is_disabled":false,"rental_uris":{"android":"levelo://app?vid=4b9caf4b-22d5-4170-ac88-2bf8c178cc36","ios":"levelo://app?vid=4b9caf4b-22d5-4170-ac88-2bf8c178cc36"},"vehicle_type_id":"4","last_reported":1741699186,"current_range_meters":17200,"station_id":"ce4bgj12rcd13ifvqbc0","pricing_plan_id":"cebpf4jnsgd1na2vs0mg"},{"bike_id":"a9e14f31-9bd1-4ba5-b97a-cccc23cd8e0c","system_id":"levelo_inurba_marseille","lat":43.2623,"lon":5.40447,"is_reserved":false,"is_disabled":false,"rental_uris":{"android":"levelo://app?vid=a9e14f31-9bd1-4ba5-b97a-cccc23cd8e0c","ios":"levelo://app?vid=a9e14f31-9bd1-4ba5-b97a-cccc23cd8e0c"},"vehicle_type_id":"4","last_reported":1741699186,"current_range_meters":17600,"station_id":"ce4bhmh2rcd13ifvqgmg","pricing_plan_id":"cebpf4jnsgd1na2vs0mg"},{"bike_id":"55d7c2c0-e341-43c4-a33a-a69e09416f32","system_id":"levelo_inurba_marseille","lat":43.29796,"lon":5.40404,"is_reserved":false,"is_disabled":false,"rental_uris":{"android":"levelo://app?vid=55d7c2c0-e341-43c4-a33a-a69e09416f32","ios":"levelo://app?vid=55d7c2c0-e341-43c4-a33a-a69e09416f32"},"vehicle_type_id":"4","last_reported":1741699186,"current_range_meters":17600,"station_id":"ce4bh112rcd13ifvqd90","pricing_plan_id":"cebpf4jnsgd1na2vs0mg"},{"bike_id":"fe6f7921-3d30-4807-b07a-70e9a8ca71f8","system_id":"levelo_inurba_marseille","lat":43.25084,"lon":5.39517,"is_reserved":false,"is_disabled":false,"rental_uris":{"android":"levelo://app?vid=fe6f7921-3d30-4807-b07a-70e9a8ca71f8","ios":"levelo://app?vid=fe6f7921-3d30-4807-b07a-70e9a8ca71f8"},"vehicle_type_id":"4","last_reported":1741699186,"current_range_meters":17600,"station_id":"ce4bhm12rcd13ifvqgkg","pricing_plan_id":"cebpf4jnsgd1na2vs0mg"},{"bike_id":"e0718395-0e2e-4a7a-a474-5a05d3f79c13","system_id":"levelo_inurba_marseille","lat":43.28411,"lon":5.37516,"is_reserved":false,"is_disabled":false,"rental_uris":{"android":"levelo://app?vid=e0718395-0e2e-4a7a-a474-5a05d3f79c13","ios":"levelo://app?vid=e0718395-0e2e-4a7a-a474-5a05d3f79c13"},"vehicle_type_id":"4","last_reported":1741699186,"current_range_meters":17600,"station_id":"ce4bh412rcd13ifvqds0","pricing_plan_id":"cebpf4jnsgd1na2vs0mg"},{"bike_id":"2d4583d2-1229-40ea-ac56-d067afcac76e","system_id":"levelo_inurba_marseille","lat":43.29791,"lon":5.38093,"is_reserved":false,"is_disabled":false,"rental_uris":{"android":"levelo://app?vid=2d4583d2-1229-40ea-ac56-d067afcac76e","ios":"levelo://app?vid=2d4583d2-1229-40ea-ac56-d067afcac76e"},"vehicle_type_id":"4","last_reported":1741699186,"current_range_meters":17600,"station_id":"ce4bgip2rcd13ifvqbb0","pricing_plan_id":"cebpf4jnsgd1na2vs0mg"},{"bike_id":"2f93c42c-c88d-476b-a3a3-2eee2d201720","system_id":"levelo_inurba_marseille","lat":43.2307,"lon":5.35495,"is_reserved":false,"is_disabled":false,"rental_uris":{"android":"levelo://app?vid=2f93c42c-c88d-476b-a3a3-2eee2d201720","ios":"levelo://app?vid=2f93c42c-c88d-476b-a3a3-2eee2d201720"},"vehicle_type_id":"4","last_reported":1741699186,"current_range_meters":17600,"station_id":"cpo3342slgdg3j2ifvpg","pricing_plan_id":"cebpf4jnsgd1na2vs0mg"},{"bike_id":"dde2fbb2-2c86-41c6-a477-392cc352912e","system_id":"levelo_inurba_marseille","lat":43.29273,"lon":5.37451,"is_reserved":false,"is_disabled":false,"rental_uris":{"android":"levelo://app?vid=dde2fbb2-2c86-41c6-a477-392cc352912e","ios":"levelo://app?vid=dde2fbb2-2c86-41c6-a477-392cc352912e"},"vehicle_type_id":"4","last_reported":1741699186,"current_range_meters":17600,"station_id":"ce4bgi12rcd13ifvqb70","pricing_plan_id":"cebpf4jnsgd1na2vs0mg"},{"bike_id":"bbc3b890-debc-4a19-a72e-170063e098c1","system_id":"levelo_inurba_marseille","lat":43.30638,"lon":5.3938,"is_reserved":false,"is_disabled":false,"rental_uris":{"android":"levelo://app?vid=bbc3b890-debc-4a19-a72e-170063e098c1","ios":"levelo://app?vid=bbc3b890-debc-4a19-a72e-170063e098c1"},"vehicle_type_id":"4","last_reported":1741699186,"current_range_meters":17600,"station_id":"ce4bh0h2rcd13ifvqd50","pricing_plan_id":"cebpf4jnsgd1na2vs0mg"},{"bike_id":"fb55f9d1-18dc-4569-919c-3c5a2e705317","system_id":"levelo_inurba_marseille","lat":43.32463,"lon":5.3661,"is_reserved":false,"is_disabled":false,"rental_uris":{"android":"levelo://app?vid=fb55f9d1-18dc-4569-919c-3c5a2e705317","ios":"levelo://app?vid=fb55f9d1-18dc-4569-919c-3c5a2e705317"},"vehicle_type_id":"4","last_reported":1741699186,"current_range_meters":17600,"station_id":"ce4bhs12rcd13ifvqhvg","pricing_plan_id":"cebpf4jnsgd1na2vs0mg"},{"bike_id":"61507bba-0b25-49b9-82dc-a8669603e405","system_id":"levelo_inurba_marseille","lat":43.28408,"lon":5.37557,"is_reserved":false,"is_disabled":false,"rental_uris":{"android":"levelo://app?vid=61507bba-0b25-49b9-82dc-a8669603e405","ios":"levelo://app?vid=61507bba-0b25-49b9-82dc-a8669603e405"},"vehicle_type_id":"4","last_reported":1741699186,"current_range_meters":17600,"station_id":"ce4bh412rcd13ifvqds0","pricing_plan_id":"cebpf4jnsgd1na2vs0mg"},{"bike_id":"75a77a0a-1b85-4dd3-a8c8-8848bbf371dc","system_id":"levelo_inurba_marseille","lat":43.29033,"lon":5.35931,"is_reserved":false,"is_disabled":false,"rental_uris":{"android":"levelo://app?vid=75a77a0a-1b85-4dd3-a8c8-8848bbf371dc","ios":"levelo://app?vid=75a77a0a-1b85-4dd3-a8c8-8848bbf371dc"},"vehicle_type_id":"4","last_reported":1741699186,"current_range_meters":17600,"station_id":"ce4bha92rcd13ifvqeg0","pricing_plan_id":"cebpf4jnsgd1na2vs0mg"},{"bike_id":"1730bf49-29d4-44ee-aa2f-05a45f93a2fb","system_id":"levelo_inurba_marseille","lat":43.30476,"lon":5.37907,"is_reserved":false,"is_disabled":false,"rental_uris":{"android":"levelo://app?vid=1730bf49-29d4-44ee-aa2f-05a45f93a2fb","ios":"levelo://app?vid=1730bf49-29d4-44ee-aa2f-05a45f93a2fb"},"vehicle_type_id":"4","last_reported":1741699186,"current_range_meters":17600,"station_id":"ce4bgup2rcd13ifvqcn0","pricing_plan_id":"cebpf4jnsgd1na2vs0mg"},{"bike_id":"ab512144-565f-4e01-88e4-e8c242ff8c2c","system_id":"levelo_inurba_marseille","lat":43.287401,"lon":5.375712,"is_reserved":false,"is_disabled":false,"rental_uris":{"android":"levelo://app?vid=ab512144-565f-4e01-88e4-e8c242ff8c2c","ios":"levelo://app?vid=ab512144-565f-4e01-88e4-e8c242ff8c2c"},"vehicle_type_id":"4","last_reported":1741699186,"current_range_meters":18000,"station_id":"ce4bh3p2rcd13ifvqdq0","pricing_plan_id":"cebpf4jnsgd1na2vs0mg"},{"bike_id":"40a24dcc-0b8d-4090-bc99-79c372311cea","system_id":"levelo_inurba_marseille","lat":43.3254,"lon":5.41444,"is_reserved":false,"is_disabled":false,"rental_uris":{"android":"levelo://app?vid=40a24dcc-0b8d-4090-bc99-79c372311cea","ios":"levelo://app?vid=40a24dcc-0b8d-4090-bc99-79c372311cea"},"vehicle_type_id":"4","last_reported":1741699186,"current_range_meters":18000,"station_id":"ce4bhq12rcd13ifvqhhg","pricing_plan_id":"cebpf4jnsgd1na2vs0mg"},{"bike_id":"532963fd-a4b4-46af-903e-98f6b38b8103","system_id":"levelo_inurba_marseille","lat":43.28935,"lon":5.39634,"is_reserved":false,"is_disabled":false,"rental_uris":{"android":"levelo://app?vid=532963fd-a4b4-46af-903e-98f6b38b8103","ios":"levelo://app?vid=532963fd-a4b4-46af-903e-98f6b38b8103"},"vehicle_type_id":"4","last_reported":1741699186,"current_range_meters":18000,"station_id":"ce4bh3h2rcd13ifvqdn0","pricing_plan_id":"cebpf4jnsgd1na2vs0mg"},{"bike_id":"ed1ae84d-b1d0-44f7-bade-b20bdcdc88b0","system_id":"levelo_inurba_marseille","lat":43.257298,"lon":5.411098,"is_reserved":false,"is_disabled":false,"rental_uris":{"android":"levelo://app?vid=ed1ae84d-b1d0-44f7-bade-b20bdcdc88b0","ios":"levelo://app?vid=ed1ae84d-b1d0-44f7-bade-b20bdcdc88b0"},"vehicle_type_id":"4","last_reported":1741699186,"current_range_meters":18000,"station_id":"ce4bh412rcd13ifvqdr0","pricing_plan_id":"cebpf4jnsgd1na2vs0mg"},{"bike_id":"93c8757a-b079-4429-9df1-8556ee987cba","system_id":"levelo_inurba_marseille","lat":43.29602,"lon":5.38099,"is_reserved":false,"is_disabled":false,"rental_uris":{"android":"levelo://app?vid=93c8757a-b079-4429-9df1-8556ee987cba","ios":"levelo://app?vid=93c8757a-b079-4429-9df1-8556ee987cba"},"vehicle_type_id":"4","last_reported":1741699186,"current_range_meters":18000,"station_id":"ce4bgl12rcd13ifvqbo0","pricing_plan_id":"cebpf4jnsgd1na2vs0mg"},{"bike_id":"5348a7ea-5305-4810-ac6c-1f273fa36b5e","system_id":"levelo_inurba_marseille","lat":43.29696,"lon":5.36593,"is_reserved":false,"is_disabled":false,"rental_uris":{"android":"levelo://app?vid=5348a7ea-5305-4810-ac6c-1f273fa36b5e","ios":"levelo://app?vid=5348a7ea-5305-4810-ac6c-1f273fa36b5e"},"vehicle_type_id":"4","last_reported":1741699186,"current_range_meters":18000,"station_id":"ce4bgn12rcd13ifvqbt0","pricing_plan_id":"cebpf4jnsgd1na2vs0mg"},{"bike_id":"ebd4e792-a666-46a2-98a2-c70e9b7feb24","system_id":"levelo_inurba_marseille","lat":43.30511,"lon":5.36698,"is_reserved":false,"is_disabled":false,"rental_uris":{"android":"levelo://app?vid=ebd4e792-a666-46a2-98a2-c70e9b7feb24","ios":"levelo://app?vid=ebd4e792-a666-46a2-98a2-c70e9b7feb24"},"vehicle_type_id":"4","last_reported":1741699186,"current_range_meters":18000,"station_id":"ce4bgrp2rcd13ifvqc9g","pricing_plan_id":"cebpf4jnsgd1na2vs0mg"},{"bike_id":"24dd995e-3477-47a4-a973-1baf28187a7f","system_id":"levelo_inurba_marseille","lat":43.29074,"lon":5.37165,"is_reserved":false,"is_disabled":false,"rental_uris":{"android":"levelo://app?vid=24dd995e-3477-47a4-a973-1baf28187a7f","ios":"levelo://app?vid=24dd995e-3477-47a4-a973-1baf28187a7f"},"vehicle_type_id":"4","last_reported":1741699186,"current_range_meters":18000,"station_id":"ce4bh5p2rcd13ifvqe4g","pricing_plan_id":"cebpf4jnsgd1na2vs0mg"},{"bike_id":"8cb98100-8339-480d-872a-e2c4b7cea00c","system_id":"levelo_inurba_marseille","lat":43.28101,"lon":5.39838,"is_reserved":false,"is_disabled":false,"rental_uris":{"android":"levelo://app?vid=8cb98100-8339-480d-872a-e2c4b7cea00c","ios":"levelo://app?vid=8cb98100-8339-480d-872a-e2c4b7cea00c"},"vehicle_type_id":"4","last_reported":1741699186,"current_range_meters":18000,"station_id":"","pricing_plan_id":"cebpf4jnsgd1na2vs0mg"},{"bike_id":"4c90015f-4884-41fc-8169-0311c0dfd31c","system_id":"levelo_inurba_marseille","lat":43.25002,"lon":5.38916,"is_reserved":false,"is_disabled":false,"rental_uris":{"android":"levelo://app?vid=4c90015f-4884-41fc-8169-0311c0dfd31c","ios":"levelo://app?vid=4c90015f-4884-41fc-8169-0311c0dfd31c"},"vehicle_type_id":"4","last_reported":1741699186,"current_range_meters":18000,"station_id":"ce4bhgp2rcd13ifvqfd0","pricing_plan_id":"cebpf4jnsgd1na2vs0mg"},