{"last_updated":1768202350,"ttl":60,"version":"2.2","data":{"bikes":[{"bike_id":"6a8f2761-d338-495d-91ab-8beb34937453","system_id":"levelo_inurba_marseille","lat":43.29013,"lon":5.37389,"is_reserved":false,"is_disabled":false,"rental_uris":{"android":"levelo://app?vid=6a8f2761-d338-495d-91ab-8beb34937453","ios":"levelo://app?vid=6a8f2761-d338-495d-91ab-8beb34937453"},"vehicle_type_id":"4","last_reported":1768202351,"current_range_meters":2800,"station_id":"","pricing_plan_id":"cebpf4jnsgd1na2vs0mg"},{"bike_id":"56376ae8-562f-4645-957c-a6ad144d3c9e","system_id":"levelo_inurba_marseille","lat":43.29583,"lon":5.38089,"is_reserved":false,"is_disabled":true,"rental_uris":{"android":"levelo://app?vid=56376ae8-562f-4645-957c-a6ad144d3c9e","ios":"levelo://app?vid=56376ae8-562f-4645-957c-a6ad144d3c9e"},"vehicle_type_id":"4","last_reported":1768202351,"current_range_meters":2800,"station_id":"ce4bgl12rcd13ifvqbo0","pricing_plan_id":"cebpf4jnsgd1na2vs0mg"},{"bike_id":"2e00dc9d-8fca-4c53-9c49-436b3c531ac4","system_id":"levelo_inurba_marseille","lat":43.24819,"lon":5.37438,"is_reserved":false,"is_disabled":false,"rental_uris":{"android":"levelo://app?vid=2e00dc9d-8fca-4c53-9c49-436b3c531ac4","ios":"levelo://app?vid=2e00dc9d-8fca-4c53-9c49-436b3c531ac4"},"vehicle_type_id":"4","last_reported":1768202351,"current_range_meters":2800,"station_id":"ce4bhgh2rcd13ifvqfb0","pricing_plan_id":"cebpf4jnsgd1na2vs0mg"},{"bike_id":"9e546458-c3a8-4e35-9b2b-b0910317fcfc","system_id":"levelo_inurba_marseille","lat":43.22929,"lon":5.35381,"is_reserved":false,"is_disabled":false,"rental_uris":{"android":"levelo://app?vid=9e546458-c3a8-4e35-9b2b-b0910317fcfc","ios":"levelo://app?vid=9e546458-c3a8-4e35-9b2b-b0910317fcfc"},"vehicle_type_id":"4","last_reported":1768202351,"current_range_meters":2800,"station_id":"cpo3532slgdg3j2ikp40","pricing_plan_id":"cebpf4jnsgd1na2vs0mg"},{"bike_id":"0898649b-38f7-4ac3-87bc-e253d4a070c6","system_id":"levelo_inurba_marseille","lat":43.28472,"lon":5.3841,"is_reserved":false,"is_disabled":false,"rental_uris":{"android":"levelo://app?vid=0898649b-38f7-4ac3-87bc-e253d4a070c6","ios":"levelo://app?vid=0898649b-38f7-4ac3-87bc-e253d4a070c6"},"vehicle_type_id":"4","last_reported":1768202351,"current_range_meters":2800,"station_id":"ce4bh512rcd13ifvqe3g","pricing_plan_id":"cebpf4jnsgd1na2vs0mg"},{"bike_id":"31e53656-e739-4be9-a074-127a7ee373ba","system_id":"levelo_inurba_marseille","lat":43.27368,"lon":5.36245,"is_reserved":false,"is_disabled":false,"rental_uris":{"android":"levelo://app?vid=31e53656-e739-4be9-a074-127a7ee373ba","ios":"levelo://app?vid=31e53656-e739-4be9-a074-127a7ee373ba"},"vehicle_type_id":"4","last_reported":1768202351,"current_range_meters":2800,"station_id":"ce4bhbh2rcd13ifvqeo0","pricing_plan_id":"cebpf4jnsgd1na2vs0mg"},{"bike_id":"df93eae1-9a8e-44a7-a49c-a273a5b8de4d","system_id":"levelo_inurba_marseille","lat":43.31225,"lon":5.36855,"is_reserved":false,"is_disabled":false,"rental_uris":{"android":"levelo://app?vid=df93eae1-9a8e-44a7-a49c-a273a5b8de4d","ios":"levelo://app?vid=df93eae1-9a8e-44a7-a49c-a273a5b8de4d"},"vehicle_type_id":"4","last_reported":1768202351,"current_range_meters":2800,"station_id":"ce4bgl92rcd13ifvqbq0","pricing_plan_id":"cebpf4jnsgd1na2vs0mg"},{"bike_id":"202b9ed5-8993-43b0-b2e5-5a58a7060431","system_id":"levelo_inurba_marseille","lat":43.28087,"lon":5.39661,"is_reserved":false,"is_disabled":false,"rental_uris":{"android":"levelo://app?vid=202b9ed5-8993-43b0-b2e5-5a58a7060431","ios":"levelo://app?vid=202b9ed5-8993-43b0-b2e5-5a58a7060431"},"vehicle_type_id":"4","last_reported":1768202351,"current_range_meters":2800,"station_id":"ce4bho12rcd13ifvqh2g","pricing_plan_id":"cebpf4jnsgd1na2vs0mg"},{"bike_id":"a5337f9b-0649-40c4-b345-f05ac91e3439","system_id":"levelo_inurba_marseille","lat":43.30143,"lon":5.38074,"is_reserved":false,"is_disabled":false,"rental_uris":{"android":"levelo://app?vid=a5337f9b-0649-40c4-b345-f05ac91e3439","ios":"levelo://app?vid=a5337f9b-0649-40c4-b345-f05ac91e3439"},"vehicle_type_id":"4","last_reported":1768202351,"current_range_meters":2800,"station_id":"ce4bgjp2rcd13ifvqbh0","pricing_plan_id":"cebpf4jnsgd1na2vs0mg"},{"bike_id":"5aa482e6-221b-4498-a6a2-fec31f16d788","system_id":"levelo_inurba_marseille","lat":43.28476,"lon":5.48394,"is_reserved":false,"is_disabled":false,"rental_uris":{"android":"levelo://app?vid=5aa482e6-221b-4498-a6a2-fec31f16d788","ios":"levelo://app?vid=5aa482e6-221b-4498-a6a2-fec31f16d788"},"vehicle_type_id":"4","last_reported":1768202351,"current_range_meters":2800,"station_id":"","pricing_plan_id":"cebpf4jnsgd1na2vs0mg"},{"bike_id":"3cbdb5ea-16ea-4aa6-9268-abc3d127d7fe","system_id":"levelo_inurba_marseille","lat":43.29042,"lon":5.39953,"is_reserved":false,"is_disabled":false,"rental_uris":{"android":"levelo://app?vid=3cbdb5ea-16ea-4aa6-9268-abc3d127d7fe","ios":"levelo://app?vid=3cbdb5ea-16ea-4aa6-9268-abc3d127d7fe"},"vehicle_type_id":"4","last_reported":1768202351,"current_range_meters":2800,"station_id":"ce4bh392rcd13ifvqdm0","pricing_plan_id":"cebpf4jnsgd1na2vs0mg"},{"bike_id":"d58ceb75-ebd9-43bb-b023-4732441552f7","system_id":"levelo_inurba_marseille","lat":43.30148,"lon":5.38088,"is_reserved":false,"is_disabled":false,"rental_uris":{"android":"levelo://app?vid=d58ceb75-ebd9-43bb-b023-4732441552f7","ios":"levelo://app?vid=d58ceb75-ebd9-43bb-b023-4732441552f7"},"vehicle_type_id":"4","last_reported":1768202351,"current_range_meters":2800,"station_id":"ce4bgjp2rcd13ifvqbh0","pricing_plan_id":"cebpf4jnsgd1na2vs0mg"},{"bike_id":"9227257d-26df-4311-bdb9-080324817f5d","system_id":"levelo_inurba_marseille","lat":43.21757,"lon":5.34598,"is_reserved":false,"is_disabled":true,"rental_uris":{"android":"levelo://app?vid=9227257d-26df-4311-bdb9-080324817f5d","ios":"levelo://app?vid=9227257d-26df-4311-bdb9-080324817f5d"},"vehicle_type_id":"4","last_reported":1768202351,"current_range_meters":2800,"station_id":"st_cvj6r9ubvosntc0bgbag","pricing_plan_id":"cebpf4jnsgd1na2vs0mg"},{"bike_id":"fa4bb0d8-ba68-465b-864b-6be18ff84a1b","system_id":"levelo_inurba_marseille","lat":43.231898,"lon":5.355649,"is_reserved":false,"is_disabled":false,"rental_uris":{"android":"levelo://app?vid=fa4bb0d8-ba68-465b-864b-6be18ff84a1b","ios":"levelo://app?vid=fa4bb0d8-ba68-465b-864b-6be18ff84a1b"},"vehicle_type_id":"4","last_reported":1768202351,"current_range_meters":2800,"station_id":"ce4bhu92rcd13ifvqi70","pricing_plan_id":"cebpf4jnsgd1na2vs0mg"},{"bike_id":"827d3289-f5e2-4d9f-bd2d-eea9c84db47e","system_id":"levelo_inurba_marseille","lat":43.27988,"lon":5.40007,"is_reserved":false,"is_disabled":false,"rental_uris":{"android":"levelo://app?vid=827d3289-f5e2-4d9f-bd2d-eea9c84db47e","ios":"levelo://app?vid=827d3289-f5e2-4d9f-bd2d-eea9c84db47e"},"vehicle_type_id":"4","last_reported":1768202351,"current_range_meters":2800,"station_id":"ce4bho92rcd13ifvqh4g","pricing_plan_id":"cebpf4jnsgd1na2vs0mg"},{"bike_id":"b1372eab-0c68-4b21-aac9-1ec7d86e7629","system_id":"levelo_inurba_marseille","lat":43.31071,"lon":5.38357,"is_reserved":false,"is_disabled":false,"rental_uris":{"android":"levelo://app?vid=b1372eab-0c68-4b21-aac9-1ec7d86e7629","ios":"levelo://app?vid=b1372eab-0c68-4b21-aac9-1ec7d86e7629"},"vehicle_type_id":"4","last_reported":1768202351,"current_range_meters":3200,"station_id":"ce4bgv92rcd13ifvqcr0","pricing_plan_id":"cebpf4jnsgd1na2vs0mg"},{"bike_id":"0aae748a-9d13-417f-89f2-69e5221a26d0","system_id":"levelo_inurba_marseille","lat":43.24069,"lon":5.37754,"is_reserved":false,"is_disabled":false,"rental_uris":{"android":"levelo://app?vid=0aae748a-9d13-417f-89f2-69e5221a26d0","ios":"levelo://app?vid=0aae748a-9d13-417f-89f2-69e5221a26d0"},"vehicle_type_id":"4","last_reported":1768202351,"current_range_meters":3200,"station_id":"ce4bhnp2rcd13ifvqgvg","pricing_plan_id":"cebpf4jnsgd1na2vs0mg"},{"bike_id":"a086ce0c-3cff-47d2-ac7e-009ad7c5e69f","system_id":"levelo_inurba_marseille","lat":43.24075,"lon":5.37763,"is_reserved":false,"is_disabled":false,"rental_uris":{"android":"levelo://app?vid=a086ce0c-3cff-47d2-ac7e-009ad7c5e69f","ios":"levelo://app?vid=a086ce0c-3cff-47d2-ac7e-009ad7c5e69f"},"vehicle_type_id":"4","last_reported":1768202351,"current_range_meters":3200,"station_id":"ce4bhnp2rcd13ifvqgvg","pricing_plan_id":"cebpf4jnsgd1na2vs0mg"},{"bike_id":"c46739cb-8652-48d3-972f-9096dc83781a","system_id":"levelo_inurba_marseille","lat":43.2319,"lon":5.35548,"is_reserved":false,"is_disabled":false,"rental_uris":{"android":"levelo://app?vid=c46739cb-8652-48d3-972f-9096dc83781a","ios":"levelo://app?vid=c46739cb-8652-48d3-972f-9096dc83781a"},"vehicle_type_id":"4","last_reported":1768202351,"current_range_meters":3200,"station_id":"ce4bhu92rcd13ifvqi70","pricing_plan_id":"cebpf4jnsgd1na2vs0mg"},{"bike_id":"1d9a45b2-600d-49a9-83d7-695207541bf1","system_id":"levelo_inurba_marseille","lat":43.31481,"lon":5.37317,"is_reserved":false,"is_disabled":false,"rental_uris":{"android":"levelo://app?vid=1d9a45b2-600d-49a9-83d7-695207541bf1","ios":"levelo://app?vid=1d9a45b2-600d-49a9-83d7-695207541bf1"},"vehicle_type_id":"4","last_reported":1768202351,"current_range_meters":3200,"station_id":"ce4bgt12rcd13ifvqcd0","pricing_plan_id":"cebpf4jnsgd1na2vs0mg"},{"bike_id":"ca35d045-2c1b-44bb-b957-8f4166968359","system_id":"levelo_inurba_marseille","lat":43.26056,"lon":5.39403,"is_reserved":false,"is_disabled":false,"rental_uris":{"android":"levelo://app?vid=ca35d045-2c1b-44bb-b957-8f4166968359","ios":"levelo://app?vid=ca35d045-2c1b-44bb-b957-8f4166968359"},"vehicle_type_id":"4","last_reported":1768202351,"current_range_meters":3200,"station_id":"ce4bhh92rcd13ifvqfj0","pricing_plan_id":"cebpf4jnsgd1na2vs0mg"},{"bike_id":"668f657c-080f-48b0-9021-5fd57a58f9ab","system_id":"levelo_inurba_marseille","lat":43.29027,"lon":5.39962,"is_reserved":false,"is_disabled":false,"rental_uris":{"android":"levelo://app?vid=668f657c-080f-48b0-9021-5fd57a58f9ab","ios":"levelo://app?vid=668f657c-080f-48b0-9021-5fd57a58f9ab"},"vehicle_type_id":"4","last_reported":1768202351,"current_range_meters":3200,"station_id":"ce4bh392rcd13ifvqdm0","pricing_plan_id":"cebpf4jnsgd1na2vs0mg"},{"bike_id":"b9ad8918-ee82-4421-b391-1331ca898b13","system_id":"levelo_inurba_marseille","lat":43.29942,"lon":5.36557,"is_reserved":false,"is_disabled":false,"rental_uris":{"android":"levelo://app?vid=b9ad8918-ee82-4421-b391-1331ca898b13","ios":"levelo://app?vid=b9ad8918-ee82-4421-b391-1331ca898b13"},"vehicle_type_id":"4","last_reported":1768202351,"current_range_meters":3200,"station_id":"ce4bgm92rcd13ifvqbr0","pricing_plan_id":"cebpf4jnsgd1na2vs0mg"},{"bike_id":"077c8981-bea2-4e23-9f90-a06cf25901d0","system_id":"levelo_inurba_marseille","lat":43.29585,"lon":5.38041,"is_reserved":false,"is_disabled":false,"rental_uris":{"android":"levelo://app?vid=077c8981-bea2-4e23-9f90-a06cf25901d0","ios":"levelo://app?vid=077c8981-bea2-4e23-9f90-a06cf25901d0"},"vehicle_type_id":"4","last_reported":1768202351,"current_range_meters":3200,"station_id":"","pricing_plan_id":"cebpf4jnsgd1na2vs0mg"},{"bike_id":"20deb12c-ceb8-43c5-947f-5c42613ca033","system_id":"levelo_inurba_marseille","lat":43.28029,"lon":5.36956,"is_reserved":false,"is_disabled":false,"rental_uris":{"android":"levelo://app?vid=20deb12c-ceb8-43c5-947f-5c42613ca033","ios":"levelo://app?vid=20deb12c-ceb8-43c5-947f-5c42613ca033"},"vehicle_type_id":"4","last_reported":1768202351,"current_range_meters":3200,"station_id":"ce4bh692rcd13ifvqea0","pricing_plan_id":"cebpf4jnsgd1na2vs0mg"},{"bike_id":"a06d0bb1-33b8-4d04-b698-2f737264469a","system_id":"levelo_inurba_marseille","lat":43.30311,"lon":5.36895,"is_reserved":false,"is_disabled":false,"rental_uris":{"android":"levelo://app?vid=a06d0bb1-33b8-4d04-b698-2f737264469a","ios":"levelo://app?vid=a06d0bb1-33b8-4d04-b698-2f737264469a"},"vehicle_type_id":"4","last_reported":1768202351,"current_range_meters":3200,"station_id":"ce4bgqh2rcd13ifvqc5g","pricing_plan_id":"cebpf4jnsgd1na2vs0mg"},{"bike_id":"bec1bdf7-8c3e-466a-9564-9717af11359e","system_id":"levelo_inurba_marseille","lat":43.2464,"lon":5.38152,"is_reserved":false,"is_disabled":true,"rental_uris":{"android":"levelo://app?vid=bec1bdf7-8c3e-466a-9564-9717af11359e","ios":"levelo://app?vid=bec1bdf7-8c3e-466a-9564-9717af11359e"},"vehicle_type_id":"4","last_reported":1768202351,"current_range_meters":3200,"station_id":"ce4bhih2rcd13ifvqfr0","pricing_plan_id":"cebpf4jnsgd1na2vs0mg"},{"bike_id":"5c19822a-c497-4f67-8777-6169bef66dc3","system_id":"levelo_inurba_marseille","lat":43.225332,"lon":5.348298,"is_reserved":false,"is_disabled":false,"rental_uris":{"android":"levelo://app?vid=5c19822a-c497-4f67-8777-6169bef66dc3","ios":"levelo://app?vid=5c19822a-c497-4f67-8777-6169bef66dc3"},"vehicle_type_id":"4","last_reported":1768202351,"current_range_meters":3200,"station_id":"","pricing_plan_id":"cebpf4jnsgd1na2vs0mg"},{"bike_id":"cb084f06-9ca9-4aaa-9da0-9014bf81f35b","system_id":"levelo_inurba_marseille","lat":43.31068,"lon":5.38354,"is_reserved":false,"is_disabled":false,"rental_uris":{"android":"levelo://app?vid=cb084f06-9ca9-4aaa-9da0-9014bf81f35b","ios":"levelo://app?vid=cb084f06-9ca9-4aaa-9da0-9014bf81f35b"},"vehicle_type_id":"4","last_reported":1768202351,"current_range_meters":3200,"station_id":"ce4bgv92rcd13ifvqcr0","pricing_plan_id":"cebpf4jnsgd1na2vs0mg"},{"bike_id":"45d8ca9c-83b5-46fa-abec-3dfc830de414","system_id":"levelo_inurba_marseille","lat":43.27989,"lon":5.40013,"is_reserved":false,"is_disabled":false,"rental_uris":{"android":"levelo://app?vid=45d8ca9c-83b5-46fa-abec-3dfc830de414","ios":"levelo://app?vid=45d8ca9c-83b5-46fa-abec-3dfc830de414"},"vehicle_type_id":"4","last_reported":1768202351,"current_range_meters":3200,"station_id":"ce4bho92rcd13ifvqh4g","pricing_plan_id":"cebpf4jnsgd1na2vs0mg"},{"bike_id":"1abcea64-d377-4e7a-923d-3fe8699944bd","system_id":"levelo_inurba_marseille","lat":43.30622,"lon":5.39342,"is_reserved":false,"is_disabled":false,"rental_uris":{"android":"levelo://app?vid=1abcea64-d377-4e7a-923d-3fe8699944bd","ios":"levelo://app?vid=1abcea64-d377-4e7a-923d-3fe8699944bd"},"vehicle_type_id":"4","last_reported":1768202351,"current_range_meters":3200,"station_id":"ce4bh0p2rcd13ifvqd80","pricing_plan_id":"cebpf4jnsgd1na2vs0mg"},{"bike_id":"be8576a8-995a-45d7-bc62-cb26c280bb04","system_id":"levelo_inurba_marseille","lat":43.23217,"lon":5.35556,"is_reserved":false,"is_disabled":false,"rental_uris":{"android":"levelo://app?vid=be8576a8-995a-45d7-bc62-cb26c280bb04","ios":"levelo://app?vid=be8576a8-995a-45d7-bc62-cb26c280bb04"},"vehicle_type_id":"4","last_reported":1768202351,"current_range_meters":3200,"station_id":"ce4bhu92rcd13ifvqi70","pricing_plan_id":"cebpf4jnsgd1na2vs0mg"},{"bike_id":"7a2b1e2b-1f85-429f-9e31-eaf2f3b7d4a5","system_id":"levelo_inurba_marseille","lat":43.262074,"lon":5.37927,"is_reserved":false,"is_disabled":true,"rental_uris":{"android":"levelo://app?vid=7a2b1e2b-1f85-429f-9e31-eaf2f3b7d4a5","ios":"levelo://app?vid=7a2b1e2b-1f85-429f-9e31-eaf2f3b7d4a5"},"vehicle_type_id":"4","last_reported":1768202351,"current_range_meters":3600,"station_id":"","pricing_plan_id":"cebpf4jnsgd1na2vs0mg"},{"bike_id":"01755f55-961f-40b3-9e23-e95349abd649","system_id":"levelo_inurba_marseille","lat":43.26058,"lon":5.394,"is_reserved":false,"is_disabled":false,"rental_uris":{"android":"levelo://app?vid=01755f55-961f-40b3-9e23-e95349abd649","ios":"levelo://app?vid=01755f55-961f-40b3-9e23-e95349abd649"},"vehicle_type_id":"4","last_reported":1768202351,"current_range_meters":3600,"station_id":"ce4bhh92rcd13ifvqfj0","pricing_plan_id":"cebpf4jnsgd1na2vs0mg"},{"bike_id":"6f4243d7-a899-45df-9f36-5a28e263a49a","system_id":"levelo_inurba_marseille","lat":43.24467,"lon":5.42536,"is_reserved":false,"is_disabled":false,"rental_uris":{"android":"levelo://app?vid=6f4243d7-a899-45df-9f36-5a28e263a49a","ios":"levelo://app?vid=6f4243d7-a899-45df-9f36-5a28e263a49a"},"vehicle_type_id":"4","last_reported":1768202351,"current_range_meters":3600,"station_id":"st_d4a3vfp97mjs738cd8kg","pricing_plan_id":"cebpf4jnsgd1na2vs0mg"},{"bike_id":"b28f5267-d3a8-412a-9e5c-1e163dbc74b4","system_id":"levelo_inurba_marseille","lat":43.33597,"lon":5.41029,"is_reserved":false,"is_disabled":false,"rental_uris":{"android":"levelo://app?vid=b28f5267-d3a8-412a-9e5c-1e163dbc74b4","ios":"levelo://app?vid=b28f5267-d3a8-412a-9e5c-1e163dbc74b4"},"vehicle_type_id":"4","last_reported":1768202351,"current_range_meters":3600,"station_id":"ce4bhqh2rcd13ifvqhmg","pricing_plan_id":"cebpf4jnsgd1na2vs0mg"},{"bike_id":"4c7b2ffd-ccb0-48ab-a409-0108095ad067","system_id":"levelo_inurba_marseille","lat":43.23185,"lon":5.39984,"is_reserved":false,"is_disabled":true,"rental_uris":{"android":"levelo://app?vid=4c7b2ffd-ccb0-48ab-a409-0108095ad067","ios":"levelo://app?vid=4c7b2ffd-ccb0-48ab-a409-0108095ad067"},"vehicle_type_id":"4","last_reported":1768202351,"current_range_meters":3600,"station_id":"ce4bhn12rcd13ifvqgqg","pricing_plan_id":"cebpf4jnsgd1na2vs0mg"},{"bike_id":"7e1108e1-5682-4566-946e-f0e7236df3d1","system_id":"levelo_inurba_marseille","lat":43.270606,"lon":5.407669,"is_reserved":false,"is_disabled":false,"rental_uris":{"android":"levelo://app?vid=7e1108e1-5682-4566-946e-f0e7236df3d1","ios":"levelo://app?vid=7e1108e1-5682-4566-946e-f0e7236df3d1"},"vehicle_type_id":"4","last_reported":1768202351,"current_range_meters":3600,"station_id":"ce4bhl12rcd13ifvqgf0","pricing_plan_id":"cebpf4jnsgd1na2vs0mg"},{"bike_id":"b555239d-2168-4ba9-bdf4-8b711ca32acb","system_id":"levelo_inurba_marseille","lat":43.28479,"lon":5.48369,"is_reserved":false,"is_disabled":false,"rental_uris":{"android":"levelo://app?vid=b555239d-2168-4ba9-bdf4-8b711ca32acb","ios":"levelo://app?vid=b555239d-2168-4ba9-bdf4-8b711ca32acb"},"vehicle_type_id":"4","last_reported":1768202351,"current_range_meters":3600,"station_id":"","pricing_plan_id":"cebpf4jnsgd1na2vs0mg"},{"bike_id":"5ae46213-526f-49bc-859d-bd77a6272ad3","system_id":"levelo_inurba_marseille","lat":43.231886,"lon":5.399916,"is_reserved":false,"is_disabled":true,"rental_uris":{"android":"levelo://app?vid=5ae46213-526f-49bc-859d-bd77a6272ad3","ios":"levelo://app?vid=5ae46213-526f-49bc-859d-bd77a6272ad3"},"vehicle_type_id":"4","last_reported":1768202351,"current_range_meters":4000,"station_id":"ce4bhn12rcd13ifvqgqg","pricing_plan_id":"cebpf4jnsgd1na2vs0mg"},{"bike_id":"d51c867e-6960-4ef5-bfc9-aee0d3591b3a","system_id":"levelo_inurba_marseille","lat":43.24939,"lon":5.40512,"is_reserved":false,"is_disabled":false,"rental_uris":{"android":"levelo://app?vid=d51c867e-6960-4ef5-bfc9-aee0d3591b3a","ios":"levelo://app?vid=d51c867e-6960-4ef5-bfc9-aee0d3591b3a"},"vehicle_type_id":"4","last_reported":1768202351,"current_range_meters":4000,"station_id":"st_d2ngiaodas8pm72gd1h0","pricing_plan_id":"cebpf4jnsgd1na2vs0mg"},{"bike_id":"70164c08-8f57-4c6f-b7dd-76ca37d2ce10","system_id":"levelo_inurba_marseille","lat":43.24064,"lon":5.3773,"is_reserved":false,"is_disabled":false,"rental_uris":{"android":"levelo://app?vid=70164c08-8f57-4c6f-b7dd-76ca37d2ce10","ios":"levelo://app?vid=70164c08-8f57-4c6f-b7dd-76ca37d2ce10"},"vehicle_type_id":"4","last_reported":1768202351,"current_range_meters":4000,"station_id":"ce4bhnp2rcd13ifvqgvg","pricing_plan_id":"cebpf4jnsgd1na2vs0mg"},{"bike_id":"20de3ddf-3cfd-42ef-81e0-029c9589c76b","system_id":"levelo_inurba_marseille","lat":43.31552,"lon":5.38751,"is_reserved":false,"is_disabled":false,"rental_uris":{"android":"levelo://app?vid=20de3ddf-3cfd-42ef-81e0-029c9589c76b","ios":"levelo://app?vid=20de3ddf-3cfd-42ef-81e0-029c9589c76b"},"vehicle_type_id":"4","last_reported":1768202351,"current_range_meters":4000,"station_id":"","pricing_plan_id":"cebpf4jnsgd1na2vs0mg"},{"bike_id":"82868e60-7d2c-472d-ab36-3dd7691da624","system_id":"levelo_inurba_marseille","lat":43.25925,"lon":5.40903,"is_reserved":false,"is_disabled":false,"rental_uris":{"android":"levelo://app?vid=82868e60-7d2c-472d-ab36-3dd7691da624","ios":"levelo://app?vid=82868e60-7d2c-472d-ab36-3dd7691da624"},"vehicle_type_id":"4","last_reported":1768202351,"current_range_meters":4000,"station_id":"ce4bhm92rcd13ifvqglg","pricing_plan_id":"cebpf4jnsgd1na2vs0mg"},{"bike_id":"3d9ca8f9-ac9d-41f8-ad50-df6291e7a4c4","system_id":"levelo_inurba_marseille","lat":43.23191,"lon":5.35541,"is_reserved":false,"is_disabled":false,"rental_uris":{"android":"levelo://app?vid=3d9ca8f9-ac9d-41f8-ad50-df6291e7a4c4","ios":"levelo://app?vid=3d9ca8f9-ac9d-41f8-ad50-df6291e7a4c4"},"vehicle_type_id":"4","last_reported":1768202351,"current_range_meters":4000,"station_id":"ce4bhu92rcd13ifvqi70","pricing_plan_id":"cebpf4jnsgd1na2vs0mg"},{"bike_id":"f0ebc8c2-e687-4bde-b3f8-6d500df6884a","system_id":"levelo_inurba_marseille","lat":43.29891,"lon":5.4367,"is_reserved":false,"is_disabled":false,"rental_uris":{"android":"levelo://app?vid=f0ebc8c2-e687-4bde-b3f8-6d500df6884a","ios":"levelo://app?vid=f0ebc8c2-e687-4bde-b3f8-6d500df6884a"},"vehicle_type_id":"4","last_reported":1768202351,"current_range_meters":4000,"station_id":"ce4bhpp2rcd13ifvqhfg","pricing_plan_id":"cebpf4jnsgd1na2vs0mg"},{"bike_id":"79c0ba30-a8bc-455f-be6b-ed310d987a62","system_id":"levelo_inurba_marseille","lat":43.28848,"lon":5.39337,"is_reserved":false,"is_disabled":true,"rental_uris":{"android":"levelo://app?vid=79c0ba30-a8bc-455f-be6b-ed310d987a62","ios":"levelo://app?vid=79c0ba30-a8bc-455f-be6b-ed310d987a62"},"vehicle_type_id":"4","last_reported":1768202351,"current_range_meters":4000,"station_id":"ce4bh2p2rcd13ifvqdi0","pricing_plan_id":"cebpf4jnsgd1na2vs0mg"},{"bike_id":"930483c6-b0db-481d-b8ef-96c4bce4f1cf","system_id":"levelo_inurba_marseille","lat":43.23972,"lon":5.36614,"is_reserved":false,"is_disabled":false,"rental_uris":{"android":"levelo://app?vid=930483c6-b0db-481d-b8ef-96c4bce4f1cf","ios":"levelo://app?vid=930483c6-b0db-481d-b8ef-96c4bce4f1cf"},"vehicle_type_id":"4","last_reported":1768202351,"current_range_meters":4000,"station_id":"ce4bhi12rcd13ifvqfp0","pricing_plan_id":"cebpf4jnsgd1na2vs0mg"},{"bike_id":"4c3558f2-faf6-43e6-a593-3aae3d520ba3","system_id":"levelo_inurba_marseille","lat":43.30319,"lon":5.36908,"is_reserved":false,"is_disabled":false,"rental_uris":{"android":"levelo://app?vid=4c3558f2-faf6-43e6-a593-3aae3d520ba3","ios":"levelo://app?vid=4c3558f2-faf6-43e6-a593-3aae3d520ba3"},"vehicle_type_id":"4","last_reported":1768202351,"current_range_meters":4000,"station_id":"ce4bgqh2rcd13ifvqc5g","pricing_plan_id":"cebpf4jnsgd1na2vs0mg"},{"bike_id":"d9c321c1-bd42-4a0f-bd8a-d741d0e507f0","system_id":"levelo_inurba_marseille","lat":43.241673,"lon":5.363997,"is_reserved":false,"is_disabled":false,"rental_uris":{"android":"levelo://app?vid=d9c321c1-bd42-4a0f-bd8a-d741d0e507f0","ios":"levelo://app?vid=d9c321c1-bd42-4a0f-bd8a-d741d0e507f0"},"vehicle_type_id":"4","last_reported":1768202351,"current_range_meters":4000,"station_id":"cpo36qri1sfpv3e86is0","pricing_plan_id":"cebpf4jnsgd1na2vs0mg"},{"bike_id":"2b502982-b4ce-404e-ba25-50f38bdd9cf5","system_id":"levelo_inurba_marseille","lat":43.288652,"lon":5.425126,"is_reserved":false,"is_disabled":false,"rental_uris":{"android":"levelo://app?vid=2b502982-b4ce-404e-ba25-50f38bdd9cf5","ios":"levelo://app?vid=2b502982-b4ce-404e-ba25-50f38bdd9cf5"},"vehicle_type_id":"4","last_reported":1768202351,"current_range_meters":4000,"station_id":"st_d3b462108ojc7389ooeg","pricing_plan_id":"cebpf4jnsgd1na2vs0mg"},{"bike_id":"016decb5-a4fe-4d88-a583-364244f3b740","system_id":"levelo_inurba_marseille","lat":43.28619,"lon":5.35105,"is_reserved":false,"is_disabled":false,"rental_uris":{"android":"levelo://app?vid=016decb5-a4fe-4d88-a583-364244f3b740","ios":"levelo://app?vid=016decb5-a4fe-4d88-a583-364244f3b740"},"vehicle_type_id":"4","last_reported":1768202351,"current_range_meters":4000,"station_id":"ce4bhch2rcd13ifvqeug","pricing_plan_id":"cebpf4jnsgd1na2vs0mg"},{"bike_id":"0a9dda79-e367-4d97-9001-7fa7614c4cfb","system_id":"levelo_inurba_marseille","lat":43.29257,"lon":5.40906,"is_reserved":false,"is_disabled":false,"rental_uris":{"android":"levelo://app?vid=0a9dda79-e367-4d97-9001-7fa7614c4cfb","ios":"levelo://app?vid=0a9dda79-e367-4d97-9001-7fa7614c4cfb"},"vehicle_type_id":"4","last_reported":1768202351,"current_range_meters":4400,"station_id":"ce4bh192rcd13ifvqdc0","pricing_plan_id":"cebpf4jnsgd1na2vs0mg"},{"bike_id":"252022da-26ee-4d7f-abc8-1b488b81c896","system_id":"levelo_inurba_marseille","lat":43.3021,"lon":5.37091,"is_reserved":false,"is_disabled":false,"rental_uris":{"android":"levelo://app?vid=252022da-26ee-4d7f-abc8-1b488b81c896","ios":"levelo://app?vid=252022da-26ee-4d7f-abc8-1b488b81c896"},"vehicle_type_id":"4","last_reported":1768202351,"current_range_meters":4400,"station_id":"","pricing_plan_id":"cebpf4jnsgd1na2vs0mg"},{"bike_id":"c59d8b8e-cf5f-4322-970d-7755113b46c7","system_id":"levelo_inurba_marseille","lat":43.29459,"lon":5.43324,"is_reserved":false,"is_disabled":false,"rental_uris":{"android":"levelo://app?vid=c59d8b8e-cf5f-4322-970d-7755113b46c7","ios":"levelo://app?vid=c59d8b8e-cf5f-4322-970d-7755113b46c7"},"vehicle_type_id":"4","last_reported":1768202351,"current_range_meters":4400,"station_id":"st_d3j5ugp08ojc73fj9d10","pricing_plan_id":"cebpf4jnsgd1na2vs0mg"},{"bike_id":"ce168850-ad18-4118-b8c3-4df4ab978171","system_id":"levelo_inurba_marseille","lat":43.2954,"lon":5.3854,"is_reserved":false,"is_disabled":false,"rental_uris":{"android":"levelo://app?vid=ce168850-ad18-4118-b8c3-4df4ab978171","ios":"levelo://app?vid=ce168850-ad18-4118-b8c3-4df4ab978171"},"vehicle_type_id":"4","last_reported":1768202351,"current_range_meters":4400,"station_id":"ce4bgih2rcd13ifvqba0","pricing_plan_id":"cebpf4jnsgd1na2vs0mg"},{"bike_id":"7628e7a5-7b21-4849-a067-eb70db95c2b6","system_id":"levelo_inurba_marseille","lat":43.29895,"lon":5.43669,"is_reserved":false,"is_disabled":false,"rental_uris":{"android":"levelo://app?vid=7628e7a5-7b21-4849-a067-eb70db95c2b6","ios":"levelo://app?vid=7628e7a5-7b21-4849-a067-eb70db95c2b6"},"vehicle_type_id":"4","last_reported":1768202351,"current_range_meters":4400,"station_id":"ce4bhpp2rcd13ifvqhfg","pricing_plan_id":"cebpf4jnsgd1na2vs0mg"},{"bike_id":"8771cafb-fe34-46db-875c-729990005ab5","system_id":"levelo_inurba_marseille","lat":43.24071,"lon":5.37756,"is_reserved":false,"is_disabled":false,"rental_uris":{"android":"levelo://app?vid=8771cafb-fe34-46db-875c-729990005ab5","ios":"levelo://app?vid=8771cafb-fe34-46db-875c-729990005ab5"},"vehicle_type_id":"4","last_reported":1768202351,"current_range_meters":4400,"station_id":"ce4bhnp2rcd13ifvqgvg","pricing_plan_id":"cebpf4jnsgd1na2vs0mg"},{"bike_id":"9970f978-d332-4998-b118-01bc35c6b403","system_id":"levelo_inurba_marseille","lat":43.25565,"lon":5.38217,"is_reserved":false,"is_disabled":false,"rental_uris":{"android":"levelo://app?vid=9970f978-d332-4998-b118-01bc35c6b403","ios":"levelo://app?vid=9970f978-d332-4998-b118-01bc35c6b403"},"vehicle_type_id":"4","last_reported":1768202351,"current_range_meters":4400,"station_id":"ce4bhih2rcd13ifvqfs0","pricing_plan_id":"cebpf4jnsgd1na2vs0mg"},{"bike_id":"f1738cae-b37c-436c-93e9-f046d263b6fa","system_id":"levelo_inurba_marseille","lat":43.225301,"lon":5.348359,"is_reserved":false,"is_disabled":false,"rental_uris":{"android":"levelo://app?vid=f1738cae-b37c-436c-93e9-f046d263b6fa","ios":"levelo://app?vid=f1738cae-b37c-436c-93e9-f046d263b6fa"},"vehicle_type_id":"4","last_reported":1768202351,"current_range_meters":4400,"station_id":"","pricing_plan_id":"cebpf4jnsgd1na2vs0mg"},{"bike_id":"000bc33d-14bb-4ee3-8c98-01bdb8f48321","system_id":"levelo_inurba_marseille","lat":43.22552,"lon":5.41625,"is_reserved":false,"is_disabled":false,"rental_uris":{"android":"levelo://app?vid=000bc33d-14bb-4ee3-8c98-01bdb8f48321","ios":"levelo://app?vid=000bc33d-14bb-4ee3-8c98-01bdb8f48321"},"vehicle_type_id":"4","last_reported":1768202351,"current_range_meters":4400,"station_id":"st_d2o4gvlbi1j2169b742g","pricing_plan_id":"cebpf4jnsgd1na2vs0mg"},{"bike_id":"99b2f31a-2369-48a8-9140-818135cc867b","system_id":"levelo_inurba_marseille","lat":43.2439,"lon":5.37045,"is_reserved":false,"is_disabled":false,"rental_uris":{"android":"levelo://app?vid=99b2f31a-2369-48a8-9140-818135cc867b","ios":"levelo://app?vid=99b2f31a-2369-48a8-9140-818135cc867b"},"vehicle_type_id":"4","last_reported":1768202351,"current_range_meters":4400,"station_id":"ce4bhhh2rcd13ifvqfk0","pricing_plan_id":"cebpf4jnsgd1na2vs0mg"},{"bike_id":"8d3f99e8-e0d3-4ac2-bf02-cbd27ce4a64f","system_id":"levelo_inurba_marseille","lat":43.286223,"lon":5.351014,"is_reserved":false,"is_disabled":false,"rental_uris":{"android":"levelo://app?vid=8d3f99e8-e0d3-4ac2-bf02-cbd27ce4a64f","ios":"levelo://app?vid=8d3f99e8-e0d3-4ac2-bf02-cbd27ce4a64f"},"vehicle_type_id":"4","last_reported":1768202351,"current_range_meters":4400,"station_id":"ce4bhch2rcd13ifvqeug","pricing_plan_id":"cebpf4jnsgd1na2vs0mg"},{"bike_id":"c72dfa06-f246-4eb4-a47f-cc812e4e69c1","system_id":"levelo_inurba_marseille","lat":43.2397,"lon":5.3663,"is_reserved":false,"is_disabled":false,"rental_uris":{"android":"levelo://app?vid=c72dfa06-f246-4eb4-a47f-cc812e4e69c1","ios":"levelo://app?vid=c72dfa06-f246-4eb4-a47f-cc812e4e69c1"},"vehicle_type_id":"4","last_reported":1768202351,"current_range_meters":4400,"station_id":"ce4bhi12rcd13ifvqfp0","pricing_plan_id":"cebpf4jnsgd1na2vs0mg"},{"bike_id":"29eda372-6e58-4ba4-8257-095cc6078132","system_id":"levelo_inurba_marseille","lat":43.29793,"lon":5.38103,"is_reserved":false,"is_disabled":false,"rental_uris":{"android":"levelo://app?vid=29eda372-6e58-4ba4-8257-095cc6078132","ios":"levelo://app?vid=29eda372-6e58-4ba4-8257-095cc6078132"},"vehicle_type_id":"4","last_reported":1768202351,"current_range_meters":4400,"station_id":"ce4bgip2rcd13ifvqbb0","pricing_plan_id":"cebpf4jnsgd1na2vs0mg"},{"bike_id":"2ab98ffd-9337-4976-9b8c-00b288e144ae","system_id":"levelo_inurba_marseille","lat":43.2368,"lon":5.36075,"is_reserved":false,"is_disabled":false,"rental_uris":{"android":"levelo://app?vid=2ab98ffd-9337-4976-9b8c-00b288e144ae","ios":"levelo://app?vid=2ab98ffd-9337-4976-9b8c-00b288e144ae"},"vehicle_type_id":"4","last_reported":1768202351,"current_range_meters":4400,"station_id":"","pricing_plan_id":"cebpf4jnsgd1na2vs0mg"},{"bike_id":"d01cbaf4-4f71-47f8-877a-c178b0fccc8f","system_id":"levelo_inurba_marseille","lat":43.280841,"lon":5.396597,"is_reserved":false,"is_disabled":false,"rental_uris":{"android":"levelo://app?vid=d01cbaf4-4f71-47f8-877a-c178b0fccc8f","ios":"levelo://app?vid=d01cbaf4-4f71-47f8-877a-c178b0fccc8f"},"vehicle_type_id":"4","last_reported":1768202351,"current_range_meters":4400,"station_id":"ce4bho12rcd13ifvqh2g","pricing_plan_id":"cebpf4jnsgd1na2vs0mg"},{"bike_id":"0f4aa1f0-1d34-4e14-89b1-e12e93833b6d","system_id":"levelo_inurba_marseille","lat":43.25337,"lon":5.42179,"is_reserved":false,"is_disabled":false,"rental_uris":{"android":"levelo://app?vid=0f4aa1f0-1d34-4e14-89b1-e12e93833b6d","ios":"levelo://app?vid=0f4aa1f0-1d34-4e14-89b1-e12e93833b6d"},"vehicle_type_id":"4","last_reported":1768202351,"current_range_meters":4400,"station_id":"st_d2m65c5bi1j21697t3ng","pricing_plan_id":"cebpf4jnsgd1na2vs0mg"},{"bike_id":"25967d78-06d5-4ad7-9d4d-b678d8fdced2","system_id":"levelo_inurba_marseille","lat":43.28928,"lon":5.38396,"is_reserved":false,"is_disabled":false,"rental_uris":{"android":"levelo://app?vid=25967d78-06d5-4ad7-9d4d-b678d8fdced2","ios":"levelo://app?vid=25967d78-06d5-4ad7-9d4d-b678d8fdced2"},"vehicle_type_id":"4","last_reported":1768202351,"current_range_meters":4400,"station_id":"ce4bh612rcd13ifvqe6g","pricing_plan_id":"cebpf4jnsgd1na2vs0mg"},{"bike_id":"ca3b3526-aa1a-4458-b333-42bbeb544595","system_id":"levelo_inurba_marseille","lat":43.3015,"lon":5.38092,"is_reserved":false,"is_disabled":false,"rental_uris":{"android":"levelo://app?vid=ca3b3526-aa1a-4458-b333-42bbeb544595","ios":"levelo://app?vid=ca3b3526-aa1a-4458-b333-42bbeb544595"},"vehicle_type_id":"4","last_reported":1768202351,"current_range_meters":4800,"station_id":"ce4bgjp2rcd13ifvqbh0","pricing_plan_id":"cebpf4jnsgd1na2vs0mg"},{"bike_id":"947ce4af-bec6-4b27-9e63-ce65682eb248","system_id":"levelo_inurba_marseille","lat":43.32356,"lon":5.36746,"is_reserved":false,"is_disabled":false,"rental_uris":{"android":"levelo://app?vid=947ce4af-bec6-4b27-9e63-ce65682eb248","ios":"levelo://app?vid=947ce4af-bec6-4b27-9e63-ce65682eb248"},"vehicle_type_id":"4","last_reported":1768202351,"current_range_meters":4800,"station_id":"ce4bhsh2rcd13ifvqi2g","pricing_plan_id":"cebpf4jnsgd1na2vs0mg"},{"bike_id":"f97b3454-46a8-4580-aa1d-632b39531a16","system_id":"levelo_inurba_marseille","lat":43.29721,"lon":5.36601,"is_reserved":false,"is_disabled":false,"rental_uris":{"android":"levelo://app?vid=f97b3454-46a8-4580-aa1d-632b39531a16","ios":"levelo://app?vid=f97b3454-46a8-4580-aa1d-632b39531a16"},"vehicle_type_id":"4","last_reported":1768202351,"current_range_meters":4800,"station_id":"ce4bgn12rcd13ifvqbt0","pricing_plan_id":"cebpf4jnsgd1na2vs0mg"},{"bike_id":"b5e622b0-5126-4c46-aea7-514865fdad46","system_id":"levelo_inurba_marseille","lat":43.225,"lon":5.34836,"is_reserved":false,"is_disabled":false,"rental_uris":{"android":"levelo://app?vid=b5e622b0-5126-4c46-aea7-514865fdad46","ios":"levelo://app?vid=b5e622b0-5126-4c46-aea7-514865fdad46"},"vehicle_type_id":"4","last_reported":1768202351,"current_range_meters":4800,"station_id":"st_cvj5dfep6f1abm77gieg","pricing_plan_id":"cebpf4jnsgd1na2vs0mg"},{"bike_id":"dfd48d63-e5d1-4425-97d5-a11fee772bb6","system_id":"levelo_inurba_marseille","lat":43.25572,"lon":5.38248,"is_reserved":false,"is_disabled":false,"rental_uris":{"android":"levelo://app?vid=dfd48d63-e5d1-4425-97d5-a11fee772bb6","ios":"levelo://app?vid=dfd48d63-e5d1-4425-97d5-a11fee772bb6"},"vehicle_type_id":"4","last_reported":1768202351,"current_range_meters":4800,"station_id":"ce4bhih2rcd13ifvqfs0","pricing_plan_id":"cebpf4jnsgd1na2vs0mg"},{"bike_id":"bb2344d8-a1ee-4d35-a630-9f7958cde331","system_id":"levelo_inurba_marseille","lat":43.25571,"lon":5.38222,"is_reserved":false,"is_disabled":true,"rental_uris":{"android":"levelo://app?vid=bb2344d8-a1ee-4d35-a630-9f7958cde331","ios":"levelo://app?vid=bb2344d8-a1ee-4d35-a630-9f7958cde331"},"vehicle_type_id":"4","last_reported":1768202351,"current_range_meters":4800,"station_id":"ce4bhih2rcd13ifvqfs0","pricing_plan_id":"cebpf4jnsgd1na2vs0mg"},{"bike_id":"53285794-c62b-442b-9e6a-233ce6590272","system_id":"levelo_inurba_marseille","lat":43.245826,"lon":5.374825,"is_reserved":false,"is_disabled":false,"rental_uris":{"android":"levelo://app?vid=53285794-c62b-442b-9e6a-233ce6590272","ios":"levelo://app?vid=53285794-c62b-442b-9e6a-233ce6590272"},"vehicle_type_id":"4","last_reported":1768202351,"current_range_meters":4800,"station_id":"","pricing_plan_id":"cebpf4jnsgd1na2vs0mg"},{"bike_id":"c7c3fd4d-fd1d-4f8c-9546-aed8a4e8924a","system_id":"levelo_inurba_marseille","lat":43.27811,"lon":5.40704,"is_reserved":false,"is_disabled":false,"rental_uris":{"android":"levelo://app?vid=c7c3fd4d-fd1d-4f8c-9546-aed8a4e8924a","ios":"levelo://app?vid=c7c3fd4d-fd1d-4f8c-9546-aed8a4e8924a"},"vehicle_type_id":"4","last_reported":1768202351,"current_range_meters":4800,"station_id":"ce4bhnh2rcd13ifvqgtg","pricing_plan_id":"cebpf4jnsgd1na2vs0mg"},{"bike_id":"6869894f-67a0-4b58-8bae-911192c83f2f","system_id":"levelo_inurba_marseille","lat":43.3189,"lon":5.39983,"is_reserved":false,"is_disabled":false,"rental_uris":{"android":"levelo://app?vid=6869894f-67a0-4b58-8bae-911192c83f2f","ios":"levelo://app?vid=6869894f-67a0-4b58-8bae-911192c83f2f"},"vehicle_type_id":"4","last_reported":1768202351,"current_range_meters":4800,"station_id":"","pricing_plan_id":"cebpf4jnsgd1na2vs0mg"},{"bike_id":"7391bea9-cf28-4483-bef1-ec64b236fa58","system_id":"levelo_inurba_marseille","lat":43.22934,"lon":5.35377,"is_reserved":false,"is_disabled":false,"rental_uris":{"android":"levelo://app?vid=7391bea9-cf28-4483-bef1-ec64b236fa58","ios":"levelo://app?vid=7391bea9-cf28-4483-bef1-ec64b236fa58"},"vehicle_type_id":"4","last_reported":1768202351,"current_range_meters":5600,"station_id":"cpo3532slgdg3j2ikp40","pricing_plan_id":"cebpf4jnsgd1na2vs0mg"},{"bike_id":"784bade9-de85-4c9f-99c1-e1f7d025a70e","system_id":"levelo_inurba_marseille","lat":43.22553,"lon":5.41633,"is_reserved":false,"is_disabled":false,"rental_uris":{"android":"levelo://app?vid=784bade9-de85-4c9f-99c1-e1f7d025a70e","ios":"levelo://app?vid=784bade9-de85-4c9f-99c1-e1f7d025a70e"},"vehicle_type_id":"4","last_reported":1768202351,"current_range_meters":5600,"station_id":"st_d2o4gvlbi1j2169b742g","pricing_plan_id":"cebpf4jnsgd1na2vs0mg"},{"bike_id":"9d29015c-3bc7-4ec8-aed2-6d92b2b34058","system_id":"levelo_inurba_marseille","lat":43.27061,"lon":5.4025,"is_reserved":false,"is_disabled":false,"rental_uris":{"android":"levelo://app?vid=9d29015c-3bc7-4ec8-aed2-6d92b2b34058","ios":"levelo://app?vid=9d29015c-3bc7-4ec8-aed2-6d92b2b34058"},"vehicle_type_id":"4","last_reported":1768202351,"current_range_meters":5600,"station_id":"ce4bhk92rcd13ifvqgc0","pricing_plan_id":"cebpf4jnsgd1na2vs0mg"},{"bike_id":"2e17ea1e-1ee6-4b02-964a-826e174a77e9","system_id":"levelo_inurba_marseille","lat":43.27816,"lon":5.407,"is_reserved":false,"is_disabled":false,"rental_uris":{"android":"levelo://app?vid=2e17ea1e-1ee6-4b02-964a-826e174a77e9","ios":"levelo://app?vid=2e17ea1e-1ee6-4b02-964a-826e174a77e9"},"vehicle_type_id":"4","last_reported":1768202351,"current_range_meters":5600,"station_id":"ce4bhnh2rcd13ifvqgtg","pricing_plan_id":"cebpf4jnsgd1na2vs0mg"},{"bike_id":"439a61d5-d051-40af-9b0f-2926884e52eb","system_id":"levelo_inurba_marseille","lat":43.30725,"lon":5.40986,"is_reserved":false,"is_disabled":false,"rental_uris":{"android":"levelo://app?vid=439a61d5-d051-40af-9b0f-2926884e52eb","ios":"levelo://app?vid=439a61d5-d051-40af-9b0f-2926884e52eb"},"vehicle_type_id":"4","last_reported":1768202351,"current_range_meters":5600,"station_id":"","pricing_plan_id":"cebpf4jnsgd1na2vs0mg"},{"bike_id":"83e16bc7-29d6-4595-af9d-c81a8cdf3e20","system_id":"levelo_inurba_marseille","lat":43.3015,"lon":5.38079,"is_reserved":false,"is_disabled":false,"rental_uris":{"android":"levelo://app?vid=83e16bc7-29d6-4595-af9d-c81a8cdf3e20","ios":"levelo://app?vid=83e16bc7-29d6-4595-af9d-c81a8cdf3e20"},"vehicle_type_id":"4","last_reported":1768202351,"current_range_meters":5600,"station_id":"ce4bgjp2rcd13ifvqbh0","pricing_plan_id":"cebpf4jnsgd1na2vs0mg"},{"bike_id":"244b7538-163d-454d-823f-8b1f8b0c67c5","system_id":"levelo_inurba_marseille","lat":43.29434,"lon":5.39781,"is_reserved":false,"is_disabled":true,"rental_uris":{"android":"levelo://app?vid=244b7538-163d-454d-823f-8b1f8b0c67c5","ios":"levelo://app?vid=244b7538-163d-454d-823f-8b1f8b0c67c5"},"vehicle_type_id":"4","last_reported":1768202351,"current_range_meters":5600,"station_id":"ce4bh3h2rcd13ifvqdo0","pricing_plan_id":"cebpf4jnsgd1na2vs0mg"},{"bike_id":"861e06e5-2406-410c-ab55-9f8425549486","system_id":"levelo_inurba_marseille","lat":43.295746,"lon":5.399673,"is_reserved":false,"is_disabled":false,"rental_uris":{"android":"levelo://app?vid=861e06e5-2406-410c-ab55-9f8425549486","ios":"levelo://app?vid=861e06e5-2406-410c-ab55-9f8425549486"},"vehicle_type_id":"4","last_reported":1768202351,"current_range_meters":5600,"station_id":"ce4bh312rcd13ifvqdj0","pricing_plan_id":"cebpf4jnsgd1na2vs0mg"},{"bike_id":"51b59fd1-5a13-4a8a-9ea9-e6dfac4ad08f","system_id":"levelo_inurba_marseille","lat":43.29961,"lon":5.37185,"is_reserved":false,"is_disabled":false,"rental_uris":{"android":"levelo://app?vid=51b59fd1-5a13-4a8a-9ea9-e6dfac4ad08f","ios":"levelo://app?vid=51b59fd1-5a13-4a8a-9ea9-e6dfac4ad08f"},"vehicle_type_id":"4","last_reported":1768202351,"current_range_meters":5600,"station_id":"ce4bgr92rcd13ifvqc7g","pricing_plan_id":"cebpf4jnsgd1na2vs0mg"},{"bike_id":"d62f9e36-0176-47ea-b04e-e25d60615654","system_id":"levelo_inurba_marseille","lat":43.2648,"lon":5.39547,"is_reserved":false,"is_disabled":false,"rental_uris":{"android":"levelo://app?vid=d62f9e36-0176-47ea-b04e-e25d60615654","ios":"levelo://app?vid=d62f9e36-0176-47ea-b04e-e25d60615654"},"vehicle_type_id":"4","last_reported":1768202351,"current_range_meters":5600,"station_id":"ce4bhi12rcd13ifvqfq0","pricing_plan_id":"cebpf4jnsgd1na2vs0mg"},{"bike_id":"0b73420d-5361-4012-ba77-c47b2b377280","system_id":"levelo_inurba_marseille","lat":43.284743,"lon":5.384351,"is_reserved":false,"is_disabled":false,"rental_uris":{"android":"levelo://app?vid=0b73420d-5361-4012-ba77-c47b2b377280","ios":"levelo://app?vid=0b73420d-5361-4012-ba77-c47b2b377280"},"vehicle_type_id":"4","last_reported":1768202351,"current_range_meters":5600,"station_id":"ce4bh512rcd13ifvqe3g","pricing_plan_id":"cebpf4jnsgd1na2vs0mg"},{"bike_id":"d1d2b5b8-08c4-4846-a980-a1694a91c4bc","system_id":"levelo_inurba_marseille","lat":43.211921,"lon":5.350698,"is_reserved":false,"is_disabled":false,"rental_uris":{"android":"levelo://app?vid=d1d2b5b8-08c4-4846-a980-a1694a91c4bc","ios":"levelo://app?vid=d1d2b5b8-08c4-4846-a980-a1694a91c4bc"},"vehicle_type_id":"4","last_reported":1768202351,"current_range_meters":5600,"station_id":"st_cvj6sg6p6f1abm77japg","pricing_plan_id":"cebpf4jnsgd1na2vs0mg"},{"bike_id":"affd63c6-b8a1-443d-bb79-e5ac663010fa","system_id":"levelo_inurba_marseille","lat":43.31553,"lon":5.39837,"is_reserved":false,"is_disabled":false,"rental_uris":{"android":"levelo://app?vid=affd63c6-b8a1-443d-bb79-e5ac663010fa","ios":"levelo://app?vid=affd63c6-b8a1-443d-bb79-e5ac663010fa"},"vehicle_type_id":"4","last_reported":1768202351,"current_range_meters":5600,"station_id":"","pricing_plan_id":"cebpf4jnsgd1na2vs0mg"},{"bike_id":"c59f5a79-013e-434e-937e-1cdde0b23ac2","system_id":"levelo_inurba_marseille","lat":43.25331,"lon":5.42169,"is_reserved":false,"is_disabled":false,"rental_uris":{"android":"levelo://app?vid=c59f5a79-013e-434e-937e-1cdde0b23ac2","ios":"levelo://app?vid=c59f5a79-013e-434e-937e-1cdde0b23ac2"},"vehicle_type_id":"4","last_reported":1768202351,"current_range_meters":5600,"station_id":"st_d2m65c5bi1j21697t3ng","pricing_plan_id":"cebpf4jnsgd1na2vs0mg"},{"bike_id":"15687bc0-05f1-4300-868e-707e755d590d","system_id":"levelo_inurba_marseille","lat":43.27674,"lon":5.38868,"is_reserved":false,"is_disabled":false,"rental_uris":{"android":"levelo://app?vid=15687bc0-05f1-4300-868e-707e755d590d","ios":"levelo://app?vid=15687bc0-05f1-4300-868e-707e755d590d"},"vehicle_type_id":"4","last_reported":1768202351,"current_range_meters":6000,"station_id":"ce4bhi12rcd13ifvqfo0","pricing_plan_id":"cebpf4jnsgd1na2vs0mg"},{"bike_id":"4bb0d39c-53f9-41fa-85e4-2bccc60ee9cf","system_id":"levelo_inurba_marseille","lat":43.319911,"lon":5.38163,"is_reserved":false,"is_disabled":false,"rental_uris":{"android":"levelo://app?vid=4bb0d39c-53f9-41fa-85e4-2bccc60ee9cf","ios":"levelo://app?vid=4bb0d39c-53f9-41fa-85e4-2bccc60ee9cf"},"vehicle_type_id":"4","last_reported":1768202351,"current_range_meters":6000,"station_id":"ce4bhr12rcd13ifvqhpg","pricing_plan_id":"cebpf4jnsgd1na2vs0mg"},{"bike_id":"748968f8-327c-4969-9ba7-2d3fe0ea40f7","system_id":"levelo_inurba_marseille","lat":43.29508,"lon":5.39633,"is_reserved":false,"is_disabled":false,"rental_uris":{"android":"levelo://app?vid=748968f8-327c-4969-9ba7-2d3fe0ea40f7","ios":"levelo://app?vid=748968f8-327c-4969-9ba7-2d3fe0ea40f7"},"vehicle_type_id":"4","last_reported":1768202351,"current_range_meters":6000,"station_id":"","pricing_plan_id":"cebpf4jnsgd1na2vs0mg"},{"bike_id":"739b9c75-e4e2-4afd-940a-adf7aa79d965","system_id":"levelo_inurba_marseille","lat":43.265675,"lon":5.390224,"is_reserved":false,"is_disabled":false,"rental_uris":{"android":"levelo://app?vid=739b9c75-e4e2-4afd-940a-adf7aa79d965","ios":"levelo://app?vid=739b9c75-e4e2-4afd-940a-adf7aa79d965"},"vehicle_type_id":"4","last_reported":1768202351,"current_range_meters":6000,"station_id":"ce4bhe12rcd13ifvqf30","pricing_plan_id":"cebpf4jnsgd1na2vs0mg"},{"bike_id":"e48607cd-b2f5-4b5a-9c6c-86ffe0a63554","system_id":"levelo_inurba_marseille","lat":43.24396,"lon":5.37092,"is_reserved":false,"is_disabled":false,"rental_uris":{"android":"levelo://app?vid=e48607cd-b2f5-4b5a-9c6c-86ffe0a63554","ios":"levelo://app?vid=e48607cd-b2f5-4b5a-9c6c-86ffe0a63554"},"vehicle_type_id":"4","last_reported":1768202351,"current_range_meters":6000,"station_id":"ce4bhhh2rcd13ifvqfk0","pricing_plan_id":"cebpf4jnsgd1na2vs0mg"},{"bike_id":"ed2cd03a-66bb-4e81-9432-86bceab963be","system_id":"levelo_inurba_marseille","lat":43.22567,"lon":5.41614,"is_reserved":false,"is_disabled":false,"rental_uris":{"android":"levelo://app?vid=ed2cd03a-66bb-4e81-9432-86bceab963be","ios":"levelo://app?vid=ed2cd03a-66bb-4e81-9432-86bceab963be"},"vehicle_type_id":"4","last_reported":1768202351,"current_range_meters":6000,"station_id":"st_d2o4gvlbi1j2169b742g","pricing_plan_id":"cebpf4jnsgd1na2vs0mg"},{"bike_id":"1f38f0a0-9d5e-4cb4-93c5-d4ef43fbf00e","system_id":"levelo_inurba_marseille","lat":43.30608,"lon":5.37134,"is_reserved":false,"is_disabled":false,"rental_uris":{"android":"levelo://app?vid=1f38f0a0-9d5e-4cb4-93c5-d4ef43fbf00e","ios":"levelo://app?vid=1f38f0a0-9d5e-4cb4-93c5-d4ef43fbf00e"},"vehicle_type_id":"4","last_reported":1768202351,"current_range_meters":6000,"station_id":"","pricing_plan_id":"cebpf4jnsgd1na2vs0mg"},{"bike_id":"d6610694-e4fb-4890-8dcd-457c7a411544","system_id":"levelo_inurba_marseille","lat":43.29519,"lon":5.37503,"is_reserved":false,"is_disabled":false,"rental_uris":{"android":"levelo://app?vid=d6610694-e4fb-4890-8dcd-457c7a411544","ios":"levelo://app?vid=d6610694-e4fb-4890-8dcd-457c7a411544"},"vehicle_type_id":"4","last_reported":1768202351,"current_range_meters":6000,"station_id":"ce4bgkp2rcd13ifvqbmg","pricing_plan_id":"cebpf4jnsgd1na2vs0mg"},{"bike_id":"cfa9d431-0c3a-47b2-bafd-95922015c415","system_id":"levelo_inurba_marseille","lat":43.31837,"lon":5.37681,"is_reserved":false,"is_disabled":false,"rental_uris":{"android":"levelo://app?vid=cfa9d431-0c3a-47b2-bafd-95922015c415","ios":"levelo://app?vid=cfa9d431-0c3a-47b2-bafd-95922015c415"},"vehicle_type_id":"4","last_reported":1768202351,"current_range_meters":6000,"station_id":"","pricing_plan_id":"cebpf4jnsgd1na2vs0mg"},{"bike_id":"d9ce34fe-fe90-4e47-b6ba-341532773938","system_id":"levelo_inurba_marseille","lat":43.24074,"lon":5.3776,"is_reserved":false,"is_disabled":false,"rental_uris":{"android":"levelo://app?vid=d9ce34fe-fe90-4e47-b6ba-341532773938","ios":"levelo://app?vid=d9ce34fe-fe90-4e47-b6ba-341532773938"},"vehicle_type_id":"4","last_reported":1768202351,"current_range_meters":6000,"station_id":"ce4bhnp2rcd13ifvqgvg","pricing_plan_id":"cebpf4jnsgd1na2vs0mg"},{"bike_id":"cfc31cb0-49ca-4b30-8c65-0b6d74754b4a","system_id":"levelo_inurba_marseille","lat":43.28608,"lon":5.42674,"is_reserved":false,"is_disabled":false,"rental_uris":{"android":"levelo://app?vid=cfc31cb0-49ca-4b30-8c65-0b6d74754b4a","ios":"levelo://app?vid=cfc31cb0-49ca-4b30-8c65-0b6d74754b4a"},"vehicle_type_id":"4","last_reported":1768202351,"current_range_meters":6000,"station_id":"","pricing_plan_id":"cebpf4jnsgd1na2vs0mg"},{"bike_id":"cbc05215-eae3-482c-8a83-406d798cd6ab","system_id":"levelo_inurba_marseille","lat":43.241664,"lon":5.363943,"is_reserved":false,"is_disabled":false,"rental_uris":{"android":"levelo://app?vid=cbc05215-eae3-482c-8a83-406d798cd6ab","ios":"levelo://app?vid=cbc05215-eae3-482c-8a83-406d798cd6ab"},"vehicle_type_id":"4","last_reported":1768202351,"current_range_meters":6000,"station_id":"cpo36qri1sfpv3e86is0","pricing_plan_id":"cebpf4jnsgd1na2vs0mg"},{"bike_id":"e69a6ed5-b514-48b2-8369-f158471012bc","system_id":"levelo_inurba_marseille","lat":43.225339,"lon":5.348392,"is_reserved":false,"is_disabled":false,"rental_uris":{"android":"levelo://app?vid=e69a6ed5-b514-48b2-8369-f158471012bc","ios":"levelo://app?vid=e69a6ed5-b514-48b2-8369-f158471012bc"},"vehicle_type_id":"4","last_reported":1768202351,"current_range_meters":6000,"station_id":"","pricing_plan_id":"cebpf4jnsgd1na2vs0mg"},{"bike_id":"0fee359e-fd0a-419a-8bad-68dfffe61373","system_id":"levelo_inurba_marseille","lat":43.32527,"lon":5.40673,"is_reserved":false,"is_disabled":false,"rental_uris":{"android":"levelo://app?vid=0fee359e-fd0a-419a-8bad-68dfffe61373","ios":"levelo://app?vid=0fee359e-fd0a-419a-8bad-68dfffe61373"},"vehicle_type_id":"4","last_reported":1768202351,"current_range_meters":6000,"station_id":"","pricing_plan_id":"cebpf4jnsgd1na2vs0mg"},{"bike_id":"0ee05af5-25e8-44b9-9b8c-5cd2d5665069","system_id":"levelo_inurba_marseille","lat":43.231973,"lon":5.355431,"is_reserved":false,"is_disabled":false,"rental_uris":{"android":"levelo://app?vid=0ee05af5-25e8-44b9-9b8c-5cd2d5665069","ios":"levelo://app?vid=0ee05af5-25e8-44b9-9b8c-5cd2d5665069"},"vehicle_type_id":"4","last_reported":1768202351,"current_range_meters":6000,"station_id":"ce4bhu92rcd13ifvqi70","pricing_plan_id":"cebpf4jnsgd1na2vs0mg"},{"bike_id":"21c109ac-e8ef-4037-9186-0bc96f2921c1","system_id":"levelo_inurba_marseille","lat":43.23204,"lon":5.35563,"is_reserved":false,"is_disabled":false,"rental_uris":{"android":"levelo://app?vid=21c109ac-e8ef-4037-9186-0bc96f2921c1","ios":"levelo://app?vid=21c109ac-e8ef-4037-9186-0bc96f2921c1"},"vehicle_type_id":"4","last_reported":1768202351,"current_range_meters":6000,"station_id":"ce4bhu92rcd13ifvqi70","pricing_plan_id":"cebpf4jnsgd1na2vs0mg"},{"bike_id":"9eca2961-2c23-4aca-b3c7-bf4fc3359b46","system_id":"levelo_inurba_marseille","lat":43.24162,"lon":5.36392,"is_reserved":false,"is_disabled":false,"rental_uris":{"android":"levelo://app?vid=9eca2961-2c23-4aca-b3c7-bf4fc3359b46","ios":"levelo://app?vid=9eca2961-2c23-4aca-b3c7-bf4fc3359b46"},"vehicle_type_id":"4","last_reported":1768202351,"current_range_meters":6400,"station_id":"cpo36qri1sfpv3e86is0","pricing_plan_id":"cebpf4jnsgd1na2vs0mg"},{"bike_id":"4aeb7be4-6540-4819-a2a5-714be90ccdb8","system_id":"levelo_inurba_marseille","lat":43.314849,"lon":5.373079,"is_reserved":false,"is_disabled":false,"rental_uris":{"android":"levelo://app?vid=4aeb7be4-6540-4819-a2a5-714be90ccdb8","ios":"levelo://app?vid=4aeb7be4-6540-4819-a2a5-714be90ccdb8"},"vehicle_type_id":"4","last_reported":1768202351,"current_range_meters":6400,"station_id":"ce4bgt12rcd13ifvqcd0","pricing_plan_id":"cebpf4jnsgd1na2vs0mg"},{"bike_id":"42f33adc-fe65-4ac4-9016-fac52b6274ac","system_id":"levelo_inurba_marseille","lat":43.25347,"lon":5.42159,"is_reserved":false,"is_disabled":false,"rental_uris":{"android":"levelo://app?vid=42f33adc-fe65-4ac4-9016-fac52b6274ac","ios":"levelo://app?vid=42f33adc-fe65-4ac4-9016-fac52b6274ac"},"vehicle_type_id":"4","last_reported":1768202351,"current_range_meters":6400,"station_id":"st_d2m65c5bi1j21697t3ng","pricing_plan_id":"cebpf4jnsgd1na2vs0mg"},{"bike_id":"c7aa20f8-983d-45fa-8f15-bc3b76c15f97","system_id":"levelo_inurba_marseille","lat":43.32321,"lon":5.37061,"is_reserved":false,"is_disabled":false,"rental_uris":{"android":"levelo://app?vid=c7aa20f8-983d-45fa-8f15-bc3b76c15f97","ios":"levelo://app?vid=c7aa20f8-983d-45fa-8f15-bc3b76c15f97"},"vehicle_type_id":"4","last_reported":1768202351,"current_range_meters":6400,"station_id":"","pricing_plan_id":"cebpf4jnsgd1na2vs0mg"},{"bike_id":"c0e1b22c-9e67-43eb-b8e9-683099f38799","system_id":"levelo_inurba_marseille","lat":43.28717,"lon":5.37957,"is_reserved":false,"is_disabled":false,"rental_uris":{"android":"levelo://app?vid=c0e1b22c-9e67-43eb-b8e9-683099f38799","ios":"levelo://app?vid=c0e1b22c-9e67-43eb-b8e9-683099f38799"},"vehicle_type_id":"4","last_reported":1768202351,"current_range_meters":6400,"station_id":"","pricing_plan_id":"cebpf4jnsgd1na2vs0mg"},{"bike_id":"8c2fa2bb-62c3-4e34-9fe1-d67d65e692b3","system_id":"levelo_inurba_marseille","lat":43.23191,"lon":5.39989,"is_reserved":false,"is_disabled":true,"rental_uris":{"android":"levelo://app?vid=8c2fa2bb-62c3-4e34-9fe1-d67d65e692b3","ios":"levelo://app?vid=8c2fa2bb-62c3-4e34-9fe1-d67d65e692b3"},"vehicle_type_id":"4","last_reported":1768202351,"current_range_meters":6400,"station_id":"ce4bhn12rcd13ifvqgqg","pricing_plan_id":"cebpf4jnsgd1na2vs0mg"},{"bike_id":"097b1db9-7cfb-4c5a-94d5-72ec3ba5c8b3","system_id":"levelo_inurba_marseille","lat":43.28001,"lon":5.40895,"is_reserved":false,"is_disabled":false,"rental_uris":{"android":"levelo://app?vid=097b1db9-7cfb-4c5a-94d5-72ec3ba5c8b3","ios":"levelo://app?vid=097b1db9-7cfb-4c5a-94d5-72ec3ba5c8b3"},"vehicle_type_id":"4","last_reported":1768202351,"current_range_meters":6400,"station_id":"","pricing_plan_id":"cebpf4jnsgd1na2vs0mg"},{"bike_id":"95172e0d-44d7-4bb1-abdc-dd3fd118e056","system_id":"levelo_inurba_marseille","lat":43.2798,"lon":5.41618,"is_reserved":false,"is_disabled":false,"rental_uris":{"android":"levelo://app?vid=95172e0d-44d7-4bb1-abdc-dd3fd118e056","ios":"levelo://app?vid=95172e0d-44d7-4bb1-abdc-dd3fd118e056"},"vehicle_type_id":"4","last_reported":1768202351,"current_range_meters":6400,"station_id":"ce4bho12rcd13ifvqh1g","pricing_plan_id":"cebpf4jnsgd1na2vs0mg"},{"bike_id":"c28651f8-c7f3-47c0-a854-7c444378edc7","system_id":"levelo_inurba_marseille","lat":43.2408,"lon":5.37755,"is_reserved":false,"is_disabled":false,"rental_uris":{"android":"levelo://app?vid=c28651f8-c7f3-47c0-a854-7c444378edc7","ios":"levelo://app?vid=c28651f8-c7f3-47c0-a854-7c444378edc7"},"vehicle_type_id":"4","last_reported":1768202351,"current_range_meters":6400,"station_id":"ce4bhnp2rcd13ifvqgvg","pricing_plan_id":"cebpf4jnsgd1na2vs0mg"},{"bike_id":"c2ad736a-0f34-4b3e-820d-2640a768895d","system_id":"levelo_inurba_marseille","lat":43.22925,"lon":5.353746,"is_reserved":false,"is_disabled":true,"rental_uris":{"android":"levelo://app?vid=c2ad736a-0f34-4b3e-820d-2640a768895d","ios":"levelo://app?vid=c2ad736a-0f34-4b3e-820d-2640a768895d"},"vehicle_type_id":"4","last_reported":1768202351,"current_range_meters":6400,"station_id":"cpo3532slgdg3j2ikp40","pricing_plan_id":"cebpf4jnsgd1na2vs0mg"},{"bike_id":"99fe5b1b-414f-4991-bd96-50c5447c2892","system_id":"levelo_inurba_marseille","lat":43.27491,"lon":5.42452,"is_reserved":false,"is_disabled":false,"rental_uris":{"android":"levelo://app?vid=99fe5b1b-414f-4991-bd96-50c5447c2892","ios":"levelo://app?vid=99fe5b1b-414f-4991-bd96-50c5447c2892"},"vehicle_type_id":"4","last_reported":1768202351,"current_range_meters":6400,"station_id":"ce4bhn92rcd13ifvqgrg","pricing_plan_id":"cebpf4jnsgd1na2vs0mg"},{"bike_id":"4c324f28-3fc8-49aa-b16d-f3785a697b6c","system_id":"levelo_inurba_marseille","lat":43.23785,"lon":5.36634,"is_reserved":false,"is_disabled":false,"rental_uris":{"android":"levelo://app?vid=4c324f28-3fc8-49aa-b16d-f3785a697b6c","ios":"levelo://app?vid=4c324f28-3fc8-49aa-b16d-f3785a697b6c"},"vehicle_type_id":"4","last_reported":1768202351,"current_range_meters":6400,"station_id":"st_d3nk18o9ro0c73en2l3g","pricing_plan_id":"cebpf4jnsgd1na2vs0mg"},{"bike_id":"2c1915d0-311d-4e77-9e27-66701e5c904e","system_id":"levelo_inurba_marseille","lat":43.28714,"lon":5.37928,"is_reserved":false,"is_disabled":false,"rental_uris":{"android":"levelo://app?vid=2c1915d0-311d-4e77-9e27-66701e5c904e","ios":"levelo://app?vid=2c1915d0-311d-4e77-9e27-66701e5c904e"},"vehicle_type_id":"4","last_reported":1768202351,"current_range_meters":6400,"station_id":"ce4bh9p2rcd13ifvqec0","pricing_plan_id":"cebpf4jnsgd1na2vs0mg"},{"bike_id":"53cc5848-250b-4b4f-bfbb-ba807720f5e8","system_id":"levelo_inurba_marseille","lat":43.24072,"lon":5.37762,"is_reserved":false,"is_disabled":false,"rental_uris":{"android":"levelo://app?vid=53cc5848-250b-4b4f-bfbb-ba807720f5e8","ios":"levelo://app?vid=53cc5848-250b-4b4f-bfbb-ba807720f5e8"},"vehicle_type_id":"4","last_reported":1768202351,"current_range_meters":6400,"station_id":"ce4bhnp2rcd13ifvqgvg","pricing_plan_id":"cebpf4jnsgd1na2vs0mg"},{"bike_id":"6522ac43-c756-4e37-93af-edc798cc6e23","system_id":"levelo_inurba_marseille","lat":43.22926,"lon":5.35365,"is_reserved":false,"is_disabled":false,"rental_uris":{"android":"levelo://app?vid=6522ac43-c756-4e37-93af-edc798cc6e23","ios":"levelo://app?vid=6522ac43-c756-4e37-93af-edc798cc6e23"},"vehicle_type_id":"4","last_reported":1768202351,"current_range_meters":6400,"station_id":"cpo3532slgdg3j2ikp40","pricing_plan_id":"cebpf4jnsgd1na2vs0mg"},{"bike_id":"551e9f37-b525-4909-9e6e-0277dfd85b6b","system_id":"levelo_inurba_marseille","lat":43.22569,"lon":5.416,"is_reserved":false,"is_disabled":false,"rental_uris":{"android":"levelo://app?vid=551e9f37-b525-4909-9e6e-0277dfd85b6b","ios":"levelo://app?vid=551e9f37-b525-4909-9e6e-0277dfd85b6b"},"vehicle_type_id":"4","last_reported":1768202351,"current_range_meters":6400,"station_id":"st_d2o4gvlbi1j2169b742g","pricing_plan_id":"cebpf4jnsgd1na2vs0mg"},{"bike_id":"07a32d16-45a0-40b0-89c4-1e07c8d6c201","system_id":"levelo_inurba_marseille","lat":43.26954,"lon":5.38638,"is_reserved":false,"is_disabled":false,"rental_uris":{"android":"levelo://app?vid=07a32d16-45a0-40b0-89c4-1e07c8d6c201","ios":"levelo://app?vid=07a32d16-45a0-40b0-89c4-1e07c8d6c201"},"vehicle_type_id":"4","last_reported":1768202351,"current_range_meters":6400,"station_id":"ce4bhh92rcd13ifvqfh0","pricing_plan_id":"cebpf4jnsgd1na2vs0mg"},{"bike_id":"c7c7fbe4-26ef-4dcf-8f81-a3674c0e5989","system_id":"levelo_inurba_marseille","lat":43.24657,"lon":5.38177,"is_reserved":false,"is_disabled":false,"rental_uris":{"android":"levelo://app?vid=c7c7fbe4-26ef-4dcf-8f81-a3674c0e5989","ios":"levelo://app?vid=c7c7fbe4-26ef-4dcf-8f81-a3674c0e5989"},"vehicle_type_id":"4","last_reported":1768202351,"current_range_meters":6400,"station_id":"ce4bhih2rcd13ifvqfr0","pricing_plan_id":"cebpf4jnsgd1na2vs0mg"},{"bike_id":"c2c1ba97-a941-4092-a943-5a77dff3cad5","system_id":"levelo_inurba_marseille","lat":43.30423,"lon":5.39738,"is_reserved":false,"is_disabled":true,"rental_uris":{"android":"levelo://app?vid=c2c1ba97-a941-4092-a943-5a77dff3cad5","ios":"levelo://app?vid=c2c1ba97-a941-4092-a943-5a77dff3cad5"},"vehicle_type_id":"4","last_reported":1768202351,"current_range_meters":6400,"station_id":"ce4bh092rcd13ifvqd20","pricing_plan_id":"cebpf4jnsgd1na2vs0mg"},{"bike_id":"c09077fd-b45e-4923-87ed-8f3d3b3f4e4e","system_id":"levelo_inurba_marseille","lat":43.28478,"lon":5.48397,"is_reserved":false,"is_disabled":false,"rental_uris":{"android":"levelo://app?vid=c09077fd-b45e-4923-87ed-8f3d3b3f4e4e","ios":"levelo://app?vid=c09077fd-b45e-4923-87ed-8f3d3b3f4e4e"},"vehicle_type_id":"4","last_reported":1768202351,"current_range_meters":6400,"station_id":"","pricing_plan_id":"cebpf4jnsgd1na2vs0mg"},{"bike_id":"4437dd31-8a75-43c0-a1c3-19f6bd7a371a","system_id":"levelo_inurba_marseille","lat":43.33269,"lon":5.41172,"is_reserved":false,"is_disabled":false,"rental_uris":{"android":"levelo://app?vid=4437dd31-8a75-43c0-a1c3-19f6bd7a371a","ios":"levelo://app?vid=4437dd31-8a75-43c0-a1c3-19f6bd7a371a"},"vehicle_type_id":"4","last_reported":1768202351,"current_range_meters":6400,"station_id":"","pricing_plan_id":"cebpf4jnsgd1na2vs0mg"},{"bike_id":"0029105a-7810-4315-9d79-ce4d3ad076e9","system_id":"levelo_inurba_marseille","lat":43.30732,"lon":5.4244,"is_reserved":false,"is_disabled":false,"rental_uris":{"android":"levelo://app?vid=0029105a-7810-4315-9d79-ce4d3ad076e9","ios":"levelo://app?vid=0029105a-7810-4315-9d79-ce4d3ad076e9"},"vehicle_type_id":"4","last_reported":1768202351,"current_range_meters":6800,"station_id":"st_cvj6ca6bvosntc0bfgr0","pricing_plan_id":"cebpf4jnsgd1na2vs0mg"},{"bike_id":"3b05d4eb-8bd1-4878-bb96-9f98dad333b9","system_id":"levelo_inurba_marseille","lat":43.30367,"lon":5.37326,"is_reserved":false,"is_disabled":false,"rental_uris":{"android":"levelo://app?vid=3b05d4eb-8bd1-4878-bb96-9f98dad333b9","ios":"levelo://app?vid=3b05d4eb-8bd1-4878-bb96-9f98dad333b9"},"vehicle_type_id":"4","last_reported":1768202351,"current_range_meters":6800,"station_id":"","pricing_plan_id":"cebpf4jnsgd1na2vs0mg"},{"bike_id":"5407d723-4a9f-44fb-96cd-4d21d8607664","system_id":"levelo_inurba_marseille","lat":43.29194,"lon":5.35802,"is_reserved":false,"is_disabled":false,"rental_uris":{"android":"levelo://app?vid=5407d723-4a9f-44fb-96cd-4d21d8607664","ios":"levelo://app?vid=5407d723-4a9f-44fb-96cd-4d21d8607664"},"vehicle_type_id":"4","last_reported":1768202351,"current_range_meters":6800,"station_id":"ce4bhb12rcd13ifvqel0","pricing_plan_id":"cebpf4jnsgd1na2vs0mg"},{"bike_id":"d162d197-a0fd-462d-a34b-b55f6754275b","system_id":"levelo_inurba_marseille","lat":43.260644,"lon":5.393842,"is_reserved":false,"is_disabled":false,"rental_uris":{"android":"levelo://app?vid=d162d197-a0fd-462d-a34b-b55f6754275b","ios":"levelo://app?vid=d162d197-a0fd-462d-a34b-b55f6754275b"},"vehicle_type_id":"4","last_reported":1768202351,"current_range_meters":6800,"station_id":"ce4bhh92rcd13ifvqfj0","pricing_plan_id":"cebpf4jnsgd1na2vs0mg"},{"bike_id":"38a5a6be-7a66-462f-bfdd-a381aa75e6d3","system_id":"levelo_inurba_marseille","lat":43.28676,"lon":5.38644,"is_reserved":false,"is_disabled":true,"rental_uris":{"android":"levelo://app?vid=38a5a6be-7a66-462f-bfdd-a381aa75e6d3","ios":"levelo://app?vid=38a5a6be-7a66-462f-bfdd-a381aa75e6d3"},"vehicle_type_id":"4","last_reported":1768202351,"current_range_meters":6800,"station_id":"ce4bh492rcd13ifvqdug","pricing_plan_id":"cebpf4jnsgd1na2vs0mg"},{"bike_id":"e9bbdab2-70a8-48e6-9e43-2ee9964bdeb1","system_id":"levelo_inurba_marseille","lat":43.303171,"lon":5.404385,"is_reserved":false,"is_disabled":false,"rental_uris":{"android":"levelo://app?vid=e9bbdab2-70a8-48e6-9e43-2ee9964bdeb1","ios":"levelo://app?vid=e9bbdab2-70a8-48e6-9e43-2ee9964bdeb1"},"vehicle_type_id":"4","last_reported":1768202351,"current_range_meters":6800,"station_id":"ce4bh012rcd13ifvqd10","pricing_plan_id":"cebpf4jnsgd1na2vs0mg"},{"bike_id":"e620865f-0572-493f-abe2-0a52b7c78a7e","system_id":"levelo_inurba_marseille","lat":43.28515,"lon":5.42984,"is_reserved":false,"is_disabled":false,"rental_uris":{"android":"levelo://app?vid=e620865f-0572-493f-abe2-0a52b7c78a7e","ios":"levelo://app?vid=e620865f-0572-493f-abe2-0a52b7c78a7e"},"vehicle_type_id":"4","last_reported":1768202351,"current_range_meters":6800,"station_id":"","pricing_plan_id":"cebpf4jnsgd1na2vs0mg"},{"bike_id":"5481d5cc-d5ef-4540-b061-f6341870cf64","system_id":"levelo_inurba_marseille","lat":43.27952,"lon":5.41058,"is_reserved":false,"is_disabled":false,"rental_uris":{"android":"levelo://app?vid=5481d5cc-d5ef-4540-b061-f6341870cf64","ios":"levelo://app?vid=5481d5cc-d5ef-4540-b061-f6341870cf64"},"vehicle_type_id":"4","last_reported":1768202351,"current_range_meters":6800,"station_id":"ce4bhnp2rcd13ifvqh0g","pricing_plan_id":"cebpf4jnsgd1na2vs0mg"},{"bike_id":"b3d9f58a-7b40-4af9-9d80-9d6fb2f356d9","system_id":"levelo_inurba_marseille","lat":43.28481,"lon":5.38216,"is_reserved":false,"is_disabled":false,"rental_uris":{"android":"levelo://app?vid=b3d9f58a-7b40-4af9-9d80-9d6fb2f356d9","ios":"levelo://app?vid=b3d9f58a-7b40-4af9-9d80-9d6fb2f356d9"},"vehicle_type_id":"4","last_reported":1768202351,"current_range_meters":6800,"station_id":"","pricing_plan_id":"cebpf4jnsgd1na2vs0mg"},{"bike_id":"a0b9fac4-99be-449f-a28b-5c85c327a2dc","system_id":"levelo_inurba_marseille","lat":43.28852,"lon":5.39322,"is_reserved":false,"is_disabled":true,"rental_uris":{"android":"levelo://app?vid=a0b9fac4-99be-449f-a28b-5c85c327a2dc","ios":"levelo://app?vid=a0b9fac4-99be-449f-a28b-5c85c327a2dc"},"vehicle_type_id":"4","last_reported":1768202351,"current_range_meters":6800,"station_id":"ce4bh2p2rcd13ifvqdi0","pricing_plan_id":"cebpf4jnsgd1na2vs0mg"},{"bike_id":"32911317-1487-4d15-817a-1ada45dd566d","system_id":"levelo_inurba_marseille","lat":43.31724,"lon":5.37753,"is_reserved":false,"is_disabled":false,"rental_uris":{"android":"levelo://app?vid=32911317-1487-4d15-817a-1ada45dd566d","ios":"levelo://app?vid=32911317-1487-4d15-817a-1ada45dd566d"},"vehicle_type_id":"4","last_reported":1768202351,"current_range_meters":6800,"station_id":"ce4bgth2rcd13ifvqch0","pricing_plan_id":"cebpf4jnsgd1na2vs0mg"},{"bike_id":"94a2c469-f97b-41fb-9158-608de3f137b1","system_id":"levelo_inurba_marseille","lat":43.232,"lon":5.35549,"is_reserved":false,"is_disabled":false,"rental_uris":{"android":"levelo://app?vid=94a2c469-f97b-41fb-9158-608de3f137b1","ios":"levelo://app?vid=94a2c469-f97b-41fb-9158-608de3f137b1"},"vehicle_type_id":"4","last_reported":1768202351,"current_range_meters":6800,"station_id":"ce4bhu92rcd13ifvqi70","pricing_plan_id":"cebpf4jnsgd1na2vs0mg"},{"bike_id":"cb866d5f-1eda-4fcf-8a2f-acfbebd2323a","system_id":"levelo_inurba_marseille","lat":43.2905,"lon":5.37619,"is_reserved":false,"is_disabled":true,"rental_uris":{"android":"levelo://app?vid=cb866d5f-1eda-4fcf-8a2f-acfbebd2323a","ios":"levelo://app?vid=cb866d5f-1eda-4fcf-8a2f-acfbebd2323a"},"vehicle_type_id":"4","last_reported":1768202351,"current_range_meters":6800,"station_id":"ce4bh692rcd13ifvqe90","pricing_plan_id":"cebpf4jnsgd1na2vs0mg"},{"bike_id":"87448db3-45a4-4f85-8c70-055150bf33cc","system_id":"levelo_inurba_marseille","lat":43.28917,"lon":5.38401,"is_reserved":false,"is_disabled":false,"rental_uris":{"android":"levelo://app?vid=87448db3-45a4-4f85-8c70-055150bf33cc","ios":"levelo://app?vid=87448db3-45a4-4f85-8c70-055150bf33cc"},"vehicle_type_id":"4","last_reported":1768202351,"current_range_meters":6800,"station_id":"ce4bh612rcd13ifvqe6g","pricing_plan_id":"cebpf4jnsgd1na2vs0mg"},{"bike_id":"1ea802fd-f66e-4c41-8354-41e1828b1dc4","system_id":"levelo_inurba_marseille","lat":43.286064,"lon":5.350933,"is_reserved":false,"is_disabled":false,"rental_uris":{"android":"levelo://app?vid=1ea802fd-f66e-4c41-8354-41e1828b1dc4","ios":"levelo://app?vid=1ea802fd-f66e-4c41-8354-41e1828b1dc4"},"vehicle_type_id":"4","last_reported":1768202351,"current_range_meters":6800,"station_id":"ce4bhch2rcd13ifvqeug","pricing_plan_id":"cebpf4jnsgd1na2vs0mg"},{"bike_id":"858e8a6e-ece2-491f-b2a2-0e10d2fd226b","system_id":"levelo_inurba_marseille","lat":43.290146,"lon":5.356247,"is_reserved":false,"is_disabled":false,"rental_uris":{"android":"levelo://app?vid=858e8a6e-ece2-491f-b2a2-0e10d2fd226b","ios":"levelo://app?vid=858e8a6e-ece2-491f-b2a2-0e10d2fd226b"},"vehicle_type_id":"4","last_reported":1768202351,"current_range_meters":6800,"station_id":"ce4bhb92rcd13ifvqen0","pricing_plan_id":"cebpf4jnsgd1na2vs0mg"},{"bike_id":"c0a737ab-81b4-481c-8c35-615a5f06c74c","system_id":"levelo_inurba_marseille","lat":43.22555,"lon":5.41629,"is_reserved":false,"is_disabled":false,"rental_uris":{"android":"levelo://app?vid=c0a737ab-81b4-481c-8c35-615a5f06c74c","ios":"levelo://app?vid=c0a737ab-81b4-481c-8c35-615a5f06c74c"},"vehicle_type_id":"4","last_reported":1768202351,"current_range_meters":6800,"station_id":"st_d2o4gvlbi1j2169b742g","pricing_plan_id":"cebpf4jnsgd1na2vs0mg"},{"bike_id":"fd8e03eb-8c8c-494a-8e80-d7664d053d91","system_id":"levelo_inurba_marseille","lat":43.22935,"lon":5.35378,"is_reserved":false,"is_disabled":false,"rental_uris":{"android":"levelo://app?vid=fd8e03eb-8c8c-494a-8e80-d7664d053d91","ios":"levelo://app?vid=fd8e03eb-8c8c-494a-8e80-d7664d053d91"},"vehicle_type_id":"4","last_reported":1768202351,"current_range_meters":6800,"station_id":"cpo3532slgdg3j2ikp40","pricing_plan_id":"cebpf4jnsgd1na2vs0mg"},{"bike_id":"4ddffc0c-a073-4800-9872-80f96d7a4252","system_id":"levelo_inurba_marseille","lat":43.25343,"lon":5.42178,"is_reserved":false,"is_disabled":false,"rental_uris":{"android":"levelo://app?vid=4ddffc0c-a073-4800-9872-80f96d7a4252","ios":"levelo://app?vid=4ddffc0c-a073-4800-9872-80f96d7a4252"},"vehicle_type_id":"4","last_reported":1768202351,"current_range_meters":6800,"station_id":"st_d2m65c5bi1j21697t3ng","pricing_plan_id":"cebpf4jnsgd1na2vs0mg"},{"bike_id":"87f80583-e77b-4973-be71-bea918dfb192","system_id":"levelo_inurba_marseille","lat":43.22545,"lon":5.41658,"is_reserved":false,"is_disabled":false,"rental_uris":{"android":"levelo://app?vid=87f80583-e77b-4973-be71-bea918dfb192","ios":"levelo://app?vid=87f80583-e77b-4973-be71-bea918dfb192"},"vehicle_type_id":"4","last_reported":1768202351,"current_range_meters":6800,"station_id":"st_d2o4gvlbi1j2169b742g","pricing_plan_id":"cebpf4jnsgd1na2vs0mg"},{"bike_id":"e00a60f5-7eec-4bb5-b2e0-499885bcab97","system_id":"levelo_inurba_marseille","lat":43.265481,"lon":5.372906,"is_reserved":false,"is_disabled":false,"rental_uris":{"android":"levelo://app?vid=e00a60f5-7eec-4bb5-b2e0-499885bcab97","ios":"levelo://app?vid=e00a60f5-7eec-4bb5-b2e0-499885bcab97"},"vehicle_type_id":"4","last_reported":1768202351,"current_range_meters":7200,"station_id":"ce4bhg12rcd13ifvqf70","pricing_plan_id":"cebpf4jnsgd1na2vs0mg"},{"bike_id":"5eb236d0-c732-47a3-b4ae-bebb81ae84fb","system_id":"levelo_inurba_marseille","lat":43.30855,"lon":5.40556,"is_reserved":false,"is_disabled":false,"rental_uris":{"android":"levelo://app?vid=5eb236d0-c732-47a3-b4ae-bebb81ae84fb","ios":"levelo://app?vid=5eb236d0-c732-47a3-b4ae-bebb81ae84fb"},"vehicle_type_id":"4","last_reported":1768202351,"current_range_meters":7200,"station_id":"","pricing_plan_id":"cebpf4jnsgd1na2vs0mg"},{"bike_id":"92b744b3-6a0a-49ec-88fc-4262a1c52a6c","system_id":"levelo_inurba_marseille","lat":43.30182,"lon":5.38079,"is_reserved":false,"is_disabled":false,"rental_uris":{"android":"levelo://app?vid=92b744b3-6a0a-49ec-88fc-4262a1c52a6c","ios":"levelo://app?vid=92b744b3-6a0a-49ec-88fc-4262a1c52a6c"},"vehicle_type_id":"4","last_reported":1768202351,"current_range_meters":7200,"station_id":"ce4bgjp2rcd13ifvqbh0","pricing_plan_id":"cebpf4jnsgd1na2vs0mg"},{"bike_id":"6cba13f8-48b7-44d1-bd30-5390e53b15ef","system_id":"levelo_inurba_marseille","lat":43.24065,"lon":5.37759,"is_reserved":false,"is_disabled":false,"rental_uris":{"android":"levelo://app?vid=6cba13f8-48b7-44d1-bd30-5390e53b15ef","ios":"levelo://app?vid=6cba13f8-48b7-44d1-bd30-5390e53b15ef"},"vehicle_type_id":"4","last_reported":1768202351,"current_range_meters":7200,"station_id":"ce4bhnp2rcd13ifvqgvg","pricing_plan_id":"cebpf4jnsgd1na2vs0mg"},{"bike_id":"71f6a12e-0176-43f2-88a4-80c6e5aa7f62","system_id":"levelo_inurba_marseille","lat":43.26202,"lon":5.37455,"is_reserved":false,"is_disabled":true,"rental_uris":{"android":"levelo://app?vid=71f6a12e-0176-43f2-88a4-80c6e5aa7f62","ios":"levelo://app?vid=71f6a12e-0176-43f2-88a4-80c6e5aa7f62"},"vehicle_type_id":"4","last_reported":1768202351,"current_range_meters":7200,"station_id":"ce4bhgp2rcd13ifvqfc0","pricing_plan_id":"cebpf4jnsgd1na2vs0mg"},{"bike_id":"5093f106-ab12-42f2-8732-ab294723fbd3","system_id":"levelo_inurba_marseille","lat":43.25341,"lon":5.4219,"is_reserved":false,"is_disabled":false,"rental_uris":{"android":"levelo://app?vid=5093f106-ab12-42f2-8732-ab294723fbd3","ios":"levelo://app?vid=5093f106-ab12-42f2-8732-ab294723fbd3"},"vehicle_type_id":"4","last_reported":1768202351,"current_range_meters":7200,"station_id":"st_d2m65c5bi1j21697t3ng","pricing_plan_id":"cebpf4jnsgd1na2vs0mg"},{"bike_id":"769c60da-14a6-416d-b772-59ceff33d237","system_id":"levelo_inurba_marseille","lat":43.267323,"lon":5.419966,"is_reserved":false,"is_disabled":false,"rental_uris":{"android":"levelo://app?vid=769c60da-14a6-416d-b772-59ceff33d237","ios":"levelo://app?vid=769c60da-14a6-416d-b772-59ceff33d237"},"vehicle_type_id":"4","last_reported":1768202351,"current_range_meters":7200,"station_id":"","pricing_plan_id":"cebpf4jnsgd1na2vs0mg"},{"bike_id":"7d51bc4d-7014-4249-a12d-38c77858bb48","system_id":"levelo_inurba_marseille","lat":43.26059,"lon":5.39403,"is_reserved":false,"is_disabled":false,"rental_uris":{"android":"levelo://app?vid=7d51bc4d-7014-4249-a12d-38c77858bb48","ios":"levelo://app?vid=7d51bc4d-7014-4249-a12d-38c77858bb48"},"vehicle_type_id":"4","last_reported":1768202351,"current_range_meters":7200,"station_id":"ce4bhh92rcd13ifvqfj0","pricing_plan_id":"cebpf4jnsgd1na2vs0mg"},{"bike_id":"d2715ac3-6a96-4eb8-bac7-bacc5c2604da","system_id":"levelo_inurba_marseille","lat":43.30014,"lon":5.37637,"is_reserved":false,"is_disabled":false,"rental_uris":{"android":"levelo://app?vid=d2715ac3-6a96-4eb8-bac7-bacc5c2604da","ios":"levelo://app?vid=d2715ac3-6a96-4eb8-bac7-bacc5c2604da"},"vehicle_type_id":"4","last_reported":1768202351,"current_range_meters":7200,"station_id":"","pricing_plan_id":"cebpf4jnsgd1na2vs0mg"},{"bike_id":"0a081579-d046-46bc-82e3-be8dad4de4bd","system_id":"levelo_inurba_marseille","lat":43.29603,"lon":5.38095,"is_reserved":false,"is_disabled":false,"rental_uris":{"android":"levelo://app?vid=0a081579-d046-46bc-82e3-be8dad4de4bd","ios":"levelo://app?vid=0a081579-d046-46bc-82e3-be8dad4de4bd"},"vehicle_type_id":"4","last_reported":1768202351,"current_range_meters":7200,"station_id":"ce4bgl12rcd13ifvqbo0","pricing_plan_id":"cebpf4jnsgd1na2vs0mg"},{"bike_id":"d7446144-eeb6-4bd9-974d-db9bfacf93a5","system_id":"levelo_inurba_marseille","lat":43.24646,"lon":5.38889,"is_reserved":false,"is_disabled":false,"rental_uris":{"android":"levelo://app?vid=d7446144-eeb6-4bd9-974d-db9bfacf93a5","ios":"levelo://app?vid=d7446144-eeb6-4bd9-974d-db9bfacf93a5"},"vehicle_type_id":"4","last_reported":1768202351,"current_range_meters":7200,"station_id":"ce4bhg12rcd13ifvqf60","pricing_plan_id":"cebpf4jnsgd1na2vs0mg"},{"bike_id":"84705c3b-3603-4cc9-9d42-2fa5919588d7","system_id":"levelo_inurba_marseille","lat":43.27381,"lon":5.36244,"is_reserved":false,"is_disabled":false,"rental_uris":{"android":"levelo://app?vid=84705c3b-3603-4cc9-9d42-2fa5919588d7","ios":"levelo://app?vid=84705c3b-3603-4cc9-9d42-2fa5919588d7"},"vehicle_type_id":"4","last_reported":1768202351,"current_range_meters":7200,"station_id":"ce4bhbh2rcd13ifvqeo0","pricing_plan_id":"cebpf4jnsgd1na2vs0mg"},{"bike_id":"c14a64c5-f56b-41d4-a260-43cfcbb6a825","system_id":"levelo_inurba_marseille","lat":43.29145,"lon":5.37679,"is_reserved":false,"is_disabled":false,"rental_uris":{"android":"levelo://app?vid=c14a64c5-f56b-41d4-a260-43cfcbb6a825","ios":"levelo://app?vid=c14a64c5-f56b-41d4-a260-43cfcbb6a825"},"vehicle_type_id":"4","last_reported":1768202351,"current_range_meters":7200,"station_id":"","pricing_plan_id":"cebpf4jnsgd1na2vs0mg"},{"bike_id":"1591f82a-aad7-466d-84d5-af4d94402b1a","system_id":"levelo_inurba_marseille","lat":43.29569,"lon":5.39982,"is_reserved":false,"is_disabled":true,"rental_uris":{"android":"levelo://app?vid=1591f82a-aad7-466d-84d5-af4d94402b1a","ios":"levelo://app?vid=1591f82a-aad7-466d-84d5-af4d94402b1a"},"vehicle_type_id":"4","last_reported":1768202351,"current_range_meters":7200,"station_id":"ce4bh312rcd13ifvqdj0","pricing_plan_id":"cebpf4jnsgd1na2vs0mg"},{"bike_id":"74b83f57-b043-4644-9196-624a4213acec","system_id":"levelo_inurba_marseille","lat":43.22927,"lon":5.35375,"is_reserved":false,"is_disabled":false,"rental_uris":{"android":"levelo://app?vid=74b83f57-b043-4644-9196-624a4213acec","ios":"levelo://app?vid=74b83f57-b043-4644-9196-624a4213acec"},"vehicle_type_id":"4","last_reported":1768202351,"current_range_meters":7200,"station_id":"cpo3532slgdg3j2ikp40","pricing_plan_id":"cebpf4jnsgd1na2vs0mg"},{"bike_id":"e80c59e8-0fcc-4b6e-ac91-951ea874abea","system_id":"levelo_inurba_marseille","lat":43.23196,"lon":5.35558,"is_reserved":false,"is_disabled":false,"rental_uris":{"android":"levelo://app?vid=e80c59e8-0fcc-4b6e-ac91-951ea874abea","ios":"levelo://app?vid=e80c59e8-0fcc-4b6e-ac91-951ea874abea"},"vehicle_type_id":"4","last_reported":1768202351,"current_range_meters":7200,"station_id":"ce4bhu92rcd13ifvqi70","pricing_plan_id":"cebpf4jnsgd1na2vs0mg"},{"bike_id":"e6110b19-a38b-4113-9ab2-e5c7136863ba","system_id":"levelo_inurba_marseille","lat":43.24624,"lon":5.43091,"is_reserved":false,"is_disabled":false,"rental_uris":{"android":"levelo://app?vid=e6110b19-a38b-4113-9ab2-e5c7136863ba","ios":"levelo://app?vid=e6110b19-a38b-4113-9ab2-e5c7136863ba"},"vehicle_type_id":"4","last_reported":1768202351,"current_range_meters":7200,"station_id":"st_d2m6c4gdas8pm72e190g","pricing_plan_id":"cebpf4jnsgd1na2vs0mg"},{"bike_id":"a79d7ba1-8fc0-4b3f-bad3-bcec2c0e9b69","system_id":"levelo_inurba_marseille","lat":43.29876,"lon":5.37678,"is_reserved":false,"is_disabled":false,"rental_uris":{"android":"levelo://app?vid=a79d7ba1-8fc0-4b3f-bad3-bcec2c0e9b69","ios":"levelo://app?vid=a79d7ba1-8fc0-4b3f-bad3-bcec2c0e9b69"},"vehicle_type_id":"4","last_reported":1768202351,"current_range_meters":7200,"station_id":"","pricing_plan_id":"cebpf4jnsgd1na2vs0mg"},{"bike_id":"a48c03bd-0092-420a-b48d-51f9d47c3435","system_id":"levelo_inurba_marseille","lat":43.24081,"lon":5.37771,"is_reserved":false,"is_disabled":false,"rental_uris":{"android":"levelo://app?vid=a48c03bd-0092-420a-b48d-51f9d47c3435","ios":"levelo://app?vid=a48c03bd-0092-420a-b48d-51f9d47c3435"},"vehicle_type_id":"4","last_reported":1768202351,"current_range_meters":7200,"station_id":"ce4bhnp2rcd13ifvqgvg","pricing_plan_id":"cebpf4jnsgd1na2vs0mg"},{"bike_id":"7a0dc5a2-2fcf-4d97-a695-0d309e62ee0c","system_id":"levelo_inurba_marseille","lat":43.23193,"lon":5.35558,"is_reserved":false,"is_disabled":false,"rental_uris":{"android":"levelo://app?vid=7a0dc5a2-2fcf-4d97-a695-0d309e62ee0c","ios":"levelo://app?vid=7a0dc5a2-2fcf-4d97-a695-0d309e62ee0c"},"vehicle_type_id":"4","last_reported":1768202351,"current_range_meters":7200,"station_id":"ce4bhu92rcd13ifvqi70","pricing_plan_id":"cebpf4jnsgd1na2vs0mg"},{"bike_id":"f33b67cb-953c-4bfa-8f87-b8b77ecb719c","system_id":"levelo_inurba_marseille","lat":43.27986,"lon":5.41657,"is_reserved":false,"is_disabled":false,"rental_uris":{"android":"levelo://app?vid=f33b67cb-953c-4bfa-8f87-b8b77ecb719c","ios":"levelo://app?vid=f33b67cb-953c-4bfa-8f87-b8b77ecb719c"},"vehicle_type_id":"4","last_reported":1768202351,"current_range_meters":8000,"station_id":"ce4bho12rcd13ifvqh1g","pricing_plan_id":"cebpf4jnsgd1na2vs0mg"},{"bike_id":"340c2cbe-243c-40b4-8bc5-dea9b0e962c7","system_id":"levelo_inurba_marseille","lat":43.23194,"lon":5.35533,"is_reserved":false,"is_disabled":false,"rental_uris":{"android":"levelo://app?vid=340c2cbe-243c-40b4-8bc5-dea9b0e962c7","ios":"levelo://app?vid=340c2cbe-243c-40b4-8bc5-dea9b0e962c7"},"vehicle_type_id":"4","last_reported":1768202351,"current_range_meters":8000,"station_id":"ce4bhu92rcd13ifvqi70","pricing_plan_id":"cebpf4jnsgd1na2vs0mg"},{"bike_id":"276ff2aa-27c0-4783-bb1b-3646e59d00ab","system_id":"levelo_inurba_marseille","lat":43.28493,"lon":5.38563,"is_reserved":false,"is_disabled":false,"rental_uris":{"android":"levelo://app?vid=276ff2aa-27c0-4783-bb1b-3646e59d00ab","ios":"levelo://app?vid=276ff2aa-27c0-4783-bb1b-3646e59d00ab"},"vehicle_type_id":"4","last_reported":1768202351,"current_range_meters":8000,"station_id":"ce4bh8p2rcd13ifvqeb0","pricing_plan_id":"cebpf4jnsgd1na2vs0mg"},{"bike_id":"a04e20bf-873d-4572-b96b-373246012075","system_id":"levelo_inurba_marseille","lat":43.25567,"lon":5.38227,"is_reserved":false,"is_disabled":false,"rental_uris":{"android":"levelo://app?vid=a04e20bf-873d-4572-b96b-373246012075","ios":"levelo://app?vid=a04e20bf-873d-4572-b96b-373246012075"},"vehicle_type_id":"4","last_reported":1768202351,"current_range_meters":8000,"station_id":"ce4bhih2rcd13ifvqfs0","pricing_plan_id":"cebpf4jnsgd1na2vs0mg"},{"bike_id":"f54880ab-4bc7-4ae4-b72c-26001b4fad93","system_id":"levelo_inurba_marseille","lat":43.324812,"lon":5.365676,"is_reserved":false,"is_disabled":false,"rental_uris":{"android":"levelo://app?vid=f54880ab-4bc7-4ae4-b72c-26001b4fad93","ios":"levelo://app?vid=f54880ab-4bc7-4ae4-b72c-26001b4fad93"},"vehicle_type_id":"4","last_reported":1768202351,"current_range_meters":8000,"station_id":"ce4bhs12rcd13ifvqhvg","pricing_plan_id":"cebpf4jnsgd1na2vs0mg"},{"bike_id":"f5405686-2c5f-4048-b898-5f7ecc36adee","system_id":"levelo_inurba_marseille","lat":43.30153,"lon":5.38104,"is_reserved":false,"is_disabled":true,"rental_uris":{"android":"levelo://app?vid=f5405686-2c5f-4048-b898-5f7ecc36adee","ios":"levelo://app?vid=f5405686-2c5f-4048-b898-5f7ecc36adee"},"vehicle_type_id":"4","last_reported":1768202351,"current_range_meters":8000,"station_id":"ce4bgjp2rcd13ifvqbh0","pricing_plan_id":"cebpf4jnsgd1na2vs0mg"},{"bike_id":"96c19f58-8674-41c6-95db-e7964c70bb50","system_id":"levelo_inurba_marseille","lat":43.24662,"lon":5.38166,"is_reserved":false,"is_disabled":false,"rental_uris":{"android":"levelo://app?vid=96c19f58-8674-41c6-95db-e7964c70bb50","ios":"levelo://app?vid=96c19f58-8674-41c6-95db-e7964c70bb50"},"vehicle_type_id":"4","last_reported":1768202351,"current_range_meters":8000,"station_id":"ce4bhih2rcd13ifvqfr0","pricing_plan_id":"cebpf4jnsgd1na2vs0mg"},{"bike_id":"b3454d70-d36a-4db4-9750-be9b842ade3e","system_id":"levelo_inurba_marseille","lat":43.30145,"lon":5.38915,"is_reserved":false,"is_disabled":false,"rental_uris":{"android":"levelo://app?vid=b3454d70-d36a-4db4-9750-be9b842ade3e","ios":"levelo://app?vid=b3454d70-d36a-4db4-9750-be9b842ade3e"},"vehicle_type_id":"4","last_reported":1768202351,"current_range_meters":8000,"station_id":"","pricing_plan_id":"cebpf4jnsgd1na2vs0mg"},{"bike_id":"a23ab11e-9791-4255-b287-b52f988bae58","system_id":"levelo_inurba_marseille","lat":43.27807,"lon":5.40705,"is_reserved":false,"is_disabled":false,"rental_uris":{"android":"levelo://app?vid=a23ab11e-9791-4255-b287-b52f988bae58","ios":"levelo://app?vid=a23ab11e-9791-4255-b287-b52f988bae58"},"vehicle_type_id":"4","last_reported":1768202351,"current_range_meters":8000,"station_id":"ce4bhnh2rcd13ifvqgtg","pricing_plan_id":"cebpf4jnsgd1na2vs0mg"},{"bike_id":"bf66e930-90c3-478a-9926-95b8de8a6d74","system_id":"levelo_inurba_marseille","lat":43.2256,"lon":5.41623,"is_reserved":false,"is_disabled":false,"rental_uris":{"android":"levelo://app?vid=bf66e930-90c3-478a-9926-95b8de8a6d74","ios":"levelo://app?vid=bf66e930-90c3-478a-9926-95b8de8a6d74"},"vehicle_type_id":"4","last_reported":1768202351,"current_range_meters":8000,"station_id":"st_d2o4gvlbi1j2169b742g","pricing_plan_id":"cebpf4jnsgd1na2vs0mg"},{"bike_id":"b41a2875-da15-43f3-b115-97366df37d38","system_id":"levelo_inurba_marseille","lat":43.33152,"lon":5.37659,"is_reserved":false,"is_disabled":false,"rental_uris":{"android":"levelo://app?vid=b41a2875-da15-43f3-b115-97366df37d38","ios":"levelo://app?vid=b41a2875-da15-43f3-b115-97366df37d38"},"vehicle_type_id":"4","last_reported":1768202351,"current_range_meters":8000,"station_id":"st_d46cu089ee8s73dldbu0","pricing_plan_id":"cebpf4jnsgd1na2vs0mg"},{"bike_id":"68fe2179-279d-4c54-966c-586d35e55bc0","system_id":"levelo_inurba_marseille","lat":43.237872,"lon":5.366278,"is_reserved":false,"is_disabled":false,"rental_uris":{"android":"levelo://app?vid=68fe2179-279d-4c54-966c-586d35e55bc0","ios":"levelo://app?vid=68fe2179-279d-4c54-966c-586d35e55bc0"},"vehicle_type_id":"4","last_reported":1768202351,"current_range_meters":8000,"station_id":"st_d3nk18o9ro0c73en2l3g","pricing_plan_id":"cebpf4jnsgd1na2vs0mg"},{"bike_id":"0dc33624-aad9-4738-ab08-dfd76af85df6","system_id":"levelo_inurba_marseille","lat":43.24077,"lon":5.37745,"is_reserved":false,"is_disabled":false,"rental_uris":{"android":"levelo://app?vid=0dc33624-aad9-4738-ab08-dfd76af85df6","ios":"levelo://app?vid=0dc33624-aad9-4738-ab08-dfd76af85df6"},"vehicle_type_id":"4","last_reported":1768202351,"current_range_meters":8000,"station_id":"ce4bhnp2rcd13ifvqgvg","pricing_plan_id":"cebpf4jnsgd1na2vs0mg"},{"bike_id":"2f0d5ebb-41df-4dfd-96e0-c139f222cfbb","system_id":"levelo_inurba_marseille","lat":43.257203,"lon":5.411097,"is_reserved":false,"is_disabled":false,"rental_uris":{"android":"levelo://app?vid=2f0d5ebb-41df-4dfd-96e0-c139f222cfbb","ios":"levelo://app?vid=2f0d5ebb-41df-4dfd-96e0-c139f222cfbb"},"vehicle_type_id":"4","last_reported":1768202351,"current_range_meters":8000,"station_id":"ce4bhkp2rcd13ifvqgd0","pricing_plan_id":"cebpf4jnsgd1na2vs0mg"},{"bike_id":"d664325d-c2cb-42f2-895c-394f61e26f2a","system_id":"levelo_inurba_marseille","lat":43.279852,"lon":5.416592,"is_reserved":false,"is_disabled":false,"rental_uris":{"android":"levelo://app?vid=d664325d-c2cb-42f2-895c-394f61e26f2a","ios":"levelo://app?vid=d664325d-c2cb-42f2-895c-394f61e26f2a"},"vehicle_type_id":"4","last_reported":1768202351,"current_range_meters":8000,"station_id":"ce4bho12rcd13ifvqh1g","pricing_plan_id":"cebpf4jnsgd1na2vs0mg"},{"bike_id":"c741c788-82f0-4732-bb43-3e7a7518580d","system_id":"levelo_inurba_marseille","lat":43.33152,"lon":5.37672,"is_reserved":false,"is_disabled":false,"rental_uris":{"android":"levelo://app?vid=c741c788-82f0-4732-bb43-3e7a7518580d","ios":"levelo://app?vid=c741c788-82f0-4732-bb43-3e7a7518580d"},"vehicle_type_id":"4","last_reported":1768202351,"current_range_meters":8000,"station_id":"st_d46cu089ee8s73dldbu0","pricing_plan_id":"cebpf4jnsgd1na2vs0mg"},{"bike_id":"360cd3e6-e5e1-447a-b1c4-a37d19e4f9fa","system_id":"levelo_inurba_marseille","lat":43.32367,"lon":5.36765,"is_reserved":false,"is_disabled":false,"rental_uris":{"android":"levelo://app?vid=360cd3e6-e5e1-447a-b1c4-a37d19e4f9fa","ios":"levelo://app?vid=360cd3e6-e5e1-447a-b1c4-a37d19e4f9fa"},"vehicle_type_id":"4","last_reported":1768202351,"current_range_meters":8000,"station_id":"ce4bhsh2rcd13ifvqi2g","pricing_plan_id":"cebpf4jnsgd1na2vs0mg"},{"bike_id":"fce974f8-1461-4c79-9773-672c90511019","system_id":"levelo_inurba_marseille","lat":43.25319,"lon":5.42172,"is_reserved":false,"is_disabled":false,"rental_uris":{"android":"levelo://app?vid=fce974f8-1461-4c79-9773-672c90511019","ios":"levelo://app?vid=fce974f8-1461-4c79-9773-672c90511019"},"vehicle_type_id":"4","last_reported":1768202351,"current_range_meters":8000,"station_id":"st_d2m65c5bi1j21697t3ng","pricing_plan_id":"cebpf4jnsgd1na2vs0mg"},{"bike_id":"23b46792-919d-43d8-b3a4-b80d3934a7d8","system_id":"levelo_inurba_marseille","lat":43.27729,"lon":5.39978,"is_reserved":false,"is_disabled":false,"rental_uris":{"android":"levelo://app?vid=23b46792-919d-43d8-b3a4-b80d3934a7d8","ios":"levelo://app?vid=23b46792-919d-43d8-b3a4-b80d3934a7d8"},"vehicle_type_id":"4","last_reported":1768202351,"current_range_meters":8000,"station_id":"","pricing_plan_id":"cebpf4jnsgd1na2vs0mg"},{"bike_id":"10c0b1c4-7d2b-417e-87d0-9f8889d09f30","system_id":"levelo_inurba_marseille","lat":43.2256,"lon":5.41619,"is_reserved":false,"is_disabled":false,"rental_uris":{"android":"levelo://app?vid=10c0b1c4-7d2b-417e-87d0-9f8889d09f30","ios":"levelo://app?vid=10c0b1c4-7d2b-417e-87d0-9f8889d09f30"},"vehicle_type_id":"4","last_reported":1768202351,"current_range_meters":8000,"station_id":"st_d2o4gvlbi1j2169b742g","pricing_plan_id":"cebpf4jnsgd1na2vs0mg"},{"bike_id":"e5a3d6a3-5a0b-4c05-b321-ca477bf7394c","system_id":"levelo_inurba_marseille","lat":43.28179,"lon":5.42611,"is_reserved":false,"is_disabled":false,"rental_uris":{"android":"levelo://app?vid=e5a3d6a3-5a0b-4c05-b321-ca477bf7394c","ios":"levelo://app?vid=e5a3d6a3-5a0b-4c05-b321-ca477bf7394c"},"vehicle_type_id":"4","last_reported":1768202351,"current_range_meters":8000,"station_id":"ce4bhnh2rcd13ifvqgug","pricing_plan_id":"cebpf4jnsgd1na2vs0mg"},{"bike_id":"dd38b488-39cc-41a7-bd66-cef3a34060de","system_id":"levelo_inurba_marseille","lat":43.284812,"lon":5.483935,"is_reserved":false,"is_disabled":false,"rental_uris":{"android":"levelo://app?vid=dd38b488-39cc-41a7-bd66-cef3a34060de","ios":"levelo://app?vid=dd38b488-39cc-41a7-bd66-cef3a34060de"},"vehicle_type_id":"4","last_reported":1768202351,"current_range_meters":8000,"station_id":"st_d3svhcjqgbts73a3dn0g","pricing_plan_id":"cebpf4jnsgd1na2vs0mg"},{"bike_id":"8a7ee903-e4c0-4637-b8c6-905f7f6393e5","system_id":"levelo_inurba_marseille","lat":43.241632,"lon":5.363955,"is_reserved":false,"is_disabled":false,"rental_uris":{"android":"levelo://app?vid=8a7ee903-e4c0-4637-b8c6-905f7f6393e5","ios":"levelo://app?vid=8a7ee903-e4c0-4637-b8c6-905f7f6393e5"},"vehicle_type_id":"4","last_reported":1768202351,"current_range_meters":8000,"station_id":"cpo36qri1sfpv3e86is0","pricing_plan_id":"cebpf4jnsgd1na2vs0mg"},{"bike_id":"08d32b54-49dd-402b-a9b8-fabbfb48259f","system_id":"levelo_inurba_marseille","lat":43.22569,"lon":5.41629,"is_reserved":false,"is_disabled":false,"rental_uris":{"android":"levelo://app?vid=08d32b54-49dd-402b-a9b8-fabbfb48259f","ios":"levelo://app?vid=08d32b54-49dd-402b-a9b8-fabbfb48259f"},"vehicle_type_id":"4","last_reported":1768202351,"current_range_meters":8000,"station_id":"st_d2o4gvlbi1j2169b742g","pricing_plan_id":"cebpf4jnsgd1na2vs0mg"},{"bike_id":"2f71cfff-5cc5-4e9e-b38d-a9d99fd6e1e7","system_id":"levelo_inurba_marseille","lat":43.246548,"lon":5.381511,"is_reserved":false,"is_disabled":false,"rental_uris":{"android":"levelo://app?vid=2f71cfff-5cc5-4e9e-b38d-a9d99fd6e1e7","ios":"levelo://app?vid=2f71cfff-5cc5-4e9e-b38d-a9d99fd6e1e7"},"vehicle_type_id":"4","last_reported":1768202351,"current_range_meters":8000,"station_id":"ce4bhih2rcd13ifvqfr0","pricing_plan_id":"cebpf4jnsgd1na2vs0mg"},{"bike_id":"997b90c3-a1bc-4c4a-8659-b1d39835fa21","system_id":"levelo_inurba_marseille","lat":43.25332,"lon":5.42176,"is_reserved":false,"is_disabled":false,"rental_uris":{"android":"levelo://app?vid=997b90c3-a1bc-4c4a-8659-b1d39835fa21","ios":"levelo://app?vid=997b90c3-a1bc-4c4a-8659-b1d39835fa21"},"vehicle_type_id":"4","last_reported":1768202351,"current_range_meters":8400,"station_id":"st_d2m65c5bi1j21697t3ng","pricing_plan_id":"cebpf4jnsgd1na2vs0mg"},{"bike_id":"762020d9-8a0a-4255-a7c2-e512dba0013d","system_id":"levelo_inurba_marseille","lat":43.297211,"lon":5.37855,"is_reserved":false,"is_disabled":false,"rental_uris":{"android":"levelo://app?vid=762020d9-8a0a-4255-a7c2-e512dba0013d","ios":"levelo://app?vid=762020d9-8a0a-4255-a7c2-e512dba0013d"},"vehicle_type_id":"4","last_reported":1768202351,"current_range_meters":8400,"station_id":"","pricing_plan_id":"cebpf4jnsgd1na2vs0mg"},{"bike_id":"caca6502-7fba-4a36-89eb-b7fe25f857cd","system_id":"levelo_inurba_marseille","lat":43.3138,"lon":5.36807,"is_reserved":false,"is_disabled":false,"rental_uris":{"android":"levelo://app?vid=caca6502-7fba-4a36-89eb-b7fe25f857cd","ios":"levelo://app?vid=caca6502-7fba-4a36-89eb-b7fe25f857cd"},"vehicle_type_id":"4","last_reported":1768202351,"current_range_meters":8400,"station_id":"","pricing_plan_id":"cebpf4jnsgd1na2vs0mg"},{"bike_id":"fd61aca6-6155-48cc-a90a-6b38e4a0b00b","system_id":"levelo_inurba_marseille","lat":43.29881,"lon":5.39739,"is_reserved":false,"is_disabled":false,"rental_uris":{"android":"levelo://app?vid=fd61aca6-6155-48cc-a90a-6b38e4a0b00b","ios":"levelo://app?vid=fd61aca6-6155-48cc-a90a-6b38e4a0b00b"},"vehicle_type_id":"4","last_reported":1768202351,"current_range_meters":8400,"station_id":"ce4bh0h2rcd13ifvqd50","pricing_plan_id":"cebpf4jnsgd1na2vs0mg"},{"bike_id":"d8fd8f8a-38f2-4992-9be5-cec5fec90127","system_id":"levelo_inurba_marseille","lat":43.29627,"lon":5.37713,"is_reserved":false,"is_disabled":true,"rental_uris":{"android":"levelo://app?vid=d8fd8f8a-38f2-4992-9be5-cec5fec90127","ios":"levelo://app?vid=d8fd8f8a-38f2-4992-9be5-cec5fec90127"},"vehicle_type_id":"4","last_reported":1768202351,"current_range_meters":8400,"station_id":"ce4bgi92rcd13ifvqb90","pricing_plan_id":"cebpf4jnsgd1na2vs0mg"},{"bike_id":"cf526842-1b4a-4c84-b1c3-b6cf7f433420","system_id":"levelo_inurba_marseille","lat":43.260589,"lon":5.393964,"is_reserved":false,"is_disabled":false,"rental_uris":{"android":"levelo://app?vid=cf526842-1b4a-4c84-b1c3-b6cf7f433420","ios":"levelo://app?vid=cf526842-1b4a-4c84-b1c3-b6cf7f433420"},"vehicle_type_id":"4","last_reported":1768202351,"current_range_meters":8400,"station_id":"ce4bhh92rcd13ifvqfj0","pricing_plan_id":"cebpf4jnsgd1na2vs0mg"},{"bike_id":"86709562-da3f-411c-b77c-1c581c5bc47a","system_id":"levelo_inurba_marseille","lat":43.22559,"lon":5.41625,"is_reserved":false,"is_disabled":false,"rental_uris":{"android":"levelo://app?vid=86709562-da3f-411c-b77c-1c581c5bc47a","ios":"levelo://app?vid=86709562-da3f-411c-b77c-1c581c5bc47a"},"vehicle_type_id":"4","last_reported":1768202351,"current_range_meters":8400,"station_id":"st_d2o4gvlbi1j2169b742g","pricing_plan_id":"cebpf4jnsgd1na2vs0mg"},{"bike_id":"53e81292-caae-4f8b-a557-bc615d8d7425","system_id":"levelo_inurba_marseille","lat":43.246595,"lon":5.431481,"is_reserved":false,"is_disabled":false,"rental_uris":{"android":"levelo://app?vid=53e81292-caae-4f8b-a557-bc615d8d7425","ios":"levelo://app?vid=53e81292-caae-4f8b-a557-bc615d8d7425"},"vehicle_type_id":"4","last_reported":1768202351,"current_range_meters":8400,"station_id":"st_d2m6c4gdas8pm72e190g","pricing_plan_id":"cebpf4jnsgd1na2vs0mg"},{"bike_id":"e5b35282-eb3b-414a-95e1-30cd938f47e1","system_id":"levelo_inurba_marseille","lat":43.290391,"lon":5.363056,"is_reserved":false,"is_disabled":true,"rental_uris":{"android":"levelo://app?vid=e5b35282-eb3b-414a-95e1-30cd938f47e1","ios":"levelo://app?vid=e5b35282-eb3b-414a-95e1-30cd938f47e1"},"vehicle_type_id":"4","last_reported":1768202351,"current_range_meters":8400,"station_id":"","pricing_plan_id":"cebpf4jnsgd1na2vs0mg"},{"bike_id":"5f2748af-7a79-4322-a1b2-29853cbba1ed","system_id":"levelo_inurba_marseille","lat":43.28614,"lon":5.35111,"is_reserved":false,"is_disabled":false,"rental_uris":{"android":"levelo://app?vid=5f2748af-7a79-4322-a1b2-29853cbba1ed","ios":"levelo://app?vid=5f2748af-7a79-4322-a1b2-29853cbba1ed"},"vehicle_type_id":"4","last_reported":1768202351,"current_range_meters":8400,"station_id":"ce4bhch2rcd13ifvqeug","pricing_plan_id":"cebpf4jnsgd1na2vs0mg"},{"bike_id":"66963ec7-6410-41aa-ab8b-428b71198e50","system_id":"levelo_inurba_marseille","lat":43.32357,"lon":5.36748,"is_reserved":false,"is_disabled":false,"rental_uris":{"android":"levelo://app?vid=66963ec7-6410-41aa-ab8b-428b71198e50","ios":"levelo://app?vid=66963ec7-6410-41aa-ab8b-428b71198e50"},"vehicle_type_id":"4","last_reported":1768202351,"current_range_meters":8400,"station_id":"ce4bhsh2rcd13ifvqi2g","pricing_plan_id":"cebpf4jnsgd1na2vs0mg"},{"bike_id":"2d5ccc13-d1ca-441a-856d-0d77751ce04b","system_id":"levelo_inurba_marseille","lat":43.231896,"lon":5.355574,"is_reserved":false,"is_disabled":false,"rental_uris":{"android":"levelo://app?vid=2d5ccc13-d1ca-441a-856d-0d77751ce04b","ios":"levelo://app?vid=2d5ccc13-d1ca-441a-856d-0d77751ce04b"},"vehicle_type_id":"4","last_reported":1768202351,"current_range_meters":8400,"station_id":"ce4bhu92rcd13ifvqi70","pricing_plan_id":"cebpf4jnsgd1na2vs0mg"},{"bike_id":"03e165cf-504b-4d40-b500-de969fecfbff","system_id":"levelo_inurba_marseille","lat":43.3313,"lon":5.37704,"is_reserved":false,"is_disabled":false,"rental_uris":{"android":"levelo://app?vid=03e165cf-504b-4d40-b500-de969fecfbff","ios":"levelo://app?vid=03e165cf-504b-4d40-b500-de969fecfbff"},"vehicle_type_id":"4","last_reported":1768202351,"current_range_meters":8400,"station_id":"st_d46cu089ee8s73dldbu0","pricing_plan_id":"cebpf4jnsgd1na2vs0mg"},{"bike_id":"95d64d3c-7b4c-4db5-b5f1-781d786e1901","system_id":"levelo_inurba_marseille","lat":43.24789,"lon":5.3747,"is_reserved":false,"is_disabled":false,"rental_uris":{"android":"levelo://app?vid=95d64d3c-7b4c-4db5-b5f1-781d786e1901","ios":"levelo://app?vid=95d64d3c-7b4c-4db5-b5f1-781d786e1901"},"vehicle_type_id":"4","last_reported":1768202351,"current_range_meters":8400,"station_id":"ce4bhgh2rcd13ifvqfb0","pricing_plan_id":"cebpf4jnsgd1na2vs0mg"},{"bike_id":"426a012b-ae01-4b92-aec8-2e75d13277b3","system_id":"levelo_inurba_marseille","lat":43.27373,"lon":5.36267,"is_reserved":false,"is_disabled":false,"rental_uris":{"android":"levelo://app?vid=426a012b-ae01-4b92-aec8-2e75d13277b3","ios":"levelo://app?vid=426a012b-ae01-4b92-aec8-2e75d13277b3"},"vehicle_type_id":"4","last_reported":1768202351,"current_range_meters":8400,"station_id":"ce4bhbh2rcd13ifvqeo0","pricing_plan_id":"cebpf4jnsgd1na2vs0mg"},{"bike_id":"e6b72d51-9ebb-4ae8-bda9-bcfd23593d37","system_id":"levelo_inurba_marseille","lat":43.300069,"lon":5.37347,"is_reserved":false,"is_disabled":false,"rental_uris":{"android":"levelo://app?vid=e6b72d51-9ebb-4ae8-bda9-bcfd23593d37","ios":"levelo://app?vid=e6b72d51-9ebb-4ae8-bda9-bcfd23593d37"},"vehicle_type_id":"4","last_reported":1768202351,"current_range_meters":8400,"station_id":"","pricing_plan_id":"cebpf4jnsgd1na2vs0mg"},{"bike_id":"f7c3fd13-440e-473e-b4ab-0dc7b179c2b9","system_id":"levelo_inurba_marseille","lat":43.290253,"lon":5.399561,"is_reserved":false,"is_disabled":false,"rental_uris":{"android":"levelo://app?vid=f7c3fd13-440e-473e-b4ab-0dc7b179c2b9","ios":"levelo://app?vid=f7c3fd13-440e-473e-b4ab-0dc7b179c2b9"},"vehicle_type_id":"4","last_reported":1768202351,"current_range_meters":8400,"station_id":"ce4bh392rcd13ifvqdm0","pricing_plan_id":"cebpf4jnsgd1na2vs0mg"},{"bike_id":"c613abca-3ffb-4b68-9d10-c38d18728f87","system_id":"levelo_inurba_marseille","lat":43.30644,"lon":5.40526,"is_reserved":false,"is_disabled":false,"rental_uris":{"android":"levelo://app?vid=c613abca-3ffb-4b68-9d10-c38d18728f87","ios":"levelo://app?vid=c613abca-3ffb-4b68-9d10-c38d18728f87"},"vehicle_type_id":"4","last_reported":1768202351,"current_range_meters":8400,"station_id":"ce4bh112rcd13ifvqda0","pricing_plan_id":"cebpf4jnsgd1na2vs0mg"},{"bike_id":"412c4daa-00b5-42ee-bae7-89b10fb3374d","system_id":"levelo_inurba_marseille","lat":43.3236,"lon":5.36763,"is_reserved":false,"is_disabled":false,"rental_uris":{"android":"levelo://app?vid=412c4daa-00b5-42ee-bae7-89b10fb3374d","ios":"levelo://app?vid=412c4daa-00b5-42ee-bae7-89b10fb3374d"},"vehicle_type_id":"4","last_reported":1768202351,"current_range_meters":8800,"station_id":"ce4bhsh2rcd13ifvqi2g","pricing_plan_id":"cebpf4jnsgd1na2vs0mg"},{"bike_id":"60d7d4fb-7c1d-432c-826e-68806cbe2c53","system_id":"levelo_inurba_marseille","lat":43.30152,"lon":5.38082,"is_reserved":false,"is_disabled":false,"rental_uris":{"android":"levelo://app?vid=60d7d4fb-7c1d-432c-826e-68806cbe2c53","ios":"levelo://app?vid=60d7d4fb-7c1d-432c-826e-68806cbe2c53"},"vehicle_type_id":"4","last_reported":1768202351,"current_range_meters":8800,"station_id":"ce4bgjp2rcd13ifvqbh0","pricing_plan_id":"cebpf4jnsgd1na2vs0mg"},{"bike_id":"816bdee6-40be-42e1-9efd-c27b41592de9","system_id":"levelo_inurba_marseille","lat":43.28875,"lon":5.42526,"is_reserved":false,"is_disabled":false,"rental_uris":{"android":"levelo://app?vid=816bdee6-40be-42e1-9efd-c27b41592de9","ios":"levelo://app?vid=816bdee6-40be-42e1-9efd-c27b41592de9"},"vehicle_type_id":"4","last_reported":1768202351,"current_range_meters":8800,"station_id":"st_d3b462108ojc7389ooeg","pricing_plan_id":"cebpf4jnsgd1na2vs0mg"},{"bike_id":"76c0649d-b98d-4083-a1ba-177f8b045115","system_id":"levelo_inurba_marseille","lat":43.258619,"lon":5.399086,"is_reserved":false,"is_disabled":true,"rental_uris":{"android":"levelo://app?vid=76c0649d-b98d-4083-a1ba-177f8b045115","ios":"levelo://app?vid=76c0649d-b98d-4083-a1ba-177f8b045115"},"vehicle_type_id":"4","last_reported":1768202351,"current_range_meters":8800,"station_id":"ce4bhl92rcd13ifvqghg","pricing_plan_id":"cebpf4jnsgd1na2vs0mg"},{"bike_id":"ffaa2067-6b25-4963-8f92-414c740f07cf","system_id":"levelo_inurba_marseille","lat":43.25564,"lon":5.38244,"is_reserved":false,"is_disabled":false,"rental_uris":{"android":"levelo://app?vid=ffaa2067-6b25-4963-8f92-414c740f07cf","ios":"levelo://app?vid=ffaa2067-6b25-4963-8f92-414c740f07cf"},"vehicle_type_id":"4","last_reported":1768202351,"current_range_meters":8800,"station_id":"ce4bhih2rcd13ifvqfs0","pricing_plan_id":"cebpf4jnsgd1na2vs0mg"},{"bike_id":"8a7fda0d-7225-44ed-8682-912e8ba6ea55","system_id":"levelo_inurba_marseille","lat":43.24468,"lon":5.42527,"is_reserved":false,"is_disabled":false,"rental_uris":{"android":"levelo://app?vid=8a7fda0d-7225-44ed-8682-912e8ba6ea55","ios":"levelo://app?vid=8a7fda0d-7225-44ed-8682-912e8ba6ea55"},"vehicle_type_id":"4","last_reported":1768202351,"current_range_meters":8800,"station_id":"st_d4a3vfp97mjs738cd8kg","pricing_plan_id":"cebpf4jnsgd1na2vs0mg"},{"bike_id":"81877182-5c12-4fe4-b6d5-1b469b15a37b","system_id":"levelo_inurba_marseille","lat":43.29931,"lon":5.36531,"is_reserved":false,"is_disabled":false,"rental_uris":{"android":"levelo://app?vid=81877182-5c12-4fe4-b6d5-1b469b15a37b","ios":"levelo://app?vid=81877182-5c12-4fe4-b6d5-1b469b15a37b"},"vehicle_type_id":"4","last_reported":1768202351,"current_range_meters":8800,"station_id":"ce4bgm92rcd13ifvqbr0","pricing_plan_id":"cebpf4jnsgd1na2vs0mg"},{"bike_id":"0aca56a0-7e23-4ac7-9142-fcb273665a2e","system_id":"levelo_inurba_marseille","lat":43.26931,"lon":5.4027,"is_reserved":false,"is_disabled":true,"rental_uris":{"android":"levelo://app?vid=0aca56a0-7e23-4ac7-9142-fcb273665a2e","ios":"levelo://app?vid=0aca56a0-7e23-4ac7-9142-fcb273665a2e"},"vehicle_type_id":"4","last_reported":1768202351,"current_range_meters":8800,"station_id":"cjm6bp8fraef2m0cb0m0","pricing_plan_id":"cebpf4jnsgd1na2vs0mg"},