{"last_updated":1716120761,"ttl":30,"version":"2.2","data":{"bikes":[{"bike_id":"1f4698c9-642f-4725-bc2a-bf02000088a4","system_id":"levelo_inurba_marseille","lat":43.31341,"lon":5.367098,"is_reserved":false,"is_disabled":false,"rental_uris":{"android":"levelo://app?vid=1f4698c9-642f-4725-bc2a-bf02000088a4","ios":"levelo://app?vid=1f4698c9-642f-4725-bc2a-bf02000088a4"},"vehicle_type_id":"4","last_reported":1716120761,"current_range_meters":24400,"station_id":"ce4bgr92rcd13ifvqc6g","pricing_plan_id":"cebpf4jnsgd1na2vs0mg"},{"bike_id":"63ba3871-db01-4a84-acda-f1346c7e0917","system_id":"levelo_inurba_marseille","lat":43.3122,"lon":5.36853,"is_reserved":false,"is_disabled":false,"rental_uris":{"android":"levelo://app?vid=63ba3871-db01-4a84-acda-f1346c7e0917","ios":"levelo://app?vid=63ba3871-db01-4a84-acda-f1346c7e0917"},"vehicle_type_id":"4","last_reported":1716120761,"current_range_meters":0,"station_id":"ce4bgl92rcd13ifvqbq0","pricing_plan_id":"cebpf4jnsgd1na2vs0mg"},{"bike_id":"4ad4642a-0daa-4f3d-b3e4-8d733c78e943","system_id":"levelo_inurba_marseille","lat":43.309076,"lon":5.368465,"is_reserved":false,"is_disabled":false,"rental_uris":{"android":"levelo://app?vid=4ad4642a-0daa-4f3d-b3e4-8d733c78e943","ios":"levelo://app?vid=4ad4642a-0daa-4f3d-b3e4-8d733c78e943"},"vehicle_type_id":"4","last_reported":1716120761,"current_range_meters":31600,"station_id":"ce4bgn92rcd13ifvqbvg","pricing_plan_id":"cebpf4jnsgd1na2vs0mg"},{"bike_id":"8254cfe1-a9f3-4694-813f-abd7d1936cec","system_id":"levelo_inurba_marseille","lat":43.314811,"lon":5.373103,"is_reserved":false,"is_disabled":false,"rental_uris":{"android":"levelo://app?vid=8254cfe1-a9f3-4694-813f-abd7d1936cec","ios":"levelo://app?vid=8254cfe1-a9f3-4694-813f-abd7d1936cec"},"vehicle_type_id":"4","last_reported":1716120761,"current_range_meters":16000,"station_id":"ce4bgt12rcd13ifvqcd0","pricing_plan_id":"cebpf4jnsgd1na2vs0mg"},{"bike_id":"07ae3ef0-c861-41de-aa97-417bc3963886","system_id":"levelo_inurba_marseille","lat":43.314811,"lon":5.373103,"is_reserved":false,"is_disabled":false,"rental_uris":{"android":"levelo://app?vid=07ae3ef0-c861-41de-aa97-417bc3963886","ios":"levelo://app?vid=07ae3ef0-c861-41de-aa97-417bc3963886"},"vehicle_type_id":"4","last_reported":1716120761,"current_range_meters":6400,"station_id":"ce4bgt12rcd13ifvqcd0","pricing_plan_id":"cebpf4jnsgd1na2vs0mg"},{"bike_id":"0c4178f6-5c23-4299-bdbf-ffd2b567bdf9","system_id":"levelo_inurba_marseille","lat":43.314811,"lon":5.373103,"is_reserved":false,"is_disabled":false,"rental_uris":{"android":"levelo://app?vid=0c4178f6-5c23-4299-bdbf-ffd2b567bdf9","ios":"levelo://app?vid=0c4178f6-5c23-4299-bdbf-ffd2b567bdf9"},"vehicle_type_id":"4","last_reported":1716120761,"current_range_meters":25200,"station_id":"ce4bgt12rcd13ifvqcd0","pricing_plan_id":"cebpf4jnsgd1na2vs0mg"},{"bike_id":"22fc5684-e7b7-4ed6-a7d2-87b724bea2a1","system_id":"levelo_inurba_marseille","lat":43.314811,"lon":5.373103,"is_reserved":false,"is_disabled":false,"rental_uris":{"android":"levelo://app?vid=22fc5684-e7b7-4ed6-a7d2-87b724bea2a1","ios":"levelo://app?vid=22fc5684-e7b7-4ed6-a7d2-87b724bea2a1"},"vehicle_type_id":"4","last_reported":1716120761,"current_range_meters":26400,"station_id":"ce4bgt12rcd13ifvqcd0","pricing_plan_id":"cebpf4jnsgd1na2vs0mg"},{"bike_id":"9fa919f1-b404-4297-a3ba-98442cadddad","system_id":"levelo_inurba_marseille","lat":43.314811,"lon":5.373104,"is_reserved":false,"is_disabled":false,"rental_uris":{"android":"levelo://app?vid=9fa919f1-b404-4297-a3ba-98442cadddad","ios":"levelo://app?vid=9fa919f1-b404-4297-a3ba-98442cadddad"},"vehicle_type_id":"4","last_reported":1716120761,"current_range_meters":2000,"station_id":"ce4bgt12rcd13ifvqcd0","pricing_plan_id":"cebpf4jnsgd1na2vs0mg"},{"bike_id":"aa6eba7d-8c37-435a-ae63-3614c26e8b62","system_id":"levelo_inurba_marseille","lat":43.314811,"lon":5.373103,"is_reserved":false,"is_disabled":false,"rental_uris":{"android":"levelo://app?vid=aa6eba7d-8c37-435a-ae63-3614c26e8b62","ios":"levelo://app?vid=aa6eba7d-8c37-435a-ae63-3614c26e8b62"},"vehicle_type_id":"4","last_reported":1716120761,"current_range_meters":23200,"station_id":"ce4bgt12rcd13ifvqcd0","pricing_plan_id":"cebpf4jnsgd1na2vs0mg"},{"bike_id":"13c9d611-78de-4b57-837d-3490072ca820","system_id":"levelo_inurba_marseille","lat":43.314811,"lon":5.373104,"is_reserved":false,"is_disabled":false,"rental_uris":{"android":"levelo://app?vid=13c9d611-78de-4b57-837d-3490072ca820","ios":"levelo://app?vid=13c9d611-78de-4b57-837d-3490072ca820"},"vehicle_type_id":"4","last_reported":1716120761,"current_range_meters":20000,"station_id":"ce4bgt12rcd13ifvqcd0","pricing_plan_id":"cebpf4jnsgd1na2vs0mg"},{"bike_id":"77ed53ed-8868-40cc-99c6-c3180476ee7c","system_id":"levelo_inurba_marseille","lat":43.309039,"lon":5.371797,"is_reserved":false,"is_disabled":false,"rental_uris":{"android":"levelo://app?vid=77ed53ed-8868-40cc-99c6-c3180476ee7c","ios":"levelo://app?vid=77ed53ed-8868-40cc-99c6-c3180476ee7c"},"vehicle_type_id":"4","last_reported":1716120761,"current_range_meters":5200,"station_id":"ce4bguh2rcd13ifvqckg","pricing_plan_id":"cebpf4jnsgd1na2vs0mg"},{"bike_id":"afab2cc5-130e-4bbc-976b-ed8f91749591","system_id":"levelo_inurba_marseille","lat":43.30951,"lon":5.37258,"is_reserved":false,"is_disabled":false,"rental_uris":{"android":"levelo://app?vid=afab2cc5-130e-4bbc-976b-ed8f91749591","ios":"levelo://app?vid=afab2cc5-130e-4bbc-976b-ed8f91749591"},"vehicle_type_id":"4","last_reported":1716120761,"current_range_meters":16000,"station_id":"","pricing_plan_id":"cebpf4jnsgd1na2vs0mg"},{"bike_id":"d170ba0d-45e7-40fa-8c28-104d467b82d3","system_id":"levelo_inurba_marseille","lat":43.31672,"lon":5.3722,"is_reserved":false,"is_disabled":false,"rental_uris":{"android":"levelo://app?vid=d170ba0d-45e7-40fa-8c28-104d467b82d3","ios":"levelo://app?vid=d170ba0d-45e7-40fa-8c28-104d467b82d3"},"vehicle_type_id":"4","last_reported":1716120761,"current_range_meters":22400,"station_id":"","pricing_plan_id":"cebpf4jnsgd1na2vs0mg"},{"bike_id":"48d82037-9eef-4469-99fe-e2ed3d409c4a","system_id":"levelo_inurba_marseille","lat":43.30537,"lon":5.367345,"is_reserved":false,"is_disabled":false,"rental_uris":{"android":"levelo://app?vid=48d82037-9eef-4469-99fe-e2ed3d409c4a","ios":"levelo://app?vid=48d82037-9eef-4469-99fe-e2ed3d409c4a"},"vehicle_type_id":"4","last_reported":1716120761,"current_range_meters":15200,"station_id":"ce4bgrp2rcd13ifvqc9g","pricing_plan_id":"cebpf4jnsgd1na2vs0mg"},{"bike_id":"181f6975-94f4-4ef8-95dd-50bf39c8e453","system_id":"levelo_inurba_marseille","lat":43.305712,"lon":5.365641,"is_reserved":false,"is_disabled":false,"rental_uris":{"android":"levelo://app?vid=181f6975-94f4-4ef8-95dd-50bf39c8e453","ios":"levelo://app?vid=181f6975-94f4-4ef8-95dd-50bf39c8e453"},"vehicle_type_id":"4","last_reported":1716120761,"current_range_meters":400,"station_id":"ce4bgs12rcd13ifvqcag","pricing_plan_id":"cebpf4jnsgd1na2vs0mg"},{"bike_id":"eef49467-4174-420d-bbba-b1e713f3006c","system_id":"levelo_inurba_marseille","lat":43.305712,"lon":5.365641,"is_reserved":false,"is_disabled":false,"rental_uris":{"android":"levelo://app?vid=eef49467-4174-420d-bbba-b1e713f3006c","ios":"levelo://app?vid=eef49467-4174-420d-bbba-b1e713f3006c"},"vehicle_type_id":"4","last_reported":1716120761,"current_range_meters":4400,"station_id":"ce4bgs12rcd13ifvqcag","pricing_plan_id":"cebpf4jnsgd1na2vs0mg"},{"bike_id":"ba53f2c8-2f34-486d-8dbf-20ee5ea8b2d7","system_id":"levelo_inurba_marseille","lat":43.305712,"lon":5.365641,"is_reserved":false,"is_disabled":false,"rental_uris":{"android":"levelo://app?vid=ba53f2c8-2f34-486d-8dbf-20ee5ea8b2d7","ios":"levelo://app?vid=ba53f2c8-2f34-486d-8dbf-20ee5ea8b2d7"},"vehicle_type_id":"4","last_reported":1716120761,"current_range_meters":29200,"station_id":"ce4bgs12rcd13ifvqcag","pricing_plan_id":"cebpf4jnsgd1na2vs0mg"},{"bike_id":"963f5c55-e108-4c78-a04a-7c32168947f4","system_id":"levelo_inurba_marseille","lat":43.305712,"lon":5.365641,"is_reserved":false,"is_disabled":false,"rental_uris":{"android":"levelo://app?vid=963f5c55-e108-4c78-a04a-7c32168947f4","ios":"levelo://app?vid=963f5c55-e108-4c78-a04a-7c32168947f4"},"vehicle_type_id":"4","last_reported":1716120761,"current_range_meters":22000,"station_id":"ce4bgs12rcd13ifvqcag","pricing_plan_id":"cebpf4jnsgd1na2vs0mg"},{"bike_id":"a24cf7f5-25b4-43f1-803f-3a8d5a58e544","system_id":"levelo_inurba_marseille","lat":43.305712,"lon":5.365641,"is_reserved":false,"is_disabled":false,"rental_uris":{"android":"levelo://app?vid=a24cf7f5-25b4-43f1-803f-3a8d5a58e544","ios":"levelo://app?vid=a24cf7f5-25b4-43f1-803f-3a8d5a58e544"},"vehicle_type_id":"4","last_reported":1716120761,"current_range_meters":14400,"station_id":"ce4bgs12rcd13ifvqcag","pricing_plan_id":"cebpf4jnsgd1na2vs0mg"},{"bike_id":"9449415f-a5e0-4678-a878-52ee6543cbf5","system_id":"levelo_inurba_marseille","lat":43.305714,"lon":5.365633,"is_reserved":false,"is_disabled":false,"rental_uris":{"android":"levelo://app?vid=9449415f-a5e0-4678-a878-52ee6543cbf5","ios":"levelo://app?vid=9449415f-a5e0-4678-a878-52ee6543cbf5"},"vehicle_type_id":"4","last_reported":1716120761,"current_range_meters":11200,"station_id":"ce4bgs12rcd13ifvqcag","pricing_plan_id":"cebpf4jnsgd1na2vs0mg"},{"bike_id":"6f8c4782-566b-4168-a337-aaf165f1269a","system_id":"levelo_inurba_marseille","lat":43.30542,"lon":5.36554,"is_reserved":false,"is_disabled":false,"rental_uris":{"android":"levelo://app?vid=6f8c4782-566b-4168-a337-aaf165f1269a","ios":"levelo://app?vid=6f8c4782-566b-4168-a337-aaf165f1269a"},"vehicle_type_id":"4","last_reported":1716120761,"current_range_meters":400,"station_id":"ce4bgs12rcd13ifvqcag","pricing_plan_id":"cebpf4jnsgd1na2vs0mg"},{"bike_id":"7ae63524-fea2-4392-8304-c461744c08d8","system_id":"levelo_inurba_marseille","lat":43.30542,"lon":5.36553,"is_reserved":false,"is_disabled":false,"rental_uris":{"android":"levelo://app?vid=7ae63524-fea2-4392-8304-c461744c08d8","ios":"levelo://app?vid=7ae63524-fea2-4392-8304-c461744c08d8"},"vehicle_type_id":"4","last_reported":1716120761,"current_range_meters":0,"station_id":"ce4bgs12rcd13ifvqcag","pricing_plan_id":"cebpf4jnsgd1na2vs0mg"},{"bike_id":"ef22dbee-602c-4004-a3cf-f8c231b5dec6","system_id":"levelo_inurba_marseille","lat":43.30543,"lon":5.365367,"is_reserved":false,"is_disabled":false,"rental_uris":{"android":"levelo://app?vid=ef22dbee-602c-4004-a3cf-f8c231b5dec6","ios":"levelo://app?vid=ef22dbee-602c-4004-a3cf-f8c231b5dec6"},"vehicle_type_id":"4","last_reported":1716120761,"current_range_meters":21600,"station_id":"ce4bgs12rcd13ifvqcag","pricing_plan_id":"cebpf4jnsgd1na2vs0mg"},{"bike_id":"2e341882-000e-496c-9ca6-1a7253b3c2b4","system_id":"levelo_inurba_marseille","lat":43.305368,"lon":5.367343,"is_reserved":false,"is_disabled":false,"rental_uris":{"android":"levelo://app?vid=2e341882-000e-496c-9ca6-1a7253b3c2b4","ios":"levelo://app?vid=2e341882-000e-496c-9ca6-1a7253b3c2b4"},"vehicle_type_id":"4","last_reported":1716120761,"current_range_meters":28400,"station_id":"ce4bgrp2rcd13ifvqc9g","pricing_plan_id":"cebpf4jnsgd1na2vs0mg"},{"bike_id":"c9fc4865-2e47-4dc9-9ec8-633778c2cfd3","system_id":"levelo_inurba_marseille","lat":43.30539,"lon":5.36533,"is_reserved":false,"is_disabled":false,"rental_uris":{"android":"levelo://app?vid=c9fc4865-2e47-4dc9-9ec8-633778c2cfd3","ios":"levelo://app?vid=c9fc4865-2e47-4dc9-9ec8-633778c2cfd3"},"vehicle_type_id":"4","last_reported":1716120761,"current_range_meters":29600,"station_id":"ce4bgs12rcd13ifvqcag","pricing_plan_id":"cebpf4jnsgd1na2vs0mg"},{"bike_id":"7f971d23-2f4b-417f-83b6-6bc1c0061b2f","system_id":"levelo_inurba_marseille","lat":43.305706,"lon":5.365654,"is_reserved":false,"is_disabled":false,"rental_uris":{"android":"levelo://app?vid=7f971d23-2f4b-417f-83b6-6bc1c0061b2f","ios":"levelo://app?vid=7f971d23-2f4b-417f-83b6-6bc1c0061b2f"},"vehicle_type_id":"4","last_reported":1716120761,"current_range_meters":1200,"station_id":"ce4bgs12rcd13ifvqcag","pricing_plan_id":"cebpf4jnsgd1na2vs0mg"},{"bike_id":"0ffa9566-49e2-4703-9268-b68e5943c6f9","system_id":"levelo_inurba_marseille","lat":43.305706,"lon":5.365654,"is_reserved":false,"is_disabled":false,"rental_uris":{"android":"levelo://app?vid=0ffa9566-49e2-4703-9268-b68e5943c6f9","ios":"levelo://app?vid=0ffa9566-49e2-4703-9268-b68e5943c6f9"},"vehicle_type_id":"4","last_reported":1716120761,"current_range_meters":22800,"station_id":"ce4bgs12rcd13ifvqcag","pricing_plan_id":"cebpf4jnsgd1na2vs0mg"},{"bike_id":"b6355b77-e883-48c0-9f03-11f3e84b5bd5","system_id":"levelo_inurba_marseille","lat":43.305989,"lon":5.37225,"is_reserved":false,"is_disabled":false,"rental_uris":{"android":"levelo://app?vid=b6355b77-e883-48c0-9f03-11f3e84b5bd5","ios":"levelo://app?vid=b6355b77-e883-48c0-9f03-11f3e84b5bd5"},"vehicle_type_id":"4","last_reported":1716120761,"current_range_meters":16800,"station_id":"ce4bgqh2rcd13ifvqc4g","pricing_plan_id":"cebpf4jnsgd1na2vs0mg"},{"bike_id":"48ca908e-9b1b-4608-b870-95fc61b4166d","system_id":"levelo_inurba_marseille","lat":43.311125,"lon":5.377624,"is_reserved":false,"is_disabled":false,"rental_uris":{"android":"levelo://app?vid=48ca908e-9b1b-4608-b870-95fc61b4166d","ios":"levelo://app?vid=48ca908e-9b1b-4608-b870-95fc61b4166d"},"vehicle_type_id":"4","last_reported":1716120761,"current_range_meters":22400,"station_id":"ce4bgt92rcd13ifvqcg0","pricing_plan_id":"cebpf4jnsgd1na2vs0mg"},{"bike_id":"cdd8e356-7d83-47c9-95b4-0d75a180fd65","system_id":"levelo_inurba_marseille","lat":43.311125,"lon":5.377624,"is_reserved":false,"is_disabled":false,"rental_uris":{"android":"levelo://app?vid=cdd8e356-7d83-47c9-95b4-0d75a180fd65","ios":"levelo://app?vid=cdd8e356-7d83-47c9-95b4-0d75a180fd65"},"vehicle_type_id":"4","last_reported":1716120761,"current_range_meters":18800,"station_id":"ce4bgt92rcd13ifvqcg0","pricing_plan_id":"cebpf4jnsgd1na2vs0mg"},{"bike_id":"1a5d47d9-bb0e-41f7-ab78-e75c3afd0e40","system_id":"levelo_inurba_marseille","lat":43.307945,"lon":5.376487,"is_reserved":false,"is_disabled":false,"rental_uris":{"android":"levelo://app?vid=1a5d47d9-bb0e-41f7-ab78-e75c3afd0e40","ios":"levelo://app?vid=1a5d47d9-bb0e-41f7-ab78-e75c3afd0e40"},"vehicle_type_id":"4","last_reported":1716120761,"current_range_meters":10400,"station_id":"ce4bgv92rcd13ifvqcq0","pricing_plan_id":"cebpf4jnsgd1na2vs0mg"},{"bike_id":"5206e2fb-0d80-4c6e-93d7-d137d8b7a650","system_id":"levelo_inurba_marseille","lat":43.301429,"lon":5.37413,"is_reserved":false,"is_disabled":false,"rental_uris":{"android":"levelo://app?vid=5206e2fb-0d80-4c6e-93d7-d137d8b7a650","ios":"levelo://app?vid=5206e2fb-0d80-4c6e-93d7-d137d8b7a650"},"vehicle_type_id":"4","last_reported":1716120761,"current_range_meters":5200,"station_id":"ce4bgs92rcd13ifvqcc0","pricing_plan_id":"cebpf4jnsgd1na2vs0mg"},{"bike_id":"7d7473a1-4448-4006-9dc3-7760e51a5ecc","system_id":"levelo_inurba_marseille","lat":43.304606,"lon":5.379026,"is_reserved":false,"is_disabled":false,"rental_uris":{"android":"levelo://app?vid=7d7473a1-4448-4006-9dc3-7760e51a5ecc","ios":"levelo://app?vid=7d7473a1-4448-4006-9dc3-7760e51a5ecc"},"vehicle_type_id":"4","last_reported":1716120761,"current_range_meters":31600,"station_id":"ce4bgup2rcd13ifvqcn0","pricing_plan_id":"cebpf4jnsgd1na2vs0mg"},{"bike_id":"6ce15c61-22e9-4f3f-ae14-b9610c1a40d6","system_id":"levelo_inurba_marseille","lat":43.30459,"lon":5.379,"is_reserved":false,"is_disabled":false,"rental_uris":{"android":"levelo://app?vid=6ce15c61-22e9-4f3f-ae14-b9610c1a40d6","ios":"levelo://app?vid=6ce15c61-22e9-4f3f-ae14-b9610c1a40d6"},"vehicle_type_id":"4","last_reported":1716120761,"current_range_meters":0,"station_id":"ce4bgup2rcd13ifvqcn0","pricing_plan_id":"cebpf4jnsgd1na2vs0mg"},{"bike_id":"ae1c81a4-ff81-492f-819b-719876cac937","system_id":"levelo_inurba_marseille","lat":43.304606,"lon":5.379026,"is_reserved":false,"is_disabled":false,"rental_uris":{"android":"levelo://app?vid=ae1c81a4-ff81-492f-819b-719876cac937","ios":"levelo://app?vid=ae1c81a4-ff81-492f-819b-719876cac937"},"vehicle_type_id":"4","last_reported":1716120761,"current_range_meters":13600,"station_id":"ce4bgup2rcd13ifvqcn0","pricing_plan_id":"cebpf4jnsgd1na2vs0mg"},{"bike_id":"a0fd7388-fcc0-48ff-b864-4d0ff2439ccb","system_id":"levelo_inurba_marseille","lat":43.304606,"lon":5.379026,"is_reserved":false,"is_disabled":false,"rental_uris":{"android":"levelo://app?vid=a0fd7388-fcc0-48ff-b864-4d0ff2439ccb","ios":"levelo://app?vid=a0fd7388-fcc0-48ff-b864-4d0ff2439ccb"},"vehicle_type_id":"4","last_reported":1716120761,"current_range_meters":17600,"station_id":"ce4bgup2rcd13ifvqcn0","pricing_plan_id":"cebpf4jnsgd1na2vs0mg"},{"bike_id":"00d698e7-ecfb-4c87-be33-308fed4d86e2","system_id":"levelo_inurba_marseille","lat":43.324771,"lon":5.36557,"is_reserved":false,"is_disabled":false,"rental_uris":{"android":"levelo://app?vid=00d698e7-ecfb-4c87-be33-308fed4d86e2","ios":"levelo://app?vid=00d698e7-ecfb-4c87-be33-308fed4d86e2"},"vehicle_type_id":"4","last_reported":1716120761,"current_range_meters":31200,"station_id":"ce4bhs12rcd13ifvqhvg","pricing_plan_id":"cebpf4jnsgd1na2vs0mg"},{"bike_id":"0130a61e-5214-4352-8551-08f3b9c737d9","system_id":"levelo_inurba_marseille","lat":43.324771,"lon":5.36557,"is_reserved":false,"is_disabled":false,"rental_uris":{"android":"levelo://app?vid=0130a61e-5214-4352-8551-08f3b9c737d9","ios":"levelo://app?vid=0130a61e-5214-4352-8551-08f3b9c737d9"},"vehicle_type_id":"4","last_reported":1716120761,"current_range_meters":27200,"station_id":"ce4bhs12rcd13ifvqhvg","pricing_plan_id":"cebpf4jnsgd1na2vs0mg"},{"bike_id":"e4f64341-361f-41e8-840a-7c495fff1a91","system_id":"levelo_inurba_marseille","lat":43.324771,"lon":5.36557,"is_reserved":false,"is_disabled":false,"rental_uris":{"android":"levelo://app?vid=e4f64341-361f-41e8-840a-7c495fff1a91","ios":"levelo://app?vid=e4f64341-361f-41e8-840a-7c495fff1a91"},"vehicle_type_id":"4","last_reported":1716120761,"current_range_meters":14000,"station_id":"ce4bhs12rcd13ifvqhvg","pricing_plan_id":"cebpf4jnsgd1na2vs0mg"},{"bike_id":"87f82b93-47ca-4c7d-8ed2-b8370cde4e16","system_id":"levelo_inurba_marseille","lat":43.324771,"lon":5.36557,"is_reserved":false,"is_disabled":false,"rental_uris":{"android":"levelo://app?vid=87f82b93-47ca-4c7d-8ed2-b8370cde4e16","ios":"levelo://app?vid=87f82b93-47ca-4c7d-8ed2-b8370cde4e16"},"vehicle_type_id":"4","last_reported":1716120761,"current_range_meters":5200,"station_id":"ce4bhs12rcd13ifvqhvg","pricing_plan_id":"cebpf4jnsgd1na2vs0mg"},{"bike_id":"e2c798d6-0783-401b-b632-e4a3e6db8597","system_id":"levelo_inurba_marseille","lat":43.324771,"lon":5.36557,"is_reserved":false,"is_disabled":false,"rental_uris":{"android":"levelo://app?vid=e2c798d6-0783-401b-b632-e4a3e6db8597","ios":"levelo://app?vid=e2c798d6-0783-401b-b632-e4a3e6db8597"},"vehicle_type_id":"4","last_reported":1716120761,"current_range_meters":26400,"station_id":"ce4bhs12rcd13ifvqhvg","pricing_plan_id":"cebpf4jnsgd1na2vs0mg"},{"bike_id":"15d3df71-50ff-4376-ab9c-c8e2dada8b0a","system_id":"levelo_inurba_marseille","lat":43.324771,"lon":5.36557,"is_reserved":false,"is_disabled":false,"rental_uris":{"android":"levelo://app?vid=15d3df71-50ff-4376-ab9c-c8e2dada8b0a","ios":"levelo://app?vid=15d3df71-50ff-4376-ab9c-c8e2dada8b0a"},"vehicle_type_id":"4","last_reported":1716120761,"current_range_meters":29200,"station_id":"ce4bhs12rcd13ifvqhvg","pricing_plan_id":"cebpf4jnsgd1na2vs0mg"},{"bike_id":"f7b6a804-87ba-44f5-968b-90fb2322fe13","system_id":"levelo_inurba_marseille","lat":43.310804,"lon":5.38359,"is_reserved":false,"is_disabled":false,"rental_uris":{"android":"levelo://app?vid=f7b6a804-87ba-44f5-968b-90fb2322fe13","ios":"levelo://app?vid=f7b6a804-87ba-44f5-968b-90fb2322fe13"},"vehicle_type_id":"4","last_reported":1716120761,"current_range_meters":30000,"station_id":"ce4bgv92rcd13ifvqcr0","pricing_plan_id":"cebpf4jnsgd1na2vs0mg"},{"bike_id":"41587a52-148f-4639-aab4-4f4fec7e8276","system_id":"levelo_inurba_marseille","lat":43.310804,"lon":5.38359,"is_reserved":false,"is_disabled":false,"rental_uris":{"android":"levelo://app?vid=41587a52-148f-4639-aab4-4f4fec7e8276","ios":"levelo://app?vid=41587a52-148f-4639-aab4-4f4fec7e8276"},"vehicle_type_id":"4","last_reported":1716120761,"current_range_meters":16800,"station_id":"ce4bgv92rcd13ifvqcr0","pricing_plan_id":"cebpf4jnsgd1na2vs0mg"},{"bike_id":"71cea51b-d8d2-4618-9837-09ef71145359","system_id":"levelo_inurba_marseille","lat":43.302784,"lon":5.377158,"is_reserved":false,"is_disabled":false,"rental_uris":{"android":"levelo://app?vid=71cea51b-d8d2-4618-9837-09ef71145359","ios":"levelo://app?vid=71cea51b-d8d2-4618-9837-09ef71145359"},"vehicle_type_id":"4","last_reported":1716120761,"current_range_meters":22400,"station_id":"ce4bguh2rcd13ifvqcj0","pricing_plan_id":"cebpf4jnsgd1na2vs0mg"},{"bike_id":"f9382358-889a-49d6-a7ce-90bab6839440","system_id":"levelo_inurba_marseille","lat":43.302784,"lon":5.377158,"is_reserved":false,"is_disabled":false,"rental_uris":{"android":"levelo://app?vid=f9382358-889a-49d6-a7ce-90bab6839440","ios":"levelo://app?vid=f9382358-889a-49d6-a7ce-90bab6839440"},"vehicle_type_id":"4","last_reported":1716120761,"current_range_meters":11200,"station_id":"ce4bguh2rcd13ifvqcj0","pricing_plan_id":"cebpf4jnsgd1na2vs0mg"},{"bike_id":"e8749ee8-7d25-42f2-a15b-5edf35bb69a9","system_id":"levelo_inurba_marseille","lat":43.302784,"lon":5.377158,"is_reserved":false,"is_disabled":false,"rental_uris":{"android":"levelo://app?vid=e8749ee8-7d25-42f2-a15b-5edf35bb69a9","ios":"levelo://app?vid=e8749ee8-7d25-42f2-a15b-5edf35bb69a9"},"vehicle_type_id":"4","last_reported":1716120761,"current_range_meters":32000,"station_id":"ce4bguh2rcd13ifvqcj0","pricing_plan_id":"cebpf4jnsgd1na2vs0mg"},{"bike_id":"a36935f1-7d6b-43d9-a022-3801a11a66c3","system_id":"levelo_inurba_marseille","lat":43.302784,"lon":5.377158,"is_reserved":false,"is_disabled":false,"rental_uris":{"android":"levelo://app?vid=a36935f1-7d6b-43d9-a022-3801a11a66c3","ios":"levelo://app?vid=a36935f1-7d6b-43d9-a022-3801a11a66c3"},"vehicle_type_id":"4","last_reported":1716120761,"current_range_meters":9200,"station_id":"ce4bguh2rcd13ifvqcj0","pricing_plan_id":"cebpf4jnsgd1na2vs0mg"},{"bike_id":"5a5ab0de-c0f1-426f-b14f-4bc40bc29c0d","system_id":"levelo_inurba_marseille","lat":43.302784,"lon":5.377158,"is_reserved":false,"is_disabled":false,"rental_uris":{"android":"levelo://app?vid=5a5ab0de-c0f1-426f-b14f-4bc40bc29c0d","ios":"levelo://app?vid=5a5ab0de-c0f1-426f-b14f-4bc40bc29c0d"},"vehicle_type_id":"4","last_reported":1716120761,"current_range_meters":12800,"station_id":"ce4bguh2rcd13ifvqcj0","pricing_plan_id":"cebpf4jnsgd1na2vs0mg"},{"bike_id":"fb3ecb29-03c0-492a-a807-0e6ccfc244b8","system_id":"levelo_inurba_marseille","lat":43.301429,"lon":5.37413,"is_reserved":false,"is_disabled":false,"rental_uris":{"android":"levelo://app?vid=fb3ecb29-03c0-492a-a807-0e6ccfc244b8","ios":"levelo://app?vid=fb3ecb29-03c0-492a-a807-0e6ccfc244b8"},"vehicle_type_id":"4","last_reported":1716120761,"current_range_meters":18000,"station_id":"ce4bgs92rcd13ifvqcc0","pricing_plan_id":"cebpf4jnsgd1na2vs0mg"},{"bike_id":"892b0f6b-a9d8-4f89-8873-befdcffbc1b7","system_id":"levelo_inurba_marseille","lat":43.302784,"lon":5.377158,"is_reserved":false,"is_disabled":false,"rental_uris":{"android":"levelo://app?vid=892b0f6b-a9d8-4f89-8873-befdcffbc1b7","ios":"levelo://app?vid=892b0f6b-a9d8-4f89-8873-befdcffbc1b7"},"vehicle_type_id":"4","last_reported":1716120761,"current_range_meters":32000,"station_id":"ce4bguh2rcd13ifvqcj0","pricing_plan_id":"cebpf4jnsgd1na2vs0mg"},{"bike_id":"70add663-1ea8-47db-b357-58a05a14c44f","system_id":"levelo_inurba_marseille","lat":43.301429,"lon":5.37413,"is_reserved":false,"is_disabled":false,"rental_uris":{"android":"levelo://app?vid=70add663-1ea8-47db-b357-58a05a14c44f","ios":"levelo://app?vid=70add663-1ea8-47db-b357-58a05a14c44f"},"vehicle_type_id":"4","last_reported":1716120761,"current_range_meters":16400,"station_id":"ce4bgs92rcd13ifvqcc0","pricing_plan_id":"cebpf4jnsgd1na2vs0mg"},{"bike_id":"1959406a-7a6d-4efa-b1f2-79c3647190af","system_id":"levelo_inurba_marseille","lat":43.302784,"lon":5.377158,"is_reserved":false,"is_disabled":false,"rental_uris":{"android":"levelo://app?vid=1959406a-7a6d-4efa-b1f2-79c3647190af","ios":"levelo://app?vid=1959406a-7a6d-4efa-b1f2-79c3647190af"},"vehicle_type_id":"4","last_reported":1716120761,"current_range_meters":2800,"station_id":"ce4bguh2rcd13ifvqcj0","pricing_plan_id":"cebpf4jnsgd1na2vs0mg"},{"bike_id":"70a32d8e-a20f-4949-bd39-ff113ec9e3e2","system_id":"levelo_inurba_marseille","lat":43.319935,"lon":5.381699,"is_reserved":false,"is_disabled":false,"rental_uris":{"android":"levelo://app?vid=70a32d8e-a20f-4949-bd39-ff113ec9e3e2","ios":"levelo://app?vid=70a32d8e-a20f-4949-bd39-ff113ec9e3e2"},"vehicle_type_id":"4","last_reported":1716120761,"current_range_meters":30800,"station_id":"ce4bhr12rcd13ifvqhpg","pricing_plan_id":"cebpf4jnsgd1na2vs0mg"},{"bike_id":"9add5509-f510-454b-a00b-cfedac868c43","system_id":"levelo_inurba_marseille","lat":43.319935,"lon":5.381699,"is_reserved":false,"is_disabled":false,"rental_uris":{"android":"levelo://app?vid=9add5509-f510-454b-a00b-cfedac868c43","ios":"levelo://app?vid=9add5509-f510-454b-a00b-cfedac868c43"},"vehicle_type_id":"4","last_reported":1716120761,"current_range_meters":27600,"station_id":"ce4bhr12rcd13ifvqhpg","pricing_plan_id":"cebpf4jnsgd1na2vs0mg"},{"bike_id":"3bd009a4-82e3-4728-b984-dbfb46a11ee4","system_id":"levelo_inurba_marseille","lat":43.319935,"lon":5.381699,"is_reserved":false,"is_disabled":false,"rental_uris":{"android":"levelo://app?vid=3bd009a4-82e3-4728-b984-dbfb46a11ee4","ios":"levelo://app?vid=3bd009a4-82e3-4728-b984-dbfb46a11ee4"},"vehicle_type_id":"4","last_reported":1716120761,"current_range_meters":30800,"station_id":"ce4bhr12rcd13ifvqhpg","pricing_plan_id":"cebpf4jnsgd1na2vs0mg"},{"bike_id":"8f5c5c22-3194-4339-9a9a-5249b75cef31","system_id":"levelo_inurba_marseille","lat":43.319935,"lon":5.381699,"is_reserved":false,"is_disabled":false,"rental_uris":{"android":"levelo://app?vid=8f5c5c22-3194-4339-9a9a-5249b75cef31","ios":"levelo://app?vid=8f5c5c22-3194-4339-9a9a-5249b75cef31"},"vehicle_type_id":"4","last_reported":1716120761,"current_range_meters":27200,"station_id":"ce4bhr12rcd13ifvqhpg","pricing_plan_id":"cebpf4jnsgd1na2vs0mg"},{"bike_id":"f4084352-e8bf-4462-8167-6cbb5da9ffe4","system_id":"levelo_inurba_marseille","lat":43.319935,"lon":5.381699,"is_reserved":false,"is_disabled":false,"rental_uris":{"android":"levelo://app?vid=f4084352-e8bf-4462-8167-6cbb5da9ffe4","ios":"levelo://app?vid=f4084352-e8bf-4462-8167-6cbb5da9ffe4"},"vehicle_type_id":"4","last_reported":1716120761,"current_range_meters":2000,"station_id":"ce4bhr12rcd13ifvqhpg","pricing_plan_id":"cebpf4jnsgd1na2vs0mg"},{"bike_id":"f704b525-ce20-4003-a92d-beba5a58a4de","system_id":"levelo_inurba_marseille","lat":43.313571,"lon":5.384829,"is_reserved":false,"is_disabled":false,"rental_uris":{"android":"levelo://app?vid=f704b525-ce20-4003-a92d-beba5a58a4de","ios":"levelo://app?vid=f704b525-ce20-4003-a92d-beba5a58a4de"},"vehicle_type_id":"4","last_reported":1716120761,"current_range_meters":14800,"station_id":"ce4bgt92rcd13ifvqcf0","pricing_plan_id":"cebpf4jnsgd1na2vs0mg"},{"bike_id":"cb60c856-8963-469e-924f-907a02610b2d","system_id":"levelo_inurba_marseille","lat":43.299927,"lon":5.371842,"is_reserved":false,"is_disabled":false,"rental_uris":{"android":"levelo://app?vid=cb60c856-8963-469e-924f-907a02610b2d","ios":"levelo://app?vid=cb60c856-8963-469e-924f-907a02610b2d"},"vehicle_type_id":"4","last_reported":1716120761,"current_range_meters":18400,"station_id":"ce4bgr92rcd13ifvqc7g","pricing_plan_id":"cebpf4jnsgd1na2vs0mg"},{"bike_id":"c3a37e99-e88e-47f3-bb3a-0412ff725271","system_id":"levelo_inurba_marseille","lat":43.299222,"lon":5.365554,"is_reserved":false,"is_disabled":false,"rental_uris":{"android":"levelo://app?vid=c3a37e99-e88e-47f3-bb3a-0412ff725271","ios":"levelo://app?vid=c3a37e99-e88e-47f3-bb3a-0412ff725271"},"vehicle_type_id":"4","last_reported":1716120761,"current_range_meters":21200,"station_id":"ce4bgm92rcd13ifvqbr0","pricing_plan_id":"cebpf4jnsgd1na2vs0mg"},{"bike_id":"8a207ec3-16bf-4d9e-8e76-507b297b4d0b","system_id":"levelo_inurba_marseille","lat":43.299222,"lon":5.365554,"is_reserved":false,"is_disabled":false,"rental_uris":{"android":"levelo://app?vid=8a207ec3-16bf-4d9e-8e76-507b297b4d0b","ios":"levelo://app?vid=8a207ec3-16bf-4d9e-8e76-507b297b4d0b"},"vehicle_type_id":"4","last_reported":1716120761,"current_range_meters":0,"station_id":"ce4bgm92rcd13ifvqbr0","pricing_plan_id":"cebpf4jnsgd1na2vs0mg"},{"bike_id":"954a04b0-3a78-4651-80d9-70c9c1f229d3","system_id":"levelo_inurba_marseille","lat":43.298433,"lon":5.362774,"is_reserved":false,"is_disabled":false,"rental_uris":{"android":"levelo://app?vid=954a04b0-3a78-4651-80d9-70c9c1f229d3","ios":"levelo://app?vid=954a04b0-3a78-4651-80d9-70c9c1f229d3"},"vehicle_type_id":"4","last_reported":1716120761,"current_range_meters":4800,"station_id":"ce4bgpp2rcd13ifvqc3g","pricing_plan_id":"cebpf4jnsgd1na2vs0mg"},{"bike_id":"d38b0c0f-f22f-4508-a432-02f69f8b86f1","system_id":"levelo_inurba_marseille","lat":43.298433,"lon":5.362774,"is_reserved":false,"is_disabled":false,"rental_uris":{"android":"levelo://app?vid=d38b0c0f-f22f-4508-a432-02f69f8b86f1","ios":"levelo://app?vid=d38b0c0f-f22f-4508-a432-02f69f8b86f1"},"vehicle_type_id":"4","last_reported":1716120761,"current_range_meters":23600,"station_id":"ce4bgpp2rcd13ifvqc3g","pricing_plan_id":"cebpf4jnsgd1na2vs0mg"},{"bike_id":"f8cd75c5-9514-409f-bb6f-b4657b8ff041","system_id":"levelo_inurba_marseille","lat":43.298433,"lon":5.362774,"is_reserved":false,"is_disabled":false,"rental_uris":{"android":"levelo://app?vid=f8cd75c5-9514-409f-bb6f-b4657b8ff041","ios":"levelo://app?vid=f8cd75c5-9514-409f-bb6f-b4657b8ff041"},"vehicle_type_id":"4","last_reported":1716120761,"current_range_meters":0,"station_id":"ce4bgpp2rcd13ifvqc3g","pricing_plan_id":"cebpf4jnsgd1na2vs0mg"},{"bike_id":"f9b44d9e-5452-4edb-8844-71717fc78b3f","system_id":"levelo_inurba_marseille","lat":43.298507,"lon":5.362867,"is_reserved":false,"is_disabled":false,"rental_uris":{"android":"levelo://app?vid=f9b44d9e-5452-4edb-8844-71717fc78b3f","ios":"levelo://app?vid=f9b44d9e-5452-4edb-8844-71717fc78b3f"},"vehicle_type_id":"4","last_reported":1716120761,"current_range_meters":12000,"station_id":"ce4bgpp2rcd13ifvqc3g","pricing_plan_id":"cebpf4jnsgd1na2vs0mg"},{"bike_id":"00cac95e-f7d0-4805-b0e1-96228ef60455","system_id":"levelo_inurba_marseille","lat":43.2985,"lon":5.36283,"is_reserved":false,"is_disabled":false,"rental_uris":{"android":"levelo://app?vid=00cac95e-f7d0-4805-b0e1-96228ef60455","ios":"levelo://app?vid=00cac95e-f7d0-4805-b0e1-96228ef60455"},"vehicle_type_id":"4","last_reported":1716120761,"current_range_meters":5200,"station_id":"ce4bgpp2rcd13ifvqc3g","pricing_plan_id":"cebpf4jnsgd1na2vs0mg"},{"bike_id":"0386042e-986e-473b-8748-dd1bb4d8cad6","system_id":"levelo_inurba_marseille","lat":43.29847,"lon":5.36286,"is_reserved":false,"is_disabled":false,"rental_uris":{"android":"levelo://app?vid=0386042e-986e-473b-8748-dd1bb4d8cad6","ios":"levelo://app?vid=0386042e-986e-473b-8748-dd1bb4d8cad6"},"vehicle_type_id":"4","last_reported":1716120761,"current_range_meters":12800,"station_id":"ce4bgpp2rcd13ifvqc3g","pricing_plan_id":"cebpf4jnsgd1na2vs0mg"},{"bike_id":"afb88581-23a2-47f2-987b-b715fdbbd493","system_id":"levelo_inurba_marseille","lat":43.305364,"lon":5.384119,"is_reserved":false,"is_disabled":false,"rental_uris":{"android":"levelo://app?vid=afb88581-23a2-47f2-987b-b715fdbbd493","ios":"levelo://app?vid=afb88581-23a2-47f2-987b-b715fdbbd493"},"vehicle_type_id":"4","last_reported":1716120761,"current_range_meters":5200,"station_id":"ce4bgg92rcd13ifvqb30","pricing_plan_id":"cebpf4jnsgd1na2vs0mg"},{"bike_id":"a4613ab8-2211-46ca-abb5-1f21c0cb8720","system_id":"levelo_inurba_marseille","lat":43.29847,"lon":5.36273,"is_reserved":false,"is_disabled":false,"rental_uris":{"android":"levelo://app?vid=a4613ab8-2211-46ca-abb5-1f21c0cb8720","ios":"levelo://app?vid=a4613ab8-2211-46ca-abb5-1f21c0cb8720"},"vehicle_type_id":"4","last_reported":1716120761,"current_range_meters":22400,"station_id":"ce4bgpp2rcd13ifvqc3g","pricing_plan_id":"cebpf4jnsgd1na2vs0mg"},{"bike_id":"c75895ba-eda2-44d1-8644-264aa9bb4e3c","system_id":"levelo_inurba_marseille","lat":43.29845,"lon":5.36283,"is_reserved":false,"is_disabled":false,"rental_uris":{"android":"levelo://app?vid=c75895ba-eda2-44d1-8644-264aa9bb4e3c","ios":"levelo://app?vid=c75895ba-eda2-44d1-8644-264aa9bb4e3c"},"vehicle_type_id":"4","last_reported":1716120761,"current_range_meters":31200,"station_id":"ce4bgpp2rcd13ifvqc3g","pricing_plan_id":"cebpf4jnsgd1na2vs0mg"},{"bike_id":"d3488c14-03d3-4936-b14d-2613782ba11f","system_id":"levelo_inurba_marseille","lat":43.298433,"lon":5.362774,"is_reserved":false,"is_disabled":false,"rental_uris":{"android":"levelo://app?vid=d3488c14-03d3-4936-b14d-2613782ba11f","ios":"levelo://app?vid=d3488c14-03d3-4936-b14d-2613782ba11f"},"vehicle_type_id":"4","last_reported":1716120761,"current_range_meters":19200,"station_id":"ce4bgpp2rcd13ifvqc3g","pricing_plan_id":"cebpf4jnsgd1na2vs0mg"},{"bike_id":"b6d7c99c-e704-46f7-b3b1-c50d7e01bcbd","system_id":"levelo_inurba_marseille","lat":43.298433,"lon":5.362774,"is_reserved":false,"is_disabled":false,"rental_uris":{"android":"levelo://app?vid=b6d7c99c-e704-46f7-b3b1-c50d7e01bcbd","ios":"levelo://app?vid=b6d7c99c-e704-46f7-b3b1-c50d7e01bcbd"},"vehicle_type_id":"4","last_reported":1716120761,"current_range_meters":21200,"station_id":"ce4bgpp2rcd13ifvqc3g","pricing_plan_id":"cebpf4jnsgd1na2vs0mg"},{"bike_id":"68ef3adb-bb26-4f12-9a91-da1eb17addfc","system_id":"levelo_inurba_marseille","lat":43.302597,"lon":5.381362,"is_reserved":false,"is_disabled":false,"rental_uris":{"android":"levelo://app?vid=68ef3adb-bb26-4f12-9a91-da1eb17addfc","ios":"levelo://app?vid=68ef3adb-bb26-4f12-9a91-da1eb17addfc"},"vehicle_type_id":"4","last_reported":1716120761,"current_range_meters":8800,"station_id":"","pricing_plan_id":"cebpf4jnsgd1na2vs0mg"},{"bike_id":"9376c64d-2b56-4c4d-ae13-c99d573af99b","system_id":"levelo_inurba_marseille","lat":43.298433,"lon":5.362774,"is_reserved":false,"is_disabled":false,"rental_uris":{"android":"levelo://app?vid=9376c64d-2b56-4c4d-ae13-c99d573af99b","ios":"levelo://app?vid=9376c64d-2b56-4c4d-ae13-c99d573af99b"},"vehicle_type_id":"4","last_reported":1716120761,"current_range_meters":28400,"station_id":"ce4bgpp2rcd13ifvqc3g","pricing_plan_id":"cebpf4jnsgd1na2vs0mg"},{"bike_id":"dc8b35c9-c033-4f66-b15c-9e0370a84ded","system_id":"levelo_inurba_marseille","lat":43.30258,"lon":5.38136,"is_reserved":false,"is_disabled":false,"rental_uris":{"android":"levelo://app?vid=dc8b35c9-c033-4f66-b15c-9e0370a84ded","ios":"levelo://app?vid=dc8b35c9-c033-4f66-b15c-9e0370a84ded"},"vehicle_type_id":"4","last_reported":1716120761,"current_range_meters":17600,"station_id":"","pricing_plan_id":"cebpf4jnsgd1na2vs0mg"},{"bike_id":"781e6637-fe4f-4a41-97ed-df9d5f57d354","system_id":"levelo_inurba_marseille","lat":43.30258,"lon":5.38137,"is_reserved":false,"is_disabled":false,"rental_uris":{"android":"levelo://app?vid=781e6637-fe4f-4a41-97ed-df9d5f57d354","ios":"levelo://app?vid=781e6637-fe4f-4a41-97ed-df9d5f57d354"},"vehicle_type_id":"4","last_reported":1716120761,"current_range_meters":18400,"station_id":"","pricing_plan_id":"cebpf4jnsgd1na2vs0mg"},{"bike_id":"fedf1b77-a730-4f6e-8b19-e1384d8232f4","system_id":"levelo_inurba_marseille","lat":43.29843,"lon":5.36278,"is_reserved":false,"is_disabled":false,"rental_uris":{"android":"levelo://app?vid=fedf1b77-a730-4f6e-8b19-e1384d8232f4","ios":"levelo://app?vid=fedf1b77-a730-4f6e-8b19-e1384d8232f4"},"vehicle_type_id":"4","last_reported":1716120761,"current_range_meters":10400,"station_id":"ce4bgpp2rcd13ifvqc3g","pricing_plan_id":"cebpf4jnsgd1na2vs0mg"},{"bike_id":"14270527-9a0a-4b4a-ae02-528122e0f727","system_id":"levelo_inurba_marseille","lat":43.298433,"lon":5.362774,"is_reserved":false,"is_disabled":false,"rental_uris":{"android":"levelo://app?vid=14270527-9a0a-4b4a-ae02-528122e0f727","ios":"levelo://app?vid=14270527-9a0a-4b4a-ae02-528122e0f727"},"vehicle_type_id":"4","last_reported":1716120761,"current_range_meters":13200,"station_id":"ce4bgpp2rcd13ifvqc3g","pricing_plan_id":"cebpf4jnsgd1na2vs0mg"},{"bike_id":"3e08a4f9-95bf-4361-a550-ffbb09a1d5a5","system_id":"levelo_inurba_marseille","lat":43.31183,"lon":5.38706,"is_reserved":false,"is_disabled":false,"rental_uris":{"android":"levelo://app?vid=3e08a4f9-95bf-4361-a550-ffbb09a1d5a5","ios":"levelo://app?vid=3e08a4f9-95bf-4361-a550-ffbb09a1d5a5"},"vehicle_type_id":"4","last_reported":1716120761,"current_range_meters":0,"station_id":"ce4bgv12rcd13ifvqcp0","pricing_plan_id":"cebpf4jnsgd1na2vs0mg"},{"bike_id":"2e4ba53c-d790-41e5-b64d-95d6cc231dd4","system_id":"levelo_inurba_marseille","lat":43.29839,"lon":5.36267,"is_reserved":false,"is_disabled":false,"rental_uris":{"android":"levelo://app?vid=2e4ba53c-d790-41e5-b64d-95d6cc231dd4","ios":"levelo://app?vid=2e4ba53c-d790-41e5-b64d-95d6cc231dd4"},"vehicle_type_id":"4","last_reported":1716120761,"current_range_meters":26000,"station_id":"ce4bgpp2rcd13ifvqc3g","pricing_plan_id":"cebpf4jnsgd1na2vs0mg"},{"bike_id":"71225803-b362-4b5e-b7a2-4262e74917ca","system_id":"levelo_inurba_marseille","lat":43.311722,"lon":5.387247,"is_reserved":false,"is_disabled":false,"rental_uris":{"android":"levelo://app?vid=71225803-b362-4b5e-b7a2-4262e74917ca","ios":"levelo://app?vid=71225803-b362-4b5e-b7a2-4262e74917ca"},"vehicle_type_id":"4","last_reported":1716120761,"current_range_meters":26800,"station_id":"ce4bgv12rcd13ifvqcp0","pricing_plan_id":"cebpf4jnsgd1na2vs0mg"},{"bike_id":"61d56cdb-cd6b-4b3a-8534-d61dd7fc9a8f","system_id":"levelo_inurba_marseille","lat":43.30252,"lon":5.38158,"is_reserved":false,"is_disabled":false,"rental_uris":{"android":"levelo://app?vid=61d56cdb-cd6b-4b3a-8534-d61dd7fc9a8f","ios":"levelo://app?vid=61d56cdb-cd6b-4b3a-8534-d61dd7fc9a8f"},"vehicle_type_id":"4","last_reported":1716120761,"current_range_meters":4800,"station_id":"","pricing_plan_id":"cebpf4jnsgd1na2vs0mg"},{"bike_id":"670f1621-a9f4-43b0-a191-2d7d6d3e328d","system_id":"levelo_inurba_marseille","lat":43.299243,"lon":5.37481,"is_reserved":false,"is_disabled":false,"rental_uris":{"android":"levelo://app?vid=670f1621-a9f4-43b0-a191-2d7d6d3e328d","ios":"levelo://app?vid=670f1621-a9f4-43b0-a191-2d7d6d3e328d"},"vehicle_type_id":"4","last_reported":1716120761,"current_range_meters":22400,"station_id":"ce4bgjh2rcd13ifvqbg0","pricing_plan_id":"cebpf4jnsgd1na2vs0mg"},{"bike_id":"606f8b43-6510-48b6-88b9-5dbbe1c44b2c","system_id":"levelo_inurba_marseille","lat":43.30218,"lon":5.38162,"is_reserved":false,"is_disabled":false,"rental_uris":{"android":"levelo://app?vid=606f8b43-6510-48b6-88b9-5dbbe1c44b2c","ios":"levelo://app?vid=606f8b43-6510-48b6-88b9-5dbbe1c44b2c"},"vehicle_type_id":"4","last_reported":1716120761,"current_range_meters":17200,"station_id":"","pricing_plan_id":"cebpf4jnsgd1na2vs0mg"},{"bike_id":"43e8568b-771d-41c1-888d-b56a63a40b7d","system_id":"levelo_inurba_marseille","lat":43.29927,"lon":5.3762,"is_reserved":false,"is_disabled":false,"rental_uris":{"android":"levelo://app?vid=43e8568b-771d-41c1-888d-b56a63a40b7d","ios":"levelo://app?vid=43e8568b-771d-41c1-888d-b56a63a40b7d"},"vehicle_type_id":"4","last_reported":1716120761,"current_range_meters":0,"station_id":"","pricing_plan_id":"cebpf4jnsgd1na2vs0mg"},{"bike_id":"b22379ec-8777-4dcd-8c0e-9642bdad8cfd","system_id":"levelo_inurba_marseille","lat":43.297774,"lon":5.370875,"is_reserved":false,"is_disabled":false,"rental_uris":{"android":"levelo://app?vid=b22379ec-8777-4dcd-8c0e-9642bdad8cfd","ios":"levelo://app?vid=b22379ec-8777-4dcd-8c0e-9642bdad8cfd"},"vehicle_type_id":"4","last_reported":1716120761,"current_range_meters":31200,"station_id":"ce4bgop2rcd13ifvqc1g","pricing_plan_id":"cebpf4jnsgd1na2vs0mg"},{"bike_id":"a78c0371-18a7-4609-8a16-1a99a180568a","system_id":"levelo_inurba_marseille","lat":43.29787,"lon":5.37097,"is_reserved":false,"is_disabled":false,"rental_uris":{"android":"levelo://app?vid=a78c0371-18a7-4609-8a16-1a99a180568a","ios":"levelo://app?vid=a78c0371-18a7-4609-8a16-1a99a180568a"},"vehicle_type_id":"4","last_reported":1716120761,"current_range_meters":29600,"station_id":"ce4bgop2rcd13ifvqc1g","pricing_plan_id":"cebpf4jnsgd1na2vs0mg"},{"bike_id":"49bcf57f-cc4c-43f2-ba0f-303de55d40dc","system_id":"levelo_inurba_marseille","lat":43.322852,"lon":5.382579,"is_reserved":false,"is_disabled":false,"rental_uris":{"android":"levelo://app?vid=49bcf57f-cc4c-43f2-ba0f-303de55d40dc","ios":"levelo://app?vid=49bcf57f-cc4c-43f2-ba0f-303de55d40dc"},"vehicle_type_id":"4","last_reported":1716120761,"current_range_meters":12000,"station_id":"ce4bhr12rcd13ifvqhqg","pricing_plan_id":"cebpf4jnsgd1na2vs0mg"},{"bike_id":"a0832526-408d-4d81-b3fd-c55242f8a03a","system_id":"levelo_inurba_marseille","lat":43.322872,"lon":5.382756,"is_reserved":false,"is_disabled":false,"rental_uris":{"android":"levelo://app?vid=a0832526-408d-4d81-b3fd-c55242f8a03a","ios":"levelo://app?vid=a0832526-408d-4d81-b3fd-c55242f8a03a"},"vehicle_type_id":"4","last_reported":1716120761,"current_range_meters":20400,"station_id":"ce4bhr12rcd13ifvqhqg","pricing_plan_id":"cebpf4jnsgd1na2vs0mg"},{"bike_id":"f9b21518-354d-493a-b0c6-3b22079d4f52","system_id":"levelo_inurba_marseille","lat":43.322872,"lon":5.382756,"is_reserved":false,"is_disabled":false,"rental_uris":{"android":"levelo://app?vid=f9b21518-354d-493a-b0c6-3b22079d4f52","ios":"levelo://app?vid=f9b21518-354d-493a-b0c6-3b22079d4f52"},"vehicle_type_id":"4","last_reported":1716120761,"current_range_meters":13200,"station_id":"ce4bhr12rcd13ifvqhqg","pricing_plan_id":"cebpf4jnsgd1na2vs0mg"},{"bike_id":"7f53dd92-127b-4b5e-b28d-ee5769e92317","system_id":"levelo_inurba_marseille","lat":43.322872,"lon":5.382756,"is_reserved":false,"is_disabled":false,"rental_uris":{"android":"levelo://app?vid=7f53dd92-127b-4b5e-b28d-ee5769e92317","ios":"levelo://app?vid=7f53dd92-127b-4b5e-b28d-ee5769e92317"},"vehicle_type_id":"4","last_reported":1716120761,"current_range_meters":26400,"station_id":"ce4bhr12rcd13ifvqhqg","pricing_plan_id":"cebpf4jnsgd1na2vs0mg"},{"bike_id":"9ea84c07-2433-41de-b2ab-0e0cc2368335","system_id":"levelo_inurba_marseille","lat":43.322872,"lon":5.382756,"is_reserved":false,"is_disabled":false,"rental_uris":{"android":"levelo://app?vid=9ea84c07-2433-41de-b2ab-0e0cc2368335","ios":"levelo://app?vid=9ea84c07-2433-41de-b2ab-0e0cc2368335"},"vehicle_type_id":"4","last_reported":1716120761,"current_range_meters":26400,"station_id":"ce4bhr12rcd13ifvqhqg","pricing_plan_id":"cebpf4jnsgd1na2vs0mg"},{"bike_id":"a7f35a7d-2ccc-4417-aaac-83f8effdc9f8","system_id":"levelo_inurba_marseille","lat":43.322872,"lon":5.382756,"is_reserved":false,"is_disabled":false,"rental_uris":{"android":"levelo://app?vid=a7f35a7d-2ccc-4417-aaac-83f8effdc9f8","ios":"levelo://app?vid=a7f35a7d-2ccc-4417-aaac-83f8effdc9f8"},"vehicle_type_id":"4","last_reported":1716120761,"current_range_meters":4000,"station_id":"ce4bhr12rcd13ifvqhqg","pricing_plan_id":"cebpf4jnsgd1na2vs0mg"},{"bike_id":"9385d173-06b2-4fde-8d3d-ba7b1bec39da","system_id":"levelo_inurba_marseille","lat":43.322836,"lon":5.382832,"is_reserved":false,"is_disabled":false,"rental_uris":{"android":"levelo://app?vid=9385d173-06b2-4fde-8d3d-ba7b1bec39da","ios":"levelo://app?vid=9385d173-06b2-4fde-8d3d-ba7b1bec39da"},"vehicle_type_id":"4","last_reported":1716120761,"current_range_meters":0,"station_id":"ce4bhr12rcd13ifvqhqg","pricing_plan_id":"cebpf4jnsgd1na2vs0mg"},{"bike_id":"4dbd6109-2a33-4a5f-8876-0447c1c68e2a","system_id":"levelo_inurba_marseille","lat":43.29709,"lon":5.36613,"is_reserved":false,"is_disabled":false,"rental_uris":{"android":"levelo://app?vid=4dbd6109-2a33-4a5f-8876-0447c1c68e2a","ios":"levelo://app?vid=4dbd6109-2a33-4a5f-8876-0447c1c68e2a"},"vehicle_type_id":"4","last_reported":1716120761,"current_range_meters":16800,"station_id":"ce4bgn12rcd13ifvqbt0","pricing_plan_id":"cebpf4jnsgd1na2vs0mg"},{"bike_id":"28271988-c822-4ba4-9dcf-08c8e19aa3d1","system_id":"levelo_inurba_marseille","lat":43.297163,"lon":5.365866,"is_reserved":false,"is_disabled":false,"rental_uris":{"android":"levelo://app?vid=28271988-c822-4ba4-9dcf-08c8e19aa3d1","ios":"levelo://app?vid=28271988-c822-4ba4-9dcf-08c8e19aa3d1"},"vehicle_type_id":"4","last_reported":1716120761,"current_range_meters":10400,"station_id":"ce4bgn12rcd13ifvqbt0","pricing_plan_id":"cebpf4jnsgd1na2vs0mg"},{"bike_id":"c0b498e0-13a8-4048-9ad1-239a98ef44f9","system_id":"levelo_inurba_marseille","lat":43.298766,"lon":5.380022,"is_reserved":false,"is_disabled":false,"rental_uris":{"android":"levelo://app?vid=c0b498e0-13a8-4048-9ad1-239a98ef44f9","ios":"levelo://app?vid=c0b498e0-13a8-4048-9ad1-239a98ef44f9"},"vehicle_type_id":"4","last_reported":1716120761,"current_range_meters":15200,"station_id":"","pricing_plan_id":"cebpf4jnsgd1na2vs0mg"},{"bike_id":"f368d2b4-15a8-4de5-91d8-3a1b00d446ce","system_id":"levelo_inurba_marseille","lat":43.30963,"lon":5.39021,"is_reserved":false,"is_disabled":false,"rental_uris":{"android":"levelo://app?vid=f368d2b4-15a8-4de5-91d8-3a1b00d446ce","ios":"levelo://app?vid=f368d2b4-15a8-4de5-91d8-3a1b00d446ce"},"vehicle_type_id":"4","last_reported":1716120761,"current_range_meters":31200,"station_id":"ce4bgup2rcd13ifvqco0","pricing_plan_id":"cebpf4jnsgd1na2vs0mg"},{"bike_id":"3aa77145-ce77-4555-9a53-b7eab56eaa0f","system_id":"levelo_inurba_marseille","lat":43.31758,"lon":5.3902,"is_reserved":false,"is_disabled":false,"rental_uris":{"android":"levelo://app?vid=3aa77145-ce77-4555-9a53-b7eab56eaa0f","ios":"levelo://app?vid=3aa77145-ce77-4555-9a53-b7eab56eaa0f"},"vehicle_type_id":"4","last_reported":1716120761,"current_range_meters":10800,"station_id":"ce4bhqp2rcd13ifvqhng","pricing_plan_id":"cebpf4jnsgd1na2vs0mg"},{"bike_id":"2d6ed3c9-b255-4db7-b856-01e1a0ad08e9","system_id":"levelo_inurba_marseille","lat":43.295748,"lon":5.37522,"is_reserved":false,"is_disabled":false,"rental_uris":{"android":"levelo://app?vid=2d6ed3c9-b255-4db7-b856-01e1a0ad08e9","ios":"levelo://app?vid=2d6ed3c9-b255-4db7-b856-01e1a0ad08e9"},"vehicle_type_id":"4","last_reported":1716120761,"current_range_meters":0,"station_id":"ce4bgh92rcd13ifvqb50","pricing_plan_id":"cebpf4jnsgd1na2vs0mg"},{"bike_id":"2486c5f2-205f-4977-853f-d190b60edc87","system_id":"levelo_inurba_marseille","lat":43.296277,"lon":5.377108,"is_reserved":false,"is_disabled":false,"rental_uris":{"android":"levelo://app?vid=2486c5f2-205f-4977-853f-d190b60edc87","ios":"levelo://app?vid=2486c5f2-205f-4977-853f-d190b60edc87"},"vehicle_type_id":"4","last_reported":1716120761,"current_range_meters":20800,"station_id":"ce4bgi92rcd13ifvqb90","pricing_plan_id":"cebpf4jnsgd1na2vs0mg"},{"bike_id":"d7eab271-cb87-49c0-a63c-a9a475d55cd9","system_id":"levelo_inurba_marseille","lat":43.296263,"lon":5.377094,"is_reserved":false,"is_disabled":false,"rental_uris":{"android":"levelo://app?vid=d7eab271-cb87-49c0-a63c-a9a475d55cd9","ios":"levelo://app?vid=d7eab271-cb87-49c0-a63c-a9a475d55cd9"},"vehicle_type_id":"4","last_reported":1716120761,"current_range_meters":0,"station_id":"ce4bgi92rcd13ifvqb90","pricing_plan_id":"cebpf4jnsgd1na2vs0mg"},{"bike_id":"08769113-ea81-495b-bf07-6f0433b41eec","system_id":"levelo_inurba_marseille","lat":43.299724,"lon":5.384848,"is_reserved":false,"is_disabled":false,"rental_uris":{"android":"levelo://app?vid=08769113-ea81-495b-bf07-6f0433b41eec","ios":"levelo://app?vid=08769113-ea81-495b-bf07-6f0433b41eec"},"vehicle_type_id":"4","last_reported":1716120761,"current_range_meters":0,"station_id":"ce4bgj92rcd13ifvqbd0","pricing_plan_id":"cebpf4jnsgd1na2vs0mg"},{"bike_id":"139c5c91-dd8e-46c3-b26c-7e2207bda2bb","system_id":"levelo_inurba_marseille","lat":43.30089,"lon":5.38729,"is_reserved":false,"is_disabled":false,"rental_uris":{"android":"levelo://app?vid=139c5c91-dd8e-46c3-b26c-7e2207bda2bb","ios":"levelo://app?vid=139c5c91-dd8e-46c3-b26c-7e2207bda2bb"},"vehicle_type_id":"4","last_reported":1716120761,"current_range_meters":23600,"station_id":"","pricing_plan_id":"cebpf4jnsgd1na2vs0mg"},{"bike_id":"d5d2eea5-1adb-4a93-8baa-386795011fc2","system_id":"levelo_inurba_marseille","lat":43.325594,"lon":5.386439,"is_reserved":false,"is_disabled":false,"rental_uris":{"android":"levelo://app?vid=d5d2eea5-1adb-4a93-8baa-386795011fc2","ios":"levelo://app?vid=d5d2eea5-1adb-4a93-8baa-386795011fc2"},"vehicle_type_id":"4","last_reported":1716120761,"current_range_meters":0,"station_id":"","pricing_plan_id":"cebpf4jnsgd1na2vs0mg"},{"bike_id":"b6b9148e-db3c-46f6-9730-efad05531916","system_id":"levelo_inurba_marseille","lat":43.284214,"lon":5.349706,"is_reserved":false,"is_disabled":false,"rental_uris":{"android":"levelo://app?vid=b6b9148e-db3c-46f6-9730-efad05531916","ios":"levelo://app?vid=b6b9148e-db3c-46f6-9730-efad05531916"},"vehicle_type_id":"4","last_reported":1716120761,"current_range_meters":19600,"station_id":"ce4bhbh2rcd13ifvqepg","pricing_plan_id":"cebpf4jnsgd1na2vs0mg"},{"bike_id":"b986569b-b2b0-4656-94e4-5954bef0c15d","system_id":"levelo_inurba_marseille","lat":43.29313,"lon":5.37463,"is_reserved":false,"is_disabled":false,"rental_uris":{"android":"levelo://app?vid=b986569b-b2b0-4656-94e4-5954bef0c15d","ios":"levelo://app?vid=b986569b-b2b0-4656-94e4-5954bef0c15d"},"vehicle_type_id":"4","last_reported":1716120761,"current_range_meters":12400,"station_id":"ce4bgi12rcd13ifvqb70","pricing_plan_id":"cebpf4jnsgd1na2vs0mg"},{"bike_id":"1676382e-ec8f-457e-8aa5-5e0fc3cf8d25","system_id":"levelo_inurba_marseille","lat":43.305994,"lon":5.393687,"is_reserved":false,"is_disabled":false,"rental_uris":{"android":"levelo://app?vid=1676382e-ec8f-457e-8aa5-5e0fc3cf8d25","ios":"levelo://app?vid=1676382e-ec8f-457e-8aa5-5e0fc3cf8d25"},"vehicle_type_id":"4","last_reported":1716120761,"current_range_meters":15200,"station_id":"ce4bh0p2rcd13ifvqd80","pricing_plan_id":"cebpf4jnsgd1na2vs0mg"},{"bike_id":"00ce5254-5ebe-45a4-9cea-c4650ed8d92c","system_id":"levelo_inurba_marseille","lat":43.2936,"lon":5.37835,"is_reserved":false,"is_disabled":false,"rental_uris":{"android":"levelo://app?vid=00ce5254-5ebe-45a4-9cea-c4650ed8d92c","ios":"levelo://app?vid=00ce5254-5ebe-45a4-9cea-c4650ed8d92c"},"vehicle_type_id":"4","last_reported":1716120761,"current_range_meters":3600,"station_id":"ce4bgjh2rcd13ifvqbf0","pricing_plan_id":"cebpf4jnsgd1na2vs0mg"},{"bike_id":"9e04c3fb-5a91-4d78-b84e-61dd96fdd680","system_id":"levelo_inurba_marseille","lat":43.292311,"lon":5.360731,"is_reserved":false,"is_disabled":false,"rental_uris":{"android":"levelo://app?vid=9e04c3fb-5a91-4d78-b84e-61dd96fdd680","ios":"levelo://app?vid=9e04c3fb-5a91-4d78-b84e-61dd96fdd680"},"vehicle_type_id":"4","last_reported":1716120761,"current_range_meters":18000,"station_id":"ce4bhbh2rcd13ifvqeqg","pricing_plan_id":"cebpf4jnsgd1na2vs0mg"},{"bike_id":"95caacd7-ef8c-469c-a6e8-b5bfc44e5509","system_id":"levelo_inurba_marseille","lat":43.300852,"lon":5.390859,"is_reserved":false,"is_disabled":false,"rental_uris":{"android":"levelo://app?vid=95caacd7-ef8c-469c-a6e8-b5bfc44e5509","ios":"levelo://app?vid=95caacd7-ef8c-469c-a6e8-b5bfc44e5509"},"vehicle_type_id":"4","last_reported":1716120761,"current_range_meters":21200,"station_id":"ce4bh192rcd13ifvqdb0","pricing_plan_id":"cebpf4jnsgd1na2vs0mg"},{"bike_id":"1f3e7094-272b-4556-8d17-ae3505035d12","system_id":"levelo_inurba_marseille","lat":43.293009,"lon":5.374584,"is_reserved":false,"is_disabled":false,"rental_uris":{"android":"levelo://app?vid=1f3e7094-272b-4556-8d17-ae3505035d12","ios":"levelo://app?vid=1f3e7094-272b-4556-8d17-ae3505035d12"},"vehicle_type_id":"4","last_reported":1716120761,"current_range_meters":800,"station_id":"ce4bgi12rcd13ifvqb70","pricing_plan_id":"cebpf4jnsgd1na2vs0mg"},{"bike_id":"90093d3f-12a9-41b5-becf-53259ef78667","system_id":"levelo_inurba_marseille","lat":43.291671,"lon":5.371575,"is_reserved":false,"is_disabled":false,"rental_uris":{"android":"levelo://app?vid=90093d3f-12a9-41b5-becf-53259ef78667","ios":"levelo://app?vid=90093d3f-12a9-41b5-becf-53259ef78667"},"vehicle_type_id":"4","last_reported":1716120761,"current_range_meters":7200,"station_id":"ce4bha92rcd13ifvqeh0","pricing_plan_id":"cebpf4jnsgd1na2vs0mg"},{"bike_id":"dd8785a2-05e3-465b-a773-27e636204247","system_id":"levelo_inurba_marseille","lat":43.28856,"lon":5.358371,"is_reserved":false,"is_disabled":false,"rental_uris":{"android":"levelo://app?vid=dd8785a2-05e3-465b-a773-27e636204247","ios":"levelo://app?vid=dd8785a2-05e3-465b-a773-27e636204247"},"vehicle_type_id":"4","last_reported":1716120761,"current_range_meters":0,"station_id":"ce4bhb12rcd13ifvqem0","pricing_plan_id":"cebpf4jnsgd1na2vs0mg"},{"bike_id":"be488931-e68c-4d98-bd77-87fe2de41753","system_id":"levelo_inurba_marseille","lat":43.29194,"lon":5.35797,"is_reserved":false,"is_disabled":false,"rental_uris":{"android":"levelo://app?vid=be488931-e68c-4d98-bd77-87fe2de41753","ios":"levelo://app?vid=be488931-e68c-4d98-bd77-87fe2de41753"},"vehicle_type_id":"4","last_reported":1716120761,"current_range_meters":21600,"station_id":"ce4bhb12rcd13ifvqel0","pricing_plan_id":"cebpf4jnsgd1na2vs0mg"},{"bike_id":"89b5c133-dd2f-466e-b9aa-55db7403a976","system_id":"levelo_inurba_marseille","lat":43.29192,"lon":5.35801,"is_reserved":false,"is_disabled":false,"rental_uris":{"android":"levelo://app?vid=89b5c133-dd2f-466e-b9aa-55db7403a976","ios":"levelo://app?vid=89b5c133-dd2f-466e-b9aa-55db7403a976"},"vehicle_type_id":"4","last_reported":1716120761,"current_range_meters":30000,"station_id":"ce4bhb12rcd13ifvqel0","pricing_plan_id":"cebpf4jnsgd1na2vs0mg"},{"bike_id":"b4e33765-979a-4f16-895f-51a64f6ee2a5","system_id":"levelo_inurba_marseille","lat":43.29193,"lon":5.35789,"is_reserved":false,"is_disabled":false,"rental_uris":{"android":"levelo://app?vid=b4e33765-979a-4f16-895f-51a64f6ee2a5","ios":"levelo://app?vid=b4e33765-979a-4f16-895f-51a64f6ee2a5"},"vehicle_type_id":"4","last_reported":1716120761,"current_range_meters":29200,"station_id":"ce4bhb12rcd13ifvqel0","pricing_plan_id":"cebpf4jnsgd1na2vs0mg"},{"bike_id":"47625bf2-386c-46d9-a431-23f5512ba7b6","system_id":"levelo_inurba_marseille","lat":43.29189,"lon":5.358,"is_reserved":false,"is_disabled":false,"rental_uris":{"android":"levelo://app?vid=47625bf2-386c-46d9-a431-23f5512ba7b6","ios":"levelo://app?vid=47625bf2-386c-46d9-a431-23f5512ba7b6"},"vehicle_type_id":"4","last_reported":1716120761,"current_range_meters":21600,"station_id":"ce4bhb12rcd13ifvqel0","pricing_plan_id":"cebpf4jnsgd1na2vs0mg"},{"bike_id":"1c151b78-1826-40dc-81dc-639f940b8397","system_id":"levelo_inurba_marseille","lat":43.30877,"lon":5.39644,"is_reserved":false,"is_disabled":false,"rental_uris":{"android":"levelo://app?vid=1c151b78-1826-40dc-81dc-639f940b8397","ios":"levelo://app?vid=1c151b78-1826-40dc-81dc-639f940b8397"},"vehicle_type_id":"4","last_reported":1716120761,"current_range_meters":0,"station_id":"ce4bh012rcd13ifvqcv0","pricing_plan_id":"cebpf4jnsgd1na2vs0mg"},{"bike_id":"5062987c-0697-4581-aa01-a9f7132cff4a","system_id":"levelo_inurba_marseille","lat":43.29192,"lon":5.35786,"is_reserved":false,"is_disabled":false,"rental_uris":{"android":"levelo://app?vid=5062987c-0697-4581-aa01-a9f7132cff4a","ios":"levelo://app?vid=5062987c-0697-4581-aa01-a9f7132cff4a"},"vehicle_type_id":"4","last_reported":1716120761,"current_range_meters":29600,"station_id":"ce4bhb12rcd13ifvqel0","pricing_plan_id":"cebpf4jnsgd1na2vs0mg"},{"bike_id":"dabee0ca-6844-4fb2-bcb0-ccbe3e639e30","system_id":"levelo_inurba_marseille","lat":43.29191,"lon":5.3579,"is_reserved":false,"is_disabled":false,"rental_uris":{"android":"levelo://app?vid=dabee0ca-6844-4fb2-bcb0-ccbe3e639e30","ios":"levelo://app?vid=dabee0ca-6844-4fb2-bcb0-ccbe3e639e30"},"vehicle_type_id":"4","last_reported":1716120761,"current_range_meters":18000,"station_id":"ce4bhb12rcd13ifvqel0","pricing_plan_id":"cebpf4jnsgd1na2vs0mg"},{"bike_id":"29befbf1-bfc8-4996-9c8b-895283498b60","system_id":"levelo_inurba_marseille","lat":43.309038,"lon":5.396546,"is_reserved":false,"is_disabled":false,"rental_uris":{"android":"levelo://app?vid=29befbf1-bfc8-4996-9c8b-895283498b60","ios":"levelo://app?vid=29befbf1-bfc8-4996-9c8b-895283498b60"},"vehicle_type_id":"4","last_reported":1716120761,"current_range_meters":8000,"station_id":"ce4bh012rcd13ifvqcv0","pricing_plan_id":"cebpf4jnsgd1na2vs0mg"},{"bike_id":"7b930bdf-0fb0-4cb0-a973-a4ff0443e2fe","system_id":"levelo_inurba_marseille","lat":43.317557,"lon":5.390173,"is_reserved":false,"is_disabled":false,"rental_uris":{"android":"levelo://app?vid=7b930bdf-0fb0-4cb0-a973-a4ff0443e2fe","ios":"levelo://app?vid=7b930bdf-0fb0-4cb0-a973-a4ff0443e2fe"},"vehicle_type_id":"4","last_reported":1716120761,"current_range_meters":4400,"station_id":"ce4bhqp2rcd13ifvqhng","pricing_plan_id":"cebpf4jnsgd1na2vs0mg"},{"bike_id":"39fce43c-d871-4ce2-9089-8cb1f4fc023d","system_id":"levelo_inurba_marseille","lat":43.286593,"lon":5.363346,"is_reserved":false,"is_disabled":false,"rental_uris":{"android":"levelo://app?vid=39fce43c-d871-4ce2-9089-8cb1f4fc023d","ios":"levelo://app?vid=39fce43c-d871-4ce2-9089-8cb1f4fc023d"},"vehicle_type_id":"4","last_reported":1716120761,"current_range_meters":2800,"station_id":"ce4bhah2rcd13ifvqej0","pricing_plan_id":"cebpf4jnsgd1na2vs0mg"},{"bike_id":"eb8a8153-6e38-463a-86f5-c8992670d433","system_id":"levelo_inurba_marseille","lat":43.302008,"lon":5.394694,"is_reserved":false,"is_disabled":false,"rental_uris":{"android":"levelo://app?vid=eb8a8153-6e38-463a-86f5-c8992670d433","ios":"levelo://app?vid=eb8a8153-6e38-463a-86f5-c8992670d433"},"vehicle_type_id":"4","last_reported":1716120761,"current_range_meters":16000,"station_id":"ce4bh0p2rcd13ifvqd70","pricing_plan_id":"cebpf4jnsgd1na2vs0mg"},{"bike_id":"62a4e4de-a5b6-4611-9e7a-7beccda295ef","system_id":"levelo_inurba_marseille","lat":43.290624,"lon":5.359245,"is_reserved":false,"is_disabled":false,"rental_uris":{"android":"levelo://app?vid=62a4e4de-a5b6-4611-9e7a-7beccda295ef","ios":"levelo://app?vid=62a4e4de-a5b6-4611-9e7a-7beccda295ef"},"vehicle_type_id":"4","last_reported":1716120761,"current_range_meters":24800,"station_id":"ce4bha92rcd13ifvqeg0","pricing_plan_id":"cebpf4jnsgd1na2vs0mg"},{"bike_id":"858100e4-0a08-41a6-bd45-b1723f056148","system_id":"levelo_inurba_marseille","lat":43.290402,"lon":5.359208,"is_reserved":false,"is_disabled":false,"rental_uris":{"android":"levelo://app?vid=858100e4-0a08-41a6-bd45-b1723f056148","ios":"levelo://app?vid=858100e4-0a08-41a6-bd45-b1723f056148"},"vehicle_type_id":"4","last_reported":1716120761,"current_range_meters":22400,"station_id":"ce4bha92rcd13ifvqeg0","pricing_plan_id":"cebpf4jnsgd1na2vs0mg"},{"bike_id":"de31ddcf-4cb2-4b4e-ba0a-8ac41cb488b3","system_id":"levelo_inurba_marseille","lat":43.29039,"lon":5.35919,"is_reserved":false,"is_disabled":false,"rental_uris":{"android":"levelo://app?vid=de31ddcf-4cb2-4b4e-ba0a-8ac41cb488b3","ios":"levelo://app?vid=de31ddcf-4cb2-4b4e-ba0a-8ac41cb488b3"},"vehicle_type_id":"4","last_reported":1716120761,"current_range_meters":0,"station_id":"ce4bha92rcd13ifvqeg0","pricing_plan_id":"cebpf4jnsgd1na2vs0mg"},{"bike_id":"d157aad7-b196-4105-bb3d-9b5358be7cf8","system_id":"levelo_inurba_marseille","lat":43.289184,"lon":5.366408,"is_reserved":false,"is_disabled":false,"rental_uris":{"android":"levelo://app?vid=d157aad7-b196-4105-bb3d-9b5358be7cf8","ios":"levelo://app?vid=d157aad7-b196-4105-bb3d-9b5358be7cf8"},"vehicle_type_id":"4","last_reported":1716120761,"current_range_meters":23200,"station_id":"ce4bhap2rcd13ifvqek0","pricing_plan_id":"cebpf4jnsgd1na2vs0mg"},{"bike_id":"2a7c7c42-8f77-40bc-be59-ee4d405f52f1","system_id":"levelo_inurba_marseille","lat":43.304274,"lon":5.397513,"is_reserved":false,"is_disabled":false,"rental_uris":{"android":"levelo://app?vid=2a7c7c42-8f77-40bc-be59-ee4d405f52f1","ios":"levelo://app?vid=2a7c7c42-8f77-40bc-be59-ee4d405f52f1"},"vehicle_type_id":"4","last_reported":1716120761,"current_range_meters":21600,"station_id":"ce4bh092rcd13ifvqd20","pricing_plan_id":"cebpf4jnsgd1na2vs0mg"},{"bike_id":"6af5965b-58e1-4939-af3b-98e3e6f7240d","system_id":"levelo_inurba_marseille","lat":43.294162,"lon":5.386292,"is_reserved":false,"is_disabled":false,"rental_uris":{"android":"levelo://app?vid=6af5965b-58e1-4939-af3b-98e3e6f7240d","ios":"levelo://app?vid=6af5965b-58e1-4939-af3b-98e3e6f7240d"},"vehicle_type_id":"4","last_reported":1716120761,"current_range_meters":26000,"station_id":"ce4bh2h2rcd13ifvqdh0","pricing_plan_id":"cebpf4jnsgd1na2vs0mg"},{"bike_id":"83f1c5cd-828b-4c20-bdbd-df88d1ed276d","system_id":"levelo_inurba_marseille","lat":43.289184,"lon":5.366408,"is_reserved":false,"is_disabled":false,"rental_uris":{"android":"levelo://app?vid=83f1c5cd-828b-4c20-bdbd-df88d1ed276d","ios":"levelo://app?vid=83f1c5cd-828b-4c20-bdbd-df88d1ed276d"},"vehicle_type_id":"4","last_reported":1716120761,"current_range_meters":0,"station_id":"ce4bhap2rcd13ifvqek0","pricing_plan_id":"cebpf4jnsgd1na2vs0mg"},{"bike_id":"3c7f61c1-b86f-418a-9060-b62d3e150e6f","system_id":"levelo_inurba_marseille","lat":43.289184,"lon":5.366408,"is_reserved":false,"is_disabled":false,"rental_uris":{"android":"levelo://app?vid=3c7f61c1-b86f-418a-9060-b62d3e150e6f","ios":"levelo://app?vid=3c7f61c1-b86f-418a-9060-b62d3e150e6f"},"vehicle_type_id":"4","last_reported":1716120761,"current_range_meters":19600,"station_id":"ce4bhap2rcd13ifvqek0","pricing_plan_id":"cebpf4jnsgd1na2vs0mg"},{"bike_id":"68795372-4b5e-4064-9b97-fb7afca6a946","system_id":"levelo_inurba_marseille","lat":43.289184,"lon":5.366408,"is_reserved":false,"is_disabled":false,"rental_uris":{"android":"levelo://app?vid=68795372-4b5e-4064-9b97-fb7afca6a946","ios":"levelo://app?vid=68795372-4b5e-4064-9b97-fb7afca6a946"},"vehicle_type_id":"4","last_reported":1716120761,"current_range_meters":11600,"station_id":"ce4bhap2rcd13ifvqek0","pricing_plan_id":"cebpf4jnsgd1na2vs0mg"},{"bike_id":"91823544-5f05-4cb2-b77d-dfc6f0227399","system_id":"levelo_inurba_marseille","lat":43.289184,"lon":5.366408,"is_reserved":false,"is_disabled":false,"rental_uris":{"android":"levelo://app?vid=91823544-5f05-4cb2-b77d-dfc6f0227399","ios":"levelo://app?vid=91823544-5f05-4cb2-b77d-dfc6f0227399"},"vehicle_type_id":"4","last_reported":1716120761,"current_range_meters":16000,"station_id":"ce4bhap2rcd13ifvqek0","pricing_plan_id":"cebpf4jnsgd1na2vs0mg"},{"bike_id":"7171ea8d-c5b7-4e2b-834b-fff7e808cce6","system_id":"levelo_inurba_marseille","lat":43.289386,"lon":5.363984,"is_reserved":false,"is_disabled":false,"rental_uris":{"android":"levelo://app?vid=7171ea8d-c5b7-4e2b-834b-fff7e808cce6","ios":"levelo://app?vid=7171ea8d-c5b7-4e2b-834b-fff7e808cce6"},"vehicle_type_id":"4","last_reported":1716120761,"current_range_meters":22800,"station_id":"ce4bhc92rcd13ifvqetg","pricing_plan_id":"cebpf4jnsgd1na2vs0mg"},{"bike_id":"0dfd1812-c1a3-4145-8440-096684545d7b","system_id":"levelo_inurba_marseille","lat":43.289468,"lon":5.363719,"is_reserved":false,"is_disabled":false,"rental_uris":{"android":"levelo://app?vid=0dfd1812-c1a3-4145-8440-096684545d7b","ios":"levelo://app?vid=0dfd1812-c1a3-4145-8440-096684545d7b"},"vehicle_type_id":"4","last_reported":1716120761,"current_range_meters":1600,"station_id":"ce4bhc92rcd13ifvqetg","pricing_plan_id":"cebpf4jnsgd1na2vs0mg"},{"bike_id":"f3b71885-1202-4978-9244-0251e4742b17","system_id":"levelo_inurba_marseille","lat":43.304274,"lon":5.397513,"is_reserved":false,"is_disabled":false,"rental_uris":{"android":"levelo://app?vid=f3b71885-1202-4978-9244-0251e4742b17","ios":"levelo://app?vid=f3b71885-1202-4978-9244-0251e4742b17"},"vehicle_type_id":"4","last_reported":1716120761,"current_range_meters":20800,"station_id":"ce4bh092rcd13ifvqd20","pricing_plan_id":"cebpf4jnsgd1na2vs0mg"},{"bike_id":"0d1012a2-3fbe-4940-b057-85514ce4ecce","system_id":"levelo_inurba_marseille","lat":43.292642,"lon":5.384254,"is_reserved":false,"is_disabled":false,"rental_uris":{"android":"levelo://app?vid=0d1012a2-3fbe-4940-b057-85514ce4ecce","ios":"levelo://app?vid=0d1012a2-3fbe-4940-b057-85514ce4ecce"},"vehicle_type_id":"4","last_reported":1716120761,"current_range_meters":12000,"station_id":"ce4bh692rcd13ifvqea0","pricing_plan_id":"cebpf4jnsgd1na2vs0mg"},{"bike_id":"5baaebff-f560-4fe9-abf9-c98e9f83e9dd","system_id":"levelo_inurba_marseille","lat":43.290104,"lon":5.356111,"is_reserved":false,"is_disabled":false,"rental_uris":{"android":"levelo://app?vid=5baaebff-f560-4fe9-abf9-c98e9f83e9dd","ios":"levelo://app?vid=5baaebff-f560-4fe9-abf9-c98e9f83e9dd"},"vehicle_type_id":"4","last_reported":1716120761,"current_range_meters":10400,"station_id":"ce4bhb92rcd13ifvqen0","pricing_plan_id":"cebpf4jnsgd1na2vs0mg"},{"bike_id":"e2014c93-a96c-43ea-a327-3d690d740a0f","system_id":"levelo_inurba_marseille","lat":43.29005,"lon":5.35613,"is_reserved":false,"is_disabled":false,"rental_uris":{"android":"levelo://app?vid=e2014c93-a96c-43ea-a327-3d690d740a0f","ios":"levelo://app?vid=e2014c93-a96c-43ea-a327-3d690d740a0f"},"vehicle_type_id":"4","last_reported":1716120761,"current_range_meters":1200,"station_id":"ce4bhb92rcd13ifvqen0","pricing_plan_id":"cebpf4jnsgd1na2vs0mg"},{"bike_id":"9fd0c44b-f27e-40c2-8d3d-c54b02bed5a5","system_id":"levelo_inurba_marseille","lat":43.290104,"lon":5.356111,"is_reserved":false,"is_disabled":false,"rental_uris":{"android":"levelo://app?vid=9fd0c44b-f27e-40c2-8d3d-c54b02bed5a5","ios":"levelo://app?vid=9fd0c44b-f27e-40c2-8d3d-c54b02bed5a5"},"vehicle_type_id":"4","last_reported":1716120761,"current_range_meters":23600,"station_id":"ce4bhb92rcd13ifvqen0","pricing_plan_id":"cebpf4jnsgd1na2vs0mg"},{"bike_id":"0650d23b-e4b3-4120-a85f-6addab1fff25","system_id":"levelo_inurba_marseille","lat":43.290104,"lon":5.356111,"is_reserved":false,"is_disabled":false,"rental_uris":{"android":"levelo://app?vid=0650d23b-e4b3-4120-a85f-6addab1fff25","ios":"levelo://app?vid=0650d23b-e4b3-4120-a85f-6addab1fff25"},"vehicle_type_id":"4","last_reported":1716120761,"current_range_meters":2800,"station_id":"ce4bhb92rcd13ifvqen0","pricing_plan_id":"cebpf4jnsgd1na2vs0mg"},{"bike_id":"b76c8489-82cf-4046-8e50-3a11e6ac2732","system_id":"levelo_inurba_marseille","lat":43.290995,"lon":5.381361,"is_reserved":false,"is_disabled":false,"rental_uris":{"android":"levelo://app?vid=b76c8489-82cf-4046-8e50-3a11e6ac2732","ios":"levelo://app?vid=b76c8489-82cf-4046-8e50-3a11e6ac2732"},"vehicle_type_id":"4","last_reported":1716120761,"current_range_meters":18400,"station_id":"ce4bh512rcd13ifvqe2g","pricing_plan_id":"cebpf4jnsgd1na2vs0mg"},{"bike_id":"65c75d39-c6f4-4130-9eb3-28eb4c758430","system_id":"levelo_inurba_marseille","lat":43.28983,"lon":5.37836,"is_reserved":false,"is_disabled":false,"rental_uris":{"android":"levelo://app?vid=65c75d39-c6f4-4130-9eb3-28eb4c758430","ios":"levelo://app?vid=65c75d39-c6f4-4130-9eb3-28eb4c758430"},"vehicle_type_id":"4","last_reported":1716120761,"current_range_meters":0,"station_id":"ce4bh9p2rcd13ifvqed0","pricing_plan_id":"cebpf4jnsgd1na2vs0mg"},{"bike_id":"5a4cf29e-0210-41f9-ac63-3dab41fdfbee","system_id":"levelo_inurba_marseille","lat":43.297815,"lon":5.393548,"is_reserved":false,"is_disabled":false,"rental_uris":{"android":"levelo://app?vid=5a4cf29e-0210-41f9-ac63-3dab41fdfbee","ios":"levelo://app?vid=5a4cf29e-0210-41f9-ac63-3dab41fdfbee"},"vehicle_type_id":"4","last_reported":1716120761,"current_range_meters":29600,"station_id":"chh1huq6cuj3fo74tm60","pricing_plan_id":"cebpf4jnsgd1na2vs0mg"},{"bike_id":"ce54be57-c1e1-4c8e-a35c-0f9b83c98922","system_id":"levelo_inurba_marseille","lat":43.297815,"lon":5.393548,"is_reserved":false,"is_disabled":false,"rental_uris":{"android":"levelo://app?vid=ce54be57-c1e1-4c8e-a35c-0f9b83c98922","ios":"levelo://app?vid=ce54be57-c1e1-4c8e-a35c-0f9b83c98922"},"vehicle_type_id":"4","last_reported":1716120761,"current_range_meters":30400,"station_id":"chh1huq6cuj3fo74tm60","pricing_plan_id":"cebpf4jnsgd1na2vs0mg"},{"bike_id":"fc32ecd8-bc04-4113-8415-cf1d92d81be4","system_id":"levelo_inurba_marseille","lat":43.330442,"lon":5.389148,"is_reserved":false,"is_disabled":false,"rental_uris":{"android":"levelo://app?vid=fc32ecd8-bc04-4113-8415-cf1d92d81be4","ios":"levelo://app?vid=fc32ecd8-bc04-4113-8415-cf1d92d81be4"},"vehicle_type_id":"4","last_reported":1716120761,"current_range_meters":16400,"station_id":"ce4bhr92rcd13ifvqhrg","pricing_plan_id":"cebpf4jnsgd1na2vs0mg"},{"bike_id":"8931e82c-8668-49fc-8dcc-eec7e9bea515","system_id":"levelo_inurba_marseille","lat":43.330442,"lon":5.389148,"is_reserved":false,"is_disabled":false,"rental_uris":{"android":"levelo://app?vid=8931e82c-8668-49fc-8dcc-eec7e9bea515","ios":"levelo://app?vid=8931e82c-8668-49fc-8dcc-eec7e9bea515"},"vehicle_type_id":"4","last_reported":1716120761,"current_range_meters":26400,"station_id":"ce4bhr92rcd13ifvqhrg","pricing_plan_id":"cebpf4jnsgd1na2vs0mg"},{"bike_id":"b85ec20f-9926-42f9-b77c-caea13791310","system_id":"levelo_inurba_marseille","lat":43.290094,"lon":5.381264,"is_reserved":false,"is_disabled":false,"rental_uris":{"android":"levelo://app?vid=b85ec20f-9926-42f9-b77c-caea13791310","ios":"levelo://app?vid=b85ec20f-9926-42f9-b77c-caea13791310"},"vehicle_type_id":"4","last_reported":1716120761,"current_range_meters":5600,"station_id":"ce4bh4p2rcd13ifvqe1g","pricing_plan_id":"cebpf4jnsgd1na2vs0mg"},{"bike_id":"7e80649b-c4a4-4f80-8a93-a3be6004b1a6","system_id":"levelo_inurba_marseille","lat":43.2901,"lon":5.381269,"is_reserved":false,"is_disabled":false,"rental_uris":{"android":"levelo://app?vid=7e80649b-c4a4-4f80-8a93-a3be6004b1a6","ios":"levelo://app?vid=7e80649b-c4a4-4f80-8a93-a3be6004b1a6"},"vehicle_type_id":"4","last_reported":1716120761,"current_range_meters":0,"station_id":"ce4bh4p2rcd13ifvqe1g","pricing_plan_id":"cebpf4jnsgd1na2vs0mg"},{"bike_id":"cdb220b4-d3d1-4fe2-8d85-b60011af0f1b","system_id":"levelo_inurba_marseille","lat":43.312609,"lon":5.401662,"is_reserved":false,"is_disabled":false,"rental_uris":{"android":"levelo://app?vid=cdb220b4-d3d1-4fe2-8d85-b60011af0f1b","ios":"levelo://app?vid=cdb220b4-d3d1-4fe2-8d85-b60011af0f1b"},"vehicle_type_id":"4","last_reported":1716120761,"current_range_meters":26800,"station_id":"ce4bh092rcd13ifvqd30","pricing_plan_id":"cebpf4jnsgd1na2vs0mg"},{"bike_id":"f79d997e-23aa-48be-8c85-579ef5f9e966","system_id":"levelo_inurba_marseille","lat":43.312609,"lon":5.401662,"is_reserved":false,"is_disabled":false,"rental_uris":{"android":"levelo://app?vid=f79d997e-23aa-48be-8c85-579ef5f9e966","ios":"levelo://app?vid=f79d997e-23aa-48be-8c85-579ef5f9e966"},"vehicle_type_id":"4","last_reported":1716120761,"current_range_meters":28400,"station_id":"ce4bh092rcd13ifvqd30","pricing_plan_id":"cebpf4jnsgd1na2vs0mg"},{"bike_id":"4fa81c91-a39d-4160-93d7-b314e9fd0ee8","system_id":"levelo_inurba_marseille","lat":43.33745,"lon":5.37453,"is_reserved":false,"is_disabled":false,"rental_uris":{"android":"levelo://app?vid=4fa81c91-a39d-4160-93d7-b314e9fd0ee8","ios":"levelo://app?vid=4fa81c91-a39d-4160-93d7-b314e9fd0ee8"},"vehicle_type_id":"4","last_reported":1716120761,"current_range_meters":10000,"station_id":"","pricing_plan_id":"cebpf4jnsgd1na2vs0mg"},{"bike_id":"2324fec1-d3f7-4f02-ba34-8b6b21a1ec2a","system_id":"levelo_inurba_marseille","lat":43.312609,"lon":5.401662,"is_reserved":false,"is_disabled":false,"rental_uris":{"android":"levelo://app?vid=2324fec1-d3f7-4f02-ba34-8b6b21a1ec2a","ios":"levelo://app?vid=2324fec1-d3f7-4f02-ba34-8b6b21a1ec2a"},"vehicle_type_id":"4","last_reported":1716120761,"current_range_meters":16000,"station_id":"ce4bh092rcd13ifvqd30","pricing_plan_id":"cebpf4jnsgd1na2vs0mg"},{"bike_id":"5527c006-c287-4e79-9693-ef0469370945","system_id":"levelo_inurba_marseille","lat":43.309371,"lon":5.401449,"is_reserved":false,"is_disabled":false,"rental_uris":{"android":"levelo://app?vid=5527c006-c287-4e79-9693-ef0469370945","ios":"levelo://app?vid=5527c006-c287-4e79-9693-ef0469370945"},"vehicle_type_id":"4","last_reported":1716120761,"current_range_meters":3600,"station_id":"ce4bgvp2rcd13ifvqct0","pricing_plan_id":"cebpf4jnsgd1na2vs0mg"},{"bike_id":"8fc6ebe8-68ab-4991-9aa7-185ef6592e71","system_id":"levelo_inurba_marseille","lat":43.337568,"lon":5.37449,"is_reserved":false,"is_disabled":false,"rental_uris":{"android":"levelo://app?vid=8fc6ebe8-68ab-4991-9aa7-185ef6592e71","ios":"levelo://app?vid=8fc6ebe8-68ab-4991-9aa7-185ef6592e71"},"vehicle_type_id":"4","last_reported":1716120761,"current_range_meters":8000,"station_id":"","pricing_plan_id":"cebpf4jnsgd1na2vs0mg"},{"bike_id":"91d9714b-b35f-47ce-8f34-022bf351236f","system_id":"levelo_inurba_marseille","lat":43.337642,"lon":5.374393,"is_reserved":false,"is_disabled":false,"rental_uris":{"android":"levelo://app?vid=91d9714b-b35f-47ce-8f34-022bf351236f","ios":"levelo://app?vid=91d9714b-b35f-47ce-8f34-022bf351236f"},"vehicle_type_id":"4","last_reported":1716120761,"current_range_meters":17600,"station_id":"","pricing_plan_id":"cebpf4jnsgd1na2vs0mg"},{"bike_id":"a8206947-ca43-4d1f-a62d-62640ca15cc5","system_id":"levelo_inurba_marseille","lat":43.301117,"lon":5.398795,"is_reserved":false,"is_disabled":false,"rental_uris":{"android":"levelo://app?vid=a8206947-ca43-4d1f-a62d-62640ca15cc5","ios":"levelo://app?vid=a8206947-ca43-4d1f-a62d-62640ca15cc5"},"vehicle_type_id":"4","last_reported":1716120761,"current_range_meters":18800,"station_id":"ce4bh0h2rcd13ifvqd40","pricing_plan_id":"cebpf4jnsgd1na2vs0mg"},{"bike_id":"07dd7b82-c7b3-4fa0-a8ab-041e8958dd8d","system_id":"levelo_inurba_marseille","lat":43.301117,"lon":5.398795,"is_reserved":false,"is_disabled":false,"rental_uris":{"android":"levelo://app?vid=07dd7b82-c7b3-4fa0-a8ab-041e8958dd8d","ios":"levelo://app?vid=07dd7b82-c7b3-4fa0-a8ab-041e8958dd8d"},"vehicle_type_id":"4","last_reported":1716120761,"current_range_meters":30000,"station_id":"ce4bh0h2rcd13ifvqd40","pricing_plan_id":"cebpf4jnsgd1na2vs0mg"},{"bike_id":"0ef86280-f811-4d65-b904-2b37ccc77e74","system_id":"levelo_inurba_marseille","lat":43.301117,"lon":5.398795,"is_reserved":false,"is_disabled":false,"rental_uris":{"android":"levelo://app?vid=0ef86280-f811-4d65-b904-2b37ccc77e74","ios":"levelo://app?vid=0ef86280-f811-4d65-b904-2b37ccc77e74"},"vehicle_type_id":"4","last_reported":1716120761,"current_range_meters":18800,"station_id":"ce4bh0h2rcd13ifvqd40","pricing_plan_id":"cebpf4jnsgd1na2vs0mg"},{"bike_id":"b923fa13-a1e0-4193-a6ec-44631994769e","system_id":"levelo_inurba_marseille","lat":43.301117,"lon":5.398795,"is_reserved":false,"is_disabled":false,"rental_uris":{"android":"levelo://app?vid=b923fa13-a1e0-4193-a6ec-44631994769e","ios":"levelo://app?vid=b923fa13-a1e0-4193-a6ec-44631994769e"},"vehicle_type_id":"4","last_reported":1716120761,"current_range_meters":30000,"station_id":"ce4bh0h2rcd13ifvqd40","pricing_plan_id":"cebpf4jnsgd1na2vs0mg"},{"bike_id":"a60750de-d16f-4ece-89f6-2c96d2dd5a51","system_id":"levelo_inurba_marseille","lat":43.28727,"lon":5.36078,"is_reserved":false,"is_disabled":false,"rental_uris":{"android":"levelo://app?vid=a60750de-d16f-4ece-89f6-2c96d2dd5a51","ios":"levelo://app?vid=a60750de-d16f-4ece-89f6-2c96d2dd5a51"},"vehicle_type_id":"4","last_reported":1716120761,"current_range_meters":13200,"station_id":"cki0cbj6b192h4jlfktg","pricing_plan_id":"cebpf4jnsgd1na2vs0mg"},{"bike_id":"71f674c4-8550-4369-87e6-f62c08580cab","system_id":"levelo_inurba_marseille","lat":43.28727,"lon":5.36078,"is_reserved":false,"is_disabled":false,"rental_uris":{"android":"levelo://app?vid=71f674c4-8550-4369-87e6-f62c08580cab","ios":"levelo://app?vid=71f674c4-8550-4369-87e6-f62c08580cab"},"vehicle_type_id":"4","last_reported":1716120761,"current_range_meters":15200,"station_id":"cki0cbj6b192h4jlfktg","pricing_plan_id":"cebpf4jnsgd1na2vs0mg"},{"bike_id":"04ef84c7-3280-437c-a97e-3cc07edd2a54","system_id":"levelo_inurba_marseille","lat":43.29911,"lon":5.39722,"is_reserved":false,"is_disabled":false,"rental_uris":{"android":"levelo://app?vid=04ef84c7-3280-437c-a97e-3cc07edd2a54","ios":"levelo://app?vid=04ef84c7-3280-437c-a97e-3cc07edd2a54"},"vehicle_type_id":"4","last_reported":1716120761,"current_range_meters":18400,"station_id":"","pricing_plan_id":"cebpf4jnsgd1na2vs0mg"},{"bike_id":"6ebe2e97-d344-449c-a863-aab2415bd416","system_id":"levelo_inurba_marseille","lat":43.298681,"lon":5.397225,"is_reserved":false,"is_disabled":false,"rental_uris":{"android":"levelo://app?vid=6ebe2e97-d344-449c-a863-aab2415bd416","ios":"levelo://app?vid=6ebe2e97-d344-449c-a863-aab2415bd416"},"vehicle_type_id":"4","last_reported":1716120761,"current_range_meters":24000,"station_id":"ce4bh0h2rcd13ifvqd50","pricing_plan_id":"cebpf4jnsgd1na2vs0mg"},{"bike_id":"d8fd8e0f-92f5-4bae-bea9-8e366f1d81af","system_id":"levelo_inurba_marseille","lat":43.286961,"lon":5.373785,"is_reserved":false,"is_disabled":false,"rental_uris":{"android":"levelo://app?vid=d8fd8e0f-92f5-4bae-bea9-8e366f1d81af","ios":"levelo://app?vid=d8fd8e0f-92f5-4bae-bea9-8e366f1d81af"},"vehicle_type_id":"4","last_reported":1716120761,"current_range_meters":12000,"station_id":"ce4bh3p2rcd13ifvqdq0","pricing_plan_id":"cebpf4jnsgd1na2vs0mg"},{"bike_id":"5952ab2e-cc38-4d46-a0ea-ec859e0e2b04","system_id":"levelo_inurba_marseille","lat":43.286593,"lon":5.363346,"is_reserved":false,"is_disabled":false,"rental_uris":{"android":"levelo://app?vid=5952ab2e-cc38-4d46-a0ea-ec859e0e2b04","ios":"levelo://app?vid=5952ab2e-cc38-4d46-a0ea-ec859e0e2b04"},"vehicle_type_id":"4","last_reported":1716120761,"current_range_meters":19200,"station_id":"ce4bhah2rcd13ifvqej0","pricing_plan_id":"cebpf4jnsgd1na2vs0mg"},{"bike_id":"fad45eb7-94a0-426e-81f6-54a27c2ec507","system_id":"levelo_inurba_marseille","lat":43.295196,"lon":5.39397,"is_reserved":false,"is_disabled":false,"rental_uris":{"android":"levelo://app?vid=fad45eb7-94a0-426e-81f6-54a27c2ec507","ios":"levelo://app?vid=fad45eb7-94a0-426e-81f6-54a27c2ec507"},"vehicle_type_id":"4","last_reported":1716120761,"current_range_meters":18800,"station_id":"ce4bh292rcd13ifvqdf0","pricing_plan_id":"cebpf4jnsgd1na2vs0mg"},{"bike_id":"5947ea71-3c00-4af0-ab30-e2b036f1399a","system_id":"levelo_inurba_marseille","lat":43.295194,"lon":5.39397,"is_reserved":false,"is_disabled":false,"rental_uris":{"android":"levelo://app?vid=5947ea71-3c00-4af0-ab30-e2b036f1399a","ios":"levelo://app?vid=5947ea71-3c00-4af0-ab30-e2b036f1399a"},"vehicle_type_id":"4","last_reported":1716120761,"current_range_meters":14000,"station_id":"ce4bh292rcd13ifvqdf0","pricing_plan_id":"cebpf4jnsgd1na2vs0mg"},{"bike_id":"e8977d79-c8a4-4418-8ae2-753ec79afe69","system_id":"levelo_inurba_marseille","lat":43.290345,"lon":5.38646,"is_reserved":false,"is_disabled":false,"rental_uris":{"android":"levelo://app?vid=e8977d79-c8a4-4418-8ae2-753ec79afe69","ios":"levelo://app?vid=e8977d79-c8a4-4418-8ae2-753ec79afe69"},"vehicle_type_id":"4","last_reported":1716120761,"current_range_meters":8800,"station_id":"ce4bh4p2rcd13ifvqe0g","pricing_plan_id":"cebpf4jnsgd1na2vs0mg"},{"bike_id":"bbbac99e-8860-4166-9940-9e2991414e17","system_id":"levelo_inurba_marseille","lat":43.302759,"lon":5.400793,"is_reserved":false,"is_disabled":false,"rental_uris":{"android":"levelo://app?vid=bbbac99e-8860-4166-9940-9e2991414e17","ios":"levelo://app?vid=bbbac99e-8860-4166-9940-9e2991414e17"},"vehicle_type_id":"4","last_reported":1716120761,"current_range_meters":2800,"station_id":"ce4bgvh2rcd13ifvqcs0","pricing_plan_id":"cebpf4jnsgd1na2vs0mg"},{"bike_id":"1d897259-a91c-4956-b973-f8b63e4d0bc6","system_id":"levelo_inurba_marseille","lat":43.284214,"lon":5.349706,"is_reserved":false,"is_disabled":false,"rental_uris":{"android":"levelo://app?vid=1d897259-a91c-4956-b973-f8b63e4d0bc6","ios":"levelo://app?vid=1d897259-a91c-4956-b973-f8b63e4d0bc6"},"vehicle_type_id":"4","last_reported":1716120761,"current_range_meters":17200,"station_id":"ce4bhbh2rcd13ifvqepg","pricing_plan_id":"cebpf4jnsgd1na2vs0mg"},{"bike_id":"e3ddb5e6-c34e-42a1-bd2b-b0f980b7d2a6","system_id":"levelo_inurba_marseille","lat":43.302759,"lon":5.400793,"is_reserved":false,"is_disabled":false,"rental_uris":{"android":"levelo://app?vid=e3ddb5e6-c34e-42a1-bd2b-b0f980b7d2a6","ios":"levelo://app?vid=e3ddb5e6-c34e-42a1-bd2b-b0f980b7d2a6"},"vehicle_type_id":"4","last_reported":1716120761,"current_range_meters":30800,"station_id":"ce4bgvh2rcd13ifvqcs0","pricing_plan_id":"cebpf4jnsgd1na2vs0mg"},{"bike_id":"ed8b4e25-d2f2-4504-8591-63b092e718f6","system_id":"levelo_inurba_marseille","lat":43.286039,"lon":5.370681,"is_reserved":false,"is_disabled":false,"rental_uris":{"android":"levelo://app?vid=ed8b4e25-d2f2-4504-8591-63b092e718f6","ios":"levelo://app?vid=ed8b4e25-d2f2-4504-8591-63b092e718f6"},"vehicle_type_id":"4","last_reported":1716120761,"current_range_meters":22800,"station_id":"ce4bht12rcd13ifvqi60","pricing_plan_id":"cebpf4jnsgd1na2vs0mg"},{"bike_id":"a611aa27-b785-420e-87d3-5beaabf928de","system_id":"levelo_inurba_marseille","lat":43.287185,"lon":5.379373,"is_reserved":false,"is_disabled":false,"rental_uris":{"android":"levelo://app?vid=a611aa27-b785-420e-87d3-5beaabf928de","ios":"levelo://app?vid=a611aa27-b785-420e-87d3-5beaabf928de"},"vehicle_type_id":"4","last_reported":1716120761,"current_range_meters":16000,"station_id":"ce4bh9p2rcd13ifvqec0","pricing_plan_id":"cebpf4jnsgd1na2vs0mg"},{"bike_id":"f3dcbddc-aaf2-4a67-8760-5d827de82d39","system_id":"levelo_inurba_marseille","lat":43.316872,"lon":5.404594,"is_reserved":false,"is_disabled":false,"rental_uris":{"android":"levelo://app?vid=f3dcbddc-aaf2-4a67-8760-5d827de82d39","ios":"levelo://app?vid=f3dcbddc-aaf2-4a67-8760-5d827de82d39"},"vehicle_type_id":"4","last_reported":1716120761,"current_range_meters":2400,"station_id":"ce4bh012rcd13ifvqd00","pricing_plan_id":"cebpf4jnsgd1na2vs0mg"},{"bike_id":"16e7929a-ce5a-4fbd-b9c9-99783f9060f9","system_id":"levelo_inurba_marseille","lat":43.31697,"lon":5.40465,"is_reserved":false,"is_disabled":false,"rental_uris":{"android":"levelo://app?vid=16e7929a-ce5a-4fbd-b9c9-99783f9060f9","ios":"levelo://app?vid=16e7929a-ce5a-4fbd-b9c9-99783f9060f9"},"vehicle_type_id":"4","last_reported":1716120761,"current_range_meters":6800,"station_id":"ce4bh012rcd13ifvqd00","pricing_plan_id":"cebpf4jnsgd1na2vs0mg"},{"bike_id":"531af30b-6537-455f-bc79-04bca9e44901","system_id":"levelo_inurba_marseille","lat":43.287166,"lon":5.352025,"is_reserved":false,"is_disabled":false,"rental_uris":{"android":"levelo://app?vid=531af30b-6537-455f-bc79-04bca9e44901","ios":"levelo://app?vid=531af30b-6537-455f-bc79-04bca9e44901"},"vehicle_type_id":"4","last_reported":1716120761,"current_range_meters":11200,"station_id":"","pricing_plan_id":"cebpf4jnsgd1na2vs0mg"},{"bike_id":"184f8856-1ae1-428d-ac97-e0f04745d260","system_id":"levelo_inurba_marseille","lat":43.316821,"lon":5.404737,"is_reserved":false,"is_disabled":false,"rental_uris":{"android":"levelo://app?vid=184f8856-1ae1-428d-ac97-e0f04745d260","ios":"levelo://app?vid=184f8856-1ae1-428d-ac97-e0f04745d260"},"vehicle_type_id":"4","last_reported":1716120761,"current_range_meters":26000,"station_id":"ce4bh012rcd13ifvqd00","pricing_plan_id":"cebpf4jnsgd1na2vs0mg"},{"bike_id":"f4ef908d-a565-4bc5-8333-07a33b103cdd","system_id":"levelo_inurba_marseille","lat":43.317,"lon":5.40474,"is_reserved":false,"is_disabled":false,"rental_uris":{"android":"levelo://app?vid=f4ef908d-a565-4bc5-8333-07a33b103cdd","ios":"levelo://app?vid=f4ef908d-a565-4bc5-8333-07a33b103cdd"},"vehicle_type_id":"4","last_reported":1716120761,"current_range_meters":1200,"station_id":"ce4bh012rcd13ifvqd00","pricing_plan_id":"cebpf4jnsgd1na2vs0mg"},{"bike_id":"ed17bbf5-7c1b-424d-8b06-6398b99a5dd2","system_id":"levelo_inurba_marseille","lat":43.316828,"lon":5.404723,"is_reserved":false,"is_disabled":false,"rental_uris":{"android":"levelo://app?vid=ed17bbf5-7c1b-424d-8b06-6398b99a5dd2","ios":"levelo://app?vid=ed17bbf5-7c1b-424d-8b06-6398b99a5dd2"},"vehicle_type_id":"4","last_reported":1716120761,"current_range_meters":23200,"station_id":"ce4bh012rcd13ifvqd00","pricing_plan_id":"cebpf4jnsgd1na2vs0mg"},{"bike_id":"d5b3386d-54d8-49b2-932e-d440673b4511","system_id":"levelo_inurba_marseille","lat":43.291994,"lon":5.392907,"is_reserved":false,"is_disabled":false,"rental_uris":{"android":"levelo://app?vid=d5b3386d-54d8-49b2-932e-d440673b4511","ios":"levelo://app?vid=d5b3386d-54d8-49b2-932e-d440673b4511"},"vehicle_type_id":"4","last_reported":1716120761,"current_range_meters":14000,"station_id":"ce4bh192rcd13ifvqdd0","pricing_plan_id":"cebpf4jnsgd1na2vs0mg"},{"bike_id":"66c75814-a778-40a0-87e5-ac2f596ea6c0","system_id":"levelo_inurba_marseille","lat":43.291994,"lon":5.392907,"is_reserved":false,"is_disabled":false,"rental_uris":{"android":"levelo://app?vid=66c75814-a778-40a0-87e5-ac2f596ea6c0","ios":"levelo://app?vid=66c75814-a778-40a0-87e5-ac2f596ea6c0"},"vehicle_type_id":"4","last_reported":1716120761,"current_range_meters":28000,"station_id":"ce4bh192rcd13ifvqdd0","pricing_plan_id":"cebpf4jnsgd1na2vs0mg"},{"bike_id":"aef1b405-40b7-4213-a235-a5b25b57ef0d","system_id":"levelo_inurba_marseille","lat":43.30334,"lon":5.404032,"is_reserved":false,"is_disabled":false,"rental_uris":{"android":"levelo://app?vid=aef1b405-40b7-4213-a235-a5b25b57ef0d","ios":"levelo://app?vid=aef1b405-40b7-4213-a235-a5b25b57ef0d"},"vehicle_type_id":"4","last_reported":1716120761,"current_range_meters":4800,"station_id":"","pricing_plan_id":"cebpf4jnsgd1na2vs0mg"},{"bike_id":"4e97f56e-0a46-4f8a-a672-43f82d7e1b7e","system_id":"levelo_inurba_marseille","lat":43.28459,"lon":5.35891,"is_reserved":false,"is_disabled":false,"rental_uris":{"android":"levelo://app?vid=4e97f56e-0a46-4f8a-a672-43f82d7e1b7e","ios":"levelo://app?vid=4e97f56e-0a46-4f8a-a672-43f82d7e1b7e"},"vehicle_type_id":"4","last_reported":1716120761,"current_range_meters":0,"station_id":"ce4bhah2rcd13ifvqei0","pricing_plan_id":"cebpf4jnsgd1na2vs0mg"},{"bike_id":"7643958e-79bc-4079-b7d6-4b7bd928263a","system_id":"levelo_inurba_marseille","lat":43.294314,"lon":5.397498,"is_reserved":false,"is_disabled":false,"rental_uris":{"android":"levelo://app?vid=7643958e-79bc-4079-b7d6-4b7bd928263a","ios":"levelo://app?vid=7643958e-79bc-4079-b7d6-4b7bd928263a"},"vehicle_type_id":"4","last_reported":1716120761,"current_range_meters":26800,"station_id":"ce4bh3h2rcd13ifvqdo0","pricing_plan_id":"cebpf4jnsgd1na2vs0mg"},{"bike_id":"c6245fc4-d52c-43b6-be63-a97fcc4e9eed","system_id":"levelo_inurba_marseille","lat":43.285856,"lon":5.350771,"is_reserved":false,"is_disabled":false,"rental_uris":{"android":"levelo://app?vid=c6245fc4-d52c-43b6-be63-a97fcc4e9eed","ios":"levelo://app?vid=c6245fc4-d52c-43b6-be63-a97fcc4e9eed"},"vehicle_type_id":"4","last_reported":1716120761,"current_range_meters":1600,"station_id":"ce4bhch2rcd13ifvqeug","pricing_plan_id":"cebpf4jnsgd1na2vs0mg"},{"bike_id":"53c07afe-7735-4a83-94f6-146241681546","system_id":"levelo_inurba_marseille","lat":43.285856,"lon":5.350771,"is_reserved":false,"is_disabled":false,"rental_uris":{"android":"levelo://app?vid=53c07afe-7735-4a83-94f6-146241681546","ios":"levelo://app?vid=53c07afe-7735-4a83-94f6-146241681546"},"vehicle_type_id":"4","last_reported":1716120761,"current_range_meters":0,"station_id":"ce4bhch2rcd13ifvqeug","pricing_plan_id":"cebpf4jnsgd1na2vs0mg"},{"bike_id":"6a44ab04-ec82-4bc8-b585-6871c9b9ada3","system_id":"levelo_inurba_marseille","lat":43.285856,"lon":5.350771,"is_reserved":false,"is_disabled":false,"rental_uris":{"android":"levelo://app?vid=6a44ab04-ec82-4bc8-b585-6871c9b9ada3","ios":"levelo://app?vid=6a44ab04-ec82-4bc8-b585-6871c9b9ada3"},"vehicle_type_id":"4","last_reported":1716120761,"current_range_meters":9600,"station_id":"ce4bhch2rcd13ifvqeug","pricing_plan_id":"cebpf4jnsgd1na2vs0mg"},{"bike_id":"bce4041d-2d3e-49bb-95d7-6c7f8f256c29","system_id":"levelo_inurba_marseille","lat":43.285856,"lon":5.350771,"is_reserved":false,"is_disabled":false,"rental_uris":{"android":"levelo://app?vid=bce4041d-2d3e-49bb-95d7-6c7f8f256c29","ios":"levelo://app?vid=bce4041d-2d3e-49bb-95d7-6c7f8f256c29"},"vehicle_type_id":"4","last_reported":1716120761,"current_range_meters":400,"station_id":"ce4bhch2rcd13ifvqeug","pricing_plan_id":"cebpf4jnsgd1na2vs0mg"},{"bike_id":"ecc88823-8df9-4714-93e3-4e75113b8194","system_id":"levelo_inurba_marseille","lat":43.285856,"lon":5.350771,"is_reserved":false,"is_disabled":false,"rental_uris":{"android":"levelo://app?vid=ecc88823-8df9-4714-93e3-4e75113b8194","ios":"levelo://app?vid=ecc88823-8df9-4714-93e3-4e75113b8194"},"vehicle_type_id":"4","last_reported":1716120761,"current_range_meters":16800,"station_id":"ce4bhch2rcd13ifvqeug","pricing_plan_id":"cebpf4jnsgd1na2vs0mg"},{"bike_id":"8dbe65d3-ff7e-4a76-bc49-66eb7a27ef40","system_id":"levelo_inurba_marseille","lat":43.283998,"lon":5.375062,"is_reserved":false,"is_disabled":false,"rental_uris":{"android":"levelo://app?vid=8dbe65d3-ff7e-4a76-bc49-66eb7a27ef40","ios":"levelo://app?vid=8dbe65d3-ff7e-4a76-bc49-66eb7a27ef40"},"vehicle_type_id":"4","last_reported":1716120761,"current_range_meters":10000,"station_id":"ce4bh412rcd13ifvqds0","pricing_plan_id":"cebpf4jnsgd1na2vs0mg"},{"bike_id":"f97cae3e-03b3-488d-9a6f-70101747b07b","system_id":"levelo_inurba_marseille","lat":43.28615,"lon":5.35096,"is_reserved":false,"is_disabled":false,"rental_uris":{"android":"levelo://app?vid=f97cae3e-03b3-488d-9a6f-70101747b07b","ios":"levelo://app?vid=f97cae3e-03b3-488d-9a6f-70101747b07b"},"vehicle_type_id":"4","last_reported":1716120761,"current_range_meters":21600,"station_id":"","pricing_plan_id":"cebpf4jnsgd1na2vs0mg"},{"bike_id":"e62df1ad-1a85-4450-b91a-efdcc91bb3c0","system_id":"levelo_inurba_marseille","lat":43.285856,"lon":5.350771,"is_reserved":false,"is_disabled":false,"rental_uris":{"android":"levelo://app?vid=e62df1ad-1a85-4450-b91a-efdcc91bb3c0","ios":"levelo://app?vid=e62df1ad-1a85-4450-b91a-efdcc91bb3c0"},"vehicle_type_id":"4","last_reported":1716120761,"current_range_meters":27200,"station_id":"ce4bhch2rcd13ifvqeug","pricing_plan_id":"cebpf4jnsgd1na2vs0mg"},{"bike_id":"fa49699d-ae4e-421a-99cb-1f6ca2d9cdbe","system_id":"levelo_inurba_marseille","lat":43.283998,"lon":5.375062,"is_reserved":false,"is_disabled":false,"rental_uris":{"android":"levelo://app?vid=fa49699d-ae4e-421a-99cb-1f6ca2d9cdbe","ios":"levelo://app?vid=fa49699d-ae4e-421a-99cb-1f6ca2d9cdbe"},"vehicle_type_id":"4","last_reported":1716120761,"current_range_meters":24800,"station_id":"ce4bh412rcd13ifvqds0","pricing_plan_id":"cebpf4jnsgd1na2vs0mg"},{"bike_id":"7e215fe6-c402-4e0d-ad21-04bbb72c27a2","system_id":"levelo_inurba_marseille","lat":43.283998,"lon":5.375062,"is_reserved":false,"is_disabled":false,"rental_uris":{"android":"levelo://app?vid=7e215fe6-c402-4e0d-ad21-04bbb72c27a2","ios":"levelo://app?vid=7e215fe6-c402-4e0d-ad21-04bbb72c27a2"},"vehicle_type_id":"4","last_reported":1716120761,"current_range_meters":10400,"station_id":"ce4bh412rcd13ifvqds0","pricing_plan_id":"cebpf4jnsgd1na2vs0mg"},{"bike_id":"e432a5ae-69f2-413d-af2e-47dc1b1e230e","system_id":"levelo_inurba_marseille","lat":43.286595,"lon":5.386795,"is_reserved":false,"is_disabled":false,"rental_uris":{"android":"levelo://app?vid=e432a5ae-69f2-413d-af2e-47dc1b1e230e","ios":"levelo://app?vid=e432a5ae-69f2-413d-af2e-47dc1b1e230e"},"vehicle_type_id":"4","last_reported":1716120761,"current_range_meters":24800,"station_id":"ce4bh492rcd13ifvqdug","pricing_plan_id":"cebpf4jnsgd1na2vs0mg"},{"bike_id":"3fbe59b6-6e11-4c4b-8b70-7d34bf7a4a48","system_id":"levelo_inurba_marseille","lat":43.319179,"lon":5.407725,"is_reserved":false,"is_disabled":false,"rental_uris":{"android":"levelo://app?vid=3fbe59b6-6e11-4c4b-8b70-7d34bf7a4a48","ios":"levelo://app?vid=3fbe59b6-6e11-4c4b-8b70-7d34bf7a4a48"},"vehicle_type_id":"4","last_reported":1716120761,"current_range_meters":2800,"station_id":"ce4bhq12rcd13ifvqhig","pricing_plan_id":"cebpf4jnsgd1na2vs0mg"},{"bike_id":"47820319-20b4-425b-9654-ce5f48aa0e59","system_id":"levelo_inurba_marseille","lat":43.318815,"lon":5.407384,"is_reserved":false,"is_disabled":false,"rental_uris":{"android":"levelo://app?vid=47820319-20b4-425b-9654-ce5f48aa0e59","ios":"levelo://app?vid=47820319-20b4-425b-9654-ce5f48aa0e59"},"vehicle_type_id":"4","last_reported":1716120761,"current_range_meters":3600,"station_id":"ce4bhq12rcd13ifvqhig","pricing_plan_id":"cebpf4jnsgd1na2vs0mg"},{"bike_id":"400f86cc-cb2e-41a2-a725-c41e21482b06","system_id":"levelo_inurba_marseille","lat":43.33717,"lon":5.391857,"is_reserved":false,"is_disabled":false,"rental_uris":{"android":"levelo://app?vid=400f86cc-cb2e-41a2-a725-c41e21482b06","ios":"levelo://app?vid=400f86cc-cb2e-41a2-a725-c41e21482b06"},"vehicle_type_id":"4","last_reported":1716120761,"current_range_meters":13200,"station_id":"ce4bhr92rcd13ifvqhsg","pricing_plan_id":"cebpf4jnsgd1na2vs0mg"},{"bike_id":"030df6ed-d25a-4a11-bce2-371aa6dec38b","system_id":"levelo_inurba_marseille","lat":43.323464,"lon":5.406297,"is_reserved":false,"is_disabled":false,"rental_uris":{"android":"levelo://app?vid=030df6ed-d25a-4a11-bce2-371aa6dec38b","ios":"levelo://app?vid=030df6ed-d25a-4a11-bce2-371aa6dec38b"},"vehicle_type_id":"4","last_reported":1716120761,"current_range_meters":29600,"station_id":"ce4bhq92rcd13ifvqhjg","pricing_plan_id":"cebpf4jnsgd1na2vs0mg"},{"bike_id":"6fc4e80a-0fd8-43f1-8321-a04b104896bc","system_id":"levelo_inurba_marseille","lat":43.33717,"lon":5.391857,"is_reserved":false,"is_disabled":false,"rental_uris":{"android":"levelo://app?vid=6fc4e80a-0fd8-43f1-8321-a04b104896bc","ios":"levelo://app?vid=6fc4e80a-0fd8-43f1-8321-a04b104896bc"},"vehicle_type_id":"4","last_reported":1716120761,"current_range_meters":22400,"station_id":"ce4bhr92rcd13ifvqhsg","pricing_plan_id":"cebpf4jnsgd1na2vs0mg"},{"bike_id":"b24aea1e-f417-43ff-8447-3dfa4af24c29","system_id":"levelo_inurba_marseille","lat":43.337168,"lon":5.391825,"is_reserved":false,"is_disabled":false,"rental_uris":{"android":"levelo://app?vid=b24aea1e-f417-43ff-8447-3dfa4af24c29","ios":"levelo://app?vid=b24aea1e-f417-43ff-8447-3dfa4af24c29"},"vehicle_type_id":"4","last_reported":1716120761,"current_range_meters":32000,"station_id":"ce4bhr92rcd13ifvqhsg","pricing_plan_id":"cebpf4jnsgd1na2vs0mg"},{"bike_id":"6b4b2bbf-b7fb-477f-89a7-fa751b252e39","system_id":"levelo_inurba_marseille","lat":43.32336,"lon":5.40621,"is_reserved":false,"is_disabled":false,"rental_uris":{"android":"levelo://app?vid=6b4b2bbf-b7fb-477f-89a7-fa751b252e39","ios":"levelo://app?vid=6b4b2bbf-b7fb-477f-89a7-fa751b252e39"},"vehicle_type_id":"4","last_reported":1716120761,"current_range_meters":0,"station_id":"ce4bhq92rcd13ifvqhjg","pricing_plan_id":"cebpf4jnsgd1na2vs0mg"},{"bike_id":"248aea1a-b8ff-4a75-b869-70cbe5c1b7b3","system_id":"levelo_inurba_marseille","lat":43.337168,"lon":5.391825,"is_reserved":false,"is_disabled":false,"rental_uris":{"android":"levelo://app?vid=248aea1a-b8ff-4a75-b869-70cbe5c1b7b3","ios":"levelo://app?vid=248aea1a-b8ff-4a75-b869-70cbe5c1b7b3"},"vehicle_type_id":"4","last_reported":1716120761,"current_range_meters":28000,"station_id":"ce4bhr92rcd13ifvqhsg","pricing_plan_id":"cebpf4jnsgd1na2vs0mg"},{"bike_id":"9b7f82fd-3fa0-42f8-a9b7-feab44c21ae5","system_id":"levelo_inurba_marseille","lat":43.32344,"lon":5.4062,"is_reserved":false,"is_disabled":false,"rental_uris":{"android":"levelo://app?vid=9b7f82fd-3fa0-42f8-a9b7-feab44c21ae5","ios":"levelo://app?vid=9b7f82fd-3fa0-42f8-a9b7-feab44c21ae5"},"vehicle_type_id":"4","last_reported":1716120761,"current_range_meters":12000,"station_id":"ce4bhq92rcd13ifvqhjg","pricing_plan_id":"cebpf4jnsgd1na2vs0mg"},{"bike_id":"c1fd511c-ff87-433a-bb93-f107b5fe2302","system_id":"levelo_inurba_marseille","lat":43.337168,"lon":5.391825,"is_reserved":false,"is_disabled":false,"rental_uris":{"android":"levelo://app?vid=c1fd511c-ff87-433a-bb93-f107b5fe2302","ios":"levelo://app?vid=c1fd511c-ff87-433a-bb93-f107b5fe2302"},"vehicle_type_id":"4","last_reported":1716120761,"current_range_meters":18800,"station_id":"ce4bhr92rcd13ifvqhsg","pricing_plan_id":"cebpf4jnsgd1na2vs0mg"},{"bike_id":"1c47809c-7db7-4988-8570-dd325ced6c5e","system_id":"levelo_inurba_marseille","lat":43.337168,"lon":5.391825,"is_reserved":false,"is_disabled":false,"rental_uris":{"android":"levelo://app?vid=1c47809c-7db7-4988-8570-dd325ced6c5e","ios":"levelo://app?vid=1c47809c-7db7-4988-8570-dd325ced6c5e"},"vehicle_type_id":"4","last_reported":1716120761,"current_range_meters":17600,"station_id":"ce4bhr92rcd13ifvqhsg","pricing_plan_id":"cebpf4jnsgd1na2vs0mg"},{"bike_id":"cde5fce9-f1d0-41b2-bf86-4ee66d5e88bf","system_id":"levelo_inurba_marseille","lat":43.323464,"lon":5.406297,"is_reserved":false,"is_disabled":false,"rental_uris":{"android":"levelo://app?vid=cde5fce9-f1d0-41b2-bf86-4ee66d5e88bf","ios":"levelo://app?vid=cde5fce9-f1d0-41b2-bf86-4ee66d5e88bf"},"vehicle_type_id":"4","last_reported":1716120761,"current_range_meters":1600,"station_id":"ce4bhq92rcd13ifvqhjg","pricing_plan_id":"cebpf4jnsgd1na2vs0mg"},{"bike_id":"81f7fd42-8a00-484d-b5ba-ebcff6a3cd7f","system_id":"levelo_inurba_marseille","lat":43.288501,"lon":5.393087,"is_reserved":false,"is_disabled":false,"rental_uris":{"android":"levelo://app?vid=81f7fd42-8a00-484d-b5ba-ebcff6a3cd7f","ios":"levelo://app?vid=81f7fd42-8a00-484d-b5ba-ebcff6a3cd7f"},"vehicle_type_id":"4","last_reported":1716120761,"current_range_meters":23200,"station_id":"ce4bh2p2rcd13ifvqdi0","pricing_plan_id":"cebpf4jnsgd1na2vs0mg"},{"bike_id":"9336d442-2c04-47eb-8566-e1f5cc0d01a3","system_id":"levelo_inurba_marseille","lat":43.29795,"lon":5.404086,"is_reserved":false,"is_disabled":false,"rental_uris":{"android":"levelo://app?vid=9336d442-2c04-47eb-8566-e1f5cc0d01a3","ios":"levelo://app?vid=9336d442-2c04-47eb-8566-e1f5cc0d01a3"},"vehicle_type_id":"4","last_reported":1716120761,"current_range_meters":29600,"station_id":"ce4bh112rcd13ifvqd90","pricing_plan_id":"cebpf4jnsgd1na2vs0mg"},{"bike_id":"d1eb0e65-762d-4050-91eb-4fb72308f6cc","system_id":"levelo_inurba_marseille","lat":43.284543,"lon":5.349632,"is_reserved":false,"is_disabled":false,"rental_uris":{"android":"levelo://app?vid=d1eb0e65-762d-4050-91eb-4fb72308f6cc","ios":"levelo://app?vid=d1eb0e65-762d-4050-91eb-4fb72308f6cc"},"vehicle_type_id":"4","last_reported":1716120761,"current_range_meters":21600,"station_id":"ce4bhbp2rcd13ifvqerg","pricing_plan_id":"cebpf4jnsgd1na2vs0mg"},{"bike_id":"4d839b9a-e674-4666-9b41-91c3caa576d3","system_id":"levelo_inurba_marseille","lat":43.28437,"lon":5.35002,"is_reserved":false,"is_disabled":false,"rental_uris":{"android":"levelo://app?vid=4d839b9a-e674-4666-9b41-91c3caa576d3","ios":"levelo://app?vid=4d839b9a-e674-4666-9b41-91c3caa576d3"},"vehicle_type_id":"4","last_reported":1716120761,"current_range_meters":6800,"station_id":"ce4bhbh2rcd13ifvqepg","pricing_plan_id":"cebpf4jnsgd1na2vs0mg"},{"bike_id":"3f922d88-8eab-45f3-93f8-79a28efc56b2","system_id":"levelo_inurba_marseille","lat":43.284219,"lon":5.3497,"is_reserved":false,"is_disabled":false,"rental_uris":{"android":"levelo://app?vid=3f922d88-8eab-45f3-93f8-79a28efc56b2","ios":"levelo://app?vid=3f922d88-8eab-45f3-93f8-79a28efc56b2"},"vehicle_type_id":"4","last_reported":1716120761,"current_range_meters":26000,"station_id":"ce4bhbh2rcd13ifvqepg","pricing_plan_id":"cebpf4jnsgd1na2vs0mg"},{"bike_id":"230f5f8f-a821-469b-84a8-4913525e943d","system_id":"levelo_inurba_marseille","lat":43.28424,"lon":5.34993,"is_reserved":false,"is_disabled":false,"rental_uris":{"android":"levelo://app?vid=230f5f8f-a821-469b-84a8-4913525e943d","ios":"levelo://app?vid=230f5f8f-a821-469b-84a8-4913525e943d"},"vehicle_type_id":"4","last_reported":1716120761,"current_range_meters":14400,"station_id":"ce4bhbh2rcd13ifvqepg","pricing_plan_id":"cebpf4jnsgd1na2vs0mg"},{"bike_id":"6152e0bd-f31e-4377-b81a-51bbe1f88fd3","system_id":"levelo_inurba_marseille","lat":43.28425,"lon":5.34986,"is_reserved":false,"is_disabled":false,"rental_uris":{"android":"levelo://app?vid=6152e0bd-f31e-4377-b81a-51bbe1f88fd3","ios":"levelo://app?vid=6152e0bd-f31e-4377-b81a-51bbe1f88fd3"},"vehicle_type_id":"4","last_reported":1716120761,"current_range_meters":16800,"station_id":"ce4bhbh2rcd13ifvqepg","pricing_plan_id":"cebpf4jnsgd1na2vs0mg"},{"bike_id":"97c1637f-5b01-4d05-bc46-7244de7afaf5","system_id":"levelo_inurba_marseille","lat":43.28424,"lon":5.34979,"is_reserved":false,"is_disabled":false,"rental_uris":{"android":"levelo://app?vid=97c1637f-5b01-4d05-bc46-7244de7afaf5","ios":"levelo://app?vid=97c1637f-5b01-4d05-bc46-7244de7afaf5"},"vehicle_type_id":"4","last_reported":1716120761,"current_range_meters":400,"station_id":"ce4bhbh2rcd13ifvqepg","pricing_plan_id":"cebpf4jnsgd1na2vs0mg"},