{"last_updated":1701543886,"ttl":30,"version":"2.2","data":{"bikes":[{"bike_id":"ab1a45bc-5c86-4dc9-86c5-b3cdd9eb5b1a","system_id":"levelo_inurba_marseille","lat":43.31747,"lon":5.36879,"is_reserved":false,"is_disabled":false,"rental_uris":{"android":"levelo://app?vid=ab1a45bc-5c86-4dc9-86c5-b3cdd9eb5b1a","ios":"levelo://app?vid=ab1a45bc-5c86-4dc9-86c5-b3cdd9eb5b1a"},"vehicle_type_id":"4","last_reported":1701543887,"current_range_meters":0,"station_id":"","pricing_plan_id":"free"},{"bike_id":"61c37a7b-3a37-4b19-9022-a135487b8d21","system_id":"levelo_inurba_marseille","lat":43.305523,"lon":5.365283,"is_reserved":false,"is_disabled":false,"rental_uris":{"android":"levelo://app?vid=61c37a7b-3a37-4b19-9022-a135487b8d21","ios":"levelo://app?vid=61c37a7b-3a37-4b19-9022-a135487b8d21"},"vehicle_type_id":"4","last_reported":1701543887,"current_range_meters":0,"station_id":"ce4bgs12rcd13ifvqcag","pricing_plan_id":"free"},{"bike_id":"2a79ee57-7a78-48ee-8b8d-12a5b0d5f700","system_id":"levelo_inurba_marseille","lat":43.305714,"lon":5.365633,"is_reserved":false,"is_disabled":false,"rental_uris":{"android":"levelo://app?vid=2a79ee57-7a78-48ee-8b8d-12a5b0d5f700","ios":"levelo://app?vid=2a79ee57-7a78-48ee-8b8d-12a5b0d5f700"},"vehicle_type_id":"4","last_reported":1701543887,"current_range_meters":11200,"station_id":"ce4bgs12rcd13ifvqcag","pricing_plan_id":"free"},{"bike_id":"19ae476a-cb80-4007-82fd-b7d62f7beba8","system_id":"levelo_inurba_marseille","lat":43.305989,"lon":5.37225,"is_reserved":false,"is_disabled":false,"rental_uris":{"android":"levelo://app?vid=19ae476a-cb80-4007-82fd-b7d62f7beba8","ios":"levelo://app?vid=19ae476a-cb80-4007-82fd-b7d62f7beba8"},"vehicle_type_id":"4","last_reported":1701543887,"current_range_meters":4000,"station_id":"ce4bgqh2rcd13ifvqc4g","pricing_plan_id":"free"},{"bike_id":"3a9b1ce5-33a0-4012-98c5-3e1e1b4e73f2","system_id":"levelo_inurba_marseille","lat":43.305989,"lon":5.37225,"is_reserved":false,"is_disabled":false,"rental_uris":{"android":"levelo://app?vid=3a9b1ce5-33a0-4012-98c5-3e1e1b4e73f2","ios":"levelo://app?vid=3a9b1ce5-33a0-4012-98c5-3e1e1b4e73f2"},"vehicle_type_id":"4","last_reported":1701543887,"current_range_meters":19600,"station_id":"ce4bgqh2rcd13ifvqc4g","pricing_plan_id":"free"},{"bike_id":"cfd3bb51-5657-4943-be4a-4ca2f802bb01","system_id":"levelo_inurba_marseille","lat":43.30819,"lon":5.376599,"is_reserved":false,"is_disabled":false,"rental_uris":{"android":"levelo://app?vid=cfd3bb51-5657-4943-be4a-4ca2f802bb01","ios":"levelo://app?vid=cfd3bb51-5657-4943-be4a-4ca2f802bb01"},"vehicle_type_id":"4","last_reported":1701543887,"current_range_meters":9600,"station_id":"ce4bgv92rcd13ifvqcq0","pricing_plan_id":"free"},{"bike_id":"f427a2c3-6e4a-446b-ae2f-9be8aa7f4122","system_id":"levelo_inurba_marseille","lat":43.31719,"lon":5.376813,"is_reserved":false,"is_disabled":false,"rental_uris":{"android":"levelo://app?vid=f427a2c3-6e4a-446b-ae2f-9be8aa7f4122","ios":"levelo://app?vid=f427a2c3-6e4a-446b-ae2f-9be8aa7f4122"},"vehicle_type_id":"4","last_reported":1701543887,"current_range_meters":0,"station_id":"","pricing_plan_id":"free"},{"bike_id":"e913f328-1e31-4c22-bd87-f809ea246de4","system_id":"levelo_inurba_marseille","lat":43.317168,"lon":5.376883,"is_reserved":false,"is_disabled":false,"rental_uris":{"android":"levelo://app?vid=e913f328-1e31-4c22-bd87-f809ea246de4","ios":"levelo://app?vid=e913f328-1e31-4c22-bd87-f809ea246de4"},"vehicle_type_id":"4","last_reported":1701543887,"current_range_meters":0,"station_id":"","pricing_plan_id":"free"},{"bike_id":"fb6fd937-527b-4585-9058-0dfdc6436ac8","system_id":"levelo_inurba_marseille","lat":43.31351,"lon":5.37909,"is_reserved":false,"is_disabled":false,"rental_uris":{"android":"levelo://app?vid=fb6fd937-527b-4585-9058-0dfdc6436ac8","ios":"levelo://app?vid=fb6fd937-527b-4585-9058-0dfdc6436ac8"},"vehicle_type_id":"4","last_reported":1701543887,"current_range_meters":20800,"station_id":"","pricing_plan_id":"free"},{"bike_id":"b2b29b62-c952-42eb-9515-e1218d3d6120","system_id":"levelo_inurba_marseille","lat":43.30304,"lon":5.368987,"is_reserved":false,"is_disabled":false,"rental_uris":{"android":"levelo://app?vid=b2b29b62-c952-42eb-9515-e1218d3d6120","ios":"levelo://app?vid=b2b29b62-c952-42eb-9515-e1218d3d6120"},"vehicle_type_id":"4","last_reported":1701543887,"current_range_meters":18400,"station_id":"ce4bgqh2rcd13ifvqc5g","pricing_plan_id":"free"},{"bike_id":"8c6725c5-5ff6-4a6a-9768-66e32939cf43","system_id":"levelo_inurba_marseille","lat":43.32482,"lon":5.365695,"is_reserved":false,"is_disabled":false,"rental_uris":{"android":"levelo://app?vid=8c6725c5-5ff6-4a6a-9768-66e32939cf43","ios":"levelo://app?vid=8c6725c5-5ff6-4a6a-9768-66e32939cf43"},"vehicle_type_id":"4","last_reported":1701543887,"current_range_meters":25600,"station_id":"ce4bhs12rcd13ifvqhvg","pricing_plan_id":"free"},{"bike_id":"bc8eac31-4b5b-48b3-aa99-5c3fdd18d82e","system_id":"levelo_inurba_marseille","lat":43.324833,"lon":5.365649,"is_reserved":false,"is_disabled":false,"rental_uris":{"android":"levelo://app?vid=bc8eac31-4b5b-48b3-aa99-5c3fdd18d82e","ios":"levelo://app?vid=bc8eac31-4b5b-48b3-aa99-5c3fdd18d82e"},"vehicle_type_id":"4","last_reported":1701543887,"current_range_meters":17600,"station_id":"ce4bhs12rcd13ifvqhvg","pricing_plan_id":"free"},{"bike_id":"2275aca5-3158-4c2c-8022-ca5d2714bc86","system_id":"levelo_inurba_marseille","lat":43.319997,"lon":5.381594,"is_reserved":false,"is_disabled":false,"rental_uris":{"android":"levelo://app?vid=2275aca5-3158-4c2c-8022-ca5d2714bc86","ios":"levelo://app?vid=2275aca5-3158-4c2c-8022-ca5d2714bc86"},"vehicle_type_id":"4","last_reported":1701543887,"current_range_meters":14400,"station_id":"ce4bhr12rcd13ifvqhpg","pricing_plan_id":"free"},{"bike_id":"bfc7fbc9-2fe1-4e61-843c-63a1f490d213","system_id":"levelo_inurba_marseille","lat":43.313571,"lon":5.384829,"is_reserved":false,"is_disabled":false,"rental_uris":{"android":"levelo://app?vid=bfc7fbc9-2fe1-4e61-843c-63a1f490d213","ios":"levelo://app?vid=bfc7fbc9-2fe1-4e61-843c-63a1f490d213"},"vehicle_type_id":"4","last_reported":1701543887,"current_range_meters":30400,"station_id":"ce4bgt92rcd13ifvqcf0","pricing_plan_id":"free"},{"bike_id":"8a510583-18a4-4241-8ed3-6a287c2d3c24","system_id":"levelo_inurba_marseille","lat":43.313571,"lon":5.384829,"is_reserved":false,"is_disabled":false,"rental_uris":{"android":"levelo://app?vid=8a510583-18a4-4241-8ed3-6a287c2d3c24","ios":"levelo://app?vid=8a510583-18a4-4241-8ed3-6a287c2d3c24"},"vehicle_type_id":"4","last_reported":1701543887,"current_range_meters":31600,"station_id":"ce4bgt92rcd13ifvqcf0","pricing_plan_id":"free"},{"bike_id":"3bedb087-8155-41d9-8327-cd136ea3f5ef","system_id":"levelo_inurba_marseille","lat":43.313571,"lon":5.384829,"is_reserved":false,"is_disabled":false,"rental_uris":{"android":"levelo://app?vid=3bedb087-8155-41d9-8327-cd136ea3f5ef","ios":"levelo://app?vid=3bedb087-8155-41d9-8327-cd136ea3f5ef"},"vehicle_type_id":"4","last_reported":1701543887,"current_range_meters":28400,"station_id":"ce4bgt92rcd13ifvqcf0","pricing_plan_id":"free"},{"bike_id":"9fdb7f97-586d-42d2-befd-15216ba2e422","system_id":"levelo_inurba_marseille","lat":43.31183,"lon":5.38523,"is_reserved":false,"is_disabled":false,"rental_uris":{"android":"levelo://app?vid=9fdb7f97-586d-42d2-befd-15216ba2e422","ios":"levelo://app?vid=9fdb7f97-586d-42d2-befd-15216ba2e422"},"vehicle_type_id":"4","last_reported":1701543887,"current_range_meters":400,"station_id":"","pricing_plan_id":"free"},{"bike_id":"021d09f2-470a-4c08-b0d4-cea8f40b5fcd","system_id":"levelo_inurba_marseille","lat":43.299724,"lon":5.371829,"is_reserved":false,"is_disabled":false,"rental_uris":{"android":"levelo://app?vid=021d09f2-470a-4c08-b0d4-cea8f40b5fcd","ios":"levelo://app?vid=021d09f2-470a-4c08-b0d4-cea8f40b5fcd"},"vehicle_type_id":"4","last_reported":1701543887,"current_range_meters":21200,"station_id":"ce4bgr92rcd13ifvqc7g","pricing_plan_id":"free"},{"bike_id":"64186c92-ae88-47cc-9a13-bcf74064689f","system_id":"levelo_inurba_marseille","lat":43.299724,"lon":5.371829,"is_reserved":false,"is_disabled":false,"rental_uris":{"android":"levelo://app?vid=64186c92-ae88-47cc-9a13-bcf74064689f","ios":"levelo://app?vid=64186c92-ae88-47cc-9a13-bcf74064689f"},"vehicle_type_id":"4","last_reported":1701543887,"current_range_meters":17200,"station_id":"ce4bgr92rcd13ifvqc7g","pricing_plan_id":"free"},{"bike_id":"084637a7-fae2-4ce0-a375-75e8996d383d","system_id":"levelo_inurba_marseille","lat":43.299724,"lon":5.371829,"is_reserved":false,"is_disabled":false,"rental_uris":{"android":"levelo://app?vid=084637a7-fae2-4ce0-a375-75e8996d383d","ios":"levelo://app?vid=084637a7-fae2-4ce0-a375-75e8996d383d"},"vehicle_type_id":"4","last_reported":1701543887,"current_range_meters":400,"station_id":"ce4bgr92rcd13ifvqc7g","pricing_plan_id":"free"},{"bike_id":"1bc53a9c-ffc9-4026-afd9-9a971feec816","system_id":"levelo_inurba_marseille","lat":43.299209,"lon":5.365547,"is_reserved":false,"is_disabled":false,"rental_uris":{"android":"levelo://app?vid=1bc53a9c-ffc9-4026-afd9-9a971feec816","ios":"levelo://app?vid=1bc53a9c-ffc9-4026-afd9-9a971feec816"},"vehicle_type_id":"4","last_reported":1701543887,"current_range_meters":18000,"station_id":"ce4bgm92rcd13ifvqbr0","pricing_plan_id":"free"},{"bike_id":"748d12ab-8e09-4ecd-b2d2-cbe0ea9624f6","system_id":"levelo_inurba_marseille","lat":43.298985,"lon":5.367303,"is_reserved":false,"is_disabled":false,"rental_uris":{"android":"levelo://app?vid=748d12ab-8e09-4ecd-b2d2-cbe0ea9624f6","ios":"levelo://app?vid=748d12ab-8e09-4ecd-b2d2-cbe0ea9624f6"},"vehicle_type_id":"4","last_reported":1701543887,"current_range_meters":5200,"station_id":"","pricing_plan_id":"free"},{"bike_id":"0af77536-0142-4bbb-a915-6c86753d0af6","system_id":"levelo_inurba_marseille","lat":43.299243,"lon":5.37481,"is_reserved":false,"is_disabled":false,"rental_uris":{"android":"levelo://app?vid=0af77536-0142-4bbb-a915-6c86753d0af6","ios":"levelo://app?vid=0af77536-0142-4bbb-a915-6c86753d0af6"},"vehicle_type_id":"4","last_reported":1701543887,"current_range_meters":25200,"station_id":"ce4bgjh2rcd13ifvqbg0","pricing_plan_id":"free"},{"bike_id":"1c2d9ee4-8784-4b29-b7c6-88b68bec751f","system_id":"levelo_inurba_marseille","lat":43.311722,"lon":5.387247,"is_reserved":false,"is_disabled":false,"rental_uris":{"android":"levelo://app?vid=1c2d9ee4-8784-4b29-b7c6-88b68bec751f","ios":"levelo://app?vid=1c2d9ee4-8784-4b29-b7c6-88b68bec751f"},"vehicle_type_id":"4","last_reported":1701543887,"current_range_meters":18800,"station_id":"ce4bgv12rcd13ifvqcp0","pricing_plan_id":"free"},{"bike_id":"fcdb45ce-337e-4d11-9c39-1d60f6b3bac9","system_id":"levelo_inurba_marseille","lat":43.305364,"lon":5.384119,"is_reserved":false,"is_disabled":false,"rental_uris":{"android":"levelo://app?vid=fcdb45ce-337e-4d11-9c39-1d60f6b3bac9","ios":"levelo://app?vid=fcdb45ce-337e-4d11-9c39-1d60f6b3bac9"},"vehicle_type_id":"4","last_reported":1701543887,"current_range_meters":12400,"station_id":"ce4bgg92rcd13ifvqb30","pricing_plan_id":"free"},{"bike_id":"cfdc1506-99c7-40d4-b8c8-e4b85ec59a42","system_id":"levelo_inurba_marseille","lat":43.311722,"lon":5.387247,"is_reserved":false,"is_disabled":false,"rental_uris":{"android":"levelo://app?vid=cfdc1506-99c7-40d4-b8c8-e4b85ec59a42","ios":"levelo://app?vid=cfdc1506-99c7-40d4-b8c8-e4b85ec59a42"},"vehicle_type_id":"4","last_reported":1701543887,"current_range_meters":26000,"station_id":"ce4bgv12rcd13ifvqcp0","pricing_plan_id":"free"},{"bike_id":"098b5622-989b-4e82-97c4-6e06107beb94","system_id":"levelo_inurba_marseille","lat":43.311722,"lon":5.387247,"is_reserved":false,"is_disabled":false,"rental_uris":{"android":"levelo://app?vid=098b5622-989b-4e82-97c4-6e06107beb94","ios":"levelo://app?vid=098b5622-989b-4e82-97c4-6e06107beb94"},"vehicle_type_id":"4","last_reported":1701543887,"current_range_meters":26800,"station_id":"ce4bgv12rcd13ifvqcp0","pricing_plan_id":"free"},{"bike_id":"227b1071-561a-454d-96cd-4aaae0f44a30","system_id":"levelo_inurba_marseille","lat":43.311722,"lon":5.387247,"is_reserved":false,"is_disabled":false,"rental_uris":{"android":"levelo://app?vid=227b1071-561a-454d-96cd-4aaae0f44a30","ios":"levelo://app?vid=227b1071-561a-454d-96cd-4aaae0f44a30"},"vehicle_type_id":"4","last_reported":1701543887,"current_range_meters":2000,"station_id":"ce4bgv12rcd13ifvqcp0","pricing_plan_id":"free"},{"bike_id":"e43f8ab8-9dd7-4e00-9bb6-30c142fc90cb","system_id":"levelo_inurba_marseille","lat":43.322872,"lon":5.382756,"is_reserved":false,"is_disabled":false,"rental_uris":{"android":"levelo://app?vid=e43f8ab8-9dd7-4e00-9bb6-30c142fc90cb","ios":"levelo://app?vid=e43f8ab8-9dd7-4e00-9bb6-30c142fc90cb"},"vehicle_type_id":"4","last_reported":1701543887,"current_range_meters":28800,"station_id":"ce4bhr12rcd13ifvqhqg","pricing_plan_id":"free"},{"bike_id":"3c6eacad-63e8-42f7-9988-09cf64b64dd8","system_id":"levelo_inurba_marseille","lat":43.32831,"lon":5.36677,"is_reserved":false,"is_disabled":false,"rental_uris":{"android":"levelo://app?vid=3c6eacad-63e8-42f7-9988-09cf64b64dd8","ios":"levelo://app?vid=3c6eacad-63e8-42f7-9988-09cf64b64dd8"},"vehicle_type_id":"4","last_reported":1701543887,"current_range_meters":6800,"station_id":"ce4bhs92rcd13ifvqi0g","pricing_plan_id":"free"},{"bike_id":"ead1d039-142a-4203-a912-57415bb384df","system_id":"levelo_inurba_marseille","lat":43.297163,"lon":5.365866,"is_reserved":false,"is_disabled":false,"rental_uris":{"android":"levelo://app?vid=ead1d039-142a-4203-a912-57415bb384df","ios":"levelo://app?vid=ead1d039-142a-4203-a912-57415bb384df"},"vehicle_type_id":"4","last_reported":1701543887,"current_range_meters":8000,"station_id":"ce4bgn12rcd13ifvqbt0","pricing_plan_id":"free"},{"bike_id":"863e68e6-f678-4404-9035-1f0c001016cb","system_id":"levelo_inurba_marseille","lat":43.32835,"lon":5.36691,"is_reserved":false,"is_disabled":false,"rental_uris":{"android":"levelo://app?vid=863e68e6-f678-4404-9035-1f0c001016cb","ios":"levelo://app?vid=863e68e6-f678-4404-9035-1f0c001016cb"},"vehicle_type_id":"4","last_reported":1701543887,"current_range_meters":18400,"station_id":"ce4bhs92rcd13ifvqi0g","pricing_plan_id":"free"},{"bike_id":"c0284961-478e-4ccd-b43e-321d6e4c5580","system_id":"levelo_inurba_marseille","lat":43.32837,"lon":5.36678,"is_reserved":false,"is_disabled":false,"rental_uris":{"android":"levelo://app?vid=c0284961-478e-4ccd-b43e-321d6e4c5580","ios":"levelo://app?vid=c0284961-478e-4ccd-b43e-321d6e4c5580"},"vehicle_type_id":"4","last_reported":1701543887,"current_range_meters":2000,"station_id":"ce4bhs92rcd13ifvqi0g","pricing_plan_id":"free"},{"bike_id":"5c26bdfb-7b7c-43fb-8a01-250128a1a6f8","system_id":"levelo_inurba_marseille","lat":43.32838,"lon":5.36674,"is_reserved":false,"is_disabled":false,"rental_uris":{"android":"levelo://app?vid=5c26bdfb-7b7c-43fb-8a01-250128a1a6f8","ios":"levelo://app?vid=5c26bdfb-7b7c-43fb-8a01-250128a1a6f8"},"vehicle_type_id":"4","last_reported":1701543887,"current_range_meters":20400,"station_id":"ce4bhs92rcd13ifvqi0g","pricing_plan_id":"free"},{"bike_id":"eaa0e7e7-2390-47fa-909b-7b240952cbef","system_id":"levelo_inurba_marseille","lat":43.316501,"lon":5.389611,"is_reserved":false,"is_disabled":false,"rental_uris":{"android":"levelo://app?vid=eaa0e7e7-2390-47fa-909b-7b240952cbef","ios":"levelo://app?vid=eaa0e7e7-2390-47fa-909b-7b240952cbef"},"vehicle_type_id":"4","last_reported":1701543887,"current_range_meters":16400,"station_id":"","pricing_plan_id":"free"},{"bike_id":"42aec416-1771-49b6-ae61-fb1024012765","system_id":"levelo_inurba_marseille","lat":43.298037,"lon":5.381066,"is_reserved":false,"is_disabled":false,"rental_uris":{"android":"levelo://app?vid=42aec416-1771-49b6-ae61-fb1024012765","ios":"levelo://app?vid=42aec416-1771-49b6-ae61-fb1024012765"},"vehicle_type_id":"4","last_reported":1701543887,"current_range_meters":4800,"station_id":"ce4bgip2rcd13ifvqbb0","pricing_plan_id":"free"},{"bike_id":"158215d3-1ed1-4a0e-a2b5-0e2542fdc0d3","system_id":"levelo_inurba_marseille","lat":43.304278,"lon":5.388868,"is_reserved":false,"is_disabled":false,"rental_uris":{"android":"levelo://app?vid=158215d3-1ed1-4a0e-a2b5-0e2542fdc0d3","ios":"levelo://app?vid=158215d3-1ed1-4a0e-a2b5-0e2542fdc0d3"},"vehicle_type_id":"4","last_reported":1701543887,"current_range_meters":800,"station_id":"ce4bgk12rcd13ifvqbi0","pricing_plan_id":"free"},{"bike_id":"22c82142-87a4-43f0-acde-24aacd1e4409","system_id":"levelo_inurba_marseille","lat":43.304278,"lon":5.388868,"is_reserved":false,"is_disabled":false,"rental_uris":{"android":"levelo://app?vid=22c82142-87a4-43f0-acde-24aacd1e4409","ios":"levelo://app?vid=22c82142-87a4-43f0-acde-24aacd1e4409"},"vehicle_type_id":"4","last_reported":1701543887,"current_range_meters":6800,"station_id":"ce4bgk12rcd13ifvqbi0","pricing_plan_id":"free"},{"bike_id":"f9d3c270-6de1-44e1-b370-20295950cdd6","system_id":"levelo_inurba_marseille","lat":43.304278,"lon":5.388868,"is_reserved":false,"is_disabled":false,"rental_uris":{"android":"levelo://app?vid=f9d3c270-6de1-44e1-b370-20295950cdd6","ios":"levelo://app?vid=f9d3c270-6de1-44e1-b370-20295950cdd6"},"vehicle_type_id":"4","last_reported":1701543887,"current_range_meters":28800,"station_id":"ce4bgk12rcd13ifvqbi0","pricing_plan_id":"free"},{"bike_id":"7eb8db17-f93e-4bdf-b62d-9e8a2cabb876","system_id":"levelo_inurba_marseille","lat":43.304278,"lon":5.388868,"is_reserved":false,"is_disabled":false,"rental_uris":{"android":"levelo://app?vid=7eb8db17-f93e-4bdf-b62d-9e8a2cabb876","ios":"levelo://app?vid=7eb8db17-f93e-4bdf-b62d-9e8a2cabb876"},"vehicle_type_id":"4","last_reported":1701543887,"current_range_meters":7600,"station_id":"ce4bgk12rcd13ifvqbi0","pricing_plan_id":"free"},{"bike_id":"dcfb82b6-95c3-4b3c-9a95-ccada87fe4bd","system_id":"levelo_inurba_marseille","lat":43.29974,"lon":5.38493,"is_reserved":false,"is_disabled":false,"rental_uris":{"android":"levelo://app?vid=dcfb82b6-95c3-4b3c-9a95-ccada87fe4bd","ios":"levelo://app?vid=dcfb82b6-95c3-4b3c-9a95-ccada87fe4bd"},"vehicle_type_id":"4","last_reported":1701543887,"current_range_meters":0,"station_id":"ce4bgj92rcd13ifvqbd0","pricing_plan_id":"free"},{"bike_id":"fc7311a5-2483-47a6-b1f7-eab122e10358","system_id":"levelo_inurba_marseille","lat":43.292749,"lon":5.368402,"is_reserved":false,"is_disabled":false,"rental_uris":{"android":"levelo://app?vid=fc7311a5-2483-47a6-b1f7-eab122e10358","ios":"levelo://app?vid=fc7311a5-2483-47a6-b1f7-eab122e10358"},"vehicle_type_id":"4","last_reported":1701543887,"current_range_meters":21600,"station_id":"ce4bhbp2rcd13ifvqesg","pricing_plan_id":"free"},{"bike_id":"0386ecac-3c98-4e4d-b035-7b837a97371a","system_id":"levelo_inurba_marseille","lat":43.29308,"lon":5.3717,"is_reserved":false,"is_disabled":false,"rental_uris":{"android":"levelo://app?vid=0386ecac-3c98-4e4d-b035-7b837a97371a","ios":"levelo://app?vid=0386ecac-3c98-4e4d-b035-7b837a97371a"},"vehicle_type_id":"4","last_reported":1701543887,"current_range_meters":31200,"station_id":"ce4bgh92rcd13ifvqb40","pricing_plan_id":"free"},{"bike_id":"666d22d5-0b59-4a3e-84d2-84d1a7e36ef9","system_id":"levelo_inurba_marseille","lat":43.29297,"lon":5.37168,"is_reserved":false,"is_disabled":false,"rental_uris":{"android":"levelo://app?vid=666d22d5-0b59-4a3e-84d2-84d1a7e36ef9","ios":"levelo://app?vid=666d22d5-0b59-4a3e-84d2-84d1a7e36ef9"},"vehicle_type_id":"4","last_reported":1701543887,"current_range_meters":22400,"station_id":"ce4bgh92rcd13ifvqb40","pricing_plan_id":"free"},{"bike_id":"64f718e9-b87a-4574-91ed-03a3fa9dd2ad","system_id":"levelo_inurba_marseille","lat":43.316517,"lon":5.404375,"is_reserved":false,"is_disabled":false,"rental_uris":{"android":"levelo://app?vid=64f718e9-b87a-4574-91ed-03a3fa9dd2ad","ios":"levelo://app?vid=64f718e9-b87a-4574-91ed-03a3fa9dd2ad"},"vehicle_type_id":"4","last_reported":1701543887,"current_range_meters":10400,"station_id":"ce4bh012rcd13ifvqd00","pricing_plan_id":"free"},{"bike_id":"87c4a106-cf26-4c91-afb1-7c78d1649825","system_id":"levelo_inurba_marseille","lat":43.29269,"lon":5.36843,"is_reserved":false,"is_disabled":false,"rental_uris":{"android":"levelo://app?vid=87c4a106-cf26-4c91-afb1-7c78d1649825","ios":"levelo://app?vid=87c4a106-cf26-4c91-afb1-7c78d1649825"},"vehicle_type_id":"4","last_reported":1701543887,"current_range_meters":7200,"station_id":"ce4bhbp2rcd13ifvqesg","pricing_plan_id":"free"},{"bike_id":"4178ef28-99e4-43e0-b298-64967bacdc33","system_id":"levelo_inurba_marseille","lat":43.293009,"lon":5.374584,"is_reserved":false,"is_disabled":false,"rental_uris":{"android":"levelo://app?vid=4178ef28-99e4-43e0-b298-64967bacdc33","ios":"levelo://app?vid=4178ef28-99e4-43e0-b298-64967bacdc33"},"vehicle_type_id":"4","last_reported":1701543887,"current_range_meters":5200,"station_id":"ce4bgi12rcd13ifvqb70","pricing_plan_id":"free"},{"bike_id":"91b45649-64c5-41ff-8191-714c2970d778","system_id":"levelo_inurba_marseille","lat":43.30604,"lon":5.3935,"is_reserved":false,"is_disabled":false,"rental_uris":{"android":"levelo://app?vid=91b45649-64c5-41ff-8191-714c2970d778","ios":"levelo://app?vid=91b45649-64c5-41ff-8191-714c2970d778"},"vehicle_type_id":"4","last_reported":1701543887,"current_range_meters":22000,"station_id":"ce4bh0p2rcd13ifvqd80","pricing_plan_id":"free"},{"bike_id":"8408745a-32dc-4db2-a242-3561de3087a8","system_id":"levelo_inurba_marseille","lat":43.29297,"lon":5.37435,"is_reserved":false,"is_disabled":false,"rental_uris":{"android":"levelo://app?vid=8408745a-32dc-4db2-a242-3561de3087a8","ios":"levelo://app?vid=8408745a-32dc-4db2-a242-3561de3087a8"},"vehicle_type_id":"4","last_reported":1701543887,"current_range_meters":19200,"station_id":"ce4bgi12rcd13ifvqb70","pricing_plan_id":"free"},{"bike_id":"26c298e9-6e30-420a-ae40-35d2ad7b09d2","system_id":"levelo_inurba_marseille","lat":43.292311,"lon":5.360731,"is_reserved":false,"is_disabled":false,"rental_uris":{"android":"levelo://app?vid=26c298e9-6e30-420a-ae40-35d2ad7b09d2","ios":"levelo://app?vid=26c298e9-6e30-420a-ae40-35d2ad7b09d2"},"vehicle_type_id":"4","last_reported":1701543887,"current_range_meters":18000,"station_id":"ce4bhbh2rcd13ifvqeqg","pricing_plan_id":"free"},{"bike_id":"2a1a6f8d-026b-4045-a436-741d2b6d5658","system_id":"levelo_inurba_marseille","lat":43.291675,"lon":5.371583,"is_reserved":false,"is_disabled":false,"rental_uris":{"android":"levelo://app?vid=2a1a6f8d-026b-4045-a436-741d2b6d5658","ios":"levelo://app?vid=2a1a6f8d-026b-4045-a436-741d2b6d5658"},"vehicle_type_id":"4","last_reported":1701543887,"current_range_meters":23200,"station_id":"ce4bha92rcd13ifvqeh0","pricing_plan_id":"free"},{"bike_id":"fd0b2deb-1e69-4cca-95e9-365d71c6356c","system_id":"levelo_inurba_marseille","lat":43.298726,"lon":5.388994,"is_reserved":false,"is_disabled":false,"rental_uris":{"android":"levelo://app?vid=fd0b2deb-1e69-4cca-95e9-365d71c6356c","ios":"levelo://app?vid=fd0b2deb-1e69-4cca-95e9-365d71c6356c"},"vehicle_type_id":"4","last_reported":1701543887,"current_range_meters":29600,"station_id":"ce4bh392rcd13ifvqdl0","pricing_plan_id":"free"},{"bike_id":"1480c094-176e-4c94-bf32-425943209478","system_id":"levelo_inurba_marseille","lat":43.298675,"lon":5.389031,"is_reserved":false,"is_disabled":false,"rental_uris":{"android":"levelo://app?vid=1480c094-176e-4c94-bf32-425943209478","ios":"levelo://app?vid=1480c094-176e-4c94-bf32-425943209478"},"vehicle_type_id":"4","last_reported":1701543887,"current_range_meters":31200,"station_id":"ce4bh392rcd13ifvqdl0","pricing_plan_id":"free"},{"bike_id":"01d23048-c628-4d4a-af7b-e609ec0939ff","system_id":"levelo_inurba_marseille","lat":43.31334,"lon":5.39683,"is_reserved":false,"is_disabled":false,"rental_uris":{"android":"levelo://app?vid=01d23048-c628-4d4a-af7b-e609ec0939ff","ios":"levelo://app?vid=01d23048-c628-4d4a-af7b-e609ec0939ff"},"vehicle_type_id":"4","last_reported":1701543887,"current_range_meters":10000,"station_id":"ce4bgvp2rcd13ifvqcu0","pricing_plan_id":"free"},{"bike_id":"5964a299-68eb-44c1-8d66-e4afd90ad262","system_id":"levelo_inurba_marseille","lat":43.29078,"lon":5.371904,"is_reserved":false,"is_disabled":false,"rental_uris":{"android":"levelo://app?vid=5964a299-68eb-44c1-8d66-e4afd90ad262","ios":"levelo://app?vid=5964a299-68eb-44c1-8d66-e4afd90ad262"},"vehicle_type_id":"4","last_reported":1701543887,"current_range_meters":0,"station_id":"ce4bh5p2rcd13ifvqe4g","pricing_plan_id":"free"},{"bike_id":"8ed3ca95-2f7b-4d5a-bd42-8bf0ed0b7744","system_id":"levelo_inurba_marseille","lat":43.29146,"lon":5.37948,"is_reserved":false,"is_disabled":false,"rental_uris":{"android":"levelo://app?vid=8ed3ca95-2f7b-4d5a-bd42-8bf0ed0b7744","ios":"levelo://app?vid=8ed3ca95-2f7b-4d5a-bd42-8bf0ed0b7744"},"vehicle_type_id":"4","last_reported":1701543887,"current_range_meters":17600,"station_id":"","pricing_plan_id":"free"},{"bike_id":"eafadb46-843e-4d2c-9de9-6bebe05d2e94","system_id":"levelo_inurba_marseille","lat":43.294162,"lon":5.386292,"is_reserved":false,"is_disabled":false,"rental_uris":{"android":"levelo://app?vid=eafadb46-843e-4d2c-9de9-6bebe05d2e94","ios":"levelo://app?vid=eafadb46-843e-4d2c-9de9-6bebe05d2e94"},"vehicle_type_id":"4","last_reported":1701543887,"current_range_meters":0,"station_id":"ce4bh2h2rcd13ifvqdh0","pricing_plan_id":"free"},{"bike_id":"8fa08b8d-628a-407d-a165-bad8691cc437","system_id":"levelo_inurba_marseille","lat":43.28942,"lon":5.36633,"is_reserved":false,"is_disabled":false,"rental_uris":{"android":"levelo://app?vid=8fa08b8d-628a-407d-a165-bad8691cc437","ios":"levelo://app?vid=8fa08b8d-628a-407d-a165-bad8691cc437"},"vehicle_type_id":"4","last_reported":1701543887,"current_range_meters":0,"station_id":"ce4bhap2rcd13ifvqek0","pricing_plan_id":"free"},{"bike_id":"8e447e7d-5239-4d27-9e40-eee6f5870676","system_id":"levelo_inurba_marseille","lat":43.33042,"lon":5.38915,"is_reserved":false,"is_disabled":false,"rental_uris":{"android":"levelo://app?vid=8e447e7d-5239-4d27-9e40-eee6f5870676","ios":"levelo://app?vid=8e447e7d-5239-4d27-9e40-eee6f5870676"},"vehicle_type_id":"4","last_reported":1701543887,"current_range_meters":3600,"station_id":"ce4bhr92rcd13ifvqhrg","pricing_plan_id":"free"},{"bike_id":"80f15921-9d11-40c5-80f6-47a0d3ed9900","system_id":"levelo_inurba_marseille","lat":43.33041,"lon":5.38922,"is_reserved":false,"is_disabled":false,"rental_uris":{"android":"levelo://app?vid=80f15921-9d11-40c5-80f6-47a0d3ed9900","ios":"levelo://app?vid=80f15921-9d11-40c5-80f6-47a0d3ed9900"},"vehicle_type_id":"4","last_reported":1701543887,"current_range_meters":31200,"station_id":"ce4bhr92rcd13ifvqhrg","pricing_plan_id":"free"},{"bike_id":"7785b159-149f-4c48-a377-d11ef9c82922","system_id":"levelo_inurba_marseille","lat":43.330442,"lon":5.389148,"is_reserved":false,"is_disabled":false,"rental_uris":{"android":"levelo://app?vid=7785b159-149f-4c48-a377-d11ef9c82922","ios":"levelo://app?vid=7785b159-149f-4c48-a377-d11ef9c82922"},"vehicle_type_id":"4","last_reported":1701543887,"current_range_meters":30800,"station_id":"ce4bhr92rcd13ifvqhrg","pricing_plan_id":"free"},{"bike_id":"0a16bffd-97ef-4cef-9daa-73117fa0ca7d","system_id":"levelo_inurba_marseille","lat":43.290995,"lon":5.381361,"is_reserved":false,"is_disabled":false,"rental_uris":{"android":"levelo://app?vid=0a16bffd-97ef-4cef-9daa-73117fa0ca7d","ios":"levelo://app?vid=0a16bffd-97ef-4cef-9daa-73117fa0ca7d"},"vehicle_type_id":"4","last_reported":1701543887,"current_range_meters":6400,"station_id":"ce4bh512rcd13ifvqe2g","pricing_plan_id":"free"},{"bike_id":"b38135b0-bb14-4c25-bf29-b49d406cc922","system_id":"levelo_inurba_marseille","lat":43.33056,"lon":5.39058,"is_reserved":false,"is_disabled":false,"rental_uris":{"android":"levelo://app?vid=b38135b0-bb14-4c25-bf29-b49d406cc922","ios":"levelo://app?vid=b38135b0-bb14-4c25-bf29-b49d406cc922"},"vehicle_type_id":"4","last_reported":1701543887,"current_range_meters":0,"station_id":"","pricing_plan_id":"free"},{"bike_id":"c8d8a03d-1e26-4cda-9e0d-a9390e1e5843","system_id":"levelo_inurba_marseille","lat":43.31286,"lon":5.40171,"is_reserved":false,"is_disabled":false,"rental_uris":{"android":"levelo://app?vid=c8d8a03d-1e26-4cda-9e0d-a9390e1e5843","ios":"levelo://app?vid=c8d8a03d-1e26-4cda-9e0d-a9390e1e5843"},"vehicle_type_id":"4","last_reported":1701543887,"current_range_meters":7200,"station_id":"ce4bh092rcd13ifvqd30","pricing_plan_id":"free"},{"bike_id":"0175dbce-0d09-4f51-bddd-3cf82c8d27d3","system_id":"levelo_inurba_marseille","lat":43.30642,"lon":5.401031,"is_reserved":false,"is_disabled":false,"rental_uris":{"android":"levelo://app?vid=0175dbce-0d09-4f51-bddd-3cf82c8d27d3","ios":"levelo://app?vid=0175dbce-0d09-4f51-bddd-3cf82c8d27d3"},"vehicle_type_id":"4","last_reported":1701543887,"current_range_meters":22400,"station_id":"ce4bh112rcd13ifvqda0","pricing_plan_id":"free"},{"bike_id":"214a28a2-319c-4c5f-8e3f-93396c3e5a3f","system_id":"levelo_inurba_marseille","lat":43.301117,"lon":5.398795,"is_reserved":false,"is_disabled":false,"rental_uris":{"android":"levelo://app?vid=214a28a2-319c-4c5f-8e3f-93396c3e5a3f","ios":"levelo://app?vid=214a28a2-319c-4c5f-8e3f-93396c3e5a3f"},"vehicle_type_id":"4","last_reported":1701543887,"current_range_meters":2400,"station_id":"ce4bh0h2rcd13ifvqd40","pricing_plan_id":"free"},{"bike_id":"d9b51263-e22b-4cc3-bc7d-d6d2139a9fc0","system_id":"levelo_inurba_marseille","lat":43.298681,"lon":5.397225,"is_reserved":false,"is_disabled":false,"rental_uris":{"android":"levelo://app?vid=d9b51263-e22b-4cc3-bc7d-d6d2139a9fc0","ios":"levelo://app?vid=d9b51263-e22b-4cc3-bc7d-d6d2139a9fc0"},"vehicle_type_id":"4","last_reported":1701543887,"current_range_meters":24800,"station_id":"ce4bh0h2rcd13ifvqd50","pricing_plan_id":"free"},{"bike_id":"665f1ea5-c3af-40fa-a654-cf17d78b540b","system_id":"levelo_inurba_marseille","lat":43.298681,"lon":5.397225,"is_reserved":false,"is_disabled":false,"rental_uris":{"android":"levelo://app?vid=665f1ea5-c3af-40fa-a654-cf17d78b540b","ios":"levelo://app?vid=665f1ea5-c3af-40fa-a654-cf17d78b540b"},"vehicle_type_id":"4","last_reported":1701543887,"current_range_meters":4800,"station_id":"ce4bh0h2rcd13ifvqd50","pricing_plan_id":"free"},{"bike_id":"94fd7433-7f74-49d7-9733-6aff8c715c0a","system_id":"levelo_inurba_marseille","lat":43.295196,"lon":5.39397,"is_reserved":false,"is_disabled":false,"rental_uris":{"android":"levelo://app?vid=94fd7433-7f74-49d7-9733-6aff8c715c0a","ios":"levelo://app?vid=94fd7433-7f74-49d7-9733-6aff8c715c0a"},"vehicle_type_id":"4","last_reported":1701543887,"current_range_meters":5600,"station_id":"ce4bh292rcd13ifvqdf0","pricing_plan_id":"free"},{"bike_id":"6c10c1e9-96a1-4d15-959d-e992231ec533","system_id":"levelo_inurba_marseille","lat":43.286593,"lon":5.363346,"is_reserved":false,"is_disabled":false,"rental_uris":{"android":"levelo://app?vid=6c10c1e9-96a1-4d15-959d-e992231ec533","ios":"levelo://app?vid=6c10c1e9-96a1-4d15-959d-e992231ec533"},"vehicle_type_id":"4","last_reported":1701543887,"current_range_meters":24400,"station_id":"ce4bhah2rcd13ifvqej0","pricing_plan_id":"free"},{"bike_id":"603b5b12-774e-4b0a-8451-8d5e24d4db26","system_id":"levelo_inurba_marseille","lat":43.286593,"lon":5.363346,"is_reserved":false,"is_disabled":false,"rental_uris":{"android":"levelo://app?vid=603b5b12-774e-4b0a-8451-8d5e24d4db26","ios":"levelo://app?vid=603b5b12-774e-4b0a-8451-8d5e24d4db26"},"vehicle_type_id":"4","last_reported":1701543887,"current_range_meters":17200,"station_id":"ce4bhah2rcd13ifvqej0","pricing_plan_id":"free"},{"bike_id":"31d0e2e3-2507-408e-a9fc-284f7bcf551c","system_id":"levelo_inurba_marseille","lat":43.290345,"lon":5.38646,"is_reserved":false,"is_disabled":false,"rental_uris":{"android":"levelo://app?vid=31d0e2e3-2507-408e-a9fc-284f7bcf551c","ios":"levelo://app?vid=31d0e2e3-2507-408e-a9fc-284f7bcf551c"},"vehicle_type_id":"4","last_reported":1701543887,"current_range_meters":14800,"station_id":"ce4bh4p2rcd13ifvqe0g","pricing_plan_id":"free"},{"bike_id":"1fc0942e-9f28-4709-8d09-7ae91b9aca48","system_id":"levelo_inurba_marseille","lat":43.302759,"lon":5.400793,"is_reserved":false,"is_disabled":false,"rental_uris":{"android":"levelo://app?vid=1fc0942e-9f28-4709-8d09-7ae91b9aca48","ios":"levelo://app?vid=1fc0942e-9f28-4709-8d09-7ae91b9aca48"},"vehicle_type_id":"4","last_reported":1701543887,"current_range_meters":4000,"station_id":"ce4bgvh2rcd13ifvqcs0","pricing_plan_id":"free"},{"bike_id":"6e129d2d-10ae-459a-a110-627ae0b88872","system_id":"levelo_inurba_marseille","lat":43.29029,"lon":5.38647,"is_reserved":false,"is_disabled":false,"rental_uris":{"android":"levelo://app?vid=6e129d2d-10ae-459a-a110-627ae0b88872","ios":"levelo://app?vid=6e129d2d-10ae-459a-a110-627ae0b88872"},"vehicle_type_id":"4","last_reported":1701543887,"current_range_meters":22800,"station_id":"ce4bh4p2rcd13ifvqe0g","pricing_plan_id":"free"},{"bike_id":"acf5f012-c119-4b05-8547-53751c4baa61","system_id":"levelo_inurba_marseille","lat":43.290345,"lon":5.38646,"is_reserved":false,"is_disabled":false,"rental_uris":{"android":"levelo://app?vid=acf5f012-c119-4b05-8547-53751c4baa61","ios":"levelo://app?vid=acf5f012-c119-4b05-8547-53751c4baa61"},"vehicle_type_id":"4","last_reported":1701543887,"current_range_meters":21200,"station_id":"ce4bh4p2rcd13ifvqe0g","pricing_plan_id":"free"},{"bike_id":"64fa1201-66ce-4117-9832-8ae725ccfa4c","system_id":"levelo_inurba_marseille","lat":43.28711,"lon":5.37921,"is_reserved":false,"is_disabled":false,"rental_uris":{"android":"levelo://app?vid=64fa1201-66ce-4117-9832-8ae725ccfa4c","ios":"levelo://app?vid=64fa1201-66ce-4117-9832-8ae725ccfa4c"},"vehicle_type_id":"4","last_reported":1701543887,"current_range_meters":4400,"station_id":"ce4bh9p2rcd13ifvqec0","pricing_plan_id":"free"},{"bike_id":"76cb10c0-1a9e-49a2-a117-4a84731b1680","system_id":"levelo_inurba_marseille","lat":43.28701,"lon":5.37889,"is_reserved":false,"is_disabled":false,"rental_uris":{"android":"levelo://app?vid=76cb10c0-1a9e-49a2-a117-4a84731b1680","ios":"levelo://app?vid=76cb10c0-1a9e-49a2-a117-4a84731b1680"},"vehicle_type_id":"4","last_reported":1701543887,"current_range_meters":31200,"station_id":"ce4bh9p2rcd13ifvqec0","pricing_plan_id":"free"},{"bike_id":"ab902191-32a4-4475-a9ca-be0f1a683bc4","system_id":"levelo_inurba_marseille","lat":43.291994,"lon":5.392907,"is_reserved":false,"is_disabled":false,"rental_uris":{"android":"levelo://app?vid=ab902191-32a4-4475-a9ca-be0f1a683bc4","ios":"levelo://app?vid=ab902191-32a4-4475-a9ca-be0f1a683bc4"},"vehicle_type_id":"4","last_reported":1701543887,"current_range_meters":27200,"station_id":"ce4bh192rcd13ifvqdd0","pricing_plan_id":"free"},{"bike_id":"81399bbb-4fe3-4dbb-9731-a5572b9d2fda","system_id":"levelo_inurba_marseille","lat":43.285856,"lon":5.350771,"is_reserved":false,"is_disabled":false,"rental_uris":{"android":"levelo://app?vid=81399bbb-4fe3-4dbb-9731-a5572b9d2fda","ios":"levelo://app?vid=81399bbb-4fe3-4dbb-9731-a5572b9d2fda"},"vehicle_type_id":"4","last_reported":1701543887,"current_range_meters":0,"station_id":"ce4bhch2rcd13ifvqeug","pricing_plan_id":"free"},{"bike_id":"3b7ba15b-8c65-4fcd-826d-b82c270ff007","system_id":"levelo_inurba_marseille","lat":43.283998,"lon":5.375062,"is_reserved":false,"is_disabled":false,"rental_uris":{"android":"levelo://app?vid=3b7ba15b-8c65-4fcd-826d-b82c270ff007","ios":"levelo://app?vid=3b7ba15b-8c65-4fcd-826d-b82c270ff007"},"vehicle_type_id":"4","last_reported":1701543887,"current_range_meters":0,"station_id":"ce4bh412rcd13ifvqds0","pricing_plan_id":"free"},{"bike_id":"f296ca3e-5a25-4a27-9361-b0cc835b26ba","system_id":"levelo_inurba_marseille","lat":43.284132,"lon":5.375002,"is_reserved":false,"is_disabled":false,"rental_uris":{"android":"levelo://app?vid=f296ca3e-5a25-4a27-9361-b0cc835b26ba","ios":"levelo://app?vid=f296ca3e-5a25-4a27-9361-b0cc835b26ba"},"vehicle_type_id":"4","last_reported":1701543887,"current_range_meters":17200,"station_id":"","pricing_plan_id":"free"},{"bike_id":"75ee5a35-25e5-4210-a426-2d92cbb1b782","system_id":"levelo_inurba_marseille","lat":43.333214,"lon":5.396045,"is_reserved":false,"is_disabled":false,"rental_uris":{"android":"levelo://app?vid=75ee5a35-25e5-4210-a426-2d92cbb1b782","ios":"levelo://app?vid=75ee5a35-25e5-4210-a426-2d92cbb1b782"},"vehicle_type_id":"4","last_reported":1701543887,"current_range_meters":0,"station_id":"","pricing_plan_id":"free"},{"bike_id":"f99fc4d8-709b-4cee-a32c-2cdd6f1e8b1e","system_id":"levelo_inurba_marseille","lat":43.33749,"lon":5.39111,"is_reserved":false,"is_disabled":false,"rental_uris":{"android":"levelo://app?vid=f99fc4d8-709b-4cee-a32c-2cdd6f1e8b1e","ios":"levelo://app?vid=f99fc4d8-709b-4cee-a32c-2cdd6f1e8b1e"},"vehicle_type_id":"4","last_reported":1701543887,"current_range_meters":24800,"station_id":"","pricing_plan_id":"free"},{"bike_id":"23a6e18e-5ad6-40cf-b6fb-7a4b1a6034c9","system_id":"levelo_inurba_marseille","lat":43.33717,"lon":5.391857,"is_reserved":false,"is_disabled":false,"rental_uris":{"android":"levelo://app?vid=23a6e18e-5ad6-40cf-b6fb-7a4b1a6034c9","ios":"levelo://app?vid=23a6e18e-5ad6-40cf-b6fb-7a4b1a6034c9"},"vehicle_type_id":"4","last_reported":1701543887,"current_range_meters":28000,"station_id":"ce4bhr92rcd13ifvqhsg","pricing_plan_id":"free"},{"bike_id":"e572ddc0-060d-4712-8e60-fc7c04355def","system_id":"levelo_inurba_marseille","lat":43.288501,"lon":5.393087,"is_reserved":false,"is_disabled":false,"rental_uris":{"android":"levelo://app?vid=e572ddc0-060d-4712-8e60-fc7c04355def","ios":"levelo://app?vid=e572ddc0-060d-4712-8e60-fc7c04355def"},"vehicle_type_id":"4","last_reported":1701543887,"current_range_meters":13200,"station_id":"ce4bh2p2rcd13ifvqdi0","pricing_plan_id":"free"},{"bike_id":"92c5f8ec-1ddb-4504-ba73-2b68b9bb21b7","system_id":"levelo_inurba_marseille","lat":43.283494,"lon":5.380945,"is_reserved":false,"is_disabled":false,"rental_uris":{"android":"levelo://app?vid=92c5f8ec-1ddb-4504-ba73-2b68b9bb21b7","ios":"levelo://app?vid=92c5f8ec-1ddb-4504-ba73-2b68b9bb21b7"},"vehicle_type_id":"4","last_reported":1701543887,"current_range_meters":7600,"station_id":"ce4bh412rcd13ifvqdr0","pricing_plan_id":"free"},{"bike_id":"32965421-94f2-4e2c-bcfb-878e2de2ec80","system_id":"levelo_inurba_marseille","lat":43.289363,"lon":5.396322,"is_reserved":false,"is_disabled":false,"rental_uris":{"android":"levelo://app?vid=32965421-94f2-4e2c-bcfb-878e2de2ec80","ios":"levelo://app?vid=32965421-94f2-4e2c-bcfb-878e2de2ec80"},"vehicle_type_id":"4","last_reported":1701543887,"current_range_meters":10000,"station_id":"ce4bh3h2rcd13ifvqdn0","pricing_plan_id":"free"},{"bike_id":"d67ab5db-34f4-4fed-88e8-e97a883b95a0","system_id":"levelo_inurba_marseille","lat":43.28285,"lon":5.35065,"is_reserved":false,"is_disabled":false,"rental_uris":{"android":"levelo://app?vid=d67ab5db-34f4-4fed-88e8-e97a883b95a0","ios":"levelo://app?vid=d67ab5db-34f4-4fed-88e8-e97a883b95a0"},"vehicle_type_id":"4","last_reported":1701543887,"current_range_meters":0,"station_id":"ce4bhbp2rcd13ifvqerg","pricing_plan_id":"free"},{"bike_id":"3ffe2381-791e-4dfc-ab55-b1a1afebe7c4","system_id":"levelo_inurba_marseille","lat":43.28039,"lon":5.369297,"is_reserved":false,"is_disabled":false,"rental_uris":{"android":"levelo://app?vid=3ffe2381-791e-4dfc-ab55-b1a1afebe7c4","ios":"levelo://app?vid=3ffe2381-791e-4dfc-ab55-b1a1afebe7c4"},"vehicle_type_id":"4","last_reported":1701543887,"current_range_meters":20000,"station_id":"ce4bha12rcd13ifvqef0","pricing_plan_id":"free"},{"bike_id":"d8f7b949-606c-419f-9cf8-3263c9d1736c","system_id":"levelo_inurba_marseille","lat":43.281044,"lon":5.378308,"is_reserved":false,"is_disabled":false,"rental_uris":{"android":"levelo://app?vid=d8f7b949-606c-419f-9cf8-3263c9d1736c","ios":"levelo://app?vid=d8f7b949-606c-419f-9cf8-3263c9d1736c"},"vehicle_type_id":"4","last_reported":1701543887,"current_range_meters":28400,"station_id":"ce4bha12rcd13ifvqee0","pricing_plan_id":"free"},{"bike_id":"55dcfea0-d9e3-4235-85e3-d1ae73aa4f35","system_id":"levelo_inurba_marseille","lat":43.284462,"lon":5.392121,"is_reserved":false,"is_disabled":false,"rental_uris":{"android":"levelo://app?vid=55dcfea0-d9e3-4235-85e3-d1ae73aa4f35","ios":"levelo://app?vid=55dcfea0-d9e3-4235-85e3-d1ae73aa4f35"},"vehicle_type_id":"4","last_reported":1701543887,"current_range_meters":16400,"station_id":"ce4bhoh2rcd13ifvqh5g","pricing_plan_id":"free"},{"bike_id":"a741f29b-e050-4f6b-b1ae-a0ba24ca9cf8","system_id":"levelo_inurba_marseille","lat":43.287154,"lon":5.399979,"is_reserved":false,"is_disabled":false,"rental_uris":{"android":"levelo://app?vid=a741f29b-e050-4f6b-b1ae-a0ba24ca9cf8","ios":"levelo://app?vid=a741f29b-e050-4f6b-b1ae-a0ba24ca9cf8"},"vehicle_type_id":"4","last_reported":1701543887,"current_range_meters":2800,"station_id":"ce4bho92rcd13ifvqh3g","pricing_plan_id":"free"},{"bike_id":"71a02c85-c219-4535-9c48-f8f398135475","system_id":"levelo_inurba_marseille","lat":43.28698,"lon":5.3998,"is_reserved":false,"is_disabled":false,"rental_uris":{"android":"levelo://app?vid=71a02c85-c219-4535-9c48-f8f398135475","ios":"levelo://app?vid=71a02c85-c219-4535-9c48-f8f398135475"},"vehicle_type_id":"4","last_reported":1701543887,"current_range_meters":0,"station_id":"","pricing_plan_id":"free"},{"bike_id":"9a4b9f8a-c6ff-46fb-95bb-6c2dc23e909c","system_id":"levelo_inurba_marseille","lat":43.287154,"lon":5.399979,"is_reserved":false,"is_disabled":false,"rental_uris":{"android":"levelo://app?vid=9a4b9f8a-c6ff-46fb-95bb-6c2dc23e909c","ios":"levelo://app?vid=9a4b9f8a-c6ff-46fb-95bb-6c2dc23e909c"},"vehicle_type_id":"4","last_reported":1701543887,"current_range_meters":23600,"station_id":"ce4bho92rcd13ifvqh3g","pricing_plan_id":"free"},{"bike_id":"a86b05ec-d6e9-4108-9eb9-985025562aa2","system_id":"levelo_inurba_marseille","lat":43.299579,"lon":5.413255,"is_reserved":false,"is_disabled":false,"rental_uris":{"android":"levelo://app?vid=a86b05ec-d6e9-4108-9eb9-985025562aa2","ios":"levelo://app?vid=a86b05ec-d6e9-4108-9eb9-985025562aa2"},"vehicle_type_id":"4","last_reported":1701543887,"current_range_meters":26400,"station_id":"ce4bhp12rcd13ifvqh9g","pricing_plan_id":"free"},{"bike_id":"edd9c944-aa31-4494-80cc-552f28e27862","system_id":"levelo_inurba_marseille","lat":43.292647,"lon":5.409162,"is_reserved":false,"is_disabled":false,"rental_uris":{"android":"levelo://app?vid=edd9c944-aa31-4494-80cc-552f28e27862","ios":"levelo://app?vid=edd9c944-aa31-4494-80cc-552f28e27862"},"vehicle_type_id":"4","last_reported":1701543887,"current_range_meters":19200,"station_id":"","pricing_plan_id":"free"},{"bike_id":"e5cfeb43-44c4-48ef-a2cc-43adc794b053","system_id":"levelo_inurba_marseille","lat":43.276188,"lon":5.36105,"is_reserved":false,"is_disabled":false,"rental_uris":{"android":"levelo://app?vid=e5cfeb43-44c4-48ef-a2cc-43adc794b053","ios":"levelo://app?vid=e5cfeb43-44c4-48ef-a2cc-43adc794b053"},"vehicle_type_id":"4","last_reported":1701543887,"current_range_meters":20000,"station_id":"ce4bgj92rcd13ifvqbe0","pricing_plan_id":"free"},{"bike_id":"1e6c48f0-3fb9-4d72-8f3e-ffd81e386925","system_id":"levelo_inurba_marseille","lat":43.27611,"lon":5.36108,"is_reserved":false,"is_disabled":false,"rental_uris":{"android":"levelo://app?vid=1e6c48f0-3fb9-4d72-8f3e-ffd81e386925","ios":"levelo://app?vid=1e6c48f0-3fb9-4d72-8f3e-ffd81e386925"},"vehicle_type_id":"4","last_reported":1701543887,"current_range_meters":1200,"station_id":"ce4bgj92rcd13ifvqbe0","pricing_plan_id":"free"},{"bike_id":"451e5711-912b-4e6f-ba92-14f20d0093e3","system_id":"levelo_inurba_marseille","lat":43.336953,"lon":5.406558,"is_reserved":false,"is_disabled":false,"rental_uris":{"android":"levelo://app?vid=451e5711-912b-4e6f-ba92-14f20d0093e3","ios":"levelo://app?vid=451e5711-912b-4e6f-ba92-14f20d0093e3"},"vehicle_type_id":"4","last_reported":1701543887,"current_range_meters":19200,"station_id":"","pricing_plan_id":"free"},{"bike_id":"bcdb50df-13be-4393-adc8-1a79a4e56c43","system_id":"levelo_inurba_marseille","lat":43.286181,"lon":5.404051,"is_reserved":false,"is_disabled":false,"rental_uris":{"android":"levelo://app?vid=bcdb50df-13be-4393-adc8-1a79a4e56c43","ios":"levelo://app?vid=bcdb50df-13be-4393-adc8-1a79a4e56c43"},"vehicle_type_id":"4","last_reported":1701543887,"current_range_meters":0,"station_id":"","pricing_plan_id":"free"},{"bike_id":"59d7b39c-0ea2-4124-8d9a-f9a5c930a03f","system_id":"levelo_inurba_marseille","lat":43.303837,"lon":5.418724,"is_reserved":false,"is_disabled":false,"rental_uris":{"android":"levelo://app?vid=59d7b39c-0ea2-4124-8d9a-f9a5c930a03f","ios":"levelo://app?vid=59d7b39c-0ea2-4124-8d9a-f9a5c930a03f"},"vehicle_type_id":"4","last_reported":1701543887,"current_range_meters":25600,"station_id":"ce4bhop2rcd13ifvqh7g","pricing_plan_id":"free"},{"bike_id":"dd1614ba-585e-450a-834b-1c03d5d026e1","system_id":"levelo_inurba_marseille","lat":43.273613,"lon":5.362705,"is_reserved":false,"is_disabled":false,"rental_uris":{"android":"levelo://app?vid=dd1614ba-585e-450a-834b-1c03d5d026e1","ios":"levelo://app?vid=dd1614ba-585e-450a-834b-1c03d5d026e1"},"vehicle_type_id":"4","last_reported":1701543887,"current_range_meters":31200,"station_id":"ce4bhbh2rcd13ifvqeo0","pricing_plan_id":"free"},{"bike_id":"6c6dfa43-2cc5-48c4-9b7a-5ea1c94db2ec","system_id":"levelo_inurba_marseille","lat":43.273609,"lon":5.362708,"is_reserved":false,"is_disabled":false,"rental_uris":{"android":"levelo://app?vid=6c6dfa43-2cc5-48c4-9b7a-5ea1c94db2ec","ios":"levelo://app?vid=6c6dfa43-2cc5-48c4-9b7a-5ea1c94db2ec"},"vehicle_type_id":"4","last_reported":1701543887,"current_range_meters":30000,"station_id":"ce4bhbh2rcd13ifvqeo0","pricing_plan_id":"free"},{"bike_id":"4f44e41c-5d5f-40b0-808d-6fe2cbe6b56b","system_id":"levelo_inurba_marseille","lat":43.33612,"lon":5.410321,"is_reserved":false,"is_disabled":false,"rental_uris":{"android":"levelo://app?vid=4f44e41c-5d5f-40b0-808d-6fe2cbe6b56b","ios":"levelo://app?vid=4f44e41c-5d5f-40b0-808d-6fe2cbe6b56b"},"vehicle_type_id":"4","last_reported":1701543887,"current_range_meters":30400,"station_id":"ce4bhqh2rcd13ifvqhmg","pricing_plan_id":"free"},{"bike_id":"c1cad434-c030-4ec2-a9f5-f7ba562c8337","system_id":"levelo_inurba_marseille","lat":43.336134,"lon":5.410341,"is_reserved":false,"is_disabled":false,"rental_uris":{"android":"levelo://app?vid=c1cad434-c030-4ec2-a9f5-f7ba562c8337","ios":"levelo://app?vid=c1cad434-c030-4ec2-a9f5-f7ba562c8337"},"vehicle_type_id":"4","last_reported":1701543887,"current_range_meters":24000,"station_id":"ce4bhqh2rcd13ifvqhmg","pricing_plan_id":"free"},{"bike_id":"b479fcc3-0a05-4ccb-ba48-fc63c4e9d231","system_id":"levelo_inurba_marseille","lat":43.336134,"lon":5.410341,"is_reserved":false,"is_disabled":false,"rental_uris":{"android":"levelo://app?vid=b479fcc3-0a05-4ccb-ba48-fc63c4e9d231","ios":"levelo://app?vid=b479fcc3-0a05-4ccb-ba48-fc63c4e9d231"},"vehicle_type_id":"4","last_reported":1701543887,"current_range_meters":18800,"station_id":"ce4bhqh2rcd13ifvqhmg","pricing_plan_id":"free"},{"bike_id":"7a497553-d9f0-4bef-bb1d-4bc900d88ef4","system_id":"levelo_inurba_marseille","lat":43.33624,"lon":5.41025,"is_reserved":false,"is_disabled":false,"rental_uris":{"android":"levelo://app?vid=7a497553-d9f0-4bef-bb1d-4bc900d88ef4","ios":"levelo://app?vid=7a497553-d9f0-4bef-bb1d-4bc900d88ef4"},"vehicle_type_id":"4","last_reported":1701543887,"current_range_meters":3200,"station_id":"ce4bhqh2rcd13ifvqhmg","pricing_plan_id":"free"},{"bike_id":"cdf76202-4ce1-4da0-ab3f-862e8192ba15","system_id":"levelo_inurba_marseille","lat":43.275625,"lon":5.384392,"is_reserved":false,"is_disabled":false,"rental_uris":{"android":"levelo://app?vid=cdf76202-4ce1-4da0-ab3f-862e8192ba15","ios":"levelo://app?vid=cdf76202-4ce1-4da0-ab3f-862e8192ba15"},"vehicle_type_id":"4","last_reported":1701543887,"current_range_meters":18000,"station_id":"ce4bhh92rcd13ifvqfi0","pricing_plan_id":"free"},{"bike_id":"75269014-fd84-4a1f-9fa5-95a0080041c8","system_id":"levelo_inurba_marseille","lat":43.310785,"lon":5.424305,"is_reserved":false,"is_disabled":false,"rental_uris":{"android":"levelo://app?vid=75269014-fd84-4a1f-9fa5-95a0080041c8","ios":"levelo://app?vid=75269014-fd84-4a1f-9fa5-95a0080041c8"},"vehicle_type_id":"4","last_reported":1701543887,"current_range_meters":28800,"station_id":"ce4bhp92rcd13ifvqhag","pricing_plan_id":"free"},{"bike_id":"910fd3aa-d2e0-4553-894a-6161d41c7fcd","system_id":"levelo_inurba_marseille","lat":43.27609,"lon":5.39475,"is_reserved":false,"is_disabled":false,"rental_uris":{"android":"levelo://app?vid=910fd3aa-d2e0-4553-894a-6161d41c7fcd","ios":"levelo://app?vid=910fd3aa-d2e0-4553-894a-6161d41c7fcd"},"vehicle_type_id":"4","last_reported":1701543887,"current_range_meters":17600,"station_id":"","pricing_plan_id":"free"},{"bike_id":"da7f7625-db63-42fe-a02c-753cd5ff3678","system_id":"levelo_inurba_marseille","lat":43.340804,"lon":5.410219,"is_reserved":false,"is_disabled":false,"rental_uris":{"android":"levelo://app?vid=da7f7625-db63-42fe-a02c-753cd5ff3678","ios":"levelo://app?vid=da7f7625-db63-42fe-a02c-753cd5ff3678"},"vehicle_type_id":"4","last_reported":1701543887,"current_range_meters":23600,"station_id":"ce4bhqh2rcd13ifvqhlg","pricing_plan_id":"free"},{"bike_id":"ea3b4df8-a393-464c-9426-069b13406c71","system_id":"levelo_inurba_marseille","lat":43.274103,"lon":5.394016,"is_reserved":false,"is_disabled":false,"rental_uris":{"android":"levelo://app?vid=ea3b4df8-a393-464c-9426-069b13406c71","ios":"levelo://app?vid=ea3b4df8-a393-464c-9426-069b13406c71"},"vehicle_type_id":"4","last_reported":1701543887,"current_range_meters":22400,"station_id":"ce4bhdp2rcd13ifvqf20","pricing_plan_id":"free"},{"bike_id":"efc73c4a-a993-491b-a9e4-14a1c71ef603","system_id":"levelo_inurba_marseille","lat":43.317121,"lon":5.423936,"is_reserved":false,"is_disabled":false,"rental_uris":{"android":"levelo://app?vid=efc73c4a-a993-491b-a9e4-14a1c71ef603","ios":"levelo://app?vid=efc73c4a-a993-491b-a9e4-14a1c71ef603"},"vehicle_type_id":"4","last_reported":1701543887,"current_range_meters":28000,"station_id":"ce4bhp92rcd13ifvqhbg","pricing_plan_id":"free"},{"bike_id":"ac66a036-a10d-4f8c-83e4-715d71e292f8","system_id":"levelo_inurba_marseille","lat":43.295523,"lon":5.422926,"is_reserved":false,"is_disabled":false,"rental_uris":{"android":"levelo://app?vid=ac66a036-a10d-4f8c-83e4-715d71e292f8","ios":"levelo://app?vid=ac66a036-a10d-4f8c-83e4-715d71e292f8"},"vehicle_type_id":"4","last_reported":1701543887,"current_range_meters":30400,"station_id":"ce4bhph2rcd13ifvqhdg","pricing_plan_id":"free"},{"bike_id":"689548cb-1532-4459-af24-ecb3a78e3715","system_id":"levelo_inurba_marseille","lat":43.295511,"lon":5.422926,"is_reserved":false,"is_disabled":false,"rental_uris":{"android":"levelo://app?vid=689548cb-1532-4459-af24-ecb3a78e3715","ios":"levelo://app?vid=689548cb-1532-4459-af24-ecb3a78e3715"},"vehicle_type_id":"4","last_reported":1701543887,"current_range_meters":11200,"station_id":"ce4bhph2rcd13ifvqhdg","pricing_plan_id":"free"},{"bike_id":"a7c4d7b4-2d3d-460a-8b7b-c37c12dcfc98","system_id":"levelo_inurba_marseille","lat":43.272124,"lon":5.391768,"is_reserved":false,"is_disabled":false,"rental_uris":{"android":"levelo://app?vid=a7c4d7b4-2d3d-460a-8b7b-c37c12dcfc98","ios":"levelo://app?vid=a7c4d7b4-2d3d-460a-8b7b-c37c12dcfc98"},"vehicle_type_id":"4","last_reported":1701543887,"current_range_meters":19200,"station_id":"ce4bhhp2rcd13ifvqfm0","pricing_plan_id":"free"},{"bike_id":"1498b710-3df3-4215-b47a-913cc16b2862","system_id":"levelo_inurba_marseille","lat":43.278128,"lon":5.407195,"is_reserved":false,"is_disabled":false,"rental_uris":{"android":"levelo://app?vid=1498b710-3df3-4215-b47a-913cc16b2862","ios":"levelo://app?vid=1498b710-3df3-4215-b47a-913cc16b2862"},"vehicle_type_id":"4","last_reported":1701543887,"current_range_meters":30400,"station_id":"ce4bhnh2rcd13ifvqgtg","pricing_plan_id":"free"},{"bike_id":"f0b20461-8e3e-4a68-a96d-bf0eb8788ac9","system_id":"levelo_inurba_marseille","lat":43.278128,"lon":5.407195,"is_reserved":false,"is_disabled":false,"rental_uris":{"android":"levelo://app?vid=f0b20461-8e3e-4a68-a96d-bf0eb8788ac9","ios":"levelo://app?vid=f0b20461-8e3e-4a68-a96d-bf0eb8788ac9"},"vehicle_type_id":"4","last_reported":1701543887,"current_range_meters":20000,"station_id":"ce4bhnh2rcd13ifvqgtg","pricing_plan_id":"free"},{"bike_id":"91922c7f-1d64-4a99-aea2-0fb906b24e6b","system_id":"levelo_inurba_marseille","lat":43.269467,"lon":5.386439,"is_reserved":false,"is_disabled":false,"rental_uris":{"android":"levelo://app?vid=91922c7f-1d64-4a99-aea2-0fb906b24e6b","ios":"levelo://app?vid=91922c7f-1d64-4a99-aea2-0fb906b24e6b"},"vehicle_type_id":"4","last_reported":1701543887,"current_range_meters":12000,"station_id":"ce4bhh92rcd13ifvqfh0","pricing_plan_id":"free"},{"bike_id":"95685763-623c-4a3e-8903-f00a16384f53","system_id":"levelo_inurba_marseille","lat":43.269467,"lon":5.386439,"is_reserved":false,"is_disabled":false,"rental_uris":{"android":"levelo://app?vid=95685763-623c-4a3e-8903-f00a16384f53","ios":"levelo://app?vid=95685763-623c-4a3e-8903-f00a16384f53"},"vehicle_type_id":"4","last_reported":1701543887,"current_range_meters":22400,"station_id":"ce4bhh92rcd13ifvqfh0","pricing_plan_id":"free"},{"bike_id":"436e7d1e-9634-4cc1-9252-287eff84f0a5","system_id":"levelo_inurba_marseille","lat":43.269319,"lon":5.389397,"is_reserved":false,"is_disabled":false,"rental_uris":{"android":"levelo://app?vid=436e7d1e-9634-4cc1-9252-287eff84f0a5","ios":"levelo://app?vid=436e7d1e-9634-4cc1-9252-287eff84f0a5"},"vehicle_type_id":"4","last_reported":1701543887,"current_range_meters":28800,"station_id":"ce4bhhh2rcd13ifvqfl0","pricing_plan_id":"free"},{"bike_id":"cd7c9c41-1d10-45b2-bab5-01d5cedfd7da","system_id":"levelo_inurba_marseille","lat":43.269319,"lon":5.389397,"is_reserved":false,"is_disabled":false,"rental_uris":{"android":"levelo://app?vid=cd7c9c41-1d10-45b2-bab5-01d5cedfd7da","ios":"levelo://app?vid=cd7c9c41-1d10-45b2-bab5-01d5cedfd7da"},"vehicle_type_id":"4","last_reported":1701543887,"current_range_meters":11600,"station_id":"ce4bhhh2rcd13ifvqfl0","pricing_plan_id":"free"},{"bike_id":"75dca2a7-8ffa-48ac-8e05-c6d001069d7a","system_id":"levelo_inurba_marseille","lat":43.269319,"lon":5.389397,"is_reserved":false,"is_disabled":false,"rental_uris":{"android":"levelo://app?vid=75dca2a7-8ffa-48ac-8e05-c6d001069d7a","ios":"levelo://app?vid=75dca2a7-8ffa-48ac-8e05-c6d001069d7a"},"vehicle_type_id":"4","last_reported":1701543887,"current_range_meters":3600,"station_id":"ce4bhhh2rcd13ifvqfl0","pricing_plan_id":"free"},{"bike_id":"12090fa8-005f-497d-b441-ae58c816e8cf","system_id":"levelo_inurba_marseille","lat":43.27996,"lon":5.416624,"is_reserved":false,"is_disabled":false,"rental_uris":{"android":"levelo://app?vid=12090fa8-005f-497d-b441-ae58c816e8cf","ios":"levelo://app?vid=12090fa8-005f-497d-b441-ae58c816e8cf"},"vehicle_type_id":"4","last_reported":1701543887,"current_range_meters":25600,"station_id":"ce4bho12rcd13ifvqh1g","pricing_plan_id":"free"},{"bike_id":"accf7691-d399-47b4-a91c-14e4e0feebec","system_id":"levelo_inurba_marseille","lat":43.26718,"lon":5.39414,"is_reserved":false,"is_disabled":false,"rental_uris":{"android":"levelo://app?vid=accf7691-d399-47b4-a91c-14e4e0feebec","ios":"levelo://app?vid=accf7691-d399-47b4-a91c-14e4e0feebec"},"vehicle_type_id":"4","last_reported":1701543887,"current_range_meters":0,"station_id":"","pricing_plan_id":"free"},{"bike_id":"7f836f53-943f-483d-b774-3da943f05524","system_id":"levelo_inurba_marseille","lat":43.308051,"lon":5.43527,"is_reserved":false,"is_disabled":false,"rental_uris":{"android":"levelo://app?vid=7f836f53-943f-483d-b774-3da943f05524","ios":"levelo://app?vid=7f836f53-943f-483d-b774-3da943f05524"},"vehicle_type_id":"4","last_reported":1701543887,"current_range_meters":20000,"station_id":"ce4bhph2rcd13ifvqheg","pricing_plan_id":"free"},{"bike_id":"2f632e36-8b94-48a5-b28f-5f7c30d70b65","system_id":"levelo_inurba_marseille","lat":43.265571,"lon":5.390032,"is_reserved":false,"is_disabled":false,"rental_uris":{"android":"levelo://app?vid=2f632e36-8b94-48a5-b28f-5f7c30d70b65","ios":"levelo://app?vid=2f632e36-8b94-48a5-b28f-5f7c30d70b65"},"vehicle_type_id":"4","last_reported":1701543887,"current_range_meters":13200,"station_id":"ce4bhe12rcd13ifvqf30","pricing_plan_id":"free"},{"bike_id":"e47a76b0-3692-463e-869f-37d17992f5b6","system_id":"levelo_inurba_marseille","lat":43.261782,"lon":5.374515,"is_reserved":false,"is_disabled":false,"rental_uris":{"android":"levelo://app?vid=e47a76b0-3692-463e-869f-37d17992f5b6","ios":"levelo://app?vid=e47a76b0-3692-463e-869f-37d17992f5b6"},"vehicle_type_id":"4","last_reported":1701543887,"current_range_meters":28400,"station_id":"ce4bhgp2rcd13ifvqfc0","pricing_plan_id":"free"},{"bike_id":"d59ed76b-448b-461b-bd29-0950456c9979","system_id":"levelo_inurba_marseille","lat":43.271368,"lon":5.40928,"is_reserved":false,"is_disabled":false,"rental_uris":{"android":"levelo://app?vid=d59ed76b-448b-461b-bd29-0950456c9979","ios":"levelo://app?vid=d59ed76b-448b-461b-bd29-0950456c9979"},"vehicle_type_id":"4","last_reported":1701543887,"current_range_meters":30000,"station_id":"ce4bhl12rcd13ifvqgf0","pricing_plan_id":"free"},{"bike_id":"aae89ef0-82b9-4330-b64e-eaeb9e0441da","system_id":"levelo_inurba_marseille","lat":43.2607,"lon":5.393983,"is_reserved":false,"is_disabled":false,"rental_uris":{"android":"levelo://app?vid=aae89ef0-82b9-4330-b64e-eaeb9e0441da","ios":"levelo://app?vid=aae89ef0-82b9-4330-b64e-eaeb9e0441da"},"vehicle_type_id":"4","last_reported":1701543887,"current_range_meters":16800,"station_id":"ce4bhh92rcd13ifvqfj0","pricing_plan_id":"free"},{"bike_id":"68ee5a36-a22f-406b-9e33-ee1a70a37d07","system_id":"levelo_inurba_marseille","lat":43.2607,"lon":5.393983,"is_reserved":false,"is_disabled":false,"rental_uris":{"android":"levelo://app?vid=68ee5a36-a22f-406b-9e33-ee1a70a37d07","ios":"levelo://app?vid=68ee5a36-a22f-406b-9e33-ee1a70a37d07"},"vehicle_type_id":"4","last_reported":1701543887,"current_range_meters":2800,"station_id":"ce4bhh92rcd13ifvqfj0","pricing_plan_id":"free"},{"bike_id":"17af9e80-8bc8-42cb-91c0-1cc66c74fe88","system_id":"levelo_inurba_marseille","lat":43.2607,"lon":5.393983,"is_reserved":false,"is_disabled":false,"rental_uris":{"android":"levelo://app?vid=17af9e80-8bc8-42cb-91c0-1cc66c74fe88","ios":"levelo://app?vid=17af9e80-8bc8-42cb-91c0-1cc66c74fe88"},"vehicle_type_id":"4","last_reported":1701543887,"current_range_meters":23200,"station_id":"ce4bhh92rcd13ifvqfj0","pricing_plan_id":"free"},{"bike_id":"a4b829a4-30b9-48ee-b317-5b192e670ab8","system_id":"levelo_inurba_marseille","lat":43.2607,"lon":5.393983,"is_reserved":false,"is_disabled":false,"rental_uris":{"android":"levelo://app?vid=a4b829a4-30b9-48ee-b317-5b192e670ab8","ios":"levelo://app?vid=a4b829a4-30b9-48ee-b317-5b192e670ab8"},"vehicle_type_id":"4","last_reported":1701543887,"current_range_meters":4000,"station_id":"ce4bhh92rcd13ifvqfj0","pricing_plan_id":"free"},{"bike_id":"5dab4bcb-5d0f-40be-b34d-5cf261fa2623","system_id":"levelo_inurba_marseille","lat":43.258224,"lon":5.394369,"is_reserved":false,"is_disabled":false,"rental_uris":{"android":"levelo://app?vid=5dab4bcb-5d0f-40be-b34d-5cf261fa2623","ios":"levelo://app?vid=5dab4bcb-5d0f-40be-b34d-5cf261fa2623"},"vehicle_type_id":"4","last_reported":1701543887,"current_range_meters":6400,"station_id":"ce4bhip2rcd13ifvqft0","pricing_plan_id":"free"},{"bike_id":"36e6f17f-c3db-48f7-86dc-f3b3f3ec3e2f","system_id":"levelo_inurba_marseille","lat":43.258224,"lon":5.394369,"is_reserved":false,"is_disabled":false,"rental_uris":{"android":"levelo://app?vid=36e6f17f-c3db-48f7-86dc-f3b3f3ec3e2f","ios":"levelo://app?vid=36e6f17f-c3db-48f7-86dc-f3b3f3ec3e2f"},"vehicle_type_id":"4","last_reported":1701543887,"current_range_meters":13600,"station_id":"ce4bhip2rcd13ifvqft0","pricing_plan_id":"free"},{"bike_id":"d83e48ac-2a86-45c4-af3a-74f38c183d44","system_id":"levelo_inurba_marseille","lat":43.258224,"lon":5.394369,"is_reserved":false,"is_disabled":false,"rental_uris":{"android":"levelo://app?vid=d83e48ac-2a86-45c4-af3a-74f38c183d44","ios":"levelo://app?vid=d83e48ac-2a86-45c4-af3a-74f38c183d44"},"vehicle_type_id":"4","last_reported":1701543887,"current_range_meters":19600,"station_id":"ce4bhip2rcd13ifvqft0","pricing_plan_id":"free"},{"bike_id":"b19339bd-8b27-48d6-889b-67fd9c72d504","system_id":"levelo_inurba_marseille","lat":43.270721,"lon":5.422764,"is_reserved":false,"is_disabled":false,"rental_uris":{"android":"levelo://app?vid=b19339bd-8b27-48d6-889b-67fd9c72d504","ios":"levelo://app?vid=b19339bd-8b27-48d6-889b-67fd9c72d504"},"vehicle_type_id":"4","last_reported":1701543887,"current_range_meters":21200,"station_id":"ce4bhk92rcd13ifvqgb0","pricing_plan_id":"free"},{"bike_id":"b2224fb9-227a-408b-b4cf-08205732b450","system_id":"levelo_inurba_marseille","lat":43.258658,"lon":5.398935,"is_reserved":false,"is_disabled":false,"rental_uris":{"android":"levelo://app?vid=b2224fb9-227a-408b-b4cf-08205732b450","ios":"levelo://app?vid=b2224fb9-227a-408b-b4cf-08205732b450"},"vehicle_type_id":"4","last_reported":1701543887,"current_range_meters":17200,"station_id":"ce4bhl92rcd13ifvqghg","pricing_plan_id":"free"},{"bike_id":"96d45f6e-eabf-4278-be04-044b4f37b395","system_id":"levelo_inurba_marseille","lat":43.258658,"lon":5.398935,"is_reserved":false,"is_disabled":false,"rental_uris":{"android":"levelo://app?vid=96d45f6e-eabf-4278-be04-044b4f37b395","ios":"levelo://app?vid=96d45f6e-eabf-4278-be04-044b4f37b395"},"vehicle_type_id":"4","last_reported":1701543887,"current_range_meters":28000,"station_id":"ce4bhl92rcd13ifvqghg","pricing_plan_id":"free"},{"bike_id":"bdc72d7c-9d46-4016-8a92-851cd50823f9","system_id":"levelo_inurba_marseille","lat":43.259009,"lon":5.40929,"is_reserved":false,"is_disabled":false,"rental_uris":{"android":"levelo://app?vid=bdc72d7c-9d46-4016-8a92-851cd50823f9","ios":"levelo://app?vid=bdc72d7c-9d46-4016-8a92-851cd50823f9"},"vehicle_type_id":"4","last_reported":1701543887,"current_range_meters":27200,"station_id":"ce4bhm92rcd13ifvqglg","pricing_plan_id":"free"},{"bike_id":"8d7a849d-d75b-49e8-8a06-ba3e35d09f67","system_id":"levelo_inurba_marseille","lat":43.2479,"lon":5.374457,"is_reserved":false,"is_disabled":false,"rental_uris":{"android":"levelo://app?vid=8d7a849d-d75b-49e8-8a06-ba3e35d09f67","ios":"levelo://app?vid=8d7a849d-d75b-49e8-8a06-ba3e35d09f67"},"vehicle_type_id":"4","last_reported":1701543887,"current_range_meters":21200,"station_id":"ce4bhgh2rcd13ifvqfb0","pricing_plan_id":"free"},{"bike_id":"52748dec-6a2b-4e48-a00a-d0dbf38ea35e","system_id":"levelo_inurba_marseille","lat":43.24693,"lon":5.382096,"is_reserved":false,"is_disabled":false,"rental_uris":{"android":"levelo://app?vid=52748dec-6a2b-4e48-a00a-d0dbf38ea35e","ios":"levelo://app?vid=52748dec-6a2b-4e48-a00a-d0dbf38ea35e"},"vehicle_type_id":"4","last_reported":1701543887,"current_range_meters":24400,"station_id":"ce4bhih2rcd13ifvqfr0","pricing_plan_id":"free"},{"bike_id":"95654d96-f5a8-4bc4-8912-51a33939e6bd","system_id":"levelo_inurba_marseille","lat":43.24666,"lon":5.3817,"is_reserved":false,"is_disabled":false,"rental_uris":{"android":"levelo://app?vid=95654d96-f5a8-4bc4-8912-51a33939e6bd","ios":"levelo://app?vid=95654d96-f5a8-4bc4-8912-51a33939e6bd"},"vehicle_type_id":"4","last_reported":1701543887,"current_range_meters":0,"station_id":"ce4bhih2rcd13ifvqfr0","pricing_plan_id":"free"},{"bike_id":"8c1e3f91-0625-4f6f-ad01-1f5fb2757871","system_id":"levelo_inurba_marseille","lat":43.25102,"lon":5.403214,"is_reserved":false,"is_disabled":false,"rental_uris":{"android":"levelo://app?vid=8c1e3f91-0625-4f6f-ad01-1f5fb2757871","ios":"levelo://app?vid=8c1e3f91-0625-4f6f-ad01-1f5fb2757871"},"vehicle_type_id":"4","last_reported":1701543887,"current_range_meters":31600,"station_id":"ce4bhlh2rcd13ifvqgig","pricing_plan_id":"free"},{"bike_id":"55aef649-cb82-488f-a60c-f93cbbae28ff","system_id":"levelo_inurba_marseille","lat":43.25102,"lon":5.403214,"is_reserved":false,"is_disabled":false,"rental_uris":{"android":"levelo://app?vid=55aef649-cb82-488f-a60c-f93cbbae28ff","ios":"levelo://app?vid=55aef649-cb82-488f-a60c-f93cbbae28ff"},"vehicle_type_id":"4","last_reported":1701543887,"current_range_meters":22000,"station_id":"ce4bhlh2rcd13ifvqgig","pricing_plan_id":"free"},{"bike_id":"bb520e6a-c991-494d-a369-164b85e1bcba","system_id":"levelo_inurba_marseille","lat":43.25102,"lon":5.403214,"is_reserved":false,"is_disabled":false,"rental_uris":{"android":"levelo://app?vid=bb520e6a-c991-494d-a369-164b85e1bcba","ios":"levelo://app?vid=bb520e6a-c991-494d-a369-164b85e1bcba"},"vehicle_type_id":"4","last_reported":1701543887,"current_range_meters":18000,"station_id":"ce4bhlh2rcd13ifvqgig","pricing_plan_id":"free"},{"bike_id":"27036a54-dc63-4fa5-b6ae-081f9e58f542","system_id":"levelo_inurba_marseille","lat":43.246467,"lon":5.388984,"is_reserved":false,"is_disabled":false,"rental_uris":{"android":"levelo://app?vid=27036a54-dc63-4fa5-b6ae-081f9e58f542","ios":"levelo://app?vid=27036a54-dc63-4fa5-b6ae-081f9e58f542"},"vehicle_type_id":"4","last_reported":1701543887,"current_range_meters":25200,"station_id":"ce4bhg12rcd13ifvqf60","pricing_plan_id":"free"},{"bike_id":"777518c6-3179-477e-8159-7f80d7d73523","system_id":"levelo_inurba_marseille","lat":43.243884,"lon":5.370737,"is_reserved":false,"is_disabled":false,"rental_uris":{"android":"levelo://app?vid=777518c6-3179-477e-8159-7f80d7d73523","ios":"levelo://app?vid=777518c6-3179-477e-8159-7f80d7d73523"},"vehicle_type_id":"4","last_reported":1701543887,"current_range_meters":14000,"station_id":"ce4bhhh2rcd13ifvqfk0","pricing_plan_id":"free"},{"bike_id":"61a9e6b0-f435-4470-83bd-a67a85c1a979","system_id":"levelo_inurba_marseille","lat":43.243884,"lon":5.370736,"is_reserved":false,"is_disabled":false,"rental_uris":{"android":"levelo://app?vid=61a9e6b0-f435-4470-83bd-a67a85c1a979","ios":"levelo://app?vid=61a9e6b0-f435-4470-83bd-a67a85c1a979"},"vehicle_type_id":"4","last_reported":1701543887,"current_range_meters":23200,"station_id":"ce4bhhh2rcd13ifvqfk0","pricing_plan_id":"free"},{"bike_id":"d01d6e75-71cc-424f-abc9-83946ce074e9","system_id":"levelo_inurba_marseille","lat":43.245581,"lon":5.395069,"is_reserved":false,"is_disabled":false,"rental_uris":{"android":"levelo://app?vid=d01d6e75-71cc-424f-abc9-83946ce074e9","ios":"levelo://app?vid=d01d6e75-71cc-424f-abc9-83946ce074e9"},"vehicle_type_id":"4","last_reported":1701543887,"current_range_meters":19600,"station_id":"ce4bhlp2rcd13ifvqgjg","pricing_plan_id":"free"},{"bike_id":"54ac5bc5-2832-4694-927f-e59c90385069","system_id":"levelo_inurba_marseille","lat":43.239588,"lon":5.366238,"is_reserved":false,"is_disabled":false,"rental_uris":{"android":"levelo://app?vid=54ac5bc5-2832-4694-927f-e59c90385069","ios":"levelo://app?vid=54ac5bc5-2832-4694-927f-e59c90385069"},"vehicle_type_id":"4","last_reported":1701543887,"current_range_meters":26400,"station_id":"ce4bhi12rcd13ifvqfp0","pricing_plan_id":"free"},{"bike_id":"6fe4e7e3-a04b-4a0e-b30e-50edec3f23b9","system_id":"levelo_inurba_marseille","lat":43.239588,"lon":5.366238,"is_reserved":false,"is_disabled":false,"rental_uris":{"android":"levelo://app?vid=6fe4e7e3-a04b-4a0e-b30e-50edec3f23b9","ios":"levelo://app?vid=6fe4e7e3-a04b-4a0e-b30e-50edec3f23b9"},"vehicle_type_id":"4","last_reported":1701543887,"current_range_meters":2000,"station_id":"ce4bhi12rcd13ifvqfp0","pricing_plan_id":"free"},{"bike_id":"253842fc-929c-41d1-9477-59c41002129c","system_id":"levelo_inurba_marseille","lat":43.239588,"lon":5.366238,"is_reserved":false,"is_disabled":false,"rental_uris":{"android":"levelo://app?vid=253842fc-929c-41d1-9477-59c41002129c","ios":"levelo://app?vid=253842fc-929c-41d1-9477-59c41002129c"},"vehicle_type_id":"4","last_reported":1701543887,"current_range_meters":31200,"station_id":"ce4bhi12rcd13ifvqfp0","pricing_plan_id":"free"},{"bike_id":"b101f295-ac85-402a-8afe-c635c176f114","system_id":"levelo_inurba_marseille","lat":43.28527,"lon":5.46058,"is_reserved":false,"is_disabled":false,"rental_uris":{"android":"levelo://app?vid=b101f295-ac85-402a-8afe-c635c176f114","ios":"levelo://app?vid=b101f295-ac85-402a-8afe-c635c176f114"},"vehicle_type_id":"4","last_reported":1701543887,"current_range_meters":22800,"station_id":"","pricing_plan_id":"free"},{"bike_id":"cb3c5614-5a37-4ab8-a51e-8b81ebb4f897","system_id":"levelo_inurba_marseille","lat":43.231919,"lon":5.355532,"is_reserved":false,"is_disabled":false,"rental_uris":{"android":"levelo://app?vid=cb3c5614-5a37-4ab8-a51e-8b81ebb4f897","ios":"levelo://app?vid=cb3c5614-5a37-4ab8-a51e-8b81ebb4f897"},"vehicle_type_id":"4","last_reported":1701543887,"current_range_meters":15600,"station_id":"ce4bhu92rcd13ifvqi70","pricing_plan_id":"free"},{"bike_id":"2be3c405-8f91-4ed6-a9c6-0bdfea6feb80","system_id":"levelo_inurba_marseille","lat":43.231923,"lon":5.355545,"is_reserved":false,"is_disabled":false,"rental_uris":{"android":"levelo://app?vid=2be3c405-8f91-4ed6-a9c6-0bdfea6feb80","ios":"levelo://app?vid=2be3c405-8f91-4ed6-a9c6-0bdfea6feb80"},"vehicle_type_id":"4","last_reported":1701543887,"current_range_meters":8400,"station_id":"ce4bhu92rcd13ifvqi70","pricing_plan_id":"free"},{"bike_id":"6573cb36-3c40-4042-8b0f-1356381ee019","system_id":"levelo_inurba_marseille","lat":43.231923,"lon":5.355545,"is_reserved":false,"is_disabled":false,"rental_uris":{"android":"levelo://app?vid=6573cb36-3c40-4042-8b0f-1356381ee019","ios":"levelo://app?vid=6573cb36-3c40-4042-8b0f-1356381ee019"},"vehicle_type_id":"4","last_reported":1701543887,"current_range_meters":5600,"station_id":"ce4bhu92rcd13ifvqi70","pricing_plan_id":"free"},{"bike_id":"384a17af-27e8-4164-b8c0-d8b51c5b0eac","system_id":"levelo_inurba_marseille","lat":43.231923,"lon":5.355545,"is_reserved":false,"is_disabled":false,"rental_uris":{"android":"levelo://app?vid=384a17af-27e8-4164-b8c0-d8b51c5b0eac","ios":"levelo://app?vid=384a17af-27e8-4164-b8c0-d8b51c5b0eac"},"vehicle_type_id":"4","last_reported":1701543887,"current_range_meters":10800,"station_id":"ce4bhu92rcd13ifvqi70","pricing_plan_id":"free"},{"bike_id":"df76bb33-a4ef-4a36-a72d-84c57504fc7a","system_id":"levelo_inurba_marseille","lat":43.231923,"lon":5.355545,"is_reserved":false,"is_disabled":false,"rental_uris":{"android":"levelo://app?vid=df76bb33-a4ef-4a36-a72d-84c57504fc7a","ios":"levelo://app?vid=df76bb33-a4ef-4a36-a72d-84c57504fc7a"},"vehicle_type_id":"4","last_reported":1701543887,"current_range_meters":22000,"station_id":"ce4bhu92rcd13ifvqi70","pricing_plan_id":"free"},{"bike_id":"9e01ee59-41e6-425c-ae1f-3e33312fefcd","system_id":"levelo_inurba_marseille","lat":43.231923,"lon":5.355545,"is_reserved":false,"is_disabled":false,"rental_uris":{"android":"levelo://app?vid=9e01ee59-41e6-425c-ae1f-3e33312fefcd","ios":"levelo://app?vid=9e01ee59-41e6-425c-ae1f-3e33312fefcd"},"vehicle_type_id":"4","last_reported":1701543887,"current_range_meters":19600,"station_id":"ce4bhu92rcd13ifvqi70","pricing_plan_id":"free"},{"bike_id":"90a66033-92d6-4ce5-9800-5d20674c66dd","system_id":"levelo_inurba_marseille","lat":43.231923,"lon":5.355545,"is_reserved":false,"is_disabled":false,"rental_uris":{"android":"levelo://app?vid=90a66033-92d6-4ce5-9800-5d20674c66dd","ios":"levelo://app?vid=90a66033-92d6-4ce5-9800-5d20674c66dd"},"vehicle_type_id":"4","last_reported":1701543887,"current_range_meters":6800,"station_id":"ce4bhu92rcd13ifvqi70","pricing_plan_id":"free"},{"bike_id":"4506c45e-2d09-462d-97b5-d051c36d1044","system_id":"levelo_inurba_marseille","lat":43.231919,"lon":5.355532,"is_reserved":false,"is_disabled":false,"rental_uris":{"android":"levelo://app?vid=4506c45e-2d09-462d-97b5-d051c36d1044","ios":"levelo://app?vid=4506c45e-2d09-462d-97b5-d051c36d1044"},"vehicle_type_id":"4","last_reported":1701543887,"current_range_meters":15200,"station_id":"ce4bhu92rcd13ifvqi70","pricing_plan_id":"free"},{"bike_id":"2b04708e-eed8-4471-916a-9fdeea01eec7","system_id":"levelo_inurba_marseille","lat":43.231923,"lon":5.355545,"is_reserved":false,"is_disabled":false,"rental_uris":{"android":"levelo://app?vid=2b04708e-eed8-4471-916a-9fdeea01eec7","ios":"levelo://app?vid=2b04708e-eed8-4471-916a-9fdeea01eec7"},"vehicle_type_id":"4","last_reported":1701543887,"current_range_meters":13200,"station_id":"ce4bhu92rcd13ifvqi70","pricing_plan_id":"free"},{"bike_id":"4dae0f2e-3beb-46e8-877b-0143e05c3e8e","system_id":"levelo_inurba_marseille","lat":43.231919,"lon":5.355532,"is_reserved":false,"is_disabled":false,"rental_uris":{"android":"levelo://app?vid=4dae0f2e-3beb-46e8-877b-0143e05c3e8e","ios":"levelo://app?vid=4dae0f2e-3beb-46e8-877b-0143e05c3e8e"},"vehicle_type_id":"4","last_reported":1701543887,"current_range_meters":0,"station_id":"ce4bhu92rcd13ifvqi70","pricing_plan_id":"free"},{"bike_id":"b8f295a9-10f8-4746-b4a0-4491480d1fc4","system_id":"levelo_inurba_marseille","lat":43.231919,"lon":5.355532,"is_reserved":false,"is_disabled":false,"rental_uris":{"android":"levelo://app?vid=b8f295a9-10f8-4746-b4a0-4491480d1fc4","ios":"levelo://app?vid=b8f295a9-10f8-4746-b4a0-4491480d1fc4"},"vehicle_type_id":"4","last_reported":1701543887,"current_range_meters":23600,"station_id":"ce4bhu92rcd13ifvqi70","pricing_plan_id":"free"},{"bike_id":"cf3102c4-88e0-4a41-86b7-69a76932d3e6","system_id":"levelo_inurba_marseille","lat":43.231923,"lon":5.355545,"is_reserved":false,"is_disabled":false,"rental_uris":{"android":"levelo://app?vid=cf3102c4-88e0-4a41-86b7-69a76932d3e6","ios":"levelo://app?vid=cf3102c4-88e0-4a41-86b7-69a76932d3e6"},"vehicle_type_id":"4","last_reported":1701543887,"current_range_meters":31600,"station_id":"ce4bhu92rcd13ifvqi70","pricing_plan_id":"free"},{"bike_id":"6382809b-45d0-4ad2-8be7-697249f82077","system_id":"levelo_inurba_marseille","lat":43.231919,"lon":5.355532,"is_reserved":false,"is_disabled":false,"rental_uris":{"android":"levelo://app?vid=6382809b-45d0-4ad2-8be7-697249f82077","ios":"levelo://app?vid=6382809b-45d0-4ad2-8be7-697249f82077"},"vehicle_type_id":"4","last_reported":1701543887,"current_range_meters":32000,"station_id":"ce4bhu92rcd13ifvqi70","pricing_plan_id":"free"},{"bike_id":"4e176977-ccb9-4a01-b3da-279fd61eadf6","system_id":"levelo_inurba_marseille","lat":43.231919,"lon":5.355532,"is_reserved":false,"is_disabled":false,"rental_uris":{"android":"levelo://app?vid=4e176977-ccb9-4a01-b3da-279fd61eadf6","ios":"levelo://app?vid=4e176977-ccb9-4a01-b3da-279fd61eadf6"},"vehicle_type_id":"4","last_reported":1701543887,"current_range_meters":22000,"station_id":"ce4bhu92rcd13ifvqi70","pricing_plan_id":"free"},{"bike_id":"6462fbc5-ceb8-47e3-b56d-fc1e69bef19f","system_id":"levelo_inurba_marseille","lat":43.231919,"lon":5.355532,"is_reserved":false,"is_disabled":false,"rental_uris":{"android":"levelo://app?vid=6462fbc5-ceb8-47e3-b56d-fc1e69bef19f","ios":"levelo://app?vid=6462fbc5-ceb8-47e3-b56d-fc1e69bef19f"},"vehicle_type_id":"4","last_reported":1701543887,"current_range_meters":28800,"station_id":"ce4bhu92rcd13ifvqi70","pricing_plan_id":"free"},{"bike_id":"177a82e2-68da-4975-a68b-b32649f3d1f2","system_id":"levelo_inurba_marseille","lat":43.231923,"lon":5.355545,"is_reserved":false,"is_disabled":false,"rental_uris":{"android":"levelo://app?vid=177a82e2-68da-4975-a68b-b32649f3d1f2","ios":"levelo://app?vid=177a82e2-68da-4975-a68b-b32649f3d1f2"},"vehicle_type_id":"4","last_reported":1701543887,"current_range_meters":12800,"station_id":"ce4bhu92rcd13ifvqi70","pricing_plan_id":"free"},{"bike_id":"e1e0ee00-25b6-4b3e-9528-4dc4d90295d8","system_id":"levelo_inurba_marseille","lat":43.231923,"lon":5.355545,"is_reserved":false,"is_disabled":false,"rental_uris":{"android":"levelo://app?vid=e1e0ee00-25b6-4b3e-9528-4dc4d90295d8","ios":"levelo://app?vid=e1e0ee00-25b6-4b3e-9528-4dc4d90295d8"},"vehicle_type_id":"4","last_reported":1701543887,"current_range_meters":9200,"station_id":"ce4bhu92rcd13ifvqi70","pricing_plan_id":"free"},{"bike_id":"d0b35396-6769-42d4-8160-8b44cb829902","system_id":"levelo_inurba_marseille","lat":43.231923,"lon":5.399834,"is_reserved":false,"is_disabled":false,"rental_uris":{"android":"levelo://app?vid=d0b35396-6769-42d4-8160-8b44cb829902","ios":"levelo://app?vid=d0b35396-6769-42d4-8160-8b44cb829902"},"vehicle_type_id":"4","last_reported":1701543887,"current_range_meters":31200,"station_id":"ce4bhn12rcd13ifvqgqg","pricing_plan_id":"free"},{"bike_id":"6bd9f065-50d9-4657-9ca0-a006f413d305","system_id":"levelo_inurba_marseille","lat":43.231794,"lon":5.400052,"is_reserved":false,"is_disabled":false,"rental_uris":{"android":"levelo://app?vid=6bd9f065-50d9-4657-9ca0-a006f413d305","ios":"levelo://app?vid=6bd9f065-50d9-4657-9ca0-a006f413d305"},"vehicle_type_id":"4","last_reported":1701543887,"current_range_meters":31200,"station_id":"ce4bhn12rcd13ifvqgqg","pricing_plan_id":"free"},{"bike_id":"22bd98e3-c33f-4c44-ae2b-f96729d36f4f","system_id":"levelo_inurba_marseille","lat":43.231793,"lon":5.400044,"is_reserved":false,"is_disabled":false,"rental_uris":{"android":"levelo://app?vid=22bd98e3-c33f-4c44-ae2b-f96729d36f4f","ios":"levelo://app?vid=22bd98e3-c33f-4c44-ae2b-f96729d36f4f"},"vehicle_type_id":"4","last_reported":1701543887,"current_range_meters":30000,"station_id":"ce4bhn12rcd13ifvqgqg","pricing_plan_id":"free"},{"bike_id":"a926f4bb-1e59-4822-80ea-1d5ff6f2a5c5","system_id":"levelo_inurba_marseille","lat":43.231895,"lon":5.399821,"is_reserved":false,"is_disabled":false,"rental_uris":{"android":"levelo://app?vid=a926f4bb-1e59-4822-80ea-1d5ff6f2a5c5","ios":"levelo://app?vid=a926f4bb-1e59-4822-80ea-1d5ff6f2a5c5"},"vehicle_type_id":"4","last_reported":1701543887,"current_range_meters":18000,"station_id":"ce4bhn12rcd13ifvqgqg","pricing_plan_id":"free"},{"bike_id":"adea9776-cd43-43bd-b1c6-01a8cac3e274","system_id":"levelo_inurba_marseille","lat":43.23188,"lon":5.39985,"is_reserved":false,"is_disabled":false,"rental_uris":{"android":"levelo://app?vid=adea9776-cd43-43bd-b1c6-01a8cac3e274","ios":"levelo://app?vid=adea9776-cd43-43bd-b1c6-01a8cac3e274"},"vehicle_type_id":"4","last_reported":1701543887,"current_range_meters":5600,"station_id":"ce4bhn12rcd13ifvqgqg","pricing_plan_id":"free"},{"bike_id":"457c552c-8af5-4b7b-9f6b-8c901265a623","system_id":"levelo_inurba_marseille","lat":43.23188,"lon":5.39989,"is_reserved":false,"is_disabled":false,"rental_uris":{"android":"levelo://app?vid=457c552c-8af5-4b7b-9f6b-8c901265a623","ios":"levelo://app?vid=457c552c-8af5-4b7b-9f6b-8c901265a623"},"vehicle_type_id":"4","last_reported":1701543887,"current_range_meters":31200,"station_id":"ce4bhn12rcd13ifvqgqg","pricing_plan_id":"free"},{"bike_id":"6c2dc1c9-372c-445d-814a-4d69ce499bdb","system_id":"levelo_inurba_marseille","lat":43.23187,"lon":5.39988,"is_reserved":false,"is_disabled":false,"rental_uris":{"android":"levelo://app?vid=6c2dc1c9-372c-445d-814a-4d69ce499bdb","ios":"levelo://app?vid=6c2dc1c9-372c-445d-814a-4d69ce499bdb"},"vehicle_type_id":"4","last_reported":1701543887,"current_range_meters":0,"station_id":"ce4bhn12rcd13ifvqgqg","pricing_plan_id":"free"},{"bike_id":"88cf855f-bb31-40e0-8afc-686df3c193ab","system_id":"levelo_inurba_marseille","lat":43.231794,"lon":5.400052,"is_reserved":false,"is_disabled":false,"rental_uris":{"android":"levelo://app?vid=88cf855f-bb31-40e0-8afc-686df3c193ab","ios":"levelo://app?vid=88cf855f-bb31-40e0-8afc-686df3c193ab"},"vehicle_type_id":"4","last_reported":1701543887,"current_range_meters":28800,"station_id":"ce4bhn12rcd13ifvqgqg","pricing_plan_id":"free"},{"bike_id":"83862a0a-d647-45eb-9884-693fce6366ab","system_id":"levelo_inurba_marseille","lat":43.23186,"lon":5.39986,"is_reserved":false,"is_disabled":false,"rental_uris":{"android":"levelo://app?vid=83862a0a-d647-45eb-9884-693fce6366ab","ios":"levelo://app?vid=83862a0a-d647-45eb-9884-693fce6366ab"},"vehicle_type_id":"4","last_reported":1701543887,"current_range_meters":17600,"station_id":"ce4bhn12rcd13ifvqgqg","pricing_plan_id":"free"},{"bike_id":"77b1a551-da7f-429a-980e-bfc6767a5958","system_id":"levelo_inurba_marseille","lat":43.231794,"lon":5.400052,"is_reserved":false,"is_disabled":false,"rental_uris":{"android":"levelo://app?vid=77b1a551-da7f-429a-980e-bfc6767a5958","ios":"levelo://app?vid=77b1a551-da7f-429a-980e-bfc6767a5958"},"vehicle_type_id":"4","last_reported":1701543887,"current_range_meters":31200,"station_id":"ce4bhn12rcd13ifvqgqg","pricing_plan_id":"free"},{"bike_id":"27852c29-47dc-4826-817e-c88bd3a0386e","system_id":"levelo_inurba_marseille","lat":43.23184,"lon":5.39993,"is_reserved":false,"is_disabled":false,"rental_uris":{"android":"levelo://app?vid=27852c29-47dc-4826-817e-c88bd3a0386e","ios":"levelo://app?vid=27852c29-47dc-4826-817e-c88bd3a0386e"},"vehicle_type_id":"4","last_reported":1701543887,"current_range_meters":21600,"station_id":"ce4bhn12rcd13ifvqgqg","pricing_plan_id":"free"},{"bike_id":"3ca2546c-f9ed-464d-b941-53a82f5e8048","system_id":"levelo_inurba_marseille","lat":43.231794,"lon":5.400052,"is_reserved":false,"is_disabled":false,"rental_uris":{"android":"levelo://app?vid=3ca2546c-f9ed-464d-b941-53a82f5e8048","ios":"levelo://app?vid=3ca2546c-f9ed-464d-b941-53a82f5e8048"},"vehicle_type_id":"4","last_reported":1701543887,"current_range_meters":12800,"station_id":"ce4bhn12rcd13ifvqgqg","pricing_plan_id":"free"},{"bike_id":"b2dc27fe-d3dd-4dd0-b015-108c88d15d4b","system_id":"levelo_inurba_marseille","lat":43.23181,"lon":5.39984,"is_reserved":false,"is_disabled":false,"rental_uris":{"android":"levelo://app?vid=b2dc27fe-d3dd-4dd0-b015-108c88d15d4b","ios":"levelo://app?vid=b2dc27fe-d3dd-4dd0-b015-108c88d15d4b"},"vehicle_type_id":"4","last_reported":1701543887,"current_range_meters":14800,"station_id":"ce4bhn12rcd13ifvqgqg","pricing_plan_id":"free"},{"bike_id":"e47e98e0-4256-4c41-ae86-e531a41b9213","system_id":"levelo_inurba_marseille","lat":43.231794,"lon":5.400052,"is_reserved":false,"is_disabled":false,"rental_uris":{"android":"levelo://app?vid=e47e98e0-4256-4c41-ae86-e531a41b9213","ios":"levelo://app?vid=e47e98e0-4256-4c41-ae86-e531a41b9213"},"vehicle_type_id":"4","last_reported":1701543887,"current_range_meters":28400,"station_id":"ce4bhn12rcd13ifvqgqg","pricing_plan_id":"free"},{"bike_id":"cbdd057e-fe24-488c-9d67-9b0a90dfa6d5","system_id":"levelo_inurba_marseille","lat":43.231562,"lon":5.436933,"is_reserved":false,"is_disabled":false,"rental_uris":{"android":"levelo://app?vid=cbdd057e-fe24-488c-9d67-9b0a90dfa6d5","ios":"levelo://app?vid=cbdd057e-fe24-488c-9d67-9b0a90dfa6d5"},"vehicle_type_id":"4","last_reported":1701543887,"current_range_meters":18000,"station_id":"ce4bhmp2rcd13ifvqgog","pricing_plan_id":"free"}]}}