{"last_updated":1682446108,"ttl":30,"version":"2.2","data":{"bikes":[{"bike_id":"70f03326-b5e6-4586-9060-0ffb2fdcbc7f","system_id":"levelo_inurba_marseille","lat":43.312239,"lon":5.368562,"is_reserved":false,"is_disabled":false,"rental_uris":{"android":"levelo://app?vid=70f03326-b5e6-4586-9060-0ffb2fdcbc7f","ios":"levelo://app?vid=70f03326-b5e6-4586-9060-0ffb2fdcbc7f"},"vehicle_type_id":"4","last_reported":1682446109,"current_range_meters":14400,"station_id":"ce4bgl92rcd13ifvqbq0","pricing_plan_id":"free"},{"bike_id":"ddf09e64-1ca9-46b6-b747-911169603b89","system_id":"levelo_inurba_marseille","lat":43.312239,"lon":5.368562,"is_reserved":false,"is_disabled":false,"rental_uris":{"android":"levelo://app?vid=ddf09e64-1ca9-46b6-b747-911169603b89","ios":"levelo://app?vid=ddf09e64-1ca9-46b6-b747-911169603b89"},"vehicle_type_id":"4","last_reported":1682446109,"current_range_meters":0,"station_id":"ce4bgl92rcd13ifvqbq0","pricing_plan_id":"free"},{"bike_id":"f2408974-c7ce-4399-9a06-c217f8f605b2","system_id":"levelo_inurba_marseille","lat":43.309076,"lon":5.368465,"is_reserved":false,"is_disabled":false,"rental_uris":{"android":"levelo://app?vid=f2408974-c7ce-4399-9a06-c217f8f605b2","ios":"levelo://app?vid=f2408974-c7ce-4399-9a06-c217f8f605b2"},"vehicle_type_id":"4","last_reported":1682446109,"current_range_meters":4400,"station_id":"ce4bgn92rcd13ifvqbvg","pricing_plan_id":"free"},{"bike_id":"7d662872-4beb-49d3-92a3-d5dc859ca1b0","system_id":"levelo_inurba_marseille","lat":43.314811,"lon":5.373103,"is_reserved":false,"is_disabled":false,"rental_uris":{"android":"levelo://app?vid=7d662872-4beb-49d3-92a3-d5dc859ca1b0","ios":"levelo://app?vid=7d662872-4beb-49d3-92a3-d5dc859ca1b0"},"vehicle_type_id":"4","last_reported":1682446109,"current_range_meters":5200,"station_id":"ce4bgt12rcd13ifvqcd0","pricing_plan_id":"free"},{"bike_id":"26e814de-ede9-4047-8f6f-7a6b0b1c4d2b","system_id":"levelo_inurba_marseille","lat":43.314811,"lon":5.373103,"is_reserved":false,"is_disabled":false,"rental_uris":{"android":"levelo://app?vid=26e814de-ede9-4047-8f6f-7a6b0b1c4d2b","ios":"levelo://app?vid=26e814de-ede9-4047-8f6f-7a6b0b1c4d2b"},"vehicle_type_id":"4","last_reported":1682446109,"current_range_meters":26000,"station_id":"ce4bgt12rcd13ifvqcd0","pricing_plan_id":"free"},{"bike_id":"986bc8e2-3b57-4462-a9e8-bdf9b74026f1","system_id":"levelo_inurba_marseille","lat":43.305706,"lon":5.365654,"is_reserved":false,"is_disabled":false,"rental_uris":{"android":"levelo://app?vid=986bc8e2-3b57-4462-a9e8-bdf9b74026f1","ios":"levelo://app?vid=986bc8e2-3b57-4462-a9e8-bdf9b74026f1"},"vehicle_type_id":"4","last_reported":1682446109,"current_range_meters":0,"station_id":"ce4bgs12rcd13ifvqcag","pricing_plan_id":"free"},{"bike_id":"00450a81-c069-48c8-b486-a517418f198e","system_id":"levelo_inurba_marseille","lat":43.31123,"lon":5.37767,"is_reserved":false,"is_disabled":false,"rental_uris":{"android":"levelo://app?vid=00450a81-c069-48c8-b486-a517418f198e","ios":"levelo://app?vid=00450a81-c069-48c8-b486-a517418f198e"},"vehicle_type_id":"4","last_reported":1682446109,"current_range_meters":12800,"station_id":"ce4bgt92rcd13ifvqcg0","pricing_plan_id":"free"},{"bike_id":"f1fc5070-e262-4001-8af3-02f5be77eb3f","system_id":"levelo_inurba_marseille","lat":43.31714,"lon":5.37751,"is_reserved":false,"is_disabled":false,"rental_uris":{"android":"levelo://app?vid=f1fc5070-e262-4001-8af3-02f5be77eb3f","ios":"levelo://app?vid=f1fc5070-e262-4001-8af3-02f5be77eb3f"},"vehicle_type_id":"4","last_reported":1682446109,"current_range_meters":27600,"station_id":"ce4bgth2rcd13ifvqch0","pricing_plan_id":"free"},{"bike_id":"86849db0-2d11-41bc-8e3f-213a7e4b74c0","system_id":"levelo_inurba_marseille","lat":43.31712,"lon":5.37762,"is_reserved":false,"is_disabled":false,"rental_uris":{"android":"levelo://app?vid=86849db0-2d11-41bc-8e3f-213a7e4b74c0","ios":"levelo://app?vid=86849db0-2d11-41bc-8e3f-213a7e4b74c0"},"vehicle_type_id":"4","last_reported":1682446109,"current_range_meters":26800,"station_id":"ce4bgth2rcd13ifvqch0","pricing_plan_id":"free"},{"bike_id":"3c4e6c8c-df65-4deb-8995-f8befa733260","system_id":"levelo_inurba_marseille","lat":43.31534,"lon":5.37884,"is_reserved":false,"is_disabled":false,"rental_uris":{"android":"levelo://app?vid=3c4e6c8c-df65-4deb-8995-f8befa733260","ios":"levelo://app?vid=3c4e6c8c-df65-4deb-8995-f8befa733260"},"vehicle_type_id":"4","last_reported":1682446109,"current_range_meters":0,"station_id":"","pricing_plan_id":"free"},{"bike_id":"ed4cf108-6e53-434a-80ff-af61ed5b1bed","system_id":"levelo_inurba_marseille","lat":43.303046,"lon":5.368981,"is_reserved":false,"is_disabled":false,"rental_uris":{"android":"levelo://app?vid=ed4cf108-6e53-434a-80ff-af61ed5b1bed","ios":"levelo://app?vid=ed4cf108-6e53-434a-80ff-af61ed5b1bed"},"vehicle_type_id":"4","last_reported":1682446109,"current_range_meters":11600,"station_id":"ce4bgqh2rcd13ifvqc5g","pricing_plan_id":"free"},{"bike_id":"b05da9c6-522c-45a8-b937-814762efd774","system_id":"levelo_inurba_marseille","lat":43.315289,"lon":5.380349,"is_reserved":false,"is_disabled":false,"rental_uris":{"android":"levelo://app?vid=b05da9c6-522c-45a8-b937-814762efd774","ios":"levelo://app?vid=b05da9c6-522c-45a8-b937-814762efd774"},"vehicle_type_id":"4","last_reported":1682446109,"current_range_meters":20000,"station_id":"ce4bhsp2rcd13ifvqi50","pricing_plan_id":"free"},{"bike_id":"7e9e8839-45fe-4fad-9be6-eeb07fd1eb61","system_id":"levelo_inurba_marseille","lat":43.315289,"lon":5.380349,"is_reserved":false,"is_disabled":false,"rental_uris":{"android":"levelo://app?vid=7e9e8839-45fe-4fad-9be6-eeb07fd1eb61","ios":"levelo://app?vid=7e9e8839-45fe-4fad-9be6-eeb07fd1eb61"},"vehicle_type_id":"4","last_reported":1682446109,"current_range_meters":22000,"station_id":"ce4bhsp2rcd13ifvqi50","pricing_plan_id":"free"},{"bike_id":"45cc80f7-9187-48e2-b5ce-0232127d891b","system_id":"levelo_inurba_marseille","lat":43.315289,"lon":5.380349,"is_reserved":false,"is_disabled":false,"rental_uris":{"android":"levelo://app?vid=45cc80f7-9187-48e2-b5ce-0232127d891b","ios":"levelo://app?vid=45cc80f7-9187-48e2-b5ce-0232127d891b"},"vehicle_type_id":"4","last_reported":1682446109,"current_range_meters":30400,"station_id":"ce4bhsp2rcd13ifvqi50","pricing_plan_id":"free"},{"bike_id":"44b30e44-f780-471a-93ef-201229856ed8","system_id":"levelo_inurba_marseille","lat":43.315293,"lon":5.380349,"is_reserved":false,"is_disabled":false,"rental_uris":{"android":"levelo://app?vid=44b30e44-f780-471a-93ef-201229856ed8","ios":"levelo://app?vid=44b30e44-f780-471a-93ef-201229856ed8"},"vehicle_type_id":"4","last_reported":1682446109,"current_range_meters":31200,"station_id":"ce4bhsp2rcd13ifvqi50","pricing_plan_id":"free"},{"bike_id":"5afec27b-00b3-4c7d-83ac-cedd63d2a074","system_id":"levelo_inurba_marseille","lat":43.315293,"lon":5.380349,"is_reserved":false,"is_disabled":false,"rental_uris":{"android":"levelo://app?vid=5afec27b-00b3-4c7d-83ac-cedd63d2a074","ios":"levelo://app?vid=5afec27b-00b3-4c7d-83ac-cedd63d2a074"},"vehicle_type_id":"4","last_reported":1682446109,"current_range_meters":13200,"station_id":"ce4bhsp2rcd13ifvqi50","pricing_plan_id":"free"},{"bike_id":"176332fa-95d4-4f32-b1a6-39d86a42ff44","system_id":"levelo_inurba_marseille","lat":43.301939,"lon":5.366286,"is_reserved":false,"is_disabled":false,"rental_uris":{"android":"levelo://app?vid=176332fa-95d4-4f32-b1a6-39d86a42ff44","ios":"levelo://app?vid=176332fa-95d4-4f32-b1a6-39d86a42ff44"},"vehicle_type_id":"4","last_reported":1682446109,"current_range_meters":31600,"station_id":"ce4bgrh2rcd13ifvqc8g","pricing_plan_id":"free"},{"bike_id":"722b4d91-d2fb-4abf-bd87-eb303718f302","system_id":"levelo_inurba_marseille","lat":43.301939,"lon":5.366286,"is_reserved":false,"is_disabled":false,"rental_uris":{"android":"levelo://app?vid=722b4d91-d2fb-4abf-bd87-eb303718f302","ios":"levelo://app?vid=722b4d91-d2fb-4abf-bd87-eb303718f302"},"vehicle_type_id":"4","last_reported":1682446109,"current_range_meters":22800,"station_id":"ce4bgrh2rcd13ifvqc8g","pricing_plan_id":"free"},{"bike_id":"9692a11f-dff4-4f9d-9af6-416ee9f2bd27","system_id":"levelo_inurba_marseille","lat":43.301939,"lon":5.366286,"is_reserved":false,"is_disabled":false,"rental_uris":{"android":"levelo://app?vid=9692a11f-dff4-4f9d-9af6-416ee9f2bd27","ios":"levelo://app?vid=9692a11f-dff4-4f9d-9af6-416ee9f2bd27"},"vehicle_type_id":"4","last_reported":1682446109,"current_range_meters":12800,"station_id":"ce4bgrh2rcd13ifvqc8g","pricing_plan_id":"free"},{"bike_id":"cf308d94-a8ab-430e-a5ed-3d49ac9d3ee0","system_id":"levelo_inurba_marseille","lat":43.301939,"lon":5.366286,"is_reserved":false,"is_disabled":false,"rental_uris":{"android":"levelo://app?vid=cf308d94-a8ab-430e-a5ed-3d49ac9d3ee0","ios":"levelo://app?vid=cf308d94-a8ab-430e-a5ed-3d49ac9d3ee0"},"vehicle_type_id":"4","last_reported":1682446109,"current_range_meters":17600,"station_id":"ce4bgrh2rcd13ifvqc8g","pricing_plan_id":"free"},{"bike_id":"62d4baa9-7203-4736-9f1f-155a97994738","system_id":"levelo_inurba_marseille","lat":43.30143,"lon":5.37413,"is_reserved":false,"is_disabled":false,"rental_uris":{"android":"levelo://app?vid=62d4baa9-7203-4736-9f1f-155a97994738","ios":"levelo://app?vid=62d4baa9-7203-4736-9f1f-155a97994738"},"vehicle_type_id":"4","last_reported":1682446109,"current_range_meters":3600,"station_id":"ce4bgs92rcd13ifvqcc0","pricing_plan_id":"free"},{"bike_id":"46f6348a-dc32-4d03-8c5e-2cf6af4dce92","system_id":"levelo_inurba_marseille","lat":43.304606,"lon":5.379026,"is_reserved":false,"is_disabled":false,"rental_uris":{"android":"levelo://app?vid=46f6348a-dc32-4d03-8c5e-2cf6af4dce92","ios":"levelo://app?vid=46f6348a-dc32-4d03-8c5e-2cf6af4dce92"},"vehicle_type_id":"4","last_reported":1682446109,"current_range_meters":16400,"station_id":"ce4bgup2rcd13ifvqcn0","pricing_plan_id":"free"},{"bike_id":"ea48ce48-3588-470a-b2dd-d722139796d7","system_id":"levelo_inurba_marseille","lat":43.30143,"lon":5.37413,"is_reserved":false,"is_disabled":false,"rental_uris":{"android":"levelo://app?vid=ea48ce48-3588-470a-b2dd-d722139796d7","ios":"levelo://app?vid=ea48ce48-3588-470a-b2dd-d722139796d7"},"vehicle_type_id":"4","last_reported":1682446109,"current_range_meters":0,"station_id":"ce4bgs92rcd13ifvqcc0","pricing_plan_id":"free"},{"bike_id":"6ab33654-4176-47e2-8d5a-42e853f743a9","system_id":"levelo_inurba_marseille","lat":43.313571,"lon":5.384829,"is_reserved":false,"is_disabled":false,"rental_uris":{"android":"levelo://app?vid=6ab33654-4176-47e2-8d5a-42e853f743a9","ios":"levelo://app?vid=6ab33654-4176-47e2-8d5a-42e853f743a9"},"vehicle_type_id":"4","last_reported":1682446109,"current_range_meters":16800,"station_id":"ce4bgt92rcd13ifvqcf0","pricing_plan_id":"free"},{"bike_id":"bed64c8c-aae2-4551-9624-2462940c5d8f","system_id":"levelo_inurba_marseille","lat":43.313571,"lon":5.384829,"is_reserved":false,"is_disabled":false,"rental_uris":{"android":"levelo://app?vid=bed64c8c-aae2-4551-9624-2462940c5d8f","ios":"levelo://app?vid=bed64c8c-aae2-4551-9624-2462940c5d8f"},"vehicle_type_id":"4","last_reported":1682446109,"current_range_meters":3200,"station_id":"ce4bgt92rcd13ifvqcf0","pricing_plan_id":"free"},{"bike_id":"ca08a502-3048-4e3c-bd3e-cc366025bb70","system_id":"levelo_inurba_marseille","lat":43.313571,"lon":5.384829,"is_reserved":false,"is_disabled":false,"rental_uris":{"android":"levelo://app?vid=ca08a502-3048-4e3c-bd3e-cc366025bb70","ios":"levelo://app?vid=ca08a502-3048-4e3c-bd3e-cc366025bb70"},"vehicle_type_id":"4","last_reported":1682446109,"current_range_meters":22400,"station_id":"ce4bgt92rcd13ifvqcf0","pricing_plan_id":"free"},{"bike_id":"1aa9a31b-37b9-4b89-b30f-13857c66f4cd","system_id":"levelo_inurba_marseille","lat":43.299222,"lon":5.365554,"is_reserved":false,"is_disabled":false,"rental_uris":{"android":"levelo://app?vid=1aa9a31b-37b9-4b89-b30f-13857c66f4cd","ios":"levelo://app?vid=1aa9a31b-37b9-4b89-b30f-13857c66f4cd"},"vehicle_type_id":"4","last_reported":1682446109,"current_range_meters":24800,"station_id":"ce4bgm92rcd13ifvqbr0","pricing_plan_id":"free"},{"bike_id":"c3badf8a-3242-44a7-83f1-4fca9b17337e","system_id":"levelo_inurba_marseille","lat":43.299222,"lon":5.365554,"is_reserved":false,"is_disabled":false,"rental_uris":{"android":"levelo://app?vid=c3badf8a-3242-44a7-83f1-4fca9b17337e","ios":"levelo://app?vid=c3badf8a-3242-44a7-83f1-4fca9b17337e"},"vehicle_type_id":"4","last_reported":1682446109,"current_range_meters":31200,"station_id":"ce4bgm92rcd13ifvqbr0","pricing_plan_id":"free"},{"bike_id":"75cc00d2-6e72-456d-8ce8-9d0985786d6b","system_id":"levelo_inurba_marseille","lat":43.31896,"lon":5.38386,"is_reserved":false,"is_disabled":false,"rental_uris":{"android":"levelo://app?vid=75cc00d2-6e72-456d-8ce8-9d0985786d6b","ios":"levelo://app?vid=75cc00d2-6e72-456d-8ce8-9d0985786d6b"},"vehicle_type_id":"4","last_reported":1682446109,"current_range_meters":26800,"station_id":"","pricing_plan_id":"free"},{"bike_id":"56498e1c-fb6c-4415-ae5c-6bb0f0b3312c","system_id":"levelo_inurba_marseille","lat":43.299243,"lon":5.374807,"is_reserved":false,"is_disabled":false,"rental_uris":{"android":"levelo://app?vid=56498e1c-fb6c-4415-ae5c-6bb0f0b3312c","ios":"levelo://app?vid=56498e1c-fb6c-4415-ae5c-6bb0f0b3312c"},"vehicle_type_id":"4","last_reported":1682446109,"current_range_meters":30400,"station_id":"ce4bgjh2rcd13ifvqbg0","pricing_plan_id":"free"},{"bike_id":"0690bc0c-1741-40da-b06f-1de58dc70c8f","system_id":"levelo_inurba_marseille","lat":43.29845,"lon":5.36274,"is_reserved":false,"is_disabled":false,"rental_uris":{"android":"levelo://app?vid=0690bc0c-1741-40da-b06f-1de58dc70c8f","ios":"levelo://app?vid=0690bc0c-1741-40da-b06f-1de58dc70c8f"},"vehicle_type_id":"4","last_reported":1682446109,"current_range_meters":24800,"station_id":"ce4bgpp2rcd13ifvqc3g","pricing_plan_id":"free"},{"bike_id":"be3ceaf0-c428-4891-90d9-023175501e70","system_id":"levelo_inurba_marseille","lat":43.298433,"lon":5.362774,"is_reserved":false,"is_disabled":false,"rental_uris":{"android":"levelo://app?vid=be3ceaf0-c428-4891-90d9-023175501e70","ios":"levelo://app?vid=be3ceaf0-c428-4891-90d9-023175501e70"},"vehicle_type_id":"4","last_reported":1682446109,"current_range_meters":31200,"station_id":"ce4bgpp2rcd13ifvqc3g","pricing_plan_id":"free"},{"bike_id":"f4c18202-5f8e-44e1-851a-1167df9a14c3","system_id":"levelo_inurba_marseille","lat":43.29842,"lon":5.36272,"is_reserved":false,"is_disabled":false,"rental_uris":{"android":"levelo://app?vid=f4c18202-5f8e-44e1-851a-1167df9a14c3","ios":"levelo://app?vid=f4c18202-5f8e-44e1-851a-1167df9a14c3"},"vehicle_type_id":"4","last_reported":1682446109,"current_range_meters":24400,"station_id":"ce4bgpp2rcd13ifvqc3g","pricing_plan_id":"free"},{"bike_id":"91047466-d374-4e4d-afc8-eda888f5def5","system_id":"levelo_inurba_marseille","lat":43.298433,"lon":5.362774,"is_reserved":false,"is_disabled":false,"rental_uris":{"android":"levelo://app?vid=91047466-d374-4e4d-afc8-eda888f5def5","ios":"levelo://app?vid=91047466-d374-4e4d-afc8-eda888f5def5"},"vehicle_type_id":"4","last_reported":1682446109,"current_range_meters":31200,"station_id":"ce4bgpp2rcd13ifvqc3g","pricing_plan_id":"free"},{"bike_id":"3bc85822-5690-4e2c-967b-3e5403ec24e1","system_id":"levelo_inurba_marseille","lat":43.299243,"lon":5.37481,"is_reserved":false,"is_disabled":false,"rental_uris":{"android":"levelo://app?vid=3bc85822-5690-4e2c-967b-3e5403ec24e1","ios":"levelo://app?vid=3bc85822-5690-4e2c-967b-3e5403ec24e1"},"vehicle_type_id":"4","last_reported":1682446109,"current_range_meters":21600,"station_id":"ce4bgjh2rcd13ifvqbg0","pricing_plan_id":"free"},{"bike_id":"f3c295e8-bae1-409d-bf6e-d964eb8927c3","system_id":"levelo_inurba_marseille","lat":43.32774,"lon":5.367,"is_reserved":false,"is_disabled":false,"rental_uris":{"android":"levelo://app?vid=f3c295e8-bae1-409d-bf6e-d964eb8927c3","ios":"levelo://app?vid=f3c295e8-bae1-409d-bf6e-d964eb8927c3"},"vehicle_type_id":"4","last_reported":1682446109,"current_range_meters":21600,"station_id":"","pricing_plan_id":"free"},{"bike_id":"77a15084-c151-4d9e-8db8-4eb1a02ee92f","system_id":"levelo_inurba_marseille","lat":43.32807,"lon":5.36692,"is_reserved":false,"is_disabled":false,"rental_uris":{"android":"levelo://app?vid=77a15084-c151-4d9e-8db8-4eb1a02ee92f","ios":"levelo://app?vid=77a15084-c151-4d9e-8db8-4eb1a02ee92f"},"vehicle_type_id":"4","last_reported":1682446109,"current_range_meters":15200,"station_id":"","pricing_plan_id":"free"},{"bike_id":"bb095569-7c3f-435a-af11-3d18055547f4","system_id":"levelo_inurba_marseille","lat":43.328371,"lon":5.366912,"is_reserved":false,"is_disabled":false,"rental_uris":{"android":"levelo://app?vid=bb095569-7c3f-435a-af11-3d18055547f4","ios":"levelo://app?vid=bb095569-7c3f-435a-af11-3d18055547f4"},"vehicle_type_id":"4","last_reported":1682446109,"current_range_meters":18400,"station_id":"ce4bhs92rcd13ifvqi0g","pricing_plan_id":"free"},{"bike_id":"04ea76ac-c581-4b8b-9be6-f04ea62fd801","system_id":"levelo_inurba_marseille","lat":43.328371,"lon":5.366912,"is_reserved":false,"is_disabled":false,"rental_uris":{"android":"levelo://app?vid=04ea76ac-c581-4b8b-9be6-f04ea62fd801","ios":"levelo://app?vid=04ea76ac-c581-4b8b-9be6-f04ea62fd801"},"vehicle_type_id":"4","last_reported":1682446109,"current_range_meters":6400,"station_id":"ce4bhs92rcd13ifvqi0g","pricing_plan_id":"free"},{"bike_id":"a07b6f04-6ed4-41f2-b90a-863cc4ca5121","system_id":"levelo_inurba_marseille","lat":43.328371,"lon":5.366912,"is_reserved":false,"is_disabled":false,"rental_uris":{"android":"levelo://app?vid=a07b6f04-6ed4-41f2-b90a-863cc4ca5121","ios":"levelo://app?vid=a07b6f04-6ed4-41f2-b90a-863cc4ca5121"},"vehicle_type_id":"4","last_reported":1682446109,"current_range_meters":20400,"station_id":"ce4bhs92rcd13ifvqi0g","pricing_plan_id":"free"},{"bike_id":"4c52b8ae-ac32-46e1-8ea6-b30c4fd5ce91","system_id":"levelo_inurba_marseille","lat":43.32828,"lon":5.36676,"is_reserved":false,"is_disabled":false,"rental_uris":{"android":"levelo://app?vid=4c52b8ae-ac32-46e1-8ea6-b30c4fd5ce91","ios":"levelo://app?vid=4c52b8ae-ac32-46e1-8ea6-b30c4fd5ce91"},"vehicle_type_id":"4","last_reported":1682446109,"current_range_meters":16800,"station_id":"ce4bhs92rcd13ifvqi0g","pricing_plan_id":"free"},{"bike_id":"80117e7d-03ae-49e1-9afa-b1f0df9c0546","system_id":"levelo_inurba_marseille","lat":43.328371,"lon":5.366912,"is_reserved":false,"is_disabled":false,"rental_uris":{"android":"levelo://app?vid=80117e7d-03ae-49e1-9afa-b1f0df9c0546","ios":"levelo://app?vid=80117e7d-03ae-49e1-9afa-b1f0df9c0546"},"vehicle_type_id":"4","last_reported":1682446109,"current_range_meters":12000,"station_id":"ce4bhs92rcd13ifvqi0g","pricing_plan_id":"free"},{"bike_id":"3465bd78-9cf1-4302-9b2d-da15145258cd","system_id":"levelo_inurba_marseille","lat":43.328371,"lon":5.366912,"is_reserved":false,"is_disabled":false,"rental_uris":{"android":"levelo://app?vid=3465bd78-9cf1-4302-9b2d-da15145258cd","ios":"levelo://app?vid=3465bd78-9cf1-4302-9b2d-da15145258cd"},"vehicle_type_id":"4","last_reported":1682446109,"current_range_meters":14000,"station_id":"ce4bhs92rcd13ifvqi0g","pricing_plan_id":"free"},{"bike_id":"f47e9305-1388-4838-94e3-4dd46bb086c2","system_id":"levelo_inurba_marseille","lat":43.328371,"lon":5.366912,"is_reserved":false,"is_disabled":false,"rental_uris":{"android":"levelo://app?vid=f47e9305-1388-4838-94e3-4dd46bb086c2","ios":"levelo://app?vid=f47e9305-1388-4838-94e3-4dd46bb086c2"},"vehicle_type_id":"4","last_reported":1682446109,"current_range_meters":19600,"station_id":"ce4bhs92rcd13ifvqi0g","pricing_plan_id":"free"},{"bike_id":"ea75c6aa-dacf-4201-9f4a-82f93db76186","system_id":"levelo_inurba_marseille","lat":43.2968,"lon":5.37291,"is_reserved":false,"is_disabled":false,"rental_uris":{"android":"levelo://app?vid=ea75c6aa-dacf-4201-9f4a-82f93db76186","ios":"levelo://app?vid=ea75c6aa-dacf-4201-9f4a-82f93db76186"},"vehicle_type_id":"4","last_reported":1682446109,"current_range_meters":8400,"station_id":"ce4bgk12rcd13ifvqbj0","pricing_plan_id":"free"},{"bike_id":"79526136-b6b6-41be-8622-973026f145ba","system_id":"levelo_inurba_marseille","lat":43.2968,"lon":5.37291,"is_reserved":false,"is_disabled":false,"rental_uris":{"android":"levelo://app?vid=79526136-b6b6-41be-8622-973026f145ba","ios":"levelo://app?vid=79526136-b6b6-41be-8622-973026f145ba"},"vehicle_type_id":"4","last_reported":1682446109,"current_range_meters":13200,"station_id":"ce4bgk12rcd13ifvqbj0","pricing_plan_id":"free"},{"bike_id":"60ecc6a0-d3b0-4ba8-830c-a900da7855fe","system_id":"levelo_inurba_marseille","lat":43.296129,"lon":5.370777,"is_reserved":false,"is_disabled":false,"rental_uris":{"android":"levelo://app?vid=60ecc6a0-d3b0-4ba8-830c-a900da7855fe","ios":"levelo://app?vid=60ecc6a0-d3b0-4ba8-830c-a900da7855fe"},"vehicle_type_id":"4","last_reported":1682446109,"current_range_meters":31200,"station_id":"ce4bgnh2rcd13ifvqc0g","pricing_plan_id":"free"},{"bike_id":"3059ed4e-fe04-4c1b-8f87-c83a370f6243","system_id":"levelo_inurba_marseille","lat":43.296129,"lon":5.370777,"is_reserved":false,"is_disabled":false,"rental_uris":{"android":"levelo://app?vid=3059ed4e-fe04-4c1b-8f87-c83a370f6243","ios":"levelo://app?vid=3059ed4e-fe04-4c1b-8f87-c83a370f6243"},"vehicle_type_id":"4","last_reported":1682446109,"current_range_meters":26400,"station_id":"ce4bgnh2rcd13ifvqc0g","pricing_plan_id":"free"},{"bike_id":"0d0ebf86-52a6-42a7-b8ed-a4b830211a25","system_id":"levelo_inurba_marseille","lat":43.29573,"lon":5.367355,"is_reserved":false,"is_disabled":false,"rental_uris":{"android":"levelo://app?vid=0d0ebf86-52a6-42a7-b8ed-a4b830211a25","ios":"levelo://app?vid=0d0ebf86-52a6-42a7-b8ed-a4b830211a25"},"vehicle_type_id":"4","last_reported":1682446109,"current_range_meters":0,"station_id":"ce4bgph2rcd13ifvqc2g","pricing_plan_id":"free"},{"bike_id":"ee44146e-4c99-4ef3-a678-7e67c43ff2f9","system_id":"levelo_inurba_marseille","lat":43.296129,"lon":5.370777,"is_reserved":false,"is_disabled":false,"rental_uris":{"android":"levelo://app?vid=ee44146e-4c99-4ef3-a678-7e67c43ff2f9","ios":"levelo://app?vid=ee44146e-4c99-4ef3-a678-7e67c43ff2f9"},"vehicle_type_id":"4","last_reported":1682446109,"current_range_meters":31200,"station_id":"ce4bgnh2rcd13ifvqc0g","pricing_plan_id":"free"},{"bike_id":"a0c5bfc0-8b71-4a46-9cd0-d1a936ae97fa","system_id":"levelo_inurba_marseille","lat":43.299028,"lon":5.381509,"is_reserved":false,"is_disabled":false,"rental_uris":{"android":"levelo://app?vid=a0c5bfc0-8b71-4a46-9cd0-d1a936ae97fa","ios":"levelo://app?vid=a0c5bfc0-8b71-4a46-9cd0-d1a936ae97fa"},"vehicle_type_id":"4","last_reported":1682446109,"current_range_meters":23200,"station_id":"ce4bgj12rcd13ifvqbc0","pricing_plan_id":"free"},{"bike_id":"232b572f-8190-4864-afa0-6f6588434db9","system_id":"levelo_inurba_marseille","lat":43.296921,"lon":5.376579,"is_reserved":false,"is_disabled":false,"rental_uris":{"android":"levelo://app?vid=232b572f-8190-4864-afa0-6f6588434db9","ios":"levelo://app?vid=232b572f-8190-4864-afa0-6f6588434db9"},"vehicle_type_id":"4","last_reported":1682446109,"current_range_meters":2400,"station_id":"ce4bgkh2rcd13ifvqbl0","pricing_plan_id":"free"},{"bike_id":"31e991cc-b092-4fc2-a449-02ccab74b89b","system_id":"levelo_inurba_marseille","lat":43.317557,"lon":5.390173,"is_reserved":false,"is_disabled":false,"rental_uris":{"android":"levelo://app?vid=31e991cc-b092-4fc2-a449-02ccab74b89b","ios":"levelo://app?vid=31e991cc-b092-4fc2-a449-02ccab74b89b"},"vehicle_type_id":"4","last_reported":1682446109,"current_range_meters":13200,"station_id":"ce4bhqp2rcd13ifvqhng","pricing_plan_id":"free"},{"bike_id":"431c54fc-dd87-4aac-aad6-cfe20b8f194f","system_id":"levelo_inurba_marseille","lat":43.317557,"lon":5.390173,"is_reserved":false,"is_disabled":false,"rental_uris":{"android":"levelo://app?vid=431c54fc-dd87-4aac-aad6-cfe20b8f194f","ios":"levelo://app?vid=431c54fc-dd87-4aac-aad6-cfe20b8f194f"},"vehicle_type_id":"4","last_reported":1682446109,"current_range_meters":22800,"station_id":"ce4bhqp2rcd13ifvqhng","pricing_plan_id":"free"},{"bike_id":"fdf84ca3-8be5-4ebb-9de3-b552de5e511c","system_id":"levelo_inurba_marseille","lat":43.317557,"lon":5.390173,"is_reserved":false,"is_disabled":false,"rental_uris":{"android":"levelo://app?vid=fdf84ca3-8be5-4ebb-9de3-b552de5e511c","ios":"levelo://app?vid=fdf84ca3-8be5-4ebb-9de3-b552de5e511c"},"vehicle_type_id":"4","last_reported":1682446109,"current_range_meters":30800,"station_id":"ce4bhqp2rcd13ifvqhng","pricing_plan_id":"free"},{"bike_id":"4648120c-96b6-4299-9518-c130ac895902","system_id":"levelo_inurba_marseille","lat":43.298037,"lon":5.381066,"is_reserved":false,"is_disabled":false,"rental_uris":{"android":"levelo://app?vid=4648120c-96b6-4299-9518-c130ac895902","ios":"levelo://app?vid=4648120c-96b6-4299-9518-c130ac895902"},"vehicle_type_id":"4","last_reported":1682446109,"current_range_meters":22000,"station_id":"ce4bgip2rcd13ifvqbb0","pricing_plan_id":"free"},{"bike_id":"f0971c9d-a423-4a56-bd78-f7663c1eec8e","system_id":"levelo_inurba_marseille","lat":43.30444,"lon":5.38891,"is_reserved":false,"is_disabled":false,"rental_uris":{"android":"levelo://app?vid=f0971c9d-a423-4a56-bd78-f7663c1eec8e","ios":"levelo://app?vid=f0971c9d-a423-4a56-bd78-f7663c1eec8e"},"vehicle_type_id":"4","last_reported":1682446109,"current_range_meters":0,"station_id":"ce4bgk12rcd13ifvqbi0","pricing_plan_id":"free"},{"bike_id":"7a20d677-ebfe-4fd0-a2a8-dca9c93e1092","system_id":"levelo_inurba_marseille","lat":43.30428,"lon":5.38887,"is_reserved":false,"is_disabled":false,"rental_uris":{"android":"levelo://app?vid=7a20d677-ebfe-4fd0-a2a8-dca9c93e1092","ios":"levelo://app?vid=7a20d677-ebfe-4fd0-a2a8-dca9c93e1092"},"vehicle_type_id":"4","last_reported":1682446109,"current_range_meters":0,"station_id":"ce4bgk12rcd13ifvqbi0","pricing_plan_id":"free"},{"bike_id":"bdcd082f-05bf-4b36-8e96-178bdb5acb61","system_id":"levelo_inurba_marseille","lat":43.29965,"lon":5.38499,"is_reserved":false,"is_disabled":false,"rental_uris":{"android":"levelo://app?vid=bdcd082f-05bf-4b36-8e96-178bdb5acb61","ios":"levelo://app?vid=bdcd082f-05bf-4b36-8e96-178bdb5acb61"},"vehicle_type_id":"4","last_reported":1682446109,"current_range_meters":30000,"station_id":"ce4bgj92rcd13ifvqbd0","pricing_plan_id":"free"},{"bike_id":"70d494b8-16d2-4c6c-b20c-9df06b21b412","system_id":"levelo_inurba_marseille","lat":43.3237,"lon":5.38885,"is_reserved":false,"is_disabled":false,"rental_uris":{"android":"levelo://app?vid=70d494b8-16d2-4c6c-b20c-9df06b21b412","ios":"levelo://app?vid=70d494b8-16d2-4c6c-b20c-9df06b21b412"},"vehicle_type_id":"4","last_reported":1682446109,"current_range_meters":24800,"station_id":"","pricing_plan_id":"free"},{"bike_id":"54cdb0f5-dafa-4719-a57f-c074cd2a9606","system_id":"levelo_inurba_marseille","lat":43.32372,"lon":5.38884,"is_reserved":false,"is_disabled":false,"rental_uris":{"android":"levelo://app?vid=54cdb0f5-dafa-4719-a57f-c074cd2a9606","ios":"levelo://app?vid=54cdb0f5-dafa-4719-a57f-c074cd2a9606"},"vehicle_type_id":"4","last_reported":1682446109,"current_range_meters":6400,"station_id":"","pricing_plan_id":"free"},{"bike_id":"d5661d89-b610-46ab-a5e3-d65ee6e277ad","system_id":"levelo_inurba_marseille","lat":43.31414,"lon":5.39409,"is_reserved":false,"is_disabled":false,"rental_uris":{"android":"levelo://app?vid=d5661d89-b610-46ab-a5e3-d65ee6e277ad","ios":"levelo://app?vid=d5661d89-b610-46ab-a5e3-d65ee6e277ad"},"vehicle_type_id":"4","last_reported":1682446109,"current_range_meters":7600,"station_id":"","pricing_plan_id":"free"},{"bike_id":"0498543d-5dce-45a6-9c41-7f59bbf6eac7","system_id":"levelo_inurba_marseille","lat":43.293009,"lon":5.374584,"is_reserved":false,"is_disabled":false,"rental_uris":{"android":"levelo://app?vid=0498543d-5dce-45a6-9c41-7f59bbf6eac7","ios":"levelo://app?vid=0498543d-5dce-45a6-9c41-7f59bbf6eac7"},"vehicle_type_id":"4","last_reported":1682446109,"current_range_meters":28800,"station_id":"ce4bgi12rcd13ifvqb70","pricing_plan_id":"free"},{"bike_id":"9ba01b65-24ea-4f5b-be6b-0f5227fc62e2","system_id":"levelo_inurba_marseille","lat":43.293249,"lon":5.371578,"is_reserved":false,"is_disabled":false,"rental_uris":{"android":"levelo://app?vid=9ba01b65-24ea-4f5b-be6b-0f5227fc62e2","ios":"levelo://app?vid=9ba01b65-24ea-4f5b-be6b-0f5227fc62e2"},"vehicle_type_id":"4","last_reported":1682446109,"current_range_meters":2400,"station_id":"ce4bgh92rcd13ifvqb40","pricing_plan_id":"free"},{"bike_id":"d7a8fd15-bf74-498b-a3c1-efd080dcb0c5","system_id":"levelo_inurba_marseille","lat":43.29308,"lon":5.371744,"is_reserved":false,"is_disabled":false,"rental_uris":{"android":"levelo://app?vid=d7a8fd15-bf74-498b-a3c1-efd080dcb0c5","ios":"levelo://app?vid=d7a8fd15-bf74-498b-a3c1-efd080dcb0c5"},"vehicle_type_id":"4","last_reported":1682446109,"current_range_meters":4800,"station_id":"","pricing_plan_id":"free"},{"bike_id":"721e2e10-63c1-433d-b462-9aac6b78a8b9","system_id":"levelo_inurba_marseille","lat":43.293249,"lon":5.371578,"is_reserved":false,"is_disabled":false,"rental_uris":{"android":"levelo://app?vid=721e2e10-63c1-433d-b462-9aac6b78a8b9","ios":"levelo://app?vid=721e2e10-63c1-433d-b462-9aac6b78a8b9"},"vehicle_type_id":"4","last_reported":1682446109,"current_range_meters":400,"station_id":"ce4bgh92rcd13ifvqb40","pricing_plan_id":"free"},{"bike_id":"0aef8566-6139-477c-8cca-898a3d74b849","system_id":"levelo_inurba_marseille","lat":43.293009,"lon":5.374584,"is_reserved":false,"is_disabled":false,"rental_uris":{"android":"levelo://app?vid=0aef8566-6139-477c-8cca-898a3d74b849","ios":"levelo://app?vid=0aef8566-6139-477c-8cca-898a3d74b849"},"vehicle_type_id":"4","last_reported":1682446109,"current_range_meters":18400,"station_id":"ce4bgi12rcd13ifvqb70","pricing_plan_id":"free"},{"bike_id":"f6d75ffc-fe52-4917-9814-03a9d5746ffe","system_id":"levelo_inurba_marseille","lat":43.305994,"lon":5.393687,"is_reserved":false,"is_disabled":false,"rental_uris":{"android":"levelo://app?vid=f6d75ffc-fe52-4917-9814-03a9d5746ffe","ios":"levelo://app?vid=f6d75ffc-fe52-4917-9814-03a9d5746ffe"},"vehicle_type_id":"4","last_reported":1682446109,"current_range_meters":4800,"station_id":"ce4bh0p2rcd13ifvqd80","pricing_plan_id":"free"},{"bike_id":"46cf1fc0-8587-400d-a954-f003f5059ec8","system_id":"levelo_inurba_marseille","lat":43.293009,"lon":5.374584,"is_reserved":false,"is_disabled":false,"rental_uris":{"android":"levelo://app?vid=46cf1fc0-8587-400d-a954-f003f5059ec8","ios":"levelo://app?vid=46cf1fc0-8587-400d-a954-f003f5059ec8"},"vehicle_type_id":"4","last_reported":1682446109,"current_range_meters":31200,"station_id":"ce4bgi12rcd13ifvqb70","pricing_plan_id":"free"},{"bike_id":"757eee25-14a6-471b-aa76-a540a5d2ffea","system_id":"levelo_inurba_marseille","lat":43.324981,"lon":5.38965,"is_reserved":false,"is_disabled":false,"rental_uris":{"android":"levelo://app?vid=757eee25-14a6-471b-aa76-a540a5d2ffea","ios":"levelo://app?vid=757eee25-14a6-471b-aa76-a540a5d2ffea"},"vehicle_type_id":"4","last_reported":1682446109,"current_range_meters":0,"station_id":"","pricing_plan_id":"free"},{"bike_id":"efbfcf1c-c566-4684-9fad-c6002908d488","system_id":"levelo_inurba_marseille","lat":43.29267,"lon":5.35968,"is_reserved":false,"is_disabled":false,"rental_uris":{"android":"levelo://app?vid=efbfcf1c-c566-4684-9fad-c6002908d488","ios":"levelo://app?vid=efbfcf1c-c566-4684-9fad-c6002908d488"},"vehicle_type_id":"4","last_reported":1682446109,"current_range_meters":15200,"station_id":"","pricing_plan_id":"free"},{"bike_id":"3b74bf49-8523-4bd8-b813-c2658508e940","system_id":"levelo_inurba_marseille","lat":43.3031,"lon":5.39228,"is_reserved":false,"is_disabled":false,"rental_uris":{"android":"levelo://app?vid=3b74bf49-8523-4bd8-b813-c2658508e940","ios":"levelo://app?vid=3b74bf49-8523-4bd8-b813-c2658508e940"},"vehicle_type_id":"4","last_reported":1682446109,"current_range_meters":0,"station_id":"","pricing_plan_id":"free"},{"bike_id":"15010fac-9c25-4b09-af8e-5980bd8e3444","system_id":"levelo_inurba_marseille","lat":43.2936,"lon":5.37835,"is_reserved":false,"is_disabled":false,"rental_uris":{"android":"levelo://app?vid=15010fac-9c25-4b09-af8e-5980bd8e3444","ios":"levelo://app?vid=15010fac-9c25-4b09-af8e-5980bd8e3444"},"vehicle_type_id":"4","last_reported":1682446109,"current_range_meters":13200,"station_id":"ce4bgjh2rcd13ifvqbf0","pricing_plan_id":"free"},{"bike_id":"96f83ffc-c525-4288-b5cc-42e6736cee16","system_id":"levelo_inurba_marseille","lat":43.292311,"lon":5.360731,"is_reserved":false,"is_disabled":false,"rental_uris":{"android":"levelo://app?vid=96f83ffc-c525-4288-b5cc-42e6736cee16","ios":"levelo://app?vid=96f83ffc-c525-4288-b5cc-42e6736cee16"},"vehicle_type_id":"4","last_reported":1682446109,"current_range_meters":16800,"station_id":"ce4bhbh2rcd13ifvqeqg","pricing_plan_id":"free"},{"bike_id":"f14c602e-d196-4f10-bc64-6c39a0273653","system_id":"levelo_inurba_marseille","lat":43.29232,"lon":5.36059,"is_reserved":false,"is_disabled":false,"rental_uris":{"android":"levelo://app?vid=f14c602e-d196-4f10-bc64-6c39a0273653","ios":"levelo://app?vid=f14c602e-d196-4f10-bc64-6c39a0273653"},"vehicle_type_id":"4","last_reported":1682446109,"current_range_meters":17200,"station_id":"ce4bhbh2rcd13ifvqeqg","pricing_plan_id":"free"},{"bike_id":"fe35a2a6-21e0-404f-9b3b-b47341f5d2ac","system_id":"levelo_inurba_marseille","lat":43.29231,"lon":5.36055,"is_reserved":false,"is_disabled":false,"rental_uris":{"android":"levelo://app?vid=fe35a2a6-21e0-404f-9b3b-b47341f5d2ac","ios":"levelo://app?vid=fe35a2a6-21e0-404f-9b3b-b47341f5d2ac"},"vehicle_type_id":"4","last_reported":1682446109,"current_range_meters":30000,"station_id":"ce4bhbh2rcd13ifvqeqg","pricing_plan_id":"free"},{"bike_id":"080b3cdc-6204-488d-8898-adce657bd736","system_id":"levelo_inurba_marseille","lat":43.292311,"lon":5.360731,"is_reserved":false,"is_disabled":false,"rental_uris":{"android":"levelo://app?vid=080b3cdc-6204-488d-8898-adce657bd736","ios":"levelo://app?vid=080b3cdc-6204-488d-8898-adce657bd736"},"vehicle_type_id":"4","last_reported":1682446109,"current_range_meters":6800,"station_id":"ce4bhbh2rcd13ifvqeqg","pricing_plan_id":"free"},{"bike_id":"cee3da3d-398c-4365-89ad-0c83e2ef0404","system_id":"levelo_inurba_marseille","lat":43.292311,"lon":5.360731,"is_reserved":false,"is_disabled":false,"rental_uris":{"android":"levelo://app?vid=cee3da3d-398c-4365-89ad-0c83e2ef0404","ios":"levelo://app?vid=cee3da3d-398c-4365-89ad-0c83e2ef0404"},"vehicle_type_id":"4","last_reported":1682446109,"current_range_meters":18800,"station_id":"ce4bhbh2rcd13ifvqeqg","pricing_plan_id":"free"},{"bike_id":"e77e1303-64e5-486e-bc59-d51063c5c732","system_id":"levelo_inurba_marseille","lat":43.29229,"lon":5.36059,"is_reserved":false,"is_disabled":false,"rental_uris":{"android":"levelo://app?vid=e77e1303-64e5-486e-bc59-d51063c5c732","ios":"levelo://app?vid=e77e1303-64e5-486e-bc59-d51063c5c732"},"vehicle_type_id":"4","last_reported":1682446109,"current_range_meters":10000,"station_id":"ce4bhbh2rcd13ifvqeqg","pricing_plan_id":"free"},{"bike_id":"8b2b740f-a887-4fce-9bdf-5a1cf27275d4","system_id":"levelo_inurba_marseille","lat":43.292311,"lon":5.360731,"is_reserved":false,"is_disabled":false,"rental_uris":{"android":"levelo://app?vid=8b2b740f-a887-4fce-9bdf-5a1cf27275d4","ios":"levelo://app?vid=8b2b740f-a887-4fce-9bdf-5a1cf27275d4"},"vehicle_type_id":"4","last_reported":1682446109,"current_range_meters":800,"station_id":"ce4bhbh2rcd13ifvqeqg","pricing_plan_id":"free"},{"bike_id":"a2faa289-4b71-4091-9813-51bdd5701101","system_id":"levelo_inurba_marseille","lat":43.292311,"lon":5.360731,"is_reserved":false,"is_disabled":false,"rental_uris":{"android":"levelo://app?vid=a2faa289-4b71-4091-9813-51bdd5701101","ios":"levelo://app?vid=a2faa289-4b71-4091-9813-51bdd5701101"},"vehicle_type_id":"4","last_reported":1682446109,"current_range_meters":1600,"station_id":"ce4bhbh2rcd13ifvqeqg","pricing_plan_id":"free"},{"bike_id":"d8426fd5-9aa9-4481-9f47-8d10794aaea2","system_id":"levelo_inurba_marseille","lat":43.29228,"lon":5.36062,"is_reserved":false,"is_disabled":false,"rental_uris":{"android":"levelo://app?vid=d8426fd5-9aa9-4481-9f47-8d10794aaea2","ios":"levelo://app?vid=d8426fd5-9aa9-4481-9f47-8d10794aaea2"},"vehicle_type_id":"4","last_reported":1682446109,"current_range_meters":0,"station_id":"ce4bhbh2rcd13ifvqeqg","pricing_plan_id":"free"},{"bike_id":"8bc42865-5988-46d9-b60a-57c78a385308","system_id":"levelo_inurba_marseille","lat":43.292311,"lon":5.360731,"is_reserved":false,"is_disabled":false,"rental_uris":{"android":"levelo://app?vid=8bc42865-5988-46d9-b60a-57c78a385308","ios":"levelo://app?vid=8bc42865-5988-46d9-b60a-57c78a385308"},"vehicle_type_id":"4","last_reported":1682446109,"current_range_meters":10400,"station_id":"ce4bhbh2rcd13ifvqeqg","pricing_plan_id":"free"},{"bike_id":"b5088713-142d-4252-979c-ef1d34a4d146","system_id":"levelo_inurba_marseille","lat":43.298764,"lon":5.388973,"is_reserved":false,"is_disabled":false,"rental_uris":{"android":"levelo://app?vid=b5088713-142d-4252-979c-ef1d34a4d146","ios":"levelo://app?vid=b5088713-142d-4252-979c-ef1d34a4d146"},"vehicle_type_id":"4","last_reported":1682446109,"current_range_meters":18000,"station_id":"ce4bh392rcd13ifvqdl0","pricing_plan_id":"free"},{"bike_id":"646900e7-90c9-4140-b901-6a849af9480b","system_id":"levelo_inurba_marseille","lat":43.2921,"lon":5.36035,"is_reserved":false,"is_disabled":false,"rental_uris":{"android":"levelo://app?vid=646900e7-90c9-4140-b901-6a849af9480b","ios":"levelo://app?vid=646900e7-90c9-4140-b901-6a849af9480b"},"vehicle_type_id":"4","last_reported":1682446109,"current_range_meters":30000,"station_id":"","pricing_plan_id":"free"},{"bike_id":"aa243503-56e0-4bf0-8229-0360521ee71a","system_id":"levelo_inurba_marseille","lat":43.298764,"lon":5.388973,"is_reserved":false,"is_disabled":false,"rental_uris":{"android":"levelo://app?vid=aa243503-56e0-4bf0-8229-0360521ee71a","ios":"levelo://app?vid=aa243503-56e0-4bf0-8229-0360521ee71a"},"vehicle_type_id":"4","last_reported":1682446109,"current_range_meters":8800,"station_id":"ce4bh392rcd13ifvqdl0","pricing_plan_id":"free"},{"bike_id":"bac8cfff-e366-4465-8809-aeef9ca62333","system_id":"levelo_inurba_marseille","lat":43.29166,"lon":5.371544,"is_reserved":false,"is_disabled":false,"rental_uris":{"android":"levelo://app?vid=bac8cfff-e366-4465-8809-aeef9ca62333","ios":"levelo://app?vid=bac8cfff-e366-4465-8809-aeef9ca62333"},"vehicle_type_id":"4","last_reported":1682446109,"current_range_meters":26000,"station_id":"ce4bha92rcd13ifvqeh0","pricing_plan_id":"free"},{"bike_id":"ae34ed89-4ed5-4f5a-b9bc-87027df6a2be","system_id":"levelo_inurba_marseille","lat":43.292663,"lon":5.376389,"is_reserved":false,"is_disabled":false,"rental_uris":{"android":"levelo://app?vid=ae34ed89-4ed5-4f5a-b9bc-87027df6a2be","ios":"levelo://app?vid=ae34ed89-4ed5-4f5a-b9bc-87027df6a2be"},"vehicle_type_id":"4","last_reported":1682446109,"current_range_meters":21200,"station_id":"ce4bgi12rcd13ifvqb80","pricing_plan_id":"free"},{"bike_id":"8a702113-bc70-4a27-83ea-7f3c3f6c48cc","system_id":"levelo_inurba_marseille","lat":43.313291,"lon":5.396838,"is_reserved":false,"is_disabled":false,"rental_uris":{"android":"levelo://app?vid=8a702113-bc70-4a27-83ea-7f3c3f6c48cc","ios":"levelo://app?vid=8a702113-bc70-4a27-83ea-7f3c3f6c48cc"},"vehicle_type_id":"4","last_reported":1682446109,"current_range_meters":4400,"station_id":"ce4bgvp2rcd13ifvqcu0","pricing_plan_id":"free"},{"bike_id":"9a9b474c-6c5d-4c6d-a200-8ec4dc13174b","system_id":"levelo_inurba_marseille","lat":43.313291,"lon":5.396838,"is_reserved":false,"is_disabled":false,"rental_uris":{"android":"levelo://app?vid=9a9b474c-6c5d-4c6d-a200-8ec4dc13174b","ios":"levelo://app?vid=9a9b474c-6c5d-4c6d-a200-8ec4dc13174b"},"vehicle_type_id":"4","last_reported":1682446109,"current_range_meters":12400,"station_id":"ce4bgvp2rcd13ifvqcu0","pricing_plan_id":"free"},{"bike_id":"7c221b34-96eb-45a6-98cb-88af710a26f0","system_id":"levelo_inurba_marseille","lat":43.313291,"lon":5.396838,"is_reserved":false,"is_disabled":false,"rental_uris":{"android":"levelo://app?vid=7c221b34-96eb-45a6-98cb-88af710a26f0","ios":"levelo://app?vid=7c221b34-96eb-45a6-98cb-88af710a26f0"},"vehicle_type_id":"4","last_reported":1682446109,"current_range_meters":22800,"station_id":"ce4bgvp2rcd13ifvqcu0","pricing_plan_id":"free"},{"bike_id":"b858ee97-28be-4ea6-8b7c-e142caf481c0","system_id":"levelo_inurba_marseille","lat":43.313291,"lon":5.396838,"is_reserved":false,"is_disabled":false,"rental_uris":{"android":"levelo://app?vid=b858ee97-28be-4ea6-8b7c-e142caf481c0","ios":"levelo://app?vid=b858ee97-28be-4ea6-8b7c-e142caf481c0"},"vehicle_type_id":"4","last_reported":1682446109,"current_range_meters":4800,"station_id":"ce4bgvp2rcd13ifvqcu0","pricing_plan_id":"free"},{"bike_id":"e5560486-0bb7-4c48-8e9e-4ad8a21903fb","system_id":"levelo_inurba_marseille","lat":43.309038,"lon":5.396546,"is_reserved":false,"is_disabled":false,"rental_uris":{"android":"levelo://app?vid=e5560486-0bb7-4c48-8e9e-4ad8a21903fb","ios":"levelo://app?vid=e5560486-0bb7-4c48-8e9e-4ad8a21903fb"},"vehicle_type_id":"4","last_reported":1682446109,"current_range_meters":0,"station_id":"ce4bh012rcd13ifvqcv0","pricing_plan_id":"free"},{"bike_id":"f78a4a88-6cbb-44c6-8bef-3de99829aa47","system_id":"levelo_inurba_marseille","lat":43.29529,"lon":5.385581,"is_reserved":false,"is_disabled":false,"rental_uris":{"android":"levelo://app?vid=f78a4a88-6cbb-44c6-8bef-3de99829aa47","ios":"levelo://app?vid=f78a4a88-6cbb-44c6-8bef-3de99829aa47"},"vehicle_type_id":"4","last_reported":1682446109,"current_range_meters":18800,"station_id":"ce4bgih2rcd13ifvqba0","pricing_plan_id":"free"},{"bike_id":"a8691a81-e5e4-4de0-9b3d-0f5f96c1c775","system_id":"levelo_inurba_marseille","lat":43.29529,"lon":5.385581,"is_reserved":false,"is_disabled":false,"rental_uris":{"android":"levelo://app?vid=a8691a81-e5e4-4de0-9b3d-0f5f96c1c775","ios":"levelo://app?vid=a8691a81-e5e4-4de0-9b3d-0f5f96c1c775"},"vehicle_type_id":"4","last_reported":1682446109,"current_range_meters":22400,"station_id":"ce4bgih2rcd13ifvqba0","pricing_plan_id":"free"},{"bike_id":"1728b06c-08bb-4a21-8178-10a1117ac9bf","system_id":"levelo_inurba_marseille","lat":43.29529,"lon":5.385581,"is_reserved":false,"is_disabled":false,"rental_uris":{"android":"levelo://app?vid=1728b06c-08bb-4a21-8178-10a1117ac9bf","ios":"levelo://app?vid=1728b06c-08bb-4a21-8178-10a1117ac9bf"},"vehicle_type_id":"4","last_reported":1682446109,"current_range_meters":2000,"station_id":"ce4bgih2rcd13ifvqba0","pricing_plan_id":"free"},{"bike_id":"78254b0a-193f-4836-b117-47c50937bc29","system_id":"levelo_inurba_marseille","lat":43.29529,"lon":5.385581,"is_reserved":false,"is_disabled":false,"rental_uris":{"android":"levelo://app?vid=78254b0a-193f-4836-b117-47c50937bc29","ios":"levelo://app?vid=78254b0a-193f-4836-b117-47c50937bc29"},"vehicle_type_id":"4","last_reported":1682446109,"current_range_meters":16400,"station_id":"ce4bgih2rcd13ifvqba0","pricing_plan_id":"free"},{"bike_id":"2a4f6352-c23b-4fb9-b64b-df91c0f3b6f9","system_id":"levelo_inurba_marseille","lat":43.29529,"lon":5.385581,"is_reserved":false,"is_disabled":false,"rental_uris":{"android":"levelo://app?vid=2a4f6352-c23b-4fb9-b64b-df91c0f3b6f9","ios":"levelo://app?vid=2a4f6352-c23b-4fb9-b64b-df91c0f3b6f9"},"vehicle_type_id":"4","last_reported":1682446109,"current_range_meters":29600,"station_id":"ce4bgih2rcd13ifvqba0","pricing_plan_id":"free"},{"bike_id":"d40b5def-5808-4d7a-8b53-82f768346f75","system_id":"levelo_inurba_marseille","lat":43.29529,"lon":5.385581,"is_reserved":false,"is_disabled":false,"rental_uris":{"android":"levelo://app?vid=d40b5def-5808-4d7a-8b53-82f768346f75","ios":"levelo://app?vid=d40b5def-5808-4d7a-8b53-82f768346f75"},"vehicle_type_id":"4","last_reported":1682446109,"current_range_meters":2000,"station_id":"ce4bgih2rcd13ifvqba0","pricing_plan_id":"free"},{"bike_id":"dddeb8f6-41e8-4700-b7a4-1b19e5ef5969","system_id":"levelo_inurba_marseille","lat":43.29529,"lon":5.385581,"is_reserved":false,"is_disabled":false,"rental_uris":{"android":"levelo://app?vid=dddeb8f6-41e8-4700-b7a4-1b19e5ef5969","ios":"levelo://app?vid=dddeb8f6-41e8-4700-b7a4-1b19e5ef5969"},"vehicle_type_id":"4","last_reported":1682446109,"current_range_meters":29600,"station_id":"ce4bgih2rcd13ifvqba0","pricing_plan_id":"free"},{"bike_id":"ee243272-5f44-43d2-bad9-8776ab947ef7","system_id":"levelo_inurba_marseille","lat":43.29529,"lon":5.385581,"is_reserved":false,"is_disabled":false,"rental_uris":{"android":"levelo://app?vid=ee243272-5f44-43d2-bad9-8776ab947ef7","ios":"levelo://app?vid=ee243272-5f44-43d2-bad9-8776ab947ef7"},"vehicle_type_id":"4","last_reported":1682446109,"current_range_meters":28400,"station_id":"ce4bgih2rcd13ifvqba0","pricing_plan_id":"free"},{"bike_id":"51b51ac5-6cea-4778-9048-6fb0fa7e3aff","system_id":"levelo_inurba_marseille","lat":43.29529,"lon":5.385581,"is_reserved":false,"is_disabled":false,"rental_uris":{"android":"levelo://app?vid=51b51ac5-6cea-4778-9048-6fb0fa7e3aff","ios":"levelo://app?vid=51b51ac5-6cea-4778-9048-6fb0fa7e3aff"},"vehicle_type_id":"4","last_reported":1682446109,"current_range_meters":16800,"station_id":"ce4bgih2rcd13ifvqba0","pricing_plan_id":"free"},{"bike_id":"2ead9804-458a-4fa3-8578-3fa11d7f9b91","system_id":"levelo_inurba_marseille","lat":43.29529,"lon":5.385581,"is_reserved":false,"is_disabled":false,"rental_uris":{"android":"levelo://app?vid=2ead9804-458a-4fa3-8578-3fa11d7f9b91","ios":"levelo://app?vid=2ead9804-458a-4fa3-8578-3fa11d7f9b91"},"vehicle_type_id":"4","last_reported":1682446109,"current_range_meters":15600,"station_id":"ce4bgih2rcd13ifvqba0","pricing_plan_id":"free"},{"bike_id":"02e9fa80-f129-442b-b406-93b05c0cadaf","system_id":"levelo_inurba_marseille","lat":43.29529,"lon":5.385581,"is_reserved":false,"is_disabled":false,"rental_uris":{"android":"levelo://app?vid=02e9fa80-f129-442b-b406-93b05c0cadaf","ios":"levelo://app?vid=02e9fa80-f129-442b-b406-93b05c0cadaf"},"vehicle_type_id":"4","last_reported":1682446109,"current_range_meters":23600,"station_id":"ce4bgih2rcd13ifvqba0","pricing_plan_id":"free"},{"bike_id":"f0b66838-b233-4764-9524-7b9aeff3d3c6","system_id":"levelo_inurba_marseille","lat":43.29529,"lon":5.385581,"is_reserved":false,"is_disabled":false,"rental_uris":{"android":"levelo://app?vid=f0b66838-b233-4764-9524-7b9aeff3d3c6","ios":"levelo://app?vid=f0b66838-b233-4764-9524-7b9aeff3d3c6"},"vehicle_type_id":"4","last_reported":1682446109,"current_range_meters":7200,"station_id":"ce4bgih2rcd13ifvqba0","pricing_plan_id":"free"},{"bike_id":"a0ba5be2-63fa-493e-af9b-c17e99d56299","system_id":"levelo_inurba_marseille","lat":43.29529,"lon":5.385581,"is_reserved":false,"is_disabled":false,"rental_uris":{"android":"levelo://app?vid=a0ba5be2-63fa-493e-af9b-c17e99d56299","ios":"levelo://app?vid=a0ba5be2-63fa-493e-af9b-c17e99d56299"},"vehicle_type_id":"4","last_reported":1682446109,"current_range_meters":31200,"station_id":"ce4bgih2rcd13ifvqba0","pricing_plan_id":"free"},{"bike_id":"a1879530-e59f-4872-bd18-e7ef6c7bb849","system_id":"levelo_inurba_marseille","lat":43.298764,"lon":5.388973,"is_reserved":false,"is_disabled":false,"rental_uris":{"android":"levelo://app?vid=a1879530-e59f-4872-bd18-e7ef6c7bb849","ios":"levelo://app?vid=a1879530-e59f-4872-bd18-e7ef6c7bb849"},"vehicle_type_id":"4","last_reported":1682446109,"current_range_meters":5600,"station_id":"ce4bh392rcd13ifvqdl0","pricing_plan_id":"free"},{"bike_id":"a6084a11-e676-492c-9fe4-7f4397b76854","system_id":"levelo_inurba_marseille","lat":43.31565,"lon":5.39721,"is_reserved":false,"is_disabled":false,"rental_uris":{"android":"levelo://app?vid=a6084a11-e676-492c-9fe4-7f4397b76854","ios":"levelo://app?vid=a6084a11-e676-492c-9fe4-7f4397b76854"},"vehicle_type_id":"4","last_reported":1682446109,"current_range_meters":20000,"station_id":"","pricing_plan_id":"free"},{"bike_id":"831511bf-1d13-46bd-81af-9b813967b21c","system_id":"levelo_inurba_marseille","lat":43.290779,"lon":5.371482,"is_reserved":false,"is_disabled":false,"rental_uris":{"android":"levelo://app?vid=831511bf-1d13-46bd-81af-9b813967b21c","ios":"levelo://app?vid=831511bf-1d13-46bd-81af-9b813967b21c"},"vehicle_type_id":"4","last_reported":1682446109,"current_range_meters":9600,"station_id":"ce4bh5p2rcd13ifvqe4g","pricing_plan_id":"free"},{"bike_id":"3eb300ba-e100-4169-a0a4-b705ca61b011","system_id":"levelo_inurba_marseille","lat":43.302008,"lon":5.394694,"is_reserved":false,"is_disabled":false,"rental_uris":{"android":"levelo://app?vid=3eb300ba-e100-4169-a0a4-b705ca61b011","ios":"levelo://app?vid=3eb300ba-e100-4169-a0a4-b705ca61b011"},"vehicle_type_id":"4","last_reported":1682446109,"current_range_meters":10800,"station_id":"ce4bh0p2rcd13ifvqd70","pricing_plan_id":"free"},{"bike_id":"d7c39620-b26b-443e-b834-1d4e0b86777f","system_id":"levelo_inurba_marseille","lat":43.3021,"lon":5.39469,"is_reserved":false,"is_disabled":false,"rental_uris":{"android":"levelo://app?vid=d7c39620-b26b-443e-b834-1d4e0b86777f","ios":"levelo://app?vid=d7c39620-b26b-443e-b834-1d4e0b86777f"},"vehicle_type_id":"4","last_reported":1682446109,"current_range_meters":0,"station_id":"ce4bh0p2rcd13ifvqd70","pricing_plan_id":"free"},{"bike_id":"3aee9f93-41aa-4bdf-9d9d-b9b80bbe90e9","system_id":"levelo_inurba_marseille","lat":43.302008,"lon":5.394694,"is_reserved":false,"is_disabled":false,"rental_uris":{"android":"levelo://app?vid=3aee9f93-41aa-4bdf-9d9d-b9b80bbe90e9","ios":"levelo://app?vid=3aee9f93-41aa-4bdf-9d9d-b9b80bbe90e9"},"vehicle_type_id":"4","last_reported":1682446109,"current_range_meters":13200,"station_id":"ce4bh0p2rcd13ifvqd70","pricing_plan_id":"free"},{"bike_id":"4c20a965-e452-4220-aef1-57a1dd8f59cc","system_id":"levelo_inurba_marseille","lat":43.290624,"lon":5.359245,"is_reserved":false,"is_disabled":false,"rental_uris":{"android":"levelo://app?vid=4c20a965-e452-4220-aef1-57a1dd8f59cc","ios":"levelo://app?vid=4c20a965-e452-4220-aef1-57a1dd8f59cc"},"vehicle_type_id":"4","last_reported":1682446109,"current_range_meters":4800,"station_id":"ce4bha92rcd13ifvqeg0","pricing_plan_id":"free"},{"bike_id":"9e0dc87c-797e-4e31-afb1-ce8fb675d52a","system_id":"levelo_inurba_marseille","lat":43.290624,"lon":5.359245,"is_reserved":false,"is_disabled":false,"rental_uris":{"android":"levelo://app?vid=9e0dc87c-797e-4e31-afb1-ce8fb675d52a","ios":"levelo://app?vid=9e0dc87c-797e-4e31-afb1-ce8fb675d52a"},"vehicle_type_id":"4","last_reported":1682446109,"current_range_meters":13600,"station_id":"ce4bha92rcd13ifvqeg0","pricing_plan_id":"free"},{"bike_id":"61e57b24-8d12-43e9-b571-93ea1852b7b1","system_id":"levelo_inurba_marseille","lat":43.29425,"lon":5.38609,"is_reserved":false,"is_disabled":false,"rental_uris":{"android":"levelo://app?vid=61e57b24-8d12-43e9-b571-93ea1852b7b1","ios":"levelo://app?vid=61e57b24-8d12-43e9-b571-93ea1852b7b1"},"vehicle_type_id":"4","last_reported":1682446109,"current_range_meters":11600,"station_id":"ce4bh2h2rcd13ifvqdh0","pricing_plan_id":"free"},{"bike_id":"e10e1f14-ac2d-49fd-8f8b-d4e28ac497c3","system_id":"levelo_inurba_marseille","lat":43.2942,"lon":5.38621,"is_reserved":false,"is_disabled":false,"rental_uris":{"android":"levelo://app?vid=e10e1f14-ac2d-49fd-8f8b-d4e28ac497c3","ios":"levelo://app?vid=e10e1f14-ac2d-49fd-8f8b-d4e28ac497c3"},"vehicle_type_id":"4","last_reported":1682446109,"current_range_meters":27600,"station_id":"ce4bh2h2rcd13ifvqdh0","pricing_plan_id":"free"},{"bike_id":"9f631f30-8119-427d-b6e4-32c259e39e44","system_id":"levelo_inurba_marseille","lat":43.29418,"lon":5.38618,"is_reserved":false,"is_disabled":false,"rental_uris":{"android":"levelo://app?vid=9f631f30-8119-427d-b6e4-32c259e39e44","ios":"levelo://app?vid=9f631f30-8119-427d-b6e4-32c259e39e44"},"vehicle_type_id":"4","last_reported":1682446109,"current_range_meters":14000,"station_id":"ce4bh2h2rcd13ifvqdh0","pricing_plan_id":"free"},{"bike_id":"1b0d50fb-6a5b-4f11-8573-d90d9e1abf8c","system_id":"levelo_inurba_marseille","lat":43.294155,"lon":5.386172,"is_reserved":false,"is_disabled":false,"rental_uris":{"android":"levelo://app?vid=1b0d50fb-6a5b-4f11-8573-d90d9e1abf8c","ios":"levelo://app?vid=1b0d50fb-6a5b-4f11-8573-d90d9e1abf8c"},"vehicle_type_id":"4","last_reported":1682446109,"current_range_meters":13600,"station_id":"ce4bh2h2rcd13ifvqdh0","pricing_plan_id":"free"},{"bike_id":"898d6ec0-ab25-46da-97c1-a386388c5d56","system_id":"levelo_inurba_marseille","lat":43.289184,"lon":5.366408,"is_reserved":false,"is_disabled":false,"rental_uris":{"android":"levelo://app?vid=898d6ec0-ab25-46da-97c1-a386388c5d56","ios":"levelo://app?vid=898d6ec0-ab25-46da-97c1-a386388c5d56"},"vehicle_type_id":"4","last_reported":1682446109,"current_range_meters":18800,"station_id":"ce4bhap2rcd13ifvqek0","pricing_plan_id":"free"},{"bike_id":"1ef07c69-4e64-4330-9420-285bf746d2cb","system_id":"levelo_inurba_marseille","lat":43.29416,"lon":5.38619,"is_reserved":false,"is_disabled":false,"rental_uris":{"android":"levelo://app?vid=1ef07c69-4e64-4330-9420-285bf746d2cb","ios":"levelo://app?vid=1ef07c69-4e64-4330-9420-285bf746d2cb"},"vehicle_type_id":"4","last_reported":1682446109,"current_range_meters":16400,"station_id":"ce4bh2h2rcd13ifvqdh0","pricing_plan_id":"free"},{"bike_id":"83775bd2-8199-4143-8c25-1deb86338395","system_id":"levelo_inurba_marseille","lat":43.29418,"lon":5.38625,"is_reserved":false,"is_disabled":false,"rental_uris":{"android":"levelo://app?vid=83775bd2-8199-4143-8c25-1deb86338395","ios":"levelo://app?vid=83775bd2-8199-4143-8c25-1deb86338395"},"vehicle_type_id":"4","last_reported":1682446109,"current_range_meters":2000,"station_id":"ce4bh2h2rcd13ifvqdh0","pricing_plan_id":"free"},{"bike_id":"ee5e16ef-22eb-4460-9f06-ae0ab9b07488","system_id":"levelo_inurba_marseille","lat":43.29414,"lon":5.38619,"is_reserved":false,"is_disabled":false,"rental_uris":{"android":"levelo://app?vid=ee5e16ef-22eb-4460-9f06-ae0ab9b07488","ios":"levelo://app?vid=ee5e16ef-22eb-4460-9f06-ae0ab9b07488"},"vehicle_type_id":"4","last_reported":1682446109,"current_range_meters":27600,"station_id":"ce4bh2h2rcd13ifvqdh0","pricing_plan_id":"free"},{"bike_id":"e4de9e20-85f4-4071-95c5-03260d2d9401","system_id":"levelo_inurba_marseille","lat":43.294162,"lon":5.386292,"is_reserved":false,"is_disabled":false,"rental_uris":{"android":"levelo://app?vid=e4de9e20-85f4-4071-95c5-03260d2d9401","ios":"levelo://app?vid=e4de9e20-85f4-4071-95c5-03260d2d9401"},"vehicle_type_id":"4","last_reported":1682446109,"current_range_meters":29600,"station_id":"ce4bh2h2rcd13ifvqdh0","pricing_plan_id":"free"},{"bike_id":"349aedff-0fac-4124-a8a8-24a9bd1bce88","system_id":"levelo_inurba_marseille","lat":43.29419,"lon":5.38629,"is_reserved":false,"is_disabled":false,"rental_uris":{"android":"levelo://app?vid=349aedff-0fac-4124-a8a8-24a9bd1bce88","ios":"levelo://app?vid=349aedff-0fac-4124-a8a8-24a9bd1bce88"},"vehicle_type_id":"4","last_reported":1682446109,"current_range_meters":11600,"station_id":"ce4bh2h2rcd13ifvqdh0","pricing_plan_id":"free"},{"bike_id":"bb7d3a0e-49e0-46b1-aef0-fba821638e2f","system_id":"levelo_inurba_marseille","lat":43.29419,"lon":5.38629,"is_reserved":false,"is_disabled":false,"rental_uris":{"android":"levelo://app?vid=bb7d3a0e-49e0-46b1-aef0-fba821638e2f","ios":"levelo://app?vid=bb7d3a0e-49e0-46b1-aef0-fba821638e2f"},"vehicle_type_id":"4","last_reported":1682446109,"current_range_meters":14400,"station_id":"ce4bh2h2rcd13ifvqdh0","pricing_plan_id":"free"},{"bike_id":"13621606-1b56-45eb-afb7-e071457b8ec5","system_id":"levelo_inurba_marseille","lat":43.29418,"lon":5.38628,"is_reserved":false,"is_disabled":false,"rental_uris":{"android":"levelo://app?vid=13621606-1b56-45eb-afb7-e071457b8ec5","ios":"levelo://app?vid=13621606-1b56-45eb-afb7-e071457b8ec5"},"vehicle_type_id":"4","last_reported":1682446109,"current_range_meters":18800,"station_id":"ce4bh2h2rcd13ifvqdh0","pricing_plan_id":"free"},{"bike_id":"fe0bebab-7660-4927-a09a-0dedbf8b1719","system_id":"levelo_inurba_marseille","lat":43.289184,"lon":5.366408,"is_reserved":false,"is_disabled":false,"rental_uris":{"android":"levelo://app?vid=fe0bebab-7660-4927-a09a-0dedbf8b1719","ios":"levelo://app?vid=fe0bebab-7660-4927-a09a-0dedbf8b1719"},"vehicle_type_id":"4","last_reported":1682446109,"current_range_meters":0,"station_id":"ce4bhap2rcd13ifvqek0","pricing_plan_id":"free"},{"bike_id":"2b5e0a94-35d4-44cb-99c9-74d64f37b05d","system_id":"levelo_inurba_marseille","lat":43.28944,"lon":5.36635,"is_reserved":false,"is_disabled":false,"rental_uris":{"android":"levelo://app?vid=2b5e0a94-35d4-44cb-99c9-74d64f37b05d","ios":"levelo://app?vid=2b5e0a94-35d4-44cb-99c9-74d64f37b05d"},"vehicle_type_id":"4","last_reported":1682446109,"current_range_meters":20000,"station_id":"","pricing_plan_id":"free"},{"bike_id":"5c4d1ca1-a87b-4118-bf17-09242976e694","system_id":"levelo_inurba_marseille","lat":43.29418,"lon":5.38631,"is_reserved":false,"is_disabled":false,"rental_uris":{"android":"levelo://app?vid=5c4d1ca1-a87b-4118-bf17-09242976e694","ios":"levelo://app?vid=5c4d1ca1-a87b-4118-bf17-09242976e694"},"vehicle_type_id":"4","last_reported":1682446109,"current_range_meters":10800,"station_id":"ce4bh2h2rcd13ifvqdh0","pricing_plan_id":"free"},{"bike_id":"667a3e79-75ab-446d-852c-d01af645b747","system_id":"levelo_inurba_marseille","lat":43.29415,"lon":5.38626,"is_reserved":false,"is_disabled":false,"rental_uris":{"android":"levelo://app?vid=667a3e79-75ab-446d-852c-d01af645b747","ios":"levelo://app?vid=667a3e79-75ab-446d-852c-d01af645b747"},"vehicle_type_id":"4","last_reported":1682446109,"current_range_meters":0,"station_id":"ce4bh2h2rcd13ifvqdh0","pricing_plan_id":"free"},{"bike_id":"a18929f9-2f58-4e76-8097-fc2b7629f148","system_id":"levelo_inurba_marseille","lat":43.289184,"lon":5.366408,"is_reserved":false,"is_disabled":false,"rental_uris":{"android":"levelo://app?vid=a18929f9-2f58-4e76-8097-fc2b7629f148","ios":"levelo://app?vid=a18929f9-2f58-4e76-8097-fc2b7629f148"},"vehicle_type_id":"4","last_reported":1682446109,"current_range_meters":5200,"station_id":"ce4bhap2rcd13ifvqek0","pricing_plan_id":"free"},{"bike_id":"c16e6cda-d183-4d13-94e4-de62d604df95","system_id":"levelo_inurba_marseille","lat":43.289184,"lon":5.366408,"is_reserved":false,"is_disabled":false,"rental_uris":{"android":"levelo://app?vid=c16e6cda-d183-4d13-94e4-de62d604df95","ios":"levelo://app?vid=c16e6cda-d183-4d13-94e4-de62d604df95"},"vehicle_type_id":"4","last_reported":1682446109,"current_range_meters":20400,"station_id":"ce4bhap2rcd13ifvqek0","pricing_plan_id":"free"},{"bike_id":"aa27a214-c949-4ae3-9620-4767abe1b3d7","system_id":"levelo_inurba_marseille","lat":43.294116,"lon":5.386235,"is_reserved":false,"is_disabled":false,"rental_uris":{"android":"levelo://app?vid=aa27a214-c949-4ae3-9620-4767abe1b3d7","ios":"levelo://app?vid=aa27a214-c949-4ae3-9620-4767abe1b3d7"},"vehicle_type_id":"4","last_reported":1682446109,"current_range_meters":23200,"station_id":"ce4bh2h2rcd13ifvqdh0","pricing_plan_id":"free"},{"bike_id":"21253a6c-dbce-4abf-a26a-b39219356d46","system_id":"levelo_inurba_marseille","lat":43.29411,"lon":5.38623,"is_reserved":false,"is_disabled":false,"rental_uris":{"android":"levelo://app?vid=21253a6c-dbce-4abf-a26a-b39219356d46","ios":"levelo://app?vid=21253a6c-dbce-4abf-a26a-b39219356d46"},"vehicle_type_id":"4","last_reported":1682446109,"current_range_meters":5200,"station_id":"ce4bh2h2rcd13ifvqdh0","pricing_plan_id":"free"},{"bike_id":"0a64d8e9-f2bc-4990-8175-600b53671877","system_id":"levelo_inurba_marseille","lat":43.289184,"lon":5.366408,"is_reserved":false,"is_disabled":false,"rental_uris":{"android":"levelo://app?vid=0a64d8e9-f2bc-4990-8175-600b53671877","ios":"levelo://app?vid=0a64d8e9-f2bc-4990-8175-600b53671877"},"vehicle_type_id":"4","last_reported":1682446109,"current_range_meters":11600,"station_id":"ce4bhap2rcd13ifvqek0","pricing_plan_id":"free"},{"bike_id":"2b46042d-e25b-40c0-b5b4-79b786f79941","system_id":"levelo_inurba_marseille","lat":43.289184,"lon":5.366408,"is_reserved":false,"is_disabled":false,"rental_uris":{"android":"levelo://app?vid=2b46042d-e25b-40c0-b5b4-79b786f79941","ios":"levelo://app?vid=2b46042d-e25b-40c0-b5b4-79b786f79941"},"vehicle_type_id":"4","last_reported":1682446109,"current_range_meters":29600,"station_id":"ce4bhap2rcd13ifvqek0","pricing_plan_id":"free"},{"bike_id":"3b813227-bbbf-4a0e-8f6c-377308d5694f","system_id":"levelo_inurba_marseille","lat":43.294113,"lon":5.386239,"is_reserved":false,"is_disabled":false,"rental_uris":{"android":"levelo://app?vid=3b813227-bbbf-4a0e-8f6c-377308d5694f","ios":"levelo://app?vid=3b813227-bbbf-4a0e-8f6c-377308d5694f"},"vehicle_type_id":"4","last_reported":1682446109,"current_range_meters":26000,"station_id":"ce4bh2h2rcd13ifvqdh0","pricing_plan_id":"free"},{"bike_id":"0bf51401-408f-49a0-a780-ed3d1e9ce62f","system_id":"levelo_inurba_marseille","lat":43.289184,"lon":5.366408,"is_reserved":false,"is_disabled":false,"rental_uris":{"android":"levelo://app?vid=0bf51401-408f-49a0-a780-ed3d1e9ce62f","ios":"levelo://app?vid=0bf51401-408f-49a0-a780-ed3d1e9ce62f"},"vehicle_type_id":"4","last_reported":1682446109,"current_range_meters":2000,"station_id":"ce4bhap2rcd13ifvqek0","pricing_plan_id":"free"},{"bike_id":"be7dfd9a-5fe2-46a7-8be7-35e11fb620ae","system_id":"levelo_inurba_marseille","lat":43.289184,"lon":5.366408,"is_reserved":false,"is_disabled":false,"rental_uris":{"android":"levelo://app?vid=be7dfd9a-5fe2-46a7-8be7-35e11fb620ae","ios":"levelo://app?vid=be7dfd9a-5fe2-46a7-8be7-35e11fb620ae"},"vehicle_type_id":"4","last_reported":1682446109,"current_range_meters":20400,"station_id":"ce4bhap2rcd13ifvqek0","pricing_plan_id":"free"},{"bike_id":"fc3b02fe-e9d8-47ae-a5a0-4fe439e5b973","system_id":"levelo_inurba_marseille","lat":43.289184,"lon":5.366408,"is_reserved":false,"is_disabled":false,"rental_uris":{"android":"levelo://app?vid=fc3b02fe-e9d8-47ae-a5a0-4fe439e5b973","ios":"levelo://app?vid=fc3b02fe-e9d8-47ae-a5a0-4fe439e5b973"},"vehicle_type_id":"4","last_reported":1682446109,"current_range_meters":2000,"station_id":"ce4bhap2rcd13ifvqek0","pricing_plan_id":"free"},{"bike_id":"cf02947e-72e6-4d9b-94b3-7a2e9ffaafd9","system_id":"levelo_inurba_marseille","lat":43.289184,"lon":5.366408,"is_reserved":false,"is_disabled":false,"rental_uris":{"android":"levelo://app?vid=cf02947e-72e6-4d9b-94b3-7a2e9ffaafd9","ios":"levelo://app?vid=cf02947e-72e6-4d9b-94b3-7a2e9ffaafd9"},"vehicle_type_id":"4","last_reported":1682446109,"current_range_meters":15200,"station_id":"ce4bhap2rcd13ifvqek0","pricing_plan_id":"free"},{"bike_id":"6a984957-6d86-4403-b1d6-5d0aa0ccd093","system_id":"levelo_inurba_marseille","lat":43.289184,"lon":5.366408,"is_reserved":false,"is_disabled":false,"rental_uris":{"android":"levelo://app?vid=6a984957-6d86-4403-b1d6-5d0aa0ccd093","ios":"levelo://app?vid=6a984957-6d86-4403-b1d6-5d0aa0ccd093"},"vehicle_type_id":"4","last_reported":1682446109,"current_range_meters":18800,"station_id":"ce4bhap2rcd13ifvqek0","pricing_plan_id":"free"},{"bike_id":"09e8cc11-c560-445a-b617-f687185ffa35","system_id":"levelo_inurba_marseille","lat":43.289184,"lon":5.366408,"is_reserved":false,"is_disabled":false,"rental_uris":{"android":"levelo://app?vid=09e8cc11-c560-445a-b617-f687185ffa35","ios":"levelo://app?vid=09e8cc11-c560-445a-b617-f687185ffa35"},"vehicle_type_id":"4","last_reported":1682446109,"current_range_meters":21600,"station_id":"ce4bhap2rcd13ifvqek0","pricing_plan_id":"free"},{"bike_id":"0aa18e00-a56e-4bbb-89ff-1ba46ec94d3e","system_id":"levelo_inurba_marseille","lat":43.289184,"lon":5.366408,"is_reserved":false,"is_disabled":false,"rental_uris":{"android":"levelo://app?vid=0aa18e00-a56e-4bbb-89ff-1ba46ec94d3e","ios":"levelo://app?vid=0aa18e00-a56e-4bbb-89ff-1ba46ec94d3e"},"vehicle_type_id":"4","last_reported":1682446109,"current_range_meters":16000,"station_id":"ce4bhap2rcd13ifvqek0","pricing_plan_id":"free"},{"bike_id":"dd69ac79-b45c-4472-9e99-ef29c27f4106","system_id":"levelo_inurba_marseille","lat":43.28942,"lon":5.36375,"is_reserved":false,"is_disabled":false,"rental_uris":{"android":"levelo://app?vid=dd69ac79-b45c-4472-9e99-ef29c27f4106","ios":"levelo://app?vid=dd69ac79-b45c-4472-9e99-ef29c27f4106"},"vehicle_type_id":"4","last_reported":1682446109,"current_range_meters":31200,"station_id":"ce4bhc92rcd13ifvqetg","pricing_plan_id":"free"},{"bike_id":"594d8d66-8ba9-4119-b62e-12fefa4e51bd","system_id":"levelo_inurba_marseille","lat":43.289468,"lon":5.363719,"is_reserved":false,"is_disabled":false,"rental_uris":{"android":"levelo://app?vid=594d8d66-8ba9-4119-b62e-12fefa4e51bd","ios":"levelo://app?vid=594d8d66-8ba9-4119-b62e-12fefa4e51bd"},"vehicle_type_id":"4","last_reported":1682446109,"current_range_meters":7200,"station_id":"ce4bhc92rcd13ifvqetg","pricing_plan_id":"free"},{"bike_id":"bebcf26f-47eb-4668-a58b-22884ce50838","system_id":"levelo_inurba_marseille","lat":43.289184,"lon":5.366408,"is_reserved":false,"is_disabled":false,"rental_uris":{"android":"levelo://app?vid=bebcf26f-47eb-4668-a58b-22884ce50838","ios":"levelo://app?vid=bebcf26f-47eb-4668-a58b-22884ce50838"},"vehicle_type_id":"4","last_reported":1682446109,"current_range_meters":31200,"station_id":"ce4bhap2rcd13ifvqek0","pricing_plan_id":"free"},{"bike_id":"61be44fe-c7ae-4d24-9e3a-ea4cb7af7126","system_id":"levelo_inurba_marseille","lat":43.28938,"lon":5.36373,"is_reserved":false,"is_disabled":false,"rental_uris":{"android":"levelo://app?vid=61be44fe-c7ae-4d24-9e3a-ea4cb7af7126","ios":"levelo://app?vid=61be44fe-c7ae-4d24-9e3a-ea4cb7af7126"},"vehicle_type_id":"4","last_reported":1682446109,"current_range_meters":31200,"station_id":"","pricing_plan_id":"free"},{"bike_id":"4d2c66e7-6909-4692-87bf-b6a9d5a2643c","system_id":"levelo_inurba_marseille","lat":43.28937,"lon":5.3637,"is_reserved":false,"is_disabled":false,"rental_uris":{"android":"levelo://app?vid=4d2c66e7-6909-4692-87bf-b6a9d5a2643c","ios":"levelo://app?vid=4d2c66e7-6909-4692-87bf-b6a9d5a2643c"},"vehicle_type_id":"4","last_reported":1682446109,"current_range_meters":14400,"station_id":"ce4bhc92rcd13ifvqetg","pricing_plan_id":"free"},{"bike_id":"a4cb4741-50cf-46b1-8473-d73062689588","system_id":"levelo_inurba_marseille","lat":43.289468,"lon":5.363719,"is_reserved":false,"is_disabled":false,"rental_uris":{"android":"levelo://app?vid=a4cb4741-50cf-46b1-8473-d73062689588","ios":"levelo://app?vid=a4cb4741-50cf-46b1-8473-d73062689588"},"vehicle_type_id":"4","last_reported":1682446109,"current_range_meters":6400,"station_id":"ce4bhc92rcd13ifvqetg","pricing_plan_id":"free"},{"bike_id":"5014b783-c98f-4c12-a5f4-204dbe092285","system_id":"levelo_inurba_marseille","lat":43.292644,"lon":5.384257,"is_reserved":false,"is_disabled":false,"rental_uris":{"android":"levelo://app?vid=5014b783-c98f-4c12-a5f4-204dbe092285","ios":"levelo://app?vid=5014b783-c98f-4c12-a5f4-204dbe092285"},"vehicle_type_id":"4","last_reported":1682446109,"current_range_meters":28400,"station_id":"ce4bh692rcd13ifvqea0","pricing_plan_id":"free"},{"bike_id":"cb10b295-110f-4353-96ec-63a84d03440c","system_id":"levelo_inurba_marseille","lat":43.2927,"lon":5.38436,"is_reserved":false,"is_disabled":false,"rental_uris":{"android":"levelo://app?vid=cb10b295-110f-4353-96ec-63a84d03440c","ios":"levelo://app?vid=cb10b295-110f-4353-96ec-63a84d03440c"},"vehicle_type_id":"4","last_reported":1682446109,"current_range_meters":14800,"station_id":"ce4bh692rcd13ifvqea0","pricing_plan_id":"free"},{"bike_id":"4371567c-11b4-4631-ad7c-9f9b6691ddca","system_id":"levelo_inurba_marseille","lat":43.292644,"lon":5.384257,"is_reserved":false,"is_disabled":false,"rental_uris":{"android":"levelo://app?vid=4371567c-11b4-4631-ad7c-9f9b6691ddca","ios":"levelo://app?vid=4371567c-11b4-4631-ad7c-9f9b6691ddca"},"vehicle_type_id":"4","last_reported":1682446109,"current_range_meters":13600,"station_id":"ce4bh692rcd13ifvqea0","pricing_plan_id":"free"},{"bike_id":"a2bb9519-00f4-48f5-8396-8a705188b104","system_id":"levelo_inurba_marseille","lat":43.29258,"lon":5.38434,"is_reserved":false,"is_disabled":false,"rental_uris":{"android":"levelo://app?vid=a2bb9519-00f4-48f5-8396-8a705188b104","ios":"levelo://app?vid=a2bb9519-00f4-48f5-8396-8a705188b104"},"vehicle_type_id":"4","last_reported":1682446109,"current_range_meters":0,"station_id":"ce4bh692rcd13ifvqea0","pricing_plan_id":"free"},{"bike_id":"7d961818-0f59-4f85-949e-3686283a23f0","system_id":"levelo_inurba_marseille","lat":43.290104,"lon":5.356111,"is_reserved":false,"is_disabled":false,"rental_uris":{"android":"levelo://app?vid=7d961818-0f59-4f85-949e-3686283a23f0","ios":"levelo://app?vid=7d961818-0f59-4f85-949e-3686283a23f0"},"vehicle_type_id":"4","last_reported":1682446109,"current_range_meters":4800,"station_id":"ce4bhb92rcd13ifvqen0","pricing_plan_id":"free"},{"bike_id":"0101ec61-8f4e-4093-9652-f6e59c332dda","system_id":"levelo_inurba_marseille","lat":43.290104,"lon":5.356111,"is_reserved":false,"is_disabled":false,"rental_uris":{"android":"levelo://app?vid=0101ec61-8f4e-4093-9652-f6e59c332dda","ios":"levelo://app?vid=0101ec61-8f4e-4093-9652-f6e59c332dda"},"vehicle_type_id":"4","last_reported":1682446109,"current_range_meters":19600,"station_id":"ce4bhb92rcd13ifvqen0","pricing_plan_id":"free"},{"bike_id":"bc6de142-8c07-4bbc-a37d-72437afc0a47","system_id":"levelo_inurba_marseille","lat":43.33043,"lon":5.38913,"is_reserved":false,"is_disabled":false,"rental_uris":{"android":"levelo://app?vid=bc6de142-8c07-4bbc-a37d-72437afc0a47","ios":"levelo://app?vid=bc6de142-8c07-4bbc-a37d-72437afc0a47"},"vehicle_type_id":"4","last_reported":1682446109,"current_range_meters":20000,"station_id":"ce4bhr92rcd13ifvqhrg","pricing_plan_id":"free"},{"bike_id":"e9366c90-dd9a-4814-84be-ec46dc025363","system_id":"levelo_inurba_marseille","lat":43.33043,"lon":5.38915,"is_reserved":false,"is_disabled":false,"rental_uris":{"android":"levelo://app?vid=e9366c90-dd9a-4814-84be-ec46dc025363","ios":"levelo://app?vid=e9366c90-dd9a-4814-84be-ec46dc025363"},"vehicle_type_id":"4","last_reported":1682446109,"current_range_meters":29200,"station_id":"ce4bhr92rcd13ifvqhrg","pricing_plan_id":"free"},{"bike_id":"988f1675-61d8-4786-98b9-7d0703c5df9b","system_id":"levelo_inurba_marseille","lat":43.290104,"lon":5.356111,"is_reserved":false,"is_disabled":false,"rental_uris":{"android":"levelo://app?vid=988f1675-61d8-4786-98b9-7d0703c5df9b","ios":"levelo://app?vid=988f1675-61d8-4786-98b9-7d0703c5df9b"},"vehicle_type_id":"4","last_reported":1682446109,"current_range_meters":12800,"station_id":"ce4bhb92rcd13ifvqen0","pricing_plan_id":"free"},{"bike_id":"401babb9-d704-4401-9cb3-46c96cbb7da4","system_id":"levelo_inurba_marseille","lat":43.33042,"lon":5.38917,"is_reserved":false,"is_disabled":false,"rental_uris":{"android":"levelo://app?vid=401babb9-d704-4401-9cb3-46c96cbb7da4","ios":"levelo://app?vid=401babb9-d704-4401-9cb3-46c96cbb7da4"},"vehicle_type_id":"4","last_reported":1682446109,"current_range_meters":29200,"station_id":"ce4bhr92rcd13ifvqhrg","pricing_plan_id":"free"},{"bike_id":"a3181926-b219-42cc-9d8d-675c59eeb13a","system_id":"levelo_inurba_marseille","lat":43.33042,"lon":5.38918,"is_reserved":false,"is_disabled":false,"rental_uris":{"android":"levelo://app?vid=a3181926-b219-42cc-9d8d-675c59eeb13a","ios":"levelo://app?vid=a3181926-b219-42cc-9d8d-675c59eeb13a"},"vehicle_type_id":"4","last_reported":1682446109,"current_range_meters":24000,"station_id":"ce4bhr92rcd13ifvqhrg","pricing_plan_id":"free"},{"bike_id":"4bbc2b50-c3e0-4087-a354-589abb050b5b","system_id":"levelo_inurba_marseille","lat":43.33046,"lon":5.38913,"is_reserved":false,"is_disabled":false,"rental_uris":{"android":"levelo://app?vid=4bbc2b50-c3e0-4087-a354-589abb050b5b","ios":"levelo://app?vid=4bbc2b50-c3e0-4087-a354-589abb050b5b"},"vehicle_type_id":"4","last_reported":1682446109,"current_range_meters":18400,"station_id":"ce4bhr92rcd13ifvqhrg","pricing_plan_id":"free"},{"bike_id":"4099b1e7-9964-41b0-8476-034c422a98fe","system_id":"levelo_inurba_marseille","lat":43.33045,"lon":5.38915,"is_reserved":false,"is_disabled":false,"rental_uris":{"android":"levelo://app?vid=4099b1e7-9964-41b0-8476-034c422a98fe","ios":"levelo://app?vid=4099b1e7-9964-41b0-8476-034c422a98fe"},"vehicle_type_id":"4","last_reported":1682446109,"current_range_meters":18800,"station_id":"ce4bhr92rcd13ifvqhrg","pricing_plan_id":"free"},{"bike_id":"96e0c979-ae8a-4a51-bdb6-78a3eefd1d2f","system_id":"levelo_inurba_marseille","lat":43.290104,"lon":5.356111,"is_reserved":false,"is_disabled":false,"rental_uris":{"android":"levelo://app?vid=96e0c979-ae8a-4a51-bdb6-78a3eefd1d2f","ios":"levelo://app?vid=96e0c979-ae8a-4a51-bdb6-78a3eefd1d2f"},"vehicle_type_id":"4","last_reported":1682446109,"current_range_meters":3200,"station_id":"ce4bhb92rcd13ifvqen0","pricing_plan_id":"free"},{"bike_id":"4d2fb4ad-736b-40ff-a5d0-e8973f1b7624","system_id":"levelo_inurba_marseille","lat":43.33044,"lon":5.38918,"is_reserved":false,"is_disabled":false,"rental_uris":{"android":"levelo://app?vid=4d2fb4ad-736b-40ff-a5d0-e8973f1b7624","ios":"levelo://app?vid=4d2fb4ad-736b-40ff-a5d0-e8973f1b7624"},"vehicle_type_id":"4","last_reported":1682446109,"current_range_meters":19600,"station_id":"ce4bhr92rcd13ifvqhrg","pricing_plan_id":"free"},{"bike_id":"60da44f6-b524-4cd4-a776-e4dbb38248f8","system_id":"levelo_inurba_marseille","lat":43.33045,"lon":5.38917,"is_reserved":false,"is_disabled":false,"rental_uris":{"android":"levelo://app?vid=60da44f6-b524-4cd4-a776-e4dbb38248f8","ios":"levelo://app?vid=60da44f6-b524-4cd4-a776-e4dbb38248f8"},"vehicle_type_id":"4","last_reported":1682446109,"current_range_meters":29600,"station_id":"ce4bhr92rcd13ifvqhrg","pricing_plan_id":"free"},{"bike_id":"13337b9a-286d-40ab-ad5c-6640cb331620","system_id":"levelo_inurba_marseille","lat":43.33045,"lon":5.38917,"is_reserved":false,"is_disabled":false,"rental_uris":{"android":"levelo://app?vid=13337b9a-286d-40ab-ad5c-6640cb331620","ios":"levelo://app?vid=13337b9a-286d-40ab-ad5c-6640cb331620"},"vehicle_type_id":"4","last_reported":1682446109,"current_range_meters":27200,"station_id":"ce4bhr92rcd13ifvqhrg","pricing_plan_id":"free"},{"bike_id":"a1a218a3-67a1-4c51-9cc9-3e2af3096307","system_id":"levelo_inurba_marseille","lat":43.33047,"lon":5.38914,"is_reserved":false,"is_disabled":false,"rental_uris":{"android":"levelo://app?vid=a1a218a3-67a1-4c51-9cc9-3e2af3096307","ios":"levelo://app?vid=a1a218a3-67a1-4c51-9cc9-3e2af3096307"},"vehicle_type_id":"4","last_reported":1682446109,"current_range_meters":19600,"station_id":"ce4bhr92rcd13ifvqhrg","pricing_plan_id":"free"},{"bike_id":"21e4a3ca-8f0d-4ba4-97f1-2aeb6db4698c","system_id":"levelo_inurba_marseille","lat":43.33043,"lon":5.38921,"is_reserved":false,"is_disabled":false,"rental_uris":{"android":"levelo://app?vid=21e4a3ca-8f0d-4ba4-97f1-2aeb6db4698c","ios":"levelo://app?vid=21e4a3ca-8f0d-4ba4-97f1-2aeb6db4698c"},"vehicle_type_id":"4","last_reported":1682446109,"current_range_meters":28400,"station_id":"ce4bhr92rcd13ifvqhrg","pricing_plan_id":"free"},{"bike_id":"c639fbef-2d10-49fc-93ba-80fa5d087f27","system_id":"levelo_inurba_marseille","lat":43.290104,"lon":5.356111,"is_reserved":false,"is_disabled":false,"rental_uris":{"android":"levelo://app?vid=c639fbef-2d10-49fc-93ba-80fa5d087f27","ios":"levelo://app?vid=c639fbef-2d10-49fc-93ba-80fa5d087f27"},"vehicle_type_id":"4","last_reported":1682446109,"current_range_meters":2000,"station_id":"ce4bhb92rcd13ifvqen0","pricing_plan_id":"free"},{"bike_id":"5a7a3942-c6fb-43cb-a6b6-5b8f5c21fbf1","system_id":"levelo_inurba_marseille","lat":43.289966,"lon":5.35605,"is_reserved":false,"is_disabled":false,"rental_uris":{"android":"levelo://app?vid=5a7a3942-c6fb-43cb-a6b6-5b8f5c21fbf1","ios":"levelo://app?vid=5a7a3942-c6fb-43cb-a6b6-5b8f5c21fbf1"},"vehicle_type_id":"4","last_reported":1682446109,"current_range_meters":20400,"station_id":"","pricing_plan_id":"free"},{"bike_id":"effc6fe9-5166-46b2-a64a-0744c8c86e4b","system_id":"levelo_inurba_marseille","lat":43.290995,"lon":5.381361,"is_reserved":false,"is_disabled":false,"rental_uris":{"android":"levelo://app?vid=effc6fe9-5166-46b2-a64a-0744c8c86e4b","ios":"levelo://app?vid=effc6fe9-5166-46b2-a64a-0744c8c86e4b"},"vehicle_type_id":"4","last_reported":1682446109,"current_range_meters":6400,"station_id":"ce4bh512rcd13ifvqe2g","pricing_plan_id":"free"},{"bike_id":"6bd2deb7-ecf9-40db-821a-aa821d77cfd3","system_id":"levelo_inurba_marseille","lat":43.295169,"lon":5.390426,"is_reserved":false,"is_disabled":false,"rental_uris":{"android":"levelo://app?vid=6bd2deb7-ecf9-40db-821a-aa821d77cfd3","ios":"levelo://app?vid=6bd2deb7-ecf9-40db-821a-aa821d77cfd3"},"vehicle_type_id":"4","last_reported":1682446109,"current_range_meters":8000,"station_id":"ce4bh3p2rcd13ifvqdp0","pricing_plan_id":"free"},{"bike_id":"fbf373f5-8679-43d9-a8cd-8b193cef9a06","system_id":"levelo_inurba_marseille","lat":43.29523,"lon":5.39028,"is_reserved":false,"is_disabled":false,"rental_uris":{"android":"levelo://app?vid=fbf373f5-8679-43d9-a8cd-8b193cef9a06","ios":"levelo://app?vid=fbf373f5-8679-43d9-a8cd-8b193cef9a06"},"vehicle_type_id":"4","last_reported":1682446109,"current_range_meters":25600,"station_id":"ce4bh3p2rcd13ifvqdp0","pricing_plan_id":"free"},{"bike_id":"050d8491-d007-4557-a7ad-25d36cd74666","system_id":"levelo_inurba_marseille","lat":43.295169,"lon":5.390426,"is_reserved":false,"is_disabled":false,"rental_uris":{"android":"levelo://app?vid=050d8491-d007-4557-a7ad-25d36cd74666","ios":"levelo://app?vid=050d8491-d007-4557-a7ad-25d36cd74666"},"vehicle_type_id":"4","last_reported":1682446109,"current_range_meters":5200,"station_id":"ce4bh3p2rcd13ifvqdp0","pricing_plan_id":"free"},{"bike_id":"e036f217-f049-4ae1-a11b-390e4993b855","system_id":"levelo_inurba_marseille","lat":43.31144,"lon":5.40095,"is_reserved":false,"is_disabled":false,"rental_uris":{"android":"levelo://app?vid=e036f217-f049-4ae1-a11b-390e4993b855","ios":"levelo://app?vid=e036f217-f049-4ae1-a11b-390e4993b855"},"vehicle_type_id":"4","last_reported":1682446109,"current_range_meters":2000,"station_id":"ce4bhqh2rcd13ifvqhmg","pricing_plan_id":"free"},{"bike_id":"d1ed8974-ae5c-4bb2-a11e-c1e9503235b7","system_id":"levelo_inurba_marseille","lat":43.28856,"lon":5.358371,"is_reserved":false,"is_disabled":false,"rental_uris":{"android":"levelo://app?vid=d1ed8974-ae5c-4bb2-a11e-c1e9503235b7","ios":"levelo://app?vid=d1ed8974-ae5c-4bb2-a11e-c1e9503235b7"},"vehicle_type_id":"4","last_reported":1682446109,"current_range_meters":0,"station_id":"ce4bhb12rcd13ifvqem0","pricing_plan_id":"free"},{"bike_id":"7c8a3453-30d6-4180-89a9-2a0476045dd0","system_id":"levelo_inurba_marseille","lat":43.28856,"lon":5.358371,"is_reserved":false,"is_disabled":false,"rental_uris":{"android":"levelo://app?vid=7c8a3453-30d6-4180-89a9-2a0476045dd0","ios":"levelo://app?vid=7c8a3453-30d6-4180-89a9-2a0476045dd0"},"vehicle_type_id":"4","last_reported":1682446109,"current_range_meters":31200,"station_id":"ce4bhb12rcd13ifvqem0","pricing_plan_id":"free"},{"bike_id":"6e8d80b0-dc88-4b97-afb3-88cb048c323e","system_id":"levelo_inurba_marseille","lat":43.28856,"lon":5.358371,"is_reserved":false,"is_disabled":false,"rental_uris":{"android":"levelo://app?vid=6e8d80b0-dc88-4b97-afb3-88cb048c323e","ios":"levelo://app?vid=6e8d80b0-dc88-4b97-afb3-88cb048c323e"},"vehicle_type_id":"4","last_reported":1682446109,"current_range_meters":11200,"station_id":"ce4bhb12rcd13ifvqem0","pricing_plan_id":"free"},{"bike_id":"dabb8d3d-6869-4358-86b5-78c8ffd9fb2c","system_id":"levelo_inurba_marseille","lat":43.28856,"lon":5.358371,"is_reserved":false,"is_disabled":false,"rental_uris":{"android":"levelo://app?vid=dabb8d3d-6869-4358-86b5-78c8ffd9fb2c","ios":"levelo://app?vid=dabb8d3d-6869-4358-86b5-78c8ffd9fb2c"},"vehicle_type_id":"4","last_reported":1682446109,"current_range_meters":31600,"station_id":"ce4bhb12rcd13ifvqem0","pricing_plan_id":"free"},{"bike_id":"9f4a5a4a-9e94-44c0-aeb3-bd281e9b75a8","system_id":"levelo_inurba_marseille","lat":43.28856,"lon":5.358371,"is_reserved":false,"is_disabled":false,"rental_uris":{"android":"levelo://app?vid=9f4a5a4a-9e94-44c0-aeb3-bd281e9b75a8","ios":"levelo://app?vid=9f4a5a4a-9e94-44c0-aeb3-bd281e9b75a8"},"vehicle_type_id":"4","last_reported":1682446109,"current_range_meters":29600,"station_id":"ce4bhb12rcd13ifvqem0","pricing_plan_id":"free"},{"bike_id":"7dc0f8b4-50d2-4f30-8651-30f4d7b1ff9a","system_id":"levelo_inurba_marseille","lat":43.28856,"lon":5.358371,"is_reserved":false,"is_disabled":false,"rental_uris":{"android":"levelo://app?vid=7dc0f8b4-50d2-4f30-8651-30f4d7b1ff9a","ios":"levelo://app?vid=7dc0f8b4-50d2-4f30-8651-30f4d7b1ff9a"},"vehicle_type_id":"4","last_reported":1682446109,"current_range_meters":31200,"station_id":"ce4bhb12rcd13ifvqem0","pricing_plan_id":"free"},{"bike_id":"4a13871d-0020-4bdb-ad94-82c60d8fa4bf","system_id":"levelo_inurba_marseille","lat":43.28856,"lon":5.358371,"is_reserved":false,"is_disabled":false,"rental_uris":{"android":"levelo://app?vid=4a13871d-0020-4bdb-ad94-82c60d8fa4bf","ios":"levelo://app?vid=4a13871d-0020-4bdb-ad94-82c60d8fa4bf"},"vehicle_type_id":"4","last_reported":1682446109,"current_range_meters":12000,"station_id":"ce4bhb12rcd13ifvqem0","pricing_plan_id":"free"},{"bike_id":"b408a909-1bac-4047-82cc-ea4d4be43e14","system_id":"levelo_inurba_marseille","lat":43.28856,"lon":5.358371,"is_reserved":false,"is_disabled":false,"rental_uris":{"android":"levelo://app?vid=b408a909-1bac-4047-82cc-ea4d4be43e14","ios":"levelo://app?vid=b408a909-1bac-4047-82cc-ea4d4be43e14"},"vehicle_type_id":"4","last_reported":1682446109,"current_range_meters":17200,"station_id":"ce4bhb12rcd13ifvqem0","pricing_plan_id":"free"},{"bike_id":"c38470a7-25e3-4482-bafd-18edef6352df","system_id":"levelo_inurba_marseille","lat":43.28856,"lon":5.358371,"is_reserved":false,"is_disabled":false,"rental_uris":{"android":"levelo://app?vid=c38470a7-25e3-4482-bafd-18edef6352df","ios":"levelo://app?vid=c38470a7-25e3-4482-bafd-18edef6352df"},"vehicle_type_id":"4","last_reported":1682446109,"current_range_meters":31200,"station_id":"ce4bhb12rcd13ifvqem0","pricing_plan_id":"free"},{"bike_id":"e2e8a149-01d8-4bbd-82e0-a9e3d0f16631","system_id":"levelo_inurba_marseille","lat":43.28856,"lon":5.358371,"is_reserved":false,"is_disabled":false,"rental_uris":{"android":"levelo://app?vid=e2e8a149-01d8-4bbd-82e0-a9e3d0f16631","ios":"levelo://app?vid=e2e8a149-01d8-4bbd-82e0-a9e3d0f16631"},"vehicle_type_id":"4","last_reported":1682446109,"current_range_meters":3600,"station_id":"ce4bhb12rcd13ifvqem0","pricing_plan_id":"free"},{"bike_id":"190eddb7-1444-45e4-8edc-e542ca682654","system_id":"levelo_inurba_marseille","lat":43.28856,"lon":5.358371,"is_reserved":false,"is_disabled":false,"rental_uris":{"android":"levelo://app?vid=190eddb7-1444-45e4-8edc-e542ca682654","ios":"levelo://app?vid=190eddb7-1444-45e4-8edc-e542ca682654"},"vehicle_type_id":"4","last_reported":1682446109,"current_range_meters":31600,"station_id":"ce4bhb12rcd13ifvqem0","pricing_plan_id":"free"},{"bike_id":"2c90d4cb-9714-4b14-949d-16aa7e6aa7b3","system_id":"levelo_inurba_marseille","lat":43.28856,"lon":5.358371,"is_reserved":false,"is_disabled":false,"rental_uris":{"android":"levelo://app?vid=2c90d4cb-9714-4b14-949d-16aa7e6aa7b3","ios":"levelo://app?vid=2c90d4cb-9714-4b14-949d-16aa7e6aa7b3"},"vehicle_type_id":"4","last_reported":1682446109,"current_range_meters":31200,"station_id":"ce4bhb12rcd13ifvqem0","pricing_plan_id":"free"},{"bike_id":"90f51649-0d58-4dcd-93ea-51cc1cda8ed0","system_id":"levelo_inurba_marseille","lat":43.28856,"lon":5.358371,"is_reserved":false,"is_disabled":false,"rental_uris":{"android":"levelo://app?vid=90f51649-0d58-4dcd-93ea-51cc1cda8ed0","ios":"levelo://app?vid=90f51649-0d58-4dcd-93ea-51cc1cda8ed0"},"vehicle_type_id":"4","last_reported":1682446109,"current_range_meters":25200,"station_id":"ce4bhb12rcd13ifvqem0","pricing_plan_id":"free"},{"bike_id":"2fe5ed8d-1382-4e8d-8a2f-b71c6cc855f9","system_id":"levelo_inurba_marseille","lat":43.28856,"lon":5.358371,"is_reserved":false,"is_disabled":false,"rental_uris":{"android":"levelo://app?vid=2fe5ed8d-1382-4e8d-8a2f-b71c6cc855f9","ios":"levelo://app?vid=2fe5ed8d-1382-4e8d-8a2f-b71c6cc855f9"},"vehicle_type_id":"4","last_reported":1682446109,"current_range_meters":16800,"station_id":"ce4bhb12rcd13ifvqem0","pricing_plan_id":"free"},{"bike_id":"452013ff-f390-417c-bec6-7e3eb107b98e","system_id":"levelo_inurba_marseille","lat":43.28856,"lon":5.358371,"is_reserved":false,"is_disabled":false,"rental_uris":{"android":"levelo://app?vid=452013ff-f390-417c-bec6-7e3eb107b98e","ios":"levelo://app?vid=452013ff-f390-417c-bec6-7e3eb107b98e"},"vehicle_type_id":"4","last_reported":1682446109,"current_range_meters":24800,"station_id":"ce4bhb12rcd13ifvqem0","pricing_plan_id":"free"},{"bike_id":"9bb40cbd-3915-433c-a672-abc57139d0e5","system_id":"levelo_inurba_marseille","lat":43.28856,"lon":5.358371,"is_reserved":false,"is_disabled":false,"rental_uris":{"android":"levelo://app?vid=9bb40cbd-3915-433c-a672-abc57139d0e5","ios":"levelo://app?vid=9bb40cbd-3915-433c-a672-abc57139d0e5"},"vehicle_type_id":"4","last_reported":1682446109,"current_range_meters":25600,"station_id":"ce4bhb12rcd13ifvqem0","pricing_plan_id":"free"},{"bike_id":"af839212-ad33-430b-8f56-2856d2605748","system_id":"levelo_inurba_marseille","lat":43.28856,"lon":5.358371,"is_reserved":false,"is_disabled":false,"rental_uris":{"android":"levelo://app?vid=af839212-ad33-430b-8f56-2856d2605748","ios":"levelo://app?vid=af839212-ad33-430b-8f56-2856d2605748"},"vehicle_type_id":"4","last_reported":1682446109,"current_range_meters":15600,"station_id":"ce4bhb12rcd13ifvqem0","pricing_plan_id":"free"},{"bike_id":"10124f05-2691-405d-9339-eabffc8ccb8a","system_id":"levelo_inurba_marseille","lat":43.28856,"lon":5.358371,"is_reserved":false,"is_disabled":false,"rental_uris":{"android":"levelo://app?vid=10124f05-2691-405d-9339-eabffc8ccb8a","ios":"levelo://app?vid=10124f05-2691-405d-9339-eabffc8ccb8a"},"vehicle_type_id":"4","last_reported":1682446109,"current_range_meters":12000,"station_id":"ce4bhb12rcd13ifvqem0","pricing_plan_id":"free"},{"bike_id":"a0a225c0-e3a1-4298-a064-082b146617ff","system_id":"levelo_inurba_marseille","lat":43.30973,"lon":5.40134,"is_reserved":false,"is_disabled":false,"rental_uris":{"android":"levelo://app?vid=a0a225c0-e3a1-4298-a064-082b146617ff","ios":"levelo://app?vid=a0a225c0-e3a1-4298-a064-082b146617ff"},"vehicle_type_id":"4","last_reported":1682446109,"current_range_meters":0,"station_id":"","pricing_plan_id":"free"},{"bike_id":"7255abb5-4741-43bb-a688-a699bcf23d2b","system_id":"levelo_inurba_marseille","lat":43.337531,"lon":5.374495,"is_reserved":false,"is_disabled":false,"rental_uris":{"android":"levelo://app?vid=7255abb5-4741-43bb-a688-a699bcf23d2b","ios":"levelo://app?vid=7255abb5-4741-43bb-a688-a699bcf23d2b"},"vehicle_type_id":"4","last_reported":1682446109,"current_range_meters":26800,"station_id":"","pricing_plan_id":"free"},{"bike_id":"5632057c-4557-4a4f-95ac-eaf82a059f28","system_id":"levelo_inurba_marseille","lat":43.30642,"lon":5.401031,"is_reserved":false,"is_disabled":false,"rental_uris":{"android":"levelo://app?vid=5632057c-4557-4a4f-95ac-eaf82a059f28","ios":"levelo://app?vid=5632057c-4557-4a4f-95ac-eaf82a059f28"},"vehicle_type_id":"4","last_reported":1682446109,"current_range_meters":4000,"station_id":"ce4bh112rcd13ifvqda0","pricing_plan_id":"free"},{"bike_id":"1550dd83-7bfe-48a2-9e7d-eb78bb015a1a","system_id":"levelo_inurba_marseille","lat":43.33773,"lon":5.3742,"is_reserved":false,"is_disabled":false,"rental_uris":{"android":"levelo://app?vid=1550dd83-7bfe-48a2-9e7d-eb78bb015a1a","ios":"levelo://app?vid=1550dd83-7bfe-48a2-9e7d-eb78bb015a1a"},"vehicle_type_id":"4","last_reported":1682446109,"current_range_meters":31200,"station_id":"ce4rr2p2rcd13i802rgg","pricing_plan_id":"free"},{"bike_id":"d890f63f-431c-46b4-94be-4431001d039f","system_id":"levelo_inurba_marseille","lat":43.30642,"lon":5.401031,"is_reserved":false,"is_disabled":false,"rental_uris":{"android":"levelo://app?vid=d890f63f-431c-46b4-94be-4431001d039f","ios":"levelo://app?vid=d890f63f-431c-46b4-94be-4431001d039f"},"vehicle_type_id":"4","last_reported":1682446109,"current_range_meters":23200,"station_id":"ce4bh112rcd13ifvqda0","pricing_plan_id":"free"},{"bike_id":"98cb4c98-e280-4d36-a79e-ab2cb879b44c","system_id":"levelo_inurba_marseille","lat":43.301117,"lon":5.398795,"is_reserved":false,"is_disabled":false,"rental_uris":{"android":"levelo://app?vid=98cb4c98-e280-4d36-a79e-ab2cb879b44c","ios":"levelo://app?vid=98cb4c98-e280-4d36-a79e-ab2cb879b44c"},"vehicle_type_id":"4","last_reported":1682446109,"current_range_meters":12000,"station_id":"ce4bh0h2rcd13ifvqd40","pricing_plan_id":"free"},{"bike_id":"444897f8-ebc1-49b1-8934-3ba11dbdf881","system_id":"levelo_inurba_marseille","lat":43.301117,"lon":5.398795,"is_reserved":false,"is_disabled":false,"rental_uris":{"android":"levelo://app?vid=444897f8-ebc1-49b1-8934-3ba11dbdf881","ios":"levelo://app?vid=444897f8-ebc1-49b1-8934-3ba11dbdf881"},"vehicle_type_id":"4","last_reported":1682446109,"current_range_meters":21200,"station_id":"ce4bh0h2rcd13ifvqd40","pricing_plan_id":"free"},{"bike_id":"8fcbd49f-84c3-4018-a07b-de0c9a2b61b9","system_id":"levelo_inurba_marseille","lat":43.31164,"lon":5.40242,"is_reserved":false,"is_disabled":false,"rental_uris":{"android":"levelo://app?vid=8fcbd49f-84c3-4018-a07b-de0c9a2b61b9","ios":"levelo://app?vid=8fcbd49f-84c3-4018-a07b-de0c9a2b61b9"},"vehicle_type_id":"4","last_reported":1682446109,"current_range_meters":28000,"station_id":"","pricing_plan_id":"free"},{"bike_id":"e83219a6-8a45-4a6c-95c3-7a5d4c4a7953","system_id":"levelo_inurba_marseille","lat":43.286591,"lon":5.363346,"is_reserved":false,"is_disabled":false,"rental_uris":{"android":"levelo://app?vid=e83219a6-8a45-4a6c-95c3-7a5d4c4a7953","ios":"levelo://app?vid=e83219a6-8a45-4a6c-95c3-7a5d4c4a7953"},"vehicle_type_id":"4","last_reported":1682446109,"current_range_meters":10400,"station_id":"ce4bhah2rcd13ifvqej0","pricing_plan_id":"free"},{"bike_id":"4a0cf3d2-94bb-410e-98de-ca2390c77e22","system_id":"levelo_inurba_marseille","lat":43.286591,"lon":5.363346,"is_reserved":false,"is_disabled":false,"rental_uris":{"android":"levelo://app?vid=4a0cf3d2-94bb-410e-98de-ca2390c77e22","ios":"levelo://app?vid=4a0cf3d2-94bb-410e-98de-ca2390c77e22"},"vehicle_type_id":"4","last_reported":1682446109,"current_range_meters":14800,"station_id":"ce4bhah2rcd13ifvqej0","pricing_plan_id":"free"},{"bike_id":"52cfe915-7b00-4331-a110-a02aab67d794","system_id":"levelo_inurba_marseille","lat":43.286591,"lon":5.363346,"is_reserved":false,"is_disabled":false,"rental_uris":{"android":"levelo://app?vid=52cfe915-7b00-4331-a110-a02aab67d794","ios":"levelo://app?vid=52cfe915-7b00-4331-a110-a02aab67d794"},"vehicle_type_id":"4","last_reported":1682446109,"current_range_meters":31200,"station_id":"ce4bhah2rcd13ifvqej0","pricing_plan_id":"free"},{"bike_id":"2905ce4f-b1be-477c-b6e2-e451cca0dbc3","system_id":"levelo_inurba_marseille","lat":43.286591,"lon":5.363346,"is_reserved":false,"is_disabled":false,"rental_uris":{"android":"levelo://app?vid=2905ce4f-b1be-477c-b6e2-e451cca0dbc3","ios":"levelo://app?vid=2905ce4f-b1be-477c-b6e2-e451cca0dbc3"},"vehicle_type_id":"4","last_reported":1682446109,"current_range_meters":31600,"station_id":"ce4bhah2rcd13ifvqej0","pricing_plan_id":"free"},{"bike_id":"552cf24a-4525-4c64-a630-5f5d7b24e498","system_id":"levelo_inurba_marseille","lat":43.286591,"lon":5.363346,"is_reserved":false,"is_disabled":false,"rental_uris":{"android":"levelo://app?vid=552cf24a-4525-4c64-a630-5f5d7b24e498","ios":"levelo://app?vid=552cf24a-4525-4c64-a630-5f5d7b24e498"},"vehicle_type_id":"4","last_reported":1682446109,"current_range_meters":31200,"station_id":"ce4bhah2rcd13ifvqej0","pricing_plan_id":"free"},{"bike_id":"1a5d9927-ce0e-43a4-a817-5402d0bbf920","system_id":"levelo_inurba_marseille","lat":43.2988,"lon":5.39736,"is_reserved":false,"is_disabled":false,"rental_uris":{"android":"levelo://app?vid=1a5d9927-ce0e-43a4-a817-5402d0bbf920","ios":"levelo://app?vid=1a5d9927-ce0e-43a4-a817-5402d0bbf920"},"vehicle_type_id":"4","last_reported":1682446109,"current_range_meters":30800,"station_id":"ce4bh0h2rcd13ifvqd50","pricing_plan_id":"free"},{"bike_id":"1623a17c-24f4-4747-ae9c-5ca26182fb47","system_id":"levelo_inurba_marseille","lat":43.286591,"lon":5.363346,"is_reserved":false,"is_disabled":false,"rental_uris":{"android":"levelo://app?vid=1623a17c-24f4-4747-ae9c-5ca26182fb47","ios":"levelo://app?vid=1623a17c-24f4-4747-ae9c-5ca26182fb47"},"vehicle_type_id":"4","last_reported":1682446109,"current_range_meters":31200,"station_id":"ce4bhah2rcd13ifvqej0","pricing_plan_id":"free"},{"bike_id":"30ab198d-3c2f-4309-a67a-d5aa2e6f6474","system_id":"levelo_inurba_marseille","lat":43.28669,"lon":5.36344,"is_reserved":false,"is_disabled":false,"rental_uris":{"android":"levelo://app?vid=30ab198d-3c2f-4309-a67a-d5aa2e6f6474","ios":"levelo://app?vid=30ab198d-3c2f-4309-a67a-d5aa2e6f6474"},"vehicle_type_id":"4","last_reported":1682446109,"current_range_meters":19200,"station_id":"ce4bhah2rcd13ifvqej0","pricing_plan_id":"free"},{"bike_id":"25c70192-1979-4b5f-91c0-4b8fd708c779","system_id":"levelo_inurba_marseille","lat":43.286591,"lon":5.363346,"is_reserved":false,"is_disabled":false,"rental_uris":{"android":"levelo://app?vid=25c70192-1979-4b5f-91c0-4b8fd708c779","ios":"levelo://app?vid=25c70192-1979-4b5f-91c0-4b8fd708c779"},"vehicle_type_id":"4","last_reported":1682446109,"current_range_meters":31200,"station_id":"ce4bhah2rcd13ifvqej0","pricing_plan_id":"free"},{"bike_id":"ed0de0d1-3e07-443f-a8f5-766f5f44a548","system_id":"levelo_inurba_marseille","lat":43.286591,"lon":5.363346,"is_reserved":false,"is_disabled":false,"rental_uris":{"android":"levelo://app?vid=ed0de0d1-3e07-443f-a8f5-766f5f44a548","ios":"levelo://app?vid=ed0de0d1-3e07-443f-a8f5-766f5f44a548"},"vehicle_type_id":"4","last_reported":1682446109,"current_range_meters":31600,"station_id":"ce4bhah2rcd13ifvqej0","pricing_plan_id":"free"},{"bike_id":"0f85d3e1-eb83-4a59-b8d9-c69463a42d23","system_id":"levelo_inurba_marseille","lat":43.286591,"lon":5.363346,"is_reserved":false,"is_disabled":false,"rental_uris":{"android":"levelo://app?vid=0f85d3e1-eb83-4a59-b8d9-c69463a42d23","ios":"levelo://app?vid=0f85d3e1-eb83-4a59-b8d9-c69463a42d23"},"vehicle_type_id":"4","last_reported":1682446109,"current_range_meters":31600,"station_id":"ce4bhah2rcd13ifvqej0","pricing_plan_id":"free"},{"bike_id":"2615f8c2-b86e-48f6-9604-01c3b009a390","system_id":"levelo_inurba_marseille","lat":43.286591,"lon":5.363346,"is_reserved":false,"is_disabled":false,"rental_uris":{"android":"levelo://app?vid=2615f8c2-b86e-48f6-9604-01c3b009a390","ios":"levelo://app?vid=2615f8c2-b86e-48f6-9604-01c3b009a390"},"vehicle_type_id":"4","last_reported":1682446109,"current_range_meters":31200,"station_id":"ce4bhah2rcd13ifvqej0","pricing_plan_id":"free"},{"bike_id":"1b00bbd1-2dc4-4901-83e9-6cf95adece6b","system_id":"levelo_inurba_marseille","lat":43.286591,"lon":5.363346,"is_reserved":false,"is_disabled":false,"rental_uris":{"android":"levelo://app?vid=1b00bbd1-2dc4-4901-83e9-6cf95adece6b","ios":"levelo://app?vid=1b00bbd1-2dc4-4901-83e9-6cf95adece6b"},"vehicle_type_id":"4","last_reported":1682446109,"current_range_meters":29600,"station_id":"ce4bhah2rcd13ifvqej0","pricing_plan_id":"free"},{"bike_id":"cba86de6-c882-4f18-91c4-8f3ad1f503c4","system_id":"levelo_inurba_marseille","lat":43.298681,"lon":5.397225,"is_reserved":false,"is_disabled":false,"rental_uris":{"android":"levelo://app?vid=cba86de6-c882-4f18-91c4-8f3ad1f503c4","ios":"levelo://app?vid=cba86de6-c882-4f18-91c4-8f3ad1f503c4"},"vehicle_type_id":"4","last_reported":1682446109,"current_range_meters":17600,"station_id":"ce4bh0h2rcd13ifvqd50","pricing_plan_id":"free"},{"bike_id":"1aa2d7fa-c793-4e46-988b-c26ff3162dbe","system_id":"levelo_inurba_marseille","lat":43.29876,"lon":5.39738,"is_reserved":false,"is_disabled":false,"rental_uris":{"android":"levelo://app?vid=1aa2d7fa-c793-4e46-988b-c26ff3162dbe","ios":"levelo://app?vid=1aa2d7fa-c793-4e46-988b-c26ff3162dbe"},"vehicle_type_id":"4","last_reported":1682446109,"current_range_meters":11200,"station_id":"ce4bh0h2rcd13ifvqd50","pricing_plan_id":"free"},{"bike_id":"6f7c8327-d8bf-4b0c-8769-b217b22536b1","system_id":"levelo_inurba_marseille","lat":43.29872,"lon":5.39738,"is_reserved":false,"is_disabled":false,"rental_uris":{"android":"levelo://app?vid=6f7c8327-d8bf-4b0c-8769-b217b22536b1","ios":"levelo://app?vid=6f7c8327-d8bf-4b0c-8769-b217b22536b1"},"vehicle_type_id":"4","last_reported":1682446109,"current_range_meters":4800,"station_id":"ce4bh0h2rcd13ifvqd50","pricing_plan_id":"free"},{"bike_id":"06cb0e78-32ed-4e12-aeca-83dcadf2de07","system_id":"levelo_inurba_marseille","lat":43.295196,"lon":5.39397,"is_reserved":false,"is_disabled":false,"rental_uris":{"android":"levelo://app?vid=06cb0e78-32ed-4e12-aeca-83dcadf2de07","ios":"levelo://app?vid=06cb0e78-32ed-4e12-aeca-83dcadf2de07"},"vehicle_type_id":"4","last_reported":1682446109,"current_range_meters":1600,"station_id":"ce4bh292rcd13ifvqdf0","pricing_plan_id":"free"},{"bike_id":"d8d27da9-fd06-4edd-b8e9-8c55ae5983c4","system_id":"levelo_inurba_marseille","lat":43.295194,"lon":5.39397,"is_reserved":false,"is_disabled":false,"rental_uris":{"android":"levelo://app?vid=d8d27da9-fd06-4edd-b8e9-8c55ae5983c4","ios":"levelo://app?vid=d8d27da9-fd06-4edd-b8e9-8c55ae5983c4"},"vehicle_type_id":"4","last_reported":1682446109,"current_range_meters":19600,"station_id":"ce4bh292rcd13ifvqdf0","pricing_plan_id":"free"},{"bike_id":"04d14be8-8ed3-406a-be9a-dd88ec807f1a","system_id":"levelo_inurba_marseille","lat":43.295196,"lon":5.39397,"is_reserved":false,"is_disabled":false,"rental_uris":{"android":"levelo://app?vid=04d14be8-8ed3-406a-be9a-dd88ec807f1a","ios":"levelo://app?vid=04d14be8-8ed3-406a-be9a-dd88ec807f1a"},"vehicle_type_id":"4","last_reported":1682446109,"current_range_meters":25200,"station_id":"ce4bh292rcd13ifvqdf0","pricing_plan_id":"free"},{"bike_id":"0633cd50-f3a0-45af-82b7-8098efe0ab84","system_id":"levelo_inurba_marseille","lat":43.295194,"lon":5.39397,"is_reserved":false,"is_disabled":false,"rental_uris":{"android":"levelo://app?vid=0633cd50-f3a0-45af-82b7-8098efe0ab84","ios":"levelo://app?vid=0633cd50-f3a0-45af-82b7-8098efe0ab84"},"vehicle_type_id":"4","last_reported":1682446109,"current_range_meters":22000,"station_id":"ce4bh292rcd13ifvqdf0","pricing_plan_id":"free"},{"bike_id":"0f4f3c39-6620-4591-bbbb-33d6ddb4cbff","system_id":"levelo_inurba_marseille","lat":43.295194,"lon":5.39397,"is_reserved":false,"is_disabled":false,"rental_uris":{"android":"levelo://app?vid=0f4f3c39-6620-4591-bbbb-33d6ddb4cbff","ios":"levelo://app?vid=0f4f3c39-6620-4591-bbbb-33d6ddb4cbff"},"vehicle_type_id":"4","last_reported":1682446109,"current_range_meters":15600,"station_id":"ce4bh292rcd13ifvqdf0","pricing_plan_id":"free"},{"bike_id":"e7d3b334-dfde-4d00-aaf3-7d07401421a8","system_id":"levelo_inurba_marseille","lat":43.295194,"lon":5.39397,"is_reserved":false,"is_disabled":false,"rental_uris":{"android":"levelo://app?vid=e7d3b334-dfde-4d00-aaf3-7d07401421a8","ios":"levelo://app?vid=e7d3b334-dfde-4d00-aaf3-7d07401421a8"},"vehicle_type_id":"4","last_reported":1682446109,"current_range_meters":400,"station_id":"ce4bh292rcd13ifvqdf0","pricing_plan_id":"free"},{"bike_id":"abd2d3c7-6d7b-4a29-b985-14ab55ab4128","system_id":"levelo_inurba_marseille","lat":43.29514,"lon":5.39402,"is_reserved":false,"is_disabled":false,"rental_uris":{"android":"levelo://app?vid=abd2d3c7-6d7b-4a29-b985-14ab55ab4128","ios":"levelo://app?vid=abd2d3c7-6d7b-4a29-b985-14ab55ab4128"},"vehicle_type_id":"4","last_reported":1682446109,"current_range_meters":24000,"station_id":"","pricing_plan_id":"free"},{"bike_id":"9913586d-71af-497e-b2f2-8adbced16697","system_id":"levelo_inurba_marseille","lat":43.302759,"lon":5.400793,"is_reserved":false,"is_disabled":false,"rental_uris":{"android":"levelo://app?vid=9913586d-71af-497e-b2f2-8adbced16697","ios":"levelo://app?vid=9913586d-71af-497e-b2f2-8adbced16697"},"vehicle_type_id":"4","last_reported":1682446109,"current_range_meters":24400,"station_id":"ce4bgvh2rcd13ifvqcs0","pricing_plan_id":"free"},{"bike_id":"2bd2d140-1e4c-4f6b-bfda-546e7514bd7d","system_id":"levelo_inurba_marseille","lat":43.302759,"lon":5.400793,"is_reserved":false,"is_disabled":false,"rental_uris":{"android":"levelo://app?vid=2bd2d140-1e4c-4f6b-bfda-546e7514bd7d","ios":"levelo://app?vid=2bd2d140-1e4c-4f6b-bfda-546e7514bd7d"},"vehicle_type_id":"4","last_reported":1682446109,"current_range_meters":12000,"station_id":"ce4bgvh2rcd13ifvqcs0","pricing_plan_id":"free"},