{"last_updated":1753882443,"ttl":60,"version":"2.2","data":{"bikes":[{"bike_id":"0e36fba3-4a0e-495d-884f-00d86bc6564b","system_id":"levelo_inurba_marseille","lat":43.314955,"lon":5.373127,"is_reserved":false,"is_disabled":false,"rental_uris":{"android":"levelo://app?vid=0e36fba3-4a0e-495d-884f-00d86bc6564b","ios":"levelo://app?vid=0e36fba3-4a0e-495d-884f-00d86bc6564b"},"vehicle_type_id":"4","last_reported":1753882443,"current_range_meters":2000,"station_id":"ce4bgt12rcd13ifvqcd0","pricing_plan_id":"cebpf4jnsgd1na2vs0mg"},{"bike_id":"028e4003-1aea-449b-9f82-db8fd82caa9d","system_id":"levelo_inurba_marseille","lat":43.27311,"lon":5.39079,"is_reserved":false,"is_disabled":false,"rental_uris":{"android":"levelo://app?vid=028e4003-1aea-449b-9f82-db8fd82caa9d","ios":"levelo://app?vid=028e4003-1aea-449b-9f82-db8fd82caa9d"},"vehicle_type_id":"4","last_reported":1753882443,"current_range_meters":0,"station_id":"ce4bhgp2rcd13ifvqfe0","pricing_plan_id":"cebpf4jnsgd1na2vs0mg"},{"bike_id":"1e83b6e6-a762-4496-a8a4-e7fdd35a70d9","system_id":"levelo_inurba_marseille","lat":43.27373,"lon":5.36262,"is_reserved":false,"is_disabled":false,"rental_uris":{"android":"levelo://app?vid=1e83b6e6-a762-4496-a8a4-e7fdd35a70d9","ios":"levelo://app?vid=1e83b6e6-a762-4496-a8a4-e7fdd35a70d9"},"vehicle_type_id":"4","last_reported":1753882443,"current_range_meters":3200,"station_id":"ce4bhbh2rcd13ifvqeo0","pricing_plan_id":"cebpf4jnsgd1na2vs0mg"},{"bike_id":"80915a30-ef88-4d81-b5d1-969d1c17a42d","system_id":"levelo_inurba_marseille","lat":43.30415,"lon":5.40838,"is_reserved":false,"is_disabled":false,"rental_uris":{"android":"levelo://app?vid=80915a30-ef88-4d81-b5d1-969d1c17a42d","ios":"levelo://app?vid=80915a30-ef88-4d81-b5d1-969d1c17a42d"},"vehicle_type_id":"4","last_reported":1753882443,"current_range_meters":3600,"station_id":"","pricing_plan_id":"cebpf4jnsgd1na2vs0mg"},{"bike_id":"0f96a745-346a-4307-b0f1-ace6cda6a32b","system_id":"levelo_inurba_marseille","lat":43.29793,"lon":5.38089,"is_reserved":false,"is_disabled":false,"rental_uris":{"android":"levelo://app?vid=0f96a745-346a-4307-b0f1-ace6cda6a32b","ios":"levelo://app?vid=0f96a745-346a-4307-b0f1-ace6cda6a32b"},"vehicle_type_id":"4","last_reported":1753882443,"current_range_meters":3600,"station_id":"ce4bgip2rcd13ifvqbb0","pricing_plan_id":"cebpf4jnsgd1na2vs0mg"},{"bike_id":"4f812bc3-8fe8-455f-bed1-29cb538dff3a","system_id":"levelo_inurba_marseille","lat":43.295349,"lon":5.385477,"is_reserved":false,"is_disabled":false,"rental_uris":{"android":"levelo://app?vid=4f812bc3-8fe8-455f-bed1-29cb538dff3a","ios":"levelo://app?vid=4f812bc3-8fe8-455f-bed1-29cb538dff3a"},"vehicle_type_id":"4","last_reported":1753882443,"current_range_meters":3600,"station_id":"ce4bgih2rcd13ifvqba0","pricing_plan_id":"cebpf4jnsgd1na2vs0mg"},{"bike_id":"8a569b31-55c0-441f-9435-5ac594ac9c22","system_id":"levelo_inurba_marseille","lat":43.297302,"lon":5.374166,"is_reserved":false,"is_disabled":false,"rental_uris":{"android":"levelo://app?vid=8a569b31-55c0-441f-9435-5ac594ac9c22","ios":"levelo://app?vid=8a569b31-55c0-441f-9435-5ac594ac9c22"},"vehicle_type_id":"4","last_reported":1753882443,"current_range_meters":4000,"station_id":"","pricing_plan_id":"cebpf4jnsgd1na2vs0mg"},{"bike_id":"f2ed36f9-0f01-4b33-af18-8a277c95e69c","system_id":"levelo_inurba_marseille","lat":43.3146,"lon":5.37332,"is_reserved":false,"is_disabled":false,"rental_uris":{"android":"levelo://app?vid=f2ed36f9-0f01-4b33-af18-8a277c95e69c","ios":"levelo://app?vid=f2ed36f9-0f01-4b33-af18-8a277c95e69c"},"vehicle_type_id":"4","last_reported":1753882443,"current_range_meters":4000,"station_id":"ce4bgt12rcd13ifvqcd0","pricing_plan_id":"cebpf4jnsgd1na2vs0mg"},{"bike_id":"95dd70e4-879c-49e7-b318-a6c71b22a43e","system_id":"levelo_inurba_marseille","lat":43.2703,"lon":5.39295,"is_reserved":false,"is_disabled":false,"rental_uris":{"android":"levelo://app?vid=95dd70e4-879c-49e7-b318-a6c71b22a43e","ios":"levelo://app?vid=95dd70e4-879c-49e7-b318-a6c71b22a43e"},"vehicle_type_id":"4","last_reported":1753882443,"current_range_meters":4000,"station_id":"","pricing_plan_id":"cebpf4jnsgd1na2vs0mg"},{"bike_id":"209c73e6-1f69-4d13-9fed-77cb46eecd05","system_id":"levelo_inurba_marseille","lat":43.34681,"lon":5.38065,"is_reserved":false,"is_disabled":false,"rental_uris":{"android":"levelo://app?vid=209c73e6-1f69-4d13-9fed-77cb46eecd05","ios":"levelo://app?vid=209c73e6-1f69-4d13-9fed-77cb46eecd05"},"vehicle_type_id":"4","last_reported":1753882443,"current_range_meters":4000,"station_id":"","pricing_plan_id":"cebpf4jnsgd1na2vs0mg"},{"bike_id":"181c8049-4fb7-4c27-a6b2-7bb8fea4f09f","system_id":"levelo_inurba_marseille","lat":43.29532,"lon":5.39268,"is_reserved":false,"is_disabled":false,"rental_uris":{"android":"levelo://app?vid=181c8049-4fb7-4c27-a6b2-7bb8fea4f09f","ios":"levelo://app?vid=181c8049-4fb7-4c27-a6b2-7bb8fea4f09f"},"vehicle_type_id":"4","last_reported":1753882443,"current_range_meters":4400,"station_id":"","pricing_plan_id":"cebpf4jnsgd1na2vs0mg"},{"bike_id":"5bdc961c-cbbb-41c6-8e1a-00589f0ccfd9","system_id":"levelo_inurba_marseille","lat":43.26201,"lon":5.37934,"is_reserved":false,"is_disabled":false,"rental_uris":{"android":"levelo://app?vid=5bdc961c-cbbb-41c6-8e1a-00589f0ccfd9","ios":"levelo://app?vid=5bdc961c-cbbb-41c6-8e1a-00589f0ccfd9"},"vehicle_type_id":"4","last_reported":1753882443,"current_range_meters":4400,"station_id":"ce4bhjp2rcd13ifvqg90","pricing_plan_id":"cebpf4jnsgd1na2vs0mg"},{"bike_id":"ca538d06-b8c5-4455-acd3-aa1ee1f57388","system_id":"levelo_inurba_marseille","lat":43.217491,"lon":5.346044,"is_reserved":false,"is_disabled":false,"rental_uris":{"android":"levelo://app?vid=ca538d06-b8c5-4455-acd3-aa1ee1f57388","ios":"levelo://app?vid=ca538d06-b8c5-4455-acd3-aa1ee1f57388"},"vehicle_type_id":"4","last_reported":1753882443,"current_range_meters":4800,"station_id":"","pricing_plan_id":"cebpf4jnsgd1na2vs0mg"},{"bike_id":"7ead535a-e7f2-4489-9051-59e4f5eeec8a","system_id":"levelo_inurba_marseille","lat":43.306668,"lon":5.373679,"is_reserved":false,"is_disabled":false,"rental_uris":{"android":"levelo://app?vid=7ead535a-e7f2-4489-9051-59e4f5eeec8a","ios":"levelo://app?vid=7ead535a-e7f2-4489-9051-59e4f5eeec8a"},"vehicle_type_id":"4","last_reported":1753882443,"current_range_meters":5600,"station_id":"","pricing_plan_id":"cebpf4jnsgd1na2vs0mg"},{"bike_id":"9f9755ac-6044-4d5d-9643-628cf2396a5a","system_id":"levelo_inurba_marseille","lat":43.291971,"lon":5.358067,"is_reserved":false,"is_disabled":false,"rental_uris":{"android":"levelo://app?vid=9f9755ac-6044-4d5d-9643-628cf2396a5a","ios":"levelo://app?vid=9f9755ac-6044-4d5d-9643-628cf2396a5a"},"vehicle_type_id":"4","last_reported":1753882443,"current_range_meters":5600,"station_id":"ce4bhb12rcd13ifvqel0","pricing_plan_id":"cebpf4jnsgd1na2vs0mg"},{"bike_id":"22ac1ed5-ccdf-47d9-a961-be61617b6169","system_id":"levelo_inurba_marseille","lat":43.23193,"lon":5.35549,"is_reserved":false,"is_disabled":false,"rental_uris":{"android":"levelo://app?vid=22ac1ed5-ccdf-47d9-a961-be61617b6169","ios":"levelo://app?vid=22ac1ed5-ccdf-47d9-a961-be61617b6169"},"vehicle_type_id":"4","last_reported":1753882443,"current_range_meters":5600,"station_id":"ce4bhu92rcd13ifvqi70","pricing_plan_id":"cebpf4jnsgd1na2vs0mg"},{"bike_id":"149fbe11-3bce-47a0-b584-c7c7bd6bb12f","system_id":"levelo_inurba_marseille","lat":43.21619,"lon":5.3444,"is_reserved":false,"is_disabled":false,"rental_uris":{"android":"levelo://app?vid=149fbe11-3bce-47a0-b584-c7c7bd6bb12f","ios":"levelo://app?vid=149fbe11-3bce-47a0-b584-c7c7bd6bb12f"},"vehicle_type_id":"4","last_reported":1753882443,"current_range_meters":5600,"station_id":"","pricing_plan_id":"cebpf4jnsgd1na2vs0mg"},{"bike_id":"02912252-2d17-4a5a-9680-6fbbfd4e7dd6","system_id":"levelo_inurba_marseille","lat":43.31173,"lon":5.38721,"is_reserved":false,"is_disabled":false,"rental_uris":{"android":"levelo://app?vid=02912252-2d17-4a5a-9680-6fbbfd4e7dd6","ios":"levelo://app?vid=02912252-2d17-4a5a-9680-6fbbfd4e7dd6"},"vehicle_type_id":"4","last_reported":1753882443,"current_range_meters":5600,"station_id":"ce4bgv12rcd13ifvqcp0","pricing_plan_id":"cebpf4jnsgd1na2vs0mg"},{"bike_id":"92970e44-abdf-4331-9161-6ef73a42dfac","system_id":"levelo_inurba_marseille","lat":43.31501,"lon":5.37305,"is_reserved":false,"is_disabled":false,"rental_uris":{"android":"levelo://app?vid=92970e44-abdf-4331-9161-6ef73a42dfac","ios":"levelo://app?vid=92970e44-abdf-4331-9161-6ef73a42dfac"},"vehicle_type_id":"4","last_reported":1753882443,"current_range_meters":6000,"station_id":"ce4bgt12rcd13ifvqcd0","pricing_plan_id":"cebpf4jnsgd1na2vs0mg"},{"bike_id":"882bdff1-651a-41c1-9ab0-596f43205cf1","system_id":"levelo_inurba_marseille","lat":43.337444,"lon":5.374475,"is_reserved":false,"is_disabled":false,"rental_uris":{"android":"levelo://app?vid=882bdff1-651a-41c1-9ab0-596f43205cf1","ios":"levelo://app?vid=882bdff1-651a-41c1-9ab0-596f43205cf1"},"vehicle_type_id":"4","last_reported":1753882443,"current_range_meters":6000,"station_id":"ce4bgkp2rcd13ifvqbmg","pricing_plan_id":"cebpf4jnsgd1na2vs0mg"},{"bike_id":"9d38b73d-41b0-4385-b87d-ce0ad129af22","system_id":"levelo_inurba_marseille","lat":43.29199,"lon":5.39313,"is_reserved":false,"is_disabled":false,"rental_uris":{"android":"levelo://app?vid=9d38b73d-41b0-4385-b87d-ce0ad129af22","ios":"levelo://app?vid=9d38b73d-41b0-4385-b87d-ce0ad129af22"},"vehicle_type_id":"4","last_reported":1753882443,"current_range_meters":5600,"station_id":"ce4bh192rcd13ifvqdd0","pricing_plan_id":"cebpf4jnsgd1na2vs0mg"},{"bike_id":"79d9b86b-08ee-4c52-99e5-090bb8e2d740","system_id":"levelo_inurba_marseille","lat":43.23176,"lon":5.39991,"is_reserved":false,"is_disabled":false,"rental_uris":{"android":"levelo://app?vid=79d9b86b-08ee-4c52-99e5-090bb8e2d740","ios":"levelo://app?vid=79d9b86b-08ee-4c52-99e5-090bb8e2d740"},"vehicle_type_id":"4","last_reported":1753882443,"current_range_meters":6400,"station_id":"ce4bhn12rcd13ifvqgqg","pricing_plan_id":"cebpf4jnsgd1na2vs0mg"},{"bike_id":"d4b0442d-37e3-4887-8827-87b59f4e9086","system_id":"levelo_inurba_marseille","lat":43.2977,"lon":5.38108,"is_reserved":false,"is_disabled":false,"rental_uris":{"android":"levelo://app?vid=d4b0442d-37e3-4887-8827-87b59f4e9086","ios":"levelo://app?vid=d4b0442d-37e3-4887-8827-87b59f4e9086"},"vehicle_type_id":"4","last_reported":1753882443,"current_range_meters":6400,"station_id":"","pricing_plan_id":"cebpf4jnsgd1na2vs0mg"},{"bike_id":"33103d8b-6637-48c5-b766-a4ce193447bd","system_id":"levelo_inurba_marseille","lat":43.29254,"lon":5.38445,"is_reserved":false,"is_disabled":false,"rental_uris":{"android":"levelo://app?vid=33103d8b-6637-48c5-b766-a4ce193447bd","ios":"levelo://app?vid=33103d8b-6637-48c5-b766-a4ce193447bd"},"vehicle_type_id":"4","last_reported":1753882443,"current_range_meters":6400,"station_id":"ce4bh692rcd13ifvqea0","pricing_plan_id":"cebpf4jnsgd1na2vs0mg"},{"bike_id":"16a0eac5-651b-4d59-b45f-8502620c3656","system_id":"levelo_inurba_marseille","lat":43.2904,"lon":5.37562,"is_reserved":false,"is_disabled":false,"rental_uris":{"android":"levelo://app?vid=16a0eac5-651b-4d59-b45f-8502620c3656","ios":"levelo://app?vid=16a0eac5-651b-4d59-b45f-8502620c3656"},"vehicle_type_id":"4","last_reported":1753882443,"current_range_meters":6400,"station_id":"ce4bh692rcd13ifvqe90","pricing_plan_id":"cebpf4jnsgd1na2vs0mg"},{"bike_id":"07f16b19-484b-4447-82ca-c14e44591a7d","system_id":"levelo_inurba_marseille","lat":43.2591,"lon":5.40871,"is_reserved":false,"is_disabled":false,"rental_uris":{"android":"levelo://app?vid=07f16b19-484b-4447-82ca-c14e44591a7d","ios":"levelo://app?vid=07f16b19-484b-4447-82ca-c14e44591a7d"},"vehicle_type_id":"4","last_reported":1753882443,"current_range_meters":6800,"station_id":"ce4bhm92rcd13ifvqglg","pricing_plan_id":"cebpf4jnsgd1na2vs0mg"},{"bike_id":"2a40fb67-7b16-4d23-9595-351a61b33b5b","system_id":"levelo_inurba_marseille","lat":43.3108,"lon":5.42424,"is_reserved":false,"is_disabled":false,"rental_uris":{"android":"levelo://app?vid=2a40fb67-7b16-4d23-9595-351a61b33b5b","ios":"levelo://app?vid=2a40fb67-7b16-4d23-9595-351a61b33b5b"},"vehicle_type_id":"4","last_reported":1753882443,"current_range_meters":6800,"station_id":"ce4bhp92rcd13ifvqhag","pricing_plan_id":"cebpf4jnsgd1na2vs0mg"},{"bike_id":"bb650ed0-d989-4f7c-9fda-1512931e29aa","system_id":"levelo_inurba_marseille","lat":43.30062,"lon":5.37292,"is_reserved":false,"is_disabled":false,"rental_uris":{"android":"levelo://app?vid=bb650ed0-d989-4f7c-9fda-1512931e29aa","ios":"levelo://app?vid=bb650ed0-d989-4f7c-9fda-1512931e29aa"},"vehicle_type_id":"4","last_reported":1753882443,"current_range_meters":6800,"station_id":"ce4bgs92rcd13ifvqcc0","pricing_plan_id":"cebpf4jnsgd1na2vs0mg"},{"bike_id":"85264837-963b-46fe-ac30-986e48aa18be","system_id":"levelo_inurba_marseille","lat":43.28269,"lon":5.35074,"is_reserved":false,"is_disabled":false,"rental_uris":{"android":"levelo://app?vid=85264837-963b-46fe-ac30-986e48aa18be","ios":"levelo://app?vid=85264837-963b-46fe-ac30-986e48aa18be"},"vehicle_type_id":"4","last_reported":1753882443,"current_range_meters":7200,"station_id":"ce4bhbp2rcd13ifvqerg","pricing_plan_id":"cebpf4jnsgd1na2vs0mg"},{"bike_id":"1f0da881-e939-462e-9e1c-a36456faea77","system_id":"levelo_inurba_marseille","lat":43.2737,"lon":5.36263,"is_reserved":false,"is_disabled":false,"rental_uris":{"android":"levelo://app?vid=1f0da881-e939-462e-9e1c-a36456faea77","ios":"levelo://app?vid=1f0da881-e939-462e-9e1c-a36456faea77"},"vehicle_type_id":"4","last_reported":1753882443,"current_range_meters":7200,"station_id":"ce4bhbh2rcd13ifvqeo0","pricing_plan_id":"cebpf4jnsgd1na2vs0mg"},{"bike_id":"1b662e08-e8d0-4854-865c-fd2af4ceea43","system_id":"levelo_inurba_marseille","lat":43.25115,"lon":5.40323,"is_reserved":false,"is_disabled":false,"rental_uris":{"android":"levelo://app?vid=1b662e08-e8d0-4854-865c-fd2af4ceea43","ios":"levelo://app?vid=1b662e08-e8d0-4854-865c-fd2af4ceea43"},"vehicle_type_id":"4","last_reported":1753882443,"current_range_meters":7200,"station_id":"ce4bhlh2rcd13ifvqgig","pricing_plan_id":"cebpf4jnsgd1na2vs0mg"},{"bike_id":"37fcf059-83b8-4b6e-bc28-0c83f77e3c05","system_id":"levelo_inurba_marseille","lat":43.22557,"lon":5.34759,"is_reserved":false,"is_disabled":false,"rental_uris":{"android":"levelo://app?vid=37fcf059-83b8-4b6e-bc28-0c83f77e3c05","ios":"levelo://app?vid=37fcf059-83b8-4b6e-bc28-0c83f77e3c05"},"vehicle_type_id":"4","last_reported":1753882443,"current_range_meters":7200,"station_id":"","pricing_plan_id":"cebpf4jnsgd1na2vs0mg"},{"bike_id":"d3d8e130-eebd-4faa-b9b8-9ac5f36988ad","system_id":"levelo_inurba_marseille","lat":43.30254,"lon":5.40089,"is_reserved":false,"is_disabled":false,"rental_uris":{"android":"levelo://app?vid=d3d8e130-eebd-4faa-b9b8-9ac5f36988ad","ios":"levelo://app?vid=d3d8e130-eebd-4faa-b9b8-9ac5f36988ad"},"vehicle_type_id":"4","last_reported":1753882443,"current_range_meters":7200,"station_id":"ce4bgvh2rcd13ifvqcs0","pricing_plan_id":"cebpf4jnsgd1na2vs0mg"},{"bike_id":"f92ef6fb-e536-43fc-abb6-7e3e6696948a","system_id":"levelo_inurba_marseille","lat":43.27373,"lon":5.3626,"is_reserved":false,"is_disabled":false,"rental_uris":{"android":"levelo://app?vid=f92ef6fb-e536-43fc-abb6-7e3e6696948a","ios":"levelo://app?vid=f92ef6fb-e536-43fc-abb6-7e3e6696948a"},"vehicle_type_id":"4","last_reported":1753882443,"current_range_meters":7200,"station_id":"ce4bhbh2rcd13ifvqeo0","pricing_plan_id":"cebpf4jnsgd1na2vs0mg"},{"bike_id":"7b02183a-28be-4330-8c38-86d0d3900ddc","system_id":"levelo_inurba_marseille","lat":43.2894,"lon":5.36634,"is_reserved":false,"is_disabled":false,"rental_uris":{"android":"levelo://app?vid=7b02183a-28be-4330-8c38-86d0d3900ddc","ios":"levelo://app?vid=7b02183a-28be-4330-8c38-86d0d3900ddc"},"vehicle_type_id":"4","last_reported":1753882443,"current_range_meters":8000,"station_id":"ce4bhap2rcd13ifvqek0","pricing_plan_id":"cebpf4jnsgd1na2vs0mg"},{"bike_id":"ec359789-adaa-4f94-8f35-e3a45c5e5188","system_id":"levelo_inurba_marseille","lat":43.33572,"lon":5.36176,"is_reserved":false,"is_disabled":false,"rental_uris":{"android":"levelo://app?vid=ec359789-adaa-4f94-8f35-e3a45c5e5188","ios":"levelo://app?vid=ec359789-adaa-4f94-8f35-e3a45c5e5188"},"vehicle_type_id":"4","last_reported":1753882443,"current_range_meters":8000,"station_id":"","pricing_plan_id":"cebpf4jnsgd1na2vs0mg"},{"bike_id":"ae449510-1aa4-4d74-9f9b-1be774612a91","system_id":"levelo_inurba_marseille","lat":43.27211,"lon":5.39181,"is_reserved":false,"is_disabled":false,"rental_uris":{"android":"levelo://app?vid=ae449510-1aa4-4d74-9f9b-1be774612a91","ios":"levelo://app?vid=ae449510-1aa4-4d74-9f9b-1be774612a91"},"vehicle_type_id":"4","last_reported":1753882443,"current_range_meters":8000,"station_id":"ce4bhhp2rcd13ifvqfm0","pricing_plan_id":"cebpf4jnsgd1na2vs0mg"},{"bike_id":"06a95b6d-fa07-46d6-815b-b5e7c021cd4f","system_id":"levelo_inurba_marseille","lat":43.295791,"lon":5.375177,"is_reserved":false,"is_disabled":false,"rental_uris":{"android":"levelo://app?vid=06a95b6d-fa07-46d6-815b-b5e7c021cd4f","ios":"levelo://app?vid=06a95b6d-fa07-46d6-815b-b5e7c021cd4f"},"vehicle_type_id":"4","last_reported":1753882443,"current_range_meters":8000,"station_id":"ce4bgh92rcd13ifvqb50","pricing_plan_id":"cebpf4jnsgd1na2vs0mg"},{"bike_id":"87c073a6-ae04-49db-b7ad-4e45b5ee377d","system_id":"levelo_inurba_marseille","lat":43.23954,"lon":5.36633,"is_reserved":false,"is_disabled":false,"rental_uris":{"android":"levelo://app?vid=87c073a6-ae04-49db-b7ad-4e45b5ee377d","ios":"levelo://app?vid=87c073a6-ae04-49db-b7ad-4e45b5ee377d"},"vehicle_type_id":"4","last_reported":1753882443,"current_range_meters":8000,"station_id":"ce4bhi12rcd13ifvqfp0","pricing_plan_id":"cebpf4jnsgd1na2vs0mg"},{"bike_id":"dfcb6aed-778e-4193-b949-133ab0b6294d","system_id":"levelo_inurba_marseille","lat":43.28564,"lon":5.39497,"is_reserved":false,"is_disabled":false,"rental_uris":{"android":"levelo://app?vid=dfcb6aed-778e-4193-b949-133ab0b6294d","ios":"levelo://app?vid=dfcb6aed-778e-4193-b949-133ab0b6294d"},"vehicle_type_id":"4","last_reported":1753882443,"current_range_meters":8000,"station_id":"ce4bh292rcd13ifvqdg0","pricing_plan_id":"cebpf4jnsgd1na2vs0mg"},{"bike_id":"da19e460-beaa-4dce-a2c8-f7997543a77d","system_id":"levelo_inurba_marseille","lat":43.292889,"lon":5.401699,"is_reserved":false,"is_disabled":false,"rental_uris":{"android":"levelo://app?vid=da19e460-beaa-4dce-a2c8-f7997543a77d","ios":"levelo://app?vid=da19e460-beaa-4dce-a2c8-f7997543a77d"},"vehicle_type_id":"4","last_reported":1753882443,"current_range_meters":8000,"station_id":"ce4bh312rcd13ifvqdk0","pricing_plan_id":"cebpf4jnsgd1na2vs0mg"},{"bike_id":"c9e5cf98-36fd-4b86-b6b1-31cf99619f3e","system_id":"levelo_inurba_marseille","lat":43.23181,"lon":5.400041,"is_reserved":false,"is_disabled":true,"rental_uris":{"android":"levelo://app?vid=c9e5cf98-36fd-4b86-b6b1-31cf99619f3e","ios":"levelo://app?vid=c9e5cf98-36fd-4b86-b6b1-31cf99619f3e"},"vehicle_type_id":"4","last_reported":1753882443,"current_range_meters":8000,"station_id":"ce4bhn12rcd13ifvqgqg","pricing_plan_id":"cebpf4jnsgd1na2vs0mg"},{"bike_id":"773a2503-609f-4bad-a1c3-11c97bbd6d39","system_id":"levelo_inurba_marseille","lat":43.21777,"lon":5.34597,"is_reserved":false,"is_disabled":false,"rental_uris":{"android":"levelo://app?vid=773a2503-609f-4bad-a1c3-11c97bbd6d39","ios":"levelo://app?vid=773a2503-609f-4bad-a1c3-11c97bbd6d39"},"vehicle_type_id":"4","last_reported":1753882443,"current_range_meters":8000,"station_id":"","pricing_plan_id":"cebpf4jnsgd1na2vs0mg"},{"bike_id":"6a658749-032c-41f8-aa88-30c94cacac1a","system_id":"levelo_inurba_marseille","lat":43.24816,"lon":5.37456,"is_reserved":false,"is_disabled":false,"rental_uris":{"android":"levelo://app?vid=6a658749-032c-41f8-aa88-30c94cacac1a","ios":"levelo://app?vid=6a658749-032c-41f8-aa88-30c94cacac1a"},"vehicle_type_id":"4","last_reported":1753882443,"current_range_meters":8000,"station_id":"ce4bhgh2rcd13ifvqfb0","pricing_plan_id":"cebpf4jnsgd1na2vs0mg"},{"bike_id":"24347ab0-fa6c-4740-8fea-61b9e669f2cf","system_id":"levelo_inurba_marseille","lat":43.2656,"lon":5.3729,"is_reserved":false,"is_disabled":false,"rental_uris":{"android":"levelo://app?vid=24347ab0-fa6c-4740-8fea-61b9e669f2cf","ios":"levelo://app?vid=24347ab0-fa6c-4740-8fea-61b9e669f2cf"},"vehicle_type_id":"4","last_reported":1753882443,"current_range_meters":8400,"station_id":"ce4bhg12rcd13ifvqf70","pricing_plan_id":"cebpf4jnsgd1na2vs0mg"},{"bike_id":"d14058fe-2103-4c81-a908-73e720335caf","system_id":"levelo_inurba_marseille","lat":43.23226,"lon":5.35545,"is_reserved":false,"is_disabled":false,"rental_uris":{"android":"levelo://app?vid=d14058fe-2103-4c81-a908-73e720335caf","ios":"levelo://app?vid=d14058fe-2103-4c81-a908-73e720335caf"},"vehicle_type_id":"4","last_reported":1753882443,"current_range_meters":4400,"station_id":"ce4bhu92rcd13ifvqi70","pricing_plan_id":"cebpf4jnsgd1na2vs0mg"},{"bike_id":"dfff1baa-653b-4b9e-b789-f503d938d442","system_id":"levelo_inurba_marseille","lat":43.3173,"lon":5.40423,"is_reserved":false,"is_disabled":false,"rental_uris":{"android":"levelo://app?vid=dfff1baa-653b-4b9e-b789-f503d938d442","ios":"levelo://app?vid=dfff1baa-653b-4b9e-b789-f503d938d442"},"vehicle_type_id":"4","last_reported":1753882443,"current_range_meters":8400,"station_id":"","pricing_plan_id":"cebpf4jnsgd1na2vs0mg"},{"bike_id":"b5e469a6-8e8f-4b1a-91cc-e9f6f04151ad","system_id":"levelo_inurba_marseille","lat":43.295826,"lon":5.436882,"is_reserved":false,"is_disabled":false,"rental_uris":{"android":"levelo://app?vid=b5e469a6-8e8f-4b1a-91cc-e9f6f04151ad","ios":"levelo://app?vid=b5e469a6-8e8f-4b1a-91cc-e9f6f04151ad"},"vehicle_type_id":"4","last_reported":1753882443,"current_range_meters":8400,"station_id":"","pricing_plan_id":"cebpf4jnsgd1na2vs0mg"},{"bike_id":"dc3c30fd-db88-40c2-af65-279f71e6a95d","system_id":"levelo_inurba_marseille","lat":43.24162,"lon":5.36392,"is_reserved":false,"is_disabled":false,"rental_uris":{"android":"levelo://app?vid=dc3c30fd-db88-40c2-af65-279f71e6a95d","ios":"levelo://app?vid=dc3c30fd-db88-40c2-af65-279f71e6a95d"},"vehicle_type_id":"4","last_reported":1753882443,"current_range_meters":8400,"station_id":"cpo36qri1sfpv3e86is0","pricing_plan_id":"cebpf4jnsgd1na2vs0mg"},{"bike_id":"ee07faaf-6c60-467e-be23-49e8a4c07aa4","system_id":"levelo_inurba_marseille","lat":43.282703,"lon":5.350534,"is_reserved":false,"is_disabled":false,"rental_uris":{"android":"levelo://app?vid=ee07faaf-6c60-467e-be23-49e8a4c07aa4","ios":"levelo://app?vid=ee07faaf-6c60-467e-be23-49e8a4c07aa4"},"vehicle_type_id":"4","last_reported":1753882443,"current_range_meters":8800,"station_id":"ce4bhbp2rcd13ifvqerg","pricing_plan_id":"cebpf4jnsgd1na2vs0mg"},{"bike_id":"c7d9ceda-0335-44f5-bbd2-5294cbdc687c","system_id":"levelo_inurba_marseille","lat":43.25589,"lon":5.38254,"is_reserved":false,"is_disabled":false,"rental_uris":{"android":"levelo://app?vid=c7d9ceda-0335-44f5-bbd2-5294cbdc687c","ios":"levelo://app?vid=c7d9ceda-0335-44f5-bbd2-5294cbdc687c"},"vehicle_type_id":"4","last_reported":1753882443,"current_range_meters":9200,"station_id":"ce4bhih2rcd13ifvqfs0","pricing_plan_id":"cebpf4jnsgd1na2vs0mg"},{"bike_id":"9661be35-0f3d-4e93-905b-e7c4bb9c6450","system_id":"levelo_inurba_marseille","lat":43.28263,"lon":5.3506,"is_reserved":false,"is_disabled":false,"rental_uris":{"android":"levelo://app?vid=9661be35-0f3d-4e93-905b-e7c4bb9c6450","ios":"levelo://app?vid=9661be35-0f3d-4e93-905b-e7c4bb9c6450"},"vehicle_type_id":"4","last_reported":1753882443,"current_range_meters":9200,"station_id":"ce4bhbp2rcd13ifvqerg","pricing_plan_id":"cebpf4jnsgd1na2vs0mg"},{"bike_id":"b0f2b2c1-b378-4164-a22b-6eceaa434acc","system_id":"levelo_inurba_marseille","lat":43.29217,"lon":5.42707,"is_reserved":false,"is_disabled":false,"rental_uris":{"android":"levelo://app?vid=b0f2b2c1-b378-4164-a22b-6eceaa434acc","ios":"levelo://app?vid=b0f2b2c1-b378-4164-a22b-6eceaa434acc"},"vehicle_type_id":"4","last_reported":1753882443,"current_range_meters":9200,"station_id":"","pricing_plan_id":"cebpf4jnsgd1na2vs0mg"},{"bike_id":"e137dc03-26cf-440c-b3ea-1ea522645199","system_id":"levelo_inurba_marseille","lat":43.280815,"lon":5.396626,"is_reserved":false,"is_disabled":false,"rental_uris":{"android":"levelo://app?vid=e137dc03-26cf-440c-b3ea-1ea522645199","ios":"levelo://app?vid=e137dc03-26cf-440c-b3ea-1ea522645199"},"vehicle_type_id":"4","last_reported":1753882443,"current_range_meters":9200,"station_id":"","pricing_plan_id":"cebpf4jnsgd1na2vs0mg"},{"bike_id":"0dc99cab-1546-4588-8ef9-e9c6ae8e0a6f","system_id":"levelo_inurba_marseille","lat":43.23056,"lon":5.35492,"is_reserved":false,"is_disabled":true,"rental_uris":{"android":"levelo://app?vid=0dc99cab-1546-4588-8ef9-e9c6ae8e0a6f","ios":"levelo://app?vid=0dc99cab-1546-4588-8ef9-e9c6ae8e0a6f"},"vehicle_type_id":"4","last_reported":1753882443,"current_range_meters":9200,"station_id":"cpo3342slgdg3j2ifvpg","pricing_plan_id":"cebpf4jnsgd1na2vs0mg"},{"bike_id":"a4b40d6f-7c41-4502-a865-472844382a20","system_id":"levelo_inurba_marseille","lat":43.29574,"lon":5.39987,"is_reserved":false,"is_disabled":false,"rental_uris":{"android":"levelo://app?vid=a4b40d6f-7c41-4502-a865-472844382a20","ios":"levelo://app?vid=a4b40d6f-7c41-4502-a865-472844382a20"},"vehicle_type_id":"4","last_reported":1753882443,"current_range_meters":9600,"station_id":"ce4bh312rcd13ifvqdj0","pricing_plan_id":"cebpf4jnsgd1na2vs0mg"},{"bike_id":"61b02415-b58e-4c59-b6b8-1290661903ea","system_id":"levelo_inurba_marseille","lat":43.28703,"lon":5.39987,"is_reserved":false,"is_disabled":false,"rental_uris":{"android":"levelo://app?vid=61b02415-b58e-4c59-b6b8-1290661903ea","ios":"levelo://app?vid=61b02415-b58e-4c59-b6b8-1290661903ea"},"vehicle_type_id":"4","last_reported":1753882443,"current_range_meters":9600,"station_id":"ce4bho92rcd13ifvqh3g","pricing_plan_id":"cebpf4jnsgd1na2vs0mg"},{"bike_id":"f8a72686-275c-427d-953c-ff6bf27d6124","system_id":"levelo_inurba_marseille","lat":43.29036,"lon":5.40013,"is_reserved":false,"is_disabled":true,"rental_uris":{"android":"levelo://app?vid=f8a72686-275c-427d-953c-ff6bf27d6124","ios":"levelo://app?vid=f8a72686-275c-427d-953c-ff6bf27d6124"},"vehicle_type_id":"4","last_reported":1753882443,"current_range_meters":9600,"station_id":"ce4bh392rcd13ifvqdm0","pricing_plan_id":"cebpf4jnsgd1na2vs0mg"},{"bike_id":"62447513-abfa-4e29-bddd-3b920a7dadf1","system_id":"levelo_inurba_marseille","lat":43.29576,"lon":5.3753,"is_reserved":false,"is_disabled":false,"rental_uris":{"android":"levelo://app?vid=62447513-abfa-4e29-bddd-3b920a7dadf1","ios":"levelo://app?vid=62447513-abfa-4e29-bddd-3b920a7dadf1"},"vehicle_type_id":"4","last_reported":1753882443,"current_range_meters":9600,"station_id":"ce4bgh92rcd13ifvqb50","pricing_plan_id":"cebpf4jnsgd1na2vs0mg"},{"bike_id":"9255f7fb-ed88-4d39-ae75-e4e4b82264b2","system_id":"levelo_inurba_marseille","lat":43.28267,"lon":5.35064,"is_reserved":false,"is_disabled":false,"rental_uris":{"android":"levelo://app?vid=9255f7fb-ed88-4d39-ae75-e4e4b82264b2","ios":"levelo://app?vid=9255f7fb-ed88-4d39-ae75-e4e4b82264b2"},"vehicle_type_id":"4","last_reported":1753882443,"current_range_meters":9600,"station_id":"ce4bhbp2rcd13ifvqerg","pricing_plan_id":"cebpf4jnsgd1na2vs0mg"},{"bike_id":"673c0125-c4e4-4b4b-95c0-046678c3673f","system_id":"levelo_inurba_marseille","lat":43.28627,"lon":5.35102,"is_reserved":false,"is_disabled":false,"rental_uris":{"android":"levelo://app?vid=673c0125-c4e4-4b4b-95c0-046678c3673f","ios":"levelo://app?vid=673c0125-c4e4-4b4b-95c0-046678c3673f"},"vehicle_type_id":"4","last_reported":1753882443,"current_range_meters":9600,"station_id":"ce4bhch2rcd13ifvqeug","pricing_plan_id":"cebpf4jnsgd1na2vs0mg"},{"bike_id":"6793fd22-6975-49c2-bc53-f3fa121750ce","system_id":"levelo_inurba_marseille","lat":43.28937,"lon":5.36646,"is_reserved":false,"is_disabled":false,"rental_uris":{"android":"levelo://app?vid=6793fd22-6975-49c2-bc53-f3fa121750ce","ios":"levelo://app?vid=6793fd22-6975-49c2-bc53-f3fa121750ce"},"vehicle_type_id":"4","last_reported":1753882443,"current_range_meters":9600,"station_id":"ce4bhap2rcd13ifvqek0","pricing_plan_id":"cebpf4jnsgd1na2vs0mg"},{"bike_id":"b0235855-3433-40c6-9b44-ce01a73120bd","system_id":"levelo_inurba_marseille","lat":43.2416,"lon":5.3639,"is_reserved":false,"is_disabled":false,"rental_uris":{"android":"levelo://app?vid=b0235855-3433-40c6-9b44-ce01a73120bd","ios":"levelo://app?vid=b0235855-3433-40c6-9b44-ce01a73120bd"},"vehicle_type_id":"4","last_reported":1753882443,"current_range_meters":10000,"station_id":"cpo36qri1sfpv3e86is0","pricing_plan_id":"cebpf4jnsgd1na2vs0mg"},{"bike_id":"fef63e5d-55f5-49ab-b569-233189cc5b6d","system_id":"levelo_inurba_marseille","lat":43.31323,"lon":5.39701,"is_reserved":false,"is_disabled":false,"rental_uris":{"android":"levelo://app?vid=fef63e5d-55f5-49ab-b569-233189cc5b6d","ios":"levelo://app?vid=fef63e5d-55f5-49ab-b569-233189cc5b6d"},"vehicle_type_id":"4","last_reported":1753882443,"current_range_meters":10000,"station_id":"ce4bgvp2rcd13ifvqcu0","pricing_plan_id":"cebpf4jnsgd1na2vs0mg"},{"bike_id":"00de3457-bb26-4f86-be97-d29604933a4d","system_id":"levelo_inurba_marseille","lat":43.286437,"lon":5.371779,"is_reserved":false,"is_disabled":false,"rental_uris":{"android":"levelo://app?vid=00de3457-bb26-4f86-be97-d29604933a4d","ios":"levelo://app?vid=00de3457-bb26-4f86-be97-d29604933a4d"},"vehicle_type_id":"4","last_reported":1753882443,"current_range_meters":10000,"station_id":"","pricing_plan_id":"cebpf4jnsgd1na2vs0mg"},{"bike_id":"b879b8fc-7c17-42d7-b1e3-d28ef5c9d887","system_id":"levelo_inurba_marseille","lat":43.31493,"lon":5.37312,"is_reserved":false,"is_disabled":false,"rental_uris":{"android":"levelo://app?vid=b879b8fc-7c17-42d7-b1e3-d28ef5c9d887","ios":"levelo://app?vid=b879b8fc-7c17-42d7-b1e3-d28ef5c9d887"},"vehicle_type_id":"4","last_reported":1753882443,"current_range_meters":10800,"station_id":"ce4bgt12rcd13ifvqcd0","pricing_plan_id":"cebpf4jnsgd1na2vs0mg"},{"bike_id":"46327a3a-b112-4747-b636-17ebf6146226","system_id":"levelo_inurba_marseille","lat":43.31496,"lon":5.37315,"is_reserved":false,"is_disabled":false,"rental_uris":{"android":"levelo://app?vid=46327a3a-b112-4747-b636-17ebf6146226","ios":"levelo://app?vid=46327a3a-b112-4747-b636-17ebf6146226"},"vehicle_type_id":"4","last_reported":1753882443,"current_range_meters":10800,"station_id":"ce4bgt12rcd13ifvqcd0","pricing_plan_id":"cebpf4jnsgd1na2vs0mg"},{"bike_id":"635376a1-5d0c-4821-bf1a-f4af997a9af6","system_id":"levelo_inurba_marseille","lat":43.28866,"lon":5.35852,"is_reserved":false,"is_disabled":false,"rental_uris":{"android":"levelo://app?vid=635376a1-5d0c-4821-bf1a-f4af997a9af6","ios":"levelo://app?vid=635376a1-5d0c-4821-bf1a-f4af997a9af6"},"vehicle_type_id":"4","last_reported":1753882443,"current_range_meters":10800,"station_id":"ce4bhb12rcd13ifvqem0","pricing_plan_id":"cebpf4jnsgd1na2vs0mg"},{"bike_id":"c2c2e973-0d6c-4edf-b5a2-aa0e59a66d42","system_id":"levelo_inurba_marseille","lat":43.290147,"lon":5.356703,"is_reserved":false,"is_disabled":false,"rental_uris":{"android":"levelo://app?vid=c2c2e973-0d6c-4edf-b5a2-aa0e59a66d42","ios":"levelo://app?vid=c2c2e973-0d6c-4edf-b5a2-aa0e59a66d42"},"vehicle_type_id":"4","last_reported":1753882443,"current_range_meters":10000,"station_id":"ce4bgs92rcd13ifvqcc0","pricing_plan_id":"cebpf4jnsgd1na2vs0mg"},{"bike_id":"bdad4510-2380-485c-8f29-c4576e2d1b1f","system_id":"levelo_inurba_marseille","lat":43.29515,"lon":5.39415,"is_reserved":false,"is_disabled":false,"rental_uris":{"android":"levelo://app?vid=bdad4510-2380-485c-8f29-c4576e2d1b1f","ios":"levelo://app?vid=bdad4510-2380-485c-8f29-c4576e2d1b1f"},"vehicle_type_id":"4","last_reported":1753882443,"current_range_meters":11200,"station_id":"ce4bh292rcd13ifvqdf0","pricing_plan_id":"cebpf4jnsgd1na2vs0mg"},{"bike_id":"c20b0e63-9b3e-4b98-a321-7a09cecccd35","system_id":"levelo_inurba_marseille","lat":43.24144,"lon":5.36403,"is_reserved":false,"is_disabled":false,"rental_uris":{"android":"levelo://app?vid=c20b0e63-9b3e-4b98-a321-7a09cecccd35","ios":"levelo://app?vid=c20b0e63-9b3e-4b98-a321-7a09cecccd35"},"vehicle_type_id":"4","last_reported":1753882443,"current_range_meters":11200,"station_id":"cpo36qri1sfpv3e86is0","pricing_plan_id":"cebpf4jnsgd1na2vs0mg"},{"bike_id":"e3c34e71-880f-44f4-b1dd-77f7f0768d77","system_id":"levelo_inurba_marseille","lat":43.26679,"lon":5.38278,"is_reserved":false,"is_disabled":false,"rental_uris":{"android":"levelo://app?vid=e3c34e71-880f-44f4-b1dd-77f7f0768d77","ios":"levelo://app?vid=e3c34e71-880f-44f4-b1dd-77f7f0768d77"},"vehicle_type_id":"4","last_reported":1753882443,"current_range_meters":12400,"station_id":"ce4bhg92rcd13ifvqf90","pricing_plan_id":"cebpf4jnsgd1na2vs0mg"},{"bike_id":"dc929003-634b-4d3c-baf2-485754728ba3","system_id":"levelo_inurba_marseille","lat":43.24169,"lon":5.36374,"is_reserved":false,"is_disabled":false,"rental_uris":{"android":"levelo://app?vid=dc929003-634b-4d3c-baf2-485754728ba3","ios":"levelo://app?vid=dc929003-634b-4d3c-baf2-485754728ba3"},"vehicle_type_id":"4","last_reported":1753882443,"current_range_meters":11200,"station_id":"cpo36qri1sfpv3e86is0","pricing_plan_id":"cebpf4jnsgd1na2vs0mg"},{"bike_id":"f3cae445-1f57-4766-94c7-ccdd006436b3","system_id":"levelo_inurba_marseille","lat":43.30435,"lon":5.38894,"is_reserved":false,"is_disabled":false,"rental_uris":{"android":"levelo://app?vid=f3cae445-1f57-4766-94c7-ccdd006436b3","ios":"levelo://app?vid=f3cae445-1f57-4766-94c7-ccdd006436b3"},"vehicle_type_id":"4","last_reported":1753882443,"current_range_meters":11600,"station_id":"ce4bgk12rcd13ifvqbi0","pricing_plan_id":"cebpf4jnsgd1na2vs0mg"},{"bike_id":"cf27f87d-183d-42dd-ba5c-a55dbadba5a3","system_id":"levelo_inurba_marseille","lat":43.284149,"lon":5.349853,"is_reserved":false,"is_disabled":false,"rental_uris":{"android":"levelo://app?vid=cf27f87d-183d-42dd-ba5c-a55dbadba5a3","ios":"levelo://app?vid=cf27f87d-183d-42dd-ba5c-a55dbadba5a3"},"vehicle_type_id":"4","last_reported":1753882443,"current_range_meters":11600,"station_id":"ce4bhbh2rcd13ifvqepg","pricing_plan_id":"cebpf4jnsgd1na2vs0mg"},{"bike_id":"e04978f3-d665-4a61-ae50-6a07923d04b6","system_id":"levelo_inurba_marseille","lat":43.28429,"lon":5.34989,"is_reserved":false,"is_disabled":false,"rental_uris":{"android":"levelo://app?vid=e04978f3-d665-4a61-ae50-6a07923d04b6","ios":"levelo://app?vid=e04978f3-d665-4a61-ae50-6a07923d04b6"},"vehicle_type_id":"4","last_reported":1753882443,"current_range_meters":11600,"station_id":"ce4bhbh2rcd13ifvqepg","pricing_plan_id":"cebpf4jnsgd1na2vs0mg"},{"bike_id":"58d60ef7-501e-48a0-a97f-c0e09ff3aab0","system_id":"levelo_inurba_marseille","lat":43.222792,"lon":5.345958,"is_reserved":false,"is_disabled":false,"rental_uris":{"android":"levelo://app?vid=58d60ef7-501e-48a0-a97f-c0e09ff3aab0","ios":"levelo://app?vid=58d60ef7-501e-48a0-a97f-c0e09ff3aab0"},"vehicle_type_id":"4","last_reported":1753882443,"current_range_meters":11600,"station_id":"ce4bhp92rcd13ifvqhag","pricing_plan_id":"cebpf4jnsgd1na2vs0mg"},{"bike_id":"bb4a0e1c-d38c-4699-a919-9ae60709e115","system_id":"levelo_inurba_marseille","lat":43.28294,"lon":5.35071,"is_reserved":false,"is_disabled":false,"rental_uris":{"android":"levelo://app?vid=bb4a0e1c-d38c-4699-a919-9ae60709e115","ios":"levelo://app?vid=bb4a0e1c-d38c-4699-a919-9ae60709e115"},"vehicle_type_id":"4","last_reported":1753882443,"current_range_meters":11600,"station_id":"ce4bhbp2rcd13ifvqerg","pricing_plan_id":"cebpf4jnsgd1na2vs0mg"},{"bike_id":"cc3d3806-397b-453b-9ab3-2441a3392087","system_id":"levelo_inurba_marseille","lat":43.25504,"lon":5.37651,"is_reserved":false,"is_disabled":false,"rental_uris":{"android":"levelo://app?vid=cc3d3806-397b-453b-9ab3-2441a3392087","ios":"levelo://app?vid=cc3d3806-397b-453b-9ab3-2441a3392087"},"vehicle_type_id":"4","last_reported":1753882443,"current_range_meters":11600,"station_id":"ce4bhh12rcd13ifvqff0","pricing_plan_id":"cebpf4jnsgd1na2vs0mg"},{"bike_id":"d7f606f4-63b1-44a0-abe2-d82127aff96c","system_id":"levelo_inurba_marseille","lat":43.29846,"lon":5.36278,"is_reserved":false,"is_disabled":false,"rental_uris":{"android":"levelo://app?vid=d7f606f4-63b1-44a0-abe2-d82127aff96c","ios":"levelo://app?vid=d7f606f4-63b1-44a0-abe2-d82127aff96c"},"vehicle_type_id":"4","last_reported":1753882443,"current_range_meters":11600,"station_id":"ce4bgpp2rcd13ifvqc3g","pricing_plan_id":"cebpf4jnsgd1na2vs0mg"},{"bike_id":"bbb4218b-6cc3-4d8b-90d4-2591ff2cb0ec","system_id":"levelo_inurba_marseille","lat":43.24157,"lon":5.36397,"is_reserved":false,"is_disabled":false,"rental_uris":{"android":"levelo://app?vid=bbb4218b-6cc3-4d8b-90d4-2591ff2cb0ec","ios":"levelo://app?vid=bbb4218b-6cc3-4d8b-90d4-2591ff2cb0ec"},"vehicle_type_id":"4","last_reported":1753882443,"current_range_meters":11600,"station_id":"cpo36qri1sfpv3e86is0","pricing_plan_id":"cebpf4jnsgd1na2vs0mg"},{"bike_id":"9c747a33-0fe1-4ee1-a3f1-b60829904cca","system_id":"levelo_inurba_marseille","lat":43.23153,"lon":5.43712,"is_reserved":false,"is_disabled":false,"rental_uris":{"android":"levelo://app?vid=9c747a33-0fe1-4ee1-a3f1-b60829904cca","ios":"levelo://app?vid=9c747a33-0fe1-4ee1-a3f1-b60829904cca"},"vehicle_type_id":"4","last_reported":1753882443,"current_range_meters":11600,"station_id":"ce4bhmp2rcd13ifvqgog","pricing_plan_id":"cebpf4jnsgd1na2vs0mg"},{"bike_id":"b48f5dd0-6dba-4454-bab2-8fe0e77c0439","system_id":"levelo_inurba_marseille","lat":43.241574,"lon":5.364139,"is_reserved":false,"is_disabled":false,"rental_uris":{"android":"levelo://app?vid=b48f5dd0-6dba-4454-bab2-8fe0e77c0439","ios":"levelo://app?vid=b48f5dd0-6dba-4454-bab2-8fe0e77c0439"},"vehicle_type_id":"4","last_reported":1753882443,"current_range_meters":12000,"station_id":"cpo36qri1sfpv3e86is0","pricing_plan_id":"cebpf4jnsgd1na2vs0mg"},{"bike_id":"12ba8816-1c32-4cf1-b068-dabcee1f50cf","system_id":"levelo_inurba_marseille","lat":43.30525,"lon":5.36699,"is_reserved":false,"is_disabled":false,"rental_uris":{"android":"levelo://app?vid=12ba8816-1c32-4cf1-b068-dabcee1f50cf","ios":"levelo://app?vid=12ba8816-1c32-4cf1-b068-dabcee1f50cf"},"vehicle_type_id":"4","last_reported":1753882443,"current_range_meters":12000,"station_id":"ce4bgrp2rcd13ifvqc9g","pricing_plan_id":"cebpf4jnsgd1na2vs0mg"},{"bike_id":"f129605f-c561-462b-9dd8-38b1fae764e6","system_id":"levelo_inurba_marseille","lat":43.323539,"lon":5.367529,"is_reserved":false,"is_disabled":false,"rental_uris":{"android":"levelo://app?vid=f129605f-c561-462b-9dd8-38b1fae764e6","ios":"levelo://app?vid=f129605f-c561-462b-9dd8-38b1fae764e6"},"vehicle_type_id":"4","last_reported":1753882443,"current_range_meters":12000,"station_id":"ce4bhsh2rcd13ifvqi2g","pricing_plan_id":"cebpf4jnsgd1na2vs0mg"},{"bike_id":"7fc208ed-e911-4d82-a986-8e995f97f293","system_id":"levelo_inurba_marseille","lat":43.28291,"lon":5.35142,"is_reserved":false,"is_disabled":false,"rental_uris":{"android":"levelo://app?vid=7fc208ed-e911-4d82-a986-8e995f97f293","ios":"levelo://app?vid=7fc208ed-e911-4d82-a986-8e995f97f293"},"vehicle_type_id":"4","last_reported":1753882443,"current_range_meters":12000,"station_id":"","pricing_plan_id":"cebpf4jnsgd1na2vs0mg"},{"bike_id":"07064b6c-0c5d-418e-acef-8192c0c78ee2","system_id":"levelo_inurba_marseille","lat":43.30135,"lon":5.39862,"is_reserved":false,"is_disabled":false,"rental_uris":{"android":"levelo://app?vid=07064b6c-0c5d-418e-acef-8192c0c78ee2","ios":"levelo://app?vid=07064b6c-0c5d-418e-acef-8192c0c78ee2"},"vehicle_type_id":"4","last_reported":1753882443,"current_range_meters":12000,"station_id":"ce4bh0h2rcd13ifvqd40","pricing_plan_id":"cebpf4jnsgd1na2vs0mg"},{"bike_id":"5fdeab66-ff2a-4660-8fe8-cacaa04824fe","system_id":"levelo_inurba_marseille","lat":43.28945,"lon":5.36405,"is_reserved":false,"is_disabled":false,"rental_uris":{"android":"levelo://app?vid=5fdeab66-ff2a-4660-8fe8-cacaa04824fe","ios":"levelo://app?vid=5fdeab66-ff2a-4660-8fe8-cacaa04824fe"},"vehicle_type_id":"4","last_reported":1753882443,"current_range_meters":12000,"station_id":"ce4bhc92rcd13ifvqetg","pricing_plan_id":"cebpf4jnsgd1na2vs0mg"},{"bike_id":"6c530f22-14a5-4ecf-b312-4642c2d6b9fb","system_id":"levelo_inurba_marseille","lat":43.28269,"lon":5.35067,"is_reserved":false,"is_disabled":false,"rental_uris":{"android":"levelo://app?vid=6c530f22-14a5-4ecf-b312-4642c2d6b9fb","ios":"levelo://app?vid=6c530f22-14a5-4ecf-b312-4642c2d6b9fb"},"vehicle_type_id":"4","last_reported":1753882443,"current_range_meters":12400,"station_id":"ce4bhbp2rcd13ifvqerg","pricing_plan_id":"cebpf4jnsgd1na2vs0mg"},{"bike_id":"135ab1ea-fc9a-4785-9240-6bfa3adf7c7c","system_id":"levelo_inurba_marseille","lat":43.323644,"lon":5.367547,"is_reserved":false,"is_disabled":false,"rental_uris":{"android":"levelo://app?vid=135ab1ea-fc9a-4785-9240-6bfa3adf7c7c","ios":"levelo://app?vid=135ab1ea-fc9a-4785-9240-6bfa3adf7c7c"},"vehicle_type_id":"4","last_reported":1753882443,"current_range_meters":12400,"station_id":"ce4bhsh2rcd13ifvqi2g","pricing_plan_id":"cebpf4jnsgd1na2vs0mg"},{"bike_id":"23cb5642-15b1-4dff-8751-77349dab4204","system_id":"levelo_inurba_marseille","lat":43.22953,"lon":5.35379,"is_reserved":false,"is_disabled":false,"rental_uris":{"android":"levelo://app?vid=23cb5642-15b1-4dff-8751-77349dab4204","ios":"levelo://app?vid=23cb5642-15b1-4dff-8751-77349dab4204"},"vehicle_type_id":"4","last_reported":1753882443,"current_range_meters":12400,"station_id":"cpo3532slgdg3j2ikp40","pricing_plan_id":"cebpf4jnsgd1na2vs0mg"},{"bike_id":"4899f725-59c0-455e-9c75-4a6a35cd0fe9","system_id":"levelo_inurba_marseille","lat":43.28934,"lon":5.36631,"is_reserved":false,"is_disabled":false,"rental_uris":{"android":"levelo://app?vid=4899f725-59c0-455e-9c75-4a6a35cd0fe9","ios":"levelo://app?vid=4899f725-59c0-455e-9c75-4a6a35cd0fe9"},"vehicle_type_id":"4","last_reported":1753882443,"current_range_meters":12400,"station_id":"ce4bhap2rcd13ifvqek0","pricing_plan_id":"cebpf4jnsgd1na2vs0mg"},{"bike_id":"8f41ed9d-1778-4af7-b2ad-fd1607beff4e","system_id":"levelo_inurba_marseille","lat":43.22521,"lon":5.34773,"is_reserved":false,"is_disabled":false,"rental_uris":{"android":"levelo://app?vid=8f41ed9d-1778-4af7-b2ad-fd1607beff4e","ios":"levelo://app?vid=8f41ed9d-1778-4af7-b2ad-fd1607beff4e"},"vehicle_type_id":"4","last_reported":1753882443,"current_range_meters":12400,"station_id":"st_cvj5dfep6f1abm77gieg","pricing_plan_id":"cebpf4jnsgd1na2vs0mg"},{"bike_id":"09d9fb0d-5895-4ede-8bff-f8671b9f61ad","system_id":"levelo_inurba_marseille","lat":43.29371,"lon":5.37835,"is_reserved":false,"is_disabled":false,"rental_uris":{"android":"levelo://app?vid=09d9fb0d-5895-4ede-8bff-f8671b9f61ad","ios":"levelo://app?vid=09d9fb0d-5895-4ede-8bff-f8671b9f61ad"},"vehicle_type_id":"4","last_reported":1753882443,"current_range_meters":12400,"station_id":"ce4bgjh2rcd13ifvqbf0","pricing_plan_id":"cebpf4jnsgd1na2vs0mg"},{"bike_id":"056e4f3d-4ab7-42da-9834-2ca05b8a0f52","system_id":"levelo_inurba_marseille","lat":43.31505,"lon":5.36805,"is_reserved":false,"is_disabled":false,"rental_uris":{"android":"levelo://app?vid=056e4f3d-4ab7-42da-9834-2ca05b8a0f52","ios":"levelo://app?vid=056e4f3d-4ab7-42da-9834-2ca05b8a0f52"},"vehicle_type_id":"4","last_reported":1753882443,"current_range_meters":12400,"station_id":"","pricing_plan_id":"cebpf4jnsgd1na2vs0mg"},{"bike_id":"85d95a9a-bae1-4127-a50f-dff98ce29fd5","system_id":"levelo_inurba_marseille","lat":43.32489,"lon":5.373943,"is_reserved":false,"is_disabled":false,"rental_uris":{"android":"levelo://app?vid=85d95a9a-bae1-4127-a50f-dff98ce29fd5","ios":"levelo://app?vid=85d95a9a-bae1-4127-a50f-dff98ce29fd5"},"vehicle_type_id":"4","last_reported":1753882443,"current_range_meters":12800,"station_id":"","pricing_plan_id":"cebpf4jnsgd1na2vs0mg"},{"bike_id":"49021746-c7af-41a4-a12e-e346bffb775c","system_id":"levelo_inurba_marseille","lat":43.28856,"lon":5.35852,"is_reserved":false,"is_disabled":false,"rental_uris":{"android":"levelo://app?vid=49021746-c7af-41a4-a12e-e346bffb775c","ios":"levelo://app?vid=49021746-c7af-41a4-a12e-e346bffb775c"},"vehicle_type_id":"4","last_reported":1753882443,"current_range_meters":12800,"station_id":"ce4bhb12rcd13ifvqem0","pricing_plan_id":"cebpf4jnsgd1na2vs0mg"},{"bike_id":"671701a9-7243-46ba-9df9-fa49b6935265","system_id":"levelo_inurba_marseille","lat":43.25979,"lon":5.37232,"is_reserved":false,"is_disabled":false,"rental_uris":{"android":"levelo://app?vid=671701a9-7243-46ba-9df9-fa49b6935265","ios":"levelo://app?vid=671701a9-7243-46ba-9df9-fa49b6935265"},"vehicle_type_id":"4","last_reported":1753882443,"current_range_meters":12800,"station_id":"","pricing_plan_id":"cebpf4jnsgd1na2vs0mg"},{"bike_id":"24ddc855-9db1-447b-8cc7-fb33f85a47fb","system_id":"levelo_inurba_marseille","lat":43.30595,"lon":5.37213,"is_reserved":false,"is_disabled":false,"rental_uris":{"android":"levelo://app?vid=24ddc855-9db1-447b-8cc7-fb33f85a47fb","ios":"levelo://app?vid=24ddc855-9db1-447b-8cc7-fb33f85a47fb"},"vehicle_type_id":"4","last_reported":1753882443,"current_range_meters":12800,"station_id":"ce4bgqh2rcd13ifvqc4g","pricing_plan_id":"cebpf4jnsgd1na2vs0mg"},{"bike_id":"c686771c-e4d6-4ee5-934b-f3ca190b833e","system_id":"levelo_inurba_marseille","lat":43.32765,"lon":5.39204,"is_reserved":false,"is_disabled":false,"rental_uris":{"android":"levelo://app?vid=c686771c-e4d6-4ee5-934b-f3ca190b833e","ios":"levelo://app?vid=c686771c-e4d6-4ee5-934b-f3ca190b833e"},"vehicle_type_id":"4","last_reported":1753882443,"current_range_meters":12800,"station_id":"","pricing_plan_id":"cebpf4jnsgd1na2vs0mg"},{"bike_id":"459d4ba4-c4df-4996-9ed0-55b6aa49cef3","system_id":"levelo_inurba_marseille","lat":43.30496,"lon":5.36716,"is_reserved":false,"is_disabled":false,"rental_uris":{"android":"levelo://app?vid=459d4ba4-c4df-4996-9ed0-55b6aa49cef3","ios":"levelo://app?vid=459d4ba4-c4df-4996-9ed0-55b6aa49cef3"},"vehicle_type_id":"4","last_reported":1753882443,"current_range_meters":13600,"station_id":"ce4bgrp2rcd13ifvqc9g","pricing_plan_id":"cebpf4jnsgd1na2vs0mg"},{"bike_id":"887f6f93-0eac-4bcd-a75b-a8c98047a14d","system_id":"levelo_inurba_marseille","lat":43.21206,"lon":5.3507,"is_reserved":false,"is_disabled":false,"rental_uris":{"android":"levelo://app?vid=887f6f93-0eac-4bcd-a75b-a8c98047a14d","ios":"levelo://app?vid=887f6f93-0eac-4bcd-a75b-a8c98047a14d"},"vehicle_type_id":"4","last_reported":1753882443,"current_range_meters":13600,"station_id":"","pricing_plan_id":"cebpf4jnsgd1na2vs0mg"},{"bike_id":"a8cb0696-e3c5-42bf-8e8b-31897b360093","system_id":"levelo_inurba_marseille","lat":43.29875,"lon":5.36295,"is_reserved":false,"is_disabled":false,"rental_uris":{"android":"levelo://app?vid=a8cb0696-e3c5-42bf-8e8b-31897b360093","ios":"levelo://app?vid=a8cb0696-e3c5-42bf-8e8b-31897b360093"},"vehicle_type_id":"4","last_reported":1753882443,"current_range_meters":13600,"station_id":"ce4bgpp2rcd13ifvqc3g","pricing_plan_id":"cebpf4jnsgd1na2vs0mg"},{"bike_id":"a6a46ae2-d764-44ee-baf2-a76e49bd9084","system_id":"levelo_inurba_marseille","lat":43.269855,"lon":5.403029,"is_reserved":false,"is_disabled":false,"rental_uris":{"android":"levelo://app?vid=a6a46ae2-d764-44ee-baf2-a76e49bd9084","ios":"levelo://app?vid=a6a46ae2-d764-44ee-baf2-a76e49bd9084"},"vehicle_type_id":"4","last_reported":1753882443,"current_range_meters":13600,"station_id":"","pricing_plan_id":"cebpf4jnsgd1na2vs0mg"},{"bike_id":"5ff7b424-be72-460e-9279-c80ac3b388ac","system_id":"levelo_inurba_marseille","lat":43.231883,"lon":5.399937,"is_reserved":false,"is_disabled":false,"rental_uris":{"android":"levelo://app?vid=5ff7b424-be72-460e-9279-c80ac3b388ac","ios":"levelo://app?vid=5ff7b424-be72-460e-9279-c80ac3b388ac"},"vehicle_type_id":"4","last_reported":1753882443,"current_range_meters":13600,"station_id":"ce4bhn12rcd13ifvqgqg","pricing_plan_id":"cebpf4jnsgd1na2vs0mg"},{"bike_id":"3d60e95a-8706-4e13-b31f-ac7a913f607a","system_id":"levelo_inurba_marseille","lat":43.22925,"lon":5.35397,"is_reserved":false,"is_disabled":false,"rental_uris":{"android":"levelo://app?vid=3d60e95a-8706-4e13-b31f-ac7a913f607a","ios":"levelo://app?vid=3d60e95a-8706-4e13-b31f-ac7a913f607a"},"vehicle_type_id":"4","last_reported":1753882443,"current_range_meters":14000,"station_id":"cpo3532slgdg3j2ikp40","pricing_plan_id":"cebpf4jnsgd1na2vs0mg"},{"bike_id":"2fad1b6f-d0b7-4211-9b9d-661d7c090096","system_id":"levelo_inurba_marseille","lat":43.29803,"lon":5.43325,"is_reserved":false,"is_disabled":false,"rental_uris":{"android":"levelo://app?vid=2fad1b6f-d0b7-4211-9b9d-661d7c090096","ios":"levelo://app?vid=2fad1b6f-d0b7-4211-9b9d-661d7c090096"},"vehicle_type_id":"4","last_reported":1753882443,"current_range_meters":14000,"station_id":"","pricing_plan_id":"cebpf4jnsgd1na2vs0mg"},{"bike_id":"ae6c8428-e39e-40be-9df7-f418521aa777","system_id":"levelo_inurba_marseille","lat":43.229273,"lon":5.353791,"is_reserved":false,"is_disabled":false,"rental_uris":{"android":"levelo://app?vid=ae6c8428-e39e-40be-9df7-f418521aa777","ios":"levelo://app?vid=ae6c8428-e39e-40be-9df7-f418521aa777"},"vehicle_type_id":"4","last_reported":1753882443,"current_range_meters":14000,"station_id":"cpo3532slgdg3j2ikp40","pricing_plan_id":"cebpf4jnsgd1na2vs0mg"},{"bike_id":"116d91c8-22c6-44b9-ad68-dfbfbe9e23dc","system_id":"levelo_inurba_marseille","lat":43.3246,"lon":5.36577,"is_reserved":false,"is_disabled":false,"rental_uris":{"android":"levelo://app?vid=116d91c8-22c6-44b9-ad68-dfbfbe9e23dc","ios":"levelo://app?vid=116d91c8-22c6-44b9-ad68-dfbfbe9e23dc"},"vehicle_type_id":"4","last_reported":1753882443,"current_range_meters":14000,"station_id":"ce4bhs12rcd13ifvqhvg","pricing_plan_id":"cebpf4jnsgd1na2vs0mg"},{"bike_id":"8d806757-d42e-4524-8e1d-dc64e42b3e0d","system_id":"levelo_inurba_marseille","lat":43.28618,"lon":5.35106,"is_reserved":false,"is_disabled":false,"rental_uris":{"android":"levelo://app?vid=8d806757-d42e-4524-8e1d-dc64e42b3e0d","ios":"levelo://app?vid=8d806757-d42e-4524-8e1d-dc64e42b3e0d"},"vehicle_type_id":"4","last_reported":1753882443,"current_range_meters":14000,"station_id":"ce4bhch2rcd13ifvqeug","pricing_plan_id":"cebpf4jnsgd1na2vs0mg"},{"bike_id":"58393c2c-caac-478a-92a7-0dad0c9ca20d","system_id":"levelo_inurba_marseille","lat":43.26787,"lon":5.39451,"is_reserved":false,"is_disabled":false,"rental_uris":{"android":"levelo://app?vid=58393c2c-caac-478a-92a7-0dad0c9ca20d","ios":"levelo://app?vid=58393c2c-caac-478a-92a7-0dad0c9ca20d"},"vehicle_type_id":"4","last_reported":1753882443,"current_range_meters":14000,"station_id":"ce4bhh12rcd13ifvqfg0","pricing_plan_id":"cebpf4jnsgd1na2vs0mg"},{"bike_id":"3dc94204-2f3e-4b8d-a98a-2eebdfcaff10","system_id":"levelo_inurba_marseille","lat":43.225036,"lon":5.347812,"is_reserved":false,"is_disabled":false,"rental_uris":{"android":"levelo://app?vid=3dc94204-2f3e-4b8d-a98a-2eebdfcaff10","ios":"levelo://app?vid=3dc94204-2f3e-4b8d-a98a-2eebdfcaff10"},"vehicle_type_id":"4","last_reported":1753882443,"current_range_meters":14000,"station_id":"st_cvj5dfep6f1abm77gieg","pricing_plan_id":"cebpf4jnsgd1na2vs0mg"},{"bike_id":"79487424-22bb-4578-99a4-da7f1480cf68","system_id":"levelo_inurba_marseille","lat":43.27375,"lon":5.36258,"is_reserved":false,"is_disabled":false,"rental_uris":{"android":"levelo://app?vid=79487424-22bb-4578-99a4-da7f1480cf68","ios":"levelo://app?vid=79487424-22bb-4578-99a4-da7f1480cf68"},"vehicle_type_id":"4","last_reported":1753882443,"current_range_meters":14000,"station_id":"ce4bhbh2rcd13ifvqeo0","pricing_plan_id":"cebpf4jnsgd1na2vs0mg"},{"bike_id":"55108425-41fa-4001-b08d-c37462ba217e","system_id":"levelo_inurba_marseille","lat":43.31081,"lon":5.42417,"is_reserved":false,"is_disabled":false,"rental_uris":{"android":"levelo://app?vid=55108425-41fa-4001-b08d-c37462ba217e","ios":"levelo://app?vid=55108425-41fa-4001-b08d-c37462ba217e"},"vehicle_type_id":"4","last_reported":1753882443,"current_range_meters":14400,"station_id":"ce4bhp92rcd13ifvqhag","pricing_plan_id":"cebpf4jnsgd1na2vs0mg"},{"bike_id":"58be7913-8aef-4e44-a06f-70a6ca0a8840","system_id":"levelo_inurba_marseille","lat":43.2862,"lon":5.35106,"is_reserved":false,"is_disabled":false,"rental_uris":{"android":"levelo://app?vid=58be7913-8aef-4e44-a06f-70a6ca0a8840","ios":"levelo://app?vid=58be7913-8aef-4e44-a06f-70a6ca0a8840"},"vehicle_type_id":"4","last_reported":1753882443,"current_range_meters":14400,"station_id":"ce4bhch2rcd13ifvqeug","pricing_plan_id":"cebpf4jnsgd1na2vs0mg"},{"bike_id":"b44d763b-4f92-4731-b76a-85ebcd91acd5","system_id":"levelo_inurba_marseille","lat":43.30211,"lon":5.37125,"is_reserved":false,"is_disabled":false,"rental_uris":{"android":"levelo://app?vid=b44d763b-4f92-4731-b76a-85ebcd91acd5","ios":"levelo://app?vid=b44d763b-4f92-4731-b76a-85ebcd91acd5"},"vehicle_type_id":"4","last_reported":1753882443,"current_range_meters":14400,"station_id":"","pricing_plan_id":"cebpf4jnsgd1na2vs0mg"},{"bike_id":"97e0cc1c-fa5d-41b9-8b72-3eed848ec1f7","system_id":"levelo_inurba_marseille","lat":43.330295,"lon":5.390706,"is_reserved":false,"is_disabled":false,"rental_uris":{"android":"levelo://app?vid=97e0cc1c-fa5d-41b9-8b72-3eed848ec1f7","ios":"levelo://app?vid=97e0cc1c-fa5d-41b9-8b72-3eed848ec1f7"},"vehicle_type_id":"4","last_reported":1753882443,"current_range_meters":14400,"station_id":"ce4bhr92rcd13ifvqhrg","pricing_plan_id":"cebpf4jnsgd1na2vs0mg"},{"bike_id":"5c9160ef-4dfa-47d2-93ef-2b30f19b283e","system_id":"levelo_inurba_marseille","lat":43.22931,"lon":5.35382,"is_reserved":false,"is_disabled":false,"rental_uris":{"android":"levelo://app?vid=5c9160ef-4dfa-47d2-93ef-2b30f19b283e","ios":"levelo://app?vid=5c9160ef-4dfa-47d2-93ef-2b30f19b283e"},"vehicle_type_id":"4","last_reported":1753882443,"current_range_meters":14400,"station_id":"cpo3532slgdg3j2ikp40","pricing_plan_id":"cebpf4jnsgd1na2vs0mg"},{"bike_id":"49ac42e3-46a9-464c-add5-aa76569577fd","system_id":"levelo_inurba_marseille","lat":43.26233,"lon":5.37447,"is_reserved":false,"is_disabled":false,"rental_uris":{"android":"levelo://app?vid=49ac42e3-46a9-464c-add5-aa76569577fd","ios":"levelo://app?vid=49ac42e3-46a9-464c-add5-aa76569577fd"},"vehicle_type_id":"4","last_reported":1753882443,"current_range_meters":14800,"station_id":"ce4bhgp2rcd13ifvqfc0","pricing_plan_id":"cebpf4jnsgd1na2vs0mg"},{"bike_id":"19295018-235d-4f62-9c12-0203c908e699","system_id":"levelo_inurba_marseille","lat":43.22922,"lon":5.35387,"is_reserved":false,"is_disabled":false,"rental_uris":{"android":"levelo://app?vid=19295018-235d-4f62-9c12-0203c908e699","ios":"levelo://app?vid=19295018-235d-4f62-9c12-0203c908e699"},"vehicle_type_id":"4","last_reported":1753882443,"current_range_meters":14800,"station_id":"cpo3532slgdg3j2ikp40","pricing_plan_id":"cebpf4jnsgd1na2vs0mg"},{"bike_id":"5f72df66-2d68-4c6e-a917-44e1dcfede98","system_id":"levelo_inurba_marseille","lat":43.229353,"lon":5.353871,"is_reserved":false,"is_disabled":false,"rental_uris":{"android":"levelo://app?vid=5f72df66-2d68-4c6e-a917-44e1dcfede98","ios":"levelo://app?vid=5f72df66-2d68-4c6e-a917-44e1dcfede98"},"vehicle_type_id":"4","last_reported":1753882443,"current_range_meters":14800,"station_id":"cpo3532slgdg3j2ikp40","pricing_plan_id":"cebpf4jnsgd1na2vs0mg"},{"bike_id":"daabd21d-fe72-4bef-9caa-c5886e1b6fe4","system_id":"levelo_inurba_marseille","lat":43.32088,"lon":5.36973,"is_reserved":false,"is_disabled":false,"rental_uris":{"android":"levelo://app?vid=daabd21d-fe72-4bef-9caa-c5886e1b6fe4","ios":"levelo://app?vid=daabd21d-fe72-4bef-9caa-c5886e1b6fe4"},"vehicle_type_id":"4","last_reported":1753882443,"current_range_meters":14800,"station_id":"","pricing_plan_id":"cebpf4jnsgd1na2vs0mg"},{"bike_id":"a05992f6-1f51-4dbf-8921-4ad77bab57e9","system_id":"levelo_inurba_marseille","lat":43.24166,"lon":5.36406,"is_reserved":false,"is_disabled":false,"rental_uris":{"android":"levelo://app?vid=a05992f6-1f51-4dbf-8921-4ad77bab57e9","ios":"levelo://app?vid=a05992f6-1f51-4dbf-8921-4ad77bab57e9"},"vehicle_type_id":"4","last_reported":1753882443,"current_range_meters":14800,"station_id":"cpo36qri1sfpv3e86is0","pricing_plan_id":"cebpf4jnsgd1na2vs0mg"},{"bike_id":"f4dd1d6b-69f7-4979-8b59-33b6c8a3403c","system_id":"levelo_inurba_marseille","lat":43.2738,"lon":5.36239,"is_reserved":false,"is_disabled":false,"rental_uris":{"android":"levelo://app?vid=f4dd1d6b-69f7-4979-8b59-33b6c8a3403c","ios":"levelo://app?vid=f4dd1d6b-69f7-4979-8b59-33b6c8a3403c"},"vehicle_type_id":"4","last_reported":1753882443,"current_range_meters":15200,"station_id":"ce4bhbh2rcd13ifvqeo0","pricing_plan_id":"cebpf4jnsgd1na2vs0mg"},{"bike_id":"258208fd-626e-4fa2-a64c-19fbd71af95f","system_id":"levelo_inurba_marseille","lat":43.30088,"lon":5.39108,"is_reserved":false,"is_disabled":true,"rental_uris":{"android":"levelo://app?vid=258208fd-626e-4fa2-a64c-19fbd71af95f","ios":"levelo://app?vid=258208fd-626e-4fa2-a64c-19fbd71af95f"},"vehicle_type_id":"4","last_reported":1753882443,"current_range_meters":15200,"station_id":"ce4bh192rcd13ifvqdb0","pricing_plan_id":"cebpf4jnsgd1na2vs0mg"},{"bike_id":"08073e5b-d435-43b0-916e-1335ff23adf1","system_id":"levelo_inurba_marseille","lat":43.225097,"lon":5.347853,"is_reserved":false,"is_disabled":false,"rental_uris":{"android":"levelo://app?vid=08073e5b-d435-43b0-916e-1335ff23adf1","ios":"levelo://app?vid=08073e5b-d435-43b0-916e-1335ff23adf1"},"vehicle_type_id":"4","last_reported":1753882443,"current_range_meters":15200,"station_id":"st_cvj5dfep6f1abm77gieg","pricing_plan_id":"cebpf4jnsgd1na2vs0mg"},{"bike_id":"e62b97ac-db89-4c3f-8c0a-ce4e80fbfc31","system_id":"levelo_inurba_marseille","lat":43.28868,"lon":5.35848,"is_reserved":false,"is_disabled":false,"rental_uris":{"android":"levelo://app?vid=e62b97ac-db89-4c3f-8c0a-ce4e80fbfc31","ios":"levelo://app?vid=e62b97ac-db89-4c3f-8c0a-ce4e80fbfc31"},"vehicle_type_id":"4","last_reported":1753882443,"current_range_meters":15200,"station_id":"ce4bhb12rcd13ifvqem0","pricing_plan_id":"cebpf4jnsgd1na2vs0mg"},{"bike_id":"807ee3ac-ec42-44be-a33b-e36724ceb7c0","system_id":"levelo_inurba_marseille","lat":43.308,"lon":5.38164,"is_reserved":false,"is_disabled":true,"rental_uris":{"android":"levelo://app?vid=807ee3ac-ec42-44be-a33b-e36724ceb7c0","ios":"levelo://app?vid=807ee3ac-ec42-44be-a33b-e36724ceb7c0"},"vehicle_type_id":"4","last_reported":1753882443,"current_range_meters":15200,"station_id":"ce4bgt12rcd13ifvqce0","pricing_plan_id":"cebpf4jnsgd1na2vs0mg"},{"bike_id":"da913aa8-3d8c-4ab2-b48f-187998fd2a99","system_id":"levelo_inurba_marseille","lat":43.31489,"lon":5.37298,"is_reserved":false,"is_disabled":false,"rental_uris":{"android":"levelo://app?vid=da913aa8-3d8c-4ab2-b48f-187998fd2a99","ios":"levelo://app?vid=da913aa8-3d8c-4ab2-b48f-187998fd2a99"},"vehicle_type_id":"4","last_reported":1753882443,"current_range_meters":16000,"station_id":"ce4bgt12rcd13ifvqcd0","pricing_plan_id":"cebpf4jnsgd1na2vs0mg"},{"bike_id":"6a413449-73a9-4547-ac97-05db0314d4f4","system_id":"levelo_inurba_marseille","lat":43.29975,"lon":5.37185,"is_reserved":false,"is_disabled":false,"rental_uris":{"android":"levelo://app?vid=6a413449-73a9-4547-ac97-05db0314d4f4","ios":"levelo://app?vid=6a413449-73a9-4547-ac97-05db0314d4f4"},"vehicle_type_id":"4","last_reported":1753882443,"current_range_meters":16000,"station_id":"ce4bgr92rcd13ifvqc7g","pricing_plan_id":"cebpf4jnsgd1na2vs0mg"},{"bike_id":"3e8122e0-364e-4231-8b02-eed1a2921818","system_id":"levelo_inurba_marseille","lat":43.225036,"lon":5.347849,"is_reserved":false,"is_disabled":false,"rental_uris":{"android":"levelo://app?vid=3e8122e0-364e-4231-8b02-eed1a2921818","ios":"levelo://app?vid=3e8122e0-364e-4231-8b02-eed1a2921818"},"vehicle_type_id":"4","last_reported":1753882443,"current_range_meters":16000,"station_id":"st_cvj5dfep6f1abm77gieg","pricing_plan_id":"cebpf4jnsgd1na2vs0mg"},{"bike_id":"f20aee6c-2a6c-4bd7-ba2d-4f059f18e677","system_id":"levelo_inurba_marseille","lat":43.23964,"lon":5.36629,"is_reserved":false,"is_disabled":false,"rental_uris":{"android":"levelo://app?vid=f20aee6c-2a6c-4bd7-ba2d-4f059f18e677","ios":"levelo://app?vid=f20aee6c-2a6c-4bd7-ba2d-4f059f18e677"},"vehicle_type_id":"4","last_reported":1753882443,"current_range_meters":16000,"station_id":"ce4bhi12rcd13ifvqfp0","pricing_plan_id":"cebpf4jnsgd1na2vs0mg"},{"bike_id":"0569760a-f748-4bd7-863f-279bd7fcdc8b","system_id":"levelo_inurba_marseille","lat":43.29647,"lon":5.36637,"is_reserved":false,"is_disabled":false,"rental_uris":{"android":"levelo://app?vid=0569760a-f748-4bd7-863f-279bd7fcdc8b","ios":"levelo://app?vid=0569760a-f748-4bd7-863f-279bd7fcdc8b"},"vehicle_type_id":"4","last_reported":1753882443,"current_range_meters":16000,"station_id":"","pricing_plan_id":"cebpf4jnsgd1na2vs0mg"},{"bike_id":"6590494b-43e7-43e0-b312-c754fd5ea433","system_id":"levelo_inurba_marseille","lat":43.29047,"lon":5.43004,"is_reserved":false,"is_disabled":false,"rental_uris":{"android":"levelo://app?vid=6590494b-43e7-43e0-b312-c754fd5ea433","ios":"levelo://app?vid=6590494b-43e7-43e0-b312-c754fd5ea433"},"vehicle_type_id":"4","last_reported":1753882443,"current_range_meters":16000,"station_id":"","pricing_plan_id":"cebpf4jnsgd1na2vs0mg"},{"bike_id":"c55b60b9-a9fa-4176-8c22-b99952126152","system_id":"levelo_inurba_marseille","lat":43.23193,"lon":5.35568,"is_reserved":false,"is_disabled":false,"rental_uris":{"android":"levelo://app?vid=c55b60b9-a9fa-4176-8c22-b99952126152","ios":"levelo://app?vid=c55b60b9-a9fa-4176-8c22-b99952126152"},"vehicle_type_id":"4","last_reported":1753882443,"current_range_meters":16000,"station_id":"ce4bhu92rcd13ifvqi70","pricing_plan_id":"cebpf4jnsgd1na2vs0mg"},{"bike_id":"b2d87cf0-2c76-4e5c-aa11-b1f108e35d8b","system_id":"levelo_inurba_marseille","lat":43.2175,"lon":5.34606,"is_reserved":false,"is_disabled":false,"rental_uris":{"android":"levelo://app?vid=b2d87cf0-2c76-4e5c-aa11-b1f108e35d8b","ios":"levelo://app?vid=b2d87cf0-2c76-4e5c-aa11-b1f108e35d8b"},"vehicle_type_id":"4","last_reported":1753882443,"current_range_meters":16000,"station_id":"st_cvj6r9ubvosntc0bgbag","pricing_plan_id":"cebpf4jnsgd1na2vs0mg"},{"bike_id":"08a4daad-92c6-4c11-9b37-74d84de06af8","system_id":"levelo_inurba_marseille","lat":43.30285,"lon":5.36914,"is_reserved":false,"is_disabled":false,"rental_uris":{"android":"levelo://app?vid=08a4daad-92c6-4c11-9b37-74d84de06af8","ios":"levelo://app?vid=08a4daad-92c6-4c11-9b37-74d84de06af8"},"vehicle_type_id":"4","last_reported":1753882443,"current_range_meters":16000,"station_id":"ce4bgqh2rcd13ifvqc5g","pricing_plan_id":"cebpf4jnsgd1na2vs0mg"},{"bike_id":"d076e265-2a54-4297-9670-5745543050ab","system_id":"levelo_inurba_marseille","lat":43.283926,"lon":5.349957,"is_reserved":false,"is_disabled":false,"rental_uris":{"android":"levelo://app?vid=d076e265-2a54-4297-9670-5745543050ab","ios":"levelo://app?vid=d076e265-2a54-4297-9670-5745543050ab"},"vehicle_type_id":"4","last_reported":1753882443,"current_range_meters":16000,"station_id":"ce4bhbh2rcd13ifvqepg","pricing_plan_id":"cebpf4jnsgd1na2vs0mg"},{"bike_id":"78b3de09-c5d4-4ae0-9d59-8e7e7c10b1bd","system_id":"levelo_inurba_marseille","lat":43.2293,"lon":5.35376,"is_reserved":false,"is_disabled":false,"rental_uris":{"android":"levelo://app?vid=78b3de09-c5d4-4ae0-9d59-8e7e7c10b1bd","ios":"levelo://app?vid=78b3de09-c5d4-4ae0-9d59-8e7e7c10b1bd"},"vehicle_type_id":"4","last_reported":1753882443,"current_range_meters":16000,"station_id":"cpo3532slgdg3j2ikp40","pricing_plan_id":"cebpf4jnsgd1na2vs0mg"},{"bike_id":"2e1bdbd1-042c-4bf4-b623-908b6301c20d","system_id":"levelo_inurba_marseille","lat":43.28154,"lon":5.44195,"is_reserved":false,"is_disabled":false,"rental_uris":{"android":"levelo://app?vid=2e1bdbd1-042c-4bf4-b623-908b6301c20d","ios":"levelo://app?vid=2e1bdbd1-042c-4bf4-b623-908b6301c20d"},"vehicle_type_id":"4","last_reported":1753882443,"current_range_meters":16000,"station_id":"","pricing_plan_id":"cebpf4jnsgd1na2vs0mg"},{"bike_id":"21256081-d66b-4c57-9148-74310cc1a3ef","system_id":"levelo_inurba_marseille","lat":43.309419,"lon":5.390365,"is_reserved":false,"is_disabled":false,"rental_uris":{"android":"levelo://app?vid=21256081-d66b-4c57-9148-74310cc1a3ef","ios":"levelo://app?vid=21256081-d66b-4c57-9148-74310cc1a3ef"},"vehicle_type_id":"4","last_reported":1753882443,"current_range_meters":16000,"station_id":"ce4bgup2rcd13ifvqco0","pricing_plan_id":"cebpf4jnsgd1na2vs0mg"},{"bike_id":"1f241cf2-5c49-4874-b3fd-f6eb049815fc","system_id":"levelo_inurba_marseille","lat":43.30325,"lon":5.40448,"is_reserved":false,"is_disabled":false,"rental_uris":{"android":"levelo://app?vid=1f241cf2-5c49-4874-b3fd-f6eb049815fc","ios":"levelo://app?vid=1f241cf2-5c49-4874-b3fd-f6eb049815fc"},"vehicle_type_id":"4","last_reported":1753882443,"current_range_meters":16000,"station_id":"ce4bh012rcd13ifvqd10","pricing_plan_id":"cebpf4jnsgd1na2vs0mg"},{"bike_id":"b89ad748-f7c1-4685-8c85-3009b186b7d0","system_id":"levelo_inurba_marseille","lat":43.24806,"lon":5.37471,"is_reserved":false,"is_disabled":false,"rental_uris":{"android":"levelo://app?vid=b89ad748-f7c1-4685-8c85-3009b186b7d0","ios":"levelo://app?vid=b89ad748-f7c1-4685-8c85-3009b186b7d0"},"vehicle_type_id":"4","last_reported":1753882443,"current_range_meters":16000,"station_id":"ce4bhgh2rcd13ifvqfb0","pricing_plan_id":"cebpf4jnsgd1na2vs0mg"},{"bike_id":"30d425b9-6532-4584-ae56-a015f4c9f632","system_id":"levelo_inurba_marseille","lat":43.29192,"lon":5.36033,"is_reserved":false,"is_disabled":false,"rental_uris":{"android":"levelo://app?vid=30d425b9-6532-4584-ae56-a015f4c9f632","ios":"levelo://app?vid=30d425b9-6532-4584-ae56-a015f4c9f632"},"vehicle_type_id":"4","last_reported":1753882443,"current_range_meters":16400,"station_id":"","pricing_plan_id":"cebpf4jnsgd1na2vs0mg"},{"bike_id":"fc72750c-8629-412d-8606-ffe7b2eda556","system_id":"levelo_inurba_marseille","lat":43.27506,"lon":5.42443,"is_reserved":false,"is_disabled":false,"rental_uris":{"android":"levelo://app?vid=fc72750c-8629-412d-8606-ffe7b2eda556","ios":"levelo://app?vid=fc72750c-8629-412d-8606-ffe7b2eda556"},"vehicle_type_id":"4","last_reported":1753882443,"current_range_meters":16400,"station_id":"ce4bhn92rcd13ifvqgrg","pricing_plan_id":"cebpf4jnsgd1na2vs0mg"},{"bike_id":"a8bb325e-fced-474d-adcd-a25f64016430","system_id":"levelo_inurba_marseille","lat":43.22505,"lon":5.34779,"is_reserved":false,"is_disabled":false,"rental_uris":{"android":"levelo://app?vid=a8bb325e-fced-474d-adcd-a25f64016430","ios":"levelo://app?vid=a8bb325e-fced-474d-adcd-a25f64016430"},"vehicle_type_id":"4","last_reported":1753882443,"current_range_meters":16400,"station_id":"","pricing_plan_id":"cebpf4jnsgd1na2vs0mg"},{"bike_id":"5bb4d39e-4f4c-46d3-bd03-6a343c5eff9b","system_id":"levelo_inurba_marseille","lat":43.23175,"lon":5.3999,"is_reserved":false,"is_disabled":false,"rental_uris":{"android":"levelo://app?vid=5bb4d39e-4f4c-46d3-bd03-6a343c5eff9b","ios":"levelo://app?vid=5bb4d39e-4f4c-46d3-bd03-6a343c5eff9b"},"vehicle_type_id":"4","last_reported":1753882443,"current_range_meters":16400,"station_id":"ce4bhn12rcd13ifvqgqg","pricing_plan_id":"cebpf4jnsgd1na2vs0mg"},{"bike_id":"2c4400c7-2bd6-4d8f-805d-b1037b3fe518","system_id":"levelo_inurba_marseille","lat":43.22509,"lon":5.34781,"is_reserved":false,"is_disabled":false,"rental_uris":{"android":"levelo://app?vid=2c4400c7-2bd6-4d8f-805d-b1037b3fe518","ios":"levelo://app?vid=2c4400c7-2bd6-4d8f-805d-b1037b3fe518"},"vehicle_type_id":"4","last_reported":1753882443,"current_range_meters":16400,"station_id":"st_cvj5dfep6f1abm77gieg","pricing_plan_id":"cebpf4jnsgd1na2vs0mg"},{"bike_id":"1a0ca16f-4b93-4052-acd5-440501907ad3","system_id":"levelo_inurba_marseille","lat":43.23191,"lon":5.35554,"is_reserved":false,"is_disabled":false,"rental_uris":{"android":"levelo://app?vid=1a0ca16f-4b93-4052-acd5-440501907ad3","ios":"levelo://app?vid=1a0ca16f-4b93-4052-acd5-440501907ad3"},"vehicle_type_id":"4","last_reported":1753882443,"current_range_meters":16400,"station_id":"ce4bhu92rcd13ifvqi70","pricing_plan_id":"cebpf4jnsgd1na2vs0mg"},{"bike_id":"e534ecb5-40d1-4a69-a85d-4caa6ed5438c","system_id":"levelo_inurba_marseille","lat":43.29283,"lon":5.36849,"is_reserved":false,"is_disabled":false,"rental_uris":{"android":"levelo://app?vid=e534ecb5-40d1-4a69-a85d-4caa6ed5438c","ios":"levelo://app?vid=e534ecb5-40d1-4a69-a85d-4caa6ed5438c"},"vehicle_type_id":"4","last_reported":1753882443,"current_range_meters":16400,"station_id":"ce4bhbp2rcd13ifvqesg","pricing_plan_id":"cebpf4jnsgd1na2vs0mg"},{"bike_id":"6edee4fe-46f2-43ea-a18a-6ec975f8373c","system_id":"levelo_inurba_marseille","lat":43.28853,"lon":5.358465,"is_reserved":false,"is_disabled":false,"rental_uris":{"android":"levelo://app?vid=6edee4fe-46f2-43ea-a18a-6ec975f8373c","ios":"levelo://app?vid=6edee4fe-46f2-43ea-a18a-6ec975f8373c"},"vehicle_type_id":"4","last_reported":1753882443,"current_range_meters":16400,"station_id":"","pricing_plan_id":"cebpf4jnsgd1na2vs0mg"},{"bike_id":"27594e5a-add9-4326-8db9-e82aaa328799","system_id":"levelo_inurba_marseille","lat":43.27614,"lon":5.36119,"is_reserved":false,"is_disabled":false,"rental_uris":{"android":"levelo://app?vid=27594e5a-add9-4326-8db9-e82aaa328799","ios":"levelo://app?vid=27594e5a-add9-4326-8db9-e82aaa328799"},"vehicle_type_id":"4","last_reported":1753882443,"current_range_meters":16800,"station_id":"ce4bgj92rcd13ifvqbe0","pricing_plan_id":"cebpf4jnsgd1na2vs0mg"},{"bike_id":"36c11242-6e7f-4d89-97be-c2933f4606a5","system_id":"levelo_inurba_marseille","lat":43.26208,"lon":5.37443,"is_reserved":false,"is_disabled":false,"rental_uris":{"android":"levelo://app?vid=36c11242-6e7f-4d89-97be-c2933f4606a5","ios":"levelo://app?vid=36c11242-6e7f-4d89-97be-c2933f4606a5"},"vehicle_type_id":"4","last_reported":1753882443,"current_range_meters":16800,"station_id":"ce4bhgp2rcd13ifvqfc0","pricing_plan_id":"cebpf4jnsgd1na2vs0mg"},{"bike_id":"27e3af3a-615b-4cc9-8468-7f9a0e895f93","system_id":"levelo_inurba_marseille","lat":43.30477,"lon":5.36717,"is_reserved":false,"is_disabled":false,"rental_uris":{"android":"levelo://app?vid=27e3af3a-615b-4cc9-8468-7f9a0e895f93","ios":"levelo://app?vid=27e3af3a-615b-4cc9-8468-7f9a0e895f93"},"vehicle_type_id":"4","last_reported":1753882443,"current_range_meters":16800,"station_id":"","pricing_plan_id":"cebpf4jnsgd1na2vs0mg"},{"bike_id":"a48a5c83-9006-49af-bdd9-090cfce3dc6e","system_id":"levelo_inurba_marseille","lat":43.27379,"lon":5.36264,"is_reserved":false,"is_disabled":false,"rental_uris":{"android":"levelo://app?vid=a48a5c83-9006-49af-bdd9-090cfce3dc6e","ios":"levelo://app?vid=a48a5c83-9006-49af-bdd9-090cfce3dc6e"},"vehicle_type_id":"4","last_reported":1753882443,"current_range_meters":16800,"station_id":"ce4bhbh2rcd13ifvqeo0","pricing_plan_id":"cebpf4jnsgd1na2vs0mg"},{"bike_id":"488786de-0ff5-4404-92ed-5d176a21f78a","system_id":"levelo_inurba_marseille","lat":43.26554,"lon":5.37285,"is_reserved":false,"is_disabled":false,"rental_uris":{"android":"levelo://app?vid=488786de-0ff5-4404-92ed-5d176a21f78a","ios":"levelo://app?vid=488786de-0ff5-4404-92ed-5d176a21f78a"},"vehicle_type_id":"4","last_reported":1753882443,"current_range_meters":16800,"station_id":"ce4bhg12rcd13ifvqf70","pricing_plan_id":"cebpf4jnsgd1na2vs0mg"},{"bike_id":"52aa1d0d-4466-44b5-a116-ec1102c8f422","system_id":"levelo_inurba_marseille","lat":43.32881,"lon":5.36079,"is_reserved":false,"is_disabled":false,"rental_uris":{"android":"levelo://app?vid=52aa1d0d-4466-44b5-a116-ec1102c8f422","ios":"levelo://app?vid=52aa1d0d-4466-44b5-a116-ec1102c8f422"},"vehicle_type_id":"4","last_reported":1753882443,"current_range_meters":16800,"station_id":"","pricing_plan_id":"cebpf4jnsgd1na2vs0mg"},{"bike_id":"85571ceb-5dfe-407f-a57f-e3e4a5c0e31a","system_id":"levelo_inurba_marseille","lat":43.24177,"lon":5.39723,"is_reserved":false,"is_disabled":false,"rental_uris":{"android":"levelo://app?vid=85571ceb-5dfe-407f-a57f-e3e4a5c0e31a","ios":"levelo://app?vid=85571ceb-5dfe-407f-a57f-e3e4a5c0e31a"},"vehicle_type_id":"4","last_reported":1753882443,"current_range_meters":17200,"station_id":"ce4bhn12rcd13ifvqgpg","pricing_plan_id":"cebpf4jnsgd1na2vs0mg"},{"bike_id":"adf1e8b2-7720-4523-af36-c26fd6f78611","system_id":"levelo_inurba_marseille","lat":43.26818,"lon":5.39442,"is_reserved":false,"is_disabled":false,"rental_uris":{"android":"levelo://app?vid=adf1e8b2-7720-4523-af36-c26fd6f78611","ios":"levelo://app?vid=adf1e8b2-7720-4523-af36-c26fd6f78611"},"vehicle_type_id":"4","last_reported":1753882443,"current_range_meters":17200,"station_id":"ce4bhh12rcd13ifvqfg0","pricing_plan_id":"cebpf4jnsgd1na2vs0mg"},{"bike_id":"e0b7cca9-a1e4-4c41-8dd5-0c08c31f86d8","system_id":"levelo_inurba_marseille","lat":43.27382,"lon":5.36264,"is_reserved":false,"is_disabled":false,"rental_uris":{"android":"levelo://app?vid=e0b7cca9-a1e4-4c41-8dd5-0c08c31f86d8","ios":"levelo://app?vid=e0b7cca9-a1e4-4c41-8dd5-0c08c31f86d8"},"vehicle_type_id":"4","last_reported":1753882443,"current_range_meters":17200,"station_id":"ce4bhbh2rcd13ifvqeo0","pricing_plan_id":"cebpf4jnsgd1na2vs0mg"},{"bike_id":"08ca8ae8-b77c-49d8-b9a3-9de07830275f","system_id":"levelo_inurba_marseille","lat":43.27491,"lon":5.42463,"is_reserved":false,"is_disabled":false,"rental_uris":{"android":"levelo://app?vid=08ca8ae8-b77c-49d8-b9a3-9de07830275f","ios":"levelo://app?vid=08ca8ae8-b77c-49d8-b9a3-9de07830275f"},"vehicle_type_id":"4","last_reported":1753882443,"current_range_meters":17200,"station_id":"ce4bhn92rcd13ifvqgrg","pricing_plan_id":"cebpf4jnsgd1na2vs0mg"},{"bike_id":"44786710-2f9d-4778-9229-1cf5d1720546","system_id":"levelo_inurba_marseille","lat":43.21753,"lon":5.34608,"is_reserved":false,"is_disabled":false,"rental_uris":{"android":"levelo://app?vid=44786710-2f9d-4778-9229-1cf5d1720546","ios":"levelo://app?vid=44786710-2f9d-4778-9229-1cf5d1720546"},"vehicle_type_id":"4","last_reported":1753882443,"current_range_meters":17200,"station_id":"","pricing_plan_id":"cebpf4jnsgd1na2vs0mg"},{"bike_id":"9877b766-6b64-48f6-aa08-65bf4cdb43fe","system_id":"levelo_inurba_marseille","lat":43.32277,"lon":5.38296,"is_reserved":false,"is_disabled":false,"rental_uris":{"android":"levelo://app?vid=9877b766-6b64-48f6-aa08-65bf4cdb43fe","ios":"levelo://app?vid=9877b766-6b64-48f6-aa08-65bf4cdb43fe"},"vehicle_type_id":"4","last_reported":1753882443,"current_range_meters":17200,"station_id":"ce4bhr12rcd13ifvqhqg","pricing_plan_id":"cebpf4jnsgd1na2vs0mg"},{"bike_id":"d1ef298e-87b7-47a5-aaec-79fd9c0baa71","system_id":"levelo_inurba_marseille","lat":43.24812,"lon":5.37449,"is_reserved":false,"is_disabled":false,"rental_uris":{"android":"levelo://app?vid=d1ef298e-87b7-47a5-aaec-79fd9c0baa71","ios":"levelo://app?vid=d1ef298e-87b7-47a5-aaec-79fd9c0baa71"},"vehicle_type_id":"4","last_reported":1753882443,"current_range_meters":17200,"station_id":"ce4bhgh2rcd13ifvqfb0","pricing_plan_id":"cebpf4jnsgd1na2vs0mg"},{"bike_id":"cd135ec5-1f0e-488f-a7bf-0e94c2e06e6f","system_id":"levelo_inurba_marseille","lat":43.21192,"lon":5.35072,"is_reserved":false,"is_disabled":false,"rental_uris":{"android":"levelo://app?vid=cd135ec5-1f0e-488f-a7bf-0e94c2e06e6f","ios":"levelo://app?vid=cd135ec5-1f0e-488f-a7bf-0e94c2e06e6f"},"vehicle_type_id":"4","last_reported":1753882443,"current_range_meters":17200,"station_id":"st_cvj6sg6p6f1abm77japg","pricing_plan_id":"cebpf4jnsgd1na2vs0mg"},{"bike_id":"9cf9ff1c-570a-45b3-8228-6f607dbfe87f","system_id":"levelo_inurba_marseille","lat":43.25005,"lon":5.38934,"is_reserved":false,"is_disabled":false,"rental_uris":{"android":"levelo://app?vid=9cf9ff1c-570a-45b3-8228-6f607dbfe87f","ios":"levelo://app?vid=9cf9ff1c-570a-45b3-8228-6f607dbfe87f"},"vehicle_type_id":"4","last_reported":1753882443,"current_range_meters":17200,"station_id":"ce4bhgp2rcd13ifvqfd0","pricing_plan_id":"cebpf4jnsgd1na2vs0mg"},{"bike_id":"61ce16ec-9adf-465d-b350-68a3ac024d37","system_id":"levelo_inurba_marseille","lat":43.24167,"lon":5.39731,"is_reserved":false,"is_disabled":false,"rental_uris":{"android":"levelo://app?vid=61ce16ec-9adf-465d-b350-68a3ac024d37","ios":"levelo://app?vid=61ce16ec-9adf-465d-b350-68a3ac024d37"},"vehicle_type_id":"4","last_reported":1753882443,"current_range_meters":17200,"station_id":"ce4bhn12rcd13ifvqgpg","pricing_plan_id":"cebpf4jnsgd1na2vs0mg"},{"bike_id":"fa3aaadb-2999-4c99-ad0b-eff3f9ff3b2b","system_id":"levelo_inurba_marseille","lat":43.30301,"lon":5.36922,"is_reserved":false,"is_disabled":false,"rental_uris":{"android":"levelo://app?vid=fa3aaadb-2999-4c99-ad0b-eff3f9ff3b2b","ios":"levelo://app?vid=fa3aaadb-2999-4c99-ad0b-eff3f9ff3b2b"},"vehicle_type_id":"4","last_reported":1753882443,"current_range_meters":17200,"station_id":"ce4bgqh2rcd13ifvqc5g","pricing_plan_id":"cebpf4jnsgd1na2vs0mg"},{"bike_id":"1dc3f058-b499-4a71-890c-0492cdb7c3da","system_id":"levelo_inurba_marseille","lat":43.30927,"lon":5.36849,"is_reserved":false,"is_disabled":false,"rental_uris":{"android":"levelo://app?vid=1dc3f058-b499-4a71-890c-0492cdb7c3da","ios":"levelo://app?vid=1dc3f058-b499-4a71-890c-0492cdb7c3da"},"vehicle_type_id":"4","last_reported":1753882443,"current_range_meters":17600,"station_id":"ce4bgn92rcd13ifvqbvg","pricing_plan_id":"cebpf4jnsgd1na2vs0mg"},{"bike_id":"15d4f986-e294-400d-b8c1-16f1d7c6c4bf","system_id":"levelo_inurba_marseille","lat":43.31499,"lon":5.37308,"is_reserved":false,"is_disabled":false,"rental_uris":{"android":"levelo://app?vid=15d4f986-e294-400d-b8c1-16f1d7c6c4bf","ios":"levelo://app?vid=15d4f986-e294-400d-b8c1-16f1d7c6c4bf"},"vehicle_type_id":"4","last_reported":1753882443,"current_range_meters":17600,"station_id":"ce4bgt12rcd13ifvqcd0","pricing_plan_id":"cebpf4jnsgd1na2vs0mg"},{"bike_id":"12a220c8-0b1b-4330-8cc1-7ededba84a81","system_id":"levelo_inurba_marseille","lat":43.23128,"lon":5.43642,"is_reserved":false,"is_disabled":false,"rental_uris":{"android":"levelo://app?vid=12a220c8-0b1b-4330-8cc1-7ededba84a81","ios":"levelo://app?vid=12a220c8-0b1b-4330-8cc1-7ededba84a81"},"vehicle_type_id":"4","last_reported":1753882443,"current_range_meters":17600,"station_id":"ce4bhmp2rcd13ifvqgog","pricing_plan_id":"cebpf4jnsgd1na2vs0mg"},{"bike_id":"2093a2b7-8bbc-4356-896c-88cd021ab676","system_id":"levelo_inurba_marseille","lat":43.28617,"lon":5.35098,"is_reserved":false,"is_disabled":false,"rental_uris":{"android":"levelo://app?vid=2093a2b7-8bbc-4356-896c-88cd021ab676","ios":"levelo://app?vid=2093a2b7-8bbc-4356-896c-88cd021ab676"},"vehicle_type_id":"4","last_reported":1753882443,"current_range_meters":17600,"station_id":"ce4bhch2rcd13ifvqeug","pricing_plan_id":"cebpf4jnsgd1na2vs0mg"},{"bike_id":"c35536a9-f30a-41ff-b5e8-bae9dfe9be2a","system_id":"levelo_inurba_marseille","lat":43.27183,"lon":5.40992,"is_reserved":false,"is_disabled":false,"rental_uris":{"android":"levelo://app?vid=c35536a9-f30a-41ff-b5e8-bae9dfe9be2a","ios":"levelo://app?vid=c35536a9-f30a-41ff-b5e8-bae9dfe9be2a"},"vehicle_type_id":"4","last_reported":1753882443,"current_range_meters":17200,"station_id":"ce4bhl12rcd13ifvqgf0","pricing_plan_id":"cebpf4jnsgd1na2vs0mg"},{"bike_id":"34be742c-6e59-4c4c-a509-950f8293f589","system_id":"levelo_inurba_marseille","lat":43.22899,"lon":5.35303,"is_reserved":false,"is_disabled":false,"rental_uris":{"android":"levelo://app?vid=34be742c-6e59-4c4c-a509-950f8293f589","ios":"levelo://app?vid=34be742c-6e59-4c4c-a509-950f8293f589"},"vehicle_type_id":"4","last_reported":1753882443,"current_range_meters":17600,"station_id":"cpo3532slgdg3j2ikp40","pricing_plan_id":"cebpf4jnsgd1na2vs0mg"},{"bike_id":"82421548-9820-4ad4-b3c2-dfb64180eb25","system_id":"levelo_inurba_marseille","lat":43.21202,"lon":5.35072,"is_reserved":false,"is_disabled":false,"rental_uris":{"android":"levelo://app?vid=82421548-9820-4ad4-b3c2-dfb64180eb25","ios":"levelo://app?vid=82421548-9820-4ad4-b3c2-dfb64180eb25"},"vehicle_type_id":"4","last_reported":1753882443,"current_range_meters":17600,"station_id":"st_cvj6sg6p6f1abm77japg","pricing_plan_id":"cebpf4jnsgd1na2vs0mg"},{"bike_id":"6d4a8c8c-d8c5-4215-a06a-7475cf4d5132","system_id":"levelo_inurba_marseille","lat":43.28013,"lon":5.36928,"is_reserved":false,"is_disabled":false,"rental_uris":{"android":"levelo://app?vid=6d4a8c8c-d8c5-4215-a06a-7475cf4d5132","ios":"levelo://app?vid=6d4a8c8c-d8c5-4215-a06a-7475cf4d5132"},"vehicle_type_id":"4","last_reported":1753882443,"current_range_meters":18000,"station_id":"ce4bha12rcd13ifvqef0","pricing_plan_id":"cebpf4jnsgd1na2vs0mg"},{"bike_id":"b7e63ea0-539d-443d-ab1d-49b82a6a1b6b","system_id":"levelo_inurba_marseille","lat":43.23143,"lon":5.43741,"is_reserved":false,"is_disabled":false,"rental_uris":{"android":"levelo://app?vid=b7e63ea0-539d-443d-ab1d-49b82a6a1b6b","ios":"levelo://app?vid=b7e63ea0-539d-443d-ab1d-49b82a6a1b6b"},"vehicle_type_id":"4","last_reported":1753882443,"current_range_meters":18000,"station_id":"ce4bhmp2rcd13ifvqgog","pricing_plan_id":"cebpf4jnsgd1na2vs0mg"},{"bike_id":"624a1b75-266a-4084-85e6-7ce8c064850a","system_id":"levelo_inurba_marseille","lat":43.28976,"lon":5.37829,"is_reserved":false,"is_disabled":false,"rental_uris":{"android":"levelo://app?vid=624a1b75-266a-4084-85e6-7ce8c064850a","ios":"levelo://app?vid=624a1b75-266a-4084-85e6-7ce8c064850a"},"vehicle_type_id":"4","last_reported":1753882443,"current_range_meters":18000,"station_id":"ce4bh9p2rcd13ifvqed0","pricing_plan_id":"cebpf4jnsgd1na2vs0mg"},{"bike_id":"2f55d4f4-e017-494b-83ef-a61716d381e4","system_id":"levelo_inurba_marseille","lat":43.24169,"lon":5.364,"is_reserved":false,"is_disabled":false,"rental_uris":{"android":"levelo://app?vid=2f55d4f4-e017-494b-83ef-a61716d381e4","ios":"levelo://app?vid=2f55d4f4-e017-494b-83ef-a61716d381e4"},"vehicle_type_id":"4","last_reported":1753882443,"current_range_meters":18000,"station_id":"cpo36qri1sfpv3e86is0","pricing_plan_id":"cebpf4jnsgd1na2vs0mg"},{"bike_id":"f605ff71-c624-4936-a518-95ee9acc86fd","system_id":"levelo_inurba_marseille","lat":43.22494,"lon":5.34821,"is_reserved":false,"is_disabled":false,"rental_uris":{"android":"levelo://app?vid=f605ff71-c624-4936-a518-95ee9acc86fd","ios":"levelo://app?vid=f605ff71-c624-4936-a518-95ee9acc86fd"},"vehicle_type_id":"4","last_reported":1753882443,"current_range_meters":18800,"station_id":"st_cvj5dfep6f1abm77gieg","pricing_plan_id":"cebpf4jnsgd1na2vs0mg"},{"bike_id":"b565b853-9616-4ab3-9cae-8b1d09dd4831","system_id":"levelo_inurba_marseille","lat":43.22504,"lon":5.34771,"is_reserved":false,"is_disabled":false,"rental_uris":{"android":"levelo://app?vid=b565b853-9616-4ab3-9cae-8b1d09dd4831","ios":"levelo://app?vid=b565b853-9616-4ab3-9cae-8b1d09dd4831"},"vehicle_type_id":"4","last_reported":1753882443,"current_range_meters":18000,"station_id":"st_cvj5dfep6f1abm77gieg","pricing_plan_id":"cebpf4jnsgd1na2vs0mg"},{"bike_id":"9f5fba08-5d1a-4a60-9f27-a4f6e760f703","system_id":"levelo_inurba_marseille","lat":43.323464,"lon":5.367396,"is_reserved":false,"is_disabled":false,"rental_uris":{"android":"levelo://app?vid=9f5fba08-5d1a-4a60-9f27-a4f6e760f703","ios":"levelo://app?vid=9f5fba08-5d1a-4a60-9f27-a4f6e760f703"},"vehicle_type_id":"4","last_reported":1753882443,"current_range_meters":18000,"station_id":"ce4bhsh2rcd13ifvqi2g","pricing_plan_id":"cebpf4jnsgd1na2vs0mg"},{"bike_id":"972575cd-e8ee-48c1-9fd0-61adb5c35c7b","system_id":"levelo_inurba_marseille","lat":43.26209,"lon":5.37433,"is_reserved":false,"is_disabled":false,"rental_uris":{"android":"levelo://app?vid=972575cd-e8ee-48c1-9fd0-61adb5c35c7b","ios":"levelo://app?vid=972575cd-e8ee-48c1-9fd0-61adb5c35c7b"},"vehicle_type_id":"4","last_reported":1753882443,"current_range_meters":18000,"station_id":"ce4bhgp2rcd13ifvqfc0","pricing_plan_id":"cebpf4jnsgd1na2vs0mg"},{"bike_id":"5dcfebf9-3b70-4427-ac11-c66ae062b60b","system_id":"levelo_inurba_marseille","lat":43.28567,"lon":5.39498,"is_reserved":false,"is_disabled":false,"rental_uris":{"android":"levelo://app?vid=5dcfebf9-3b70-4427-ac11-c66ae062b60b","ios":"levelo://app?vid=5dcfebf9-3b70-4427-ac11-c66ae062b60b"},"vehicle_type_id":"4","last_reported":1753882443,"current_range_meters":18000,"station_id":"ce4bh292rcd13ifvqdg0","pricing_plan_id":"cebpf4jnsgd1na2vs0mg"},{"bike_id":"7e7b6163-513a-4347-8135-9b6e73c6a8aa","system_id":"levelo_inurba_marseille","lat":43.2669,"lon":5.38271,"is_reserved":false,"is_disabled":false,"rental_uris":{"android":"levelo://app?vid=7e7b6163-513a-4347-8135-9b6e73c6a8aa","ios":"levelo://app?vid=7e7b6163-513a-4347-8135-9b6e73c6a8aa"},"vehicle_type_id":"4","last_reported":1753882443,"current_range_meters":18000,"station_id":"ce4bhg92rcd13ifvqf90","pricing_plan_id":"cebpf4jnsgd1na2vs0mg"},{"bike_id":"2d0348b7-44ae-481a-8d3f-a3fc9edf8c06","system_id":"levelo_inurba_marseille","lat":43.31082,"lon":5.42428,"is_reserved":false,"is_disabled":false,"rental_uris":{"android":"levelo://app?vid=2d0348b7-44ae-481a-8d3f-a3fc9edf8c06","ios":"levelo://app?vid=2d0348b7-44ae-481a-8d3f-a3fc9edf8c06"},"vehicle_type_id":"4","last_reported":1753882443,"current_range_meters":18000,"station_id":"ce4bhp92rcd13ifvqhag","pricing_plan_id":"cebpf4jnsgd1na2vs0mg"},{"bike_id":"6f945904-e30e-4baa-be01-1bd0424776dc","system_id":"levelo_inurba_marseille","lat":43.23199,"lon":5.35568,"is_reserved":false,"is_disabled":false,"rental_uris":{"android":"levelo://app?vid=6f945904-e30e-4baa-be01-1bd0424776dc","ios":"levelo://app?vid=6f945904-e30e-4baa-be01-1bd0424776dc"},"vehicle_type_id":"4","last_reported":1753882443,"current_range_meters":18000,"station_id":"ce4bhu92rcd13ifvqi70","pricing_plan_id":"cebpf4jnsgd1na2vs0mg"},{"bike_id":"0975a158-91a0-4f03-8ac1-7939a109541f","system_id":"levelo_inurba_marseille","lat":43.25573,"lon":5.38251,"is_reserved":false,"is_disabled":false,"rental_uris":{"android":"levelo://app?vid=0975a158-91a0-4f03-8ac1-7939a109541f","ios":"levelo://app?vid=0975a158-91a0-4f03-8ac1-7939a109541f"},"vehicle_type_id":"4","last_reported":1753882443,"current_range_meters":18000,"station_id":"ce4bhih2rcd13ifvqfs0","pricing_plan_id":"cebpf4jnsgd1na2vs0mg"},{"bike_id":"55bf355c-8c8a-4339-b38b-30b6f9dd8dd7","system_id":"levelo_inurba_marseille","lat":43.28627,"lon":5.35099,"is_reserved":false,"is_disabled":false,"rental_uris":{"android":"levelo://app?vid=55bf355c-8c8a-4339-b38b-30b6f9dd8dd7","ios":"levelo://app?vid=55bf355c-8c8a-4339-b38b-30b6f9dd8dd7"},"vehicle_type_id":"4","last_reported":1753882443,"current_range_meters":18000,"station_id":"ce4bhch2rcd13ifvqeug","pricing_plan_id":"cebpf4jnsgd1na2vs0mg"},{"bike_id":"c48e6e64-9d08-4fca-a774-7cc6169cfde3","system_id":"levelo_inurba_marseille","lat":43.29716,"lon":5.38316,"is_reserved":false,"is_disabled":false,"rental_uris":{"android":"levelo://app?vid=c48e6e64-9d08-4fca-a774-7cc6169cfde3","ios":"levelo://app?vid=c48e6e64-9d08-4fca-a774-7cc6169cfde3"},"vehicle_type_id":"4","last_reported":1753882443,"current_range_meters":18800,"station_id":"","pricing_plan_id":"cebpf4jnsgd1na2vs0mg"},{"bike_id":"63935d37-5768-4aec-86eb-9234c0019860","system_id":"levelo_inurba_marseille","lat":43.29609,"lon":5.36728,"is_reserved":false,"is_disabled":false,"rental_uris":{"android":"levelo://app?vid=63935d37-5768-4aec-86eb-9234c0019860","ios":"levelo://app?vid=63935d37-5768-4aec-86eb-9234c0019860"},"vehicle_type_id":"4","last_reported":1753882443,"current_range_meters":18800,"station_id":"ce4bgph2rcd13ifvqc2g","pricing_plan_id":"cebpf4jnsgd1na2vs0mg"},{"bike_id":"2e212f73-fbb5-4887-9c70-c28db2d08460","system_id":"levelo_inurba_marseille","lat":43.29003,"lon":5.35623,"is_reserved":false,"is_disabled":false,"rental_uris":{"android":"levelo://app?vid=2e212f73-fbb5-4887-9c70-c28db2d08460","ios":"levelo://app?vid=2e212f73-fbb5-4887-9c70-c28db2d08460"},"vehicle_type_id":"4","last_reported":1753882443,"current_range_meters":18800,"station_id":"ce4bhb92rcd13ifvqen0","pricing_plan_id":"cebpf4jnsgd1na2vs0mg"},{"bike_id":"cf58cbbc-9ac9-4c6a-9001-6d0603293a2f","system_id":"levelo_inurba_marseille","lat":43.29356,"lon":5.37843,"is_reserved":false,"is_disabled":false,"rental_uris":{"android":"levelo://app?vid=cf58cbbc-9ac9-4c6a-9001-6d0603293a2f","ios":"levelo://app?vid=cf58cbbc-9ac9-4c6a-9001-6d0603293a2f"},"vehicle_type_id":"4","last_reported":1753882443,"current_range_meters":18000,"station_id":"ce4bgjh2rcd13ifvqbf0","pricing_plan_id":"cebpf4jnsgd1na2vs0mg"},{"bike_id":"20782440-32e2-4e26-a85a-d8b01db73401","system_id":"levelo_inurba_marseille","lat":43.24155,"lon":5.36404,"is_reserved":false,"is_disabled":false,"rental_uris":{"android":"levelo://app?vid=20782440-32e2-4e26-a85a-d8b01db73401","ios":"levelo://app?vid=20782440-32e2-4e26-a85a-d8b01db73401"},"vehicle_type_id":"4","last_reported":1753882443,"current_range_meters":18800,"station_id":"cpo36qri1sfpv3e86is0","pricing_plan_id":"cebpf4jnsgd1na2vs0mg"},{"bike_id":"2d7b11e6-3b30-48b8-8e59-0da668c822c8","system_id":"levelo_inurba_marseille","lat":43.23146,"lon":5.43704,"is_reserved":false,"is_disabled":false,"rental_uris":{"android":"levelo://app?vid=2d7b11e6-3b30-48b8-8e59-0da668c822c8","ios":"levelo://app?vid=2d7b11e6-3b30-48b8-8e59-0da668c822c8"},"vehicle_type_id":"4","last_reported":1753882443,"current_range_meters":18800,"station_id":"ce4bhmp2rcd13ifvqgog","pricing_plan_id":"cebpf4jnsgd1na2vs0mg"},{"bike_id":"32cab1f2-25e1-4908-91ce-c5993151a5ed","system_id":"levelo_inurba_marseille","lat":43.2512,"lon":5.40316,"is_reserved":false,"is_disabled":false,"rental_uris":{"android":"levelo://app?vid=32cab1f2-25e1-4908-91ce-c5993151a5ed","ios":"levelo://app?vid=32cab1f2-25e1-4908-91ce-c5993151a5ed"},"vehicle_type_id":"4","last_reported":1753882443,"current_range_meters":18800,"station_id":"ce4bhlh2rcd13ifvqgig","pricing_plan_id":"cebpf4jnsgd1na2vs0mg"},{"bike_id":"e44338ce-0d6c-4566-85e4-f5ea4ca6883e","system_id":"levelo_inurba_marseille","lat":43.277609,"lon":5.389309,"is_reserved":false,"is_disabled":false,"rental_uris":{"android":"levelo://app?vid=e44338ce-0d6c-4566-85e4-f5ea4ca6883e","ios":"levelo://app?vid=e44338ce-0d6c-4566-85e4-f5ea4ca6883e"},"vehicle_type_id":"4","last_reported":1753882443,"current_range_meters":18800,"station_id":"ce4bhh12rcd13ifvqfg0","pricing_plan_id":"cebpf4jnsgd1na2vs0mg"},{"bike_id":"6b1ad7e3-e375-483f-8e77-430e8d7796f6","system_id":"levelo_inurba_marseille","lat":43.30145,"lon":5.37422,"is_reserved":false,"is_disabled":false,"rental_uris":{"android":"levelo://app?vid=6b1ad7e3-e375-483f-8e77-430e8d7796f6","ios":"levelo://app?vid=6b1ad7e3-e375-483f-8e77-430e8d7796f6"},"vehicle_type_id":"4","last_reported":1753882443,"current_range_meters":18800,"station_id":"ce4bgs92rcd13ifvqcc0","pricing_plan_id":"cebpf4jnsgd1na2vs0mg"},{"bike_id":"ae9b0dc1-8464-425a-ada5-b8d7aa445a9f","system_id":"levelo_inurba_marseille","lat":43.2252,"lon":5.34774,"is_reserved":false,"is_disabled":false,"rental_uris":{"android":"levelo://app?vid=ae9b0dc1-8464-425a-ada5-b8d7aa445a9f","ios":"levelo://app?vid=ae9b0dc1-8464-425a-ada5-b8d7aa445a9f"},"vehicle_type_id":"4","last_reported":1753882443,"current_range_meters":18800,"station_id":"st_cvj5dfep6f1abm77gieg","pricing_plan_id":"cebpf4jnsgd1na2vs0mg"},{"bike_id":"02ba587b-fdc4-4538-91bf-a3fcb628a435","system_id":"levelo_inurba_marseille","lat":43.34616,"lon":5.44868,"is_reserved":false,"is_disabled":false,"rental_uris":{"android":"levelo://app?vid=02ba587b-fdc4-4538-91bf-a3fcb628a435","ios":"levelo://app?vid=02ba587b-fdc4-4538-91bf-a3fcb628a435"},"vehicle_type_id":"4","last_reported":1753882443,"current_range_meters":18800,"station_id":"","pricing_plan_id":"cebpf4jnsgd1na2vs0mg"},{"bike_id":"a680cfd1-5b43-4211-9ae3-0ecb95596e08","system_id":"levelo_inurba_marseille","lat":43.28618,"lon":5.35104,"is_reserved":false,"is_disabled":false,"rental_uris":{"android":"levelo://app?vid=a680cfd1-5b43-4211-9ae3-0ecb95596e08","ios":"levelo://app?vid=a680cfd1-5b43-4211-9ae3-0ecb95596e08"},"vehicle_type_id":"4","last_reported":1753882443,"current_range_meters":18800,"station_id":"ce4bhch2rcd13ifvqeug","pricing_plan_id":"cebpf4jnsgd1na2vs0mg"},{"bike_id":"011fd654-e76c-4060-82ef-48cab0762fbe","system_id":"levelo_inurba_marseille","lat":43.229487,"lon":5.353739,"is_reserved":false,"is_disabled":false,"rental_uris":{"android":"levelo://app?vid=011fd654-e76c-4060-82ef-48cab0762fbe","ios":"levelo://app?vid=011fd654-e76c-4060-82ef-48cab0762fbe"},"vehicle_type_id":"4","last_reported":1753882443,"current_range_meters":18800,"station_id":"cpo3532slgdg3j2ikp40","pricing_plan_id":"cebpf4jnsgd1na2vs0mg"},{"bike_id":"e48d15e8-73e9-4c75-b463-f8136db77abd","system_id":"levelo_inurba_marseille","lat":43.27359,"lon":5.36251,"is_reserved":false,"is_disabled":false,"rental_uris":{"android":"levelo://app?vid=e48d15e8-73e9-4c75-b463-f8136db77abd","ios":"levelo://app?vid=e48d15e8-73e9-4c75-b463-f8136db77abd"},"vehicle_type_id":"4","last_reported":1753882443,"current_range_meters":19200,"station_id":"ce4bhbh2rcd13ifvqeo0","pricing_plan_id":"cebpf4jnsgd1na2vs0mg"},{"bike_id":"047ccaeb-4995-455d-97b3-ac1657f54fe8","system_id":"levelo_inurba_marseille","lat":43.26964,"lon":5.40238,"is_reserved":false,"is_disabled":false,"rental_uris":{"android":"levelo://app?vid=047ccaeb-4995-455d-97b3-ac1657f54fe8","ios":"levelo://app?vid=047ccaeb-4995-455d-97b3-ac1657f54fe8"},"vehicle_type_id":"4","last_reported":1753882443,"current_range_meters":19200,"station_id":"cjm6bp8fraef2m0cb0m0","pricing_plan_id":"cebpf4jnsgd1na2vs0mg"},{"bike_id":"1f309e90-6b9f-4fc6-8c22-3652055c9caa","system_id":"levelo_inurba_marseille","lat":43.29033,"lon":5.40008,"is_reserved":false,"is_disabled":false,"rental_uris":{"android":"levelo://app?vid=1f309e90-6b9f-4fc6-8c22-3652055c9caa","ios":"levelo://app?vid=1f309e90-6b9f-4fc6-8c22-3652055c9caa"},"vehicle_type_id":"4","last_reported":1753882443,"current_range_meters":19200,"station_id":"ce4bh392rcd13ifvqdm0","pricing_plan_id":"cebpf4jnsgd1na2vs0mg"},{"bike_id":"4f311b95-16d0-4152-9b03-677da880350c","system_id":"levelo_inurba_marseille","lat":43.23953,"lon":5.3664,"is_reserved":false,"is_disabled":false,"rental_uris":{"android":"levelo://app?vid=4f311b95-16d0-4152-9b03-677da880350c","ios":"levelo://app?vid=4f311b95-16d0-4152-9b03-677da880350c"},"vehicle_type_id":"4","last_reported":1753882443,"current_range_meters":19200,"station_id":"ce4bhi12rcd13ifvqfp0","pricing_plan_id":"cebpf4jnsgd1na2vs0mg"},{"bike_id":"f28fd049-0d74-4420-9a84-4b4010164f06","system_id":"levelo_inurba_marseille","lat":43.32498,"lon":5.36582,"is_reserved":false,"is_disabled":false,"rental_uris":{"android":"levelo://app?vid=f28fd049-0d74-4420-9a84-4b4010164f06","ios":"levelo://app?vid=f28fd049-0d74-4420-9a84-4b4010164f06"},"vehicle_type_id":"4","last_reported":1753882443,"current_range_meters":19200,"station_id":"ce4bhs12rcd13ifvqhvg","pricing_plan_id":"cebpf4jnsgd1na2vs0mg"},{"bike_id":"d0e68786-d337-4e6e-9ee9-8bd9daa48758","system_id":"levelo_inurba_marseille","lat":43.24826,"lon":5.37455,"is_reserved":false,"is_disabled":false,"rental_uris":{"android":"levelo://app?vid=d0e68786-d337-4e6e-9ee9-8bd9daa48758","ios":"levelo://app?vid=d0e68786-d337-4e6e-9ee9-8bd9daa48758"},"vehicle_type_id":"4","last_reported":1753882443,"current_range_meters":19200,"station_id":"ce4bhgh2rcd13ifvqfb0","pricing_plan_id":"cebpf4jnsgd1na2vs0mg"},{"bike_id":"181b5419-3dd3-4509-9012-6ba2492ecb05","system_id":"levelo_inurba_marseille","lat":43.26194,"lon":5.37453,"is_reserved":false,"is_disabled":false,"rental_uris":{"android":"levelo://app?vid=181b5419-3dd3-4509-9012-6ba2492ecb05","ios":"levelo://app?vid=181b5419-3dd3-4509-9012-6ba2492ecb05"},"vehicle_type_id":"4","last_reported":1753882443,"current_range_meters":19200,"station_id":"ce4bhgp2rcd13ifvqfc0","pricing_plan_id":"cebpf4jnsgd1na2vs0mg"},{"bike_id":"eb222de6-87a7-4fc6-92e8-d4154e846895","system_id":"levelo_inurba_marseille","lat":43.22933,"lon":5.3537,"is_reserved":false,"is_disabled":false,"rental_uris":{"android":"levelo://app?vid=eb222de6-87a7-4fc6-92e8-d4154e846895","ios":"levelo://app?vid=eb222de6-87a7-4fc6-92e8-d4154e846895"},"vehicle_type_id":"4","last_reported":1753882443,"current_range_meters":19200,"station_id":"cpo3532slgdg3j2ikp40","pricing_plan_id":"cebpf4jnsgd1na2vs0mg"},{"bike_id":"5df141b0-927f-4aaf-b7ac-e255c51a1ed9","system_id":"levelo_inurba_marseille","lat":43.24174,"lon":5.39725,"is_reserved":false,"is_disabled":false,"rental_uris":{"android":"levelo://app?vid=5df141b0-927f-4aaf-b7ac-e255c51a1ed9","ios":"levelo://app?vid=5df141b0-927f-4aaf-b7ac-e255c51a1ed9"},"vehicle_type_id":"4","last_reported":1753882443,"current_range_meters":19600,"station_id":"ce4bhn12rcd13ifvqgpg","pricing_plan_id":"cebpf4jnsgd1na2vs0mg"},{"bike_id":"03780cff-a34f-4463-89ad-309e50413149","system_id":"levelo_inurba_marseille","lat":43.31199,"lon":5.37806,"is_reserved":false,"is_disabled":false,"rental_uris":{"android":"levelo://app?vid=03780cff-a34f-4463-89ad-309e50413149","ios":"levelo://app?vid=03780cff-a34f-4463-89ad-309e50413149"},"vehicle_type_id":"4","last_reported":1753882443,"current_range_meters":19600,"station_id":"","pricing_plan_id":"cebpf4jnsgd1na2vs0mg"},{"bike_id":"f6039ea6-c1a7-4052-9af2-2cd59febefe3","system_id":"levelo_inurba_marseille","lat":43.30147,"lon":5.38067,"is_reserved":false,"is_disabled":false,"rental_uris":{"android":"levelo://app?vid=f6039ea6-c1a7-4052-9af2-2cd59febefe3","ios":"levelo://app?vid=f6039ea6-c1a7-4052-9af2-2cd59febefe3"},"vehicle_type_id":"4","last_reported":1753882443,"current_range_meters":19600,"station_id":"ce4bgjp2rcd13ifvqbh0","pricing_plan_id":"cebpf4jnsgd1na2vs0mg"},{"bike_id":"ffbc5986-1fd6-423d-bdb9-2a77778a9c41","system_id":"levelo_inurba_marseille","lat":43.241806,"lon":5.3973,"is_reserved":false,"is_disabled":false,"rental_uris":{"android":"levelo://app?vid=ffbc5986-1fd6-423d-bdb9-2a77778a9c41","ios":"levelo://app?vid=ffbc5986-1fd6-423d-bdb9-2a77778a9c41"},"vehicle_type_id":"4","last_reported":1753882443,"current_range_meters":19600,"station_id":"ce4bhn12rcd13ifvqgpg","pricing_plan_id":"cebpf4jnsgd1na2vs0mg"},{"bike_id":"ddc41d93-f2c0-4f0f-a41c-ebe18630b66e","system_id":"levelo_inurba_marseille","lat":43.27381,"lon":5.36267,"is_reserved":false,"is_disabled":false,"rental_uris":{"android":"levelo://app?vid=ddc41d93-f2c0-4f0f-a41c-ebe18630b66e","ios":"levelo://app?vid=ddc41d93-f2c0-4f0f-a41c-ebe18630b66e"},"vehicle_type_id":"4","last_reported":1753882443,"current_range_meters":19600,"station_id":"ce4bhbh2rcd13ifvqeo0","pricing_plan_id":"cebpf4jnsgd1na2vs0mg"},{"bike_id":"110415c0-5c75-45ad-a1bf-d6ec997906a4","system_id":"levelo_inurba_marseille","lat":43.26561,"lon":5.39012,"is_reserved":false,"is_disabled":false,"rental_uris":{"android":"levelo://app?vid=110415c0-5c75-45ad-a1bf-d6ec997906a4","ios":"levelo://app?vid=110415c0-5c75-45ad-a1bf-d6ec997906a4"},"vehicle_type_id":"4","last_reported":1753882443,"current_range_meters":19600,"station_id":"ce4bhe12rcd13ifvqf30","pricing_plan_id":"cebpf4jnsgd1na2vs0mg"},{"bike_id":"fc7cf52a-664f-402e-a8df-c9618534aaa8","system_id":"levelo_inurba_marseille","lat":43.2902,"lon":5.39975,"is_reserved":false,"is_disabled":false,"rental_uris":{"android":"levelo://app?vid=fc7cf52a-664f-402e-a8df-c9618534aaa8","ios":"levelo://app?vid=fc7cf52a-664f-402e-a8df-c9618534aaa8"},"vehicle_type_id":"4","last_reported":1753882443,"current_range_meters":19600,"station_id":"ce4bh392rcd13ifvqdm0","pricing_plan_id":"cebpf4jnsgd1na2vs0mg"},{"bike_id":"b1ee4acc-5b6f-42ea-b95b-d1c9730d14e8","system_id":"levelo_inurba_marseille","lat":43.21753,"lon":5.34601,"is_reserved":false,"is_disabled":false,"rental_uris":{"android":"levelo://app?vid=b1ee4acc-5b6f-42ea-b95b-d1c9730d14e8","ios":"levelo://app?vid=b1ee4acc-5b6f-42ea-b95b-d1c9730d14e8"},"vehicle_type_id":"4","last_reported":1753882443,"current_range_meters":19600,"station_id":"st_cvj6r9ubvosntc0bgbag","pricing_plan_id":"cebpf4jnsgd1na2vs0mg"},{"bike_id":"87f3bbd4-2d04-4c0d-9774-8fdd6bc3d9ef","system_id":"levelo_inurba_marseille","lat":43.26197,"lon":5.37933,"is_reserved":false,"is_disabled":false,"rental_uris":{"android":"levelo://app?vid=87f3bbd4-2d04-4c0d-9774-8fdd6bc3d9ef","ios":"levelo://app?vid=87f3bbd4-2d04-4c0d-9774-8fdd6bc3d9ef"},"vehicle_type_id":"4","last_reported":1753882443,"current_range_meters":19600,"station_id":"ce4bhjp2rcd13ifvqg90","pricing_plan_id":"cebpf4jnsgd1na2vs0mg"},{"bike_id":"501fe082-6c32-4a24-80fd-4833724e8426","system_id":"levelo_inurba_marseille","lat":43.30614,"lon":5.37442,"is_reserved":false,"is_disabled":false,"rental_uris":{"android":"levelo://app?vid=501fe082-6c32-4a24-80fd-4833724e8426","ios":"levelo://app?vid=501fe082-6c32-4a24-80fd-4833724e8426"},"vehicle_type_id":"4","last_reported":1753882443,"current_range_meters":19600,"station_id":"","pricing_plan_id":"cebpf4jnsgd1na2vs0mg"},