{"last_updated":1749629674,"ttl":60,"version":"2.2","data":{"bikes":[{"bike_id":"dd67f108-95bf-4a1e-b619-4bb77e009c5b","system_id":"levelo_inurba_marseille","lat":43.29068,"lon":5.42762,"is_reserved":false,"is_disabled":false,"rental_uris":{"android":"levelo://app?vid=dd67f108-95bf-4a1e-b619-4bb77e009c5b","ios":"levelo://app?vid=dd67f108-95bf-4a1e-b619-4bb77e009c5b"},"vehicle_type_id":"4","last_reported":1749629674,"current_range_meters":2800,"station_id":"","pricing_plan_id":"cebpf4jnsgd1na2vs0mg"},{"bike_id":"32757c7a-4e7e-4608-960b-f9479ab83c30","system_id":"levelo_inurba_marseille","lat":43.292268,"lon":5.360702,"is_reserved":false,"is_disabled":false,"rental_uris":{"android":"levelo://app?vid=32757c7a-4e7e-4608-960b-f9479ab83c30","ios":"levelo://app?vid=32757c7a-4e7e-4608-960b-f9479ab83c30"},"vehicle_type_id":"4","last_reported":1749629674,"current_range_meters":2800,"station_id":"ce4bhbh2rcd13ifvqeqg","pricing_plan_id":"cebpf4jnsgd1na2vs0mg"},{"bike_id":"40f12c36-f7a3-4ebb-9869-8f3701b0ce26","system_id":"levelo_inurba_marseille","lat":43.29298,"lon":5.37154,"is_reserved":false,"is_disabled":false,"rental_uris":{"android":"levelo://app?vid=40f12c36-f7a3-4ebb-9869-8f3701b0ce26","ios":"levelo://app?vid=40f12c36-f7a3-4ebb-9869-8f3701b0ce26"},"vehicle_type_id":"4","last_reported":1749629674,"current_range_meters":2800,"station_id":"ce4bgh92rcd13ifvqb40","pricing_plan_id":"cebpf4jnsgd1na2vs0mg"},{"bike_id":"edbb6d60-df0f-471e-aedc-a92a162b45b7","system_id":"levelo_inurba_marseille","lat":43.2897,"lon":5.37833,"is_reserved":false,"is_disabled":false,"rental_uris":{"android":"levelo://app?vid=edbb6d60-df0f-471e-aedc-a92a162b45b7","ios":"levelo://app?vid=edbb6d60-df0f-471e-aedc-a92a162b45b7"},"vehicle_type_id":"4","last_reported":1749629674,"current_range_meters":3200,"station_id":"ce4bh9p2rcd13ifvqed0","pricing_plan_id":"cebpf4jnsgd1na2vs0mg"},{"bike_id":"88113087-f0bb-4133-ab2a-bbfce1f3d99a","system_id":"levelo_inurba_marseille","lat":43.31708,"lon":5.40481,"is_reserved":false,"is_disabled":true,"rental_uris":{"android":"levelo://app?vid=88113087-f0bb-4133-ab2a-bbfce1f3d99a","ios":"levelo://app?vid=88113087-f0bb-4133-ab2a-bbfce1f3d99a"},"vehicle_type_id":"4","last_reported":1749629674,"current_range_meters":3600,"station_id":"ce4bh012rcd13ifvqd00","pricing_plan_id":"cebpf4jnsgd1na2vs0mg"},{"bike_id":"a8368ca2-ad19-48ce-ac30-3e241816d3ff","system_id":"levelo_inurba_marseille","lat":43.27491,"lon":5.42448,"is_reserved":false,"is_disabled":false,"rental_uris":{"android":"levelo://app?vid=a8368ca2-ad19-48ce-ac30-3e241816d3ff","ios":"levelo://app?vid=a8368ca2-ad19-48ce-ac30-3e241816d3ff"},"vehicle_type_id":"4","last_reported":1749629674,"current_range_meters":3600,"station_id":"ce4bhn92rcd13ifvqgrg","pricing_plan_id":"cebpf4jnsgd1na2vs0mg"},{"bike_id":"aa6b16e3-a31f-4741-b7e8-fdfc48df1313","system_id":"levelo_inurba_marseille","lat":43.28261,"lon":5.35066,"is_reserved":false,"is_disabled":false,"rental_uris":{"android":"levelo://app?vid=aa6b16e3-a31f-4741-b7e8-fdfc48df1313","ios":"levelo://app?vid=aa6b16e3-a31f-4741-b7e8-fdfc48df1313"},"vehicle_type_id":"4","last_reported":1749629674,"current_range_meters":3600,"station_id":"ce4bhbp2rcd13ifvqerg","pricing_plan_id":"cebpf4jnsgd1na2vs0mg"},{"bike_id":"4bbf18c4-952a-4eb4-8649-6803f058eaa5","system_id":"levelo_inurba_marseille","lat":43.33203,"lon":5.42923,"is_reserved":false,"is_disabled":true,"rental_uris":{"android":"levelo://app?vid=4bbf18c4-952a-4eb4-8649-6803f058eaa5","ios":"levelo://app?vid=4bbf18c4-952a-4eb4-8649-6803f058eaa5"},"vehicle_type_id":"4","last_reported":1749629674,"current_range_meters":3600,"station_id":"","pricing_plan_id":"cebpf4jnsgd1na2vs0mg"},{"bike_id":"a471041d-0b6e-41ce-a5a3-cbcaf410bc87","system_id":"levelo_inurba_marseille","lat":43.32489,"lon":5.36578,"is_reserved":false,"is_disabled":false,"rental_uris":{"android":"levelo://app?vid=a471041d-0b6e-41ce-a5a3-cbcaf410bc87","ios":"levelo://app?vid=a471041d-0b6e-41ce-a5a3-cbcaf410bc87"},"vehicle_type_id":"4","last_reported":1749629674,"current_range_meters":4000,"station_id":"ce4bhs12rcd13ifvqhvg","pricing_plan_id":"cebpf4jnsgd1na2vs0mg"},{"bike_id":"6983d750-4a32-4f92-a527-1d752430faa3","system_id":"levelo_inurba_marseille","lat":43.32039,"lon":5.41536,"is_reserved":false,"is_disabled":false,"rental_uris":{"android":"levelo://app?vid=6983d750-4a32-4f92-a527-1d752430faa3","ios":"levelo://app?vid=6983d750-4a32-4f92-a527-1d752430faa3"},"vehicle_type_id":"4","last_reported":1749629674,"current_range_meters":4000,"station_id":"ce4bhq92rcd13ifvqhkg","pricing_plan_id":"cebpf4jnsgd1na2vs0mg"},{"bike_id":"932b8709-bbe4-4da3-845a-10c194e47bea","system_id":"levelo_inurba_marseille","lat":43.26208,"lon":5.37439,"is_reserved":false,"is_disabled":false,"rental_uris":{"android":"levelo://app?vid=932b8709-bbe4-4da3-845a-10c194e47bea","ios":"levelo://app?vid=932b8709-bbe4-4da3-845a-10c194e47bea"},"vehicle_type_id":"4","last_reported":1749629674,"current_range_meters":4000,"station_id":"ce4bhgp2rcd13ifvqfc0","pricing_plan_id":"cebpf4jnsgd1na2vs0mg"},{"bike_id":"17b462cf-f2f3-4ecf-ac2e-f3de141adb26","system_id":"levelo_inurba_marseille","lat":43.24802,"lon":5.37455,"is_reserved":false,"is_disabled":false,"rental_uris":{"android":"levelo://app?vid=17b462cf-f2f3-4ecf-ac2e-f3de141adb26","ios":"levelo://app?vid=17b462cf-f2f3-4ecf-ac2e-f3de141adb26"},"vehicle_type_id":"4","last_reported":1749629674,"current_range_meters":4800,"station_id":"ce4bhgh2rcd13ifvqfb0","pricing_plan_id":"cebpf4jnsgd1na2vs0mg"},{"bike_id":"0be3a995-f958-43f6-859b-ebc36e69f530","system_id":"levelo_inurba_marseille","lat":43.30956,"lon":5.39047,"is_reserved":false,"is_disabled":false,"rental_uris":{"android":"levelo://app?vid=0be3a995-f958-43f6-859b-ebc36e69f530","ios":"levelo://app?vid=0be3a995-f958-43f6-859b-ebc36e69f530"},"vehicle_type_id":"4","last_reported":1749629674,"current_range_meters":4800,"station_id":"ce4bgup2rcd13ifvqco0","pricing_plan_id":"cebpf4jnsgd1na2vs0mg"},{"bike_id":"a3bb6646-daba-43fe-ad0f-2afd14f272fa","system_id":"levelo_inurba_marseille","lat":43.28265,"lon":5.3506,"is_reserved":false,"is_disabled":false,"rental_uris":{"android":"levelo://app?vid=a3bb6646-daba-43fe-ad0f-2afd14f272fa","ios":"levelo://app?vid=a3bb6646-daba-43fe-ad0f-2afd14f272fa"},"vehicle_type_id":"4","last_reported":1749629674,"current_range_meters":4800,"station_id":"ce4bhbp2rcd13ifvqerg","pricing_plan_id":"cebpf4jnsgd1na2vs0mg"},{"bike_id":"7910da91-b63b-4ef7-bd07-217eb0b08569","system_id":"levelo_inurba_marseille","lat":43.25586,"lon":5.38236,"is_reserved":false,"is_disabled":false,"rental_uris":{"android":"levelo://app?vid=7910da91-b63b-4ef7-bd07-217eb0b08569","ios":"levelo://app?vid=7910da91-b63b-4ef7-bd07-217eb0b08569"},"vehicle_type_id":"4","last_reported":1749629674,"current_range_meters":5600,"station_id":"ce4bhih2rcd13ifvqfs0","pricing_plan_id":"cebpf4jnsgd1na2vs0mg"},{"bike_id":"55e83d7a-8994-48a7-8cb9-e7efa8fb8dde","system_id":"levelo_inurba_marseille","lat":43.23149,"lon":5.43724,"is_reserved":false,"is_disabled":false,"rental_uris":{"android":"levelo://app?vid=55e83d7a-8994-48a7-8cb9-e7efa8fb8dde","ios":"levelo://app?vid=55e83d7a-8994-48a7-8cb9-e7efa8fb8dde"},"vehicle_type_id":"4","last_reported":1749629674,"current_range_meters":5600,"station_id":"ce4bhmp2rcd13ifvqgog","pricing_plan_id":"cebpf4jnsgd1na2vs0mg"},{"bike_id":"84c5a056-59a2-4114-a338-ef6831f40fe4","system_id":"levelo_inurba_marseille","lat":43.24165,"lon":5.39722,"is_reserved":false,"is_disabled":false,"rental_uris":{"android":"levelo://app?vid=84c5a056-59a2-4114-a338-ef6831f40fe4","ios":"levelo://app?vid=84c5a056-59a2-4114-a338-ef6831f40fe4"},"vehicle_type_id":"4","last_reported":1749629674,"current_range_meters":6000,"station_id":"ce4bhn12rcd13ifvqgpg","pricing_plan_id":"cebpf4jnsgd1na2vs0mg"},{"bike_id":"5300afc6-2762-4731-9dd7-b62876dcccf7","system_id":"levelo_inurba_marseille","lat":43.3055,"lon":5.36546,"is_reserved":false,"is_disabled":false,"rental_uris":{"android":"levelo://app?vid=5300afc6-2762-4731-9dd7-b62876dcccf7","ios":"levelo://app?vid=5300afc6-2762-4731-9dd7-b62876dcccf7"},"vehicle_type_id":"4","last_reported":1749629674,"current_range_meters":6000,"station_id":"ce4bgs12rcd13ifvqcag","pricing_plan_id":"cebpf4jnsgd1na2vs0mg"},{"bike_id":"83ae1d0c-e98e-4133-b9da-ebc74ed12268","system_id":"levelo_inurba_marseille","lat":43.31166,"lon":5.38709,"is_reserved":false,"is_disabled":false,"rental_uris":{"android":"levelo://app?vid=83ae1d0c-e98e-4133-b9da-ebc74ed12268","ios":"levelo://app?vid=83ae1d0c-e98e-4133-b9da-ebc74ed12268"},"vehicle_type_id":"4","last_reported":1749629674,"current_range_meters":6000,"station_id":"ce4bgv12rcd13ifvqcp0","pricing_plan_id":"cebpf4jnsgd1na2vs0mg"},{"bike_id":"a18ebb47-b918-4dad-98d1-64b2576c24db","system_id":"levelo_inurba_marseille","lat":43.23173,"lon":5.39992,"is_reserved":false,"is_disabled":false,"rental_uris":{"android":"levelo://app?vid=a18ebb47-b918-4dad-98d1-64b2576c24db","ios":"levelo://app?vid=a18ebb47-b918-4dad-98d1-64b2576c24db"},"vehicle_type_id":"4","last_reported":1749629674,"current_range_meters":6000,"station_id":"ce4bhn12rcd13ifvqgqg","pricing_plan_id":"cebpf4jnsgd1na2vs0mg"},{"bike_id":"51e6dc67-acdf-4d5d-95b5-40bfa64200da","system_id":"levelo_inurba_marseille","lat":43.29194,"lon":5.35811,"is_reserved":false,"is_disabled":false,"rental_uris":{"android":"levelo://app?vid=51e6dc67-acdf-4d5d-95b5-40bfa64200da","ios":"levelo://app?vid=51e6dc67-acdf-4d5d-95b5-40bfa64200da"},"vehicle_type_id":"4","last_reported":1749629674,"current_range_meters":6800,"station_id":"ce4bhb12rcd13ifvqel0","pricing_plan_id":"cebpf4jnsgd1na2vs0mg"},{"bike_id":"49938379-7218-4c9f-884c-7e199e43a101","system_id":"levelo_inurba_marseille","lat":43.31705,"lon":5.4046,"is_reserved":false,"is_disabled":false,"rental_uris":{"android":"levelo://app?vid=49938379-7218-4c9f-884c-7e199e43a101","ios":"levelo://app?vid=49938379-7218-4c9f-884c-7e199e43a101"},"vehicle_type_id":"4","last_reported":1749629674,"current_range_meters":6800,"station_id":"ce4bh012rcd13ifvqd00","pricing_plan_id":"cebpf4jnsgd1na2vs0mg"},{"bike_id":"17732f93-0b81-4776-a7fe-d6476e5125a1","system_id":"levelo_inurba_marseille","lat":43.324777,"lon":5.365732,"is_reserved":false,"is_disabled":false,"rental_uris":{"android":"levelo://app?vid=17732f93-0b81-4776-a7fe-d6476e5125a1","ios":"levelo://app?vid=17732f93-0b81-4776-a7fe-d6476e5125a1"},"vehicle_type_id":"4","last_reported":1749629674,"current_range_meters":6800,"station_id":"ce4bhs12rcd13ifvqhvg","pricing_plan_id":"cebpf4jnsgd1na2vs0mg"},{"bike_id":"e4413fa4-4949-4a8b-80a7-db572197f8b5","system_id":"levelo_inurba_marseille","lat":43.30539,"lon":5.36543,"is_reserved":false,"is_disabled":false,"rental_uris":{"android":"levelo://app?vid=e4413fa4-4949-4a8b-80a7-db572197f8b5","ios":"levelo://app?vid=e4413fa4-4949-4a8b-80a7-db572197f8b5"},"vehicle_type_id":"4","last_reported":1749629674,"current_range_meters":6800,"station_id":"ce4bgs12rcd13ifvqcag","pricing_plan_id":"cebpf4jnsgd1na2vs0mg"},{"bike_id":"b6285f6b-e9e7-470d-9b6d-1afe99ab71bf","system_id":"levelo_inurba_marseille","lat":43.26184,"lon":5.42074,"is_reserved":false,"is_disabled":false,"rental_uris":{"android":"levelo://app?vid=b6285f6b-e9e7-470d-9b6d-1afe99ab71bf","ios":"levelo://app?vid=b6285f6b-e9e7-470d-9b6d-1afe99ab71bf"},"vehicle_type_id":"4","last_reported":1749629674,"current_range_meters":7200,"station_id":"","pricing_plan_id":"cebpf4jnsgd1na2vs0mg"},{"bike_id":"e523f706-8c3e-4c14-b599-8e03c9d72beb","system_id":"levelo_inurba_marseille","lat":43.317007,"lon":5.404697,"is_reserved":false,"is_disabled":false,"rental_uris":{"android":"levelo://app?vid=e523f706-8c3e-4c14-b599-8e03c9d72beb","ios":"levelo://app?vid=e523f706-8c3e-4c14-b599-8e03c9d72beb"},"vehicle_type_id":"4","last_reported":1749629674,"current_range_meters":7200,"station_id":"ce4bh012rcd13ifvqd00","pricing_plan_id":"cebpf4jnsgd1na2vs0mg"},{"bike_id":"01cfce30-f196-46d3-bab6-17adcdf47b4d","system_id":"levelo_inurba_marseille","lat":43.30558,"lon":5.36542,"is_reserved":false,"is_disabled":false,"rental_uris":{"android":"levelo://app?vid=01cfce30-f196-46d3-bab6-17adcdf47b4d","ios":"levelo://app?vid=01cfce30-f196-46d3-bab6-17adcdf47b4d"},"vehicle_type_id":"4","last_reported":1749629674,"current_range_meters":7200,"station_id":"ce4bgs12rcd13ifvqcag","pricing_plan_id":"cebpf4jnsgd1na2vs0mg"},{"bike_id":"3d59d2ec-b59a-43e8-abae-40ac02fdcdb8","system_id":"levelo_inurba_marseille","lat":43.29558,"lon":5.42275,"is_reserved":false,"is_disabled":false,"rental_uris":{"android":"levelo://app?vid=3d59d2ec-b59a-43e8-abae-40ac02fdcdb8","ios":"levelo://app?vid=3d59d2ec-b59a-43e8-abae-40ac02fdcdb8"},"vehicle_type_id":"4","last_reported":1749629674,"current_range_meters":7200,"station_id":"ce4bhph2rcd13ifvqhdg","pricing_plan_id":"cebpf4jnsgd1na2vs0mg"},{"bike_id":"39d32260-51d5-455a-ba53-6471389bd255","system_id":"levelo_inurba_marseille","lat":43.31983,"lon":5.3765,"is_reserved":false,"is_disabled":false,"rental_uris":{"android":"levelo://app?vid=39d32260-51d5-455a-ba53-6471389bd255","ios":"levelo://app?vid=39d32260-51d5-455a-ba53-6471389bd255"},"vehicle_type_id":"4","last_reported":1749629674,"current_range_meters":7200,"station_id":"","pricing_plan_id":"cebpf4jnsgd1na2vs0mg"},{"bike_id":"50a1969f-9cfa-4df4-84e0-5602f363f4d3","system_id":"levelo_inurba_marseille","lat":43.29871,"lon":5.39734,"is_reserved":false,"is_disabled":false,"rental_uris":{"android":"levelo://app?vid=50a1969f-9cfa-4df4-84e0-5602f363f4d3","ios":"levelo://app?vid=50a1969f-9cfa-4df4-84e0-5602f363f4d3"},"vehicle_type_id":"4","last_reported":1749629674,"current_range_meters":7200,"station_id":"ce4bh0h2rcd13ifvqd50","pricing_plan_id":"cebpf4jnsgd1na2vs0mg"},{"bike_id":"1e532920-9e26-4275-b7c0-535f652566f3","system_id":"levelo_inurba_marseille","lat":43.313563,"lon":5.367263,"is_reserved":false,"is_disabled":false,"rental_uris":{"android":"levelo://app?vid=1e532920-9e26-4275-b7c0-535f652566f3","ios":"levelo://app?vid=1e532920-9e26-4275-b7c0-535f652566f3"},"vehicle_type_id":"4","last_reported":1749629674,"current_range_meters":7200,"station_id":"ce4bgr92rcd13ifvqc6g","pricing_plan_id":"cebpf4jnsgd1na2vs0mg"},{"bike_id":"47238316-c487-4913-a646-c63317f5f044","system_id":"levelo_inurba_marseille","lat":43.29619,"lon":5.371599,"is_reserved":false,"is_disabled":false,"rental_uris":{"android":"levelo://app?vid=47238316-c487-4913-a646-c63317f5f044","ios":"levelo://app?vid=47238316-c487-4913-a646-c63317f5f044"},"vehicle_type_id":"4","last_reported":1749629674,"current_range_meters":8000,"station_id":"","pricing_plan_id":"cebpf4jnsgd1na2vs0mg"},{"bike_id":"b3d982ff-85a1-4dd3-8d38-99737526bcfa","system_id":"levelo_inurba_marseille","lat":43.30309,"lon":5.36892,"is_reserved":false,"is_disabled":false,"rental_uris":{"android":"levelo://app?vid=b3d982ff-85a1-4dd3-8d38-99737526bcfa","ios":"levelo://app?vid=b3d982ff-85a1-4dd3-8d38-99737526bcfa"},"vehicle_type_id":"4","last_reported":1749629674,"current_range_meters":8000,"station_id":"ce4bgqh2rcd13ifvqc5g","pricing_plan_id":"cebpf4jnsgd1na2vs0mg"},{"bike_id":"8d0bc253-e165-4fb4-8553-b2be5a3616d9","system_id":"levelo_inurba_marseille","lat":43.24071,"lon":5.3776,"is_reserved":false,"is_disabled":false,"rental_uris":{"android":"levelo://app?vid=8d0bc253-e165-4fb4-8553-b2be5a3616d9","ios":"levelo://app?vid=8d0bc253-e165-4fb4-8553-b2be5a3616d9"},"vehicle_type_id":"4","last_reported":1749629674,"current_range_meters":8000,"station_id":"ce4bhnp2rcd13ifvqgvg","pricing_plan_id":"cebpf4jnsgd1na2vs0mg"},{"bike_id":"a9334c0d-cdfc-464f-8eab-e98192ed3454","system_id":"levelo_inurba_marseille","lat":43.292296,"lon":5.399436,"is_reserved":false,"is_disabled":false,"rental_uris":{"android":"levelo://app?vid=a9334c0d-cdfc-464f-8eab-e98192ed3454","ios":"levelo://app?vid=a9334c0d-cdfc-464f-8eab-e98192ed3454"},"vehicle_type_id":"4","last_reported":1749629674,"current_range_meters":8000,"station_id":"","pricing_plan_id":"cebpf4jnsgd1na2vs0mg"},{"bike_id":"5e6b1e47-16fd-488b-b7eb-507767b76ee6","system_id":"levelo_inurba_marseille","lat":43.268258,"lon":5.390668,"is_reserved":false,"is_disabled":false,"rental_uris":{"android":"levelo://app?vid=5e6b1e47-16fd-488b-b7eb-507767b76ee6","ios":"levelo://app?vid=5e6b1e47-16fd-488b-b7eb-507767b76ee6"},"vehicle_type_id":"4","last_reported":1749629674,"current_range_meters":8000,"station_id":"","pricing_plan_id":"cebpf4jnsgd1na2vs0mg"},{"bike_id":"57ef5935-4669-4eec-8843-bdfc2323326a","system_id":"levelo_inurba_marseille","lat":43.27964,"lon":5.38736,"is_reserved":false,"is_disabled":false,"rental_uris":{"android":"levelo://app?vid=57ef5935-4669-4eec-8843-bdfc2323326a","ios":"levelo://app?vid=57ef5935-4669-4eec-8843-bdfc2323326a"},"vehicle_type_id":"4","last_reported":1749629674,"current_range_meters":11600,"station_id":"ce4bhg12rcd13ifvqf80","pricing_plan_id":"cebpf4jnsgd1na2vs0mg"},{"bike_id":"ad5fea89-943a-4619-9edc-0ace3e829ee1","system_id":"levelo_inurba_marseille","lat":43.32533,"lon":5.41436,"is_reserved":false,"is_disabled":false,"rental_uris":{"android":"levelo://app?vid=ad5fea89-943a-4619-9edc-0ace3e829ee1","ios":"levelo://app?vid=ad5fea89-943a-4619-9edc-0ace3e829ee1"},"vehicle_type_id":"4","last_reported":1749629674,"current_range_meters":8400,"station_id":"ce4bhq12rcd13ifvqhhg","pricing_plan_id":"cebpf4jnsgd1na2vs0mg"},{"bike_id":"051d8206-b2f9-4a8f-8236-aeaba9b0429d","system_id":"levelo_inurba_marseille","lat":43.24172,"lon":5.39723,"is_reserved":false,"is_disabled":false,"rental_uris":{"android":"levelo://app?vid=051d8206-b2f9-4a8f-8236-aeaba9b0429d","ios":"levelo://app?vid=051d8206-b2f9-4a8f-8236-aeaba9b0429d"},"vehicle_type_id":"4","last_reported":1749629674,"current_range_meters":8400,"station_id":"ce4bhn12rcd13ifvqgpg","pricing_plan_id":"cebpf4jnsgd1na2vs0mg"},{"bike_id":"c96defc4-7d86-4a0a-9944-e593e4547d0e","system_id":"levelo_inurba_marseille","lat":43.3235,"lon":5.40629,"is_reserved":false,"is_disabled":false,"rental_uris":{"android":"levelo://app?vid=c96defc4-7d86-4a0a-9944-e593e4547d0e","ios":"levelo://app?vid=c96defc4-7d86-4a0a-9944-e593e4547d0e"},"vehicle_type_id":"4","last_reported":1749629674,"current_range_meters":8400,"station_id":"ce4bhq92rcd13ifvqhjg","pricing_plan_id":"cebpf4jnsgd1na2vs0mg"},{"bike_id":"125bd855-10ed-4a56-9707-403f3a8b58a0","system_id":"levelo_inurba_marseille","lat":43.33083,"lon":5.4047,"is_reserved":false,"is_disabled":false,"rental_uris":{"android":"levelo://app?vid=125bd855-10ed-4a56-9707-403f3a8b58a0","ios":"levelo://app?vid=125bd855-10ed-4a56-9707-403f3a8b58a0"},"vehicle_type_id":"4","last_reported":1749629674,"current_range_meters":8400,"station_id":"","pricing_plan_id":"cebpf4jnsgd1na2vs0mg"},{"bike_id":"4a547821-6e1b-42ff-bb92-10ab6581a149","system_id":"levelo_inurba_marseille","lat":43.318504,"lon":5.374758,"is_reserved":false,"is_disabled":false,"rental_uris":{"android":"levelo://app?vid=4a547821-6e1b-42ff-bb92-10ab6581a149","ios":"levelo://app?vid=4a547821-6e1b-42ff-bb92-10ab6581a149"},"vehicle_type_id":"4","last_reported":1749629674,"current_range_meters":8800,"station_id":"","pricing_plan_id":"cebpf4jnsgd1na2vs0mg"},{"bike_id":"b2b091c7-ef42-4c06-871f-fd9e224b498e","system_id":"levelo_inurba_marseille","lat":43.3094,"lon":5.40131,"is_reserved":false,"is_disabled":false,"rental_uris":{"android":"levelo://app?vid=b2b091c7-ef42-4c06-871f-fd9e224b498e","ios":"levelo://app?vid=b2b091c7-ef42-4c06-871f-fd9e224b498e"},"vehicle_type_id":"4","last_reported":1749629674,"current_range_meters":8800,"station_id":"ce4bgvp2rcd13ifvqct0","pricing_plan_id":"cebpf4jnsgd1na2vs0mg"},{"bike_id":"e494a894-0c09-427a-9e9e-b13be9090f83","system_id":"levelo_inurba_marseille","lat":43.241605,"lon":5.397257,"is_reserved":false,"is_disabled":false,"rental_uris":{"android":"levelo://app?vid=e494a894-0c09-427a-9e9e-b13be9090f83","ios":"levelo://app?vid=e494a894-0c09-427a-9e9e-b13be9090f83"},"vehicle_type_id":"4","last_reported":1749629674,"current_range_meters":8800,"station_id":"ce4bhn12rcd13ifvqgpg","pricing_plan_id":"cebpf4jnsgd1na2vs0mg"},{"bike_id":"a6c234bc-1c9a-4063-8391-11105ec2562d","system_id":"levelo_inurba_marseille","lat":43.23151,"lon":5.43718,"is_reserved":false,"is_disabled":false,"rental_uris":{"android":"levelo://app?vid=a6c234bc-1c9a-4063-8391-11105ec2562d","ios":"levelo://app?vid=a6c234bc-1c9a-4063-8391-11105ec2562d"},"vehicle_type_id":"4","last_reported":1749629674,"current_range_meters":8800,"station_id":"ce4bhmp2rcd13ifvqgog","pricing_plan_id":"cebpf4jnsgd1na2vs0mg"},{"bike_id":"a679cb80-4242-4d18-a97e-ea4a60dc83be","system_id":"levelo_inurba_marseille","lat":43.32205,"lon":5.41304,"is_reserved":false,"is_disabled":false,"rental_uris":{"android":"levelo://app?vid=a679cb80-4242-4d18-a97e-ea4a60dc83be","ios":"levelo://app?vid=a679cb80-4242-4d18-a97e-ea4a60dc83be"},"vehicle_type_id":"4","last_reported":1749629674,"current_range_meters":8800,"station_id":"","pricing_plan_id":"cebpf4jnsgd1na2vs0mg"},{"bike_id":"2fb82a4e-0ee1-4839-87e1-0819fb18ed3d","system_id":"levelo_inurba_marseille","lat":43.27058,"lon":5.42272,"is_reserved":false,"is_disabled":true,"rental_uris":{"android":"levelo://app?vid=2fb82a4e-0ee1-4839-87e1-0819fb18ed3d","ios":"levelo://app?vid=2fb82a4e-0ee1-4839-87e1-0819fb18ed3d"},"vehicle_type_id":"4","last_reported":1749629674,"current_range_meters":8800,"station_id":"ce4bhk92rcd13ifvqgb0","pricing_plan_id":"cebpf4jnsgd1na2vs0mg"},{"bike_id":"a5eb40fa-0b26-4300-b0af-2f9a73432000","system_id":"levelo_inurba_marseille","lat":43.24072,"lon":5.37766,"is_reserved":false,"is_disabled":false,"rental_uris":{"android":"levelo://app?vid=a5eb40fa-0b26-4300-b0af-2f9a73432000","ios":"levelo://app?vid=a5eb40fa-0b26-4300-b0af-2f9a73432000"},"vehicle_type_id":"4","last_reported":1749629674,"current_range_meters":8800,"station_id":"ce4bhnp2rcd13ifvqgvg","pricing_plan_id":"cebpf4jnsgd1na2vs0mg"},{"bike_id":"5077581b-cebb-46fc-ba69-4fa8272d4810","system_id":"levelo_inurba_marseille","lat":43.21369,"lon":5.35528,"is_reserved":false,"is_disabled":false,"rental_uris":{"android":"levelo://app?vid=5077581b-cebb-46fc-ba69-4fa8272d4810","ios":"levelo://app?vid=5077581b-cebb-46fc-ba69-4fa8272d4810"},"vehicle_type_id":"4","last_reported":1749629674,"current_range_meters":9200,"station_id":"","pricing_plan_id":"cebpf4jnsgd1na2vs0mg"},{"bike_id":"27d87fb7-c7a2-4538-b9b1-2fe847780502","system_id":"levelo_inurba_marseille","lat":43.28409,"lon":5.37507,"is_reserved":false,"is_disabled":false,"rental_uris":{"android":"levelo://app?vid=27d87fb7-c7a2-4538-b9b1-2fe847780502","ios":"levelo://app?vid=27d87fb7-c7a2-4538-b9b1-2fe847780502"},"vehicle_type_id":"4","last_reported":1749629674,"current_range_meters":9200,"station_id":"ce4bh412rcd13ifvqds0","pricing_plan_id":"cebpf4jnsgd1na2vs0mg"},{"bike_id":"39f61f0b-f0e0-4477-bcde-80f5a4da8f09","system_id":"levelo_inurba_marseille","lat":43.32533,"lon":5.41436,"is_reserved":false,"is_disabled":false,"rental_uris":{"android":"levelo://app?vid=39f61f0b-f0e0-4477-bcde-80f5a4da8f09","ios":"levelo://app?vid=39f61f0b-f0e0-4477-bcde-80f5a4da8f09"},"vehicle_type_id":"4","last_reported":1749629674,"current_range_meters":9200,"station_id":"ce4bhq12rcd13ifvqhhg","pricing_plan_id":"cebpf4jnsgd1na2vs0mg"},{"bike_id":"8944419f-0705-4b5e-8f39-253a61baad6b","system_id":"levelo_inurba_marseille","lat":43.24071,"lon":5.37761,"is_reserved":false,"is_disabled":false,"rental_uris":{"android":"levelo://app?vid=8944419f-0705-4b5e-8f39-253a61baad6b","ios":"levelo://app?vid=8944419f-0705-4b5e-8f39-253a61baad6b"},"vehicle_type_id":"4","last_reported":1749629674,"current_range_meters":9200,"station_id":"ce4bhnp2rcd13ifvqgvg","pricing_plan_id":"cebpf4jnsgd1na2vs0mg"},{"bike_id":"d1c8437f-23aa-41cc-9e12-a9ae3796825e","system_id":"levelo_inurba_marseille","lat":43.30305,"lon":5.36895,"is_reserved":false,"is_disabled":false,"rental_uris":{"android":"levelo://app?vid=d1c8437f-23aa-41cc-9e12-a9ae3796825e","ios":"levelo://app?vid=d1c8437f-23aa-41cc-9e12-a9ae3796825e"},"vehicle_type_id":"4","last_reported":1749629674,"current_range_meters":9200,"station_id":"ce4bgqh2rcd13ifvqc5g","pricing_plan_id":"cebpf4jnsgd1na2vs0mg"},{"bike_id":"fb7a0414-68de-4bcf-a069-8b76b50de836","system_id":"levelo_inurba_marseille","lat":43.25858,"lon":5.41119,"is_reserved":false,"is_disabled":true,"rental_uris":{"android":"levelo://app?vid=fb7a0414-68de-4bcf-a069-8b76b50de836","ios":"levelo://app?vid=fb7a0414-68de-4bcf-a069-8b76b50de836"},"vehicle_type_id":"4","last_reported":1749629674,"current_range_meters":9200,"station_id":"ce4bhm92rcd13ifvqglg","pricing_plan_id":"cebpf4jnsgd1na2vs0mg"},{"bike_id":"1a7da86e-4239-4ca5-9888-f2523b01955a","system_id":"levelo_inurba_marseille","lat":43.29919,"lon":5.37482,"is_reserved":false,"is_disabled":false,"rental_uris":{"android":"levelo://app?vid=1a7da86e-4239-4ca5-9888-f2523b01955a","ios":"levelo://app?vid=1a7da86e-4239-4ca5-9888-f2523b01955a"},"vehicle_type_id":"4","last_reported":1749629674,"current_range_meters":9200,"station_id":"ce4bgjh2rcd13ifvqbg0","pricing_plan_id":"cebpf4jnsgd1na2vs0mg"},{"bike_id":"f0e93c69-2239-42d9-bc1a-3c4d59e8333f","system_id":"levelo_inurba_marseille","lat":43.2707,"lon":5.42278,"is_reserved":false,"is_disabled":false,"rental_uris":{"android":"levelo://app?vid=f0e93c69-2239-42d9-bc1a-3c4d59e8333f","ios":"levelo://app?vid=f0e93c69-2239-42d9-bc1a-3c4d59e8333f"},"vehicle_type_id":"4","last_reported":1749629674,"current_range_meters":9600,"station_id":"ce4bhk92rcd13ifvqgb0","pricing_plan_id":"cebpf4jnsgd1na2vs0mg"},{"bike_id":"60f440a3-f416-4034-8f3c-58318f9cd70c","system_id":"levelo_inurba_marseille","lat":43.32538,"lon":5.41444,"is_reserved":false,"is_disabled":false,"rental_uris":{"android":"levelo://app?vid=60f440a3-f416-4034-8f3c-58318f9cd70c","ios":"levelo://app?vid=60f440a3-f416-4034-8f3c-58318f9cd70c"},"vehicle_type_id":"4","last_reported":1749629674,"current_range_meters":9600,"station_id":"ce4bhq12rcd13ifvqhhg","pricing_plan_id":"cebpf4jnsgd1na2vs0mg"},{"bike_id":"2147f594-bb85-4ad5-89ae-b8f4945ddf9d","system_id":"levelo_inurba_marseille","lat":43.29034,"lon":5.37575,"is_reserved":false,"is_disabled":false,"rental_uris":{"android":"levelo://app?vid=2147f594-bb85-4ad5-89ae-b8f4945ddf9d","ios":"levelo://app?vid=2147f594-bb85-4ad5-89ae-b8f4945ddf9d"},"vehicle_type_id":"4","last_reported":1749629674,"current_range_meters":9600,"station_id":"ce4bh692rcd13ifvqe90","pricing_plan_id":"cebpf4jnsgd1na2vs0mg"},{"bike_id":"0aa374b6-329c-4796-a628-6b79a8cc6987","system_id":"levelo_inurba_marseille","lat":43.27319,"lon":5.39076,"is_reserved":false,"is_disabled":false,"rental_uris":{"android":"levelo://app?vid=0aa374b6-329c-4796-a628-6b79a8cc6987","ios":"levelo://app?vid=0aa374b6-329c-4796-a628-6b79a8cc6987"},"vehicle_type_id":"4","last_reported":1749629674,"current_range_meters":9600,"station_id":"ce4bhgp2rcd13ifvqfe0","pricing_plan_id":"cebpf4jnsgd1na2vs0mg"},{"bike_id":"ab5d796b-6f87-4b6e-a5bd-6ac051fcacd1","system_id":"levelo_inurba_marseille","lat":43.32481,"lon":5.36575,"is_reserved":false,"is_disabled":false,"rental_uris":{"android":"levelo://app?vid=ab5d796b-6f87-4b6e-a5bd-6ac051fcacd1","ios":"levelo://app?vid=ab5d796b-6f87-4b6e-a5bd-6ac051fcacd1"},"vehicle_type_id":"4","last_reported":1749629674,"current_range_meters":9600,"station_id":"ce4bhs12rcd13ifvqhvg","pricing_plan_id":"cebpf4jnsgd1na2vs0mg"},{"bike_id":"ca27e12a-1f2d-4cf2-be29-12a2b9ff1547","system_id":"levelo_inurba_marseille","lat":43.31717,"lon":5.42394,"is_reserved":false,"is_disabled":false,"rental_uris":{"android":"levelo://app?vid=ca27e12a-1f2d-4cf2-be29-12a2b9ff1547","ios":"levelo://app?vid=ca27e12a-1f2d-4cf2-be29-12a2b9ff1547"},"vehicle_type_id":"4","last_reported":1749629674,"current_range_meters":9600,"station_id":"ce4bhp92rcd13ifvqhbg","pricing_plan_id":"cebpf4jnsgd1na2vs0mg"},{"bike_id":"413191a8-b99c-4b21-ad14-c915925f20ff","system_id":"levelo_inurba_marseille","lat":43.280027,"lon":5.425,"is_reserved":false,"is_disabled":true,"rental_uris":{"android":"levelo://app?vid=413191a8-b99c-4b21-ad14-c915925f20ff","ios":"levelo://app?vid=413191a8-b99c-4b21-ad14-c915925f20ff"},"vehicle_type_id":"4","last_reported":1749629674,"current_range_meters":10000,"station_id":"","pricing_plan_id":"cebpf4jnsgd1na2vs0mg"},{"bike_id":"c30dbedc-c866-492b-a092-32c1ee0c1f22","system_id":"levelo_inurba_marseille","lat":43.29536,"lon":5.38545,"is_reserved":false,"is_disabled":true,"rental_uris":{"android":"levelo://app?vid=c30dbedc-c866-492b-a092-32c1ee0c1f22","ios":"levelo://app?vid=c30dbedc-c866-492b-a092-32c1ee0c1f22"},"vehicle_type_id":"4","last_reported":1749629674,"current_range_meters":10000,"station_id":"","pricing_plan_id":"cebpf4jnsgd1na2vs0mg"},{"bike_id":"55b7171e-3eba-4412-b568-99c2bd3afd38","system_id":"levelo_inurba_marseille","lat":43.31891,"lon":5.40752,"is_reserved":false,"is_disabled":true,"rental_uris":{"android":"levelo://app?vid=55b7171e-3eba-4412-b568-99c2bd3afd38","ios":"levelo://app?vid=55b7171e-3eba-4412-b568-99c2bd3afd38"},"vehicle_type_id":"4","last_reported":1749629674,"current_range_meters":10000,"station_id":"ce4bhq12rcd13ifvqhig","pricing_plan_id":"cebpf4jnsgd1na2vs0mg"},{"bike_id":"d262d809-7351-4435-8be9-9c5a8265a360","system_id":"levelo_inurba_marseille","lat":43.30469,"lon":5.37901,"is_reserved":false,"is_disabled":false,"rental_uris":{"android":"levelo://app?vid=d262d809-7351-4435-8be9-9c5a8265a360","ios":"levelo://app?vid=d262d809-7351-4435-8be9-9c5a8265a360"},"vehicle_type_id":"4","last_reported":1749629674,"current_range_meters":10000,"station_id":"ce4bgup2rcd13ifvqcn0","pricing_plan_id":"cebpf4jnsgd1na2vs0mg"},{"bike_id":"f125b270-e6e8-45c8-95c7-7124f302e594","system_id":"levelo_inurba_marseille","lat":43.29276,"lon":5.36065,"is_reserved":false,"is_disabled":false,"rental_uris":{"android":"levelo://app?vid=f125b270-e6e8-45c8-95c7-7124f302e594","ios":"levelo://app?vid=f125b270-e6e8-45c8-95c7-7124f302e594"},"vehicle_type_id":"4","last_reported":1749629674,"current_range_meters":10000,"station_id":"","pricing_plan_id":"cebpf4jnsgd1na2vs0mg"},{"bike_id":"3a45aaec-6795-4933-bb0c-b0ea10ad3721","system_id":"levelo_inurba_marseille","lat":43.29032,"lon":5.37566,"is_reserved":false,"is_disabled":false,"rental_uris":{"android":"levelo://app?vid=3a45aaec-6795-4933-bb0c-b0ea10ad3721","ios":"levelo://app?vid=3a45aaec-6795-4933-bb0c-b0ea10ad3721"},"vehicle_type_id":"4","last_reported":1749629674,"current_range_meters":10000,"station_id":"ce4bh692rcd13ifvqe90","pricing_plan_id":"cebpf4jnsgd1na2vs0mg"},{"bike_id":"7827f560-396e-4aa9-ab9a-a4e8cbce4e7d","system_id":"levelo_inurba_marseille","lat":43.308442,"lon":5.368068,"is_reserved":false,"is_disabled":false,"rental_uris":{"android":"levelo://app?vid=7827f560-396e-4aa9-ab9a-a4e8cbce4e7d","ios":"levelo://app?vid=7827f560-396e-4aa9-ab9a-a4e8cbce4e7d"},"vehicle_type_id":"4","last_reported":1749629674,"current_range_meters":10000,"station_id":"","pricing_plan_id":"cebpf4jnsgd1na2vs0mg"},{"bike_id":"4a69c6fe-7b60-4246-ad19-0ca232c439a9","system_id":"levelo_inurba_marseille","lat":43.29171,"lon":5.37167,"is_reserved":false,"is_disabled":false,"rental_uris":{"android":"levelo://app?vid=4a69c6fe-7b60-4246-ad19-0ca232c439a9","ios":"levelo://app?vid=4a69c6fe-7b60-4246-ad19-0ca232c439a9"},"vehicle_type_id":"4","last_reported":1749629674,"current_range_meters":10000,"station_id":"ce4bha92rcd13ifvqeh0","pricing_plan_id":"cebpf4jnsgd1na2vs0mg"},{"bike_id":"187b0a7b-e256-4c19-9794-bb250a6c5653","system_id":"levelo_inurba_marseille","lat":43.31857,"lon":5.37941,"is_reserved":false,"is_disabled":false,"rental_uris":{"android":"levelo://app?vid=187b0a7b-e256-4c19-9794-bb250a6c5653","ios":"levelo://app?vid=187b0a7b-e256-4c19-9794-bb250a6c5653"},"vehicle_type_id":"4","last_reported":1749629674,"current_range_meters":10000,"station_id":"","pricing_plan_id":"cebpf4jnsgd1na2vs0mg"},{"bike_id":"b525f7e8-dcf5-4545-8100-7bee569f289a","system_id":"levelo_inurba_marseille","lat":43.31076,"lon":5.38342,"is_reserved":false,"is_disabled":false,"rental_uris":{"android":"levelo://app?vid=b525f7e8-dcf5-4545-8100-7bee569f289a","ios":"levelo://app?vid=b525f7e8-dcf5-4545-8100-7bee569f289a"},"vehicle_type_id":"4","last_reported":1749629674,"current_range_meters":10000,"station_id":"ce4bgv92rcd13ifvqcr0","pricing_plan_id":"cebpf4jnsgd1na2vs0mg"},{"bike_id":"15138ce4-9850-4a09-9eb2-0da12393d0d8","system_id":"levelo_inurba_marseille","lat":43.31723,"lon":5.43696,"is_reserved":false,"is_disabled":false,"rental_uris":{"android":"levelo://app?vid=15138ce4-9850-4a09-9eb2-0da12393d0d8","ios":"levelo://app?vid=15138ce4-9850-4a09-9eb2-0da12393d0d8"},"vehicle_type_id":"4","last_reported":1749629674,"current_range_meters":10000,"station_id":"ce4bhp92rcd13ifvqhcg","pricing_plan_id":"cebpf4jnsgd1na2vs0mg"},{"bike_id":"6181a8f6-1227-49a1-9beb-bb1c37c1ae5c","system_id":"levelo_inurba_marseille","lat":43.28022,"lon":5.41661,"is_reserved":false,"is_disabled":true,"rental_uris":{"android":"levelo://app?vid=6181a8f6-1227-49a1-9beb-bb1c37c1ae5c","ios":"levelo://app?vid=6181a8f6-1227-49a1-9beb-bb1c37c1ae5c"},"vehicle_type_id":"4","last_reported":1749629674,"current_range_meters":10800,"station_id":"ce4bho12rcd13ifvqh1g","pricing_plan_id":"cebpf4jnsgd1na2vs0mg"},{"bike_id":"9f472034-dfc6-4813-a950-4aa1d61d7345","system_id":"levelo_inurba_marseille","lat":43.2315,"lon":5.43701,"is_reserved":false,"is_disabled":false,"rental_uris":{"android":"levelo://app?vid=9f472034-dfc6-4813-a950-4aa1d61d7345","ios":"levelo://app?vid=9f472034-dfc6-4813-a950-4aa1d61d7345"},"vehicle_type_id":"4","last_reported":1749629674,"current_range_meters":10800,"station_id":"ce4bhmp2rcd13ifvqgog","pricing_plan_id":"cebpf4jnsgd1na2vs0mg"},{"bike_id":"2909fdf1-5de0-4015-965c-4039eac7212a","system_id":"levelo_inurba_marseille","lat":43.31693,"lon":5.40459,"is_reserved":false,"is_disabled":false,"rental_uris":{"android":"levelo://app?vid=2909fdf1-5de0-4015-965c-4039eac7212a","ios":"levelo://app?vid=2909fdf1-5de0-4015-965c-4039eac7212a"},"vehicle_type_id":"4","last_reported":1749629674,"current_range_meters":10800,"station_id":"ce4bh012rcd13ifvqd00","pricing_plan_id":"cebpf4jnsgd1na2vs0mg"},{"bike_id":"236e422e-563d-45a9-89dd-b134d86f6f50","system_id":"levelo_inurba_marseille","lat":43.29239,"lon":5.39602,"is_reserved":false,"is_disabled":false,"rental_uris":{"android":"levelo://app?vid=236e422e-563d-45a9-89dd-b134d86f6f50","ios":"levelo://app?vid=236e422e-563d-45a9-89dd-b134d86f6f50"},"vehicle_type_id":"4","last_reported":1749629674,"current_range_meters":10800,"station_id":"","pricing_plan_id":"cebpf4jnsgd1na2vs0mg"},{"bike_id":"4fe28e52-1584-4175-a933-4b923c06007d","system_id":"levelo_inurba_marseille","lat":43.30891,"lon":5.37202,"is_reserved":false,"is_disabled":false,"rental_uris":{"android":"levelo://app?vid=4fe28e52-1584-4175-a933-4b923c06007d","ios":"levelo://app?vid=4fe28e52-1584-4175-a933-4b923c06007d"},"vehicle_type_id":"4","last_reported":1749629674,"current_range_meters":10800,"station_id":"ce4bguh2rcd13ifvqckg","pricing_plan_id":"cebpf4jnsgd1na2vs0mg"},{"bike_id":"1e20f032-0f6a-40b2-ad29-e4d2225496fa","system_id":"levelo_inurba_marseille","lat":43.30288,"lon":5.37059,"is_reserved":false,"is_disabled":false,"rental_uris":{"android":"levelo://app?vid=1e20f032-0f6a-40b2-ad29-e4d2225496fa","ios":"levelo://app?vid=1e20f032-0f6a-40b2-ad29-e4d2225496fa"},"vehicle_type_id":"4","last_reported":1749629674,"current_range_meters":10800,"station_id":"","pricing_plan_id":"cebpf4jnsgd1na2vs0mg"},{"bike_id":"0b193d91-1005-43f2-a074-0bd92319b273","system_id":"levelo_inurba_marseille","lat":43.26952,"lon":5.38638,"is_reserved":false,"is_disabled":false,"rental_uris":{"android":"levelo://app?vid=0b193d91-1005-43f2-a074-0bd92319b273","ios":"levelo://app?vid=0b193d91-1005-43f2-a074-0bd92319b273"},"vehicle_type_id":"4","last_reported":1749629674,"current_range_meters":10800,"station_id":"ce4bhh92rcd13ifvqfh0","pricing_plan_id":"cebpf4jnsgd1na2vs0mg"},{"bike_id":"24677b43-078a-4210-ad8c-935106b74628","system_id":"levelo_inurba_marseille","lat":43.30306,"lon":5.36897,"is_reserved":false,"is_disabled":false,"rental_uris":{"android":"levelo://app?vid=24677b43-078a-4210-ad8c-935106b74628","ios":"levelo://app?vid=24677b43-078a-4210-ad8c-935106b74628"},"vehicle_type_id":"4","last_reported":1749629674,"current_range_meters":10800,"station_id":"ce4bgqh2rcd13ifvqc5g","pricing_plan_id":"cebpf4jnsgd1na2vs0mg"},{"bike_id":"acecc9dd-9f66-4fc9-b678-7dfbfc49612a","system_id":"levelo_inurba_marseille","lat":43.30375,"lon":5.42469,"is_reserved":false,"is_disabled":false,"rental_uris":{"android":"levelo://app?vid=acecc9dd-9f66-4fc9-b678-7dfbfc49612a","ios":"levelo://app?vid=acecc9dd-9f66-4fc9-b678-7dfbfc49612a"},"vehicle_type_id":"4","last_reported":1749629674,"current_range_meters":11200,"station_id":"ce4bhoh2rcd13ifvqh6g","pricing_plan_id":"cebpf4jnsgd1na2vs0mg"},{"bike_id":"ca6c941c-6ce1-4b3e-9b41-572d4b5f84f4","system_id":"levelo_inurba_marseille","lat":43.295263,"lon":5.375113,"is_reserved":false,"is_disabled":false,"rental_uris":{"android":"levelo://app?vid=ca6c941c-6ce1-4b3e-9b41-572d4b5f84f4","ios":"levelo://app?vid=ca6c941c-6ce1-4b3e-9b41-572d4b5f84f4"},"vehicle_type_id":"4","last_reported":1749629674,"current_range_meters":11200,"station_id":"ce4bhb92rcd13ifvqen0","pricing_plan_id":"cebpf4jnsgd1na2vs0mg"},{"bike_id":"39214879-7c15-42db-8f84-dc4ad5c67311","system_id":"levelo_inurba_marseille","lat":43.30305,"lon":5.36887,"is_reserved":false,"is_disabled":false,"rental_uris":{"android":"levelo://app?vid=39214879-7c15-42db-8f84-dc4ad5c67311","ios":"levelo://app?vid=39214879-7c15-42db-8f84-dc4ad5c67311"},"vehicle_type_id":"4","last_reported":1749629674,"current_range_meters":11200,"station_id":"ce4bgqh2rcd13ifvqc5g","pricing_plan_id":"cebpf4jnsgd1na2vs0mg"},{"bike_id":"77f6f3b8-304d-45f4-909b-fe68944bc597","system_id":"levelo_inurba_marseille","lat":43.31734,"lon":5.40457,"is_reserved":false,"is_disabled":false,"rental_uris":{"android":"levelo://app?vid=77f6f3b8-304d-45f4-909b-fe68944bc597","ios":"levelo://app?vid=77f6f3b8-304d-45f4-909b-fe68944bc597"},"vehicle_type_id":"4","last_reported":1749629674,"current_range_meters":11600,"station_id":"","pricing_plan_id":"cebpf4jnsgd1na2vs0mg"},{"bike_id":"e6d67648-0d34-4392-8e2c-f83f208c9d05","system_id":"levelo_inurba_marseille","lat":43.31696,"lon":5.40463,"is_reserved":false,"is_disabled":false,"rental_uris":{"android":"levelo://app?vid=e6d67648-0d34-4392-8e2c-f83f208c9d05","ios":"levelo://app?vid=e6d67648-0d34-4392-8e2c-f83f208c9d05"},"vehicle_type_id":"4","last_reported":1749629674,"current_range_meters":11600,"station_id":"ce4bh012rcd13ifvqd00","pricing_plan_id":"cebpf4jnsgd1na2vs0mg"},{"bike_id":"87dab990-c858-491f-8e83-52b737cd904d","system_id":"levelo_inurba_marseille","lat":43.31688,"lon":5.40465,"is_reserved":false,"is_disabled":false,"rental_uris":{"android":"levelo://app?vid=87dab990-c858-491f-8e83-52b737cd904d","ios":"levelo://app?vid=87dab990-c858-491f-8e83-52b737cd904d"},"vehicle_type_id":"4","last_reported":1749629674,"current_range_meters":11600,"station_id":"ce4bh012rcd13ifvqd00","pricing_plan_id":"cebpf4jnsgd1na2vs0mg"},{"bike_id":"6cacf355-0615-4db5-8e8e-baf841909203","system_id":"levelo_inurba_marseille","lat":43.27618,"lon":5.36118,"is_reserved":false,"is_disabled":false,"rental_uris":{"android":"levelo://app?vid=6cacf355-0615-4db5-8e8e-baf841909203","ios":"levelo://app?vid=6cacf355-0615-4db5-8e8e-baf841909203"},"vehicle_type_id":"4","last_reported":1749629674,"current_range_meters":11600,"station_id":"ce4bgj92rcd13ifvqbe0","pricing_plan_id":"cebpf4jnsgd1na2vs0mg"},{"bike_id":"83c117a4-4454-49a9-9b2f-e548255e6ba9","system_id":"levelo_inurba_marseille","lat":43.25716,"lon":5.41106,"is_reserved":false,"is_disabled":false,"rental_uris":{"android":"levelo://app?vid=83c117a4-4454-49a9-9b2f-e548255e6ba9","ios":"levelo://app?vid=83c117a4-4454-49a9-9b2f-e548255e6ba9"},"vehicle_type_id":"4","last_reported":1749629674,"current_range_meters":11600,"station_id":"ce4bhkp2rcd13ifvqgd0","pricing_plan_id":"cebpf4jnsgd1na2vs0mg"},{"bike_id":"fd1d14a0-1a3e-4eb9-b19e-044738f5d1c3","system_id":"levelo_inurba_marseille","lat":43.28982,"lon":5.35654,"is_reserved":false,"is_disabled":true,"rental_uris":{"android":"levelo://app?vid=fd1d14a0-1a3e-4eb9-b19e-044738f5d1c3","ios":"levelo://app?vid=fd1d14a0-1a3e-4eb9-b19e-044738f5d1c3"},"vehicle_type_id":"4","last_reported":1749629674,"current_range_meters":11600,"station_id":"ce4bhb92rcd13ifvqen0","pricing_plan_id":"cebpf4jnsgd1na2vs0mg"},{"bike_id":"07ef5da2-09d5-494f-9011-3bb880f6be8b","system_id":"levelo_inurba_marseille","lat":43.259348,"lon":5.409072,"is_reserved":false,"is_disabled":false,"rental_uris":{"android":"levelo://app?vid=07ef5da2-09d5-494f-9011-3bb880f6be8b","ios":"levelo://app?vid=07ef5da2-09d5-494f-9011-3bb880f6be8b"},"vehicle_type_id":"4","last_reported":1749629674,"current_range_meters":11600,"station_id":"","pricing_plan_id":"cebpf4jnsgd1na2vs0mg"},{"bike_id":"e184978d-fa32-4ff0-a79f-0ffb4888b8cb","system_id":"levelo_inurba_marseille","lat":43.31765,"lon":5.39019,"is_reserved":false,"is_disabled":false,"rental_uris":{"android":"levelo://app?vid=e184978d-fa32-4ff0-a79f-0ffb4888b8cb","ios":"levelo://app?vid=e184978d-fa32-4ff0-a79f-0ffb4888b8cb"},"vehicle_type_id":"4","last_reported":1749629674,"current_range_meters":11600,"station_id":"ce4bhqp2rcd13ifvqhng","pricing_plan_id":"cebpf4jnsgd1na2vs0mg"},{"bike_id":"262903a9-22b9-4b2d-96c2-2e5dbd155090","system_id":"levelo_inurba_marseille","lat":43.32485,"lon":5.36573,"is_reserved":false,"is_disabled":false,"rental_uris":{"android":"levelo://app?vid=262903a9-22b9-4b2d-96c2-2e5dbd155090","ios":"levelo://app?vid=262903a9-22b9-4b2d-96c2-2e5dbd155090"},"vehicle_type_id":"4","last_reported":1749629674,"current_range_meters":12000,"station_id":"ce4bhs12rcd13ifvqhvg","pricing_plan_id":"cebpf4jnsgd1na2vs0mg"},{"bike_id":"a6a9aa78-7299-47ac-a784-76282a099506","system_id":"levelo_inurba_marseille","lat":43.30156,"lon":5.381113,"is_reserved":false,"is_disabled":true,"rental_uris":{"android":"levelo://app?vid=a6a9aa78-7299-47ac-a784-76282a099506","ios":"levelo://app?vid=a6a9aa78-7299-47ac-a784-76282a099506"},"vehicle_type_id":"4","last_reported":1749629674,"current_range_meters":12000,"station_id":"ce4bgjp2rcd13ifvqbh0","pricing_plan_id":"cebpf4jnsgd1na2vs0mg"},{"bike_id":"e857b26f-e98d-4e5b-a472-9489934cc3bc","system_id":"levelo_inurba_marseille","lat":43.30938,"lon":5.40137,"is_reserved":false,"is_disabled":true,"rental_uris":{"android":"levelo://app?vid=e857b26f-e98d-4e5b-a472-9489934cc3bc","ios":"levelo://app?vid=e857b26f-e98d-4e5b-a472-9489934cc3bc"},"vehicle_type_id":"4","last_reported":1749629674,"current_range_meters":12000,"station_id":"ce4bgvp2rcd13ifvqct0","pricing_plan_id":"cebpf4jnsgd1na2vs0mg"},{"bike_id":"84f5a926-1dd6-4535-b647-2764ce0ca103","system_id":"levelo_inurba_marseille","lat":43.3211,"lon":5.36773,"is_reserved":false,"is_disabled":false,"rental_uris":{"android":"levelo://app?vid=84f5a926-1dd6-4535-b647-2764ce0ca103","ios":"levelo://app?vid=84f5a926-1dd6-4535-b647-2764ce0ca103"},"vehicle_type_id":"4","last_reported":1749629674,"current_range_meters":12000,"station_id":"ce4bhrh2rcd13ifvqhug","pricing_plan_id":"cebpf4jnsgd1na2vs0mg"},{"bike_id":"7267b302-34e6-46fb-9a59-d9237a82b293","system_id":"levelo_inurba_marseille","lat":43.30556,"lon":5.36722,"is_reserved":false,"is_disabled":false,"rental_uris":{"android":"levelo://app?vid=7267b302-34e6-46fb-9a59-d9237a82b293","ios":"levelo://app?vid=7267b302-34e6-46fb-9a59-d9237a82b293"},"vehicle_type_id":"4","last_reported":1749629674,"current_range_meters":12000,"station_id":"ce4bgrp2rcd13ifvqc9g","pricing_plan_id":"cebpf4jnsgd1na2vs0mg"},{"bike_id":"32851809-7653-47f4-abe6-3b3cd9152d0e","system_id":"levelo_inurba_marseille","lat":43.29269,"lon":5.36844,"is_reserved":false,"is_disabled":false,"rental_uris":{"android":"levelo://app?vid=32851809-7653-47f4-abe6-3b3cd9152d0e","ios":"levelo://app?vid=32851809-7653-47f4-abe6-3b3cd9152d0e"},"vehicle_type_id":"4","last_reported":1749629674,"current_range_meters":12000,"station_id":"ce4bhbp2rcd13ifvqesg","pricing_plan_id":"cebpf4jnsgd1na2vs0mg"},{"bike_id":"c4ac7a5c-c960-4c83-b776-b8ff573e7853","system_id":"levelo_inurba_marseille","lat":43.30369,"lon":5.4253,"is_reserved":false,"is_disabled":false,"rental_uris":{"android":"levelo://app?vid=c4ac7a5c-c960-4c83-b776-b8ff573e7853","ios":"levelo://app?vid=c4ac7a5c-c960-4c83-b776-b8ff573e7853"},"vehicle_type_id":"4","last_reported":1749629674,"current_range_meters":12000,"station_id":"ce4bhoh2rcd13ifvqh6g","pricing_plan_id":"cebpf4jnsgd1na2vs0mg"},{"bike_id":"4c1d17d4-327b-412a-b5fe-13fda86712c4","system_id":"levelo_inurba_marseille","lat":43.27487,"lon":5.42451,"is_reserved":false,"is_disabled":false,"rental_uris":{"android":"levelo://app?vid=4c1d17d4-327b-412a-b5fe-13fda86712c4","ios":"levelo://app?vid=4c1d17d4-327b-412a-b5fe-13fda86712c4"},"vehicle_type_id":"4","last_reported":1749629674,"current_range_meters":12000,"station_id":"ce4bhn92rcd13ifvqgrg","pricing_plan_id":"cebpf4jnsgd1na2vs0mg"},{"bike_id":"72a94b25-2fe0-4919-8521-e8b66695aa46","system_id":"levelo_inurba_marseille","lat":43.286987,"lon":5.399945,"is_reserved":false,"is_disabled":false,"rental_uris":{"android":"levelo://app?vid=72a94b25-2fe0-4919-8521-e8b66695aa46","ios":"levelo://app?vid=72a94b25-2fe0-4919-8521-e8b66695aa46"},"vehicle_type_id":"4","last_reported":1749629674,"current_range_meters":12400,"station_id":"","pricing_plan_id":"cebpf4jnsgd1na2vs0mg"},{"bike_id":"fcdf7e93-82ce-4e82-8f9c-179999db764c","system_id":"levelo_inurba_marseille","lat":43.30885,"lon":5.37193,"is_reserved":false,"is_disabled":false,"rental_uris":{"android":"levelo://app?vid=fcdf7e93-82ce-4e82-8f9c-179999db764c","ios":"levelo://app?vid=fcdf7e93-82ce-4e82-8f9c-179999db764c"},"vehicle_type_id":"4","last_reported":1749629674,"current_range_meters":12400,"station_id":"ce4bguh2rcd13ifvqckg","pricing_plan_id":"cebpf4jnsgd1na2vs0mg"},{"bike_id":"eccf2316-38ae-4970-92ce-e1a0eef18f21","system_id":"levelo_inurba_marseille","lat":43.31295,"lon":5.3671,"is_reserved":false,"is_disabled":false,"rental_uris":{"android":"levelo://app?vid=eccf2316-38ae-4970-92ce-e1a0eef18f21","ios":"levelo://app?vid=eccf2316-38ae-4970-92ce-e1a0eef18f21"},"vehicle_type_id":"4","last_reported":1749629674,"current_range_meters":12400,"station_id":"ce4bgr92rcd13ifvqc6g","pricing_plan_id":"cebpf4jnsgd1na2vs0mg"},{"bike_id":"b2654a16-6e23-4d84-af98-579b5ba94984","system_id":"levelo_inurba_marseille","lat":43.29801,"lon":5.37131,"is_reserved":false,"is_disabled":false,"rental_uris":{"android":"levelo://app?vid=b2654a16-6e23-4d84-af98-579b5ba94984","ios":"levelo://app?vid=b2654a16-6e23-4d84-af98-579b5ba94984"},"vehicle_type_id":"4","last_reported":1749629674,"current_range_meters":12800,"station_id":"ce4bgop2rcd13ifvqc1g","pricing_plan_id":"cebpf4jnsgd1na2vs0mg"},{"bike_id":"afef7fca-ab8c-462d-a535-ad9eb1fde279","system_id":"levelo_inurba_marseille","lat":43.24183,"lon":5.39717,"is_reserved":false,"is_disabled":false,"rental_uris":{"android":"levelo://app?vid=afef7fca-ab8c-462d-a535-ad9eb1fde279","ios":"levelo://app?vid=afef7fca-ab8c-462d-a535-ad9eb1fde279"},"vehicle_type_id":"4","last_reported":1749629674,"current_range_meters":12800,"station_id":"ce4bhn12rcd13ifvqgpg","pricing_plan_id":"cebpf4jnsgd1na2vs0mg"},{"bike_id":"91252cb4-db98-4cff-ba49-0337a6eacf8f","system_id":"levelo_inurba_marseille","lat":43.319846,"lon":5.387779,"is_reserved":false,"is_disabled":false,"rental_uris":{"android":"levelo://app?vid=91252cb4-db98-4cff-ba49-0337a6eacf8f","ios":"levelo://app?vid=91252cb4-db98-4cff-ba49-0337a6eacf8f"},"vehicle_type_id":"4","last_reported":1749629674,"current_range_meters":12800,"station_id":"","pricing_plan_id":"cebpf4jnsgd1na2vs0mg"},{"bike_id":"88febd41-fb4a-4499-886e-f4719eb106f4","system_id":"levelo_inurba_marseille","lat":43.266803,"lon":5.382677,"is_reserved":false,"is_disabled":false,"rental_uris":{"android":"levelo://app?vid=88febd41-fb4a-4499-886e-f4719eb106f4","ios":"levelo://app?vid=88febd41-fb4a-4499-886e-f4719eb106f4"},"vehicle_type_id":"4","last_reported":1749629674,"current_range_meters":12800,"station_id":"ce4bhg92rcd13ifvqf90","pricing_plan_id":"cebpf4jnsgd1na2vs0mg"},{"bike_id":"f84da1a8-4a2f-448e-8806-43ca14a6d506","system_id":"levelo_inurba_marseille","lat":43.21189,"lon":5.35073,"is_reserved":false,"is_disabled":false,"rental_uris":{"android":"levelo://app?vid=f84da1a8-4a2f-448e-8806-43ca14a6d506","ios":"levelo://app?vid=f84da1a8-4a2f-448e-8806-43ca14a6d506"},"vehicle_type_id":"4","last_reported":1749629674,"current_range_meters":13600,"station_id":"st_cvj6sg6p6f1abm77japg","pricing_plan_id":"cebpf4jnsgd1na2vs0mg"},{"bike_id":"4727b314-3bd1-43f9-b43d-76c9166f290d","system_id":"levelo_inurba_marseille","lat":43.323313,"lon":5.406341,"is_reserved":false,"is_disabled":false,"rental_uris":{"android":"levelo://app?vid=4727b314-3bd1-43f9-b43d-76c9166f290d","ios":"levelo://app?vid=4727b314-3bd1-43f9-b43d-76c9166f290d"},"vehicle_type_id":"4","last_reported":1749629674,"current_range_meters":13600,"station_id":"ce4bhq92rcd13ifvqhjg","pricing_plan_id":"cebpf4jnsgd1na2vs0mg"},{"bike_id":"35a58592-292e-403f-937d-5c947c5a805c","system_id":"levelo_inurba_marseille","lat":43.24387,"lon":5.37062,"is_reserved":false,"is_disabled":false,"rental_uris":{"android":"levelo://app?vid=35a58592-292e-403f-937d-5c947c5a805c","ios":"levelo://app?vid=35a58592-292e-403f-937d-5c947c5a805c"},"vehicle_type_id":"4","last_reported":1749629674,"current_range_meters":13600,"station_id":"ce4bhhh2rcd13ifvqfk0","pricing_plan_id":"cebpf4jnsgd1na2vs0mg"},{"bike_id":"2cea2ce5-8a5c-494a-8112-7d3fbca3411b","system_id":"levelo_inurba_marseille","lat":43.304613,"lon":5.378983,"is_reserved":false,"is_disabled":false,"rental_uris":{"android":"levelo://app?vid=2cea2ce5-8a5c-494a-8112-7d3fbca3411b","ios":"levelo://app?vid=2cea2ce5-8a5c-494a-8112-7d3fbca3411b"},"vehicle_type_id":"4","last_reported":1749629674,"current_range_meters":13600,"station_id":"ce4bgup2rcd13ifvqcn0","pricing_plan_id":"cebpf4jnsgd1na2vs0mg"},{"bike_id":"398fc2d5-304a-4200-ba54-ed87b973990b","system_id":"levelo_inurba_marseille","lat":43.25931,"lon":5.40915,"is_reserved":false,"is_disabled":true,"rental_uris":{"android":"levelo://app?vid=398fc2d5-304a-4200-ba54-ed87b973990b","ios":"levelo://app?vid=398fc2d5-304a-4200-ba54-ed87b973990b"},"vehicle_type_id":"4","last_reported":1749629674,"current_range_meters":13600,"station_id":"ce4bhm92rcd13ifvqglg","pricing_plan_id":"cebpf4jnsgd1na2vs0mg"},{"bike_id":"89751972-2148-47e8-a9f5-6238a039cba7","system_id":"levelo_inurba_marseille","lat":43.305546,"lon":5.365236,"is_reserved":false,"is_disabled":false,"rental_uris":{"android":"levelo://app?vid=89751972-2148-47e8-a9f5-6238a039cba7","ios":"levelo://app?vid=89751972-2148-47e8-a9f5-6238a039cba7"},"vehicle_type_id":"4","last_reported":1749629674,"current_range_meters":13600,"station_id":"ce4bgs12rcd13ifvqcag","pricing_plan_id":"cebpf4jnsgd1na2vs0mg"},{"bike_id":"66fac9ba-4e53-469d-8c0e-b15cb784136c","system_id":"levelo_inurba_marseille","lat":43.29074,"lon":5.37213,"is_reserved":false,"is_disabled":false,"rental_uris":{"android":"levelo://app?vid=66fac9ba-4e53-469d-8c0e-b15cb784136c","ios":"levelo://app?vid=66fac9ba-4e53-469d-8c0e-b15cb784136c"},"vehicle_type_id":"4","last_reported":1749629674,"current_range_meters":14000,"station_id":"ce4bh5p2rcd13ifvqe4g","pricing_plan_id":"cebpf4jnsgd1na2vs0mg"},{"bike_id":"0f45a6fb-0b88-407e-9402-d538b27c345e","system_id":"levelo_inurba_marseille","lat":43.30154,"lon":5.37428,"is_reserved":false,"is_disabled":false,"rental_uris":{"android":"levelo://app?vid=0f45a6fb-0b88-407e-9402-d538b27c345e","ios":"levelo://app?vid=0f45a6fb-0b88-407e-9402-d538b27c345e"},"vehicle_type_id":"4","last_reported":1749629674,"current_range_meters":14000,"station_id":"ce4bgs92rcd13ifvqcc0","pricing_plan_id":"cebpf4jnsgd1na2vs0mg"},{"bike_id":"348e51ac-c165-4532-b7ef-cd9c150faaf0","system_id":"levelo_inurba_marseille","lat":43.30919,"lon":5.36855,"is_reserved":false,"is_disabled":false,"rental_uris":{"android":"levelo://app?vid=348e51ac-c165-4532-b7ef-cd9c150faaf0","ios":"levelo://app?vid=348e51ac-c165-4532-b7ef-cd9c150faaf0"},"vehicle_type_id":"4","last_reported":1749629674,"current_range_meters":14000,"station_id":"ce4bgn92rcd13ifvqbvg","pricing_plan_id":"cebpf4jnsgd1na2vs0mg"},{"bike_id":"1acfb620-cad7-48c0-8901-d7a5b74a5b65","system_id":"levelo_inurba_marseille","lat":43.33751,"lon":5.37456,"is_reserved":false,"is_disabled":false,"rental_uris":{"android":"levelo://app?vid=1acfb620-cad7-48c0-8901-d7a5b74a5b65","ios":"levelo://app?vid=1acfb620-cad7-48c0-8901-d7a5b74a5b65"},"vehicle_type_id":"4","last_reported":1749629674,"current_range_meters":14000,"station_id":"","pricing_plan_id":"cebpf4jnsgd1na2vs0mg"},{"bike_id":"afc3f452-2203-47db-8463-9a20feb6f036","system_id":"levelo_inurba_marseille","lat":43.29066,"lon":5.37163,"is_reserved":false,"is_disabled":false,"rental_uris":{"android":"levelo://app?vid=afc3f452-2203-47db-8463-9a20feb6f036","ios":"levelo://app?vid=afc3f452-2203-47db-8463-9a20feb6f036"},"vehicle_type_id":"4","last_reported":1749629674,"current_range_meters":14800,"station_id":"ce4bh5p2rcd13ifvqe4g","pricing_plan_id":"cebpf4jnsgd1na2vs0mg"},{"bike_id":"9231f021-d06e-4dc9-b555-e59bf1d45ecd","system_id":"levelo_inurba_marseille","lat":43.321,"lon":5.36784,"is_reserved":false,"is_disabled":false,"rental_uris":{"android":"levelo://app?vid=9231f021-d06e-4dc9-b555-e59bf1d45ecd","ios":"levelo://app?vid=9231f021-d06e-4dc9-b555-e59bf1d45ecd"},"vehicle_type_id":"4","last_reported":1749629674,"current_range_meters":14800,"station_id":"ce4bhrh2rcd13ifvqhug","pricing_plan_id":"cebpf4jnsgd1na2vs0mg"},{"bike_id":"4dbd4f9c-18b0-4952-a105-699afd380412","system_id":"levelo_inurba_marseille","lat":43.26684,"lon":5.38274,"is_reserved":false,"is_disabled":false,"rental_uris":{"android":"levelo://app?vid=4dbd4f9c-18b0-4952-a105-699afd380412","ios":"levelo://app?vid=4dbd4f9c-18b0-4952-a105-699afd380412"},"vehicle_type_id":"4","last_reported":1749629674,"current_range_meters":14800,"station_id":"ce4bhg92rcd13ifvqf90","pricing_plan_id":"cebpf4jnsgd1na2vs0mg"},{"bike_id":"1f42e774-0b65-4738-b3e3-0aae7ec0e65c","system_id":"levelo_inurba_marseille","lat":43.29586,"lon":5.37504,"is_reserved":false,"is_disabled":true,"rental_uris":{"android":"levelo://app?vid=1f42e774-0b65-4738-b3e3-0aae7ec0e65c","ios":"levelo://app?vid=1f42e774-0b65-4738-b3e3-0aae7ec0e65c"},"vehicle_type_id":"4","last_reported":1749629674,"current_range_meters":14800,"station_id":"ce4bgh92rcd13ifvqb50","pricing_plan_id":"cebpf4jnsgd1na2vs0mg"},{"bike_id":"fcf12bf5-15d6-40ae-bb04-4dddeb26c28a","system_id":"levelo_inurba_marseille","lat":43.31332,"lon":5.36761,"is_reserved":false,"is_disabled":false,"rental_uris":{"android":"levelo://app?vid=fcf12bf5-15d6-40ae-bb04-4dddeb26c28a","ios":"levelo://app?vid=fcf12bf5-15d6-40ae-bb04-4dddeb26c28a"},"vehicle_type_id":"4","last_reported":1749629674,"current_range_meters":14800,"station_id":"ce4bgr92rcd13ifvqc6g","pricing_plan_id":"cebpf4jnsgd1na2vs0mg"},{"bike_id":"8f007e10-4732-4d06-80bc-94e33b5da4e7","system_id":"levelo_inurba_marseille","lat":43.30913,"lon":5.36852,"is_reserved":false,"is_disabled":false,"rental_uris":{"android":"levelo://app?vid=8f007e10-4732-4d06-80bc-94e33b5da4e7","ios":"levelo://app?vid=8f007e10-4732-4d06-80bc-94e33b5da4e7"},"vehicle_type_id":"4","last_reported":1749629674,"current_range_meters":15200,"station_id":"ce4bgn92rcd13ifvqbvg","pricing_plan_id":"cebpf4jnsgd1na2vs0mg"},{"bike_id":"6c8fec0c-f1e1-4e20-8a68-5aaeaba74d98","system_id":"levelo_inurba_marseille","lat":43.33716,"lon":5.39181,"is_reserved":false,"is_disabled":false,"rental_uris":{"android":"levelo://app?vid=6c8fec0c-f1e1-4e20-8a68-5aaeaba74d98","ios":"levelo://app?vid=6c8fec0c-f1e1-4e20-8a68-5aaeaba74d98"},"vehicle_type_id":"4","last_reported":1749629674,"current_range_meters":15200,"station_id":"ce4bhr92rcd13ifvqhsg","pricing_plan_id":"cebpf4jnsgd1na2vs0mg"},{"bike_id":"d6515318-ac2c-47f0-b0e4-ac5ab2c5d151","system_id":"levelo_inurba_marseille","lat":43.2418,"lon":5.36381,"is_reserved":false,"is_disabled":false,"rental_uris":{"android":"levelo://app?vid=d6515318-ac2c-47f0-b0e4-ac5ab2c5d151","ios":"levelo://app?vid=d6515318-ac2c-47f0-b0e4-ac5ab2c5d151"},"vehicle_type_id":"4","last_reported":1749629674,"current_range_meters":15200,"station_id":"cpo36qri1sfpv3e86is0","pricing_plan_id":"cebpf4jnsgd1na2vs0mg"},{"bike_id":"dc6fca2e-5f1c-4ae8-aefe-7f65f0547e41","system_id":"levelo_inurba_marseille","lat":43.3376,"lon":5.3743,"is_reserved":false,"is_disabled":false,"rental_uris":{"android":"levelo://app?vid=dc6fca2e-5f1c-4ae8-aefe-7f65f0547e41","ios":"levelo://app?vid=dc6fca2e-5f1c-4ae8-aefe-7f65f0547e41"},"vehicle_type_id":"4","last_reported":1749629674,"current_range_meters":16000,"station_id":"","pricing_plan_id":"cebpf4jnsgd1na2vs0mg"},{"bike_id":"b746c2ea-582d-453e-b55d-7f4c2db34f3d","system_id":"levelo_inurba_marseille","lat":43.27318,"lon":5.39089,"is_reserved":false,"is_disabled":false,"rental_uris":{"android":"levelo://app?vid=b746c2ea-582d-453e-b55d-7f4c2db34f3d","ios":"levelo://app?vid=b746c2ea-582d-453e-b55d-7f4c2db34f3d"},"vehicle_type_id":"4","last_reported":1749629674,"current_range_meters":16000,"station_id":"ce4bhgp2rcd13ifvqfe0","pricing_plan_id":"cebpf4jnsgd1na2vs0mg"},{"bike_id":"1bdf09ca-9bb5-43bd-8fac-6529129514d7","system_id":"levelo_inurba_marseille","lat":43.28934,"lon":5.36639,"is_reserved":false,"is_disabled":false,"rental_uris":{"android":"levelo://app?vid=1bdf09ca-9bb5-43bd-8fac-6529129514d7","ios":"levelo://app?vid=1bdf09ca-9bb5-43bd-8fac-6529129514d7"},"vehicle_type_id":"4","last_reported":1749629674,"current_range_meters":16000,"station_id":"ce4bhap2rcd13ifvqek0","pricing_plan_id":"cebpf4jnsgd1na2vs0mg"},{"bike_id":"03ff7327-9d80-465b-bc3e-d109526df4c5","system_id":"levelo_inurba_marseille","lat":43.26224,"lon":5.40444,"is_reserved":false,"is_disabled":false,"rental_uris":{"android":"levelo://app?vid=03ff7327-9d80-465b-bc3e-d109526df4c5","ios":"levelo://app?vid=03ff7327-9d80-465b-bc3e-d109526df4c5"},"vehicle_type_id":"4","last_reported":1749629674,"current_range_meters":16000,"station_id":"ce4bhmh2rcd13ifvqgmg","pricing_plan_id":"cebpf4jnsgd1na2vs0mg"},{"bike_id":"b5f07396-9dc2-4a2d-94da-9ae6c6971084","system_id":"levelo_inurba_marseille","lat":43.309127,"lon":5.368491,"is_reserved":false,"is_disabled":false,"rental_uris":{"android":"levelo://app?vid=b5f07396-9dc2-4a2d-94da-9ae6c6971084","ios":"levelo://app?vid=b5f07396-9dc2-4a2d-94da-9ae6c6971084"},"vehicle_type_id":"4","last_reported":1749629674,"current_range_meters":16000,"station_id":"ce4bgn92rcd13ifvqbvg","pricing_plan_id":"cebpf4jnsgd1na2vs0mg"},{"bike_id":"b918f339-a33d-489c-826a-8fffafca2d2e","system_id":"levelo_inurba_marseille","lat":43.32381,"lon":5.38896,"is_reserved":false,"is_disabled":false,"rental_uris":{"android":"levelo://app?vid=b918f339-a33d-489c-826a-8fffafca2d2e","ios":"levelo://app?vid=b918f339-a33d-489c-826a-8fffafca2d2e"},"vehicle_type_id":"4","last_reported":1749629674,"current_range_meters":16000,"station_id":"ce4bhqp2rcd13ifvqhog","pricing_plan_id":"cebpf4jnsgd1na2vs0mg"},{"bike_id":"314bac2c-e47f-46cd-afcd-53cd84a7d142","system_id":"levelo_inurba_marseille","lat":43.27618,"lon":5.36109,"is_reserved":false,"is_disabled":true,"rental_uris":{"android":"levelo://app?vid=314bac2c-e47f-46cd-afcd-53cd84a7d142","ios":"levelo://app?vid=314bac2c-e47f-46cd-afcd-53cd84a7d142"},"vehicle_type_id":"4","last_reported":1749629674,"current_range_meters":16000,"station_id":"ce4bgj92rcd13ifvqbe0","pricing_plan_id":"cebpf4jnsgd1na2vs0mg"},{"bike_id":"a2421370-e442-436f-a98a-844d44299694","system_id":"levelo_inurba_marseille","lat":43.32426,"lon":5.36791,"is_reserved":false,"is_disabled":false,"rental_uris":{"android":"levelo://app?vid=a2421370-e442-436f-a98a-844d44299694","ios":"levelo://app?vid=a2421370-e442-436f-a98a-844d44299694"},"vehicle_type_id":"4","last_reported":1749629674,"current_range_meters":16400,"station_id":"","pricing_plan_id":"cebpf4jnsgd1na2vs0mg"},{"bike_id":"336846bd-2508-4735-9155-4b74f3200650","system_id":"levelo_inurba_marseille","lat":43.29723,"lon":5.37694,"is_reserved":false,"is_disabled":true,"rental_uris":{"android":"levelo://app?vid=336846bd-2508-4735-9155-4b74f3200650","ios":"levelo://app?vid=336846bd-2508-4735-9155-4b74f3200650"},"vehicle_type_id":"4","last_reported":1749629674,"current_range_meters":16400,"station_id":"ce4bgkh2rcd13ifvqbl0","pricing_plan_id":"cebpf4jnsgd1na2vs0mg"},{"bike_id":"b1e2c716-9c5d-497d-aff1-1d0015c40748","system_id":"levelo_inurba_marseille","lat":43.30537,"lon":5.36543,"is_reserved":false,"is_disabled":false,"rental_uris":{"android":"levelo://app?vid=b1e2c716-9c5d-497d-aff1-1d0015c40748","ios":"levelo://app?vid=b1e2c716-9c5d-497d-aff1-1d0015c40748"},"vehicle_type_id":"4","last_reported":1749629674,"current_range_meters":16400,"station_id":"ce4bgs12rcd13ifvqcag","pricing_plan_id":"cebpf4jnsgd1na2vs0mg"},{"bike_id":"f10adc7e-6a3a-4a5d-9515-dc52fefe2058","system_id":"levelo_inurba_marseille","lat":43.32355,"lon":5.36727,"is_reserved":false,"is_disabled":false,"rental_uris":{"android":"levelo://app?vid=f10adc7e-6a3a-4a5d-9515-dc52fefe2058","ios":"levelo://app?vid=f10adc7e-6a3a-4a5d-9515-dc52fefe2058"},"vehicle_type_id":"4","last_reported":1749629674,"current_range_meters":16400,"station_id":"ce4bhsh2rcd13ifvqi2g","pricing_plan_id":"cebpf4jnsgd1na2vs0mg"},{"bike_id":"a172b0cf-62c4-4c52-a818-ce564350df02","system_id":"levelo_inurba_marseille","lat":43.211973,"lon":5.350704,"is_reserved":false,"is_disabled":false,"rental_uris":{"android":"levelo://app?vid=a172b0cf-62c4-4c52-a818-ce564350df02","ios":"levelo://app?vid=a172b0cf-62c4-4c52-a818-ce564350df02"},"vehicle_type_id":"4","last_reported":1749629674,"current_range_meters":16400,"station_id":"st_cvj6sg6p6f1abm77japg","pricing_plan_id":"cebpf4jnsgd1na2vs0mg"},{"bike_id":"65066ef9-1c39-47d6-b104-be1d784d3bad","system_id":"levelo_inurba_marseille","lat":43.262226,"lon":5.404601,"is_reserved":false,"is_disabled":false,"rental_uris":{"android":"levelo://app?vid=65066ef9-1c39-47d6-b104-be1d784d3bad","ios":"levelo://app?vid=65066ef9-1c39-47d6-b104-be1d784d3bad"},"vehicle_type_id":"4","last_reported":1749629674,"current_range_meters":16800,"station_id":"ce4bhmh2rcd13ifvqgmg","pricing_plan_id":"cebpf4jnsgd1na2vs0mg"},{"bike_id":"54b94e4a-bfff-456d-aed4-17d3431b896c","system_id":"levelo_inurba_marseille","lat":43.26643,"lon":5.39483,"is_reserved":false,"is_disabled":false,"rental_uris":{"android":"levelo://app?vid=54b94e4a-bfff-456d-aed4-17d3431b896c","ios":"levelo://app?vid=54b94e4a-bfff-456d-aed4-17d3431b896c"},"vehicle_type_id":"4","last_reported":1749629674,"current_range_meters":16800,"station_id":"ce4bh0p2rcd13ifvqd70","pricing_plan_id":"cebpf4jnsgd1na2vs0mg"},{"bike_id":"b663e164-d4db-4652-ba63-0551c538ab6b","system_id":"levelo_inurba_marseille","lat":43.27176,"lon":5.40992,"is_reserved":false,"is_disabled":false,"rental_uris":{"android":"levelo://app?vid=b663e164-d4db-4652-ba63-0551c538ab6b","ios":"levelo://app?vid=b663e164-d4db-4652-ba63-0551c538ab6b"},"vehicle_type_id":"4","last_reported":1749629674,"current_range_meters":16800,"station_id":"ce4bhl12rcd13ifvqgf0","pricing_plan_id":"cebpf4jnsgd1na2vs0mg"},{"bike_id":"e636ab65-bc01-4586-a61f-ca9c388a9557","system_id":"levelo_inurba_marseille","lat":43.25945,"lon":5.40856,"is_reserved":false,"is_disabled":false,"rental_uris":{"android":"levelo://app?vid=e636ab65-bc01-4586-a61f-ca9c388a9557","ios":"levelo://app?vid=e636ab65-bc01-4586-a61f-ca9c388a9557"},"vehicle_type_id":"4","last_reported":1749629674,"current_range_meters":16800,"station_id":"ce4bhm92rcd13ifvqglg","pricing_plan_id":"cebpf4jnsgd1na2vs0mg"},{"bike_id":"02065d53-280e-439d-a9fe-301c29a56225","system_id":"levelo_inurba_marseille","lat":43.25583,"lon":5.38227,"is_reserved":false,"is_disabled":false,"rental_uris":{"android":"levelo://app?vid=02065d53-280e-439d-a9fe-301c29a56225","ios":"levelo://app?vid=02065d53-280e-439d-a9fe-301c29a56225"},"vehicle_type_id":"4","last_reported":1749629674,"current_range_meters":16800,"station_id":"ce4bhih2rcd13ifvqfs0","pricing_plan_id":"cebpf4jnsgd1na2vs0mg"},{"bike_id":"812e4842-d011-45eb-9f3e-65d6a7b1e1f0","system_id":"levelo_inurba_marseille","lat":43.309255,"lon":5.401221,"is_reserved":false,"is_disabled":false,"rental_uris":{"android":"levelo://app?vid=812e4842-d011-45eb-9f3e-65d6a7b1e1f0","ios":"levelo://app?vid=812e4842-d011-45eb-9f3e-65d6a7b1e1f0"},"vehicle_type_id":"4","last_reported":1749629674,"current_range_meters":16800,"station_id":"ce4bgvp2rcd13ifvqct0","pricing_plan_id":"cebpf4jnsgd1na2vs0mg"},{"bike_id":"fb015d2f-3d03-49e3-9273-2f5273d7a9bc","system_id":"levelo_inurba_marseille","lat":43.29783,"lon":5.38076,"is_reserved":false,"is_disabled":false,"rental_uris":{"android":"levelo://app?vid=fb015d2f-3d03-49e3-9273-2f5273d7a9bc","ios":"levelo://app?vid=fb015d2f-3d03-49e3-9273-2f5273d7a9bc"},"vehicle_type_id":"4","last_reported":1749629674,"current_range_meters":16800,"station_id":"ce4bgip2rcd13ifvqbb0","pricing_plan_id":"cebpf4jnsgd1na2vs0mg"},{"bike_id":"b1a9a8a4-dbb9-4db2-9f04-3c1f79933aad","system_id":"levelo_inurba_marseille","lat":43.23152,"lon":5.43721,"is_reserved":false,"is_disabled":false,"rental_uris":{"android":"levelo://app?vid=b1a9a8a4-dbb9-4db2-9f04-3c1f79933aad","ios":"levelo://app?vid=b1a9a8a4-dbb9-4db2-9f04-3c1f79933aad"},"vehicle_type_id":"4","last_reported":1749629674,"current_range_meters":16800,"station_id":"ce4bhmp2rcd13ifvqgog","pricing_plan_id":"cebpf4jnsgd1na2vs0mg"},{"bike_id":"ba74330e-e7e1-47b7-aac8-f61ede63b89c","system_id":"levelo_inurba_marseille","lat":43.28147,"lon":5.42631,"is_reserved":false,"is_disabled":false,"rental_uris":{"android":"levelo://app?vid=ba74330e-e7e1-47b7-aac8-f61ede63b89c","ios":"levelo://app?vid=ba74330e-e7e1-47b7-aac8-f61ede63b89c"},"vehicle_type_id":"4","last_reported":1749629674,"current_range_meters":16800,"station_id":"ce4bhnh2rcd13ifvqgug","pricing_plan_id":"cebpf4jnsgd1na2vs0mg"},{"bike_id":"ff6779a1-4f4c-471b-ab85-6c361d5c8c03","system_id":"levelo_inurba_marseille","lat":43.31351,"lon":5.36714,"is_reserved":false,"is_disabled":false,"rental_uris":{"android":"levelo://app?vid=ff6779a1-4f4c-471b-ab85-6c361d5c8c03","ios":"levelo://app?vid=ff6779a1-4f4c-471b-ab85-6c361d5c8c03"},"vehicle_type_id":"4","last_reported":1749629674,"current_range_meters":16800,"station_id":"ce4bgr92rcd13ifvqc6g","pricing_plan_id":"cebpf4jnsgd1na2vs0mg"},{"bike_id":"2a471939-28b8-4680-9f3a-e29f61a44ac8","system_id":"levelo_inurba_marseille","lat":43.29831,"lon":5.3625,"is_reserved":false,"is_disabled":false,"rental_uris":{"android":"levelo://app?vid=2a471939-28b8-4680-9f3a-e29f61a44ac8","ios":"levelo://app?vid=2a471939-28b8-4680-9f3a-e29f61a44ac8"},"vehicle_type_id":"4","last_reported":1749629674,"current_range_meters":17200,"station_id":"","pricing_plan_id":"cebpf4jnsgd1na2vs0mg"},{"bike_id":"37c67d31-c083-404f-9d61-e96b5338364e","system_id":"levelo_inurba_marseille","lat":43.28398,"lon":5.37525,"is_reserved":false,"is_disabled":false,"rental_uris":{"android":"levelo://app?vid=37c67d31-c083-404f-9d61-e96b5338364e","ios":"levelo://app?vid=37c67d31-c083-404f-9d61-e96b5338364e"},"vehicle_type_id":"4","last_reported":1749629674,"current_range_meters":17200,"station_id":"ce4bh412rcd13ifvqds0","pricing_plan_id":"cebpf4jnsgd1na2vs0mg"},{"bike_id":"4e859ef6-1974-4ba2-8634-ff4e177b6f28","system_id":"levelo_inurba_marseille","lat":43.27493,"lon":5.42454,"is_reserved":false,"is_disabled":false,"rental_uris":{"android":"levelo://app?vid=4e859ef6-1974-4ba2-8634-ff4e177b6f28","ios":"levelo://app?vid=4e859ef6-1974-4ba2-8634-ff4e177b6f28"},"vehicle_type_id":"4","last_reported":1749629674,"current_range_meters":17200,"station_id":"ce4bhn92rcd13ifvqgrg","pricing_plan_id":"cebpf4jnsgd1na2vs0mg"},{"bike_id":"3ae9240c-47c6-47d7-ac15-288432b863e1","system_id":"levelo_inurba_marseille","lat":43.31346,"lon":5.36716,"is_reserved":false,"is_disabled":false,"rental_uris":{"android":"levelo://app?vid=3ae9240c-47c6-47d7-ac15-288432b863e1","ios":"levelo://app?vid=3ae9240c-47c6-47d7-ac15-288432b863e1"},"vehicle_type_id":"4","last_reported":1749629674,"current_range_meters":17200,"station_id":"ce4bgr92rcd13ifvqc6g","pricing_plan_id":"cebpf4jnsgd1na2vs0mg"},{"bike_id":"65880ff7-9fec-461a-98d9-7db7755b1afe","system_id":"levelo_inurba_marseille","lat":43.27619,"lon":5.36112,"is_reserved":false,"is_disabled":false,"rental_uris":{"android":"levelo://app?vid=65880ff7-9fec-461a-98d9-7db7755b1afe","ios":"levelo://app?vid=65880ff7-9fec-461a-98d9-7db7755b1afe"},"vehicle_type_id":"4","last_reported":1749629674,"current_range_meters":16800,"station_id":"ce4bgj92rcd13ifvqbe0","pricing_plan_id":"cebpf4jnsgd1na2vs0mg"},{"bike_id":"d91f6a9c-b365-4bb3-ae1d-8221ca286875","system_id":"levelo_inurba_marseille","lat":43.275,"lon":5.42433,"is_reserved":false,"is_disabled":false,"rental_uris":{"android":"levelo://app?vid=d91f6a9c-b365-4bb3-ae1d-8221ca286875","ios":"levelo://app?vid=d91f6a9c-b365-4bb3-ae1d-8221ca286875"},"vehicle_type_id":"4","last_reported":1749629674,"current_range_meters":17600,"station_id":"ce4bhn92rcd13ifvqgrg","pricing_plan_id":"cebpf4jnsgd1na2vs0mg"},{"bike_id":"71d23069-4b53-4c59-89de-c54de3aeb2cf","system_id":"levelo_inurba_marseille","lat":43.24577,"lon":5.41614,"is_reserved":false,"is_disabled":false,"rental_uris":{"android":"levelo://app?vid=71d23069-4b53-4c59-89de-c54de3aeb2cf","ios":"levelo://app?vid=71d23069-4b53-4c59-89de-c54de3aeb2cf"},"vehicle_type_id":"4","last_reported":1749629674,"current_range_meters":17600,"station_id":"","pricing_plan_id":"cebpf4jnsgd1na2vs0mg"},{"bike_id":"355cf286-0b63-4ba5-8fd3-08f2449a771d","system_id":"levelo_inurba_marseille","lat":43.27466,"lon":5.42512,"is_reserved":false,"is_disabled":false,"rental_uris":{"android":"levelo://app?vid=355cf286-0b63-4ba5-8fd3-08f2449a771d","ios":"levelo://app?vid=355cf286-0b63-4ba5-8fd3-08f2449a771d"},"vehicle_type_id":"4","last_reported":1749629674,"current_range_meters":17600,"station_id":"","pricing_plan_id":"cebpf4jnsgd1na2vs0mg"},{"bike_id":"04f107b7-020e-49a3-8513-6c594c244cad","system_id":"levelo_inurba_marseille","lat":43.31379,"lon":5.38486,"is_reserved":false,"is_disabled":false,"rental_uris":{"android":"levelo://app?vid=04f107b7-020e-49a3-8513-6c594c244cad","ios":"levelo://app?vid=04f107b7-020e-49a3-8513-6c594c244cad"},"vehicle_type_id":"4","last_reported":1749629674,"current_range_meters":17600,"station_id":"ce4bgt92rcd13ifvqcf0","pricing_plan_id":"cebpf4jnsgd1na2vs0mg"},{"bike_id":"26188140-1807-466a-b47c-9cde473e1f96","system_id":"levelo_inurba_marseille","lat":43.29978,"lon":5.3716,"is_reserved":false,"is_disabled":false,"rental_uris":{"android":"levelo://app?vid=26188140-1807-466a-b47c-9cde473e1f96","ios":"levelo://app?vid=26188140-1807-466a-b47c-9cde473e1f96"},"vehicle_type_id":"4","last_reported":1749629674,"current_range_meters":17600,"station_id":"ce4bgr92rcd13ifvqc7g","pricing_plan_id":"cebpf4jnsgd1na2vs0mg"},{"bike_id":"9b27829e-5332-4f5a-9e45-aad00442a969","system_id":"levelo_inurba_marseille","lat":43.27925,"lon":5.38286,"is_reserved":false,"is_disabled":false,"rental_uris":{"android":"levelo://app?vid=9b27829e-5332-4f5a-9e45-aad00442a969","ios":"levelo://app?vid=9b27829e-5332-4f5a-9e45-aad00442a969"},"vehicle_type_id":"4","last_reported":1749629674,"current_range_meters":17600,"station_id":"","pricing_plan_id":"cebpf4jnsgd1na2vs0mg"},{"bike_id":"168a9beb-a192-4f39-a18b-5db502f16302","system_id":"levelo_inurba_marseille","lat":43.269533,"lon":5.386257,"is_reserved":false,"is_disabled":false,"rental_uris":{"android":"levelo://app?vid=168a9beb-a192-4f39-a18b-5db502f16302","ios":"levelo://app?vid=168a9beb-a192-4f39-a18b-5db502f16302"},"vehicle_type_id":"4","last_reported":1749629674,"current_range_meters":17600,"station_id":"ce4bhh92rcd13ifvqfh0","pricing_plan_id":"cebpf4jnsgd1na2vs0mg"},{"bike_id":"a683f6ea-bac0-42fa-8d25-eef825fd8fd1","system_id":"levelo_inurba_marseille","lat":43.2907,"lon":5.37184,"is_reserved":false,"is_disabled":false,"rental_uris":{"android":"levelo://app?vid=a683f6ea-bac0-42fa-8d25-eef825fd8fd1","ios":"levelo://app?vid=a683f6ea-bac0-42fa-8d25-eef825fd8fd1"},"vehicle_type_id":"4","last_reported":1749629674,"current_range_meters":17600,"station_id":"ce4bh5p2rcd13ifvqe4g","pricing_plan_id":"cebpf4jnsgd1na2vs0mg"},{"bike_id":"3a23267e-7fd8-4eb7-8a33-5a60aab332da","system_id":"levelo_inurba_marseille","lat":43.29162,"lon":5.37152,"is_reserved":false,"is_disabled":false,"rental_uris":{"android":"levelo://app?vid=3a23267e-7fd8-4eb7-8a33-5a60aab332da","ios":"levelo://app?vid=3a23267e-7fd8-4eb7-8a33-5a60aab332da"},"vehicle_type_id":"4","last_reported":1749629674,"current_range_meters":18000,"station_id":"ce4bha92rcd13ifvqeh0","pricing_plan_id":"cebpf4jnsgd1na2vs0mg"},{"bike_id":"20698ad9-6935-43c8-872a-68c33a0a7d9b","system_id":"levelo_inurba_marseille","lat":43.23152,"lon":5.43703,"is_reserved":false,"is_disabled":false,"rental_uris":{"android":"levelo://app?vid=20698ad9-6935-43c8-872a-68c33a0a7d9b","ios":"levelo://app?vid=20698ad9-6935-43c8-872a-68c33a0a7d9b"},"vehicle_type_id":"4","last_reported":1749629674,"current_range_meters":18000,"station_id":"ce4bhmp2rcd13ifvqgog","pricing_plan_id":"cebpf4jnsgd1na2vs0mg"},{"bike_id":"00c94cd1-33f1-4483-8d50-d32717f9fe3e","system_id":"levelo_inurba_marseille","lat":43.31727,"lon":5.42409,"is_reserved":false,"is_disabled":false,"rental_uris":{"android":"levelo://app?vid=00c94cd1-33f1-4483-8d50-d32717f9fe3e","ios":"levelo://app?vid=00c94cd1-33f1-4483-8d50-d32717f9fe3e"},"vehicle_type_id":"4","last_reported":1749629674,"current_range_meters":18000,"station_id":"ce4bhp92rcd13ifvqhbg","pricing_plan_id":"cebpf4jnsgd1na2vs0mg"},{"bike_id":"32b62a51-6893-43fc-a047-9897e164dcd4","system_id":"levelo_inurba_marseille","lat":43.31701,"lon":5.37764,"is_reserved":false,"is_disabled":false,"rental_uris":{"android":"levelo://app?vid=32b62a51-6893-43fc-a047-9897e164dcd4","ios":"levelo://app?vid=32b62a51-6893-43fc-a047-9897e164dcd4"},"vehicle_type_id":"4","last_reported":1749629674,"current_range_meters":18000,"station_id":"ce4bgth2rcd13ifvqch0","pricing_plan_id":"cebpf4jnsgd1na2vs0mg"},{"bike_id":"136a956b-c67e-4ee7-bafc-f4953a39f893","system_id":"levelo_inurba_marseille","lat":43.25136,"lon":5.39636,"is_reserved":false,"is_disabled":false,"rental_uris":{"android":"levelo://app?vid=136a956b-c67e-4ee7-bafc-f4953a39f893","ios":"levelo://app?vid=136a956b-c67e-4ee7-bafc-f4953a39f893"},"vehicle_type_id":"4","last_reported":1749629674,"current_range_meters":18000,"station_id":"","pricing_plan_id":"cebpf4jnsgd1na2vs0mg"},{"bike_id":"7b1cfe02-109e-4836-ae59-8aad9c4f2698","system_id":"levelo_inurba_marseille","lat":43.32336,"lon":5.40634,"is_reserved":false,"is_disabled":false,"rental_uris":{"android":"levelo://app?vid=7b1cfe02-109e-4836-ae59-8aad9c4f2698","ios":"levelo://app?vid=7b1cfe02-109e-4836-ae59-8aad9c4f2698"},"vehicle_type_id":"4","last_reported":1749629674,"current_range_meters":18000,"station_id":"ce4bhq92rcd13ifvqhjg","pricing_plan_id":"cebpf4jnsgd1na2vs0mg"},{"bike_id":"f0512806-614e-440a-94af-270b147e565d","system_id":"levelo_inurba_marseille","lat":43.31362,"lon":5.36732,"is_reserved":false,"is_disabled":false,"rental_uris":{"android":"levelo://app?vid=f0512806-614e-440a-94af-270b147e565d","ios":"levelo://app?vid=f0512806-614e-440a-94af-270b147e565d"},"vehicle_type_id":"4","last_reported":1749629674,"current_range_meters":18000,"station_id":"ce4bgr92rcd13ifvqc6g","pricing_plan_id":"cebpf4jnsgd1na2vs0mg"},{"bike_id":"2add060e-349a-4d05-9d08-bdaeb28b43fb","system_id":"levelo_inurba_marseille","lat":43.28713,"lon":5.37933,"is_reserved":false,"is_disabled":false,"rental_uris":{"android":"levelo://app?vid=2add060e-349a-4d05-9d08-bdaeb28b43fb","ios":"levelo://app?vid=2add060e-349a-4d05-9d08-bdaeb28b43fb"},"vehicle_type_id":"4","last_reported":1749629674,"current_range_meters":18000,"station_id":"ce4bh9p2rcd13ifvqec0","pricing_plan_id":"cebpf4jnsgd1na2vs0mg"},{"bike_id":"14356942-0394-436e-8ed5-7480e6bc2b18","system_id":"levelo_inurba_marseille","lat":43.286017,"lon":5.384734,"is_reserved":false,"is_disabled":false,"rental_uris":{"android":"levelo://app?vid=14356942-0394-436e-8ed5-7480e6bc2b18","ios":"levelo://app?vid=14356942-0394-436e-8ed5-7480e6bc2b18"},"vehicle_type_id":"4","last_reported":1749629674,"current_range_meters":18000,"station_id":"","pricing_plan_id":"cebpf4jnsgd1na2vs0mg"},{"bike_id":"94af9829-9c9a-41d2-8413-b8fe277c7356","system_id":"levelo_inurba_marseille","lat":43.24806,"lon":5.37459,"is_reserved":false,"is_disabled":false,"rental_uris":{"android":"levelo://app?vid=94af9829-9c9a-41d2-8413-b8fe277c7356","ios":"levelo://app?vid=94af9829-9c9a-41d2-8413-b8fe277c7356"},"vehicle_type_id":"4","last_reported":1749629674,"current_range_meters":18000,"station_id":"ce4bhgh2rcd13ifvqfb0","pricing_plan_id":"cebpf4jnsgd1na2vs0mg"},{"bike_id":"99ccb411-d7f9-4fcb-b612-4d8582e16182","system_id":"levelo_inurba_marseille","lat":43.33723,"lon":5.39183,"is_reserved":false,"is_disabled":false,"rental_uris":{"android":"levelo://app?vid=99ccb411-d7f9-4fcb-b612-4d8582e16182","ios":"levelo://app?vid=99ccb411-d7f9-4fcb-b612-4d8582e16182"},"vehicle_type_id":"4","last_reported":1749629674,"current_range_meters":18000,"station_id":"ce4bhr92rcd13ifvqhsg","pricing_plan_id":"cebpf4jnsgd1na2vs0mg"},{"bike_id":"415d307a-18cd-4efb-a2ea-509f707e5bc8","system_id":"levelo_inurba_marseille","lat":43.309514,"lon":5.39036,"is_reserved":false,"is_disabled":false,"rental_uris":{"android":"levelo://app?vid=415d307a-18cd-4efb-a2ea-509f707e5bc8","ios":"levelo://app?vid=415d307a-18cd-4efb-a2ea-509f707e5bc8"},"vehicle_type_id":"4","last_reported":1749629674,"current_range_meters":18000,"station_id":"ce4bghh2rcd13ifvqb60","pricing_plan_id":"cebpf4jnsgd1na2vs0mg"},{"bike_id":"07496176-d4c7-444e-b485-13025cec7453","system_id":"levelo_inurba_marseille","lat":43.25119,"lon":5.4033,"is_reserved":false,"is_disabled":false,"rental_uris":{"android":"levelo://app?vid=07496176-d4c7-444e-b485-13025cec7453","ios":"levelo://app?vid=07496176-d4c7-444e-b485-13025cec7453"},"vehicle_type_id":"4","last_reported":1749629674,"current_range_meters":18800,"station_id":"ce4bhlh2rcd13ifvqgig","pricing_plan_id":"cebpf4jnsgd1na2vs0mg"},{"bike_id":"1ffe6267-ffee-48b5-9a1a-8fe4f3a18bb0","system_id":"levelo_inurba_marseille","lat":43.315085,"lon":5.372916,"is_reserved":false,"is_disabled":false,"rental_uris":{"android":"levelo://app?vid=1ffe6267-ffee-48b5-9a1a-8fe4f3a18bb0","ios":"levelo://app?vid=1ffe6267-ffee-48b5-9a1a-8fe4f3a18bb0"},"vehicle_type_id":"4","last_reported":1749629674,"current_range_meters":18800,"station_id":"ce4bgt12rcd13ifvqcd0","pricing_plan_id":"cebpf4jnsgd1na2vs0mg"},{"bike_id":"df40d743-ca7b-4f7c-882e-6472a0df34cc","system_id":"levelo_inurba_marseille","lat":43.2319,"lon":5.35556,"is_reserved":false,"is_disabled":true,"rental_uris":{"android":"levelo://app?vid=df40d743-ca7b-4f7c-882e-6472a0df34cc","ios":"levelo://app?vid=df40d743-ca7b-4f7c-882e-6472a0df34cc"},"vehicle_type_id":"4","last_reported":1749629674,"current_range_meters":18800,"station_id":"ce4bhu92rcd13ifvqi70","pricing_plan_id":"cebpf4jnsgd1na2vs0mg"},{"bike_id":"2bda7015-4e5d-4700-899c-65cefba6f791","system_id":"levelo_inurba_marseille","lat":43.24807,"lon":5.37458,"is_reserved":false,"is_disabled":false,"rental_uris":{"android":"levelo://app?vid=2bda7015-4e5d-4700-899c-65cefba6f791","ios":"levelo://app?vid=2bda7015-4e5d-4700-899c-65cefba6f791"},"vehicle_type_id":"4","last_reported":1749629674,"current_range_meters":18800,"station_id":"ce4bhgh2rcd13ifvqfb0","pricing_plan_id":"cebpf4jnsgd1na2vs0mg"},{"bike_id":"8720c117-08ad-45d9-9ffe-2b9397284168","system_id":"levelo_inurba_marseille","lat":43.24075,"lon":5.37748,"is_reserved":false,"is_disabled":false,"rental_uris":{"android":"levelo://app?vid=8720c117-08ad-45d9-9ffe-2b9397284168","ios":"levelo://app?vid=8720c117-08ad-45d9-9ffe-2b9397284168"},"vehicle_type_id":"4","last_reported":1749629674,"current_range_meters":18800,"station_id":"ce4bhnp2rcd13ifvqgvg","pricing_plan_id":"cebpf4jnsgd1na2vs0mg"},{"bike_id":"1f01b44c-5f74-458f-bd4e-74f1314b1ea9","system_id":"levelo_inurba_marseille","lat":43.27215,"lon":5.39185,"is_reserved":false,"is_disabled":true,"rental_uris":{"android":"levelo://app?vid=1f01b44c-5f74-458f-bd4e-74f1314b1ea9","ios":"levelo://app?vid=1f01b44c-5f74-458f-bd4e-74f1314b1ea9"},"vehicle_type_id":"4","last_reported":1749629674,"current_range_meters":18800,"station_id":"ce4bhhp2rcd13ifvqfm0","pricing_plan_id":"cebpf4jnsgd1na2vs0mg"},{"bike_id":"8d4182e4-ebdd-4608-9457-fd3a4c2f8581","system_id":"levelo_inurba_marseille","lat":43.2419,"lon":5.3975,"is_reserved":false,"is_disabled":false,"rental_uris":{"android":"levelo://app?vid=8d4182e4-ebdd-4608-9457-fd3a4c2f8581","ios":"levelo://app?vid=8d4182e4-ebdd-4608-9457-fd3a4c2f8581"},"vehicle_type_id":"4","last_reported":1749629674,"current_range_meters":18800,"station_id":"ce4bhn12rcd13ifvqgpg","pricing_plan_id":"cebpf4jnsgd1na2vs0mg"},{"bike_id":"556ea021-f173-497b-9607-7375aef62e86","system_id":"levelo_inurba_marseille","lat":43.31699,"lon":5.40476,"is_reserved":false,"is_disabled":false,"rental_uris":{"android":"levelo://app?vid=556ea021-f173-497b-9607-7375aef62e86","ios":"levelo://app?vid=556ea021-f173-497b-9607-7375aef62e86"},"vehicle_type_id":"4","last_reported":1749629674,"current_range_meters":18800,"station_id":"ce4bh012rcd13ifvqd00","pricing_plan_id":"cebpf4jnsgd1na2vs0mg"},{"bike_id":"31ca418c-333f-4206-8e4f-f63ac8f5bbd3","system_id":"levelo_inurba_marseille","lat":43.26952,"lon":5.38617,"is_reserved":false,"is_disabled":false,"rental_uris":{"android":"levelo://app?vid=31ca418c-333f-4206-8e4f-f63ac8f5bbd3","ios":"levelo://app?vid=31ca418c-333f-4206-8e4f-f63ac8f5bbd3"},"vehicle_type_id":"4","last_reported":1749629674,"current_range_meters":18800,"station_id":"ce4bhh92rcd13ifvqfh0","pricing_plan_id":"cebpf4jnsgd1na2vs0mg"},{"bike_id":"27c3ce4c-2f83-41ff-abde-3fb4e2e068fb","system_id":"levelo_inurba_marseille","lat":43.31001,"lon":5.37458,"is_reserved":false,"is_disabled":false,"rental_uris":{"android":"levelo://app?vid=27c3ce4c-2f83-41ff-abde-3fb4e2e068fb","ios":"levelo://app?vid=27c3ce4c-2f83-41ff-abde-3fb4e2e068fb"},"vehicle_type_id":"4","last_reported":1749629674,"current_range_meters":18800,"station_id":"","pricing_plan_id":"cebpf4jnsgd1na2vs0mg"},{"bike_id":"c9fce19b-bd54-4522-bdc7-aa26a9be634a","system_id":"levelo_inurba_marseille","lat":43.27327,"lon":5.39094,"is_reserved":false,"is_disabled":true,"rental_uris":{"android":"levelo://app?vid=c9fce19b-bd54-4522-bdc7-aa26a9be634a","ios":"levelo://app?vid=c9fce19b-bd54-4522-bdc7-aa26a9be634a"},"vehicle_type_id":"4","last_reported":1749629674,"current_range_meters":19200,"station_id":"ce4bhgp2rcd13ifvqfe0","pricing_plan_id":"cebpf4jnsgd1na2vs0mg"},{"bike_id":"43d06fb2-37ef-4f7f-bea3-608ee6d0f3e3","system_id":"levelo_inurba_marseille","lat":43.26489,"lon":5.39553,"is_reserved":false,"is_disabled":false,"rental_uris":{"android":"levelo://app?vid=43d06fb2-37ef-4f7f-bea3-608ee6d0f3e3","ios":"levelo://app?vid=43d06fb2-37ef-4f7f-bea3-608ee6d0f3e3"},"vehicle_type_id":"4","last_reported":1749629674,"current_range_meters":19200,"station_id":"ce4bhi12rcd13ifvqfq0","pricing_plan_id":"cebpf4jnsgd1na2vs0mg"},{"bike_id":"b21450a4-463f-4eb5-a5b1-a818c0abb90a","system_id":"levelo_inurba_marseille","lat":43.29898,"lon":5.43673,"is_reserved":false,"is_disabled":false,"rental_uris":{"android":"levelo://app?vid=b21450a4-463f-4eb5-a5b1-a818c0abb90a","ios":"levelo://app?vid=b21450a4-463f-4eb5-a5b1-a818c0abb90a"},"vehicle_type_id":"4","last_reported":1749629674,"current_range_meters":19200,"station_id":"ce4bhpp2rcd13ifvqhfg","pricing_plan_id":"cebpf4jnsgd1na2vs0mg"},{"bike_id":"43905188-6755-4fcf-a1e5-419d01155020","system_id":"levelo_inurba_marseille","lat":43.26223,"lon":5.40455,"is_reserved":false,"is_disabled":false,"rental_uris":{"android":"levelo://app?vid=43905188-6755-4fcf-a1e5-419d01155020","ios":"levelo://app?vid=43905188-6755-4fcf-a1e5-419d01155020"},"vehicle_type_id":"4","last_reported":1749629674,"current_range_meters":19200,"station_id":"ce4bhmh2rcd13ifvqgmg","pricing_plan_id":"cebpf4jnsgd1na2vs0mg"},{"bike_id":"233d099d-7398-4251-a9ac-8ab5c25a21fc","system_id":"levelo_inurba_marseille","lat":43.309052,"lon":5.368464,"is_reserved":false,"is_disabled":false,"rental_uris":{"android":"levelo://app?vid=233d099d-7398-4251-a9ac-8ab5c25a21fc","ios":"levelo://app?vid=233d099d-7398-4251-a9ac-8ab5c25a21fc"},"vehicle_type_id":"4","last_reported":1749629674,"current_range_meters":19200,"station_id":"ce4bgn92rcd13ifvqbvg","pricing_plan_id":"cebpf4jnsgd1na2vs0mg"},{"bike_id":"1a3b0ef4-fd99-41cb-bbbe-2863e96b819d","system_id":"levelo_inurba_marseille","lat":43.31312,"lon":5.36693,"is_reserved":false,"is_disabled":false,"rental_uris":{"android":"levelo://app?vid=1a3b0ef4-fd99-41cb-bbbe-2863e96b819d","ios":"levelo://app?vid=1a3b0ef4-fd99-41cb-bbbe-2863e96b819d"},"vehicle_type_id":"4","last_reported":1749629674,"current_range_meters":19200,"station_id":"ce4bgr92rcd13ifvqc6g","pricing_plan_id":"cebpf4jnsgd1na2vs0mg"},{"bike_id":"2a8a507b-d571-4a60-b58c-347b503c4d7d","system_id":"levelo_inurba_marseille","lat":43.29612,"lon":5.37726,"is_reserved":false,"is_disabled":false,"rental_uris":{"android":"levelo://app?vid=2a8a507b-d571-4a60-b58c-347b503c4d7d","ios":"levelo://app?vid=2a8a507b-d571-4a60-b58c-347b503c4d7d"},"vehicle_type_id":"4","last_reported":1749629674,"current_range_meters":19600,"station_id":"ce4bgi92rcd13ifvqb90","pricing_plan_id":"cebpf4jnsgd1na2vs0mg"},{"bike_id":"1b986ab5-899b-45c0-ae8f-5234203e90af","system_id":"levelo_inurba_marseille","lat":43.320969,"lon":5.367774,"is_reserved":false,"is_disabled":false,"rental_uris":{"android":"levelo://app?vid=1b986ab5-899b-45c0-ae8f-5234203e90af","ios":"levelo://app?vid=1b986ab5-899b-45c0-ae8f-5234203e90af"},"vehicle_type_id":"4","last_reported":1749629674,"current_range_meters":19600,"station_id":"ce4bhrh2rcd13ifvqhug","pricing_plan_id":"cebpf4jnsgd1na2vs0mg"},{"bike_id":"a6e68a88-a9b2-4b60-be87-97d7aca50726","system_id":"levelo_inurba_marseille","lat":43.29601,"lon":5.38095,"is_reserved":false,"is_disabled":false,"rental_uris":{"android":"levelo://app?vid=a6e68a88-a9b2-4b60-be87-97d7aca50726","ios":"levelo://app?vid=a6e68a88-a9b2-4b60-be87-97d7aca50726"},"vehicle_type_id":"4","last_reported":1749629674,"current_range_meters":19600,"station_id":"ce4bgl12rcd13ifvqbo0","pricing_plan_id":"cebpf4jnsgd1na2vs0mg"},{"bike_id":"51ac4440-dde0-4f13-bf9a-5a5b6810d184","system_id":"levelo_inurba_marseille","lat":43.30382,"lon":5.42482,"is_reserved":false,"is_disabled":false,"rental_uris":{"android":"levelo://app?vid=51ac4440-dde0-4f13-bf9a-5a5b6810d184","ios":"levelo://app?vid=51ac4440-dde0-4f13-bf9a-5a5b6810d184"},"vehicle_type_id":"4","last_reported":1749629674,"current_range_meters":19600,"station_id":"ce4bhoh2rcd13ifvqh6g","pricing_plan_id":"cebpf4jnsgd1na2vs0mg"},{"bike_id":"50490822-204a-4b19-9af8-0374c540b273","system_id":"levelo_inurba_marseille","lat":43.30897,"lon":5.37205,"is_reserved":false,"is_disabled":false,"rental_uris":{"android":"levelo://app?vid=50490822-204a-4b19-9af8-0374c540b273","ios":"levelo://app?vid=50490822-204a-4b19-9af8-0374c540b273"},"vehicle_type_id":"4","last_reported":1749629674,"current_range_meters":19600,"station_id":"ce4bguh2rcd13ifvqckg","pricing_plan_id":"cebpf4jnsgd1na2vs0mg"},{"bike_id":"3f1574d6-fc40-4341-9dac-b195059ec68d","system_id":"levelo_inurba_marseille","lat":43.27214,"lon":5.39195,"is_reserved":false,"is_disabled":true,"rental_uris":{"android":"levelo://app?vid=3f1574d6-fc40-4341-9dac-b195059ec68d","ios":"levelo://app?vid=3f1574d6-fc40-4341-9dac-b195059ec68d"},"vehicle_type_id":"4","last_reported":1749629674,"current_range_meters":19600,"station_id":"ce4bhhp2rcd13ifvqfm0","pricing_plan_id":"cebpf4jnsgd1na2vs0mg"},{"bike_id":"cc55b817-cc91-4b6e-871f-f7bd0dccbcd8","system_id":"levelo_inurba_marseille","lat":43.30945,"lon":5.39016,"is_reserved":false,"is_disabled":false,"rental_uris":{"android":"levelo://app?vid=cc55b817-cc91-4b6e-871f-f7bd0dccbcd8","ios":"levelo://app?vid=cc55b817-cc91-4b6e-871f-f7bd0dccbcd8"},"vehicle_type_id":"4","last_reported":1749629674,"current_range_meters":19600,"station_id":"ce4bgup2rcd13ifvqco0","pricing_plan_id":"cebpf4jnsgd1na2vs0mg"},{"bike_id":"ed1aa8e0-a33b-4919-9e0d-ab75dc3c6a07","system_id":"levelo_inurba_marseille","lat":43.264855,"lon":5.409615,"is_reserved":false,"is_disabled":false,"rental_uris":{"android":"levelo://app?vid=ed1aa8e0-a33b-4919-9e0d-ab75dc3c6a07","ios":"levelo://app?vid=ed1aa8e0-a33b-4919-9e0d-ab75dc3c6a07"},"vehicle_type_id":"4","last_reported":1749629674,"current_range_meters":19600,"station_id":"","pricing_plan_id":"cebpf4jnsgd1na2vs0mg"},{"bike_id":"132dca40-a93c-4125-97c9-21b844e9ddee","system_id":"levelo_inurba_marseille","lat":43.292969,"lon":5.374341,"is_reserved":false,"is_disabled":false,"rental_uris":{"android":"levelo://app?vid=132dca40-a93c-4125-97c9-21b844e9ddee","ios":"levelo://app?vid=132dca40-a93c-4125-97c9-21b844e9ddee"},"vehicle_type_id":"4","last_reported":1749629674,"current_range_meters":20000,"station_id":"ce4bh692rcd13ifvqea0","pricing_plan_id":"cebpf4jnsgd1na2vs0mg"},{"bike_id":"f5ee7047-6b9d-448b-a847-9deef7256f14","system_id":"levelo_inurba_marseille","lat":43.2929,"lon":5.3717,"is_reserved":false,"is_disabled":false,"rental_uris":{"android":"levelo://app?vid=f5ee7047-6b9d-448b-a847-9deef7256f14","ios":"levelo://app?vid=f5ee7047-6b9d-448b-a847-9deef7256f14"},"vehicle_type_id":"4","last_reported":1749629674,"current_range_meters":20000,"station_id":"ce4bgh92rcd13ifvqb40","pricing_plan_id":"cebpf4jnsgd1na2vs0mg"},{"bike_id":"2a7344b5-7126-4cc1-bbd1-a9bb0e44b7bd","system_id":"levelo_inurba_marseille","lat":43.23052,"lon":5.35498,"is_reserved":false,"is_disabled":false,"rental_uris":{"android":"levelo://app?vid=2a7344b5-7126-4cc1-bbd1-a9bb0e44b7bd","ios":"levelo://app?vid=2a7344b5-7126-4cc1-bbd1-a9bb0e44b7bd"},"vehicle_type_id":"4","last_reported":1749629674,"current_range_meters":20000,"station_id":"cpo3342slgdg3j2ifvpg","pricing_plan_id":"cebpf4jnsgd1na2vs0mg"},{"bike_id":"3f091ab2-d036-4a00-b99c-c40a7c14c235","system_id":"levelo_inurba_marseille","lat":43.32491,"lon":5.3658,"is_reserved":false,"is_disabled":false,"rental_uris":{"android":"levelo://app?vid=3f091ab2-d036-4a00-b99c-c40a7c14c235","ios":"levelo://app?vid=3f091ab2-d036-4a00-b99c-c40a7c14c235"},"vehicle_type_id":"4","last_reported":1749629674,"current_range_meters":20000,"station_id":"ce4bhs12rcd13ifvqhvg","pricing_plan_id":"cebpf4jnsgd1na2vs0mg"},{"bike_id":"3db8fde5-dc25-47f9-adb5-1429f5338e31","system_id":"levelo_inurba_marseille","lat":43.317485,"lon":5.384706,"is_reserved":false,"is_disabled":false,"rental_uris":{"android":"levelo://app?vid=3db8fde5-dc25-47f9-adb5-1429f5338e31","ios":"levelo://app?vid=3db8fde5-dc25-47f9-adb5-1429f5338e31"},"vehicle_type_id":"4","last_reported":1749629674,"current_range_meters":20000,"station_id":"","pricing_plan_id":"cebpf4jnsgd1na2vs0mg"},{"bike_id":"ed38c509-2da4-43d9-ad88-0d8e7b872a63","system_id":"levelo_inurba_marseille","lat":43.30144,"lon":5.3741,"is_reserved":false,"is_disabled":false,"rental_uris":{"android":"levelo://app?vid=ed38c509-2da4-43d9-ad88-0d8e7b872a63","ios":"levelo://app?vid=ed38c509-2da4-43d9-ad88-0d8e7b872a63"},"vehicle_type_id":"4","last_reported":1749629674,"current_range_meters":20000,"station_id":"ce4bgs92rcd13ifvqcc0","pricing_plan_id":"cebpf4jnsgd1na2vs0mg"},{"bike_id":"34aef53d-21b2-4f85-b3c8-0b6ce0b3af7f","system_id":"levelo_inurba_marseille","lat":43.31688,"lon":5.40477,"is_reserved":false,"is_disabled":false,"rental_uris":{"android":"levelo://app?vid=34aef53d-21b2-4f85-b3c8-0b6ce0b3af7f","ios":"levelo://app?vid=34aef53d-21b2-4f85-b3c8-0b6ce0b3af7f"},"vehicle_type_id":"4","last_reported":1749629674,"current_range_meters":20400,"station_id":"ce4bh012rcd13ifvqd00","pricing_plan_id":"cebpf4jnsgd1na2vs0mg"},{"bike_id":"011a51e0-e9d8-4321-bc06-60864898b9e9","system_id":"levelo_inurba_marseille","lat":43.30529,"lon":5.36528,"is_reserved":false,"is_disabled":false,"rental_uris":{"android":"levelo://app?vid=011a51e0-e9d8-4321-bc06-60864898b9e9","ios":"levelo://app?vid=011a51e0-e9d8-4321-bc06-60864898b9e9"},"vehicle_type_id":"4","last_reported":1749629674,"current_range_meters":20400,"station_id":"ce4bgs12rcd13ifvqcag","pricing_plan_id":"cebpf4jnsgd1na2vs0mg"},{"bike_id":"a7cd85f5-afff-45b0-bb98-6ffa8e2e9d6b","system_id":"levelo_inurba_marseille","lat":43.31359,"lon":5.3672,"is_reserved":false,"is_disabled":false,"rental_uris":{"android":"levelo://app?vid=a7cd85f5-afff-45b0-bb98-6ffa8e2e9d6b","ios":"levelo://app?vid=a7cd85f5-afff-45b0-bb98-6ffa8e2e9d6b"},"vehicle_type_id":"4","last_reported":1749629674,"current_range_meters":20400,"station_id":"ce4bgr92rcd13ifvqc6g","pricing_plan_id":"cebpf4jnsgd1na2vs0mg"},{"bike_id":"ed7b6444-d227-40dd-8b71-2b25b2f39759","system_id":"levelo_inurba_marseille","lat":43.31584,"lon":5.37305,"is_reserved":false,"is_disabled":false,"rental_uris":{"android":"levelo://app?vid=ed7b6444-d227-40dd-8b71-2b25b2f39759","ios":"levelo://app?vid=ed7b6444-d227-40dd-8b71-2b25b2f39759"},"vehicle_type_id":"4","last_reported":1749629674,"current_range_meters":20400,"station_id":"","pricing_plan_id":"cebpf4jnsgd1na2vs0mg"},{"bike_id":"0ed34fbe-cec1-428f-baae-f4d58d7c68e4","system_id":"levelo_inurba_marseille","lat":43.29797,"lon":5.38108,"is_reserved":false,"is_disabled":true,"rental_uris":{"android":"levelo://app?vid=0ed34fbe-cec1-428f-baae-f4d58d7c68e4","ios":"levelo://app?vid=0ed34fbe-cec1-428f-baae-f4d58d7c68e4"},"vehicle_type_id":"4","last_reported":1749629674,"current_range_meters":20400,"station_id":"ce4bgip2rcd13ifvqbb0","pricing_plan_id":"cebpf4jnsgd1na2vs0mg"},{"bike_id":"7003b93c-725d-412e-9127-fbade718cbc3","system_id":"levelo_inurba_marseille","lat":43.2118,"lon":5.35086,"is_reserved":false,"is_disabled":false,"rental_uris":{"android":"levelo://app?vid=7003b93c-725d-412e-9127-fbade718cbc3","ios":"levelo://app?vid=7003b93c-725d-412e-9127-fbade718cbc3"},"vehicle_type_id":"4","last_reported":1749629674,"current_range_meters":20400,"station_id":"st_cvj6sg6p6f1abm77japg","pricing_plan_id":"cebpf4jnsgd1na2vs0mg"},{"bike_id":"e0249f4b-8d8b-4dc7-a224-9ea697947c37","system_id":"levelo_inurba_marseille","lat":43.31711,"lon":5.42408,"is_reserved":false,"is_disabled":false,"rental_uris":{"android":"levelo://app?vid=e0249f4b-8d8b-4dc7-a224-9ea697947c37","ios":"levelo://app?vid=e0249f4b-8d8b-4dc7-a224-9ea697947c37"},"vehicle_type_id":"4","last_reported":1749629674,"current_range_meters":20400,"station_id":"ce4bhp92rcd13ifvqhbg","pricing_plan_id":"cebpf4jnsgd1na2vs0mg"},{"bike_id":"322b9e46-42b2-4f43-ad8e-0c15022b2f6d","system_id":"levelo_inurba_marseille","lat":43.25728,"lon":5.41107,"is_reserved":false,"is_disabled":false,"rental_uris":{"android":"levelo://app?vid=322b9e46-42b2-4f43-ad8e-0c15022b2f6d","ios":"levelo://app?vid=322b9e46-42b2-4f43-ad8e-0c15022b2f6d"},"vehicle_type_id":"4","last_reported":1749629674,"current_range_meters":20400,"station_id":"ce4bhkp2rcd13ifvqgd0","pricing_plan_id":"cebpf4jnsgd1na2vs0mg"},{"bike_id":"3f721d0a-a8f4-479e-aaa6-6ed8f7b1d35e","system_id":"levelo_inurba_marseille","lat":43.26217,"lon":5.37931,"is_reserved":false,"is_disabled":true,"rental_uris":{"android":"levelo://app?vid=3f721d0a-a8f4-479e-aaa6-6ed8f7b1d35e","ios":"levelo://app?vid=3f721d0a-a8f4-479e-aaa6-6ed8f7b1d35e"},"vehicle_type_id":"4","last_reported":1749629674,"current_range_meters":20800,"station_id":"ce4bhjp2rcd13ifvqg90","pricing_plan_id":"cebpf4jnsgd1na2vs0mg"},{"bike_id":"80c4481f-3a94-40c5-bcb5-c1363c06279d","system_id":"levelo_inurba_marseille","lat":43.25948,"lon":5.40884,"is_reserved":false,"is_disabled":true,"rental_uris":{"android":"levelo://app?vid=80c4481f-3a94-40c5-bcb5-c1363c06279d","ios":"levelo://app?vid=80c4481f-3a94-40c5-bcb5-c1363c06279d"},"vehicle_type_id":"4","last_reported":1749629674,"current_range_meters":20800,"station_id":"ce4bhm92rcd13ifvqglg","pricing_plan_id":"cebpf4jnsgd1na2vs0mg"},{"bike_id":"98855dfb-7f1a-4ad2-b5c8-6854d863a5f3","system_id":"levelo_inurba_marseille","lat":43.281488,"lon":5.426376,"is_reserved":false,"is_disabled":false,"rental_uris":{"android":"levelo://app?vid=98855dfb-7f1a-4ad2-b5c8-6854d863a5f3","ios":"levelo://app?vid=98855dfb-7f1a-4ad2-b5c8-6854d863a5f3"},"vehicle_type_id":"4","last_reported":1749629674,"current_range_meters":20800,"station_id":"ce4bhnh2rcd13ifvqgug","pricing_plan_id":"cebpf4jnsgd1na2vs0mg"},{"bike_id":"92749862-dd52-4326-b03e-2b78c837b791","system_id":"levelo_inurba_marseille","lat":43.28938,"lon":5.39632,"is_reserved":false,"is_disabled":false,"rental_uris":{"android":"levelo://app?vid=92749862-dd52-4326-b03e-2b78c837b791","ios":"levelo://app?vid=92749862-dd52-4326-b03e-2b78c837b791"},"vehicle_type_id":"4","last_reported":1749629674,"current_range_meters":20800,"station_id":"ce4bh3h2rcd13ifvqdn0","pricing_plan_id":"cebpf4jnsgd1na2vs0mg"},{"bike_id":"2b091a8f-1f16-4074-9743-727f3a29f4b1","system_id":"levelo_inurba_marseille","lat":43.27492,"lon":5.42452,"is_reserved":false,"is_disabled":false,"rental_uris":{"android":"levelo://app?vid=2b091a8f-1f16-4074-9743-727f3a29f4b1","ios":"levelo://app?vid=2b091a8f-1f16-4074-9743-727f3a29f4b1"},"vehicle_type_id":"4","last_reported":1749629674,"current_range_meters":21600,"station_id":"ce4bhn92rcd13ifvqgrg","pricing_plan_id":"cebpf4jnsgd1na2vs0mg"},{"bike_id":"0db40102-158a-42a7-9960-74ab1bdde2a2","system_id":"levelo_inurba_marseille","lat":43.30531,"lon":5.36714,"is_reserved":false,"is_disabled":false,"rental_uris":{"android":"levelo://app?vid=0db40102-158a-42a7-9960-74ab1bdde2a2","ios":"levelo://app?vid=0db40102-158a-42a7-9960-74ab1bdde2a2"},"vehicle_type_id":"4","last_reported":1749629674,"current_range_meters":21600,"station_id":"ce4bgrp2rcd13ifvqc9g","pricing_plan_id":"cebpf4jnsgd1na2vs0mg"},{"bike_id":"a4c97e5f-8ce6-49b2-a82d-93bbc6715e6c","system_id":"levelo_inurba_marseille","lat":43.30957,"lon":5.39037,"is_reserved":false,"is_disabled":false,"rental_uris":{"android":"levelo://app?vid=a4c97e5f-8ce6-49b2-a82d-93bbc6715e6c","ios":"levelo://app?vid=a4c97e5f-8ce6-49b2-a82d-93bbc6715e6c"},"vehicle_type_id":"4","last_reported":1749629674,"current_range_meters":20800,"station_id":"ce4bgup2rcd13ifvqco0","pricing_plan_id":"cebpf4jnsgd1na2vs0mg"},{"bike_id":"3cb0af7c-994a-4b71-98dc-211ebea626ad","system_id":"levelo_inurba_marseille","lat":43.32354,"lon":5.36736,"is_reserved":false,"is_disabled":false,"rental_uris":{"android":"levelo://app?vid=3cb0af7c-994a-4b71-98dc-211ebea626ad","ios":"levelo://app?vid=3cb0af7c-994a-4b71-98dc-211ebea626ad"},"vehicle_type_id":"4","last_reported":1749629674,"current_range_meters":21600,"station_id":"ce4bhsh2rcd13ifvqi2g","pricing_plan_id":"cebpf4jnsgd1na2vs0mg"},{"bike_id":"6129c9c1-d980-4e3a-a2b6-78c73976d62a","system_id":"levelo_inurba_marseille","lat":43.23184,"lon":5.39981,"is_reserved":false,"is_disabled":false,"rental_uris":{"android":"levelo://app?vid=6129c9c1-d980-4e3a-a2b6-78c73976d62a","ios":"levelo://app?vid=6129c9c1-d980-4e3a-a2b6-78c73976d62a"},"vehicle_type_id":"4","last_reported":1749629674,"current_range_meters":21600,"station_id":"ce4bhn12rcd13ifvqgqg","pricing_plan_id":"cebpf4jnsgd1na2vs0mg"},{"bike_id":"6e464720-93b0-4699-80fe-881649eb71cd","system_id":"levelo_inurba_marseille","lat":43.23254,"lon":5.35591,"is_reserved":false,"is_disabled":false,"rental_uris":{"android":"levelo://app?vid=6e464720-93b0-4699-80fe-881649eb71cd","ios":"levelo://app?vid=6e464720-93b0-4699-80fe-881649eb71cd"},"vehicle_type_id":"4","last_reported":1749629674,"current_range_meters":21600,"station_id":"","pricing_plan_id":"cebpf4jnsgd1na2vs0mg"},{"bike_id":"c6d8aa8d-469c-4e4f-a44e-63d34d4e2f4e","system_id":"levelo_inurba_marseille","lat":43.30882,"lon":5.37193,"is_reserved":false,"is_disabled":false,"rental_uris":{"android":"levelo://app?vid=c6d8aa8d-469c-4e4f-a44e-63d34d4e2f4e","ios":"levelo://app?vid=c6d8aa8d-469c-4e4f-a44e-63d34d4e2f4e"},"vehicle_type_id":"4","last_reported":1749629674,"current_range_meters":22000,"station_id":"ce4bguh2rcd13ifvqckg","pricing_plan_id":"cebpf4jnsgd1na2vs0mg"},