{"last_updated":1702908428,"ttl":30,"version":"2.2","data":{"bikes":[{"bike_id":"b9e387d8-18f5-443a-b524-a9bc938b3c3c","system_id":"levelo_inurba_marseille","lat":43.31341,"lon":5.367098,"is_reserved":false,"is_disabled":false,"rental_uris":{"android":"levelo://app?vid=b9e387d8-18f5-443a-b524-a9bc938b3c3c","ios":"levelo://app?vid=b9e387d8-18f5-443a-b524-a9bc938b3c3c"},"vehicle_type_id":"4","last_reported":1702908428,"current_range_meters":22000,"station_id":"ce4bgr92rcd13ifvqc6g","pricing_plan_id":"free"},{"bike_id":"326bfdf4-09c4-442e-9403-17dfa75ea4b3","system_id":"levelo_inurba_marseille","lat":43.313391,"lon":5.36706,"is_reserved":false,"is_disabled":false,"rental_uris":{"android":"levelo://app?vid=326bfdf4-09c4-442e-9403-17dfa75ea4b3","ios":"levelo://app?vid=326bfdf4-09c4-442e-9403-17dfa75ea4b3"},"vehicle_type_id":"4","last_reported":1702908428,"current_range_meters":6800,"station_id":"ce4bgr92rcd13ifvqc6g","pricing_plan_id":"free"},{"bike_id":"e223c69a-1d61-4a03-811f-5db9cad1005b","system_id":"levelo_inurba_marseille","lat":43.31341,"lon":5.367098,"is_reserved":false,"is_disabled":false,"rental_uris":{"android":"levelo://app?vid=e223c69a-1d61-4a03-811f-5db9cad1005b","ios":"levelo://app?vid=e223c69a-1d61-4a03-811f-5db9cad1005b"},"vehicle_type_id":"4","last_reported":1702908428,"current_range_meters":32000,"station_id":"ce4bgr92rcd13ifvqc6g","pricing_plan_id":"free"},{"bike_id":"4fc9f832-7db8-4188-af64-2e5c98dde42e","system_id":"levelo_inurba_marseille","lat":43.313391,"lon":5.36706,"is_reserved":false,"is_disabled":false,"rental_uris":{"android":"levelo://app?vid=4fc9f832-7db8-4188-af64-2e5c98dde42e","ios":"levelo://app?vid=4fc9f832-7db8-4188-af64-2e5c98dde42e"},"vehicle_type_id":"4","last_reported":1702908428,"current_range_meters":30800,"station_id":"ce4bgr92rcd13ifvqc6g","pricing_plan_id":"free"},{"bike_id":"0e7f4743-633f-4c5f-bb63-d3239429ae2f","system_id":"levelo_inurba_marseille","lat":43.313391,"lon":5.36706,"is_reserved":false,"is_disabled":false,"rental_uris":{"android":"levelo://app?vid=0e7f4743-633f-4c5f-bb63-d3239429ae2f","ios":"levelo://app?vid=0e7f4743-633f-4c5f-bb63-d3239429ae2f"},"vehicle_type_id":"4","last_reported":1702908428,"current_range_meters":23600,"station_id":"ce4bgr92rcd13ifvqc6g","pricing_plan_id":"free"},{"bike_id":"2a35484a-0926-4daa-abd1-ee8694286426","system_id":"levelo_inurba_marseille","lat":43.31341,"lon":5.367098,"is_reserved":false,"is_disabled":false,"rental_uris":{"android":"levelo://app?vid=2a35484a-0926-4daa-abd1-ee8694286426","ios":"levelo://app?vid=2a35484a-0926-4daa-abd1-ee8694286426"},"vehicle_type_id":"4","last_reported":1702908428,"current_range_meters":22800,"station_id":"ce4bgr92rcd13ifvqc6g","pricing_plan_id":"free"},{"bike_id":"19d38c64-1f80-4241-ae3f-24cc0f2bed28","system_id":"levelo_inurba_marseille","lat":43.31341,"lon":5.367098,"is_reserved":false,"is_disabled":false,"rental_uris":{"android":"levelo://app?vid=19d38c64-1f80-4241-ae3f-24cc0f2bed28","ios":"levelo://app?vid=19d38c64-1f80-4241-ae3f-24cc0f2bed28"},"vehicle_type_id":"4","last_reported":1702908428,"current_range_meters":19200,"station_id":"ce4bgr92rcd13ifvqc6g","pricing_plan_id":"free"},{"bike_id":"8674721c-8264-432f-ac0b-74403cd59655","system_id":"levelo_inurba_marseille","lat":43.31341,"lon":5.367098,"is_reserved":false,"is_disabled":false,"rental_uris":{"android":"levelo://app?vid=8674721c-8264-432f-ac0b-74403cd59655","ios":"levelo://app?vid=8674721c-8264-432f-ac0b-74403cd59655"},"vehicle_type_id":"4","last_reported":1702908428,"current_range_meters":27200,"station_id":"ce4bgr92rcd13ifvqc6g","pricing_plan_id":"free"},{"bike_id":"993482b7-cfc4-4090-857a-dce3e7e54f70","system_id":"levelo_inurba_marseille","lat":43.31347,"lon":5.36844,"is_reserved":false,"is_disabled":false,"rental_uris":{"android":"levelo://app?vid=993482b7-cfc4-4090-857a-dce3e7e54f70","ios":"levelo://app?vid=993482b7-cfc4-4090-857a-dce3e7e54f70"},"vehicle_type_id":"4","last_reported":1702908428,"current_range_meters":0,"station_id":"","pricing_plan_id":"free"},{"bike_id":"02041e1c-14b6-4572-873a-77d2245e2589","system_id":"levelo_inurba_marseille","lat":43.314811,"lon":5.373104,"is_reserved":false,"is_disabled":false,"rental_uris":{"android":"levelo://app?vid=02041e1c-14b6-4572-873a-77d2245e2589","ios":"levelo://app?vid=02041e1c-14b6-4572-873a-77d2245e2589"},"vehicle_type_id":"4","last_reported":1702908428,"current_range_meters":10400,"station_id":"ce4bgt12rcd13ifvqcd0","pricing_plan_id":"free"},{"bike_id":"7344aa0f-382a-4de3-aa70-e5511c660c98","system_id":"levelo_inurba_marseille","lat":43.305706,"lon":5.365654,"is_reserved":false,"is_disabled":false,"rental_uris":{"android":"levelo://app?vid=7344aa0f-382a-4de3-aa70-e5511c660c98","ios":"levelo://app?vid=7344aa0f-382a-4de3-aa70-e5511c660c98"},"vehicle_type_id":"4","last_reported":1702908428,"current_range_meters":11600,"station_id":"ce4bgs12rcd13ifvqcag","pricing_plan_id":"free"},{"bike_id":"955e4ab2-16e5-44e8-a986-a2f50ff96c06","system_id":"levelo_inurba_marseille","lat":43.305382,"lon":5.365389,"is_reserved":false,"is_disabled":false,"rental_uris":{"android":"levelo://app?vid=955e4ab2-16e5-44e8-a986-a2f50ff96c06","ios":"levelo://app?vid=955e4ab2-16e5-44e8-a986-a2f50ff96c06"},"vehicle_type_id":"4","last_reported":1702908428,"current_range_meters":7600,"station_id":"","pricing_plan_id":"free"},{"bike_id":"eca5ae6d-8875-4fbb-b3f7-39aa02981f09","system_id":"levelo_inurba_marseille","lat":43.305989,"lon":5.37225,"is_reserved":false,"is_disabled":false,"rental_uris":{"android":"levelo://app?vid=eca5ae6d-8875-4fbb-b3f7-39aa02981f09","ios":"levelo://app?vid=eca5ae6d-8875-4fbb-b3f7-39aa02981f09"},"vehicle_type_id":"4","last_reported":1702908428,"current_range_meters":29200,"station_id":"ce4bgqh2rcd13ifvqc4g","pricing_plan_id":"free"},{"bike_id":"3baa947a-8096-4b82-8080-456a1438ccba","system_id":"levelo_inurba_marseille","lat":43.311131,"lon":5.377651,"is_reserved":false,"is_disabled":false,"rental_uris":{"android":"levelo://app?vid=3baa947a-8096-4b82-8080-456a1438ccba","ios":"levelo://app?vid=3baa947a-8096-4b82-8080-456a1438ccba"},"vehicle_type_id":"4","last_reported":1702908428,"current_range_meters":14400,"station_id":"ce4bgt92rcd13ifvqcg0","pricing_plan_id":"free"},{"bike_id":"9ed0b164-624d-4304-9ca1-bdafb7c8e4bf","system_id":"levelo_inurba_marseille","lat":43.307945,"lon":5.376487,"is_reserved":false,"is_disabled":false,"rental_uris":{"android":"levelo://app?vid=9ed0b164-624d-4304-9ca1-bdafb7c8e4bf","ios":"levelo://app?vid=9ed0b164-624d-4304-9ca1-bdafb7c8e4bf"},"vehicle_type_id":"4","last_reported":1702908428,"current_range_meters":30000,"station_id":"ce4bgv92rcd13ifvqcq0","pricing_plan_id":"free"},{"bike_id":"7975d01e-f8f4-4b20-9d10-f06edb4947b9","system_id":"levelo_inurba_marseille","lat":43.317075,"lon":5.377367,"is_reserved":false,"is_disabled":false,"rental_uris":{"android":"levelo://app?vid=7975d01e-f8f4-4b20-9d10-f06edb4947b9","ios":"levelo://app?vid=7975d01e-f8f4-4b20-9d10-f06edb4947b9"},"vehicle_type_id":"4","last_reported":1702908428,"current_range_meters":26800,"station_id":"ce4bgth2rcd13ifvqch0","pricing_plan_id":"free"},{"bike_id":"f845128f-13fd-450d-911c-c17198a8712f","system_id":"levelo_inurba_marseille","lat":43.317075,"lon":5.377367,"is_reserved":false,"is_disabled":false,"rental_uris":{"android":"levelo://app?vid=f845128f-13fd-450d-911c-c17198a8712f","ios":"levelo://app?vid=f845128f-13fd-450d-911c-c17198a8712f"},"vehicle_type_id":"4","last_reported":1702908428,"current_range_meters":31200,"station_id":"ce4bgth2rcd13ifvqch0","pricing_plan_id":"free"},{"bike_id":"0347294b-2523-49f1-b765-4732b50d00b6","system_id":"levelo_inurba_marseille","lat":43.317075,"lon":5.377367,"is_reserved":false,"is_disabled":false,"rental_uris":{"android":"levelo://app?vid=0347294b-2523-49f1-b765-4732b50d00b6","ios":"levelo://app?vid=0347294b-2523-49f1-b765-4732b50d00b6"},"vehicle_type_id":"4","last_reported":1702908428,"current_range_meters":24800,"station_id":"ce4bgth2rcd13ifvqch0","pricing_plan_id":"free"},{"bike_id":"e2c37289-bba8-4495-9ee2-fd2c4737de62","system_id":"levelo_inurba_marseille","lat":43.30304,"lon":5.368987,"is_reserved":false,"is_disabled":false,"rental_uris":{"android":"levelo://app?vid=e2c37289-bba8-4495-9ee2-fd2c4737de62","ios":"levelo://app?vid=e2c37289-bba8-4495-9ee2-fd2c4737de62"},"vehicle_type_id":"4","last_reported":1702908428,"current_range_meters":20000,"station_id":"ce4bgqh2rcd13ifvqc5g","pricing_plan_id":"free"},{"bike_id":"6556fddc-f353-496a-ba84-c0963c85b16d","system_id":"levelo_inurba_marseille","lat":43.303046,"lon":5.368981,"is_reserved":false,"is_disabled":false,"rental_uris":{"android":"levelo://app?vid=6556fddc-f353-496a-ba84-c0963c85b16d","ios":"levelo://app?vid=6556fddc-f353-496a-ba84-c0963c85b16d"},"vehicle_type_id":"4","last_reported":1702908428,"current_range_meters":27200,"station_id":"ce4bgqh2rcd13ifvqc5g","pricing_plan_id":"free"},{"bike_id":"388a6052-1fed-4443-b6bd-96f21ab0ec55","system_id":"levelo_inurba_marseille","lat":43.303046,"lon":5.368981,"is_reserved":false,"is_disabled":false,"rental_uris":{"android":"levelo://app?vid=388a6052-1fed-4443-b6bd-96f21ab0ec55","ios":"levelo://app?vid=388a6052-1fed-4443-b6bd-96f21ab0ec55"},"vehicle_type_id":"4","last_reported":1702908428,"current_range_meters":30000,"station_id":"ce4bgqh2rcd13ifvqc5g","pricing_plan_id":"free"},{"bike_id":"085e54ac-2fb1-4d9c-9e29-65b76a9cdbc4","system_id":"levelo_inurba_marseille","lat":43.301939,"lon":5.366286,"is_reserved":false,"is_disabled":false,"rental_uris":{"android":"levelo://app?vid=085e54ac-2fb1-4d9c-9e29-65b76a9cdbc4","ios":"levelo://app?vid=085e54ac-2fb1-4d9c-9e29-65b76a9cdbc4"},"vehicle_type_id":"4","last_reported":1702908428,"current_range_meters":26000,"station_id":"ce4bgrh2rcd13ifvqc8g","pricing_plan_id":"free"},{"bike_id":"e3d8e78e-dbf8-49d9-a855-2aa24afd53f7","system_id":"levelo_inurba_marseille","lat":43.30802,"lon":5.38142,"is_reserved":false,"is_disabled":false,"rental_uris":{"android":"levelo://app?vid=e3d8e78e-dbf8-49d9-a855-2aa24afd53f7","ios":"levelo://app?vid=e3d8e78e-dbf8-49d9-a855-2aa24afd53f7"},"vehicle_type_id":"4","last_reported":1702908428,"current_range_meters":24800,"station_id":"ce4bgt12rcd13ifvqce0","pricing_plan_id":"free"},{"bike_id":"56addad1-db4d-45b1-8e2f-36d7fe57f542","system_id":"levelo_inurba_marseille","lat":43.30798,"lon":5.38149,"is_reserved":false,"is_disabled":false,"rental_uris":{"android":"levelo://app?vid=56addad1-db4d-45b1-8e2f-36d7fe57f542","ios":"levelo://app?vid=56addad1-db4d-45b1-8e2f-36d7fe57f542"},"vehicle_type_id":"4","last_reported":1702908428,"current_range_meters":15600,"station_id":"ce4bgt12rcd13ifvqce0","pricing_plan_id":"free"},{"bike_id":"b6cfc78e-0dc6-45da-b303-ac4fbd826618","system_id":"levelo_inurba_marseille","lat":43.308,"lon":5.38151,"is_reserved":false,"is_disabled":false,"rental_uris":{"android":"levelo://app?vid=b6cfc78e-0dc6-45da-b303-ac4fbd826618","ios":"levelo://app?vid=b6cfc78e-0dc6-45da-b303-ac4fbd826618"},"vehicle_type_id":"4","last_reported":1702908428,"current_range_meters":2000,"station_id":"ce4bgt12rcd13ifvqce0","pricing_plan_id":"free"},{"bike_id":"e948b30d-1a90-481c-97a4-344af8a38ce0","system_id":"levelo_inurba_marseille","lat":43.30805,"lon":5.38158,"is_reserved":false,"is_disabled":false,"rental_uris":{"android":"levelo://app?vid=e948b30d-1a90-481c-97a4-344af8a38ce0","ios":"levelo://app?vid=e948b30d-1a90-481c-97a4-344af8a38ce0"},"vehicle_type_id":"4","last_reported":1702908428,"current_range_meters":20800,"station_id":"ce4bgt12rcd13ifvqce0","pricing_plan_id":"free"},{"bike_id":"3e68372d-e315-4249-87d9-f137027f0ee8","system_id":"levelo_inurba_marseille","lat":43.30801,"lon":5.3816,"is_reserved":false,"is_disabled":false,"rental_uris":{"android":"levelo://app?vid=3e68372d-e315-4249-87d9-f137027f0ee8","ios":"levelo://app?vid=3e68372d-e315-4249-87d9-f137027f0ee8"},"vehicle_type_id":"4","last_reported":1702908428,"current_range_meters":21600,"station_id":"ce4bgt12rcd13ifvqce0","pricing_plan_id":"free"},{"bike_id":"ba9dab49-1eda-4166-a246-691b2dd62560","system_id":"levelo_inurba_marseille","lat":43.304606,"lon":5.379026,"is_reserved":false,"is_disabled":false,"rental_uris":{"android":"levelo://app?vid=ba9dab49-1eda-4166-a246-691b2dd62560","ios":"levelo://app?vid=ba9dab49-1eda-4166-a246-691b2dd62560"},"vehicle_type_id":"4","last_reported":1702908428,"current_range_meters":0,"station_id":"ce4bgup2rcd13ifvqcn0","pricing_plan_id":"free"},{"bike_id":"8b97c3f1-bb5f-4c4b-bae8-74bcb68230ca","system_id":"levelo_inurba_marseille","lat":43.31065,"lon":5.38334,"is_reserved":false,"is_disabled":false,"rental_uris":{"android":"levelo://app?vid=8b97c3f1-bb5f-4c4b-bae8-74bcb68230ca","ios":"levelo://app?vid=8b97c3f1-bb5f-4c4b-bae8-74bcb68230ca"},"vehicle_type_id":"4","last_reported":1702908428,"current_range_meters":1200,"station_id":"","pricing_plan_id":"free"},{"bike_id":"07a376be-02e2-44de-a85d-9e028c589ebd","system_id":"levelo_inurba_marseille","lat":43.32483,"lon":5.3656,"is_reserved":false,"is_disabled":false,"rental_uris":{"android":"levelo://app?vid=07a376be-02e2-44de-a85d-9e028c589ebd","ios":"levelo://app?vid=07a376be-02e2-44de-a85d-9e028c589ebd"},"vehicle_type_id":"4","last_reported":1702908428,"current_range_meters":4800,"station_id":"ce4bhs12rcd13ifvqhvg","pricing_plan_id":"free"},{"bike_id":"185f555b-ac99-40ee-8bd5-2bf1973b7f08","system_id":"levelo_inurba_marseille","lat":43.30412,"lon":5.37891,"is_reserved":false,"is_disabled":false,"rental_uris":{"android":"levelo://app?vid=185f555b-ac99-40ee-8bd5-2bf1973b7f08","ios":"levelo://app?vid=185f555b-ac99-40ee-8bd5-2bf1973b7f08"},"vehicle_type_id":"4","last_reported":1702908428,"current_range_meters":15200,"station_id":"","pricing_plan_id":"free"},{"bike_id":"e385a076-bed4-4b4f-a53b-50382a0387c3","system_id":"levelo_inurba_marseille","lat":43.315,"lon":5.38382,"is_reserved":false,"is_disabled":false,"rental_uris":{"android":"levelo://app?vid=e385a076-bed4-4b4f-a53b-50382a0387c3","ios":"levelo://app?vid=e385a076-bed4-4b4f-a53b-50382a0387c3"},"vehicle_type_id":"4","last_reported":1702908428,"current_range_meters":14400,"station_id":"","pricing_plan_id":"free"},{"bike_id":"6e466a69-adbe-4011-8ebf-82051a17e97c","system_id":"levelo_inurba_marseille","lat":43.313571,"lon":5.384829,"is_reserved":false,"is_disabled":false,"rental_uris":{"android":"levelo://app?vid=6e466a69-adbe-4011-8ebf-82051a17e97c","ios":"levelo://app?vid=6e466a69-adbe-4011-8ebf-82051a17e97c"},"vehicle_type_id":"4","last_reported":1702908428,"current_range_meters":31200,"station_id":"ce4bgt92rcd13ifvqcf0","pricing_plan_id":"free"},{"bike_id":"07d5a6e2-d23d-42a6-84fa-30d13d01d939","system_id":"levelo_inurba_marseille","lat":43.313571,"lon":5.384829,"is_reserved":false,"is_disabled":false,"rental_uris":{"android":"levelo://app?vid=07d5a6e2-d23d-42a6-84fa-30d13d01d939","ios":"levelo://app?vid=07d5a6e2-d23d-42a6-84fa-30d13d01d939"},"vehicle_type_id":"4","last_reported":1702908428,"current_range_meters":26400,"station_id":"ce4bgt92rcd13ifvqcf0","pricing_plan_id":"free"},{"bike_id":"ef157e0f-7f03-4f2a-b5bc-11570eb6b3f8","system_id":"levelo_inurba_marseille","lat":43.313571,"lon":5.384829,"is_reserved":false,"is_disabled":false,"rental_uris":{"android":"levelo://app?vid=ef157e0f-7f03-4f2a-b5bc-11570eb6b3f8","ios":"levelo://app?vid=ef157e0f-7f03-4f2a-b5bc-11570eb6b3f8"},"vehicle_type_id":"4","last_reported":1702908428,"current_range_meters":19200,"station_id":"ce4bgt92rcd13ifvqcf0","pricing_plan_id":"free"},{"bike_id":"381eb466-1050-41f7-8e25-ace5a40d2930","system_id":"levelo_inurba_marseille","lat":43.313571,"lon":5.384829,"is_reserved":false,"is_disabled":false,"rental_uris":{"android":"levelo://app?vid=381eb466-1050-41f7-8e25-ace5a40d2930","ios":"levelo://app?vid=381eb466-1050-41f7-8e25-ace5a40d2930"},"vehicle_type_id":"4","last_reported":1702908428,"current_range_meters":31200,"station_id":"ce4bgt92rcd13ifvqcf0","pricing_plan_id":"free"},{"bike_id":"1495531f-6f34-4542-a22e-69ee80d2942a","system_id":"levelo_inurba_marseille","lat":43.313571,"lon":5.384829,"is_reserved":false,"is_disabled":false,"rental_uris":{"android":"levelo://app?vid=1495531f-6f34-4542-a22e-69ee80d2942a","ios":"levelo://app?vid=1495531f-6f34-4542-a22e-69ee80d2942a"},"vehicle_type_id":"4","last_reported":1702908428,"current_range_meters":14800,"station_id":"ce4bgt92rcd13ifvqcf0","pricing_plan_id":"free"},{"bike_id":"1acf53c9-b209-4141-b037-9cf4f89b50d2","system_id":"levelo_inurba_marseille","lat":43.313571,"lon":5.384829,"is_reserved":false,"is_disabled":false,"rental_uris":{"android":"levelo://app?vid=1acf53c9-b209-4141-b037-9cf4f89b50d2","ios":"levelo://app?vid=1acf53c9-b209-4141-b037-9cf4f89b50d2"},"vehicle_type_id":"4","last_reported":1702908428,"current_range_meters":27600,"station_id":"ce4bgt92rcd13ifvqcf0","pricing_plan_id":"free"},{"bike_id":"bdbc360e-8690-4b10-88f3-8f14540f3e21","system_id":"levelo_inurba_marseille","lat":43.313571,"lon":5.384829,"is_reserved":false,"is_disabled":false,"rental_uris":{"android":"levelo://app?vid=bdbc360e-8690-4b10-88f3-8f14540f3e21","ios":"levelo://app?vid=bdbc360e-8690-4b10-88f3-8f14540f3e21"},"vehicle_type_id":"4","last_reported":1702908428,"current_range_meters":28800,"station_id":"ce4bgt92rcd13ifvqcf0","pricing_plan_id":"free"},{"bike_id":"4db8bbd9-81a9-4ee8-89f5-49fd6191952f","system_id":"levelo_inurba_marseille","lat":43.299724,"lon":5.371829,"is_reserved":false,"is_disabled":false,"rental_uris":{"android":"levelo://app?vid=4db8bbd9-81a9-4ee8-89f5-49fd6191952f","ios":"levelo://app?vid=4db8bbd9-81a9-4ee8-89f5-49fd6191952f"},"vehicle_type_id":"4","last_reported":1702908428,"current_range_meters":14000,"station_id":"ce4bgr92rcd13ifvqc7g","pricing_plan_id":"free"},{"bike_id":"53523637-9974-40dc-9e11-8d39b0813161","system_id":"levelo_inurba_marseille","lat":43.298433,"lon":5.362774,"is_reserved":false,"is_disabled":false,"rental_uris":{"android":"levelo://app?vid=53523637-9974-40dc-9e11-8d39b0813161","ios":"levelo://app?vid=53523637-9974-40dc-9e11-8d39b0813161"},"vehicle_type_id":"4","last_reported":1702908428,"current_range_meters":9200,"station_id":"ce4bgpp2rcd13ifvqc3g","pricing_plan_id":"free"},{"bike_id":"0da5dbd7-260d-4b58-b781-f955742e4cf8","system_id":"levelo_inurba_marseille","lat":43.298433,"lon":5.362774,"is_reserved":false,"is_disabled":false,"rental_uris":{"android":"levelo://app?vid=0da5dbd7-260d-4b58-b781-f955742e4cf8","ios":"levelo://app?vid=0da5dbd7-260d-4b58-b781-f955742e4cf8"},"vehicle_type_id":"4","last_reported":1702908428,"current_range_meters":22000,"station_id":"ce4bgpp2rcd13ifvqc3g","pricing_plan_id":"free"},{"bike_id":"819cb438-2e9c-4e0b-902b-5e19ef554d5c","system_id":"levelo_inurba_marseille","lat":43.305445,"lon":5.384362,"is_reserved":false,"is_disabled":false,"rental_uris":{"android":"levelo://app?vid=819cb438-2e9c-4e0b-902b-5e19ef554d5c","ios":"levelo://app?vid=819cb438-2e9c-4e0b-902b-5e19ef554d5c"},"vehicle_type_id":"4","last_reported":1702908428,"current_range_meters":6400,"station_id":"ce4bgg92rcd13ifvqb30","pricing_plan_id":"free"},{"bike_id":"81f4a44a-dc77-4d03-91c4-e36b774b1041","system_id":"levelo_inurba_marseille","lat":43.299243,"lon":5.37481,"is_reserved":false,"is_disabled":false,"rental_uris":{"android":"levelo://app?vid=81f4a44a-dc77-4d03-91c4-e36b774b1041","ios":"levelo://app?vid=81f4a44a-dc77-4d03-91c4-e36b774b1041"},"vehicle_type_id":"4","last_reported":1702908428,"current_range_meters":1200,"station_id":"ce4bgjh2rcd13ifvqbg0","pricing_plan_id":"free"},{"bike_id":"2b4d8e34-362e-4054-8fa2-867bd0afd14d","system_id":"levelo_inurba_marseille","lat":43.311722,"lon":5.387247,"is_reserved":false,"is_disabled":false,"rental_uris":{"android":"levelo://app?vid=2b4d8e34-362e-4054-8fa2-867bd0afd14d","ios":"levelo://app?vid=2b4d8e34-362e-4054-8fa2-867bd0afd14d"},"vehicle_type_id":"4","last_reported":1702908428,"current_range_meters":27200,"station_id":"ce4bgv12rcd13ifvqcp0","pricing_plan_id":"free"},{"bike_id":"1c4e0be7-4a56-4d58-8b2f-9899334fc7b6","system_id":"levelo_inurba_marseille","lat":43.32825,"lon":5.36675,"is_reserved":false,"is_disabled":false,"rental_uris":{"android":"levelo://app?vid=1c4e0be7-4a56-4d58-8b2f-9899334fc7b6","ios":"levelo://app?vid=1c4e0be7-4a56-4d58-8b2f-9899334fc7b6"},"vehicle_type_id":"4","last_reported":1702908428,"current_range_meters":21200,"station_id":"ce4bhs92rcd13ifvqi0g","pricing_plan_id":"free"},{"bike_id":"814aab2b-8790-4698-a9f3-3d2c57592f68","system_id":"levelo_inurba_marseille","lat":43.297163,"lon":5.365866,"is_reserved":false,"is_disabled":false,"rental_uris":{"android":"levelo://app?vid=814aab2b-8790-4698-a9f3-3d2c57592f68","ios":"levelo://app?vid=814aab2b-8790-4698-a9f3-3d2c57592f68"},"vehicle_type_id":"4","last_reported":1702908428,"current_range_meters":20800,"station_id":"ce4bgn12rcd13ifvqbt0","pricing_plan_id":"free"},{"bike_id":"eef06348-2760-42ac-840f-f44bf4504307","system_id":"levelo_inurba_marseille","lat":43.299028,"lon":5.381509,"is_reserved":false,"is_disabled":false,"rental_uris":{"android":"levelo://app?vid=eef06348-2760-42ac-840f-f44bf4504307","ios":"levelo://app?vid=eef06348-2760-42ac-840f-f44bf4504307"},"vehicle_type_id":"4","last_reported":1702908428,"current_range_meters":22800,"station_id":"ce4bgj12rcd13ifvqbc0","pricing_plan_id":"free"},{"bike_id":"025f4c6e-d145-4a7f-a2d5-360fcc388921","system_id":"levelo_inurba_marseille","lat":43.30946,"lon":5.390175,"is_reserved":false,"is_disabled":false,"rental_uris":{"android":"levelo://app?vid=025f4c6e-d145-4a7f-a2d5-360fcc388921","ios":"levelo://app?vid=025f4c6e-d145-4a7f-a2d5-360fcc388921"},"vehicle_type_id":"4","last_reported":1702908428,"current_range_meters":0,"station_id":"ce4bgup2rcd13ifvqco0","pricing_plan_id":"free"},{"bike_id":"c39f19c2-6f6c-4690-b6f2-25618dc61a7a","system_id":"levelo_inurba_marseille","lat":43.309589,"lon":5.390258,"is_reserved":false,"is_disabled":false,"rental_uris":{"android":"levelo://app?vid=c39f19c2-6f6c-4690-b6f2-25618dc61a7a","ios":"levelo://app?vid=c39f19c2-6f6c-4690-b6f2-25618dc61a7a"},"vehicle_type_id":"4","last_reported":1702908428,"current_range_meters":800,"station_id":"ce4bgup2rcd13ifvqco0","pricing_plan_id":"free"},{"bike_id":"e62dea4f-317e-489d-a433-acb22a495d31","system_id":"levelo_inurba_marseille","lat":43.317557,"lon":5.390173,"is_reserved":false,"is_disabled":false,"rental_uris":{"android":"levelo://app?vid=e62dea4f-317e-489d-a433-acb22a495d31","ios":"levelo://app?vid=e62dea4f-317e-489d-a433-acb22a495d31"},"vehicle_type_id":"4","last_reported":1702908428,"current_range_meters":10400,"station_id":"ce4bhqp2rcd13ifvqhng","pricing_plan_id":"free"},{"bike_id":"59d6e0df-8b8a-46ff-8245-5dd0b7876e24","system_id":"levelo_inurba_marseille","lat":43.295748,"lon":5.37522,"is_reserved":false,"is_disabled":false,"rental_uris":{"android":"levelo://app?vid=59d6e0df-8b8a-46ff-8245-5dd0b7876e24","ios":"levelo://app?vid=59d6e0df-8b8a-46ff-8245-5dd0b7876e24"},"vehicle_type_id":"4","last_reported":1702908428,"current_range_meters":27600,"station_id":"ce4bgh92rcd13ifvqb50","pricing_plan_id":"free"},{"bike_id":"bc54abc5-4f09-4c90-bfb1-5514299eb9f6","system_id":"levelo_inurba_marseille","lat":43.304274,"lon":5.388873,"is_reserved":false,"is_disabled":false,"rental_uris":{"android":"levelo://app?vid=bc54abc5-4f09-4c90-bfb1-5514299eb9f6","ios":"levelo://app?vid=bc54abc5-4f09-4c90-bfb1-5514299eb9f6"},"vehicle_type_id":"4","last_reported":1702908428,"current_range_meters":25200,"station_id":"ce4bgk12rcd13ifvqbi0","pricing_plan_id":"free"},{"bike_id":"3bc2d10f-0839-4f87-bb40-3040e6908100","system_id":"levelo_inurba_marseille","lat":43.304278,"lon":5.388868,"is_reserved":false,"is_disabled":false,"rental_uris":{"android":"levelo://app?vid=3bc2d10f-0839-4f87-bb40-3040e6908100","ios":"levelo://app?vid=3bc2d10f-0839-4f87-bb40-3040e6908100"},"vehicle_type_id":"4","last_reported":1702908428,"current_range_meters":20400,"station_id":"ce4bgk12rcd13ifvqbi0","pricing_plan_id":"free"},{"bike_id":"b4863c92-28c6-4dab-9ccf-fd718f1b2026","system_id":"levelo_inurba_marseille","lat":43.299724,"lon":5.384848,"is_reserved":false,"is_disabled":false,"rental_uris":{"android":"levelo://app?vid=b4863c92-28c6-4dab-9ccf-fd718f1b2026","ios":"levelo://app?vid=b4863c92-28c6-4dab-9ccf-fd718f1b2026"},"vehicle_type_id":"4","last_reported":1702908428,"current_range_meters":18800,"station_id":"ce4bgj92rcd13ifvqbd0","pricing_plan_id":"free"},{"bike_id":"8837fb0e-fe21-41bb-a093-7f1764105404","system_id":"levelo_inurba_marseille","lat":43.29601,"lon":5.381084,"is_reserved":false,"is_disabled":false,"rental_uris":{"android":"levelo://app?vid=8837fb0e-fe21-41bb-a093-7f1764105404","ios":"levelo://app?vid=8837fb0e-fe21-41bb-a093-7f1764105404"},"vehicle_type_id":"4","last_reported":1702908428,"current_range_meters":0,"station_id":"ce4bgl12rcd13ifvqbo0","pricing_plan_id":"free"},{"bike_id":"2ade7473-2436-4e05-969a-b66ab28892b5","system_id":"levelo_inurba_marseille","lat":43.29601,"lon":5.381084,"is_reserved":false,"is_disabled":false,"rental_uris":{"android":"levelo://app?vid=2ade7473-2436-4e05-969a-b66ab28892b5","ios":"levelo://app?vid=2ade7473-2436-4e05-969a-b66ab28892b5"},"vehicle_type_id":"4","last_reported":1702908428,"current_range_meters":0,"station_id":"ce4bgl12rcd13ifvqbo0","pricing_plan_id":"free"},{"bike_id":"3ca47b18-cf6d-43b6-ab37-cd5fa9786737","system_id":"levelo_inurba_marseille","lat":43.292749,"lon":5.368402,"is_reserved":false,"is_disabled":false,"rental_uris":{"android":"levelo://app?vid=3ca47b18-cf6d-43b6-ab37-cd5fa9786737","ios":"levelo://app?vid=3ca47b18-cf6d-43b6-ab37-cd5fa9786737"},"vehicle_type_id":"4","last_reported":1702908428,"current_range_meters":23200,"station_id":"ce4bhbp2rcd13ifvqesg","pricing_plan_id":"free"},{"bike_id":"7c522955-3119-4efd-924e-df3b16864ad2","system_id":"levelo_inurba_marseille","lat":43.293009,"lon":5.374584,"is_reserved":false,"is_disabled":false,"rental_uris":{"android":"levelo://app?vid=7c522955-3119-4efd-924e-df3b16864ad2","ios":"levelo://app?vid=7c522955-3119-4efd-924e-df3b16864ad2"},"vehicle_type_id":"4","last_reported":1702908428,"current_range_meters":20800,"station_id":"ce4bgi12rcd13ifvqb70","pricing_plan_id":"free"},{"bike_id":"7db22f7e-7ae3-4fce-9666-504ba3fd1a03","system_id":"levelo_inurba_marseille","lat":43.293009,"lon":5.374584,"is_reserved":false,"is_disabled":false,"rental_uris":{"android":"levelo://app?vid=7db22f7e-7ae3-4fce-9666-504ba3fd1a03","ios":"levelo://app?vid=7db22f7e-7ae3-4fce-9666-504ba3fd1a03"},"vehicle_type_id":"4","last_reported":1702908428,"current_range_meters":30000,"station_id":"ce4bgi12rcd13ifvqb70","pricing_plan_id":"free"},{"bike_id":"99fc45e6-9c89-438a-afeb-bb0c5c6c1b47","system_id":"levelo_inurba_marseille","lat":43.293009,"lon":5.374584,"is_reserved":false,"is_disabled":false,"rental_uris":{"android":"levelo://app?vid=99fc45e6-9c89-438a-afeb-bb0c5c6c1b47","ios":"levelo://app?vid=99fc45e6-9c89-438a-afeb-bb0c5c6c1b47"},"vehicle_type_id":"4","last_reported":1702908428,"current_range_meters":25200,"station_id":"ce4bgi12rcd13ifvqb70","pricing_plan_id":"free"},{"bike_id":"ccee1b60-b6d8-411e-9e8c-640e5026c3ce","system_id":"levelo_inurba_marseille","lat":43.29296,"lon":5.37451,"is_reserved":false,"is_disabled":false,"rental_uris":{"android":"levelo://app?vid=ccee1b60-b6d8-411e-9e8c-640e5026c3ce","ios":"levelo://app?vid=ccee1b60-b6d8-411e-9e8c-640e5026c3ce"},"vehicle_type_id":"4","last_reported":1702908428,"current_range_meters":30800,"station_id":"ce4bgi12rcd13ifvqb70","pricing_plan_id":"free"},{"bike_id":"ff4e2d58-50d0-41fc-94c9-ec2f1467eb68","system_id":"levelo_inurba_marseille","lat":43.293009,"lon":5.374584,"is_reserved":false,"is_disabled":false,"rental_uris":{"android":"levelo://app?vid=ff4e2d58-50d0-41fc-94c9-ec2f1467eb68","ios":"levelo://app?vid=ff4e2d58-50d0-41fc-94c9-ec2f1467eb68"},"vehicle_type_id":"4","last_reported":1702908428,"current_range_meters":25600,"station_id":"ce4bgi12rcd13ifvqb70","pricing_plan_id":"free"},{"bike_id":"7e56b56a-9a99-4129-909d-60c90008b8cc","system_id":"levelo_inurba_marseille","lat":43.30602,"lon":5.39361,"is_reserved":false,"is_disabled":false,"rental_uris":{"android":"levelo://app?vid=7e56b56a-9a99-4129-909d-60c90008b8cc","ios":"levelo://app?vid=7e56b56a-9a99-4129-909d-60c90008b8cc"},"vehicle_type_id":"4","last_reported":1702908428,"current_range_meters":0,"station_id":"ce4bh0p2rcd13ifvqd80","pricing_plan_id":"free"},{"bike_id":"afcd19d4-ebc5-47b7-a066-971f2fef2d96","system_id":"levelo_inurba_marseille","lat":43.29295,"lon":5.37459,"is_reserved":false,"is_disabled":false,"rental_uris":{"android":"levelo://app?vid=afcd19d4-ebc5-47b7-a066-971f2fef2d96","ios":"levelo://app?vid=afcd19d4-ebc5-47b7-a066-971f2fef2d96"},"vehicle_type_id":"4","last_reported":1702908428,"current_range_meters":30400,"station_id":"ce4bgi12rcd13ifvqb70","pricing_plan_id":"free"},{"bike_id":"5b522f39-691e-4885-ba54-f76fafc75b38","system_id":"levelo_inurba_marseille","lat":43.305994,"lon":5.393687,"is_reserved":false,"is_disabled":false,"rental_uris":{"android":"levelo://app?vid=5b522f39-691e-4885-ba54-f76fafc75b38","ios":"levelo://app?vid=5b522f39-691e-4885-ba54-f76fafc75b38"},"vehicle_type_id":"4","last_reported":1702908428,"current_range_meters":400,"station_id":"ce4bh0p2rcd13ifvqd80","pricing_plan_id":"free"},{"bike_id":"bda548cb-52c5-4eb4-baf0-8ae66e5cf38b","system_id":"levelo_inurba_marseille","lat":43.293009,"lon":5.374584,"is_reserved":false,"is_disabled":false,"rental_uris":{"android":"levelo://app?vid=bda548cb-52c5-4eb4-baf0-8ae66e5cf38b","ios":"levelo://app?vid=bda548cb-52c5-4eb4-baf0-8ae66e5cf38b"},"vehicle_type_id":"4","last_reported":1702908428,"current_range_meters":19600,"station_id":"ce4bgi12rcd13ifvqb70","pricing_plan_id":"free"},{"bike_id":"94e4cafd-fe04-47f1-bac3-3fe33a8a3911","system_id":"levelo_inurba_marseille","lat":43.29292,"lon":5.37461,"is_reserved":false,"is_disabled":false,"rental_uris":{"android":"levelo://app?vid=94e4cafd-fe04-47f1-bac3-3fe33a8a3911","ios":"levelo://app?vid=94e4cafd-fe04-47f1-bac3-3fe33a8a3911"},"vehicle_type_id":"4","last_reported":1702908428,"current_range_meters":28400,"station_id":"ce4bgi12rcd13ifvqb70","pricing_plan_id":"free"},{"bike_id":"45f83e6c-dcaf-44ea-90fd-ebebaabe89ca","system_id":"levelo_inurba_marseille","lat":43.29289,"lon":5.37449,"is_reserved":false,"is_disabled":false,"rental_uris":{"android":"levelo://app?vid=45f83e6c-dcaf-44ea-90fd-ebebaabe89ca","ios":"levelo://app?vid=45f83e6c-dcaf-44ea-90fd-ebebaabe89ca"},"vehicle_type_id":"4","last_reported":1702908428,"current_range_meters":16800,"station_id":"ce4bgi12rcd13ifvqb70","pricing_plan_id":"free"},{"bike_id":"098e98a9-e812-480a-b434-f3ac7aa2c771","system_id":"levelo_inurba_marseille","lat":43.29371,"lon":5.37837,"is_reserved":false,"is_disabled":false,"rental_uris":{"android":"levelo://app?vid=098e98a9-e812-480a-b434-f3ac7aa2c771","ios":"levelo://app?vid=098e98a9-e812-480a-b434-f3ac7aa2c771"},"vehicle_type_id":"4","last_reported":1702908428,"current_range_meters":13200,"station_id":"ce4bgjh2rcd13ifvqbf0","pricing_plan_id":"free"},{"bike_id":"6904d358-5c6d-43a6-ab51-1b85e0caa2ed","system_id":"levelo_inurba_marseille","lat":43.29361,"lon":5.37844,"is_reserved":false,"is_disabled":false,"rental_uris":{"android":"levelo://app?vid=6904d358-5c6d-43a6-ab51-1b85e0caa2ed","ios":"levelo://app?vid=6904d358-5c6d-43a6-ab51-1b85e0caa2ed"},"vehicle_type_id":"4","last_reported":1702908428,"current_range_meters":28000,"station_id":"ce4bgjh2rcd13ifvqbf0","pricing_plan_id":"free"},{"bike_id":"f747611c-87f5-4ad7-a020-29255acecbbe","system_id":"levelo_inurba_marseille","lat":43.292235,"lon":5.360542,"is_reserved":false,"is_disabled":false,"rental_uris":{"android":"levelo://app?vid=f747611c-87f5-4ad7-a020-29255acecbbe","ios":"levelo://app?vid=f747611c-87f5-4ad7-a020-29255acecbbe"},"vehicle_type_id":"4","last_reported":1702908428,"current_range_meters":0,"station_id":"ce4bhbh2rcd13ifvqeqg","pricing_plan_id":"free"},{"bike_id":"43d8b6fa-796a-43a7-a91c-79acfc08cf96","system_id":"levelo_inurba_marseille","lat":43.294153,"lon":5.386305,"is_reserved":false,"is_disabled":false,"rental_uris":{"android":"levelo://app?vid=43d8b6fa-796a-43a7-a91c-79acfc08cf96","ios":"levelo://app?vid=43d8b6fa-796a-43a7-a91c-79acfc08cf96"},"vehicle_type_id":"4","last_reported":1702908428,"current_range_meters":12800,"station_id":"ce4bh2h2rcd13ifvqdh0","pricing_plan_id":"free"},{"bike_id":"84bf230a-f5c8-4b95-af72-16e087b02642","system_id":"levelo_inurba_marseille","lat":43.294162,"lon":5.386292,"is_reserved":false,"is_disabled":false,"rental_uris":{"android":"levelo://app?vid=84bf230a-f5c8-4b95-af72-16e087b02642","ios":"levelo://app?vid=84bf230a-f5c8-4b95-af72-16e087b02642"},"vehicle_type_id":"4","last_reported":1702908428,"current_range_meters":12000,"station_id":"ce4bh2h2rcd13ifvqdh0","pricing_plan_id":"free"},{"bike_id":"469747bb-1ce5-452d-b85b-97909f4d8207","system_id":"levelo_inurba_marseille","lat":43.289184,"lon":5.366408,"is_reserved":false,"is_disabled":false,"rental_uris":{"android":"levelo://app?vid=469747bb-1ce5-452d-b85b-97909f4d8207","ios":"levelo://app?vid=469747bb-1ce5-452d-b85b-97909f4d8207"},"vehicle_type_id":"4","last_reported":1702908428,"current_range_meters":5200,"station_id":"ce4bhap2rcd13ifvqek0","pricing_plan_id":"free"},{"bike_id":"c52cb444-72a8-4e4c-a897-4226b84985bd","system_id":"levelo_inurba_marseille","lat":43.28937,"lon":5.36628,"is_reserved":false,"is_disabled":false,"rental_uris":{"android":"levelo://app?vid=c52cb444-72a8-4e4c-a897-4226b84985bd","ios":"levelo://app?vid=c52cb444-72a8-4e4c-a897-4226b84985bd"},"vehicle_type_id":"4","last_reported":1702908428,"current_range_meters":20000,"station_id":"ce4bhap2rcd13ifvqek0","pricing_plan_id":"free"},{"bike_id":"fc1a093f-38d1-4c7a-a3e4-252cb4ba1001","system_id":"levelo_inurba_marseille","lat":43.28941,"lon":5.36413,"is_reserved":false,"is_disabled":false,"rental_uris":{"android":"levelo://app?vid=fc1a093f-38d1-4c7a-a3e4-252cb4ba1001","ios":"levelo://app?vid=fc1a093f-38d1-4c7a-a3e4-252cb4ba1001"},"vehicle_type_id":"4","last_reported":1702908428,"current_range_meters":4400,"station_id":"ce4bhc92rcd13ifvqetg","pricing_plan_id":"free"},{"bike_id":"e1a432ce-c1e6-44e5-9147-55c83512656c","system_id":"levelo_inurba_marseille","lat":43.2894,"lon":5.36396,"is_reserved":false,"is_disabled":false,"rental_uris":{"android":"levelo://app?vid=e1a432ce-c1e6-44e5-9147-55c83512656c","ios":"levelo://app?vid=e1a432ce-c1e6-44e5-9147-55c83512656c"},"vehicle_type_id":"4","last_reported":1702908428,"current_range_meters":21600,"station_id":"ce4bhc92rcd13ifvqetg","pricing_plan_id":"free"},{"bike_id":"138bf7c3-acce-4cca-b922-2c84e34ee718","system_id":"levelo_inurba_marseille","lat":43.289355,"lon":5.36401,"is_reserved":false,"is_disabled":false,"rental_uris":{"android":"levelo://app?vid=138bf7c3-acce-4cca-b922-2c84e34ee718","ios":"levelo://app?vid=138bf7c3-acce-4cca-b922-2c84e34ee718"},"vehicle_type_id":"4","last_reported":1702908428,"current_range_meters":2800,"station_id":"ce4bhc92rcd13ifvqetg","pricing_plan_id":"free"},{"bike_id":"c618c69a-919b-4120-b74a-f07bd7ac8598","system_id":"levelo_inurba_marseille","lat":43.289365,"lon":5.36384,"is_reserved":false,"is_disabled":false,"rental_uris":{"android":"levelo://app?vid=c618c69a-919b-4120-b74a-f07bd7ac8598","ios":"levelo://app?vid=c618c69a-919b-4120-b74a-f07bd7ac8598"},"vehicle_type_id":"4","last_reported":1702908428,"current_range_meters":27200,"station_id":"ce4bhc92rcd13ifvqetg","pricing_plan_id":"free"},{"bike_id":"2b3bc8de-a2ea-4f20-b0fd-cacf247fd391","system_id":"levelo_inurba_marseille","lat":43.292644,"lon":5.384257,"is_reserved":false,"is_disabled":false,"rental_uris":{"android":"levelo://app?vid=2b3bc8de-a2ea-4f20-b0fd-cacf247fd391","ios":"levelo://app?vid=2b3bc8de-a2ea-4f20-b0fd-cacf247fd391"},"vehicle_type_id":"4","last_reported":1702908428,"current_range_meters":12400,"station_id":"ce4bh692rcd13ifvqea0","pricing_plan_id":"free"},{"bike_id":"7a7aaba0-fc64-4e9e-9f4b-34b28c8a5784","system_id":"levelo_inurba_marseille","lat":43.292644,"lon":5.384257,"is_reserved":false,"is_disabled":false,"rental_uris":{"android":"levelo://app?vid=7a7aaba0-fc64-4e9e-9f4b-34b28c8a5784","ios":"levelo://app?vid=7a7aaba0-fc64-4e9e-9f4b-34b28c8a5784"},"vehicle_type_id":"4","last_reported":1702908428,"current_range_meters":26400,"station_id":"ce4bh692rcd13ifvqea0","pricing_plan_id":"free"},{"bike_id":"cf5c9730-3daa-40a2-9027-c782ea16f1c2","system_id":"levelo_inurba_marseille","lat":43.290104,"lon":5.356111,"is_reserved":false,"is_disabled":false,"rental_uris":{"android":"levelo://app?vid=cf5c9730-3daa-40a2-9027-c782ea16f1c2","ios":"levelo://app?vid=cf5c9730-3daa-40a2-9027-c782ea16f1c2"},"vehicle_type_id":"4","last_reported":1702908428,"current_range_meters":23200,"station_id":"ce4bhb92rcd13ifvqen0","pricing_plan_id":"free"},{"bike_id":"242f6b2f-9bf8-4d7a-8077-0b67ac502ad6","system_id":"levelo_inurba_marseille","lat":43.290104,"lon":5.356111,"is_reserved":false,"is_disabled":false,"rental_uris":{"android":"levelo://app?vid=242f6b2f-9bf8-4d7a-8077-0b67ac502ad6","ios":"levelo://app?vid=242f6b2f-9bf8-4d7a-8077-0b67ac502ad6"},"vehicle_type_id":"4","last_reported":1702908428,"current_range_meters":26800,"station_id":"ce4bhb92rcd13ifvqen0","pricing_plan_id":"free"},{"bike_id":"bb313665-8c58-42ae-b181-95ea39521368","system_id":"levelo_inurba_marseille","lat":43.290104,"lon":5.356111,"is_reserved":false,"is_disabled":false,"rental_uris":{"android":"levelo://app?vid=bb313665-8c58-42ae-b181-95ea39521368","ios":"levelo://app?vid=bb313665-8c58-42ae-b181-95ea39521368"},"vehicle_type_id":"4","last_reported":1702908428,"current_range_meters":16000,"station_id":"ce4bhb92rcd13ifvqen0","pricing_plan_id":"free"},{"bike_id":"9d8517a8-3ff7-4e7b-8725-2c550c2b0ca9","system_id":"levelo_inurba_marseille","lat":43.290104,"lon":5.356111,"is_reserved":false,"is_disabled":false,"rental_uris":{"android":"levelo://app?vid=9d8517a8-3ff7-4e7b-8725-2c550c2b0ca9","ios":"levelo://app?vid=9d8517a8-3ff7-4e7b-8725-2c550c2b0ca9"},"vehicle_type_id":"4","last_reported":1702908428,"current_range_meters":4000,"station_id":"ce4bhb92rcd13ifvqen0","pricing_plan_id":"free"},{"bike_id":"f44ee945-bd63-4f6c-8914-5f31df6b27ac","system_id":"levelo_inurba_marseille","lat":43.290104,"lon":5.356111,"is_reserved":false,"is_disabled":false,"rental_uris":{"android":"levelo://app?vid=f44ee945-bd63-4f6c-8914-5f31df6b27ac","ios":"levelo://app?vid=f44ee945-bd63-4f6c-8914-5f31df6b27ac"},"vehicle_type_id":"4","last_reported":1702908428,"current_range_meters":0,"station_id":"ce4bhb92rcd13ifvqen0","pricing_plan_id":"free"},{"bike_id":"e7543a9c-195c-4049-9229-e41bfae012fa","system_id":"levelo_inurba_marseille","lat":43.290103,"lon":5.356114,"is_reserved":false,"is_disabled":false,"rental_uris":{"android":"levelo://app?vid=e7543a9c-195c-4049-9229-e41bfae012fa","ios":"levelo://app?vid=e7543a9c-195c-4049-9229-e41bfae012fa"},"vehicle_type_id":"4","last_reported":1702908428,"current_range_meters":16400,"station_id":"ce4bhb92rcd13ifvqen0","pricing_plan_id":"free"},{"bike_id":"26528658-4f13-4b52-88a4-790b0a09f0d4","system_id":"levelo_inurba_marseille","lat":43.290104,"lon":5.356111,"is_reserved":false,"is_disabled":false,"rental_uris":{"android":"levelo://app?vid=26528658-4f13-4b52-88a4-790b0a09f0d4","ios":"levelo://app?vid=26528658-4f13-4b52-88a4-790b0a09f0d4"},"vehicle_type_id":"4","last_reported":1702908428,"current_range_meters":6000,"station_id":"ce4bhb92rcd13ifvqen0","pricing_plan_id":"free"},{"bike_id":"39b3f9d3-ea05-4cfc-931c-48afc3878eaf","system_id":"levelo_inurba_marseille","lat":43.290094,"lon":5.381264,"is_reserved":false,"is_disabled":false,"rental_uris":{"android":"levelo://app?vid=39b3f9d3-ea05-4cfc-931c-48afc3878eaf","ios":"levelo://app?vid=39b3f9d3-ea05-4cfc-931c-48afc3878eaf"},"vehicle_type_id":"4","last_reported":1702908428,"current_range_meters":25200,"station_id":"ce4bh4p2rcd13ifvqe1g","pricing_plan_id":"free"},{"bike_id":"13927d6e-c4cb-455f-aa69-a7435ae73913","system_id":"levelo_inurba_marseille","lat":43.29094,"lon":5.38153,"is_reserved":false,"is_disabled":false,"rental_uris":{"android":"levelo://app?vid=13927d6e-c4cb-455f-aa69-a7435ae73913","ios":"levelo://app?vid=13927d6e-c4cb-455f-aa69-a7435ae73913"},"vehicle_type_id":"4","last_reported":1702908428,"current_range_meters":16400,"station_id":"ce4bh512rcd13ifvqe2g","pricing_plan_id":"free"},{"bike_id":"1627719b-3544-4ae3-aae2-8fd8c7289217","system_id":"levelo_inurba_marseille","lat":43.29522,"lon":5.390193,"is_reserved":false,"is_disabled":false,"rental_uris":{"android":"levelo://app?vid=1627719b-3544-4ae3-aae2-8fd8c7289217","ios":"levelo://app?vid=1627719b-3544-4ae3-aae2-8fd8c7289217"},"vehicle_type_id":"4","last_reported":1702908428,"current_range_meters":31200,"station_id":"ce4bh3p2rcd13ifvqdp0","pricing_plan_id":"free"},{"bike_id":"09cc7ef5-4461-43a6-b752-07e1554692f4","system_id":"levelo_inurba_marseille","lat":43.297815,"lon":5.393548,"is_reserved":false,"is_disabled":false,"rental_uris":{"android":"levelo://app?vid=09cc7ef5-4461-43a6-b752-07e1554692f4","ios":"levelo://app?vid=09cc7ef5-4461-43a6-b752-07e1554692f4"},"vehicle_type_id":"4","last_reported":1702908428,"current_range_meters":27600,"station_id":"chh1huq6cuj3fo74tm60","pricing_plan_id":"free"},{"bike_id":"8e0757f7-8fb9-47b0-86a6-4906494feab5","system_id":"levelo_inurba_marseille","lat":43.289743,"lon":5.378304,"is_reserved":false,"is_disabled":false,"rental_uris":{"android":"levelo://app?vid=8e0757f7-8fb9-47b0-86a6-4906494feab5","ios":"levelo://app?vid=8e0757f7-8fb9-47b0-86a6-4906494feab5"},"vehicle_type_id":"4","last_reported":1702908428,"current_range_meters":23200,"station_id":"ce4bh9p2rcd13ifvqed0","pricing_plan_id":"free"},{"bike_id":"9fbea23f-a96d-4e40-b7a0-d54b61a507ab","system_id":"levelo_inurba_marseille","lat":43.28856,"lon":5.358371,"is_reserved":false,"is_disabled":false,"rental_uris":{"android":"levelo://app?vid=9fbea23f-a96d-4e40-b7a0-d54b61a507ab","ios":"levelo://app?vid=9fbea23f-a96d-4e40-b7a0-d54b61a507ab"},"vehicle_type_id":"4","last_reported":1702908428,"current_range_meters":16400,"station_id":"ce4bhb12rcd13ifvqem0","pricing_plan_id":"free"},{"bike_id":"2bd9de3c-9700-4969-bae8-7bd5d1cb9b89","system_id":"levelo_inurba_marseille","lat":43.28853,"lon":5.35855,"is_reserved":false,"is_disabled":false,"rental_uris":{"android":"levelo://app?vid=2bd9de3c-9700-4969-bae8-7bd5d1cb9b89","ios":"levelo://app?vid=2bd9de3c-9700-4969-bae8-7bd5d1cb9b89"},"vehicle_type_id":"4","last_reported":1702908428,"current_range_meters":25600,"station_id":"ce4bhb12rcd13ifvqem0","pricing_plan_id":"free"},{"bike_id":"2e76d585-3563-4eb9-8ac8-fa017e468c04","system_id":"levelo_inurba_marseille","lat":43.2901,"lon":5.381269,"is_reserved":false,"is_disabled":false,"rental_uris":{"android":"levelo://app?vid=2e76d585-3563-4eb9-8ac8-fa017e468c04","ios":"levelo://app?vid=2e76d585-3563-4eb9-8ac8-fa017e468c04"},"vehicle_type_id":"4","last_reported":1702908428,"current_range_meters":6000,"station_id":"ce4bh4p2rcd13ifvqe1g","pricing_plan_id":"free"},{"bike_id":"07475304-52d5-4c58-af50-5e789290ac12","system_id":"levelo_inurba_marseille","lat":43.2901,"lon":5.381269,"is_reserved":false,"is_disabled":false,"rental_uris":{"android":"levelo://app?vid=07475304-52d5-4c58-af50-5e789290ac12","ios":"levelo://app?vid=07475304-52d5-4c58-af50-5e789290ac12"},"vehicle_type_id":"4","last_reported":1702908428,"current_range_meters":2800,"station_id":"ce4bh4p2rcd13ifvqe1g","pricing_plan_id":"free"},{"bike_id":"6a68734a-d4cc-4377-ac07-ec392a32f3df","system_id":"levelo_inurba_marseille","lat":43.28856,"lon":5.358371,"is_reserved":false,"is_disabled":false,"rental_uris":{"android":"levelo://app?vid=6a68734a-d4cc-4377-ac07-ec392a32f3df","ios":"levelo://app?vid=6a68734a-d4cc-4377-ac07-ec392a32f3df"},"vehicle_type_id":"4","last_reported":1702908428,"current_range_meters":2800,"station_id":"ce4bhb12rcd13ifvqem0","pricing_plan_id":"free"},{"bike_id":"58964417-d611-4878-b14e-6202aa088dde","system_id":"levelo_inurba_marseille","lat":43.33756,"lon":5.37368,"is_reserved":false,"is_disabled":false,"rental_uris":{"android":"levelo://app?vid=58964417-d611-4878-b14e-6202aa088dde","ios":"levelo://app?vid=58964417-d611-4878-b14e-6202aa088dde"},"vehicle_type_id":"4","last_reported":1702908428,"current_range_meters":30800,"station_id":"","pricing_plan_id":"free"},{"bike_id":"1b288edf-7830-4561-9a83-2648aef24422","system_id":"levelo_inurba_marseille","lat":43.31281,"lon":5.40183,"is_reserved":false,"is_disabled":false,"rental_uris":{"android":"levelo://app?vid=1b288edf-7830-4561-9a83-2648aef24422","ios":"levelo://app?vid=1b288edf-7830-4561-9a83-2648aef24422"},"vehicle_type_id":"4","last_reported":1702908428,"current_range_meters":21200,"station_id":"ce4bh092rcd13ifvqd30","pricing_plan_id":"free"},{"bike_id":"6487007a-6dae-4764-9701-76b09173b1e5","system_id":"levelo_inurba_marseille","lat":43.33752,"lon":5.374613,"is_reserved":false,"is_disabled":false,"rental_uris":{"android":"levelo://app?vid=6487007a-6dae-4764-9701-76b09173b1e5","ios":"levelo://app?vid=6487007a-6dae-4764-9701-76b09173b1e5"},"vehicle_type_id":"4","last_reported":1702908428,"current_range_meters":12800,"station_id":"","pricing_plan_id":"free"},{"bike_id":"e61eb103-5a29-4cab-b61b-755c776e1d07","system_id":"levelo_inurba_marseille","lat":43.309371,"lon":5.401449,"is_reserved":false,"is_disabled":false,"rental_uris":{"android":"levelo://app?vid=e61eb103-5a29-4cab-b61b-755c776e1d07","ios":"levelo://app?vid=e61eb103-5a29-4cab-b61b-755c776e1d07"},"vehicle_type_id":"4","last_reported":1702908428,"current_range_meters":14000,"station_id":"ce4bgvp2rcd13ifvqct0","pricing_plan_id":"free"},{"bike_id":"fc8d24bb-0c26-4688-9bac-affcc075aa4d","system_id":"levelo_inurba_marseille","lat":43.3376,"lon":5.37455,"is_reserved":false,"is_disabled":false,"rental_uris":{"android":"levelo://app?vid=fc8d24bb-0c26-4688-9bac-affcc075aa4d","ios":"levelo://app?vid=fc8d24bb-0c26-4688-9bac-affcc075aa4d"},"vehicle_type_id":"4","last_reported":1702908428,"current_range_meters":28800,"station_id":"","pricing_plan_id":"free"},{"bike_id":"a278a7d7-a017-4563-a84f-f797474855da","system_id":"levelo_inurba_marseille","lat":43.30642,"lon":5.401031,"is_reserved":false,"is_disabled":false,"rental_uris":{"android":"levelo://app?vid=a278a7d7-a017-4563-a84f-f797474855da","ios":"levelo://app?vid=a278a7d7-a017-4563-a84f-f797474855da"},"vehicle_type_id":"4","last_reported":1702908428,"current_range_meters":28800,"station_id":"ce4bh112rcd13ifvqda0","pricing_plan_id":"free"},{"bike_id":"bcc93f7d-a3ed-4414-861c-3003087813ed","system_id":"levelo_inurba_marseille","lat":43.30128,"lon":5.39831,"is_reserved":false,"is_disabled":false,"rental_uris":{"android":"levelo://app?vid=bcc93f7d-a3ed-4414-861c-3003087813ed","ios":"levelo://app?vid=bcc93f7d-a3ed-4414-861c-3003087813ed"},"vehicle_type_id":"4","last_reported":1702908428,"current_range_meters":20800,"station_id":"ce4bh0h2rcd13ifvqd40","pricing_plan_id":"free"},{"bike_id":"59af53c5-7355-40a2-a1f3-4f66b8b75e51","system_id":"levelo_inurba_marseille","lat":43.301357,"lon":5.398463,"is_reserved":false,"is_disabled":false,"rental_uris":{"android":"levelo://app?vid=59af53c5-7355-40a2-a1f3-4f66b8b75e51","ios":"levelo://app?vid=59af53c5-7355-40a2-a1f3-4f66b8b75e51"},"vehicle_type_id":"4","last_reported":1702908428,"current_range_meters":22000,"station_id":"ce4bh0h2rcd13ifvqd40","pricing_plan_id":"free"},{"bike_id":"461becc9-e2f4-4ccf-97a3-0e3007a3d3a7","system_id":"levelo_inurba_marseille","lat":43.298681,"lon":5.397225,"is_reserved":false,"is_disabled":false,"rental_uris":{"android":"levelo://app?vid=461becc9-e2f4-4ccf-97a3-0e3007a3d3a7","ios":"levelo://app?vid=461becc9-e2f4-4ccf-97a3-0e3007a3d3a7"},"vehicle_type_id":"4","last_reported":1702908428,"current_range_meters":19200,"station_id":"ce4bh0h2rcd13ifvqd50","pricing_plan_id":"free"},{"bike_id":"46c94e2f-df8e-4d0d-bdd0-b77abd5c6040","system_id":"levelo_inurba_marseille","lat":43.298681,"lon":5.397225,"is_reserved":false,"is_disabled":false,"rental_uris":{"android":"levelo://app?vid=46c94e2f-df8e-4d0d-bdd0-b77abd5c6040","ios":"levelo://app?vid=46c94e2f-df8e-4d0d-bdd0-b77abd5c6040"},"vehicle_type_id":"4","last_reported":1702908428,"current_range_meters":7200,"station_id":"ce4bh0h2rcd13ifvqd50","pricing_plan_id":"free"},{"bike_id":"d3c4c810-edb1-4f0f-b4df-755f991e2a2c","system_id":"levelo_inurba_marseille","lat":43.286591,"lon":5.363346,"is_reserved":false,"is_disabled":false,"rental_uris":{"android":"levelo://app?vid=d3c4c810-edb1-4f0f-b4df-755f991e2a2c","ios":"levelo://app?vid=d3c4c810-edb1-4f0f-b4df-755f991e2a2c"},"vehicle_type_id":"4","last_reported":1702908428,"current_range_meters":9200,"station_id":"ce4bhah2rcd13ifvqej0","pricing_plan_id":"free"},{"bike_id":"c43f0a05-3f06-4eba-ac7f-e3aab36b247b","system_id":"levelo_inurba_marseille","lat":43.286593,"lon":5.363346,"is_reserved":false,"is_disabled":false,"rental_uris":{"android":"levelo://app?vid=c43f0a05-3f06-4eba-ac7f-e3aab36b247b","ios":"levelo://app?vid=c43f0a05-3f06-4eba-ac7f-e3aab36b247b"},"vehicle_type_id":"4","last_reported":1702908428,"current_range_meters":26800,"station_id":"ce4bhah2rcd13ifvqej0","pricing_plan_id":"free"},{"bike_id":"aa1ee429-abab-4b18-bf26-eb900d28aaf6","system_id":"levelo_inurba_marseille","lat":43.284538,"lon":5.358657,"is_reserved":false,"is_disabled":false,"rental_uris":{"android":"levelo://app?vid=aa1ee429-abab-4b18-bf26-eb900d28aaf6","ios":"levelo://app?vid=aa1ee429-abab-4b18-bf26-eb900d28aaf6"},"vehicle_type_id":"4","last_reported":1702908428,"current_range_meters":27200,"station_id":"ce4bhah2rcd13ifvqei0","pricing_plan_id":"free"},{"bike_id":"ef51117d-5354-4dae-acdf-181d9d094a8d","system_id":"levelo_inurba_marseille","lat":43.284538,"lon":5.358657,"is_reserved":false,"is_disabled":false,"rental_uris":{"android":"levelo://app?vid=ef51117d-5354-4dae-acdf-181d9d094a8d","ios":"levelo://app?vid=ef51117d-5354-4dae-acdf-181d9d094a8d"},"vehicle_type_id":"4","last_reported":1702908428,"current_range_meters":5600,"station_id":"ce4bhah2rcd13ifvqei0","pricing_plan_id":"free"},{"bike_id":"df0ce0b0-8ace-4435-bd6a-465884fb3816","system_id":"levelo_inurba_marseille","lat":43.284534,"lon":5.358662,"is_reserved":false,"is_disabled":false,"rental_uris":{"android":"levelo://app?vid=df0ce0b0-8ace-4435-bd6a-465884fb3816","ios":"levelo://app?vid=df0ce0b0-8ace-4435-bd6a-465884fb3816"},"vehicle_type_id":"4","last_reported":1702908428,"current_range_meters":30000,"station_id":"ce4bhah2rcd13ifvqei0","pricing_plan_id":"free"},{"bike_id":"ca65fbb8-4c79-4d40-9c1f-caca31888427","system_id":"levelo_inurba_marseille","lat":43.284534,"lon":5.358662,"is_reserved":false,"is_disabled":false,"rental_uris":{"android":"levelo://app?vid=ca65fbb8-4c79-4d40-9c1f-caca31888427","ios":"levelo://app?vid=ca65fbb8-4c79-4d40-9c1f-caca31888427"},"vehicle_type_id":"4","last_reported":1702908428,"current_range_meters":3600,"station_id":"ce4bhah2rcd13ifvqei0","pricing_plan_id":"free"},{"bike_id":"4d27f313-2775-420e-9470-af4457fc2870","system_id":"levelo_inurba_marseille","lat":43.28424,"lon":5.37522,"is_reserved":false,"is_disabled":false,"rental_uris":{"android":"levelo://app?vid=4d27f313-2775-420e-9470-af4457fc2870","ios":"levelo://app?vid=4d27f313-2775-420e-9470-af4457fc2870"},"vehicle_type_id":"4","last_reported":1702908428,"current_range_meters":13600,"station_id":"ce4bh412rcd13ifvqds0","pricing_plan_id":"free"},{"bike_id":"0defacfc-85ba-4d9b-9aba-955ee8606894","system_id":"levelo_inurba_marseille","lat":43.295713,"lon":5.399639,"is_reserved":false,"is_disabled":false,"rental_uris":{"android":"levelo://app?vid=0defacfc-85ba-4d9b-9aba-955ee8606894","ios":"levelo://app?vid=0defacfc-85ba-4d9b-9aba-955ee8606894"},"vehicle_type_id":"4","last_reported":1702908428,"current_range_meters":4800,"station_id":"ce4bh312rcd13ifvqdj0","pricing_plan_id":"free"},{"bike_id":"2dfa5049-0e1b-4839-b5c3-156910a65dbd","system_id":"levelo_inurba_marseille","lat":43.33218,"lon":5.397067,"is_reserved":false,"is_disabled":false,"rental_uris":{"android":"levelo://app?vid=2dfa5049-0e1b-4839-b5c3-156910a65dbd","ios":"levelo://app?vid=2dfa5049-0e1b-4839-b5c3-156910a65dbd"},"vehicle_type_id":"4","last_reported":1702908428,"current_range_meters":5200,"station_id":"","pricing_plan_id":"free"},{"bike_id":"42899751-ed63-44c7-b0cc-1899e9884783","system_id":"levelo_inurba_marseille","lat":43.286757,"lon":5.386663,"is_reserved":false,"is_disabled":false,"rental_uris":{"android":"levelo://app?vid=42899751-ed63-44c7-b0cc-1899e9884783","ios":"levelo://app?vid=42899751-ed63-44c7-b0cc-1899e9884783"},"vehicle_type_id":"4","last_reported":1702908428,"current_range_meters":10000,"station_id":"ce4bh492rcd13ifvqdug","pricing_plan_id":"free"},{"bike_id":"76ed1a54-38dd-49ea-983c-422ba156661a","system_id":"levelo_inurba_marseille","lat":43.319179,"lon":5.407725,"is_reserved":false,"is_disabled":false,"rental_uris":{"android":"levelo://app?vid=76ed1a54-38dd-49ea-983c-422ba156661a","ios":"levelo://app?vid=76ed1a54-38dd-49ea-983c-422ba156661a"},"vehicle_type_id":"4","last_reported":1702908428,"current_range_meters":11600,"station_id":"ce4bhq12rcd13ifvqhig","pricing_plan_id":"free"},{"bike_id":"c489507f-c310-4fc6-9558-9b80a81af1d9","system_id":"levelo_inurba_marseille","lat":43.323464,"lon":5.406297,"is_reserved":false,"is_disabled":false,"rental_uris":{"android":"levelo://app?vid=c489507f-c310-4fc6-9558-9b80a81af1d9","ios":"levelo://app?vid=c489507f-c310-4fc6-9558-9b80a81af1d9"},"vehicle_type_id":"4","last_reported":1702908428,"current_range_meters":28800,"station_id":"ce4bhq92rcd13ifvqhjg","pricing_plan_id":"free"},{"bike_id":"cea822ff-ec38-4ec1-940f-c97794a0b889","system_id":"levelo_inurba_marseille","lat":43.2848,"lon":5.38418,"is_reserved":false,"is_disabled":false,"rental_uris":{"android":"levelo://app?vid=cea822ff-ec38-4ec1-940f-c97794a0b889","ios":"levelo://app?vid=cea822ff-ec38-4ec1-940f-c97794a0b889"},"vehicle_type_id":"4","last_reported":1702908428,"current_range_meters":9600,"station_id":"ce4bh512rcd13ifvqe3g","pricing_plan_id":"free"},{"bike_id":"eb63a91d-3f8e-4e6a-820c-43ee1fa7e25d","system_id":"levelo_inurba_marseille","lat":43.284709,"lon":5.384146,"is_reserved":false,"is_disabled":false,"rental_uris":{"android":"levelo://app?vid=eb63a91d-3f8e-4e6a-820c-43ee1fa7e25d","ios":"levelo://app?vid=eb63a91d-3f8e-4e6a-820c-43ee1fa7e25d"},"vehicle_type_id":"4","last_reported":1702908428,"current_range_meters":23200,"station_id":"ce4bh512rcd13ifvqe3g","pricing_plan_id":"free"},{"bike_id":"67b3958a-7fea-4078-8a08-587587b6be6b","system_id":"levelo_inurba_marseille","lat":43.284793,"lon":5.384119,"is_reserved":false,"is_disabled":false,"rental_uris":{"android":"levelo://app?vid=67b3958a-7fea-4078-8a08-587587b6be6b","ios":"levelo://app?vid=67b3958a-7fea-4078-8a08-587587b6be6b"},"vehicle_type_id":"4","last_reported":1702908428,"current_range_meters":28800,"station_id":"ce4bh512rcd13ifvqe3g","pricing_plan_id":"free"},{"bike_id":"65bc8869-3354-4834-b272-c4a5c2ea27f1","system_id":"levelo_inurba_marseille","lat":43.288501,"lon":5.393087,"is_reserved":false,"is_disabled":false,"rental_uris":{"android":"levelo://app?vid=65bc8869-3354-4834-b272-c4a5c2ea27f1","ios":"levelo://app?vid=65bc8869-3354-4834-b272-c4a5c2ea27f1"},"vehicle_type_id":"4","last_reported":1702908428,"current_range_meters":8800,"station_id":"ce4bh2p2rcd13ifvqdi0","pricing_plan_id":"free"},{"bike_id":"71835d2c-6997-42c9-9032-bdce2b8ed02f","system_id":"levelo_inurba_marseille","lat":43.283498,"lon":5.380948,"is_reserved":false,"is_disabled":false,"rental_uris":{"android":"levelo://app?vid=71835d2c-6997-42c9-9032-bdce2b8ed02f","ios":"levelo://app?vid=71835d2c-6997-42c9-9032-bdce2b8ed02f"},"vehicle_type_id":"4","last_reported":1702908428,"current_range_meters":27600,"station_id":"ce4bh412rcd13ifvqdr0","pricing_plan_id":"free"},{"bike_id":"4750a7db-0b58-45be-b2a6-7f7ae8d3db56","system_id":"levelo_inurba_marseille","lat":43.284219,"lon":5.3497,"is_reserved":false,"is_disabled":false,"rental_uris":{"android":"levelo://app?vid=4750a7db-0b58-45be-b2a6-7f7ae8d3db56","ios":"levelo://app?vid=4750a7db-0b58-45be-b2a6-7f7ae8d3db56"},"vehicle_type_id":"4","last_reported":1702908428,"current_range_meters":22400,"station_id":"ce4bhbh2rcd13ifvqepg","pricing_plan_id":"free"},{"bike_id":"0cde0c70-075e-4609-a0b2-f445a0c5db88","system_id":"levelo_inurba_marseille","lat":43.28341,"lon":5.38119,"is_reserved":false,"is_disabled":false,"rental_uris":{"android":"levelo://app?vid=0cde0c70-075e-4609-a0b2-f445a0c5db88","ios":"levelo://app?vid=0cde0c70-075e-4609-a0b2-f445a0c5db88"},"vehicle_type_id":"4","last_reported":1702908428,"current_range_meters":14400,"station_id":"ce4bh412rcd13ifvqdr0","pricing_plan_id":"free"},{"bike_id":"1a23e290-f5d2-46d4-8f68-0532ce140f03","system_id":"levelo_inurba_marseille","lat":43.284219,"lon":5.3497,"is_reserved":false,"is_disabled":false,"rental_uris":{"android":"levelo://app?vid=1a23e290-f5d2-46d4-8f68-0532ce140f03","ios":"levelo://app?vid=1a23e290-f5d2-46d4-8f68-0532ce140f03"},"vehicle_type_id":"4","last_reported":1702908428,"current_range_meters":20800,"station_id":"ce4bhbh2rcd13ifvqepg","pricing_plan_id":"free"},{"bike_id":"20dae52a-43ce-458f-910f-4b58b145c190","system_id":"levelo_inurba_marseille","lat":43.28416,"lon":5.34992,"is_reserved":false,"is_disabled":false,"rental_uris":{"android":"levelo://app?vid=20dae52a-43ce-458f-910f-4b58b145c190","ios":"levelo://app?vid=20dae52a-43ce-458f-910f-4b58b145c190"},"vehicle_type_id":"4","last_reported":1702908428,"current_range_meters":19600,"station_id":"ce4bhbh2rcd13ifvqepg","pricing_plan_id":"free"},{"bike_id":"ff389810-ea92-4c33-8b66-6a4a00d9f6d1","system_id":"levelo_inurba_marseille","lat":43.284219,"lon":5.3497,"is_reserved":false,"is_disabled":false,"rental_uris":{"android":"levelo://app?vid=ff389810-ea92-4c33-8b66-6a4a00d9f6d1","ios":"levelo://app?vid=ff389810-ea92-4c33-8b66-6a4a00d9f6d1"},"vehicle_type_id":"4","last_reported":1702908428,"current_range_meters":15600,"station_id":"ce4bhbh2rcd13ifvqepg","pricing_plan_id":"free"},{"bike_id":"63937f00-79aa-4dea-877e-5d1eecd0759e","system_id":"levelo_inurba_marseille","lat":43.306412,"lon":5.401035,"is_reserved":false,"is_disabled":false,"rental_uris":{"android":"levelo://app?vid=63937f00-79aa-4dea-877e-5d1eecd0759e","ios":"levelo://app?vid=63937f00-79aa-4dea-877e-5d1eecd0759e"},"vehicle_type_id":"4","last_reported":1702908428,"current_range_meters":26800,"station_id":"ce4bh112rcd13ifvqda0","pricing_plan_id":"free"},{"bike_id":"7337027e-274d-407e-9d7d-0c9afa036e25","system_id":"levelo_inurba_marseille","lat":43.284217,"lon":5.349697,"is_reserved":false,"is_disabled":false,"rental_uris":{"android":"levelo://app?vid=7337027e-274d-407e-9d7d-0c9afa036e25","ios":"levelo://app?vid=7337027e-274d-407e-9d7d-0c9afa036e25"},"vehicle_type_id":"4","last_reported":1702908428,"current_range_meters":29600,"station_id":"ce4bhbh2rcd13ifvqepg","pricing_plan_id":"free"},{"bike_id":"438748bb-a8eb-4476-9d08-e27f00062ce6","system_id":"levelo_inurba_marseille","lat":43.289363,"lon":5.396322,"is_reserved":false,"is_disabled":false,"rental_uris":{"android":"levelo://app?vid=438748bb-a8eb-4476-9d08-e27f00062ce6","ios":"levelo://app?vid=438748bb-a8eb-4476-9d08-e27f00062ce6"},"vehicle_type_id":"4","last_reported":1702908428,"current_range_meters":23600,"station_id":"ce4bh3h2rcd13ifvqdn0","pricing_plan_id":"free"},{"bike_id":"c316e3bb-9c56-49b3-b7bf-c0e9e42adfa5","system_id":"levelo_inurba_marseille","lat":43.282754,"lon":5.350519,"is_reserved":false,"is_disabled":false,"rental_uris":{"android":"levelo://app?vid=c316e3bb-9c56-49b3-b7bf-c0e9e42adfa5","ios":"levelo://app?vid=c316e3bb-9c56-49b3-b7bf-c0e9e42adfa5"},"vehicle_type_id":"4","last_reported":1702908428,"current_range_meters":10800,"station_id":"ce4bhbp2rcd13ifvqerg","pricing_plan_id":"free"},{"bike_id":"1031608e-8c4f-4fe6-a6c6-3b734460756f","system_id":"levelo_inurba_marseille","lat":43.282754,"lon":5.350519,"is_reserved":false,"is_disabled":false,"rental_uris":{"android":"levelo://app?vid=1031608e-8c4f-4fe6-a6c6-3b734460756f","ios":"levelo://app?vid=1031608e-8c4f-4fe6-a6c6-3b734460756f"},"vehicle_type_id":"4","last_reported":1702908428,"current_range_meters":27600,"station_id":"ce4bhbp2rcd13ifvqerg","pricing_plan_id":"free"},{"bike_id":"8e7581a4-bee5-4330-a11e-65db4a112dd2","system_id":"levelo_inurba_marseille","lat":43.280331,"lon":5.369538,"is_reserved":false,"is_disabled":false,"rental_uris":{"android":"levelo://app?vid=8e7581a4-bee5-4330-a11e-65db4a112dd2","ios":"levelo://app?vid=8e7581a4-bee5-4330-a11e-65db4a112dd2"},"vehicle_type_id":"4","last_reported":1702908428,"current_range_meters":18800,"station_id":"ce4bha12rcd13ifvqef0","pricing_plan_id":"free"},{"bike_id":"c0d688ba-031a-436a-80d1-2247726be7e4","system_id":"levelo_inurba_marseille","lat":43.29041,"lon":5.399634,"is_reserved":false,"is_disabled":false,"rental_uris":{"android":"levelo://app?vid=c0d688ba-031a-436a-80d1-2247726be7e4","ios":"levelo://app?vid=c0d688ba-031a-436a-80d1-2247726be7e4"},"vehicle_type_id":"4","last_reported":1702908428,"current_range_meters":15200,"station_id":"ce4bh392rcd13ifvqdm0","pricing_plan_id":"free"},{"bike_id":"2b0df95d-242b-4ad6-915d-1e41ca072c74","system_id":"levelo_inurba_marseille","lat":43.281044,"lon":5.378308,"is_reserved":false,"is_disabled":false,"rental_uris":{"android":"levelo://app?vid=2b0df95d-242b-4ad6-915d-1e41ca072c74","ios":"levelo://app?vid=2b0df95d-242b-4ad6-915d-1e41ca072c74"},"vehicle_type_id":"4","last_reported":1702908428,"current_range_meters":31200,"station_id":"ce4bha12rcd13ifvqee0","pricing_plan_id":"free"},{"bike_id":"7afada19-f63c-41da-af75-028a9c6e36f6","system_id":"levelo_inurba_marseille","lat":43.281044,"lon":5.378308,"is_reserved":false,"is_disabled":false,"rental_uris":{"android":"levelo://app?vid=7afada19-f63c-41da-af75-028a9c6e36f6","ios":"levelo://app?vid=7afada19-f63c-41da-af75-028a9c6e36f6"},"vehicle_type_id":"4","last_reported":1702908428,"current_range_meters":28800,"station_id":"ce4bha12rcd13ifvqee0","pricing_plan_id":"free"},{"bike_id":"e1d2990a-12f4-4cb2-bbaf-713b9ffcb42c","system_id":"levelo_inurba_marseille","lat":43.326605,"lon":5.409903,"is_reserved":false,"is_disabled":false,"rental_uris":{"android":"levelo://app?vid=e1d2990a-12f4-4cb2-bbaf-713b9ffcb42c","ios":"levelo://app?vid=e1d2990a-12f4-4cb2-bbaf-713b9ffcb42c"},"vehicle_type_id":"4","last_reported":1702908428,"current_range_meters":25200,"station_id":"ce4bhpp2rcd13ifvqhgg","pricing_plan_id":"free"},{"bike_id":"77ed2528-1543-4106-bd28-8892d3718de9","system_id":"levelo_inurba_marseille","lat":43.326605,"lon":5.409903,"is_reserved":false,"is_disabled":false,"rental_uris":{"android":"levelo://app?vid=77ed2528-1543-4106-bd28-8892d3718de9","ios":"levelo://app?vid=77ed2528-1543-4106-bd28-8892d3718de9"},"vehicle_type_id":"4","last_reported":1702908428,"current_range_meters":4400,"station_id":"ce4bhpp2rcd13ifvqhgg","pricing_plan_id":"free"},{"bike_id":"f1d2142b-b297-4f5a-8765-0bf0e0e13ab7","system_id":"levelo_inurba_marseille","lat":43.304188,"lon":5.412904,"is_reserved":false,"is_disabled":false,"rental_uris":{"android":"levelo://app?vid=f1d2142b-b297-4f5a-8765-0bf0e0e13ab7","ios":"levelo://app?vid=f1d2142b-b297-4f5a-8765-0bf0e0e13ab7"},"vehicle_type_id":"4","last_reported":1702908428,"current_range_meters":6400,"station_id":"ce4bhop2rcd13ifvqh8g","pricing_plan_id":"free"},{"bike_id":"6968aa60-fcac-4e85-a54e-4a2c1101ee9e","system_id":"levelo_inurba_marseille","lat":43.304188,"lon":5.412904,"is_reserved":false,"is_disabled":false,"rental_uris":{"android":"levelo://app?vid=6968aa60-fcac-4e85-a54e-4a2c1101ee9e","ios":"levelo://app?vid=6968aa60-fcac-4e85-a54e-4a2c1101ee9e"},"vehicle_type_id":"4","last_reported":1702908428,"current_range_meters":20400,"station_id":"ce4bhop2rcd13ifvqh8g","pricing_plan_id":"free"},{"bike_id":"183d778e-f589-4b38-817a-00e1695949d6","system_id":"levelo_inurba_marseille","lat":43.287154,"lon":5.399979,"is_reserved":false,"is_disabled":false,"rental_uris":{"android":"levelo://app?vid=183d778e-f589-4b38-817a-00e1695949d6","ios":"levelo://app?vid=183d778e-f589-4b38-817a-00e1695949d6"},"vehicle_type_id":"4","last_reported":1702908428,"current_range_meters":10400,"station_id":"ce4bho92rcd13ifvqh3g","pricing_plan_id":"free"},{"bike_id":"224bcffd-86fc-4c77-ac09-12306f63094d","system_id":"levelo_inurba_marseille","lat":43.32536,"lon":5.41422,"is_reserved":false,"is_disabled":false,"rental_uris":{"android":"levelo://app?vid=224bcffd-86fc-4c77-ac09-12306f63094d","ios":"levelo://app?vid=224bcffd-86fc-4c77-ac09-12306f63094d"},"vehicle_type_id":"4","last_reported":1702908428,"current_range_meters":31200,"station_id":"ce4bhq12rcd13ifvqhhg","pricing_plan_id":"free"},{"bike_id":"8b89a6cf-b837-45b4-ae98-4ba2c5780b41","system_id":"levelo_inurba_marseille","lat":43.325243,"lon":5.414326,"is_reserved":false,"is_disabled":false,"rental_uris":{"android":"levelo://app?vid=8b89a6cf-b837-45b4-ae98-4ba2c5780b41","ios":"levelo://app?vid=8b89a6cf-b837-45b4-ae98-4ba2c5780b41"},"vehicle_type_id":"4","last_reported":1702908428,"current_range_meters":31200,"station_id":"ce4bhq12rcd13ifvqhhg","pricing_plan_id":"free"},{"bike_id":"89e6b058-34af-48e4-813a-1635d3ce5b0e","system_id":"levelo_inurba_marseille","lat":43.273613,"lon":5.362705,"is_reserved":false,"is_disabled":false,"rental_uris":{"android":"levelo://app?vid=89e6b058-34af-48e4-813a-1635d3ce5b0e","ios":"levelo://app?vid=89e6b058-34af-48e4-813a-1635d3ce5b0e"},"vehicle_type_id":"4","last_reported":1702908428,"current_range_meters":17200,"station_id":"ce4bhbh2rcd13ifvqeo0","pricing_plan_id":"free"},{"bike_id":"d0fcb2cb-2b67-4293-bdb4-c4b7d514fa86","system_id":"levelo_inurba_marseille","lat":43.273613,"lon":5.362705,"is_reserved":false,"is_disabled":false,"rental_uris":{"android":"levelo://app?vid=d0fcb2cb-2b67-4293-bdb4-c4b7d514fa86","ios":"levelo://app?vid=d0fcb2cb-2b67-4293-bdb4-c4b7d514fa86"},"vehicle_type_id":"4","last_reported":1702908428,"current_range_meters":26800,"station_id":"ce4bhbh2rcd13ifvqeo0","pricing_plan_id":"free"},{"bike_id":"f6d15e4d-9bcb-4cf3-a47e-c0f6bc60be7f","system_id":"levelo_inurba_marseille","lat":43.33603,"lon":5.41025,"is_reserved":false,"is_disabled":false,"rental_uris":{"android":"levelo://app?vid=f6d15e4d-9bcb-4cf3-a47e-c0f6bc60be7f","ios":"levelo://app?vid=f6d15e4d-9bcb-4cf3-a47e-c0f6bc60be7f"},"vehicle_type_id":"4","last_reported":1702908428,"current_range_meters":9200,"station_id":"ce4bhqh2rcd13ifvqhmg","pricing_plan_id":"free"},{"bike_id":"af0bcb7c-8253-48de-b760-acd5e084dff3","system_id":"levelo_inurba_marseille","lat":43.336148,"lon":5.410349,"is_reserved":false,"is_disabled":false,"rental_uris":{"android":"levelo://app?vid=af0bcb7c-8253-48de-b760-acd5e084dff3","ios":"levelo://app?vid=af0bcb7c-8253-48de-b760-acd5e084dff3"},"vehicle_type_id":"4","last_reported":1702908428,"current_range_meters":27200,"station_id":"ce4bhqh2rcd13ifvqhmg","pricing_plan_id":"free"},{"bike_id":"7b333bf3-627d-4c24-99e8-5813d0ce453d","system_id":"levelo_inurba_marseille","lat":43.276769,"lon":5.388787,"is_reserved":false,"is_disabled":false,"rental_uris":{"android":"levelo://app?vid=7b333bf3-627d-4c24-99e8-5813d0ce453d","ios":"levelo://app?vid=7b333bf3-627d-4c24-99e8-5813d0ce453d"},"vehicle_type_id":"4","last_reported":1702908428,"current_range_meters":11600,"station_id":"ce4bhi12rcd13ifvqfo0","pricing_plan_id":"free"},{"bike_id":"ba23a49f-f752-40f9-b881-d731ba920e07","system_id":"levelo_inurba_marseille","lat":43.32424,"lon":5.42019,"is_reserved":false,"is_disabled":false,"rental_uris":{"android":"levelo://app?vid=ba23a49f-f752-40f9-b881-d731ba920e07","ios":"levelo://app?vid=ba23a49f-f752-40f9-b881-d731ba920e07"},"vehicle_type_id":"4","last_reported":1702908428,"current_range_meters":28400,"station_id":"","pricing_plan_id":"free"},{"bike_id":"45669a11-f945-4e3c-89e6-8a7ec3366831","system_id":"levelo_inurba_marseille","lat":43.279952,"lon":5.400085,"is_reserved":false,"is_disabled":false,"rental_uris":{"android":"levelo://app?vid=45669a11-f945-4e3c-89e6-8a7ec3366831","ios":"levelo://app?vid=45669a11-f945-4e3c-89e6-8a7ec3366831"},"vehicle_type_id":"4","last_reported":1702908428,"current_range_meters":31200,"station_id":"ce4bho92rcd13ifvqh4g","pricing_plan_id":"free"},{"bike_id":"c86c6c50-f70e-4473-a698-ebe42bdc8921","system_id":"levelo_inurba_marseille","lat":43.279975,"lon":5.40009,"is_reserved":false,"is_disabled":false,"rental_uris":{"android":"levelo://app?vid=c86c6c50-f70e-4473-a698-ebe42bdc8921","ios":"levelo://app?vid=c86c6c50-f70e-4473-a698-ebe42bdc8921"},"vehicle_type_id":"4","last_reported":1702908428,"current_range_meters":4800,"station_id":"ce4bho92rcd13ifvqh4g","pricing_plan_id":"free"},{"bike_id":"18c68155-35a2-4f40-9479-3f9077d8ae2c","system_id":"levelo_inurba_marseille","lat":43.279952,"lon":5.400085,"is_reserved":false,"is_disabled":false,"rental_uris":{"android":"levelo://app?vid=18c68155-35a2-4f40-9479-3f9077d8ae2c","ios":"levelo://app?vid=18c68155-35a2-4f40-9479-3f9077d8ae2c"},"vehicle_type_id":"4","last_reported":1702908428,"current_range_meters":4800,"station_id":"ce4bho92rcd13ifvqh4g","pricing_plan_id":"free"},{"bike_id":"3ca2c2d2-99b0-4aa6-a05d-e30f02e6a7fb","system_id":"levelo_inurba_marseille","lat":43.276092,"lon":5.395289,"is_reserved":false,"is_disabled":false,"rental_uris":{"android":"levelo://app?vid=3ca2c2d2-99b0-4aa6-a05d-e30f02e6a7fb","ios":"levelo://app?vid=3ca2c2d2-99b0-4aa6-a05d-e30f02e6a7fb"},"vehicle_type_id":"4","last_reported":1702908428,"current_range_meters":13200,"station_id":"","pricing_plan_id":"free"},{"bike_id":"8d17c3a6-3cd6-49ba-9378-da5caa688461","system_id":"levelo_inurba_marseille","lat":43.273129,"lon":5.390725,"is_reserved":false,"is_disabled":false,"rental_uris":{"android":"levelo://app?vid=8d17c3a6-3cd6-49ba-9378-da5caa688461","ios":"levelo://app?vid=8d17c3a6-3cd6-49ba-9378-da5caa688461"},"vehicle_type_id":"4","last_reported":1702908428,"current_range_meters":21200,"station_id":"ce4bhgp2rcd13ifvqfe0","pricing_plan_id":"free"},{"bike_id":"3be05306-32ba-460c-830b-c3f5cb8fc928","system_id":"levelo_inurba_marseille","lat":43.29552,"lon":5.42276,"is_reserved":false,"is_disabled":false,"rental_uris":{"android":"levelo://app?vid=3be05306-32ba-460c-830b-c3f5cb8fc928","ios":"levelo://app?vid=3be05306-32ba-460c-830b-c3f5cb8fc928"},"vehicle_type_id":"4","last_reported":1702908428,"current_range_meters":28400,"station_id":"ce4bhph2rcd13ifvqhdg","pricing_plan_id":"free"},{"bike_id":"9cbe5e87-404e-4c09-afbe-5ee44247e5dc","system_id":"levelo_inurba_marseille","lat":43.295523,"lon":5.422926,"is_reserved":false,"is_disabled":false,"rental_uris":{"android":"levelo://app?vid=9cbe5e87-404e-4c09-afbe-5ee44247e5dc","ios":"levelo://app?vid=9cbe5e87-404e-4c09-afbe-5ee44247e5dc"},"vehicle_type_id":"4","last_reported":1702908428,"current_range_meters":32000,"station_id":"ce4bhph2rcd13ifvqhdg","pricing_plan_id":"free"},{"bike_id":"c5b44840-1601-43ac-abe9-c1e5b739efac","system_id":"levelo_inurba_marseille","lat":43.295523,"lon":5.422926,"is_reserved":false,"is_disabled":false,"rental_uris":{"android":"levelo://app?vid=c5b44840-1601-43ac-abe9-c1e5b739efac","ios":"levelo://app?vid=c5b44840-1601-43ac-abe9-c1e5b739efac"},"vehicle_type_id":"4","last_reported":1702908428,"current_range_meters":26800,"station_id":"ce4bhph2rcd13ifvqhdg","pricing_plan_id":"free"},{"bike_id":"628a1844-4de6-4ff8-b7b8-44bb12a39376","system_id":"levelo_inurba_marseille","lat":43.295511,"lon":5.422926,"is_reserved":false,"is_disabled":false,"rental_uris":{"android":"levelo://app?vid=628a1844-4de6-4ff8-b7b8-44bb12a39376","ios":"levelo://app?vid=628a1844-4de6-4ff8-b7b8-44bb12a39376"},"vehicle_type_id":"4","last_reported":1702908428,"current_range_meters":31600,"station_id":"ce4bhph2rcd13ifvqhdg","pricing_plan_id":"free"},{"bike_id":"35f4c7df-1dd1-49cd-b086-e9b64d14ba25","system_id":"levelo_inurba_marseille","lat":43.295511,"lon":5.422926,"is_reserved":false,"is_disabled":false,"rental_uris":{"android":"levelo://app?vid=35f4c7df-1dd1-49cd-b086-e9b64d14ba25","ios":"levelo://app?vid=35f4c7df-1dd1-49cd-b086-e9b64d14ba25"},"vehicle_type_id":"4","last_reported":1702908428,"current_range_meters":26000,"station_id":"ce4bhph2rcd13ifvqhdg","pricing_plan_id":"free"},{"bike_id":"fb094048-824a-49d1-905f-084ec3753a88","system_id":"levelo_inurba_marseille","lat":43.295523,"lon":5.422926,"is_reserved":false,"is_disabled":false,"rental_uris":{"android":"levelo://app?vid=fb094048-824a-49d1-905f-084ec3753a88","ios":"levelo://app?vid=fb094048-824a-49d1-905f-084ec3753a88"},"vehicle_type_id":"4","last_reported":1702908428,"current_range_meters":24800,"station_id":"ce4bhph2rcd13ifvqhdg","pricing_plan_id":"free"},{"bike_id":"9b8f5ce3-81d5-4ecb-80a2-771cfce35fc0","system_id":"levelo_inurba_marseille","lat":43.29547,"lon":5.42283,"is_reserved":false,"is_disabled":false,"rental_uris":{"android":"levelo://app?vid=9b8f5ce3-81d5-4ecb-80a2-771cfce35fc0","ios":"levelo://app?vid=9b8f5ce3-81d5-4ecb-80a2-771cfce35fc0"},"vehicle_type_id":"4","last_reported":1702908428,"current_range_meters":26000,"station_id":"ce4bhph2rcd13ifvqhdg","pricing_plan_id":"free"},{"bike_id":"60fb480d-277d-4567-b0b7-774f2407e034","system_id":"levelo_inurba_marseille","lat":43.272116,"lon":5.391747,"is_reserved":false,"is_disabled":false,"rental_uris":{"android":"levelo://app?vid=60fb480d-277d-4567-b0b7-774f2407e034","ios":"levelo://app?vid=60fb480d-277d-4567-b0b7-774f2407e034"},"vehicle_type_id":"4","last_reported":1702908428,"current_range_meters":23200,"station_id":"ce4bhhp2rcd13ifvqfm0","pricing_plan_id":"free"},{"bike_id":"7c5e5a9a-9f39-4a14-9573-d5b8ab599dd5","system_id":"levelo_inurba_marseille","lat":43.27188,"lon":5.39224,"is_reserved":false,"is_disabled":false,"rental_uris":{"android":"levelo://app?vid=7c5e5a9a-9f39-4a14-9573-d5b8ab599dd5","ios":"levelo://app?vid=7c5e5a9a-9f39-4a14-9573-d5b8ab599dd5"},"vehicle_type_id":"4","last_reported":1702908428,"current_range_meters":14000,"station_id":"ce4bhhp2rcd13ifvqfm0","pricing_plan_id":"free"},{"bike_id":"1f80699c-40aa-4da6-b399-d03c5ef2f22b","system_id":"levelo_inurba_marseille","lat":43.278128,"lon":5.407195,"is_reserved":false,"is_disabled":false,"rental_uris":{"android":"levelo://app?vid=1f80699c-40aa-4da6-b399-d03c5ef2f22b","ios":"levelo://app?vid=1f80699c-40aa-4da6-b399-d03c5ef2f22b"},"vehicle_type_id":"4","last_reported":1702908428,"current_range_meters":26000,"station_id":"ce4bhnh2rcd13ifvqgtg","pricing_plan_id":"free"},{"bike_id":"5fa474d5-f070-4086-b105-0c3f476d6cce","system_id":"levelo_inurba_marseille","lat":43.27808,"lon":5.4072,"is_reserved":false,"is_disabled":false,"rental_uris":{"android":"levelo://app?vid=5fa474d5-f070-4086-b105-0c3f476d6cce","ios":"levelo://app?vid=5fa474d5-f070-4086-b105-0c3f476d6cce"},"vehicle_type_id":"4","last_reported":1702908428,"current_range_meters":31200,"station_id":"ce4bhnh2rcd13ifvqgtg","pricing_plan_id":"free"},{"bike_id":"edc22ec7-54d3-43b7-bc2b-d13fcade1f20","system_id":"levelo_inurba_marseille","lat":43.269467,"lon":5.386439,"is_reserved":false,"is_disabled":false,"rental_uris":{"android":"levelo://app?vid=edc22ec7-54d3-43b7-bc2b-d13fcade1f20","ios":"levelo://app?vid=edc22ec7-54d3-43b7-bc2b-d13fcade1f20"},"vehicle_type_id":"4","last_reported":1702908428,"current_range_meters":20400,"station_id":"ce4bhh92rcd13ifvqfh0","pricing_plan_id":"free"},{"bike_id":"80ab57ea-ccf0-4ace-beb6-ba79104b604c","system_id":"levelo_inurba_marseille","lat":43.26951,"lon":5.38638,"is_reserved":false,"is_disabled":false,"rental_uris":{"android":"levelo://app?vid=80ab57ea-ccf0-4ace-beb6-ba79104b604c","ios":"levelo://app?vid=80ab57ea-ccf0-4ace-beb6-ba79104b604c"},"vehicle_type_id":"4","last_reported":1702908428,"current_range_meters":10800,"station_id":"ce4bhh92rcd13ifvqfh0","pricing_plan_id":"free"},{"bike_id":"667613aa-2fcf-436e-bbdc-1abad38f1798","system_id":"levelo_inurba_marseille","lat":43.279465,"lon":5.410561,"is_reserved":false,"is_disabled":false,"rental_uris":{"android":"levelo://app?vid=667613aa-2fcf-436e-bbdc-1abad38f1798","ios":"levelo://app?vid=667613aa-2fcf-436e-bbdc-1abad38f1798"},"vehicle_type_id":"4","last_reported":1702908428,"current_range_meters":30800,"station_id":"ce4bhnp2rcd13ifvqh0g","pricing_plan_id":"free"},{"bike_id":"0dd289f2-7f07-4556-8e26-e0ef8090caba","system_id":"levelo_inurba_marseille","lat":43.27951,"lon":5.41048,"is_reserved":false,"is_disabled":false,"rental_uris":{"android":"levelo://app?vid=0dd289f2-7f07-4556-8e26-e0ef8090caba","ios":"levelo://app?vid=0dd289f2-7f07-4556-8e26-e0ef8090caba"},"vehicle_type_id":"4","last_reported":1702908428,"current_range_meters":28000,"station_id":"ce4bhnp2rcd13ifvqh0g","pricing_plan_id":"free"},{"bike_id":"db774753-4382-453e-a138-c32d538f9839","system_id":"levelo_inurba_marseille","lat":43.358673,"lon":5.356887,"is_reserved":false,"is_disabled":false,"rental_uris":{"android":"levelo://app?vid=db774753-4382-453e-a138-c32d538f9839","ios":"levelo://app?vid=db774753-4382-453e-a138-c32d538f9839"},"vehicle_type_id":"4","last_reported":1702908428,"current_range_meters":9200,"station_id":"","pricing_plan_id":"free"},{"bike_id":"8eb84600-1c04-4b4d-bdde-460d93f2b923","system_id":"levelo_inurba_marseille","lat":43.26681,"lon":5.382694,"is_reserved":false,"is_disabled":false,"rental_uris":{"android":"levelo://app?vid=8eb84600-1c04-4b4d-bdde-460d93f2b923","ios":"levelo://app?vid=8eb84600-1c04-4b4d-bdde-460d93f2b923"},"vehicle_type_id":"4","last_reported":1702908428,"current_range_meters":24000,"station_id":"ce4bhg92rcd13ifvqf90","pricing_plan_id":"free"},{"bike_id":"0f2c72e1-4043-4b99-af93-f72baa411113","system_id":"levelo_inurba_marseille","lat":43.26681,"lon":5.382694,"is_reserved":false,"is_disabled":false,"rental_uris":{"android":"levelo://app?vid=0f2c72e1-4043-4b99-af93-f72baa411113","ios":"levelo://app?vid=0f2c72e1-4043-4b99-af93-f72baa411113"},"vehicle_type_id":"4","last_reported":1702908428,"current_range_meters":28800,"station_id":"ce4bhg92rcd13ifvqf90","pricing_plan_id":"free"},{"bike_id":"0519215d-32e4-4f20-abcf-50d7be4e3298","system_id":"levelo_inurba_marseille","lat":43.27996,"lon":5.416624,"is_reserved":false,"is_disabled":false,"rental_uris":{"android":"levelo://app?vid=0519215d-32e4-4f20-abcf-50d7be4e3298","ios":"levelo://app?vid=0519215d-32e4-4f20-abcf-50d7be4e3298"},"vehicle_type_id":"4","last_reported":1702908428,"current_range_meters":30000,"station_id":"ce4bho12rcd13ifvqh1g","pricing_plan_id":"free"},{"bike_id":"5abcec44-0c2c-47e1-96cd-ac237d9ab184","system_id":"levelo_inurba_marseille","lat":43.27996,"lon":5.416624,"is_reserved":false,"is_disabled":false,"rental_uris":{"android":"levelo://app?vid=5abcec44-0c2c-47e1-96cd-ac237d9ab184","ios":"levelo://app?vid=5abcec44-0c2c-47e1-96cd-ac237d9ab184"},"vehicle_type_id":"4","last_reported":1702908428,"current_range_meters":30800,"station_id":"ce4bho12rcd13ifvqh1g","pricing_plan_id":"free"},{"bike_id":"7a4d1ec5-2036-4a3e-944d-1ac76f41ce77","system_id":"levelo_inurba_marseille","lat":43.267966,"lon":5.393976,"is_reserved":false,"is_disabled":false,"rental_uris":{"android":"levelo://app?vid=7a4d1ec5-2036-4a3e-944d-1ac76f41ce77","ios":"levelo://app?vid=7a4d1ec5-2036-4a3e-944d-1ac76f41ce77"},"vehicle_type_id":"4","last_reported":1702908428,"current_range_meters":26800,"station_id":"ce4bhh12rcd13ifvqfg0","pricing_plan_id":"free"},{"bike_id":"8046100e-8d8b-4d12-b31f-962aa2bb75d3","system_id":"levelo_inurba_marseille","lat":43.267966,"lon":5.393976,"is_reserved":false,"is_disabled":false,"rental_uris":{"android":"levelo://app?vid=8046100e-8d8b-4d12-b31f-962aa2bb75d3","ios":"levelo://app?vid=8046100e-8d8b-4d12-b31f-962aa2bb75d3"},"vehicle_type_id":"4","last_reported":1702908428,"current_range_meters":22400,"station_id":"ce4bhh12rcd13ifvqfg0","pricing_plan_id":"free"},{"bike_id":"88241bb3-32ae-413c-bd93-0f8c9883baf2","system_id":"levelo_inurba_marseille","lat":43.267966,"lon":5.393976,"is_reserved":false,"is_disabled":false,"rental_uris":{"android":"levelo://app?vid=88241bb3-32ae-413c-bd93-0f8c9883baf2","ios":"levelo://app?vid=88241bb3-32ae-413c-bd93-0f8c9883baf2"},"vehicle_type_id":"4","last_reported":1702908428,"current_range_meters":28800,"station_id":"ce4bhh12rcd13ifvqfg0","pricing_plan_id":"free"},{"bike_id":"a8c4bac1-80d4-4b18-86ee-c7a5adca8974","system_id":"levelo_inurba_marseille","lat":43.265569,"lon":5.390047,"is_reserved":false,"is_disabled":false,"rental_uris":{"android":"levelo://app?vid=a8c4bac1-80d4-4b18-86ee-c7a5adca8974","ios":"levelo://app?vid=a8c4bac1-80d4-4b18-86ee-c7a5adca8974"},"vehicle_type_id":"4","last_reported":1702908428,"current_range_meters":22400,"station_id":"ce4bhe12rcd13ifvqf30","pricing_plan_id":"free"},{"bike_id":"6352a017-cf43-4fea-8956-6faf451434b7","system_id":"levelo_inurba_marseille","lat":43.2694,"lon":5.40253,"is_reserved":false,"is_disabled":false,"rental_uris":{"android":"levelo://app?vid=6352a017-cf43-4fea-8956-6faf451434b7","ios":"levelo://app?vid=6352a017-cf43-4fea-8956-6faf451434b7"},"vehicle_type_id":"4","last_reported":1702908428,"current_range_meters":20400,"station_id":"cjm6bp8fraef2m0cb0m0","pricing_plan_id":"free"},{"bike_id":"fc54f15d-57d6-40a5-ba49-b0d117fb54cc","system_id":"levelo_inurba_marseille","lat":43.26936,"lon":5.4025,"is_reserved":false,"is_disabled":false,"rental_uris":{"android":"levelo://app?vid=fc54f15d-57d6-40a5-ba49-b0d117fb54cc","ios":"levelo://app?vid=fc54f15d-57d6-40a5-ba49-b0d117fb54cc"},"vehicle_type_id":"4","last_reported":1702908428,"current_range_meters":16400,"station_id":"cjm6bp8fraef2m0cb0m0","pricing_plan_id":"free"},{"bike_id":"311ce0b8-92ad-4b04-a672-31e28252131f","system_id":"levelo_inurba_marseille","lat":43.26933,"lon":5.40253,"is_reserved":false,"is_disabled":false,"rental_uris":{"android":"levelo://app?vid=311ce0b8-92ad-4b04-a672-31e28252131f","ios":"levelo://app?vid=311ce0b8-92ad-4b04-a672-31e28252131f"},"vehicle_type_id":"4","last_reported":1702908428,"current_range_meters":0,"station_id":"cjm6bp8fraef2m0cb0m0","pricing_plan_id":"free"},{"bike_id":"2ba4b971-ed25-4f2d-9e67-3692ce21c223","system_id":"levelo_inurba_marseille","lat":43.261782,"lon":5.374515,"is_reserved":false,"is_disabled":false,"rental_uris":{"android":"levelo://app?vid=2ba4b971-ed25-4f2d-9e67-3692ce21c223","ios":"levelo://app?vid=2ba4b971-ed25-4f2d-9e67-3692ce21c223"},"vehicle_type_id":"4","last_reported":1702908428,"current_range_meters":20400,"station_id":"ce4bhgp2rcd13ifvqfc0","pricing_plan_id":"free"},{"bike_id":"5e6d78e5-8616-45f4-be7a-56fcfeb409a7","system_id":"levelo_inurba_marseille","lat":43.261782,"lon":5.374515,"is_reserved":false,"is_disabled":false,"rental_uris":{"android":"levelo://app?vid=5e6d78e5-8616-45f4-be7a-56fcfeb409a7","ios":"levelo://app?vid=5e6d78e5-8616-45f4-be7a-56fcfeb409a7"},"vehicle_type_id":"4","last_reported":1702908428,"current_range_meters":28000,"station_id":"ce4bhgp2rcd13ifvqfc0","pricing_plan_id":"free"},{"bike_id":"82a5db9c-6547-4fff-9924-089fbfd54557","system_id":"levelo_inurba_marseille","lat":43.261782,"lon":5.374515,"is_reserved":false,"is_disabled":false,"rental_uris":{"android":"levelo://app?vid=82a5db9c-6547-4fff-9924-089fbfd54557","ios":"levelo://app?vid=82a5db9c-6547-4fff-9924-089fbfd54557"},"vehicle_type_id":"4","last_reported":1702908428,"current_range_meters":29200,"station_id":"ce4bhgp2rcd13ifvqfc0","pricing_plan_id":"free"},{"bike_id":"a4cc3643-0b78-49ea-bb69-072a51937fbe","system_id":"levelo_inurba_marseille","lat":43.26189,"lon":5.37439,"is_reserved":false,"is_disabled":false,"rental_uris":{"android":"levelo://app?vid=a4cc3643-0b78-49ea-bb69-072a51937fbe","ios":"levelo://app?vid=a4cc3643-0b78-49ea-bb69-072a51937fbe"},"vehicle_type_id":"4","last_reported":1702908428,"current_range_meters":24800,"station_id":"","pricing_plan_id":"free"},{"bike_id":"b3c68b9d-3321-4fd9-bcfb-8bfd2b1be1f9","system_id":"levelo_inurba_marseille","lat":43.261782,"lon":5.374515,"is_reserved":false,"is_disabled":false,"rental_uris":{"android":"levelo://app?vid=b3c68b9d-3321-4fd9-bcfb-8bfd2b1be1f9","ios":"levelo://app?vid=b3c68b9d-3321-4fd9-bcfb-8bfd2b1be1f9"},"vehicle_type_id":"4","last_reported":1702908428,"current_range_meters":2800,"station_id":"ce4bhgp2rcd13ifvqfc0","pricing_plan_id":"free"},{"bike_id":"2d48a87c-e94d-47d8-a74a-399919744e4a","system_id":"levelo_inurba_marseille","lat":43.261782,"lon":5.374515,"is_reserved":false,"is_disabled":false,"rental_uris":{"android":"levelo://app?vid=2d48a87c-e94d-47d8-a74a-399919744e4a","ios":"levelo://app?vid=2d48a87c-e94d-47d8-a74a-399919744e4a"},"vehicle_type_id":"4","last_reported":1702908428,"current_range_meters":29600,"station_id":"ce4bhgp2rcd13ifvqfc0","pricing_plan_id":"free"},{"bike_id":"524ed846-4fbf-4d2f-8a66-ae44c466484e","system_id":"levelo_inurba_marseille","lat":43.261782,"lon":5.374515,"is_reserved":false,"is_disabled":false,"rental_uris":{"android":"levelo://app?vid=524ed846-4fbf-4d2f-8a66-ae44c466484e","ios":"levelo://app?vid=524ed846-4fbf-4d2f-8a66-ae44c466484e"},"vehicle_type_id":"4","last_reported":1702908428,"current_range_meters":30400,"station_id":"ce4bhgp2rcd13ifvqfc0","pricing_plan_id":"free"},{"bike_id":"ee1964dd-bd19-4163-8977-66dfe213996c","system_id":"levelo_inurba_marseille","lat":43.261782,"lon":5.374515,"is_reserved":false,"is_disabled":false,"rental_uris":{"android":"levelo://app?vid=ee1964dd-bd19-4163-8977-66dfe213996c","ios":"levelo://app?vid=ee1964dd-bd19-4163-8977-66dfe213996c"},"vehicle_type_id":"4","last_reported":1702908428,"current_range_meters":29600,"station_id":"ce4bhgp2rcd13ifvqfc0","pricing_plan_id":"free"},{"bike_id":"83c9141c-0e17-4ce9-bd02-a73d837efde8","system_id":"levelo_inurba_marseille","lat":43.317087,"lon":5.437017,"is_reserved":false,"is_disabled":false,"rental_uris":{"android":"levelo://app?vid=83c9141c-0e17-4ce9-bd02-a73d837efde8","ios":"levelo://app?vid=83c9141c-0e17-4ce9-bd02-a73d837efde8"},"vehicle_type_id":"4","last_reported":1702908428,"current_range_meters":12000,"station_id":"ce4bhp92rcd13ifvqhcg","pricing_plan_id":"free"},{"bike_id":"aed94823-987c-4f39-a8b9-00dab2638955","system_id":"levelo_inurba_marseille","lat":43.261782,"lon":5.374515,"is_reserved":false,"is_disabled":false,"rental_uris":{"android":"levelo://app?vid=aed94823-987c-4f39-a8b9-00dab2638955","ios":"levelo://app?vid=aed94823-987c-4f39-a8b9-00dab2638955"},"vehicle_type_id":"4","last_reported":1702908428,"current_range_meters":1600,"station_id":"ce4bhgp2rcd13ifvqfc0","pricing_plan_id":"free"},{"bike_id":"3965030c-a434-4f7c-80e8-4c16964e43ba","system_id":"levelo_inurba_marseille","lat":43.261782,"lon":5.374515,"is_reserved":false,"is_disabled":false,"rental_uris":{"android":"levelo://app?vid=3965030c-a434-4f7c-80e8-4c16964e43ba","ios":"levelo://app?vid=3965030c-a434-4f7c-80e8-4c16964e43ba"},"vehicle_type_id":"4","last_reported":1702908428,"current_range_meters":31200,"station_id":"ce4bhgp2rcd13ifvqfc0","pricing_plan_id":"free"},{"bike_id":"703b6509-8c35-4db9-ad24-8c18ddb8785e","system_id":"levelo_inurba_marseille","lat":43.26202,"lon":5.379299,"is_reserved":false,"is_disabled":false,"rental_uris":{"android":"levelo://app?vid=703b6509-8c35-4db9-ad24-8c18ddb8785e","ios":"levelo://app?vid=703b6509-8c35-4db9-ad24-8c18ddb8785e"},"vehicle_type_id":"4","last_reported":1702908428,"current_range_meters":30800,"station_id":"ce4bhjp2rcd13ifvqg90","pricing_plan_id":"free"},{"bike_id":"a9b751c7-fb62-4d8d-bf57-cafc734585f9","system_id":"levelo_inurba_marseille","lat":43.26202,"lon":5.379299,"is_reserved":false,"is_disabled":false,"rental_uris":{"android":"levelo://app?vid=a9b751c7-fb62-4d8d-bf57-cafc734585f9","ios":"levelo://app?vid=a9b751c7-fb62-4d8d-bf57-cafc734585f9"},"vehicle_type_id":"4","last_reported":1702908428,"current_range_meters":30400,"station_id":"ce4bhjp2rcd13ifvqg90","pricing_plan_id":"free"},{"bike_id":"a1ccfd96-36d1-43e3-b5f0-602d1cb178f7","system_id":"levelo_inurba_marseille","lat":43.271368,"lon":5.40928,"is_reserved":false,"is_disabled":false,"rental_uris":{"android":"levelo://app?vid=a1ccfd96-36d1-43e3-b5f0-602d1cb178f7","ios":"levelo://app?vid=a1ccfd96-36d1-43e3-b5f0-602d1cb178f7"},"vehicle_type_id":"4","last_reported":1702908428,"current_range_meters":26800,"station_id":"ce4bhl12rcd13ifvqgf0","pricing_plan_id":"free"},{"bike_id":"71561640-6952-426a-88e2-a4f5b28e1f23","system_id":"levelo_inurba_marseille","lat":43.265032,"lon":5.395322,"is_reserved":false,"is_disabled":false,"rental_uris":{"android":"levelo://app?vid=71561640-6952-426a-88e2-a4f5b28e1f23","ios":"levelo://app?vid=71561640-6952-426a-88e2-a4f5b28e1f23"},"vehicle_type_id":"4","last_reported":1702908428,"current_range_meters":0,"station_id":"","pricing_plan_id":"free"},{"bike_id":"8b000818-ee66-4afa-956c-06d1feec8088","system_id":"levelo_inurba_marseille","lat":43.298768,"lon":5.43643,"is_reserved":false,"is_disabled":false,"rental_uris":{"android":"levelo://app?vid=8b000818-ee66-4afa-956c-06d1feec8088","ios":"levelo://app?vid=8b000818-ee66-4afa-956c-06d1feec8088"},"vehicle_type_id":"4","last_reported":1702908428,"current_range_meters":32000,"station_id":"ce4bhpp2rcd13ifvqhfg","pricing_plan_id":"free"},{"bike_id":"be3c7518-3a90-4ace-b263-cbe424279bc2","system_id":"levelo_inurba_marseille","lat":43.298768,"lon":5.43643,"is_reserved":false,"is_disabled":false,"rental_uris":{"android":"levelo://app?vid=be3c7518-3a90-4ace-b263-cbe424279bc2","ios":"levelo://app?vid=be3c7518-3a90-4ace-b263-cbe424279bc2"},"vehicle_type_id":"4","last_reported":1702908428,"current_range_meters":30400,"station_id":"ce4bhpp2rcd13ifvqhfg","pricing_plan_id":"free"},{"bike_id":"8511549a-ea56-4454-9c7a-4281042c965e","system_id":"levelo_inurba_marseille","lat":43.298768,"lon":5.43643,"is_reserved":false,"is_disabled":false,"rental_uris":{"android":"levelo://app?vid=8511549a-ea56-4454-9c7a-4281042c965e","ios":"levelo://app?vid=8511549a-ea56-4454-9c7a-4281042c965e"},"vehicle_type_id":"4","last_reported":1702908428,"current_range_meters":24000,"station_id":"ce4bhpp2rcd13ifvqhfg","pricing_plan_id":"free"},{"bike_id":"3a6a45a0-22df-4a85-86d4-e6095ebe26d6","system_id":"levelo_inurba_marseille","lat":43.260225,"lon":5.375455,"is_reserved":false,"is_disabled":false,"rental_uris":{"android":"levelo://app?vid=3a6a45a0-22df-4a85-86d4-e6095ebe26d6","ios":"levelo://app?vid=3a6a45a0-22df-4a85-86d4-e6095ebe26d6"},"vehicle_type_id":"4","last_reported":1702908428,"current_range_meters":13200,"station_id":"ce4bhgh2rcd13ifvqfa0","pricing_plan_id":"free"},{"bike_id":"d2007443-4338-42cb-923c-147041d30edf","system_id":"levelo_inurba_marseille","lat":43.275028,"lon":5.424534,"is_reserved":false,"is_disabled":false,"rental_uris":{"android":"levelo://app?vid=d2007443-4338-42cb-923c-147041d30edf","ios":"levelo://app?vid=d2007443-4338-42cb-923c-147041d30edf"},"vehicle_type_id":"4","last_reported":1702908428,"current_range_meters":31200,"station_id":"ce4bhn92rcd13ifvqgrg","pricing_plan_id":"free"},{"bike_id":"6a24c9c2-0536-4d05-8056-8d8332f4bc28","system_id":"levelo_inurba_marseille","lat":43.275028,"lon":5.424534,"is_reserved":false,"is_disabled":false,"rental_uris":{"android":"levelo://app?vid=6a24c9c2-0536-4d05-8056-8d8332f4bc28","ios":"levelo://app?vid=6a24c9c2-0536-4d05-8056-8d8332f4bc28"},"vehicle_type_id":"4","last_reported":1702908428,"current_range_meters":31200,"station_id":"ce4bhn92rcd13ifvqgrg","pricing_plan_id":"free"},{"bike_id":"e556e286-fc2d-495d-9049-140edac504cc","system_id":"levelo_inurba_marseille","lat":43.258224,"lon":5.394369,"is_reserved":false,"is_disabled":false,"rental_uris":{"android":"levelo://app?vid=e556e286-fc2d-495d-9049-140edac504cc","ios":"levelo://app?vid=e556e286-fc2d-495d-9049-140edac504cc"},"vehicle_type_id":"4","last_reported":1702908428,"current_range_meters":28000,"station_id":"ce4bhip2rcd13ifvqft0","pricing_plan_id":"free"},{"bike_id":"57d795dc-eac6-4278-8a39-fc0e3f331682","system_id":"levelo_inurba_marseille","lat":43.258224,"lon":5.394369,"is_reserved":false,"is_disabled":false,"rental_uris":{"android":"levelo://app?vid=57d795dc-eac6-4278-8a39-fc0e3f331682","ios":"levelo://app?vid=57d795dc-eac6-4278-8a39-fc0e3f331682"},"vehicle_type_id":"4","last_reported":1702908428,"current_range_meters":21200,"station_id":"ce4bhip2rcd13ifvqft0","pricing_plan_id":"free"},{"bike_id":"f5075650-2824-4d3b-a7ef-e7bc4b7f03f1","system_id":"levelo_inurba_marseille","lat":43.255753,"lon":5.382293,"is_reserved":false,"is_disabled":false,"rental_uris":{"android":"levelo://app?vid=f5075650-2824-4d3b-a7ef-e7bc4b7f03f1","ios":"levelo://app?vid=f5075650-2824-4d3b-a7ef-e7bc4b7f03f1"},"vehicle_type_id":"4","last_reported":1702908428,"current_range_meters":31200,"station_id":"ce4bhih2rcd13ifvqfs0","pricing_plan_id":"free"},{"bike_id":"2a49bcf8-fdfb-41e1-91bd-16a50274d949","system_id":"levelo_inurba_marseille","lat":43.25506,"lon":5.37646,"is_reserved":false,"is_disabled":false,"rental_uris":{"android":"levelo://app?vid=2a49bcf8-fdfb-41e1-91bd-16a50274d949","ios":"levelo://app?vid=2a49bcf8-fdfb-41e1-91bd-16a50274d949"},"vehicle_type_id":"4","last_reported":1702908428,"current_range_meters":27600,"station_id":"ce4bhh12rcd13ifvqff0","pricing_plan_id":"free"},{"bike_id":"fdceae04-adce-4951-89fc-a39188c2b1d8","system_id":"levelo_inurba_marseille","lat":43.25575,"lon":5.38244,"is_reserved":false,"is_disabled":false,"rental_uris":{"android":"levelo://app?vid=fdceae04-adce-4951-89fc-a39188c2b1d8","ios":"levelo://app?vid=fdceae04-adce-4951-89fc-a39188c2b1d8"},"vehicle_type_id":"4","last_reported":1702908428,"current_range_meters":16400,"station_id":"ce4bhih2rcd13ifvqfs0","pricing_plan_id":"free"},{"bike_id":"c54dc5b4-d146-447c-8dc1-8eeed11c8dfb","system_id":"levelo_inurba_marseille","lat":43.25574,"lon":5.38239,"is_reserved":false,"is_disabled":false,"rental_uris":{"android":"levelo://app?vid=c54dc5b4-d146-447c-8dc1-8eeed11c8dfb","ios":"levelo://app?vid=c54dc5b4-d146-447c-8dc1-8eeed11c8dfb"},"vehicle_type_id":"4","last_reported":1702908428,"current_range_meters":29600,"station_id":"ce4bhih2rcd13ifvqfs0","pricing_plan_id":"free"},{"bike_id":"be658c3f-46cd-48f6-8564-6834cc59288a","system_id":"levelo_inurba_marseille","lat":43.2582,"lon":5.39444,"is_reserved":false,"is_disabled":false,"rental_uris":{"android":"levelo://app?vid=be658c3f-46cd-48f6-8564-6834cc59288a","ios":"levelo://app?vid=be658c3f-46cd-48f6-8564-6834cc59288a"},"vehicle_type_id":"4","last_reported":1702908428,"current_range_meters":31200,"station_id":"ce4bhip2rcd13ifvqft0","pricing_plan_id":"free"},{"bike_id":"2dade895-b0dd-45dd-a512-682c2c3c1128","system_id":"levelo_inurba_marseille","lat":43.258224,"lon":5.394369,"is_reserved":false,"is_disabled":false,"rental_uris":{"android":"levelo://app?vid=2dade895-b0dd-45dd-a512-682c2c3c1128","ios":"levelo://app?vid=2dade895-b0dd-45dd-a512-682c2c3c1128"},"vehicle_type_id":"4","last_reported":1702908428,"current_range_meters":31200,"station_id":"ce4bhip2rcd13ifvqft0","pricing_plan_id":"free"},{"bike_id":"29a9c5c8-a202-4a42-82bd-8f2dc973454b","system_id":"levelo_inurba_marseille","lat":43.25504,"lon":5.37647,"is_reserved":false,"is_disabled":false,"rental_uris":{"android":"levelo://app?vid=29a9c5c8-a202-4a42-82bd-8f2dc973454b","ios":"levelo://app?vid=29a9c5c8-a202-4a42-82bd-8f2dc973454b"},"vehicle_type_id":"4","last_reported":1702908428,"current_range_meters":30000,"station_id":"ce4bhh12rcd13ifvqff0","pricing_plan_id":"free"},{"bike_id":"c89dcb56-7515-448e-b5f6-fb6ed21417b0","system_id":"levelo_inurba_marseille","lat":43.25503,"lon":5.37651,"is_reserved":false,"is_disabled":false,"rental_uris":{"android":"levelo://app?vid=c89dcb56-7515-448e-b5f6-fb6ed21417b0","ios":"levelo://app?vid=c89dcb56-7515-448e-b5f6-fb6ed21417b0"},"vehicle_type_id":"4","last_reported":1702908428,"current_range_meters":28400,"station_id":"ce4bhh12rcd13ifvqff0","pricing_plan_id":"free"},{"bike_id":"554b9716-3962-44dd-9cdb-dc4e11773c87","system_id":"levelo_inurba_marseille","lat":43.25502,"lon":5.37653,"is_reserved":false,"is_disabled":false,"rental_uris":{"android":"levelo://app?vid=554b9716-3962-44dd-9cdb-dc4e11773c87","ios":"levelo://app?vid=554b9716-3962-44dd-9cdb-dc4e11773c87"},"vehicle_type_id":"4","last_reported":1702908428,"current_range_meters":30000,"station_id":"ce4bhh12rcd13ifvqff0","pricing_plan_id":"free"},{"bike_id":"60eede1b-ac4d-4892-9773-f8a5cb9486b9","system_id":"levelo_inurba_marseille","lat":43.255,"lon":5.3765,"is_reserved":false,"is_disabled":false,"rental_uris":{"android":"levelo://app?vid=60eede1b-ac4d-4892-9773-f8a5cb9486b9","ios":"levelo://app?vid=60eede1b-ac4d-4892-9773-f8a5cb9486b9"},"vehicle_type_id":"4","last_reported":1702908428,"current_range_meters":30400,"station_id":"ce4bhh12rcd13ifvqff0","pricing_plan_id":"free"},{"bike_id":"dfce80b5-08e1-440a-ba3d-beda3ac761c3","system_id":"levelo_inurba_marseille","lat":43.25567,"lon":5.38253,"is_reserved":false,"is_disabled":false,"rental_uris":{"android":"levelo://app?vid=dfce80b5-08e1-440a-ba3d-beda3ac761c3","ios":"levelo://app?vid=dfce80b5-08e1-440a-ba3d-beda3ac761c3"},"vehicle_type_id":"4","last_reported":1702908428,"current_range_meters":23200,"station_id":"ce4bhih2rcd13ifvqfs0","pricing_plan_id":"free"},{"bike_id":"aca2dcca-a316-4f0c-ac24-39f4a3a60bd2","system_id":"levelo_inurba_marseille","lat":43.254947,"lon":5.376454,"is_reserved":false,"is_disabled":false,"rental_uris":{"android":"levelo://app?vid=aca2dcca-a316-4f0c-ac24-39f4a3a60bd2","ios":"levelo://app?vid=aca2dcca-a316-4f0c-ac24-39f4a3a60bd2"},"vehicle_type_id":"4","last_reported":1702908428,"current_range_meters":31200,"station_id":"ce4bhh12rcd13ifvqff0","pricing_plan_id":"free"},{"bike_id":"4d469496-71d0-4f63-b300-b1643c7f62d5","system_id":"levelo_inurba_marseille","lat":43.254947,"lon":5.376454,"is_reserved":false,"is_disabled":false,"rental_uris":{"android":"levelo://app?vid=4d469496-71d0-4f63-b300-b1643c7f62d5","ios":"levelo://app?vid=4d469496-71d0-4f63-b300-b1643c7f62d5"},"vehicle_type_id":"4","last_reported":1702908428,"current_range_meters":30800,"station_id":"ce4bhh12rcd13ifvqff0","pricing_plan_id":"free"},{"bike_id":"7a9267be-4473-4dcb-95ca-c72dd15b0db6","system_id":"levelo_inurba_marseille","lat":43.254947,"lon":5.376454,"is_reserved":false,"is_disabled":false,"rental_uris":{"android":"levelo://app?vid=7a9267be-4473-4dcb-95ca-c72dd15b0db6","ios":"levelo://app?vid=7a9267be-4473-4dcb-95ca-c72dd15b0db6"},"vehicle_type_id":"4","last_reported":1702908428,"current_range_meters":31200,"station_id":"ce4bhh12rcd13ifvqff0","pricing_plan_id":"free"},{"bike_id":"fe246cc1-9e05-408f-96d5-f0c10c79350c","system_id":"levelo_inurba_marseille","lat":43.270721,"lon":5.422764,"is_reserved":false,"is_disabled":false,"rental_uris":{"android":"levelo://app?vid=fe246cc1-9e05-408f-96d5-f0c10c79350c","ios":"levelo://app?vid=fe246cc1-9e05-408f-96d5-f0c10c79350c"},"vehicle_type_id":"4","last_reported":1702908428,"current_range_meters":25200,"station_id":"ce4bhk92rcd13ifvqgb0","pricing_plan_id":"free"},{"bike_id":"b2d018d9-a87f-495b-83b6-187abcc3a2c3","system_id":"levelo_inurba_marseille","lat":43.258658,"lon":5.398935,"is_reserved":false,"is_disabled":false,"rental_uris":{"android":"levelo://app?vid=b2d018d9-a87f-495b-83b6-187abcc3a2c3","ios":"levelo://app?vid=b2d018d9-a87f-495b-83b6-187abcc3a2c3"},"vehicle_type_id":"4","last_reported":1702908428,"current_range_meters":24400,"station_id":"ce4bhl92rcd13ifvqghg","pricing_plan_id":"free"},{"bike_id":"5420a08a-6c87-499e-beec-30fc66b08773","system_id":"levelo_inurba_marseille","lat":43.2594,"lon":5.40903,"is_reserved":false,"is_disabled":false,"rental_uris":{"android":"levelo://app?vid=5420a08a-6c87-499e-beec-30fc66b08773","ios":"levelo://app?vid=5420a08a-6c87-499e-beec-30fc66b08773"},"vehicle_type_id":"4","last_reported":1702908428,"current_range_meters":21600,"station_id":"ce4bhm92rcd13ifvqglg","pricing_plan_id":"free"},{"bike_id":"a1e96a51-911c-4a70-ab8f-59bdd053ef9a","system_id":"levelo_inurba_marseille","lat":43.25933,"lon":5.40903,"is_reserved":false,"is_disabled":false,"rental_uris":{"android":"levelo://app?vid=a1e96a51-911c-4a70-ab8f-59bdd053ef9a","ios":"levelo://app?vid=a1e96a51-911c-4a70-ab8f-59bdd053ef9a"},"vehicle_type_id":"4","last_reported":1702908428,"current_range_meters":14400,"station_id":"ce4bhm92rcd13ifvqglg","pricing_plan_id":"free"},{"bike_id":"418b19ae-6fb6-4d94-bab6-c8b738cb1c25","system_id":"levelo_inurba_marseille","lat":43.25933,"lon":5.40913,"is_reserved":false,"is_disabled":false,"rental_uris":{"android":"levelo://app?vid=418b19ae-6fb6-4d94-bab6-c8b738cb1c25","ios":"levelo://app?vid=418b19ae-6fb6-4d94-bab6-c8b738cb1c25"},