{"last_updated":1703900518,"ttl":30,"version":"2.2","data":{"bikes":[{"bike_id":"9974c7f4-75d6-47bd-b70d-4c0d8ebeeeea","system_id":"levelo_inurba_marseille","lat":43.31353,"lon":5.36721,"is_reserved":false,"is_disabled":false,"rental_uris":{"android":"levelo://app?vid=9974c7f4-75d6-47bd-b70d-4c0d8ebeeeea","ios":"levelo://app?vid=9974c7f4-75d6-47bd-b70d-4c0d8ebeeeea"},"vehicle_type_id":"4","last_reported":1703900519,"current_range_meters":27600,"station_id":"ce4bgr92rcd13ifvqc6g","pricing_plan_id":"free"},{"bike_id":"ff137c09-0d7a-4a2b-84ed-2e491e740c53","system_id":"levelo_inurba_marseille","lat":43.312239,"lon":5.368562,"is_reserved":false,"is_disabled":false,"rental_uris":{"android":"levelo://app?vid=ff137c09-0d7a-4a2b-84ed-2e491e740c53","ios":"levelo://app?vid=ff137c09-0d7a-4a2b-84ed-2e491e740c53"},"vehicle_type_id":"4","last_reported":1703900519,"current_range_meters":24000,"station_id":"ce4bgl92rcd13ifvqbq0","pricing_plan_id":"free"},{"bike_id":"fd9c0ff1-2d53-44d9-a3cc-2fb48f43eead","system_id":"levelo_inurba_marseille","lat":43.30908,"lon":5.36839,"is_reserved":false,"is_disabled":false,"rental_uris":{"android":"levelo://app?vid=fd9c0ff1-2d53-44d9-a3cc-2fb48f43eead","ios":"levelo://app?vid=fd9c0ff1-2d53-44d9-a3cc-2fb48f43eead"},"vehicle_type_id":"4","last_reported":1703900519,"current_range_meters":1600,"station_id":"ce4bgn92rcd13ifvqbvg","pricing_plan_id":"free"},{"bike_id":"2f2fd234-a029-4df5-a477-102baf8f1ccc","system_id":"levelo_inurba_marseille","lat":43.314811,"lon":5.373103,"is_reserved":false,"is_disabled":false,"rental_uris":{"android":"levelo://app?vid=2f2fd234-a029-4df5-a477-102baf8f1ccc","ios":"levelo://app?vid=2f2fd234-a029-4df5-a477-102baf8f1ccc"},"vehicle_type_id":"4","last_reported":1703900519,"current_range_meters":1200,"station_id":"ce4bgt12rcd13ifvqcd0","pricing_plan_id":"free"},{"bike_id":"6d85e3df-9690-428d-8534-cca063e14399","system_id":"levelo_inurba_marseille","lat":43.309039,"lon":5.371797,"is_reserved":false,"is_disabled":false,"rental_uris":{"android":"levelo://app?vid=6d85e3df-9690-428d-8534-cca063e14399","ios":"levelo://app?vid=6d85e3df-9690-428d-8534-cca063e14399"},"vehicle_type_id":"4","last_reported":1703900519,"current_range_meters":30000,"station_id":"ce4bguh2rcd13ifvqckg","pricing_plan_id":"free"},{"bike_id":"82693216-4ed1-4609-a4e4-6a3a13381bcd","system_id":"levelo_inurba_marseille","lat":43.309039,"lon":5.371797,"is_reserved":false,"is_disabled":false,"rental_uris":{"android":"levelo://app?vid=82693216-4ed1-4609-a4e4-6a3a13381bcd","ios":"levelo://app?vid=82693216-4ed1-4609-a4e4-6a3a13381bcd"},"vehicle_type_id":"4","last_reported":1703900519,"current_range_meters":18400,"station_id":"ce4bguh2rcd13ifvqckg","pricing_plan_id":"free"},{"bike_id":"2bf1159c-4b34-4bc3-a8b5-156be571c011","system_id":"levelo_inurba_marseille","lat":43.307843,"lon":5.373431,"is_reserved":false,"is_disabled":false,"rental_uris":{"android":"levelo://app?vid=2bf1159c-4b34-4bc3-a8b5-156be571c011","ios":"levelo://app?vid=2bf1159c-4b34-4bc3-a8b5-156be571c011"},"vehicle_type_id":"4","last_reported":1703900519,"current_range_meters":29600,"station_id":"","pricing_plan_id":"free"},{"bike_id":"a5aac7fd-33ca-46a3-98d8-21e6de83a247","system_id":"levelo_inurba_marseille","lat":43.318194,"lon":5.372968,"is_reserved":false,"is_disabled":false,"rental_uris":{"android":"levelo://app?vid=a5aac7fd-33ca-46a3-98d8-21e6de83a247","ios":"levelo://app?vid=a5aac7fd-33ca-46a3-98d8-21e6de83a247"},"vehicle_type_id":"4","last_reported":1703900519,"current_range_meters":19600,"station_id":"","pricing_plan_id":"free"},{"bike_id":"a3c8d623-a85c-45ca-8fac-8710ce7491da","system_id":"levelo_inurba_marseille","lat":43.30642,"lon":5.37191,"is_reserved":false,"is_disabled":false,"rental_uris":{"android":"levelo://app?vid=a3c8d623-a85c-45ca-8fac-8710ce7491da","ios":"levelo://app?vid=a3c8d623-a85c-45ca-8fac-8710ce7491da"},"vehicle_type_id":"4","last_reported":1703900519,"current_range_meters":11600,"station_id":"","pricing_plan_id":"free"},{"bike_id":"e310f43b-3731-4ae1-8f8f-26cdffdadcf0","system_id":"levelo_inurba_marseille","lat":43.305706,"lon":5.365654,"is_reserved":false,"is_disabled":false,"rental_uris":{"android":"levelo://app?vid=e310f43b-3731-4ae1-8f8f-26cdffdadcf0","ios":"levelo://app?vid=e310f43b-3731-4ae1-8f8f-26cdffdadcf0"},"vehicle_type_id":"4","last_reported":1703900519,"current_range_meters":26400,"station_id":"ce4bgs12rcd13ifvqcag","pricing_plan_id":"free"},{"bike_id":"2c3676a2-bca6-469c-999c-2d24935c293a","system_id":"levelo_inurba_marseille","lat":43.305368,"lon":5.367343,"is_reserved":false,"is_disabled":false,"rental_uris":{"android":"levelo://app?vid=2c3676a2-bca6-469c-999c-2d24935c293a","ios":"levelo://app?vid=2c3676a2-bca6-469c-999c-2d24935c293a"},"vehicle_type_id":"4","last_reported":1703900519,"current_range_meters":0,"station_id":"ce4bgrp2rcd13ifvqc9g","pricing_plan_id":"free"},{"bike_id":"d41c1c5e-e844-4ba0-a5ae-8b46a1f033d1","system_id":"levelo_inurba_marseille","lat":43.305989,"lon":5.37225,"is_reserved":false,"is_disabled":false,"rental_uris":{"android":"levelo://app?vid=d41c1c5e-e844-4ba0-a5ae-8b46a1f033d1","ios":"levelo://app?vid=d41c1c5e-e844-4ba0-a5ae-8b46a1f033d1"},"vehicle_type_id":"4","last_reported":1703900519,"current_range_meters":30400,"station_id":"ce4bgqh2rcd13ifvqc4g","pricing_plan_id":"free"},{"bike_id":"4fc0add4-ef4f-42e7-b78f-d37b1b98063a","system_id":"levelo_inurba_marseille","lat":43.30601,"lon":5.37235,"is_reserved":false,"is_disabled":false,"rental_uris":{"android":"levelo://app?vid=4fc0add4-ef4f-42e7-b78f-d37b1b98063a","ios":"levelo://app?vid=4fc0add4-ef4f-42e7-b78f-d37b1b98063a"},"vehicle_type_id":"4","last_reported":1703900519,"current_range_meters":21200,"station_id":"ce4bgqh2rcd13ifvqc4g","pricing_plan_id":"free"},{"bike_id":"43a281ab-b130-4642-8382-83144d91836f","system_id":"levelo_inurba_marseille","lat":43.311131,"lon":5.377651,"is_reserved":false,"is_disabled":false,"rental_uris":{"android":"levelo://app?vid=43a281ab-b130-4642-8382-83144d91836f","ios":"levelo://app?vid=43a281ab-b130-4642-8382-83144d91836f"},"vehicle_type_id":"4","last_reported":1703900519,"current_range_meters":16800,"station_id":"ce4bgt92rcd13ifvqcg0","pricing_plan_id":"free"},{"bike_id":"4fcc5159-db70-496e-84ec-25f1a5fa344e","system_id":"levelo_inurba_marseille","lat":43.311131,"lon":5.377651,"is_reserved":false,"is_disabled":false,"rental_uris":{"android":"levelo://app?vid=4fcc5159-db70-496e-84ec-25f1a5fa344e","ios":"levelo://app?vid=4fcc5159-db70-496e-84ec-25f1a5fa344e"},"vehicle_type_id":"4","last_reported":1703900519,"current_range_meters":18000,"station_id":"ce4bgt92rcd13ifvqcg0","pricing_plan_id":"free"},{"bike_id":"2843ae9d-5d9f-4d11-928b-2293daa16337","system_id":"levelo_inurba_marseille","lat":43.311131,"lon":5.377651,"is_reserved":false,"is_disabled":false,"rental_uris":{"android":"levelo://app?vid=2843ae9d-5d9f-4d11-928b-2293daa16337","ios":"levelo://app?vid=2843ae9d-5d9f-4d11-928b-2293daa16337"},"vehicle_type_id":"4","last_reported":1703900519,"current_range_meters":20400,"station_id":"ce4bgt92rcd13ifvqcg0","pricing_plan_id":"free"},{"bike_id":"48336968-4802-4300-a48a-0f3ef9382ab1","system_id":"levelo_inurba_marseille","lat":43.311131,"lon":5.377651,"is_reserved":false,"is_disabled":false,"rental_uris":{"android":"levelo://app?vid=48336968-4802-4300-a48a-0f3ef9382ab1","ios":"levelo://app?vid=48336968-4802-4300-a48a-0f3ef9382ab1"},"vehicle_type_id":"4","last_reported":1703900519,"current_range_meters":22800,"station_id":"ce4bgt92rcd13ifvqcg0","pricing_plan_id":"free"},{"bike_id":"46cff14c-0190-4d9b-8ec0-a1372d307bb6","system_id":"levelo_inurba_marseille","lat":43.307945,"lon":5.376487,"is_reserved":false,"is_disabled":false,"rental_uris":{"android":"levelo://app?vid=46cff14c-0190-4d9b-8ec0-a1372d307bb6","ios":"levelo://app?vid=46cff14c-0190-4d9b-8ec0-a1372d307bb6"},"vehicle_type_id":"4","last_reported":1703900519,"current_range_meters":18000,"station_id":"ce4bgv92rcd13ifvqcq0","pricing_plan_id":"free"},{"bike_id":"9854471c-3422-48c6-8a2e-00934c1e92ad","system_id":"levelo_inurba_marseille","lat":43.317075,"lon":5.377367,"is_reserved":false,"is_disabled":false,"rental_uris":{"android":"levelo://app?vid=9854471c-3422-48c6-8a2e-00934c1e92ad","ios":"levelo://app?vid=9854471c-3422-48c6-8a2e-00934c1e92ad"},"vehicle_type_id":"4","last_reported":1703900519,"current_range_meters":27200,"station_id":"ce4bgth2rcd13ifvqch0","pricing_plan_id":"free"},{"bike_id":"c276bf45-6dee-4336-8cd3-834f881851e6","system_id":"levelo_inurba_marseille","lat":43.317075,"lon":5.377367,"is_reserved":false,"is_disabled":false,"rental_uris":{"android":"levelo://app?vid=c276bf45-6dee-4336-8cd3-834f881851e6","ios":"levelo://app?vid=c276bf45-6dee-4336-8cd3-834f881851e6"},"vehicle_type_id":"4","last_reported":1703900519,"current_range_meters":30000,"station_id":"ce4bgth2rcd13ifvqch0","pricing_plan_id":"free"},{"bike_id":"0789f007-daee-4b51-884f-f017ee32c5cd","system_id":"levelo_inurba_marseille","lat":43.31538,"lon":5.38024,"is_reserved":false,"is_disabled":false,"rental_uris":{"android":"levelo://app?vid=0789f007-daee-4b51-884f-f017ee32c5cd","ios":"levelo://app?vid=0789f007-daee-4b51-884f-f017ee32c5cd"},"vehicle_type_id":"4","last_reported":1703900519,"current_range_meters":17600,"station_id":"ce4bhsp2rcd13ifvqi50","pricing_plan_id":"free"},{"bike_id":"a6e16c00-d812-4061-8c2b-0c055240a339","system_id":"levelo_inurba_marseille","lat":43.31525,"lon":5.38034,"is_reserved":false,"is_disabled":false,"rental_uris":{"android":"levelo://app?vid=a6e16c00-d812-4061-8c2b-0c055240a339","ios":"levelo://app?vid=a6e16c00-d812-4061-8c2b-0c055240a339"},"vehicle_type_id":"4","last_reported":1703900519,"current_range_meters":24400,"station_id":"ce4bhsp2rcd13ifvqi50","pricing_plan_id":"free"},{"bike_id":"90db3963-6212-4aaf-8329-f77edccb687b","system_id":"levelo_inurba_marseille","lat":43.302956,"lon":5.372027,"is_reserved":false,"is_disabled":false,"rental_uris":{"android":"levelo://app?vid=90db3963-6212-4aaf-8329-f77edccb687b","ios":"levelo://app?vid=90db3963-6212-4aaf-8329-f77edccb687b"},"vehicle_type_id":"4","last_reported":1703900519,"current_range_meters":1600,"station_id":"","pricing_plan_id":"free"},{"bike_id":"949c9bdf-8e80-40cf-b9b3-d7a8f6c7604a","system_id":"levelo_inurba_marseille","lat":43.308012,"lon":5.381511,"is_reserved":false,"is_disabled":false,"rental_uris":{"android":"levelo://app?vid=949c9bdf-8e80-40cf-b9b3-d7a8f6c7604a","ios":"levelo://app?vid=949c9bdf-8e80-40cf-b9b3-d7a8f6c7604a"},"vehicle_type_id":"4","last_reported":1703900519,"current_range_meters":28400,"station_id":"ce4bgt12rcd13ifvqce0","pricing_plan_id":"free"},{"bike_id":"9ca0c324-5268-4aff-a97c-3589193ac8be","system_id":"levelo_inurba_marseille","lat":43.308012,"lon":5.381511,"is_reserved":false,"is_disabled":false,"rental_uris":{"android":"levelo://app?vid=9ca0c324-5268-4aff-a97c-3589193ac8be","ios":"levelo://app?vid=9ca0c324-5268-4aff-a97c-3589193ac8be"},"vehicle_type_id":"4","last_reported":1703900519,"current_range_meters":22400,"station_id":"ce4bgt12rcd13ifvqce0","pricing_plan_id":"free"},{"bike_id":"6621a4ab-e25b-47de-8458-dd0c71540108","system_id":"levelo_inurba_marseille","lat":43.308012,"lon":5.381511,"is_reserved":false,"is_disabled":false,"rental_uris":{"android":"levelo://app?vid=6621a4ab-e25b-47de-8458-dd0c71540108","ios":"levelo://app?vid=6621a4ab-e25b-47de-8458-dd0c71540108"},"vehicle_type_id":"4","last_reported":1703900519,"current_range_meters":29200,"station_id":"ce4bgt12rcd13ifvqce0","pricing_plan_id":"free"},{"bike_id":"37e5ed1e-01ab-42d8-a12a-854a69cdcdec","system_id":"levelo_inurba_marseille","lat":43.308012,"lon":5.381511,"is_reserved":false,"is_disabled":false,"rental_uris":{"android":"levelo://app?vid=37e5ed1e-01ab-42d8-a12a-854a69cdcdec","ios":"levelo://app?vid=37e5ed1e-01ab-42d8-a12a-854a69cdcdec"},"vehicle_type_id":"4","last_reported":1703900519,"current_range_meters":3200,"station_id":"ce4bgt12rcd13ifvqce0","pricing_plan_id":"free"},{"bike_id":"8ed165f3-f1df-4bc5-81d6-ac0aaff7eeb2","system_id":"levelo_inurba_marseille","lat":43.308012,"lon":5.381511,"is_reserved":false,"is_disabled":false,"rental_uris":{"android":"levelo://app?vid=8ed165f3-f1df-4bc5-81d6-ac0aaff7eeb2","ios":"levelo://app?vid=8ed165f3-f1df-4bc5-81d6-ac0aaff7eeb2"},"vehicle_type_id":"4","last_reported":1703900519,"current_range_meters":28000,"station_id":"ce4bgt12rcd13ifvqce0","pricing_plan_id":"free"},{"bike_id":"e4dcb29d-6179-427e-822d-8621bcd08456","system_id":"levelo_inurba_marseille","lat":43.304708,"lon":5.379039,"is_reserved":false,"is_disabled":false,"rental_uris":{"android":"levelo://app?vid=e4dcb29d-6179-427e-822d-8621bcd08456","ios":"levelo://app?vid=e4dcb29d-6179-427e-822d-8621bcd08456"},"vehicle_type_id":"4","last_reported":1703900519,"current_range_meters":24400,"station_id":"","pricing_plan_id":"free"},{"bike_id":"ca341ae7-df28-456b-b1c2-455111f76789","system_id":"levelo_inurba_marseille","lat":43.324771,"lon":5.36557,"is_reserved":false,"is_disabled":false,"rental_uris":{"android":"levelo://app?vid=ca341ae7-df28-456b-b1c2-455111f76789","ios":"levelo://app?vid=ca341ae7-df28-456b-b1c2-455111f76789"},"vehicle_type_id":"4","last_reported":1703900519,"current_range_meters":24400,"station_id":"ce4bhs12rcd13ifvqhvg","pricing_plan_id":"free"},{"bike_id":"7d5a5fe5-0b70-43bb-9224-59cfb24cc454","system_id":"levelo_inurba_marseille","lat":43.324771,"lon":5.36557,"is_reserved":false,"is_disabled":false,"rental_uris":{"android":"levelo://app?vid=7d5a5fe5-0b70-43bb-9224-59cfb24cc454","ios":"levelo://app?vid=7d5a5fe5-0b70-43bb-9224-59cfb24cc454"},"vehicle_type_id":"4","last_reported":1703900519,"current_range_meters":13200,"station_id":"ce4bhs12rcd13ifvqhvg","pricing_plan_id":"free"},{"bike_id":"31237bac-c6ec-49b4-adbd-e44eab5db1c9","system_id":"levelo_inurba_marseille","lat":43.301429,"lon":5.37413,"is_reserved":false,"is_disabled":false,"rental_uris":{"android":"levelo://app?vid=31237bac-c6ec-49b4-adbd-e44eab5db1c9","ios":"levelo://app?vid=31237bac-c6ec-49b4-adbd-e44eab5db1c9"},"vehicle_type_id":"4","last_reported":1703900519,"current_range_meters":27600,"station_id":"ce4bgs92rcd13ifvqcc0","pricing_plan_id":"free"},{"bike_id":"0bad7e1f-8e67-4470-8e01-aca8e07cf57c","system_id":"levelo_inurba_marseille","lat":43.301429,"lon":5.37413,"is_reserved":false,"is_disabled":false,"rental_uris":{"android":"levelo://app?vid=0bad7e1f-8e67-4470-8e01-aca8e07cf57c","ios":"levelo://app?vid=0bad7e1f-8e67-4470-8e01-aca8e07cf57c"},"vehicle_type_id":"4","last_reported":1703900519,"current_range_meters":11200,"station_id":"ce4bgs92rcd13ifvqcc0","pricing_plan_id":"free"},{"bike_id":"eb75f652-373e-4726-9e33-c05a085e4a2d","system_id":"levelo_inurba_marseille","lat":43.301453,"lon":5.37416,"is_reserved":false,"is_disabled":false,"rental_uris":{"android":"levelo://app?vid=eb75f652-373e-4726-9e33-c05a085e4a2d","ios":"levelo://app?vid=eb75f652-373e-4726-9e33-c05a085e4a2d"},"vehicle_type_id":"4","last_reported":1703900519,"current_range_meters":0,"station_id":"","pricing_plan_id":"free"},{"bike_id":"ab383b21-6d05-4bce-8bdc-cad74b151abc","system_id":"levelo_inurba_marseille","lat":43.302784,"lon":5.377158,"is_reserved":false,"is_disabled":false,"rental_uris":{"android":"levelo://app?vid=ab383b21-6d05-4bce-8bdc-cad74b151abc","ios":"levelo://app?vid=ab383b21-6d05-4bce-8bdc-cad74b151abc"},"vehicle_type_id":"4","last_reported":1703900519,"current_range_meters":0,"station_id":"ce4bguh2rcd13ifvqcj0","pricing_plan_id":"free"},{"bike_id":"34833dc8-69c7-4147-a9f2-12b8158120ac","system_id":"levelo_inurba_marseille","lat":43.302784,"lon":5.377158,"is_reserved":false,"is_disabled":false,"rental_uris":{"android":"levelo://app?vid=34833dc8-69c7-4147-a9f2-12b8158120ac","ios":"levelo://app?vid=34833dc8-69c7-4147-a9f2-12b8158120ac"},"vehicle_type_id":"4","last_reported":1703900519,"current_range_meters":20800,"station_id":"ce4bguh2rcd13ifvqcj0","pricing_plan_id":"free"},{"bike_id":"42fd2fdc-4d05-46bd-9c55-062febfc0e08","system_id":"levelo_inurba_marseille","lat":43.319935,"lon":5.381699,"is_reserved":false,"is_disabled":false,"rental_uris":{"android":"levelo://app?vid=42fd2fdc-4d05-46bd-9c55-062febfc0e08","ios":"levelo://app?vid=42fd2fdc-4d05-46bd-9c55-062febfc0e08"},"vehicle_type_id":"4","last_reported":1703900519,"current_range_meters":23200,"station_id":"ce4bhr12rcd13ifvqhpg","pricing_plan_id":"free"},{"bike_id":"b71042fb-e3a0-4497-acaa-53e53b57abe5","system_id":"levelo_inurba_marseille","lat":43.319935,"lon":5.381699,"is_reserved":false,"is_disabled":false,"rental_uris":{"android":"levelo://app?vid=b71042fb-e3a0-4497-acaa-53e53b57abe5","ios":"levelo://app?vid=b71042fb-e3a0-4497-acaa-53e53b57abe5"},"vehicle_type_id":"4","last_reported":1703900519,"current_range_meters":14000,"station_id":"ce4bhr12rcd13ifvqhpg","pricing_plan_id":"free"},{"bike_id":"a0d80e36-94b7-4220-b055-cf694b3eafdd","system_id":"levelo_inurba_marseille","lat":43.319935,"lon":5.381699,"is_reserved":false,"is_disabled":false,"rental_uris":{"android":"levelo://app?vid=a0d80e36-94b7-4220-b055-cf694b3eafdd","ios":"levelo://app?vid=a0d80e36-94b7-4220-b055-cf694b3eafdd"},"vehicle_type_id":"4","last_reported":1703900519,"current_range_meters":21200,"station_id":"ce4bhr12rcd13ifvqhpg","pricing_plan_id":"free"},{"bike_id":"b8264f28-fa30-46a6-bb02-f86db33ed134","system_id":"levelo_inurba_marseille","lat":43.319935,"lon":5.381699,"is_reserved":false,"is_disabled":false,"rental_uris":{"android":"levelo://app?vid=b8264f28-fa30-46a6-bb02-f86db33ed134","ios":"levelo://app?vid=b8264f28-fa30-46a6-bb02-f86db33ed134"},"vehicle_type_id":"4","last_reported":1703900519,"current_range_meters":10800,"station_id":"ce4bhr12rcd13ifvqhpg","pricing_plan_id":"free"},{"bike_id":"3895431a-679b-40f5-a098-df7938c7e82f","system_id":"levelo_inurba_marseille","lat":43.319935,"lon":5.381699,"is_reserved":false,"is_disabled":false,"rental_uris":{"android":"levelo://app?vid=3895431a-679b-40f5-a098-df7938c7e82f","ios":"levelo://app?vid=3895431a-679b-40f5-a098-df7938c7e82f"},"vehicle_type_id":"4","last_reported":1703900519,"current_range_meters":0,"station_id":"ce4bhr12rcd13ifvqhpg","pricing_plan_id":"free"},{"bike_id":"69cadef7-4c72-4bb3-8d8d-40c7537139e0","system_id":"levelo_inurba_marseille","lat":43.313571,"lon":5.384829,"is_reserved":false,"is_disabled":false,"rental_uris":{"android":"levelo://app?vid=69cadef7-4c72-4bb3-8d8d-40c7537139e0","ios":"levelo://app?vid=69cadef7-4c72-4bb3-8d8d-40c7537139e0"},"vehicle_type_id":"4","last_reported":1703900519,"current_range_meters":26800,"station_id":"ce4bgt92rcd13ifvqcf0","pricing_plan_id":"free"},{"bike_id":"7ac76382-2851-4d9f-8776-7035cb7cb5cd","system_id":"levelo_inurba_marseille","lat":43.313571,"lon":5.384829,"is_reserved":false,"is_disabled":false,"rental_uris":{"android":"levelo://app?vid=7ac76382-2851-4d9f-8776-7035cb7cb5cd","ios":"levelo://app?vid=7ac76382-2851-4d9f-8776-7035cb7cb5cd"},"vehicle_type_id":"4","last_reported":1703900519,"current_range_meters":21600,"station_id":"ce4bgt92rcd13ifvqcf0","pricing_plan_id":"free"},{"bike_id":"cee8a741-51ee-4b7b-87cb-526b74d724c9","system_id":"levelo_inurba_marseille","lat":43.299724,"lon":5.371829,"is_reserved":false,"is_disabled":false,"rental_uris":{"android":"levelo://app?vid=cee8a741-51ee-4b7b-87cb-526b74d724c9","ios":"levelo://app?vid=cee8a741-51ee-4b7b-87cb-526b74d724c9"},"vehicle_type_id":"4","last_reported":1703900519,"current_range_meters":11600,"station_id":"ce4bgr92rcd13ifvqc7g","pricing_plan_id":"free"},{"bike_id":"a5c4c6b1-93e6-4cef-884d-4579f166ffbe","system_id":"levelo_inurba_marseille","lat":43.2999,"lon":5.37444,"is_reserved":false,"is_disabled":false,"rental_uris":{"android":"levelo://app?vid=a5c4c6b1-93e6-4cef-884d-4579f166ffbe","ios":"levelo://app?vid=a5c4c6b1-93e6-4cef-884d-4579f166ffbe"},"vehicle_type_id":"4","last_reported":1703900519,"current_range_meters":23200,"station_id":"","pricing_plan_id":"free"},{"bike_id":"43693da7-a63b-4b88-8ecc-bf6ef6de1c19","system_id":"levelo_inurba_marseille","lat":43.305364,"lon":5.384119,"is_reserved":false,"is_disabled":false,"rental_uris":{"android":"levelo://app?vid=43693da7-a63b-4b88-8ecc-bf6ef6de1c19","ios":"levelo://app?vid=43693da7-a63b-4b88-8ecc-bf6ef6de1c19"},"vehicle_type_id":"4","last_reported":1703900519,"current_range_meters":31200,"station_id":"ce4bgg92rcd13ifvqb30","pricing_plan_id":"free"},{"bike_id":"badbb150-5f88-43f8-87fa-e98417c7f679","system_id":"levelo_inurba_marseille","lat":43.305364,"lon":5.384119,"is_reserved":false,"is_disabled":false,"rental_uris":{"android":"levelo://app?vid=badbb150-5f88-43f8-87fa-e98417c7f679","ios":"levelo://app?vid=badbb150-5f88-43f8-87fa-e98417c7f679"},"vehicle_type_id":"4","last_reported":1703900519,"current_range_meters":16000,"station_id":"ce4bgg92rcd13ifvqb30","pricing_plan_id":"free"},{"bike_id":"584247a0-1d47-468e-b109-dc864d27e0ee","system_id":"levelo_inurba_marseille","lat":43.298433,"lon":5.362774,"is_reserved":false,"is_disabled":false,"rental_uris":{"android":"levelo://app?vid=584247a0-1d47-468e-b109-dc864d27e0ee","ios":"levelo://app?vid=584247a0-1d47-468e-b109-dc864d27e0ee"},"vehicle_type_id":"4","last_reported":1703900519,"current_range_meters":27200,"station_id":"ce4bgpp2rcd13ifvqc3g","pricing_plan_id":"free"},{"bike_id":"e3132121-4f16-43bf-8506-a50affb433b0","system_id":"levelo_inurba_marseille","lat":43.30211,"lon":5.38109,"is_reserved":false,"is_disabled":false,"rental_uris":{"android":"levelo://app?vid=e3132121-4f16-43bf-8506-a50affb433b0","ios":"levelo://app?vid=e3132121-4f16-43bf-8506-a50affb433b0"},"vehicle_type_id":"4","last_reported":1703900519,"current_range_meters":20800,"station_id":"","pricing_plan_id":"free"},{"bike_id":"993d9343-6b3a-4743-a5d1-106da718761b","system_id":"levelo_inurba_marseille","lat":43.299243,"lon":5.374807,"is_reserved":false,"is_disabled":false,"rental_uris":{"android":"levelo://app?vid=993d9343-6b3a-4743-a5d1-106da718761b","ios":"levelo://app?vid=993d9343-6b3a-4743-a5d1-106da718761b"},"vehicle_type_id":"4","last_reported":1703900519,"current_range_meters":24400,"station_id":"ce4bgjh2rcd13ifvqbg0","pricing_plan_id":"free"},{"bike_id":"a7152a0a-c756-489d-a253-86b063ca139f","system_id":"levelo_inurba_marseille","lat":43.297794,"lon":5.370888,"is_reserved":false,"is_disabled":false,"rental_uris":{"android":"levelo://app?vid=a7152a0a-c756-489d-a253-86b063ca139f","ios":"levelo://app?vid=a7152a0a-c756-489d-a253-86b063ca139f"},"vehicle_type_id":"4","last_reported":1703900519,"current_range_meters":30400,"station_id":"ce4bgop2rcd13ifvqc1g","pricing_plan_id":"free"},{"bike_id":"d6442c4e-a099-4230-9a18-a3c511e99e35","system_id":"levelo_inurba_marseille","lat":43.297794,"lon":5.370888,"is_reserved":false,"is_disabled":false,"rental_uris":{"android":"levelo://app?vid=d6442c4e-a099-4230-9a18-a3c511e99e35","ios":"levelo://app?vid=d6442c4e-a099-4230-9a18-a3c511e99e35"},"vehicle_type_id":"4","last_reported":1703900519,"current_range_meters":30400,"station_id":"ce4bgop2rcd13ifvqc1g","pricing_plan_id":"free"},{"bike_id":"8dad90dc-3f0b-42ea-ba61-480baa952fa2","system_id":"levelo_inurba_marseille","lat":43.297774,"lon":5.370875,"is_reserved":false,"is_disabled":false,"rental_uris":{"android":"levelo://app?vid=8dad90dc-3f0b-42ea-ba61-480baa952fa2","ios":"levelo://app?vid=8dad90dc-3f0b-42ea-ba61-480baa952fa2"},"vehicle_type_id":"4","last_reported":1703900519,"current_range_meters":21600,"station_id":"ce4bgop2rcd13ifvqc1g","pricing_plan_id":"free"},{"bike_id":"31d0dd19-411a-4446-92ef-1b446f62b084","system_id":"levelo_inurba_marseille","lat":43.322857,"lon":5.382694,"is_reserved":false,"is_disabled":false,"rental_uris":{"android":"levelo://app?vid=31d0dd19-411a-4446-92ef-1b446f62b084","ios":"levelo://app?vid=31d0dd19-411a-4446-92ef-1b446f62b084"},"vehicle_type_id":"4","last_reported":1703900519,"current_range_meters":14000,"station_id":"ce4bhr12rcd13ifvqhqg","pricing_plan_id":"free"},{"bike_id":"88683a81-fea5-45de-abd6-f8cef3b5c433","system_id":"levelo_inurba_marseille","lat":43.32291,"lon":5.38269,"is_reserved":false,"is_disabled":false,"rental_uris":{"android":"levelo://app?vid=88683a81-fea5-45de-abd6-f8cef3b5c433","ios":"levelo://app?vid=88683a81-fea5-45de-abd6-f8cef3b5c433"},"vehicle_type_id":"4","last_reported":1703900519,"current_range_meters":6400,"station_id":"ce4bhr12rcd13ifvqhqg","pricing_plan_id":"free"},{"bike_id":"accbbe6d-f8a2-4d0d-badc-393301aad27d","system_id":"levelo_inurba_marseille","lat":43.322863,"lon":5.382759,"is_reserved":false,"is_disabled":false,"rental_uris":{"android":"levelo://app?vid=accbbe6d-f8a2-4d0d-badc-393301aad27d","ios":"levelo://app?vid=accbbe6d-f8a2-4d0d-badc-393301aad27d"},"vehicle_type_id":"4","last_reported":1703900519,"current_range_meters":30400,"station_id":"ce4bhr12rcd13ifvqhqg","pricing_plan_id":"free"},{"bike_id":"fdd6fcc6-8759-41c1-9c48-b71f8809fbf1","system_id":"levelo_inurba_marseille","lat":43.32285,"lon":5.38279,"is_reserved":false,"is_disabled":false,"rental_uris":{"android":"levelo://app?vid=fdd6fcc6-8759-41c1-9c48-b71f8809fbf1","ios":"levelo://app?vid=fdd6fcc6-8759-41c1-9c48-b71f8809fbf1"},"vehicle_type_id":"4","last_reported":1703900519,"current_range_meters":31200,"station_id":"ce4bhr12rcd13ifvqhqg","pricing_plan_id":"free"},{"bike_id":"e01fbfb3-2381-48f7-b845-a989b0e1d4d4","system_id":"levelo_inurba_marseille","lat":43.3229,"lon":5.3828,"is_reserved":false,"is_disabled":false,"rental_uris":{"android":"levelo://app?vid=e01fbfb3-2381-48f7-b845-a989b0e1d4d4","ios":"levelo://app?vid=e01fbfb3-2381-48f7-b845-a989b0e1d4d4"},"vehicle_type_id":"4","last_reported":1703900519,"current_range_meters":30400,"station_id":"ce4bhr12rcd13ifvqhqg","pricing_plan_id":"free"},{"bike_id":"bd88768f-f8eb-4e71-8e12-6588100a12df","system_id":"levelo_inurba_marseille","lat":43.297163,"lon":5.365866,"is_reserved":false,"is_disabled":false,"rental_uris":{"android":"levelo://app?vid=bd88768f-f8eb-4e71-8e12-6588100a12df","ios":"levelo://app?vid=bd88768f-f8eb-4e71-8e12-6588100a12df"},"vehicle_type_id":"4","last_reported":1703900519,"current_range_meters":29200,"station_id":"ce4bgn12rcd13ifvqbt0","pricing_plan_id":"free"},{"bike_id":"b30b3d1b-ef61-4776-bd7b-61c34fd8cc81","system_id":"levelo_inurba_marseille","lat":43.32825,"lon":5.36682,"is_reserved":false,"is_disabled":false,"rental_uris":{"android":"levelo://app?vid=b30b3d1b-ef61-4776-bd7b-61c34fd8cc81","ios":"levelo://app?vid=b30b3d1b-ef61-4776-bd7b-61c34fd8cc81"},"vehicle_type_id":"4","last_reported":1703900519,"current_range_meters":9600,"station_id":"ce4bhs92rcd13ifvqi0g","pricing_plan_id":"free"},{"bike_id":"a677cd10-a09b-4b2e-bffd-45b05d2c9229","system_id":"levelo_inurba_marseille","lat":43.32825,"lon":5.36679,"is_reserved":false,"is_disabled":false,"rental_uris":{"android":"levelo://app?vid=a677cd10-a09b-4b2e-bffd-45b05d2c9229","ios":"levelo://app?vid=a677cd10-a09b-4b2e-bffd-45b05d2c9229"},"vehicle_type_id":"4","last_reported":1703900519,"current_range_meters":20400,"station_id":"ce4bhs92rcd13ifvqi0g","pricing_plan_id":"free"},{"bike_id":"de708f00-7118-4d7c-9021-d7dcbd798473","system_id":"levelo_inurba_marseille","lat":43.328274,"lon":5.366774,"is_reserved":false,"is_disabled":false,"rental_uris":{"android":"levelo://app?vid=de708f00-7118-4d7c-9021-d7dcbd798473","ios":"levelo://app?vid=de708f00-7118-4d7c-9021-d7dcbd798473"},"vehicle_type_id":"4","last_reported":1703900519,"current_range_meters":6800,"station_id":"ce4bhs92rcd13ifvqi0g","pricing_plan_id":"free"},{"bike_id":"ce345a8c-be08-4598-afcb-f20759d2dbfc","system_id":"levelo_inurba_marseille","lat":43.328275,"lon":5.366784,"is_reserved":false,"is_disabled":false,"rental_uris":{"android":"levelo://app?vid=ce345a8c-be08-4598-afcb-f20759d2dbfc","ios":"levelo://app?vid=ce345a8c-be08-4598-afcb-f20759d2dbfc"},"vehicle_type_id":"4","last_reported":1703900519,"current_range_meters":18800,"station_id":"ce4bhs92rcd13ifvqi0g","pricing_plan_id":"free"},{"bike_id":"51714c4a-3132-4951-88ec-80e85fa125e8","system_id":"levelo_inurba_marseille","lat":43.328295,"lon":5.366873,"is_reserved":false,"is_disabled":false,"rental_uris":{"android":"levelo://app?vid=51714c4a-3132-4951-88ec-80e85fa125e8","ios":"levelo://app?vid=51714c4a-3132-4951-88ec-80e85fa125e8"},"vehicle_type_id":"4","last_reported":1703900519,"current_range_meters":12400,"station_id":"ce4bhs92rcd13ifvqi0g","pricing_plan_id":"free"},{"bike_id":"6eb75a18-acfd-4ffa-bf23-27c5e63a3c58","system_id":"levelo_inurba_marseille","lat":43.3283,"lon":5.3668,"is_reserved":false,"is_disabled":false,"rental_uris":{"android":"levelo://app?vid=6eb75a18-acfd-4ffa-bf23-27c5e63a3c58","ios":"levelo://app?vid=6eb75a18-acfd-4ffa-bf23-27c5e63a3c58"},"vehicle_type_id":"4","last_reported":1703900519,"current_range_meters":17200,"station_id":"ce4bhs92rcd13ifvqi0g","pricing_plan_id":"free"},{"bike_id":"5c89eee7-6e83-42b4-bd81-efdcf68f6666","system_id":"levelo_inurba_marseille","lat":43.328304,"lon":5.366886,"is_reserved":false,"is_disabled":false,"rental_uris":{"android":"levelo://app?vid=5c89eee7-6e83-42b4-bd81-efdcf68f6666","ios":"levelo://app?vid=5c89eee7-6e83-42b4-bd81-efdcf68f6666"},"vehicle_type_id":"4","last_reported":1703900519,"current_range_meters":26000,"station_id":"ce4bhs92rcd13ifvqi0g","pricing_plan_id":"free"},{"bike_id":"c99c1421-6c70-45e1-a99f-19afba82ca69","system_id":"levelo_inurba_marseille","lat":43.32831,"lon":5.36682,"is_reserved":false,"is_disabled":false,"rental_uris":{"android":"levelo://app?vid=c99c1421-6c70-45e1-a99f-19afba82ca69","ios":"levelo://app?vid=c99c1421-6c70-45e1-a99f-19afba82ca69"},"vehicle_type_id":"4","last_reported":1703900519,"current_range_meters":28800,"station_id":"ce4bhs92rcd13ifvqi0g","pricing_plan_id":"free"},{"bike_id":"a448ca86-2b35-41e1-89c4-32a99bab0563","system_id":"levelo_inurba_marseille","lat":43.328371,"lon":5.366912,"is_reserved":false,"is_disabled":false,"rental_uris":{"android":"levelo://app?vid=a448ca86-2b35-41e1-89c4-32a99bab0563","ios":"levelo://app?vid=a448ca86-2b35-41e1-89c4-32a99bab0563"},"vehicle_type_id":"4","last_reported":1703900519,"current_range_meters":17600,"station_id":"ce4bhs92rcd13ifvqi0g","pricing_plan_id":"free"},{"bike_id":"70017d6e-6f1a-4af6-baf6-320a119b5691","system_id":"levelo_inurba_marseille","lat":43.32833,"lon":5.366744,"is_reserved":false,"is_disabled":false,"rental_uris":{"android":"levelo://app?vid=70017d6e-6f1a-4af6-baf6-320a119b5691","ios":"levelo://app?vid=70017d6e-6f1a-4af6-baf6-320a119b5691"},"vehicle_type_id":"4","last_reported":1703900519,"current_range_meters":6800,"station_id":"ce4bhs92rcd13ifvqi0g","pricing_plan_id":"free"},{"bike_id":"b88d5555-cc1b-4d13-b74a-65fa516b599f","system_id":"levelo_inurba_marseille","lat":43.32833,"lon":5.366713,"is_reserved":false,"is_disabled":false,"rental_uris":{"android":"levelo://app?vid=b88d5555-cc1b-4d13-b74a-65fa516b599f","ios":"levelo://app?vid=b88d5555-cc1b-4d13-b74a-65fa516b599f"},"vehicle_type_id":"4","last_reported":1703900519,"current_range_meters":15200,"station_id":"ce4bhs92rcd13ifvqi0g","pricing_plan_id":"free"},{"bike_id":"904f83aa-e9ab-401d-84c1-9edfed82b884","system_id":"levelo_inurba_marseille","lat":43.328371,"lon":5.366912,"is_reserved":false,"is_disabled":false,"rental_uris":{"android":"levelo://app?vid=904f83aa-e9ab-401d-84c1-9edfed82b884","ios":"levelo://app?vid=904f83aa-e9ab-401d-84c1-9edfed82b884"},"vehicle_type_id":"4","last_reported":1703900519,"current_range_meters":28800,"station_id":"ce4bhs92rcd13ifvqi0g","pricing_plan_id":"free"},{"bike_id":"bbf48138-9d09-48e2-8b6a-60b8426de277","system_id":"levelo_inurba_marseille","lat":43.32834,"lon":5.36683,"is_reserved":false,"is_disabled":false,"rental_uris":{"android":"levelo://app?vid=bbf48138-9d09-48e2-8b6a-60b8426de277","ios":"levelo://app?vid=bbf48138-9d09-48e2-8b6a-60b8426de277"},"vehicle_type_id":"4","last_reported":1703900519,"current_range_meters":19200,"station_id":"ce4bhs92rcd13ifvqi0g","pricing_plan_id":"free"},{"bike_id":"ea7074d7-b7c9-4941-82c2-dff391bae9cb","system_id":"levelo_inurba_marseille","lat":43.32837,"lon":5.36681,"is_reserved":false,"is_disabled":false,"rental_uris":{"android":"levelo://app?vid=ea7074d7-b7c9-4941-82c2-dff391bae9cb","ios":"levelo://app?vid=ea7074d7-b7c9-4941-82c2-dff391bae9cb"},"vehicle_type_id":"4","last_reported":1703900519,"current_range_meters":8800,"station_id":"ce4bhs92rcd13ifvqi0g","pricing_plan_id":"free"},{"bike_id":"69647a77-b113-4db4-ab4b-e8b674e33b26","system_id":"levelo_inurba_marseille","lat":43.297163,"lon":5.365866,"is_reserved":false,"is_disabled":false,"rental_uris":{"android":"levelo://app?vid=69647a77-b113-4db4-ab4b-e8b674e33b26","ios":"levelo://app?vid=69647a77-b113-4db4-ab4b-e8b674e33b26"},"vehicle_type_id":"4","last_reported":1703900519,"current_range_meters":20000,"station_id":"ce4bgn12rcd13ifvqbt0","pricing_plan_id":"free"},{"bike_id":"370cccf7-c9ba-46c2-819b-c8e8cacc4c21","system_id":"levelo_inurba_marseille","lat":43.3277,"lon":5.37458,"is_reserved":false,"is_disabled":false,"rental_uris":{"android":"levelo://app?vid=370cccf7-c9ba-46c2-819b-c8e8cacc4c21","ios":"levelo://app?vid=370cccf7-c9ba-46c2-819b-c8e8cacc4c21"},"vehicle_type_id":"4","last_reported":1703900519,"current_range_meters":16400,"station_id":"","pricing_plan_id":"free"},{"bike_id":"921b424d-ad0d-4c7a-9d74-66e3a49bfa19","system_id":"levelo_inurba_marseille","lat":43.32934,"lon":5.36612,"is_reserved":false,"is_disabled":false,"rental_uris":{"android":"levelo://app?vid=921b424d-ad0d-4c7a-9d74-66e3a49bfa19","ios":"levelo://app?vid=921b424d-ad0d-4c7a-9d74-66e3a49bfa19"},"vehicle_type_id":"4","last_reported":1703900519,"current_range_meters":7600,"station_id":"","pricing_plan_id":"free"},{"bike_id":"292d13bf-6cba-498e-923d-772c38c90367","system_id":"levelo_inurba_marseille","lat":43.309589,"lon":5.390258,"is_reserved":false,"is_disabled":false,"rental_uris":{"android":"levelo://app?vid=292d13bf-6cba-498e-923d-772c38c90367","ios":"levelo://app?vid=292d13bf-6cba-498e-923d-772c38c90367"},"vehicle_type_id":"4","last_reported":1703900519,"current_range_meters":28400,"station_id":"ce4bgup2rcd13ifvqco0","pricing_plan_id":"free"},{"bike_id":"2815d3f1-26fb-41c8-af53-1de6eac3b19a","system_id":"levelo_inurba_marseille","lat":43.317557,"lon":5.390173,"is_reserved":false,"is_disabled":false,"rental_uris":{"android":"levelo://app?vid=2815d3f1-26fb-41c8-af53-1de6eac3b19a","ios":"levelo://app?vid=2815d3f1-26fb-41c8-af53-1de6eac3b19a"},"vehicle_type_id":"4","last_reported":1703900519,"current_range_meters":19600,"station_id":"ce4bhqp2rcd13ifvqhng","pricing_plan_id":"free"},{"bike_id":"2c99368a-6983-4529-8804-af1780937bb3","system_id":"levelo_inurba_marseille","lat":43.317557,"lon":5.390173,"is_reserved":false,"is_disabled":false,"rental_uris":{"android":"levelo://app?vid=2c99368a-6983-4529-8804-af1780937bb3","ios":"levelo://app?vid=2c99368a-6983-4529-8804-af1780937bb3"},"vehicle_type_id":"4","last_reported":1703900519,"current_range_meters":27200,"station_id":"ce4bhqp2rcd13ifvqhng","pricing_plan_id":"free"},{"bike_id":"9d17c57e-a1d1-4867-a936-d51f7f6c6272","system_id":"levelo_inurba_marseille","lat":43.317557,"lon":5.390173,"is_reserved":false,"is_disabled":false,"rental_uris":{"android":"levelo://app?vid=9d17c57e-a1d1-4867-a936-d51f7f6c6272","ios":"levelo://app?vid=9d17c57e-a1d1-4867-a936-d51f7f6c6272"},"vehicle_type_id":"4","last_reported":1703900519,"current_range_meters":0,"station_id":"ce4bhqp2rcd13ifvqhng","pricing_plan_id":"free"},{"bike_id":"d5d85613-58ba-4fd6-beea-170b87cbc9e9","system_id":"levelo_inurba_marseille","lat":43.317557,"lon":5.390173,"is_reserved":false,"is_disabled":false,"rental_uris":{"android":"levelo://app?vid=d5d85613-58ba-4fd6-beea-170b87cbc9e9","ios":"levelo://app?vid=d5d85613-58ba-4fd6-beea-170b87cbc9e9"},"vehicle_type_id":"4","last_reported":1703900519,"current_range_meters":31600,"station_id":"ce4bhqp2rcd13ifvqhng","pricing_plan_id":"free"},{"bike_id":"f76ba80c-df4f-46ed-b89a-665e66e76f66","system_id":"levelo_inurba_marseille","lat":43.317557,"lon":5.390173,"is_reserved":false,"is_disabled":false,"rental_uris":{"android":"levelo://app?vid=f76ba80c-df4f-46ed-b89a-665e66e76f66","ios":"levelo://app?vid=f76ba80c-df4f-46ed-b89a-665e66e76f66"},"vehicle_type_id":"4","last_reported":1703900519,"current_range_meters":31600,"station_id":"ce4bhqp2rcd13ifvqhng","pricing_plan_id":"free"},{"bike_id":"3e1848c3-d869-43c6-b4b1-4704dadf4192","system_id":"levelo_inurba_marseille","lat":43.317557,"lon":5.390173,"is_reserved":false,"is_disabled":false,"rental_uris":{"android":"levelo://app?vid=3e1848c3-d869-43c6-b4b1-4704dadf4192","ios":"levelo://app?vid=3e1848c3-d869-43c6-b4b1-4704dadf4192"},"vehicle_type_id":"4","last_reported":1703900519,"current_range_meters":29600,"station_id":"ce4bhqp2rcd13ifvqhng","pricing_plan_id":"free"},{"bike_id":"2f319227-1f40-47e4-92bf-24000a57f0aa","system_id":"levelo_inurba_marseille","lat":43.298037,"lon":5.381066,"is_reserved":false,"is_disabled":false,"rental_uris":{"android":"levelo://app?vid=2f319227-1f40-47e4-92bf-24000a57f0aa","ios":"levelo://app?vid=2f319227-1f40-47e4-92bf-24000a57f0aa"},"vehicle_type_id":"4","last_reported":1703900519,"current_range_meters":24400,"station_id":"ce4bgip2rcd13ifvqbb0","pricing_plan_id":"free"},{"bike_id":"2bef544e-b335-47fe-b17d-849cdb1b66f3","system_id":"levelo_inurba_marseille","lat":43.304278,"lon":5.388868,"is_reserved":false,"is_disabled":false,"rental_uris":{"android":"levelo://app?vid=2bef544e-b335-47fe-b17d-849cdb1b66f3","ios":"levelo://app?vid=2bef544e-b335-47fe-b17d-849cdb1b66f3"},"vehicle_type_id":"4","last_reported":1703900519,"current_range_meters":31200,"station_id":"ce4bgk12rcd13ifvqbi0","pricing_plan_id":"free"},{"bike_id":"d60802d6-4f47-444a-b234-883690eec05b","system_id":"levelo_inurba_marseille","lat":43.33062,"lon":5.3627,"is_reserved":false,"is_disabled":false,"rental_uris":{"android":"levelo://app?vid=d60802d6-4f47-444a-b234-883690eec05b","ios":"levelo://app?vid=d60802d6-4f47-444a-b234-883690eec05b"},"vehicle_type_id":"4","last_reported":1703900519,"current_range_meters":29200,"station_id":"","pricing_plan_id":"free"},{"bike_id":"7119845d-00aa-4d9f-be8c-fc97d41f1380","system_id":"levelo_inurba_marseille","lat":43.297594,"lon":5.381134,"is_reserved":false,"is_disabled":false,"rental_uris":{"android":"levelo://app?vid=7119845d-00aa-4d9f-be8c-fc97d41f1380","ios":"levelo://app?vid=7119845d-00aa-4d9f-be8c-fc97d41f1380"},"vehicle_type_id":"4","last_reported":1703900519,"current_range_meters":17600,"station_id":"ce4bgip2rcd13ifvqbb0","pricing_plan_id":"free"},{"bike_id":"76f9b6bb-bf59-4f13-88f3-1a81b7f07cca","system_id":"levelo_inurba_marseille","lat":43.299717,"lon":5.384845,"is_reserved":false,"is_disabled":false,"rental_uris":{"android":"levelo://app?vid=76f9b6bb-bf59-4f13-88f3-1a81b7f07cca","ios":"levelo://app?vid=76f9b6bb-bf59-4f13-88f3-1a81b7f07cca"},"vehicle_type_id":"4","last_reported":1703900519,"current_range_meters":17600,"station_id":"ce4bgj92rcd13ifvqbd0","pricing_plan_id":"free"},{"bike_id":"96ae480e-0deb-426a-bbd4-2f477478a70b","system_id":"levelo_inurba_marseille","lat":43.299717,"lon":5.384845,"is_reserved":false,"is_disabled":false,"rental_uris":{"android":"levelo://app?vid=96ae480e-0deb-426a-bbd4-2f477478a70b","ios":"levelo://app?vid=96ae480e-0deb-426a-bbd4-2f477478a70b"},"vehicle_type_id":"4","last_reported":1703900519,"current_range_meters":12000,"station_id":"ce4bgj92rcd13ifvqbd0","pricing_plan_id":"free"},{"bike_id":"1b2c0aaf-efdf-4c67-a924-a8329bb1ed70","system_id":"levelo_inurba_marseille","lat":43.32367,"lon":5.388836,"is_reserved":false,"is_disabled":false,"rental_uris":{"android":"levelo://app?vid=1b2c0aaf-efdf-4c67-a924-a8329bb1ed70","ios":"levelo://app?vid=1b2c0aaf-efdf-4c67-a924-a8329bb1ed70"},"vehicle_type_id":"4","last_reported":1703900519,"current_range_meters":16000,"station_id":"ce4bhqp2rcd13ifvqhog","pricing_plan_id":"free"},{"bike_id":"cb8f7a59-4215-40f5-bde3-405de084039e","system_id":"levelo_inurba_marseille","lat":43.3237,"lon":5.38886,"is_reserved":false,"is_disabled":false,"rental_uris":{"android":"levelo://app?vid=cb8f7a59-4215-40f5-bde3-405de084039e","ios":"levelo://app?vid=cb8f7a59-4215-40f5-bde3-405de084039e"},"vehicle_type_id":"4","last_reported":1703900519,"current_range_meters":4000,"station_id":"ce4bhqp2rcd13ifvqhog","pricing_plan_id":"free"},{"bike_id":"6ca5bdc5-35f5-4860-b49d-31a089bf3712","system_id":"levelo_inurba_marseille","lat":43.32367,"lon":5.388836,"is_reserved":false,"is_disabled":false,"rental_uris":{"android":"levelo://app?vid=6ca5bdc5-35f5-4860-b49d-31a089bf3712","ios":"levelo://app?vid=6ca5bdc5-35f5-4860-b49d-31a089bf3712"},"vehicle_type_id":"4","last_reported":1703900519,"current_range_meters":12800,"station_id":"ce4bhqp2rcd13ifvqhog","pricing_plan_id":"free"},{"bike_id":"2e951988-3e48-4a96-abae-01175e7bae0a","system_id":"levelo_inurba_marseille","lat":43.32367,"lon":5.388836,"is_reserved":false,"is_disabled":false,"rental_uris":{"android":"levelo://app?vid=2e951988-3e48-4a96-abae-01175e7bae0a","ios":"levelo://app?vid=2e951988-3e48-4a96-abae-01175e7bae0a"},"vehicle_type_id":"4","last_reported":1703900519,"current_range_meters":0,"station_id":"ce4bhqp2rcd13ifvqhog","pricing_plan_id":"free"},{"bike_id":"33b45e5e-f5e8-444a-9091-df07beb8c94b","system_id":"levelo_inurba_marseille","lat":43.31425,"lon":5.393672,"is_reserved":false,"is_disabled":false,"rental_uris":{"android":"levelo://app?vid=33b45e5e-f5e8-444a-9091-df07beb8c94b","ios":"levelo://app?vid=33b45e5e-f5e8-444a-9091-df07beb8c94b"},"vehicle_type_id":"4","last_reported":1703900519,"current_range_meters":18800,"station_id":"","pricing_plan_id":"free"},{"bike_id":"cbff0f7a-221b-4371-8340-bb6af79749d8","system_id":"levelo_inurba_marseille","lat":43.31421,"lon":5.39369,"is_reserved":false,"is_disabled":false,"rental_uris":{"android":"levelo://app?vid=cbff0f7a-221b-4371-8340-bb6af79749d8","ios":"levelo://app?vid=cbff0f7a-221b-4371-8340-bb6af79749d8"},"vehicle_type_id":"4","last_reported":1703900519,"current_range_meters":6000,"station_id":"","pricing_plan_id":"free"},{"bike_id":"13a00fac-3aab-41e9-9750-d529b3509ae4","system_id":"levelo_inurba_marseille","lat":43.292749,"lon":5.368402,"is_reserved":false,"is_disabled":false,"rental_uris":{"android":"levelo://app?vid=13a00fac-3aab-41e9-9750-d529b3509ae4","ios":"levelo://app?vid=13a00fac-3aab-41e9-9750-d529b3509ae4"},"vehicle_type_id":"4","last_reported":1703900519,"current_range_meters":31200,"station_id":"ce4bhbp2rcd13ifvqesg","pricing_plan_id":"free"},{"bike_id":"966fca0d-a917-4942-926c-c98ab805eda3","system_id":"levelo_inurba_marseille","lat":43.305994,"lon":5.393687,"is_reserved":false,"is_disabled":false,"rental_uris":{"android":"levelo://app?vid=966fca0d-a917-4942-926c-c98ab805eda3","ios":"levelo://app?vid=966fca0d-a917-4942-926c-c98ab805eda3"},"vehicle_type_id":"4","last_reported":1703900519,"current_range_meters":3600,"station_id":"ce4bh0p2rcd13ifvqd80","pricing_plan_id":"free"},{"bike_id":"7e353d53-c596-4875-9808-f2ebd9dd0e38","system_id":"levelo_inurba_marseille","lat":43.2936,"lon":5.37835,"is_reserved":false,"is_disabled":false,"rental_uris":{"android":"levelo://app?vid=7e353d53-c596-4875-9808-f2ebd9dd0e38","ios":"levelo://app?vid=7e353d53-c596-4875-9808-f2ebd9dd0e38"},"vehicle_type_id":"4","last_reported":1703900519,"current_range_meters":25600,"station_id":"ce4bgjh2rcd13ifvqbf0","pricing_plan_id":"free"},{"bike_id":"749c97db-5f1a-4c7e-b867-4938106f535f","system_id":"levelo_inurba_marseille","lat":43.292707,"lon":5.376263,"is_reserved":false,"is_disabled":false,"rental_uris":{"android":"levelo://app?vid=749c97db-5f1a-4c7e-b867-4938106f535f","ios":"levelo://app?vid=749c97db-5f1a-4c7e-b867-4938106f535f"},"vehicle_type_id":"4","last_reported":1703900519,"current_range_meters":21200,"station_id":"","pricing_plan_id":"free"},{"bike_id":"f2908424-5af1-4ec0-9316-d0239a0b5e5a","system_id":"levelo_inurba_marseille","lat":43.298754,"lon":5.389016,"is_reserved":false,"is_disabled":false,"rental_uris":{"android":"levelo://app?vid=f2908424-5af1-4ec0-9316-d0239a0b5e5a","ios":"levelo://app?vid=f2908424-5af1-4ec0-9316-d0239a0b5e5a"},"vehicle_type_id":"4","last_reported":1703900519,"current_range_meters":2000,"station_id":"","pricing_plan_id":"free"},{"bike_id":"d0eaffd1-73e4-4f89-933c-8e333ab3a20d","system_id":"levelo_inurba_marseille","lat":43.29876,"lon":5.38909,"is_reserved":false,"is_disabled":false,"rental_uris":{"android":"levelo://app?vid=d0eaffd1-73e4-4f89-933c-8e333ab3a20d","ios":"levelo://app?vid=d0eaffd1-73e4-4f89-933c-8e333ab3a20d"},"vehicle_type_id":"4","last_reported":1703900519,"current_range_meters":4400,"station_id":"","pricing_plan_id":"free"},{"bike_id":"93bc1b7c-5681-47e1-8b96-987fc13a1227","system_id":"levelo_inurba_marseille","lat":43.309038,"lon":5.396546,"is_reserved":false,"is_disabled":false,"rental_uris":{"android":"levelo://app?vid=93bc1b7c-5681-47e1-8b96-987fc13a1227","ios":"levelo://app?vid=93bc1b7c-5681-47e1-8b96-987fc13a1227"},"vehicle_type_id":"4","last_reported":1703900519,"current_range_meters":31600,"station_id":"ce4bh012rcd13ifvqcv0","pricing_plan_id":"free"},{"bike_id":"90d0418f-c6a4-4336-9cc5-ad020024e65b","system_id":"levelo_inurba_marseille","lat":43.291994,"lon":5.357886,"is_reserved":false,"is_disabled":false,"rental_uris":{"android":"levelo://app?vid=90d0418f-c6a4-4336-9cc5-ad020024e65b","ios":"levelo://app?vid=90d0418f-c6a4-4336-9cc5-ad020024e65b"},"vehicle_type_id":"4","last_reported":1703900519,"current_range_meters":21200,"station_id":"ce4bhb12rcd13ifvqel0","pricing_plan_id":"free"},{"bike_id":"109688a3-2f2f-48fa-861c-16b693df3b10","system_id":"levelo_inurba_marseille","lat":43.309038,"lon":5.396546,"is_reserved":false,"is_disabled":false,"rental_uris":{"android":"levelo://app?vid=109688a3-2f2f-48fa-861c-16b693df3b10","ios":"levelo://app?vid=109688a3-2f2f-48fa-861c-16b693df3b10"},"vehicle_type_id":"4","last_reported":1703900519,"current_range_meters":12400,"station_id":"ce4bh012rcd13ifvqcv0","pricing_plan_id":"free"},{"bike_id":"f6cb6b9b-7916-4ab3-ad60-63e8ee292db4","system_id":"levelo_inurba_marseille","lat":43.313291,"lon":5.396838,"is_reserved":false,"is_disabled":false,"rental_uris":{"android":"levelo://app?vid=f6cb6b9b-7916-4ab3-ad60-63e8ee292db4","ios":"levelo://app?vid=f6cb6b9b-7916-4ab3-ad60-63e8ee292db4"},"vehicle_type_id":"4","last_reported":1703900519,"current_range_meters":13200,"station_id":"ce4bgvp2rcd13ifvqcu0","pricing_plan_id":"free"},{"bike_id":"c10267ba-1f58-444f-bbce-79fcd0e0cc31","system_id":"levelo_inurba_marseille","lat":43.291994,"lon":5.357886,"is_reserved":false,"is_disabled":false,"rental_uris":{"android":"levelo://app?vid=c10267ba-1f58-444f-bbce-79fcd0e0cc31","ios":"levelo://app?vid=c10267ba-1f58-444f-bbce-79fcd0e0cc31"},"vehicle_type_id":"4","last_reported":1703900519,"current_range_meters":31200,"station_id":"ce4bhb12rcd13ifvqel0","pricing_plan_id":"free"},{"bike_id":"72aba422-e39e-448d-b5fe-ba6756b3e68c","system_id":"levelo_inurba_marseille","lat":43.313291,"lon":5.396838,"is_reserved":false,"is_disabled":false,"rental_uris":{"android":"levelo://app?vid=72aba422-e39e-448d-b5fe-ba6756b3e68c","ios":"levelo://app?vid=72aba422-e39e-448d-b5fe-ba6756b3e68c"},"vehicle_type_id":"4","last_reported":1703900519,"current_range_meters":26400,"station_id":"ce4bgvp2rcd13ifvqcu0","pricing_plan_id":"free"},{"bike_id":"a2451da4-43a5-43f1-b736-0f2b5bf28cd0","system_id":"levelo_inurba_marseille","lat":43.296956,"lon":5.389054,"is_reserved":false,"is_disabled":false,"rental_uris":{"android":"levelo://app?vid=a2451da4-43a5-43f1-b736-0f2b5bf28cd0","ios":"levelo://app?vid=a2451da4-43a5-43f1-b736-0f2b5bf28cd0"},"vehicle_type_id":"4","last_reported":1703900519,"current_range_meters":0,"station_id":"","pricing_plan_id":"free"},{"bike_id":"6103dda0-3b79-46ef-ba28-9879638278b9","system_id":"levelo_inurba_marseille","lat":43.290631,"lon":5.359244,"is_reserved":false,"is_disabled":false,"rental_uris":{"android":"levelo://app?vid=6103dda0-3b79-46ef-ba28-9879638278b9","ios":"levelo://app?vid=6103dda0-3b79-46ef-ba28-9879638278b9"},"vehicle_type_id":"4","last_reported":1703900519,"current_range_meters":31600,"station_id":"ce4bha92rcd13ifvqeg0","pricing_plan_id":"free"},{"bike_id":"bf682b56-41c4-40a8-89a7-631ea025d47f","system_id":"levelo_inurba_marseille","lat":43.290631,"lon":5.359244,"is_reserved":false,"is_disabled":false,"rental_uris":{"android":"levelo://app?vid=bf682b56-41c4-40a8-89a7-631ea025d47f","ios":"levelo://app?vid=bf682b56-41c4-40a8-89a7-631ea025d47f"},"vehicle_type_id":"4","last_reported":1703900519,"current_range_meters":30400,"station_id":"ce4bha92rcd13ifvqeg0","pricing_plan_id":"free"},{"bike_id":"63e5e591-5394-4763-8a5a-673a841ba624","system_id":"levelo_inurba_marseille","lat":43.290631,"lon":5.359244,"is_reserved":false,"is_disabled":false,"rental_uris":{"android":"levelo://app?vid=63e5e591-5394-4763-8a5a-673a841ba624","ios":"levelo://app?vid=63e5e591-5394-4763-8a5a-673a841ba624"},"vehicle_type_id":"4","last_reported":1703900519,"current_range_meters":18800,"station_id":"ce4bha92rcd13ifvqeg0","pricing_plan_id":"free"},{"bike_id":"9ee68ea5-7e90-4e8c-ac35-45624e9d8b0d","system_id":"levelo_inurba_marseille","lat":43.290631,"lon":5.359244,"is_reserved":false,"is_disabled":false,"rental_uris":{"android":"levelo://app?vid=9ee68ea5-7e90-4e8c-ac35-45624e9d8b0d","ios":"levelo://app?vid=9ee68ea5-7e90-4e8c-ac35-45624e9d8b0d"},"vehicle_type_id":"4","last_reported":1703900519,"current_range_meters":17600,"station_id":"ce4bha92rcd13ifvqeg0","pricing_plan_id":"free"},{"bike_id":"4bf64998-247a-439b-a072-cd1047c41911","system_id":"levelo_inurba_marseille","lat":43.289402,"lon":5.366419,"is_reserved":false,"is_disabled":false,"rental_uris":{"android":"levelo://app?vid=4bf64998-247a-439b-a072-cd1047c41911","ios":"levelo://app?vid=4bf64998-247a-439b-a072-cd1047c41911"},"vehicle_type_id":"4","last_reported":1703900519,"current_range_meters":5200,"station_id":"","pricing_plan_id":"free"},{"bike_id":"8a700de3-b5f7-4bb1-a46c-dd2fa26e3cd7","system_id":"levelo_inurba_marseille","lat":43.289184,"lon":5.366408,"is_reserved":false,"is_disabled":false,"rental_uris":{"android":"levelo://app?vid=8a700de3-b5f7-4bb1-a46c-dd2fa26e3cd7","ios":"levelo://app?vid=8a700de3-b5f7-4bb1-a46c-dd2fa26e3cd7"},"vehicle_type_id":"4","last_reported":1703900519,"current_range_meters":26800,"station_id":"ce4bhap2rcd13ifvqek0","pricing_plan_id":"free"},{"bike_id":"64560e1f-a372-45f3-98cb-b87a8c189fd7","system_id":"levelo_inurba_marseille","lat":43.304296,"lon":5.397513,"is_reserved":false,"is_disabled":false,"rental_uris":{"android":"levelo://app?vid=64560e1f-a372-45f3-98cb-b87a8c189fd7","ios":"levelo://app?vid=64560e1f-a372-45f3-98cb-b87a8c189fd7"},"vehicle_type_id":"4","last_reported":1703900519,"current_range_meters":22000,"station_id":"ce4bh092rcd13ifvqd20","pricing_plan_id":"free"},{"bike_id":"d134cf0e-509a-4c1d-b636-7c6a249f048f","system_id":"levelo_inurba_marseille","lat":43.290103,"lon":5.356114,"is_reserved":false,"is_disabled":false,"rental_uris":{"android":"levelo://app?vid=d134cf0e-509a-4c1d-b636-7c6a249f048f","ios":"levelo://app?vid=d134cf0e-509a-4c1d-b636-7c6a249f048f"},"vehicle_type_id":"4","last_reported":1703900519,"current_range_meters":23200,"station_id":"ce4bhb92rcd13ifvqen0","pricing_plan_id":"free"},{"bike_id":"495faf64-a935-4c6e-b77f-2b296d14493a","system_id":"levelo_inurba_marseille","lat":43.331017,"lon":5.389194,"is_reserved":false,"is_disabled":false,"rental_uris":{"android":"levelo://app?vid=495faf64-a935-4c6e-b77f-2b296d14493a","ios":"levelo://app?vid=495faf64-a935-4c6e-b77f-2b296d14493a"},"vehicle_type_id":"4","last_reported":1703900519,"current_range_meters":5200,"station_id":"","pricing_plan_id":"free"},{"bike_id":"1b515824-679d-4871-bc3c-684b32133016","system_id":"levelo_inurba_marseille","lat":43.330442,"lon":5.389148,"is_reserved":false,"is_disabled":false,"rental_uris":{"android":"levelo://app?vid=1b515824-679d-4871-bc3c-684b32133016","ios":"levelo://app?vid=1b515824-679d-4871-bc3c-684b32133016"},"vehicle_type_id":"4","last_reported":1703900519,"current_range_meters":8400,"station_id":"ce4bhr92rcd13ifvqhrg","pricing_plan_id":"free"},{"bike_id":"1f2455bd-2b17-4c81-b6b5-460fd575e44c","system_id":"levelo_inurba_marseille","lat":43.289741,"lon":5.378306,"is_reserved":false,"is_disabled":false,"rental_uris":{"android":"levelo://app?vid=1f2455bd-2b17-4c81-b6b5-460fd575e44c","ios":"levelo://app?vid=1f2455bd-2b17-4c81-b6b5-460fd575e44c"},"vehicle_type_id":"4","last_reported":1703900519,"current_range_meters":22400,"station_id":"ce4bh9p2rcd13ifvqed0","pricing_plan_id":"free"},{"bike_id":"6a116204-728b-4b63-ac1b-835467fe3cbd","system_id":"levelo_inurba_marseille","lat":43.289741,"lon":5.378306,"is_reserved":false,"is_disabled":false,"rental_uris":{"android":"levelo://app?vid=6a116204-728b-4b63-ac1b-835467fe3cbd","ios":"levelo://app?vid=6a116204-728b-4b63-ac1b-835467fe3cbd"},"vehicle_type_id":"4","last_reported":1703900519,"current_range_meters":30800,"station_id":"ce4bh9p2rcd13ifvqed0","pricing_plan_id":"free"},{"bike_id":"1cac7715-af73-4820-bcfa-acc4a91b8f79","system_id":"levelo_inurba_marseille","lat":43.33025,"lon":5.39053,"is_reserved":false,"is_disabled":false,"rental_uris":{"android":"levelo://app?vid=1cac7715-af73-4820-bcfa-acc4a91b8f79","ios":"levelo://app?vid=1cac7715-af73-4820-bcfa-acc4a91b8f79"},"vehicle_type_id":"4","last_reported":1703900519,"current_range_meters":4400,"station_id":"","pricing_plan_id":"free"},{"bike_id":"1e4030f4-3197-4e40-b0b9-952f7fc3b91b","system_id":"levelo_inurba_marseille","lat":43.319513,"lon":5.400143,"is_reserved":false,"is_disabled":false,"rental_uris":{"android":"levelo://app?vid=1e4030f4-3197-4e40-b0b9-952f7fc3b91b","ios":"levelo://app?vid=1e4030f4-3197-4e40-b0b9-952f7fc3b91b"},"vehicle_type_id":"4","last_reported":1703900519,"current_range_meters":6800,"station_id":"","pricing_plan_id":"free"},{"bike_id":"1cd5fdc2-6e16-4622-b9ec-26122935b04a","system_id":"levelo_inurba_marseille","lat":43.309371,"lon":5.401449,"is_reserved":false,"is_disabled":false,"rental_uris":{"android":"levelo://app?vid=1cd5fdc2-6e16-4622-b9ec-26122935b04a","ios":"levelo://app?vid=1cd5fdc2-6e16-4622-b9ec-26122935b04a"},"vehicle_type_id":"4","last_reported":1703900519,"current_range_meters":14400,"station_id":"ce4bgvp2rcd13ifvqct0","pricing_plan_id":"free"},{"bike_id":"e83f706e-0781-4223-8172-3bf6a2e5cf3a","system_id":"levelo_inurba_marseille","lat":43.312609,"lon":5.401662,"is_reserved":false,"is_disabled":false,"rental_uris":{"android":"levelo://app?vid=e83f706e-0781-4223-8172-3bf6a2e5cf3a","ios":"levelo://app?vid=e83f706e-0781-4223-8172-3bf6a2e5cf3a"},"vehicle_type_id":"4","last_reported":1703900519,"current_range_meters":5200,"station_id":"ce4bh092rcd13ifvqd30","pricing_plan_id":"free"},{"bike_id":"6dcd66d6-b4ae-4a24-bec0-a2d36a66c2b2","system_id":"levelo_inurba_marseille","lat":43.309371,"lon":5.401449,"is_reserved":false,"is_disabled":false,"rental_uris":{"android":"levelo://app?vid=6dcd66d6-b4ae-4a24-bec0-a2d36a66c2b2","ios":"levelo://app?vid=6dcd66d6-b4ae-4a24-bec0-a2d36a66c2b2"},"vehicle_type_id":"4","last_reported":1703900519,"current_range_meters":19200,"station_id":"ce4bgvp2rcd13ifvqct0","pricing_plan_id":"free"},{"bike_id":"0e82eba0-f238-4077-ae73-e77bdada0e3e","system_id":"levelo_inurba_marseille","lat":43.312609,"lon":5.401662,"is_reserved":false,"is_disabled":false,"rental_uris":{"android":"levelo://app?vid=0e82eba0-f238-4077-ae73-e77bdada0e3e","ios":"levelo://app?vid=0e82eba0-f238-4077-ae73-e77bdada0e3e"},"vehicle_type_id":"4","last_reported":1703900519,"current_range_meters":17200,"station_id":"ce4bh092rcd13ifvqd30","pricing_plan_id":"free"},{"bike_id":"d29f7a6c-6eff-46b1-9d51-bbf08faabfa1","system_id":"levelo_inurba_marseille","lat":43.337477,"lon":5.374431,"is_reserved":false,"is_disabled":false,"rental_uris":{"android":"levelo://app?vid=d29f7a6c-6eff-46b1-9d51-bbf08faabfa1","ios":"levelo://app?vid=d29f7a6c-6eff-46b1-9d51-bbf08faabfa1"},"vehicle_type_id":"4","last_reported":1703900519,"current_range_meters":2000,"station_id":"","pricing_plan_id":"free"},{"bike_id":"5294d224-b7f6-47ec-9487-41496eb9c312","system_id":"levelo_inurba_marseille","lat":43.309371,"lon":5.401449,"is_reserved":false,"is_disabled":false,"rental_uris":{"android":"levelo://app?vid=5294d224-b7f6-47ec-9487-41496eb9c312","ios":"levelo://app?vid=5294d224-b7f6-47ec-9487-41496eb9c312"},"vehicle_type_id":"4","last_reported":1703900519,"current_range_meters":24800,"station_id":"ce4bgvp2rcd13ifvqct0","pricing_plan_id":"free"},{"bike_id":"724df234-d4ab-4731-bf04-d478d40b4f6f","system_id":"levelo_inurba_marseille","lat":43.309371,"lon":5.401449,"is_reserved":false,"is_disabled":false,"rental_uris":{"android":"levelo://app?vid=724df234-d4ab-4731-bf04-d478d40b4f6f","ios":"levelo://app?vid=724df234-d4ab-4731-bf04-d478d40b4f6f"},"vehicle_type_id":"4","last_reported":1703900519,"current_range_meters":19200,"station_id":"ce4bgvp2rcd13ifvqct0","pricing_plan_id":"free"},{"bike_id":"cf8f95f0-5258-4bba-8377-9d536f93e4a4","system_id":"levelo_inurba_marseille","lat":43.309371,"lon":5.401449,"is_reserved":false,"is_disabled":false,"rental_uris":{"android":"levelo://app?vid=cf8f95f0-5258-4bba-8377-9d536f93e4a4","ios":"levelo://app?vid=cf8f95f0-5258-4bba-8377-9d536f93e4a4"},"vehicle_type_id":"4","last_reported":1703900519,"current_range_meters":19200,"station_id":"ce4bgvp2rcd13ifvqct0","pricing_plan_id":"free"},{"bike_id":"5847c90a-b42d-46d2-a6e4-ce5beaf17762","system_id":"levelo_inurba_marseille","lat":43.33754,"lon":5.37452,"is_reserved":false,"is_disabled":false,"rental_uris":{"android":"levelo://app?vid=5847c90a-b42d-46d2-a6e4-ce5beaf17762","ios":"levelo://app?vid=5847c90a-b42d-46d2-a6e4-ce5beaf17762"},"vehicle_type_id":"4","last_reported":1703900519,"current_range_meters":23600,"station_id":"","pricing_plan_id":"free"},{"bike_id":"2514105e-e99a-43c9-b24d-e1d0436133ca","system_id":"levelo_inurba_marseille","lat":43.33757,"lon":5.37479,"is_reserved":false,"is_disabled":false,"rental_uris":{"android":"levelo://app?vid=2514105e-e99a-43c9-b24d-e1d0436133ca","ios":"levelo://app?vid=2514105e-e99a-43c9-b24d-e1d0436133ca"},"vehicle_type_id":"4","last_reported":1703900519,"current_range_meters":24800,"station_id":"","pricing_plan_id":"free"},{"bike_id":"d2b821ec-beb7-46b6-b122-d650f30a791a","system_id":"levelo_inurba_marseille","lat":43.306412,"lon":5.401035,"is_reserved":false,"is_disabled":false,"rental_uris":{"android":"levelo://app?vid=d2b821ec-beb7-46b6-b122-d650f30a791a","ios":"levelo://app?vid=d2b821ec-beb7-46b6-b122-d650f30a791a"},"vehicle_type_id":"4","last_reported":1703900519,"current_range_meters":6800,"station_id":"ce4bh112rcd13ifvqda0","pricing_plan_id":"free"},{"bike_id":"f0d8b349-442a-47ac-98ec-6310d92cbaca","system_id":"levelo_inurba_marseille","lat":43.337642,"lon":5.374836,"is_reserved":false,"is_disabled":false,"rental_uris":{"android":"levelo://app?vid=f0d8b349-442a-47ac-98ec-6310d92cbaca","ios":"levelo://app?vid=f0d8b349-442a-47ac-98ec-6310d92cbaca"},"vehicle_type_id":"4","last_reported":1703900519,"current_range_meters":24400,"station_id":"","pricing_plan_id":"free"},{"bike_id":"f23bf424-c7b4-428a-94fc-812a7b504a0e","system_id":"levelo_inurba_marseille","lat":43.306412,"lon":5.401035,"is_reserved":false,"is_disabled":false,"rental_uris":{"android":"levelo://app?vid=f23bf424-c7b4-428a-94fc-812a7b504a0e","ios":"levelo://app?vid=f23bf424-c7b4-428a-94fc-812a7b504a0e"},"vehicle_type_id":"4","last_reported":1703900519,"current_range_meters":17200,"station_id":"ce4bh112rcd13ifvqda0","pricing_plan_id":"free"},{"bike_id":"ad6f58e6-4ae3-4fcf-b424-3b41f4295114","system_id":"levelo_inurba_marseille","lat":43.301117,"lon":5.398795,"is_reserved":false,"is_disabled":false,"rental_uris":{"android":"levelo://app?vid=ad6f58e6-4ae3-4fcf-b424-3b41f4295114","ios":"levelo://app?vid=ad6f58e6-4ae3-4fcf-b424-3b41f4295114"},"vehicle_type_id":"4","last_reported":1703900519,"current_range_meters":7200,"station_id":"ce4bh0h2rcd13ifvqd40","pricing_plan_id":"free"},{"bike_id":"8a5bd92e-8469-4bf3-b0fb-46b1f6891359","system_id":"levelo_inurba_marseille","lat":43.301117,"lon":5.398795,"is_reserved":false,"is_disabled":false,"rental_uris":{"android":"levelo://app?vid=8a5bd92e-8469-4bf3-b0fb-46b1f6891359","ios":"levelo://app?vid=8a5bd92e-8469-4bf3-b0fb-46b1f6891359"},"vehicle_type_id":"4","last_reported":1703900519,"current_range_meters":11200,"station_id":"ce4bh0h2rcd13ifvqd40","pricing_plan_id":"free"},{"bike_id":"1fb32a18-6b7f-4367-8b0c-2ec2e93d9056","system_id":"levelo_inurba_marseille","lat":43.301117,"lon":5.398795,"is_reserved":false,"is_disabled":false,"rental_uris":{"android":"levelo://app?vid=1fb32a18-6b7f-4367-8b0c-2ec2e93d9056","ios":"levelo://app?vid=1fb32a18-6b7f-4367-8b0c-2ec2e93d9056"},"vehicle_type_id":"4","last_reported":1703900519,"current_range_meters":31600,"station_id":"ce4bh0h2rcd13ifvqd40","pricing_plan_id":"free"},{"bike_id":"2bf58d06-d5ff-4f71-a64f-8e5f5b0a6e57","system_id":"levelo_inurba_marseille","lat":43.28727,"lon":5.36078,"is_reserved":false,"is_disabled":false,"rental_uris":{"android":"levelo://app?vid=2bf58d06-d5ff-4f71-a64f-8e5f5b0a6e57","ios":"levelo://app?vid=2bf58d06-d5ff-4f71-a64f-8e5f5b0a6e57"},"vehicle_type_id":"4","last_reported":1703900519,"current_range_meters":10800,"station_id":"cki0cbj6b192h4jlfktg","pricing_plan_id":"free"},{"bike_id":"c5313604-0794-46b0-8ce2-5ed378c1675e","system_id":"levelo_inurba_marseille","lat":43.28727,"lon":5.36078,"is_reserved":false,"is_disabled":false,"rental_uris":{"android":"levelo://app?vid=c5313604-0794-46b0-8ce2-5ed378c1675e","ios":"levelo://app?vid=c5313604-0794-46b0-8ce2-5ed378c1675e"},"vehicle_type_id":"4","last_reported":1703900519,"current_range_meters":29200,"station_id":"cki0cbj6b192h4jlfktg","pricing_plan_id":"free"},{"bike_id":"b181c940-592d-4916-b10f-a127b6d3ff3d","system_id":"levelo_inurba_marseille","lat":43.286591,"lon":5.363346,"is_reserved":false,"is_disabled":false,"rental_uris":{"android":"levelo://app?vid=b181c940-592d-4916-b10f-a127b6d3ff3d","ios":"levelo://app?vid=b181c940-592d-4916-b10f-a127b6d3ff3d"},"vehicle_type_id":"4","last_reported":1703900519,"current_range_meters":30000,"station_id":"ce4bhah2rcd13ifvqej0","pricing_plan_id":"free"},{"bike_id":"db605f6a-05ac-44b0-af6f-6c29ac6502f8","system_id":"levelo_inurba_marseille","lat":43.286591,"lon":5.363346,"is_reserved":false,"is_disabled":false,"rental_uris":{"android":"levelo://app?vid=db605f6a-05ac-44b0-af6f-6c29ac6502f8","ios":"levelo://app?vid=db605f6a-05ac-44b0-af6f-6c29ac6502f8"},"vehicle_type_id":"4","last_reported":1703900519,"current_range_meters":28400,"station_id":"ce4bhah2rcd13ifvqej0","pricing_plan_id":"free"},{"bike_id":"83f0cf47-d741-4da4-a674-885b3fe343b5","system_id":"levelo_inurba_marseille","lat":43.287039,"lon":5.373684,"is_reserved":false,"is_disabled":false,"rental_uris":{"android":"levelo://app?vid=83f0cf47-d741-4da4-a674-885b3fe343b5","ios":"levelo://app?vid=83f0cf47-d741-4da4-a674-885b3fe343b5"},"vehicle_type_id":"4","last_reported":1703900519,"current_range_meters":19600,"station_id":"ce4bh3p2rcd13ifvqdq0","pricing_plan_id":"free"},{"bike_id":"c44f3962-5ae0-465a-99cb-463e5ec26e15","system_id":"levelo_inurba_marseille","lat":43.286961,"lon":5.373785,"is_reserved":false,"is_disabled":false,"rental_uris":{"android":"levelo://app?vid=c44f3962-5ae0-465a-99cb-463e5ec26e15","ios":"levelo://app?vid=c44f3962-5ae0-465a-99cb-463e5ec26e15"},"vehicle_type_id":"4","last_reported":1703900519,"current_range_meters":23200,"station_id":"ce4bh3p2rcd13ifvqdq0","pricing_plan_id":"free"},{"bike_id":"4e5248ae-7313-4898-880d-37906b976e1c","system_id":"levelo_inurba_marseille","lat":43.286961,"lon":5.373785,"is_reserved":false,"is_disabled":false,"rental_uris":{"android":"levelo://app?vid=4e5248ae-7313-4898-880d-37906b976e1c","ios":"levelo://app?vid=4e5248ae-7313-4898-880d-37906b976e1c"},"vehicle_type_id":"4","last_reported":1703900519,"current_range_meters":31200,"station_id":"ce4bh3p2rcd13ifvqdq0","pricing_plan_id":"free"},{"bike_id":"f7ea3b5f-ec84-450b-990e-670bbcb43764","system_id":"levelo_inurba_marseille","lat":43.298681,"lon":5.397225,"is_reserved":false,"is_disabled":false,"rental_uris":{"android":"levelo://app?vid=f7ea3b5f-ec84-450b-990e-670bbcb43764","ios":"levelo://app?vid=f7ea3b5f-ec84-450b-990e-670bbcb43764"},"vehicle_type_id":"4","last_reported":1703900519,"current_range_meters":28000,"station_id":"ce4bh0h2rcd13ifvqd50","pricing_plan_id":"free"},{"bike_id":"9d5adf6b-0342-4050-bc5a-79d85f381ccd","system_id":"levelo_inurba_marseille","lat":43.302759,"lon":5.400793,"is_reserved":false,"is_disabled":false,"rental_uris":{"android":"levelo://app?vid=9d5adf6b-0342-4050-bc5a-79d85f381ccd","ios":"levelo://app?vid=9d5adf6b-0342-4050-bc5a-79d85f381ccd"},"vehicle_type_id":"4","last_reported":1703900519,"current_range_meters":29600,"station_id":"ce4bgvh2rcd13ifvqcs0","pricing_plan_id":"free"},{"bike_id":"7d5e2d70-c18d-41dc-8680-d121622800f3","system_id":"levelo_inurba_marseille","lat":43.290336,"lon":5.386425,"is_reserved":false,"is_disabled":false,"rental_uris":{"android":"levelo://app?vid=7d5e2d70-c18d-41dc-8680-d121622800f3","ios":"levelo://app?vid=7d5e2d70-c18d-41dc-8680-d121622800f3"},"vehicle_type_id":"4","last_reported":1703900519,"current_range_meters":24800,"station_id":"ce4bh4p2rcd13ifvqe0g","pricing_plan_id":"free"},{"bike_id":"213e2092-3c03-4219-b69e-f6d234ccd40a","system_id":"levelo_inurba_marseille","lat":43.290336,"lon":5.386425,"is_reserved":false,"is_disabled":false,"rental_uris":{"android":"levelo://app?vid=213e2092-3c03-4219-b69e-f6d234ccd40a","ios":"levelo://app?vid=213e2092-3c03-4219-b69e-f6d234ccd40a"},"vehicle_type_id":"4","last_reported":1703900519,"current_range_meters":23200,"station_id":"ce4bh4p2rcd13ifvqe0g","pricing_plan_id":"free"},{"bike_id":"5dafff9a-d7a9-474e-9194-b794a881055d","system_id":"levelo_inurba_marseille","lat":43.302759,"lon":5.400793,"is_reserved":false,"is_disabled":false,"rental_uris":{"android":"levelo://app?vid=5dafff9a-d7a9-474e-9194-b794a881055d","ios":"levelo://app?vid=5dafff9a-d7a9-474e-9194-b794a881055d"},"vehicle_type_id":"4","last_reported":1703900519,"current_range_meters":29200,"station_id":"ce4bgvh2rcd13ifvqcs0","pricing_plan_id":"free"},{"bike_id":"f5e29492-a06b-4b65-a105-6eb6050fd688","system_id":"levelo_inurba_marseille","lat":43.302759,"lon":5.400793,"is_reserved":false,"is_disabled":false,"rental_uris":{"android":"levelo://app?vid=f5e29492-a06b-4b65-a105-6eb6050fd688","ios":"levelo://app?vid=f5e29492-a06b-4b65-a105-6eb6050fd688"},"vehicle_type_id":"4","last_reported":1703900519,"current_range_meters":31200,"station_id":"ce4bgvh2rcd13ifvqcs0","pricing_plan_id":"free"},{"bike_id":"99d5c251-9c04-4e54-a58c-9a162543a6a8","system_id":"levelo_inurba_marseille","lat":43.302759,"lon":5.400793,"is_reserved":false,"is_disabled":false,"rental_uris":{"android":"levelo://app?vid=99d5c251-9c04-4e54-a58c-9a162543a6a8","ios":"levelo://app?vid=99d5c251-9c04-4e54-a58c-9a162543a6a8"},"vehicle_type_id":"4","last_reported":1703900519,"current_range_meters":10400,"station_id":"ce4bgvh2rcd13ifvqcs0","pricing_plan_id":"free"},{"bike_id":"59248968-dfec-4e7a-befd-ae68b54eb182","system_id":"levelo_inurba_marseille","lat":43.286039,"lon":5.370681,"is_reserved":false,"is_disabled":false,"rental_uris":{"android":"levelo://app?vid=59248968-dfec-4e7a-befd-ae68b54eb182","ios":"levelo://app?vid=59248968-dfec-4e7a-befd-ae68b54eb182"},"vehicle_type_id":"4","last_reported":1703900519,"current_range_meters":12000,"station_id":"ce4bht12rcd13ifvqi60","pricing_plan_id":"free"},{"bike_id":"5895b403-34ca-4328-844f-701877478519","system_id":"levelo_inurba_marseille","lat":43.286039,"lon":5.370679,"is_reserved":false,"is_disabled":false,"rental_uris":{"android":"levelo://app?vid=5895b403-34ca-4328-844f-701877478519","ios":"levelo://app?vid=5895b403-34ca-4328-844f-701877478519"},"vehicle_type_id":"4","last_reported":1703900519,"current_range_meters":30000,"station_id":"ce4bht12rcd13ifvqi60","pricing_plan_id":"free"},{"bike_id":"3f2d8ceb-fcc7-41ce-8cfa-5fed8c03ca64","system_id":"levelo_inurba_marseille","lat":43.287184,"lon":5.37937,"is_reserved":false,"is_disabled":false,"rental_uris":{"android":"levelo://app?vid=3f2d8ceb-fcc7-41ce-8cfa-5fed8c03ca64","ios":"levelo://app?vid=3f2d8ceb-fcc7-41ce-8cfa-5fed8c03ca64"},"vehicle_type_id":"4","last_reported":1703900519,"current_range_meters":25600,"station_id":"ce4bh9p2rcd13ifvqec0","pricing_plan_id":"free"},{"bike_id":"22b1b97a-1f7d-4629-84bf-48fb621e3188","system_id":"levelo_inurba_marseille","lat":43.287185,"lon":5.379373,"is_reserved":false,"is_disabled":false,"rental_uris":{"android":"levelo://app?vid=22b1b97a-1f7d-4629-84bf-48fb621e3188","ios":"levelo://app?vid=22b1b97a-1f7d-4629-84bf-48fb621e3188"},"vehicle_type_id":"4","last_reported":1703900519,"current_range_meters":10400,"station_id":"ce4bh9p2rcd13ifvqec0","pricing_plan_id":"free"},{"bike_id":"aac00441-5e5c-4474-92e6-e699a3867bae","system_id":"levelo_inurba_marseille","lat":43.28582,"lon":5.36024,"is_reserved":false,"is_disabled":false,"rental_uris":{"android":"levelo://app?vid=aac00441-5e5c-4474-92e6-e699a3867bae","ios":"levelo://app?vid=aac00441-5e5c-4474-92e6-e699a3867bae"},"vehicle_type_id":"4","last_reported":1703900519,"current_range_meters":25600,"station_id":"","pricing_plan_id":"free"},{"bike_id":"e503fd9f-e092-4266-beb7-6a9c4cce5327","system_id":"levelo_inurba_marseille","lat":43.284538,"lon":5.358657,"is_reserved":false,"is_disabled":false,"rental_uris":{"android":"levelo://app?vid=e503fd9f-e092-4266-beb7-6a9c4cce5327","ios":"levelo://app?vid=e503fd9f-e092-4266-beb7-6a9c4cce5327"},"vehicle_type_id":"4","last_reported":1703900519,"current_range_meters":26000,"station_id":"ce4bhah2rcd13ifvqei0","pricing_plan_id":"free"},{"bike_id":"678227f5-e89e-4c64-bf95-472384ac65ad","system_id":"levelo_inurba_marseille","lat":43.284538,"lon":5.358657,"is_reserved":false,"is_disabled":false,"rental_uris":{"android":"levelo://app?vid=678227f5-e89e-4c64-bf95-472384ac65ad","ios":"levelo://app?vid=678227f5-e89e-4c64-bf95-472384ac65ad"},"vehicle_type_id":"4","last_reported":1703900519,"current_range_meters":31600,"station_id":"ce4bhah2rcd13ifvqei0","pricing_plan_id":"free"},{"bike_id":"793655ca-c96e-48e4-84a5-d6967c882a50","system_id":"levelo_inurba_marseille","lat":43.284538,"lon":5.358657,"is_reserved":false,"is_disabled":false,"rental_uris":{"android":"levelo://app?vid=793655ca-c96e-48e4-84a5-d6967c882a50","ios":"levelo://app?vid=793655ca-c96e-48e4-84a5-d6967c882a50"},"vehicle_type_id":"4","last_reported":1703900519,"current_range_meters":28400,"station_id":"ce4bhah2rcd13ifvqei0","pricing_plan_id":"free"},{"bike_id":"0d480cad-62da-4a65-b5ff-727f31eec608","system_id":"levelo_inurba_marseille","lat":43.284538,"lon":5.358657,"is_reserved":false,"is_disabled":false,"rental_uris":{"android":"levelo://app?vid=0d480cad-62da-4a65-b5ff-727f31eec608","ios":"levelo://app?vid=0d480cad-62da-4a65-b5ff-727f31eec608"},"vehicle_type_id":"4","last_reported":1703900519,"current_range_meters":21200,"station_id":"ce4bhah2rcd13ifvqei0","pricing_plan_id":"free"},{"bike_id":"b568fddb-5c59-4b99-8a03-b2d9cc9f0a9c","system_id":"levelo_inurba_marseille","lat":43.284534,"lon":5.358662,"is_reserved":false,"is_disabled":false,"rental_uris":{"android":"levelo://app?vid=b568fddb-5c59-4b99-8a03-b2d9cc9f0a9c","ios":"levelo://app?vid=b568fddb-5c59-4b99-8a03-b2d9cc9f0a9c"},"vehicle_type_id":"4","last_reported":1703900519,"current_range_meters":23600,"station_id":"ce4bhah2rcd13ifvqei0","pricing_plan_id":"free"},{"bike_id":"29811fa5-eaa7-489f-89a7-34be8eacb3bc","system_id":"levelo_inurba_marseille","lat":43.284534,"lon":5.358662,"is_reserved":false,"is_disabled":false,"rental_uris":{"android":"levelo://app?vid=29811fa5-eaa7-489f-89a7-34be8eacb3bc","ios":"levelo://app?vid=29811fa5-eaa7-489f-89a7-34be8eacb3bc"},"vehicle_type_id":"4","last_reported":1703900519,"current_range_meters":21600,"station_id":"ce4bhah2rcd13ifvqei0","pricing_plan_id":"free"},{"bike_id":"45af58a8-4f2b-400c-b2bf-120944409eb4","system_id":"levelo_inurba_marseille","lat":43.283998,"lon":5.375062,"is_reserved":false,"is_disabled":false,"rental_uris":{"android":"levelo://app?vid=45af58a8-4f2b-400c-b2bf-120944409eb4","ios":"levelo://app?vid=45af58a8-4f2b-400c-b2bf-120944409eb4"},"vehicle_type_id":"4","last_reported":1703900519,"current_range_meters":27200,"station_id":"ce4bh412rcd13ifvqds0","pricing_plan_id":"free"},{"bike_id":"7957d60b-f176-40ba-a106-03ac7162d99f","system_id":"levelo_inurba_marseille","lat":43.295713,"lon":5.399639,"is_reserved":false,"is_disabled":false,"rental_uris":{"android":"levelo://app?vid=7957d60b-f176-40ba-a106-03ac7162d99f","ios":"levelo://app?vid=7957d60b-f176-40ba-a106-03ac7162d99f"},"vehicle_type_id":"4","last_reported":1703900519,"current_range_meters":14400,"station_id":"ce4bh312rcd13ifvqdj0","pricing_plan_id":"free"},{"bike_id":"5bd9ed5c-d3fb-4a4e-802f-da8e57dc7ed4","system_id":"levelo_inurba_marseille","lat":43.283998,"lon":5.375062,"is_reserved":false,"is_disabled":false,"rental_uris":{"android":"levelo://app?vid=5bd9ed5c-d3fb-4a4e-802f-da8e57dc7ed4","ios":"levelo://app?vid=5bd9ed5c-d3fb-4a4e-802f-da8e57dc7ed4"},"vehicle_type_id":"4","last_reported":1703900519,"current_range_meters":31200,"station_id":"ce4bh412rcd13ifvqds0","pricing_plan_id":"free"},{"bike_id":"f0d1ce46-faf5-486f-835d-5abe66ae0de5","system_id":"levelo_inurba_marseille","lat":43.283998,"lon":5.375062,"is_reserved":false,"is_disabled":false,"rental_uris":{"android":"levelo://app?vid=f0d1ce46-faf5-486f-835d-5abe66ae0de5","ios":"levelo://app?vid=f0d1ce46-faf5-486f-835d-5abe66ae0de5"},"vehicle_type_id":"4","last_reported":1703900519,"current_range_meters":16800,"station_id":"ce4bh412rcd13ifvqds0","pricing_plan_id":"free"},{"bike_id":"292d57f4-5847-4a38-b02a-09f7a05b4157","system_id":"levelo_inurba_marseille","lat":43.283998,"lon":5.375062,"is_reserved":false,"is_disabled":false,"rental_uris":{"android":"levelo://app?vid=292d57f4-5847-4a38-b02a-09f7a05b4157","ios":"levelo://app?vid=292d57f4-5847-4a38-b02a-09f7a05b4157"},"vehicle_type_id":"4","last_reported":1703900519,"current_range_meters":12800,"station_id":"ce4bh412rcd13ifvqds0","pricing_plan_id":"free"},{"bike_id":"a6ff6d3b-68c7-40ed-b60f-6846a4db124d","system_id":"levelo_inurba_marseille","lat":43.283998,"lon":5.375062,"is_reserved":false,"is_disabled":false,"rental_uris":{"android":"levelo://app?vid=a6ff6d3b-68c7-40ed-b60f-6846a4db124d","ios":"levelo://app?vid=a6ff6d3b-68c7-40ed-b60f-6846a4db124d"},"vehicle_type_id":"4","last_reported":1703900519,"current_range_meters":22000,"station_id":"ce4bh412rcd13ifvqds0","pricing_plan_id":"free"},{"bike_id":"c9b28026-cbe1-48ee-b4a0-56e4d1c42459","system_id":"levelo_inurba_marseille","lat":43.283998,"lon":5.375062,"is_reserved":false,"is_disabled":false,"rental_uris":{"android":"levelo://app?vid=c9b28026-cbe1-48ee-b4a0-56e4d1c42459","ios":"levelo://app?vid=c9b28026-cbe1-48ee-b4a0-56e4d1c42459"},"vehicle_type_id":"4","last_reported":1703900519,"current_range_meters":29600,"station_id":"ce4bh412rcd13ifvqds0","pricing_plan_id":"free"},{"bike_id":"826ee3ee-e6f5-40b4-ae31-5f48d6237c3e","system_id":"levelo_inurba_marseille","lat":43.283998,"lon":5.375062,"is_reserved":false,"is_disabled":false,"rental_uris":{"android":"levelo://app?vid=826ee3ee-e6f5-40b4-ae31-5f48d6237c3e","ios":"levelo://app?vid=826ee3ee-e6f5-40b4-ae31-5f48d6237c3e"},"vehicle_type_id":"4","last_reported":1703900519,"current_range_meters":31600,"station_id":"ce4bh412rcd13ifvqds0","pricing_plan_id":"free"},{"bike_id":"b2321838-0bbc-4646-ba80-c687b685651a","system_id":"levelo_inurba_marseille","lat":43.295713,"lon":5.399639,"is_reserved":false,"is_disabled":false,"rental_uris":{"android":"levelo://app?vid=b2321838-0bbc-4646-ba80-c687b685651a","ios":"levelo://app?vid=b2321838-0bbc-4646-ba80-c687b685651a"},"vehicle_type_id":"4","last_reported":1703900519,"current_range_meters":16800,"station_id":"ce4bh312rcd13ifvqdj0","pricing_plan_id":"free"},{"bike_id":"d327088c-cfd3-47f1-b25c-7b567cfcdd0e","system_id":"levelo_inurba_marseille","lat":43.283998,"lon":5.375062,"is_reserved":false,"is_disabled":false,"rental_uris":{"android":"levelo://app?vid=d327088c-cfd3-47f1-b25c-7b567cfcdd0e","ios":"levelo://app?vid=d327088c-cfd3-47f1-b25c-7b567cfcdd0e"},"vehicle_type_id":"4","last_reported":1703900519,"current_range_meters":12000,"station_id":"ce4bh412rcd13ifvqds0","pricing_plan_id":"free"},{"bike_id":"fac5b06c-a086-4a85-8be7-aaffa821859d","system_id":"levelo_inurba_marseille","lat":43.295713,"lon":5.399639,"is_reserved":false,"is_disabled":false,"rental_uris":{"android":"levelo://app?vid=fac5b06c-a086-4a85-8be7-aaffa821859d","ios":"levelo://app?vid=fac5b06c-a086-4a85-8be7-aaffa821859d"},"vehicle_type_id":"4","last_reported":1703900519,"current_range_meters":29200,"station_id":"ce4bh312rcd13ifvqdj0","pricing_plan_id":"free"},{"bike_id":"fbfb8c05-5ed4-463e-b775-b689b2ac1d1b","system_id":"levelo_inurba_marseille","lat":43.283998,"lon":5.375062,"is_reserved":false,"is_disabled":false,"rental_uris":{"android":"levelo://app?vid=fbfb8c05-5ed4-463e-b775-b689b2ac1d1b","ios":"levelo://app?vid=fbfb8c05-5ed4-463e-b775-b689b2ac1d1b"},"vehicle_type_id":"4","last_reported":1703900519,"current_range_meters":9200,"station_id":"ce4bh412rcd13ifvqds0","pricing_plan_id":"free"},{"bike_id":"c1b22e0c-4f33-4ea4-8ad2-c6f2e70ab9fe","system_id":"levelo_inurba_marseille","lat":43.295713,"lon":5.399639,"is_reserved":false,"is_disabled":false,"rental_uris":{"android":"levelo://app?vid=c1b22e0c-4f33-4ea4-8ad2-c6f2e70ab9fe","ios":"levelo://app?vid=c1b22e0c-4f33-4ea4-8ad2-c6f2e70ab9fe"},"vehicle_type_id":"4","last_reported":1703900519,"current_range_meters":30000,"station_id":"ce4bh312rcd13ifvqdj0","pricing_plan_id":"free"},{"bike_id":"92c503c9-0127-4a85-a098-243c3fa71296","system_id":"levelo_inurba_marseille","lat":43.319179,"lon":5.407725,"is_reserved":false,"is_disabled":false,"rental_uris":{"android":"levelo://app?vid=92c503c9-0127-4a85-a098-243c3fa71296","ios":"levelo://app?vid=92c503c9-0127-4a85-a098-243c3fa71296"},"vehicle_type_id":"4","last_reported":1703900519,"current_range_meters":27600,"station_id":"ce4bhq12rcd13ifvqhig","pricing_plan_id":"free"},{"bike_id":"c7bdc9f5-a856-4f00-85f4-b12a0e7e40a9","system_id":"levelo_inurba_marseille","lat":43.323464,"lon":5.406297,"is_reserved":false,"is_disabled":false,"rental_uris":{"android":"levelo://app?vid=c7bdc9f5-a856-4f00-85f4-b12a0e7e40a9","ios":"levelo://app?vid=c7bdc9f5-a856-4f00-85f4-b12a0e7e40a9"},"vehicle_type_id":"4","last_reported":1703900519,"current_range_meters":26000,"station_id":"ce4bhq92rcd13ifvqhjg","pricing_plan_id":"free"},{"bike_id":"c9cdc97e-3b4c-49e9-9424-721a32ba6fd6","system_id":"levelo_inurba_marseille","lat":43.337168,"lon":5.391825,"is_reserved":false,"is_disabled":false,"rental_uris":{"android":"levelo://app?vid=c9cdc97e-3b4c-49e9-9424-721a32ba6fd6","ios":"levelo://app?vid=c9cdc97e-3b4c-49e9-9424-721a32ba6fd6"},"vehicle_type_id":"4","last_reported":1703900519,"current_range_meters":28000,"station_id":"ce4bhr92rcd13ifvqhsg","pricing_plan_id":"free"},{"bike_id":"d31c6e90-665f-4aee-aa43-dd5d1b8eea52","system_id":"levelo_inurba_marseille","lat":43.284793,"lon":5.384119,"is_reserved":false,"is_disabled":false,"rental_uris":{"android":"levelo://app?vid=d31c6e90-665f-4aee-aa43-dd5d1b8eea52","ios":"levelo://app?vid=d31c6e90-665f-4aee-aa43-dd5d1b8eea52"},"vehicle_type_id":"4","last_reported":1703900519,"current_range_meters":30000,"station_id":"ce4bh512rcd13ifvqe3g","pricing_plan_id":"free"},{"bike_id":"d3534c79-8c09-481e-801f-f9be781421f1","system_id":"levelo_inurba_marseille","lat":43.297946,"lon":5.404063,"is_reserved":false,"is_disabled":false,"rental_uris":{"android":"levelo://app?vid=d3534c79-8c09-481e-801f-f9be781421f1","ios":"levelo://app?vid=d3534c79-8c09-481e-801f-f9be781421f1"},"vehicle_type_id":"4","last_reported":1703900519,"current_range_meters":24800,"station_id":"ce4bh112rcd13ifvqd90","pricing_plan_id":"free"},{"bike_id":"2ad95a4b-214e-48fc-9c4c-dced021e229f","system_id":"levelo_inurba_marseille","lat":43.325226,"lon":5.405751,"is_reserved":false,"is_disabled":false,"rental_uris":{"android":"levelo://app?vid=2ad95a4b-214e-48fc-9c4c-dced021e229f","ios":"levelo://app?vid=2ad95a4b-214e-48fc-9c4c-dced021e229f"},"vehicle_type_id":"4","last_reported":1703900519,"current_range_meters":31200,"station_id":"","pricing_plan_id":"free"},{"bike_id":"30c28359-fe6f-4521-b6f8-124ed38a777b","system_id":"levelo_inurba_marseille","lat":43.325241,"lon":5.405791,"is_reserved":false,"is_disabled":false,"rental_uris":{"android":"levelo://app?vid=30c28359-fe6f-4521-b6f8-124ed38a777b","ios":"levelo://app?vid=30c28359-fe6f-4521-b6f8-124ed38a777b"},"vehicle_type_id":"4","last_reported":1703900519,"current_range_meters":11200,"station_id":"","pricing_plan_id":"free"},{"bike_id":"12abca64-024e-433b-bc59-478cb6a8d434","system_id":"levelo_inurba_marseille","lat":43.32532,"lon":5.405787,"is_reserved":false,"is_disabled":false,"rental_uris":{"android":"levelo://app?vid=12abca64-024e-433b-bc59-478cb6a8d434","ios":"levelo://app?vid=12abca64-024e-433b-bc59-478cb6a8d434"},"vehicle_type_id":"4","last_reported":1703900519,"current_range_meters":10000,"station_id":"","pricing_plan_id":"free"},{"bike_id":"d047ca68-9078-4a93-a47a-39dbb2c50969","system_id":"levelo_inurba_marseille","lat":43.283498,"lon":5.380948,"is_reserved":false,"is_disabled":false,"rental_uris":{"android":"levelo://app?vid=d047ca68-9078-4a93-a47a-39dbb2c50969","ios":"levelo://app?vid=d047ca68-9078-4a93-a47a-39dbb2c50969"},"vehicle_type_id":"4","last_reported":1703900519,"current_range_meters":30000,"station_id":"ce4bh412rcd13ifvqdr0","pricing_plan_id":"free"},{"bike_id":"e485450b-2736-4f4c-b94b-0da5a69b88aa","system_id":"levelo_inurba_marseille","lat":43.33385,"lon":5.39822,"is_reserved":false,"is_disabled":false,"rental_uris":{"android":"levelo://app?vid=e485450b-2736-4f4c-b94b-0da5a69b88aa","ios":"levelo://app?vid=e485450b-2736-4f4c-b94b-0da5a69b88aa"},"vehicle_type_id":"4","last_reported":1703900519,"current_range_meters":8800,"station_id":"","pricing_plan_id":"free"},{"bike_id":"626f0a1b-5435-4204-99bc-312f09b853ad","system_id":"levelo_inurba_marseille","lat":43.284219,"lon":5.3497,"is_reserved":false,"is_disabled":false,"rental_uris":{"android":"levelo://app?vid=626f0a1b-5435-4204-99bc-312f09b853ad","ios":"levelo://app?vid=626f0a1b-5435-4204-99bc-312f09b853ad"},"vehicle_type_id":"4","last_reported":1703900519,"current_range_meters":30400,"station_id":"ce4bhbh2rcd13ifvqepg","pricing_plan_id":"free"},{"bike_id":"cb1ada0e-925c-447a-a1cd-b7b285a9e582","system_id":"levelo_inurba_marseille","lat":43.28386,"lon":5.3863,"is_reserved":false,"is_disabled":false,"rental_uris":{"android":"levelo://app?vid=cb1ada0e-925c-447a-a1cd-b7b285a9e582","ios":"levelo://app?vid=cb1ada0e-925c-447a-a1cd-b7b285a9e582"},"vehicle_type_id":"4","last_reported":1703900519,"current_range_meters":13200,"station_id":"","pricing_plan_id":"free"},{"bike_id":"31a486d1-67aa-465c-946d-1a8671f6f7d8","system_id":"levelo_inurba_marseille","lat":43.283805,"lon":5.38644,"is_reserved":false,"is_disabled":false,"rental_uris":{"android":"levelo://app?vid=31a486d1-67aa-465c-946d-1a8671f6f7d8","ios":"levelo://app?vid=31a486d1-67aa-465c-946d-1a8671f6f7d8"},"vehicle_type_id":"4","last_reported":1703900519,"current_range_meters":24800,"station_id":"ce4bh492rcd13ifvqdvg","pricing_plan_id":"free"},{"bike_id":"e556a1bc-ad96-40a1-b149-9700182c2a82","system_id":"levelo_inurba_marseille","lat":43.282754,"lon":5.350519,"is_reserved":false,"is_disabled":false,"rental_uris":{"android":"levelo://app?vid=e556a1bc-ad96-40a1-b149-9700182c2a82","ios":"levelo://app?vid=e556a1bc-ad96-40a1-b149-9700182c2a82"},"vehicle_type_id":"4","last_reported":1703900519,"current_range_meters":28800,"station_id":"ce4bhbp2rcd13ifvqerg","pricing_plan_id":"free"},{"bike_id":"57e02c62-d375-475a-937f-fa741e7b2ac1","system_id":"levelo_inurba_marseille","lat":43.280382,"lon":5.369291,"is_reserved":false,"is_disabled":false,"rental_uris":{"android":"levelo://app?vid=57e02c62-d375-475a-937f-fa741e7b2ac1","ios":"levelo://app?vid=57e02c62-d375-475a-937f-fa741e7b2ac1"},"vehicle_type_id":"4","last_reported":1703900519,"current_range_meters":28000,"station_id":"ce4bha12rcd13ifvqef0","pricing_plan_id":"free"},{"bike_id":"77f1cb38-95de-4f2e-a4b9-c534ffce72c8","system_id":"levelo_inurba_marseille","lat":43.28039,"lon":5.369297,"is_reserved":false,"is_disabled":false,"rental_uris":{"android":"levelo://app?vid=77f1cb38-95de-4f2e-a4b9-c534ffce72c8","ios":"levelo://app?vid=77f1cb38-95de-4f2e-a4b9-c534ffce72c8"},"vehicle_type_id":"4","last_reported":1703900519,"current_range_meters":27200,"station_id":"ce4bha12rcd13ifvqef0","pricing_plan_id":"free"},{"bike_id":"e88a8927-e556-4eca-94a1-45f0b3b6e0d6","system_id":"levelo_inurba_marseille","lat":43.28039,"lon":5.369297,"is_reserved":false,"is_disabled":false,"rental_uris":{"android":"levelo://app?vid=e88a8927-e556-4eca-94a1-45f0b3b6e0d6","ios":"levelo://app?vid=e88a8927-e556-4eca-94a1-45f0b3b6e0d6"},"vehicle_type_id":"4","last_reported":1703900519,"current_range_meters":12800,"station_id":"ce4bha12rcd13ifvqef0","pricing_plan_id":"free"},{"bike_id":"e6705b7e-225d-4d3f-b609-3f8890a0bd7d","system_id":"levelo_inurba_marseille","lat":43.28039,"lon":5.369297,"is_reserved":false,"is_disabled":false,"rental_uris":{"android":"levelo://app?vid=e6705b7e-225d-4d3f-b609-3f8890a0bd7d","ios":"levelo://app?vid=e6705b7e-225d-4d3f-b609-3f8890a0bd7d"},"vehicle_type_id":"4","last_reported":1703900519,"current_range_meters":31200,"station_id":"ce4bha12rcd13ifvqef0","pricing_plan_id":"free"},{"bike_id":"cc26d6c9-2cac-4550-9c49-10adb96cb352","system_id":"levelo_inurba_marseille","lat":43.28039,"lon":5.369297,"is_reserved":false,"is_disabled":false,"rental_uris":{"android":"levelo://app?vid=cc26d6c9-2cac-4550-9c49-10adb96cb352","ios":"levelo://app?vid=cc26d6c9-2cac-4550-9c49-10adb96cb352"},"vehicle_type_id":"4","last_reported":1703900519,"current_range_meters":31200,"station_id":"ce4bha12rcd13ifvqef0","pricing_plan_id":"free"},{"bike_id":"9b436395-ed01-468d-a77e-74e6b71c07ec","system_id":"levelo_inurba_marseille","lat":43.28039,"lon":5.369297,"is_reserved":false,"is_disabled":false,"rental_uris":{"android":"levelo://app?vid=9b436395-ed01-468d-a77e-74e6b71c07ec","ios":"levelo://app?vid=9b436395-ed01-468d-a77e-74e6b71c07ec"},"vehicle_type_id":"4","last_reported":1703900519,"current_range_meters":18000,"station_id":"ce4bha12rcd13ifvqef0","pricing_plan_id":"free"},{"bike_id":"b2e9dd3c-ab70-4d36-b8bb-79a38e64a52c","system_id":"levelo_inurba_marseille","lat":43.28039,"lon":5.369297,"is_reserved":false,"is_disabled":false,"rental_uris":{"android":"levelo://app?vid=b2e9dd3c-ab70-4d36-b8bb-79a38e64a52c","ios":"levelo://app?vid=b2e9dd3c-ab70-4d36-b8bb-79a38e64a52c"},"vehicle_type_id":"4","last_reported":1703900519,"current_range_meters":30000,"station_id":"ce4bha12rcd13ifvqef0","pricing_plan_id":"free"},{"bike_id":"b0b85657-22c4-4545-9bad-fb7d19b0377a","system_id":"levelo_inurba_marseille","lat":43.28039,"lon":5.369297,"is_reserved":false,"is_disabled":false,"rental_uris":{"android":"levelo://app?vid=b0b85657-22c4-4545-9bad-fb7d19b0377a","ios":"levelo://app?vid=b0b85657-22c4-4545-9bad-fb7d19b0377a"},"vehicle_type_id":"4","last_reported":1703900519,"current_range_meters":18000,"station_id":"ce4bha12rcd13ifvqef0","pricing_plan_id":"free"},{"bike_id":"85d79688-2454-4602-acb0-2d1a8922a022","system_id":"levelo_inurba_marseille","lat":43.29041,"lon":5.399634,"is_reserved":false,"is_disabled":false,"rental_uris":{"android":"levelo://app?vid=85d79688-2454-4602-acb0-2d1a8922a022","ios":"levelo://app?vid=85d79688-2454-4602-acb0-2d1a8922a022"},"vehicle_type_id":"4","last_reported":1703900519,"current_range_meters":24400,"station_id":"ce4bh392rcd13ifvqdm0","pricing_plan_id":"free"},{"bike_id":"3100d794-ce98-400d-8237-4a9c34f1ee80","system_id":"levelo_inurba_marseille","lat":43.281044,"lon":5.378308,"is_reserved":false,"is_disabled":false,"rental_uris":{"android":"levelo://app?vid=3100d794-ce98-400d-8237-4a9c34f1ee80","ios":"levelo://app?vid=3100d794-ce98-400d-8237-4a9c34f1ee80"},"vehicle_type_id":"4","last_reported":1703900519,"current_range_meters":25600,"station_id":"ce4bha12rcd13ifvqee0","pricing_plan_id":"free"},{"bike_id":"0b6a5b1e-63f4-4b5a-afd4-6b3e14ae965d","system_id":"levelo_inurba_marseille","lat":43.281044,"lon":5.378308,"is_reserved":false,"is_disabled":false,"rental_uris":{"android":"levelo://app?vid=0b6a5b1e-63f4-4b5a-afd4-6b3e14ae965d","ios":"levelo://app?vid=0b6a5b1e-63f4-4b5a-afd4-6b3e14ae965d"},"vehicle_type_id":"4","last_reported":1703900519,"current_range_meters":25200,"station_id":"ce4bha12rcd13ifvqee0","pricing_plan_id":"free"},{"bike_id":"fef07020-a933-453a-a1f7-3e9b26e432c6","system_id":"levelo_inurba_marseille","lat":43.281044,"lon":5.378308,"is_reserved":false,"is_disabled":false,"rental_uris":{"android":"levelo://app?vid=fef07020-a933-453a-a1f7-3e9b26e432c6","ios":"levelo://app?vid=fef07020-a933-453a-a1f7-3e9b26e432c6"},"vehicle_type_id":"4","last_reported":1703900519,"current_range_meters":31600,"station_id":"ce4bha12rcd13ifvqee0","pricing_plan_id":"free"},{"bike_id":"4bef1dea-2164-4547-b9d8-776af92005e9","system_id":"levelo_inurba_marseille","lat":43.296263,"lon":5.40601,"is_reserved":false,"is_disabled":false,"rental_uris":{"android":"levelo://app?vid=4bef1dea-2164-4547-b9d8-776af92005e9","ios":"levelo://app?vid=4bef1dea-2164-4547-b9d8-776af92005e9"},"vehicle_type_id":"4","last_reported":1703900519,"current_range_meters":26400,"station_id":"ce4bh0h2rcd13ifvqd60","pricing_plan_id":"free"},{"bike_id":"694baf3c-c2ae-442c-a409-d1c64b7d3fcb","system_id":"levelo_inurba_marseille","lat":43.281044,"lon":5.378308,"is_reserved":false,"is_disabled":false,"rental_uris":{"android":"levelo://app?vid=694baf3c-c2ae-442c-a409-d1c64b7d3fcb","ios":"levelo://app?vid=694baf3c-c2ae-442c-a409-d1c64b7d3fcb"},"vehicle_type_id":"4","last_reported":1703900519,"current_range_meters":2000,"station_id":"ce4bha12rcd13ifvqee0","pricing_plan_id":"free"},{"bike_id":"191229b6-f1fb-4617-974b-6837d0c4cc45","system_id":"levelo_inurba_marseille","lat":43.28573,"lon":5.394992,"is_reserved":false,"is_disabled":false,"rental_uris":{"android":"levelo://app?vid=191229b6-f1fb-4617-974b-6837d0c4cc45","ios":"levelo://app?vid=191229b6-f1fb-4617-974b-6837d0c4cc45"},"vehicle_type_id":"4","last_reported":1703900519,"current_range_meters":24000,"station_id":"ce4bh292rcd13ifvqdg0","pricing_plan_id":"free"},{"bike_id":"62722cb0-91f2-47b4-b60b-e5b16038907b","system_id":"levelo_inurba_marseille","lat":43.326605,"lon":5.409903,"is_reserved":false,"is_disabled":false,"rental_uris":{"android":"levelo://app?vid=62722cb0-91f2-47b4-b60b-e5b16038907b","ios":"levelo://app?vid=62722cb0-91f2-47b4-b60b-e5b16038907b"},"vehicle_type_id":"4","last_reported":1703900519,"current_range_meters":30400,"station_id":"ce4bhpp2rcd13ifvqhgg","pricing_plan_id":"free"},{"bike_id":"c28bddba-5d7a-451f-a2da-3115474da65c","system_id":"levelo_inurba_marseille","lat":43.326605,"lon":5.409903,"is_reserved":false,"is_disabled":false,"rental_uris":{"android":"levelo://app?vid=c28bddba-5d7a-451f-a2da-3115474da65c","ios":"levelo://app?vid=c28bddba-5d7a-451f-a2da-3115474da65c"},"vehicle_type_id":"4","last_reported":1703900519,"current_range_meters":29200,"station_id":"ce4bhpp2rcd13ifvqhgg","pricing_plan_id":"free"},{"bike_id":"4d1ab0ec-97ef-4316-b4f8-9f26c524337f","system_id":"levelo_inurba_marseille","lat":43.304188,"lon":5.412904,"is_reserved":false,"is_disabled":false,"rental_uris":{"android":"levelo://app?vid=4d1ab0ec-97ef-4316-b4f8-9f26c524337f","ios":"levelo://app?vid=4d1ab0ec-97ef-4316-b4f8-9f26c524337f"},"vehicle_type_id":"4","last_reported":1703900519,"current_range_meters":23200,"station_id":"ce4bhop2rcd13ifvqh8g","pricing_plan_id":"free"},{"bike_id":"61210dc3-fb48-407f-91e7-442acecfaa07","system_id":"levelo_inurba_marseille","lat":43.304188,"lon":5.412904,"is_reserved":false,"is_disabled":false,"rental_uris":{"android":"levelo://app?vid=61210dc3-fb48-407f-91e7-442acecfaa07","ios":"levelo://app?vid=61210dc3-fb48-407f-91e7-442acecfaa07"},"vehicle_type_id":"4","last_reported":1703900519,"current_range_meters":28400,"station_id":"ce4bhop2rcd13ifvqh8g","pricing_plan_id":"free"},{"bike_id":"295bbd76-6a9c-4b1f-8350-6d09c5747336","system_id":"levelo_inurba_marseille","lat":43.279087,"lon":5.380114,"is_reserved":false,"is_disabled":false,"rental_uris":{"android":"levelo://app?vid=295bbd76-6a9c-4b1f-8350-6d09c5747336","ios":"levelo://app?vid=295bbd76-6a9c-4b1f-8350-6d09c5747336"},"vehicle_type_id":"4","last_reported":1703900519,"current_range_meters":27200,"station_id":"ce4bhf92rcd13ifvqf50","pricing_plan_id":"free"},{"bike_id":"d4e04c55-194d-40d2-997f-31a616529049","system_id":"levelo_inurba_marseille","lat":43.287154,"lon":5.399979,"is_reserved":false,"is_disabled":false,"rental_uris":{"android":"levelo://app?vid=d4e04c55-194d-40d2-997f-31a616529049","ios":"levelo://app?vid=d4e04c55-194d-40d2-997f-31a616529049"},"vehicle_type_id":"4","last_reported":1703900519,"current_range_meters":15200,"station_id":"ce4bho92rcd13ifvqh3g","pricing_plan_id":"free"},{"bike_id":"a290290b-d1c9-46a8-9280-6d55660390d7","system_id":"levelo_inurba_marseille","lat":43.287154,"lon":5.399979,"is_reserved":false,"is_disabled":false,"rental_uris":{"android":"levelo://app?vid=a290290b-d1c9-46a8-9280-6d55660390d7","ios":"levelo://app?vid=a290290b-d1c9-46a8-9280-6d55660390d7"},"vehicle_type_id":"4","last_reported":1703900519,"current_range_meters":21200,"station_id":"ce4bho92rcd13ifvqh3g","pricing_plan_id":"free"},{"bike_id":"3b190358-0bb3-4ddd-be01-0a721e0f0b03","system_id":"levelo_inurba_marseille","lat":43.287154,"lon":5.399979,"is_reserved":false,"is_disabled":false,"rental_uris":{"android":"levelo://app?vid=3b190358-0bb3-4ddd-be01-0a721e0f0b03","ios":"levelo://app?vid=3b190358-0bb3-4ddd-be01-0a721e0f0b03"},"vehicle_type_id":"4","last_reported":1703900519,"current_range_meters":30800,"station_id":"ce4bho92rcd13ifvqh3g","pricing_plan_id":"free"},{"bike_id":"77f30004-e3c8-4d49-82c4-19f2e58bb6b4","system_id":"levelo_inurba_marseille","lat":43.287154,"lon":5.399979,"is_reserved":false,"is_disabled":false,"rental_uris":{"android":"levelo://app?vid=77f30004-e3c8-4d49-82c4-19f2e58bb6b4","ios":"levelo://app?vid=77f30004-e3c8-4d49-82c4-19f2e58bb6b4"},"vehicle_type_id":"4","last_reported":1703900519,"current_range_meters":31600,"station_id":"ce4bho92rcd13ifvqh3g","pricing_plan_id":"free"},{"bike_id":"9e296534-3ed4-4ecf-afc8-2250c83a28ab","system_id":"levelo_inurba_marseille","lat":43.287154,"lon":5.399979,"is_reserved":false,"is_disabled":false,"rental_uris":{"android":"levelo://app?vid=9e296534-3ed4-4ecf-afc8-2250c83a28ab","ios":"levelo://app?vid=9e296534-3ed4-4ecf-afc8-2250c83a28ab"},"vehicle_type_id":"4","last_reported":1703900519,"current_range_meters":800,"station_id":"ce4bho92rcd13ifvqh3g","pricing_plan_id":"free"},{"bike_id":"146d1f88-8e33-426b-9a5f-a0e926f3e4a1","system_id":"levelo_inurba_marseille","lat":43.287154,"lon":5.399979,"is_reserved":false,"is_disabled":false,"rental_uris":{"android":"levelo://app?vid=146d1f88-8e33-426b-9a5f-a0e926f3e4a1","ios":"levelo://app?vid=146d1f88-8e33-426b-9a5f-a0e926f3e4a1"},"vehicle_type_id":"4","last_reported":1703900519,"current_range_meters":20400,"station_id":"ce4bho92rcd13ifvqh3g","pricing_plan_id":"free"},{"bike_id":"df3bcd78-33a9-4dce-9bab-dd707758125a","system_id":"levelo_inurba_marseille","lat":43.287154,"lon":5.399979,"is_reserved":false,"is_disabled":false,"rental_uris":{"android":"levelo://app?vid=df3bcd78-33a9-4dce-9bab-dd707758125a","ios":"levelo://app?vid=df3bcd78-33a9-4dce-9bab-dd707758125a"},"vehicle_type_id":"4","last_reported":1703900519,"current_range_meters":12400,"station_id":"ce4bho92rcd13ifvqh3g","pricing_plan_id":"free"},{"bike_id":"e47d683b-fcf1-4860-a27c-3686a52bb57a","system_id":"levelo_inurba_marseille","lat":43.287154,"lon":5.399979,"is_reserved":false,"is_disabled":false,"rental_uris":{"android":"levelo://app?vid=e47d683b-fcf1-4860-a27c-3686a52bb57a","ios":"levelo://app?vid=e47d683b-fcf1-4860-a27c-3686a52bb57a"},"vehicle_type_id":"4","last_reported":1703900519,"current_range_meters":30000,"station_id":"ce4bho92rcd13ifvqh3g","pricing_plan_id":"free"},{"bike_id":"48461c43-6e98-4517-b92b-e0fc84c73021","system_id":"levelo_inurba_marseille","lat":43.287154,"lon":5.399979,"is_reserved":false,"is_disabled":false,"rental_uris":{"android":"levelo://app?vid=48461c43-6e98-4517-b92b-e0fc84c73021","ios":"levelo://app?vid=48461c43-6e98-4517-b92b-e0fc84c73021"},"vehicle_type_id":"4","last_reported":1703900519,"current_range_meters":22400,"station_id":"ce4bho92rcd13ifvqh3g","pricing_plan_id":"free"},{"bike_id":"927344cc-55b9-46fa-a891-c353465bfa01","system_id":"levelo_inurba_marseille","lat":43.292571,"lon":5.409107,"is_reserved":false,"is_disabled":false,"rental_uris":{"android":"levelo://app?vid=927344cc-55b9-46fa-a891-c353465bfa01","ios":"levelo://app?vid=927344cc-55b9-46fa-a891-c353465bfa01"},"vehicle_type_id":"4","last_reported":1703900519,"current_range_meters":26000,"station_id":"ce4bh192rcd13ifvqdc0","pricing_plan_id":"free"},{"bike_id":"7267cb4d-476d-43b7-af3a-fe542accfcad","system_id":"levelo_inurba_marseille","lat":43.27618,"lon":5.361009,"is_reserved":false,"is_disabled":false,"rental_uris":{"android":"levelo://app?vid=7267cb4d-476d-43b7-af3a-fe542accfcad","ios":"levelo://app?vid=7267cb4d-476d-43b7-af3a-fe542accfcad"},"vehicle_type_id":"4","last_reported":1703900519,"current_range_meters":18800,"station_id":"ce4bgj92rcd13ifvqbe0","pricing_plan_id":"free"},{"bike_id":"4553df58-8a23-41f5-ac33-a5c7338b033b","system_id":"levelo_inurba_marseille","lat":43.27618,"lon":5.361009,"is_reserved":false,"is_disabled":false,"rental_uris":{"android":"levelo://app?vid=4553df58-8a23-41f5-ac33-a5c7338b033b","ios":"levelo://app?vid=4553df58-8a23-41f5-ac33-a5c7338b033b"},"vehicle_type_id":"4","last_reported":1703900519,"current_range_meters":31200,"station_id":"ce4bgj92rcd13ifvqbe0","pricing_plan_id":"free"},{"bike_id":"380033ab-ef7b-4448-9787-93712b4fe033","system_id":"levelo_inurba_marseille","lat":43.280784,"lon":5.396622,"is_reserved":false,"is_disabled":false,"rental_uris":{"android":"levelo://app?vid=380033ab-ef7b-4448-9787-93712b4fe033","ios":"levelo://app?vid=380033ab-ef7b-4448-9787-93712b4fe033"},"vehicle_type_id":"4","last_reported":1703900519,"current_range_meters":30400,"station_id":"ce4bho12rcd13ifvqh2g","pricing_plan_id":"free"},{"bike_id":"6681aa5d-6afd-4c9d-866b-f5eff907184f","system_id":"levelo_inurba_marseille","lat":43.273779,"lon":5.362485,"is_reserved":false,"is_disabled":false,"rental_uris":{"android":"levelo://app?vid=6681aa5d-6afd-4c9d-866b-f5eff907184f","ios":"levelo://app?vid=6681aa5d-6afd-4c9d-866b-f5eff907184f"},"vehicle_type_id":"4","last_reported":1703900519,"current_range_meters":30400,"station_id":"ce4bhbh2rcd13ifvqeo0","pricing_plan_id":"free"},{"bike_id":"0ff5aa5d-ebd4-47b1-bb8f-e3a4ce664e32","system_id":"levelo_inurba_marseille","lat":43.27377,"lon":5.36258,"is_reserved":false,"is_disabled":false,"rental_uris":{"android":"levelo://app?vid=0ff5aa5d-ebd4-47b1-bb8f-e3a4ce664e32","ios":"levelo://app?vid=0ff5aa5d-ebd4-47b1-bb8f-e3a4ce664e32"},"vehicle_type_id":"4","last_reported":1703900519,"current_range_meters":27600,"station_id":"ce4bhbh2rcd13ifvqeo0","pricing_plan_id":"free"},{"bike_id":"127ffd18-856e-468e-ad07-19110365d0c2","system_id":"levelo_inurba_marseille","lat":43.273749,"lon":5.362577,"is_reserved":false,"is_disabled":false,"rental_uris":{"android":"levelo://app?vid=127ffd18-856e-468e-ad07-19110365d0c2","ios":"levelo://app?vid=127ffd18-856e-468e-ad07-19110365d0c2"},"vehicle_type_id":"4","last_reported":1703900519,"current_range_meters":30400,"station_id":"ce4bhbh2rcd13ifvqeo0","pricing_plan_id":"free"},{"bike_id":"c891cab0-07f7-483f-9a4b-f0402623a519","system_id":"levelo_inurba_marseille","lat":43.273746,"lon":5.362606,"is_reserved":false,"is_disabled":false,"rental_uris":{"android":"levelo://app?vid=c891cab0-07f7-483f-9a4b-f0402623a519","ios":"levelo://app?vid=c891cab0-07f7-483f-9a4b-f0402623a519"},"vehicle_type_id":"4","last_reported":1703900519,"current_range_meters":10400,"station_id":"ce4bhbh2rcd13ifvqeo0","pricing_plan_id":"free"},