{"last_updated":1734423233,"ttl":60,"version":"2.2","data":{"bikes":[{"bike_id":"65e3a60a-05af-42fd-aba1-806a85674b77","system_id":"levelo_inurba_marseille","lat":43.27055,"lon":5.40251,"is_reserved":false,"is_disabled":true,"rental_uris":{"android":"levelo://app?vid=65e3a60a-05af-42fd-aba1-806a85674b77","ios":"levelo://app?vid=65e3a60a-05af-42fd-aba1-806a85674b77"},"vehicle_type_id":"4","last_reported":1734423233,"current_range_meters":800,"station_id":"ce4bhk92rcd13ifvqgc0","pricing_plan_id":"cebpf4jnsgd1na2vs0mg"},{"bike_id":"cf680758-2dfa-4f62-920e-e00027d39e68","system_id":"levelo_inurba_marseille","lat":43.29173,"lon":5.37144,"is_reserved":false,"is_disabled":false,"rental_uris":{"android":"levelo://app?vid=cf680758-2dfa-4f62-920e-e00027d39e68","ios":"levelo://app?vid=cf680758-2dfa-4f62-920e-e00027d39e68"},"vehicle_type_id":"4","last_reported":1734423233,"current_range_meters":400,"station_id":"ce4bha92rcd13ifvqeh0","pricing_plan_id":"cebpf4jnsgd1na2vs0mg"},{"bike_id":"e322b8fa-ec29-418a-b563-79e54303f841","system_id":"levelo_inurba_marseille","lat":43.34142,"lon":5.40902,"is_reserved":false,"is_disabled":false,"rental_uris":{"android":"levelo://app?vid=e322b8fa-ec29-418a-b563-79e54303f841","ios":"levelo://app?vid=e322b8fa-ec29-418a-b563-79e54303f841"},"vehicle_type_id":"4","last_reported":1734423233,"current_range_meters":6800,"station_id":"ce4bhqh2rcd13ifvqhlg","pricing_plan_id":"cebpf4jnsgd1na2vs0mg"},{"bike_id":"9d8c5593-779a-4903-8657-b41e03d0118d","system_id":"levelo_inurba_marseille","lat":43.313557,"lon":5.367163,"is_reserved":false,"is_disabled":false,"rental_uris":{"android":"levelo://app?vid=9d8c5593-779a-4903-8657-b41e03d0118d","ios":"levelo://app?vid=9d8c5593-779a-4903-8657-b41e03d0118d"},"vehicle_type_id":"4","last_reported":1734423233,"current_range_meters":11600,"station_id":"ce4bgr92rcd13ifvqc6g","pricing_plan_id":"cebpf4jnsgd1na2vs0mg"},{"bike_id":"6023fdf7-02ab-492e-aedc-b62519bd0804","system_id":"levelo_inurba_marseille","lat":43.30899,"lon":5.36824,"is_reserved":false,"is_disabled":false,"rental_uris":{"android":"levelo://app?vid=6023fdf7-02ab-492e-aedc-b62519bd0804","ios":"levelo://app?vid=6023fdf7-02ab-492e-aedc-b62519bd0804"},"vehicle_type_id":"4","last_reported":1734423233,"current_range_meters":24800,"station_id":"ce4bgn92rcd13ifvqbvg","pricing_plan_id":"cebpf4jnsgd1na2vs0mg"},{"bike_id":"de0202c2-11ba-4616-b6b8-66e3494d4e24","system_id":"levelo_inurba_marseille","lat":43.27207,"lon":5.39176,"is_reserved":false,"is_disabled":false,"rental_uris":{"android":"levelo://app?vid=de0202c2-11ba-4616-b6b8-66e3494d4e24","ios":"levelo://app?vid=de0202c2-11ba-4616-b6b8-66e3494d4e24"},"vehicle_type_id":"4","last_reported":1734423233,"current_range_meters":10800,"station_id":"ce4bhhp2rcd13ifvqfm0","pricing_plan_id":"cebpf4jnsgd1na2vs0mg"},{"bike_id":"b5d62cf2-7990-4c60-b460-9d7a77ba0a8b","system_id":"levelo_inurba_marseille","lat":43.26942,"lon":5.40246,"is_reserved":false,"is_disabled":false,"rental_uris":{"android":"levelo://app?vid=b5d62cf2-7990-4c60-b460-9d7a77ba0a8b","ios":"levelo://app?vid=b5d62cf2-7990-4c60-b460-9d7a77ba0a8b"},"vehicle_type_id":"4","last_reported":1734423233,"current_range_meters":34800,"station_id":"cjm6bp8fraef2m0cb0m0","pricing_plan_id":"cebpf4jnsgd1na2vs0mg"},{"bike_id":"2c84dcc7-67fd-4a43-8fd8-e732712cf48d","system_id":"levelo_inurba_marseille","lat":43.29187,"lon":5.39303,"is_reserved":false,"is_disabled":false,"rental_uris":{"android":"levelo://app?vid=2c84dcc7-67fd-4a43-8fd8-e732712cf48d","ios":"levelo://app?vid=2c84dcc7-67fd-4a43-8fd8-e732712cf48d"},"vehicle_type_id":"4","last_reported":1734423233,"current_range_meters":27600,"station_id":"ce4bh192rcd13ifvqdd0","pricing_plan_id":"cebpf4jnsgd1na2vs0mg"},{"bike_id":"ee1606b0-effc-4a09-b27c-cbc4fb15cf59","system_id":"levelo_inurba_marseille","lat":43.31336,"lon":5.3671,"is_reserved":false,"is_disabled":false,"rental_uris":{"android":"levelo://app?vid=ee1606b0-effc-4a09-b27c-cbc4fb15cf59","ios":"levelo://app?vid=ee1606b0-effc-4a09-b27c-cbc4fb15cf59"},"vehicle_type_id":"4","last_reported":1734423233,"current_range_meters":37600,"station_id":"ce4bgr92rcd13ifvqc6g","pricing_plan_id":"cebpf4jnsgd1na2vs0mg"},{"bike_id":"ed8635a9-8a62-4be7-9d4b-a4dbff1f7c6d","system_id":"levelo_inurba_marseille","lat":43.28518,"lon":5.38058,"is_reserved":false,"is_disabled":true,"rental_uris":{"android":"levelo://app?vid=ed8635a9-8a62-4be7-9d4b-a4dbff1f7c6d","ios":"levelo://app?vid=ed8635a9-8a62-4be7-9d4b-a4dbff1f7c6d"},"vehicle_type_id":"4","last_reported":1734423233,"current_range_meters":20800,"station_id":"","pricing_plan_id":"cebpf4jnsgd1na2vs0mg"},{"bike_id":"7e76649e-bdb1-4219-b250-80b1668de68b","system_id":"levelo_inurba_marseille","lat":43.25003,"lon":5.3892,"is_reserved":false,"is_disabled":false,"rental_uris":{"android":"levelo://app?vid=7e76649e-bdb1-4219-b250-80b1668de68b","ios":"levelo://app?vid=7e76649e-bdb1-4219-b250-80b1668de68b"},"vehicle_type_id":"4","last_reported":1734423233,"current_range_meters":38000,"station_id":"ce4bhgp2rcd13ifvqfd0","pricing_plan_id":"cebpf4jnsgd1na2vs0mg"},{"bike_id":"b1141b56-3e7b-49ed-8c3a-fdb8940f3e60","system_id":"levelo_inurba_marseille","lat":43.30012,"lon":5.37708,"is_reserved":false,"is_disabled":true,"rental_uris":{"android":"levelo://app?vid=b1141b56-3e7b-49ed-8c3a-fdb8940f3e60","ios":"levelo://app?vid=b1141b56-3e7b-49ed-8c3a-fdb8940f3e60"},"vehicle_type_id":"4","last_reported":1734423233,"current_range_meters":8000,"station_id":"","pricing_plan_id":"cebpf4jnsgd1na2vs0mg"},{"bike_id":"cf7cadb0-f4b8-497f-aad1-12587c321a80","system_id":"levelo_inurba_marseille","lat":43.30146,"lon":5.37408,"is_reserved":false,"is_disabled":false,"rental_uris":{"android":"levelo://app?vid=cf7cadb0-f4b8-497f-aad1-12587c321a80","ios":"levelo://app?vid=cf7cadb0-f4b8-497f-aad1-12587c321a80"},"vehicle_type_id":"4","last_reported":1734423233,"current_range_meters":38000,"station_id":"ce4bgs92rcd13ifvqcc0","pricing_plan_id":"cebpf4jnsgd1na2vs0mg"},{"bike_id":"e6d133bd-af2c-45d5-a97a-3aefb8b0f7a9","system_id":"levelo_inurba_marseille","lat":43.29848,"lon":5.3628,"is_reserved":false,"is_disabled":false,"rental_uris":{"android":"levelo://app?vid=e6d133bd-af2c-45d5-a97a-3aefb8b0f7a9","ios":"levelo://app?vid=e6d133bd-af2c-45d5-a97a-3aefb8b0f7a9"},"vehicle_type_id":"4","last_reported":1734423233,"current_range_meters":38800,"station_id":"ce4bgpp2rcd13ifvqc3g","pricing_plan_id":"cebpf4jnsgd1na2vs0mg"},{"bike_id":"10086f5f-eb94-421a-8247-01c4a38e23de","system_id":"levelo_inurba_marseille","lat":43.26786,"lon":5.39928,"is_reserved":false,"is_disabled":true,"rental_uris":{"android":"levelo://app?vid=10086f5f-eb94-421a-8247-01c4a38e23de","ios":"levelo://app?vid=10086f5f-eb94-421a-8247-01c4a38e23de"},"vehicle_type_id":"4","last_reported":1734423233,"current_range_meters":0,"station_id":"","pricing_plan_id":"cebpf4jnsgd1na2vs0mg"},{"bike_id":"3a0b3dcd-ad8a-41f2-9793-20f7dfa74693","system_id":"levelo_inurba_marseille","lat":43.31354,"lon":5.36719,"is_reserved":false,"is_disabled":false,"rental_uris":{"android":"levelo://app?vid=3a0b3dcd-ad8a-41f2-9793-20f7dfa74693","ios":"levelo://app?vid=3a0b3dcd-ad8a-41f2-9793-20f7dfa74693"},"vehicle_type_id":"4","last_reported":1734423233,"current_range_meters":30400,"station_id":"ce4bgr92rcd13ifvqc6g","pricing_plan_id":"cebpf4jnsgd1na2vs0mg"},{"bike_id":"19b63edb-b49d-48d7-a32f-d786a72a8236","system_id":"levelo_inurba_marseille","lat":43.285004,"lon":5.35063,"is_reserved":false,"is_disabled":false,"rental_uris":{"android":"levelo://app?vid=19b63edb-b49d-48d7-a32f-d786a72a8236","ios":"levelo://app?vid=19b63edb-b49d-48d7-a32f-d786a72a8236"},"vehicle_type_id":"4","last_reported":1734423233,"current_range_meters":29600,"station_id":"","pricing_plan_id":"cebpf4jnsgd1na2vs0mg"},{"bike_id":"9ce06e4d-5dc2-48df-b3f0-986bc44bae3c","system_id":"levelo_inurba_marseille","lat":43.30907,"lon":5.36849,"is_reserved":false,"is_disabled":false,"rental_uris":{"android":"levelo://app?vid=9ce06e4d-5dc2-48df-b3f0-986bc44bae3c","ios":"levelo://app?vid=9ce06e4d-5dc2-48df-b3f0-986bc44bae3c"},"vehicle_type_id":"4","last_reported":1734423233,"current_range_meters":8800,"station_id":"ce4bgn92rcd13ifvqbvg","pricing_plan_id":"cebpf4jnsgd1na2vs0mg"},{"bike_id":"d7de254a-ea89-4132-bf35-1d031312f355","system_id":"levelo_inurba_marseille","lat":43.29872,"lon":5.39726,"is_reserved":false,"is_disabled":false,"rental_uris":{"android":"levelo://app?vid=d7de254a-ea89-4132-bf35-1d031312f355","ios":"levelo://app?vid=d7de254a-ea89-4132-bf35-1d031312f355"},"vehicle_type_id":"4","last_reported":1734423233,"current_range_meters":38800,"station_id":"ce4bh0h2rcd13ifvqd50","pricing_plan_id":"cebpf4jnsgd1na2vs0mg"},{"bike_id":"fa4c55a3-24db-479d-9415-3ef696db76a3","system_id":"levelo_inurba_marseille","lat":43.30537,"lon":5.36707,"is_reserved":false,"is_disabled":false,"rental_uris":{"android":"levelo://app?vid=fa4c55a3-24db-479d-9415-3ef696db76a3","ios":"levelo://app?vid=fa4c55a3-24db-479d-9415-3ef696db76a3"},"vehicle_type_id":"4","last_reported":1734423233,"current_range_meters":29600,"station_id":"ce4bgrp2rcd13ifvqc9g","pricing_plan_id":"cebpf4jnsgd1na2vs0mg"},{"bike_id":"ce62d04b-d743-4379-8db8-7c34b39bc50b","system_id":"levelo_inurba_marseille","lat":43.3122,"lon":5.36849,"is_reserved":false,"is_disabled":true,"rental_uris":{"android":"levelo://app?vid=ce62d04b-d743-4379-8db8-7c34b39bc50b","ios":"levelo://app?vid=ce62d04b-d743-4379-8db8-7c34b39bc50b"},"vehicle_type_id":"4","last_reported":1734423233,"current_range_meters":0,"station_id":"ce4bgl92rcd13ifvqbq0","pricing_plan_id":"cebpf4jnsgd1na2vs0mg"},{"bike_id":"53a01e99-e801-4945-89a3-3b5f546383d0","system_id":"levelo_inurba_marseille","lat":43.24069,"lon":5.3776,"is_reserved":false,"is_disabled":false,"rental_uris":{"android":"levelo://app?vid=53a01e99-e801-4945-89a3-3b5f546383d0","ios":"levelo://app?vid=53a01e99-e801-4945-89a3-3b5f546383d0"},"vehicle_type_id":"4","last_reported":1734423233,"current_range_meters":28400,"station_id":"ce4bhnp2rcd13ifvqgvg","pricing_plan_id":"cebpf4jnsgd1na2vs0mg"},{"bike_id":"bd7be968-8640-451e-979e-694fd82e7066","system_id":"levelo_inurba_marseille","lat":43.27071,"lon":5.4228,"is_reserved":false,"is_disabled":false,"rental_uris":{"android":"levelo://app?vid=bd7be968-8640-451e-979e-694fd82e7066","ios":"levelo://app?vid=bd7be968-8640-451e-979e-694fd82e7066"},"vehicle_type_id":"4","last_reported":1734423233,"current_range_meters":34800,"station_id":"ce4bhk92rcd13ifvqgb0","pricing_plan_id":"cebpf4jnsgd1na2vs0mg"},{"bike_id":"6cb9fe89-432b-437b-8ac2-83ad2cda73a0","system_id":"levelo_inurba_marseille","lat":43.29254,"lon":5.40909,"is_reserved":false,"is_disabled":true,"rental_uris":{"android":"levelo://app?vid=6cb9fe89-432b-437b-8ac2-83ad2cda73a0","ios":"levelo://app?vid=6cb9fe89-432b-437b-8ac2-83ad2cda73a0"},"vehicle_type_id":"4","last_reported":1734423233,"current_range_meters":36400,"station_id":"ce4bh192rcd13ifvqdc0","pricing_plan_id":"cebpf4jnsgd1na2vs0mg"},{"bike_id":"f092fce6-9421-4b95-ab5d-3cb39eb0bd6d","system_id":"levelo_inurba_marseille","lat":43.301974,"lon":5.366212,"is_reserved":false,"is_disabled":true,"rental_uris":{"android":"levelo://app?vid=f092fce6-9421-4b95-ab5d-3cb39eb0bd6d","ios":"levelo://app?vid=f092fce6-9421-4b95-ab5d-3cb39eb0bd6d"},"vehicle_type_id":"4","last_reported":1734423233,"current_range_meters":32400,"station_id":"","pricing_plan_id":"cebpf4jnsgd1na2vs0mg"},{"bike_id":"ec6fd560-80ad-469b-8d2b-c65539592be7","system_id":"levelo_inurba_marseille","lat":43.2743,"lon":5.39409,"is_reserved":false,"is_disabled":true,"rental_uris":{"android":"levelo://app?vid=ec6fd560-80ad-469b-8d2b-c65539592be7","ios":"levelo://app?vid=ec6fd560-80ad-469b-8d2b-c65539592be7"},"vehicle_type_id":"4","last_reported":1734423233,"current_range_meters":29600,"station_id":"ce4bhdp2rcd13ifvqf20","pricing_plan_id":"cebpf4jnsgd1na2vs0mg"},{"bike_id":"c733bf48-2870-4d88-a086-818a10e1faf5","system_id":"levelo_inurba_marseille","lat":43.30918,"lon":5.36854,"is_reserved":false,"is_disabled":false,"rental_uris":{"android":"levelo://app?vid=c733bf48-2870-4d88-a086-818a10e1faf5","ios":"levelo://app?vid=c733bf48-2870-4d88-a086-818a10e1faf5"},"vehicle_type_id":"4","last_reported":1734423233,"current_range_meters":28400,"station_id":"ce4bgn92rcd13ifvqbvg","pricing_plan_id":"cebpf4jnsgd1na2vs0mg"},{"bike_id":"407426e2-5473-4726-8fbf-7659838178e2","system_id":"levelo_inurba_marseille","lat":43.27492,"lon":5.42444,"is_reserved":false,"is_disabled":false,"rental_uris":{"android":"levelo://app?vid=407426e2-5473-4726-8fbf-7659838178e2","ios":"levelo://app?vid=407426e2-5473-4726-8fbf-7659838178e2"},"vehicle_type_id":"4","last_reported":1734423233,"current_range_meters":38800,"station_id":"ce4bhn92rcd13ifvqgrg","pricing_plan_id":"cebpf4jnsgd1na2vs0mg"},{"bike_id":"3210868a-ae7c-446f-9222-fef482512f15","system_id":"levelo_inurba_marseille","lat":43.2417,"lon":5.39727,"is_reserved":false,"is_disabled":false,"rental_uris":{"android":"levelo://app?vid=3210868a-ae7c-446f-9222-fef482512f15","ios":"levelo://app?vid=3210868a-ae7c-446f-9222-fef482512f15"},"vehicle_type_id":"4","last_reported":1734423233,"current_range_meters":39200,"station_id":"ce4bhn12rcd13ifvqgpg","pricing_plan_id":"cebpf4jnsgd1na2vs0mg"},{"bike_id":"2f13728f-3125-43fc-a962-bfee29c90468","system_id":"levelo_inurba_marseille","lat":43.309,"lon":5.36848,"is_reserved":false,"is_disabled":false,"rental_uris":{"android":"levelo://app?vid=2f13728f-3125-43fc-a962-bfee29c90468","ios":"levelo://app?vid=2f13728f-3125-43fc-a962-bfee29c90468"},"vehicle_type_id":"4","last_reported":1734423233,"current_range_meters":35200,"station_id":"ce4bgn92rcd13ifvqbvg","pricing_plan_id":"cebpf4jnsgd1na2vs0mg"},{"bike_id":"a716bf4a-483b-4082-8d5e-a159c3e6bcca","system_id":"levelo_inurba_marseille","lat":43.29956,"lon":5.41334,"is_reserved":false,"is_disabled":true,"rental_uris":{"android":"levelo://app?vid=a716bf4a-483b-4082-8d5e-a159c3e6bcca","ios":"levelo://app?vid=a716bf4a-483b-4082-8d5e-a159c3e6bcca"},"vehicle_type_id":"4","last_reported":1734423233,"current_range_meters":30800,"station_id":"ce4bhp12rcd13ifvqh9g","pricing_plan_id":"cebpf4jnsgd1na2vs0mg"},{"bike_id":"95275c33-7873-499c-92a9-b1e07600da97","system_id":"levelo_inurba_marseille","lat":43.3053,"lon":5.36708,"is_reserved":false,"is_disabled":false,"rental_uris":{"android":"levelo://app?vid=95275c33-7873-499c-92a9-b1e07600da97","ios":"levelo://app?vid=95275c33-7873-499c-92a9-b1e07600da97"},"vehicle_type_id":"4","last_reported":1734423233,"current_range_meters":38800,"station_id":"ce4bgrp2rcd13ifvqc9g","pricing_plan_id":"cebpf4jnsgd1na2vs0mg"},{"bike_id":"75979f35-52fb-4ff9-aef4-c293842957ed","system_id":"levelo_inurba_marseille","lat":43.32519,"lon":5.41461,"is_reserved":false,"is_disabled":true,"rental_uris":{"android":"levelo://app?vid=75979f35-52fb-4ff9-aef4-c293842957ed","ios":"levelo://app?vid=75979f35-52fb-4ff9-aef4-c293842957ed"},"vehicle_type_id":"4","last_reported":1734423233,"current_range_meters":34000,"station_id":"ce4bhq12rcd13ifvqhhg","pricing_plan_id":"cebpf4jnsgd1na2vs0mg"},{"bike_id":"434843cf-9364-4dd4-8d3c-6f995f6c8fa3","system_id":"levelo_inurba_marseille","lat":43.23061,"lon":5.35495,"is_reserved":false,"is_disabled":false,"rental_uris":{"android":"levelo://app?vid=434843cf-9364-4dd4-8d3c-6f995f6c8fa3","ios":"levelo://app?vid=434843cf-9364-4dd4-8d3c-6f995f6c8fa3"},"vehicle_type_id":"4","last_reported":1734423233,"current_range_meters":24800,"station_id":"cpo3342slgdg3j2ifvpg","pricing_plan_id":"cebpf4jnsgd1na2vs0mg"},{"bike_id":"1b1b03f5-f815-408c-814f-541fc72db763","system_id":"levelo_inurba_marseille","lat":43.30535,"lon":5.36549,"is_reserved":false,"is_disabled":false,"rental_uris":{"android":"levelo://app?vid=1b1b03f5-f815-408c-814f-541fc72db763","ios":"levelo://app?vid=1b1b03f5-f815-408c-814f-541fc72db763"},"vehicle_type_id":"4","last_reported":1734423233,"current_range_meters":35600,"station_id":"ce4bgs12rcd13ifvqcag","pricing_plan_id":"cebpf4jnsgd1na2vs0mg"},{"bike_id":"6e17cb0b-c014-4818-be44-19496d4476dd","system_id":"levelo_inurba_marseille","lat":43.2936,"lon":5.37847,"is_reserved":false,"is_disabled":false,"rental_uris":{"android":"levelo://app?vid=6e17cb0b-c014-4818-be44-19496d4476dd","ios":"levelo://app?vid=6e17cb0b-c014-4818-be44-19496d4476dd"},"vehicle_type_id":"4","last_reported":1734423233,"current_range_meters":20000,"station_id":"ce4bgjh2rcd13ifvqbf0","pricing_plan_id":"cebpf4jnsgd1na2vs0mg"},{"bike_id":"ba98bdce-aee7-48db-921f-e5b23de6229a","system_id":"levelo_inurba_marseille","lat":43.3378,"lon":5.42089,"is_reserved":false,"is_disabled":true,"rental_uris":{"android":"levelo://app?vid=ba98bdce-aee7-48db-921f-e5b23de6229a","ios":"levelo://app?vid=ba98bdce-aee7-48db-921f-e5b23de6229a"},"vehicle_type_id":"4","last_reported":1734423233,"current_range_meters":0,"station_id":"","pricing_plan_id":"cebpf4jnsgd1na2vs0mg"},{"bike_id":"e4aaed00-9e37-4750-bddb-e541db77bf63","system_id":"levelo_inurba_marseille","lat":43.26207,"lon":5.37438,"is_reserved":false,"is_disabled":false,"rental_uris":{"android":"levelo://app?vid=e4aaed00-9e37-4750-bddb-e541db77bf63","ios":"levelo://app?vid=e4aaed00-9e37-4750-bddb-e541db77bf63"},"vehicle_type_id":"4","last_reported":1734423233,"current_range_meters":38000,"station_id":"ce4bhgp2rcd13ifvqfc0","pricing_plan_id":"cebpf4jnsgd1na2vs0mg"},{"bike_id":"221a565f-203a-4d15-a7f2-89d89d221a0c","system_id":"levelo_inurba_marseille","lat":43.30155,"lon":5.38075,"is_reserved":false,"is_disabled":false,"rental_uris":{"android":"levelo://app?vid=221a565f-203a-4d15-a7f2-89d89d221a0c","ios":"levelo://app?vid=221a565f-203a-4d15-a7f2-89d89d221a0c"},"vehicle_type_id":"4","last_reported":1734423233,"current_range_meters":22000,"station_id":"ce4bgjp2rcd13ifvqbh0","pricing_plan_id":"cebpf4jnsgd1na2vs0mg"},{"bike_id":"96ab396e-6bc5-4e96-a5e1-b3a2070f360e","system_id":"levelo_inurba_marseille","lat":43.30216,"lon":5.39479,"is_reserved":false,"is_disabled":false,"rental_uris":{"android":"levelo://app?vid=96ab396e-6bc5-4e96-a5e1-b3a2070f360e","ios":"levelo://app?vid=96ab396e-6bc5-4e96-a5e1-b3a2070f360e"},"vehicle_type_id":"4","last_reported":1734423233,"current_range_meters":38800,"station_id":"ce4bh0p2rcd13ifvqd70","pricing_plan_id":"cebpf4jnsgd1na2vs0mg"},{"bike_id":"ebe3c03e-d65b-44a0-a320-84faf668cead","system_id":"levelo_inurba_marseille","lat":43.30893,"lon":5.37206,"is_reserved":false,"is_disabled":false,"rental_uris":{"android":"levelo://app?vid=ebe3c03e-d65b-44a0-a320-84faf668cead","ios":"levelo://app?vid=ebe3c03e-d65b-44a0-a320-84faf668cead"},"vehicle_type_id":"4","last_reported":1734423233,"current_range_meters":23200,"station_id":"ce4bguh2rcd13ifvqckg","pricing_plan_id":"cebpf4jnsgd1na2vs0mg"},{"bike_id":"6a9c2762-bfee-4c2e-8afd-1b2826005f8e","system_id":"levelo_inurba_marseille","lat":43.2827,"lon":5.35053,"is_reserved":false,"is_disabled":true,"rental_uris":{"android":"levelo://app?vid=6a9c2762-bfee-4c2e-8afd-1b2826005f8e","ios":"levelo://app?vid=6a9c2762-bfee-4c2e-8afd-1b2826005f8e"},"vehicle_type_id":"4","last_reported":1734423233,"current_range_meters":2000,"station_id":"ce4bhbp2rcd13ifvqerg","pricing_plan_id":"cebpf4jnsgd1na2vs0mg"},{"bike_id":"a5742624-1906-4d60-bc3c-3db11c9569d8","system_id":"levelo_inurba_marseille","lat":43.29633,"lon":5.37147,"is_reserved":false,"is_disabled":true,"rental_uris":{"android":"levelo://app?vid=a5742624-1906-4d60-bc3c-3db11c9569d8","ios":"levelo://app?vid=a5742624-1906-4d60-bc3c-3db11c9569d8"},"vehicle_type_id":"4","last_reported":1734423233,"current_range_meters":39200,"station_id":"ce4bh0p2rcd13ifvqd70","pricing_plan_id":"cebpf4jnsgd1na2vs0mg"},{"bike_id":"2502e0ff-4e7d-4474-aa6e-08589fb7befd","system_id":"levelo_inurba_marseille","lat":43.24071,"lon":5.37754,"is_reserved":false,"is_disabled":false,"rental_uris":{"android":"levelo://app?vid=2502e0ff-4e7d-4474-aa6e-08589fb7befd","ios":"levelo://app?vid=2502e0ff-4e7d-4474-aa6e-08589fb7befd"},"vehicle_type_id":"4","last_reported":1734423233,"current_range_meters":32000,"station_id":"ce4bhnp2rcd13ifvqgvg","pricing_plan_id":"cebpf4jnsgd1na2vs0mg"},{"bike_id":"2c974e5a-0752-4a7c-87ca-4d2e7e496922","system_id":"levelo_inurba_marseille","lat":43.28485,"lon":5.38553,"is_reserved":false,"is_disabled":false,"rental_uris":{"android":"levelo://app?vid=2c974e5a-0752-4a7c-87ca-4d2e7e496922","ios":"levelo://app?vid=2c974e5a-0752-4a7c-87ca-4d2e7e496922"},"vehicle_type_id":"4","last_reported":1734423233,"current_range_meters":23200,"station_id":"ce4bh8p2rcd13ifvqeb0","pricing_plan_id":"cebpf4jnsgd1na2vs0mg"},{"bike_id":"53419b57-0996-4906-8206-b87e072ab358","system_id":"levelo_inurba_marseille","lat":43.27436,"lon":5.3941,"is_reserved":false,"is_disabled":false,"rental_uris":{"android":"levelo://app?vid=53419b57-0996-4906-8206-b87e072ab358","ios":"levelo://app?vid=53419b57-0996-4906-8206-b87e072ab358"},"vehicle_type_id":"4","last_reported":1734423233,"current_range_meters":38800,"station_id":"ce4bhdp2rcd13ifvqf20","pricing_plan_id":"cebpf4jnsgd1na2vs0mg"},{"bike_id":"eff0ee10-69f9-4d94-90b9-243d2e460994","system_id":"levelo_inurba_marseille","lat":43.266853,"lon":5.382579,"is_reserved":false,"is_disabled":false,"rental_uris":{"android":"levelo://app?vid=eff0ee10-69f9-4d94-90b9-243d2e460994","ios":"levelo://app?vid=eff0ee10-69f9-4d94-90b9-243d2e460994"},"vehicle_type_id":"4","last_reported":1734423233,"current_range_meters":19600,"station_id":"ce4bhg92rcd13ifvqf90","pricing_plan_id":"cebpf4jnsgd1na2vs0mg"},{"bike_id":"5da00481-255d-4ea5-9ae9-d8286911b9ad","system_id":"levelo_inurba_marseille","lat":43.26558,"lon":5.37284,"is_reserved":false,"is_disabled":false,"rental_uris":{"android":"levelo://app?vid=5da00481-255d-4ea5-9ae9-d8286911b9ad","ios":"levelo://app?vid=5da00481-255d-4ea5-9ae9-d8286911b9ad"},"vehicle_type_id":"4","last_reported":1734423233,"current_range_meters":37600,"station_id":"ce4bhg12rcd13ifvqf70","pricing_plan_id":"cebpf4jnsgd1na2vs0mg"},{"bike_id":"927b7d17-9754-4d56-b5a3-d84b0a0817aa","system_id":"levelo_inurba_marseille","lat":43.31354,"lon":5.36718,"is_reserved":false,"is_disabled":false,"rental_uris":{"android":"levelo://app?vid=927b7d17-9754-4d56-b5a3-d84b0a0817aa","ios":"levelo://app?vid=927b7d17-9754-4d56-b5a3-d84b0a0817aa"},"vehicle_type_id":"4","last_reported":1734423233,"current_range_meters":29600,"station_id":"ce4bgr92rcd13ifvqc6g","pricing_plan_id":"cebpf4jnsgd1na2vs0mg"},{"bike_id":"24eb73cc-cf43-495d-9bea-9d5f091031f4","system_id":"levelo_inurba_marseille","lat":43.32551,"lon":5.41433,"is_reserved":false,"is_disabled":false,"rental_uris":{"android":"levelo://app?vid=24eb73cc-cf43-495d-9bea-9d5f091031f4","ios":"levelo://app?vid=24eb73cc-cf43-495d-9bea-9d5f091031f4"},"vehicle_type_id":"4","last_reported":1734423233,"current_range_meters":16000,"station_id":"ce4bhq12rcd13ifvqhhg","pricing_plan_id":"cebpf4jnsgd1na2vs0mg"},{"bike_id":"bf875427-f16c-4afd-8172-852b4c7156f8","system_id":"levelo_inurba_marseille","lat":43.303405,"lon":5.418888,"is_reserved":false,"is_disabled":false,"rental_uris":{"android":"levelo://app?vid=bf875427-f16c-4afd-8172-852b4c7156f8","ios":"levelo://app?vid=bf875427-f16c-4afd-8172-852b4c7156f8"},"vehicle_type_id":"4","last_reported":1734423233,"current_range_meters":38000,"station_id":"ce4bhop2rcd13ifvqh7g","pricing_plan_id":"cebpf4jnsgd1na2vs0mg"},{"bike_id":"f90a56d8-6b58-4667-b1e0-9be9da1c9d3e","system_id":"levelo_inurba_marseille","lat":43.289376,"lon":5.379032,"is_reserved":false,"is_disabled":true,"rental_uris":{"android":"levelo://app?vid=f90a56d8-6b58-4667-b1e0-9be9da1c9d3e","ios":"levelo://app?vid=f90a56d8-6b58-4667-b1e0-9be9da1c9d3e"},"vehicle_type_id":"4","last_reported":1734423233,"current_range_meters":28800,"station_id":"","pricing_plan_id":"cebpf4jnsgd1na2vs0mg"},{"bike_id":"ecbca169-1285-49c3-8599-27d606689683","system_id":"levelo_inurba_marseille","lat":43.23203,"lon":5.43771,"is_reserved":false,"is_disabled":true,"rental_uris":{"android":"levelo://app?vid=ecbca169-1285-49c3-8599-27d606689683","ios":"levelo://app?vid=ecbca169-1285-49c3-8599-27d606689683"},"vehicle_type_id":"4","last_reported":1734423233,"current_range_meters":0,"station_id":"ce4bhmp2rcd13ifvqgog","pricing_plan_id":"cebpf4jnsgd1na2vs0mg"},{"bike_id":"f8250bbd-9c0a-4007-85fd-c4d9f114459f","system_id":"levelo_inurba_marseille","lat":43.3097,"lon":5.39083,"is_reserved":false,"is_disabled":false,"rental_uris":{"android":"levelo://app?vid=f8250bbd-9c0a-4007-85fd-c4d9f114459f","ios":"levelo://app?vid=f8250bbd-9c0a-4007-85fd-c4d9f114459f"},"vehicle_type_id":"4","last_reported":1734423233,"current_range_meters":37600,"station_id":"ce4bgup2rcd13ifvqco0","pricing_plan_id":"cebpf4jnsgd1na2vs0mg"},{"bike_id":"9416ebf7-a924-4155-9c7b-ce2a18080850","system_id":"levelo_inurba_marseille","lat":43.29917,"lon":5.37446,"is_reserved":false,"is_disabled":false,"rental_uris":{"android":"levelo://app?vid=9416ebf7-a924-4155-9c7b-ce2a18080850","ios":"levelo://app?vid=9416ebf7-a924-4155-9c7b-ce2a18080850"},"vehicle_type_id":"4","last_reported":1734423233,"current_range_meters":32000,"station_id":"ce4bgjh2rcd13ifvqbg0","pricing_plan_id":"cebpf4jnsgd1na2vs0mg"},{"bike_id":"b99ad5bb-2a6e-4e7d-aef8-304bd48cbb54","system_id":"levelo_inurba_marseille","lat":43.28941,"lon":5.36624,"is_reserved":false,"is_disabled":false,"rental_uris":{"android":"levelo://app?vid=b99ad5bb-2a6e-4e7d-aef8-304bd48cbb54","ios":"levelo://app?vid=b99ad5bb-2a6e-4e7d-aef8-304bd48cbb54"},"vehicle_type_id":"4","last_reported":1734423233,"current_range_meters":26000,"station_id":"ce4bhap2rcd13ifvqek0","pricing_plan_id":"cebpf4jnsgd1na2vs0mg"},{"bike_id":"04bc5157-798c-42aa-9679-29703469b037","system_id":"levelo_inurba_marseille","lat":43.30542,"lon":5.36541,"is_reserved":false,"is_disabled":false,"rental_uris":{"android":"levelo://app?vid=04bc5157-798c-42aa-9679-29703469b037","ios":"levelo://app?vid=04bc5157-798c-42aa-9679-29703469b037"},"vehicle_type_id":"4","last_reported":1734423233,"current_range_meters":38800,"station_id":"ce4bgs12rcd13ifvqcag","pricing_plan_id":"cebpf4jnsgd1na2vs0mg"},{"bike_id":"fa59be37-8344-488b-a2d4-3e15d73ee226","system_id":"levelo_inurba_marseille","lat":43.2707,"lon":5.42275,"is_reserved":false,"is_disabled":false,"rental_uris":{"android":"levelo://app?vid=fa59be37-8344-488b-a2d4-3e15d73ee226","ios":"levelo://app?vid=fa59be37-8344-488b-a2d4-3e15d73ee226"},"vehicle_type_id":"4","last_reported":1734423233,"current_range_meters":12800,"station_id":"ce4bhk92rcd13ifvqgb0","pricing_plan_id":"cebpf4jnsgd1na2vs0mg"},{"bike_id":"0854f93a-27ef-4312-bd8f-be30bba0059f","system_id":"levelo_inurba_marseille","lat":43.2863,"lon":5.35095,"is_reserved":false,"is_disabled":true,"rental_uris":{"android":"levelo://app?vid=0854f93a-27ef-4312-bd8f-be30bba0059f","ios":"levelo://app?vid=0854f93a-27ef-4312-bd8f-be30bba0059f"},"vehicle_type_id":"4","last_reported":1734423233,"current_range_meters":25200,"station_id":"","pricing_plan_id":"cebpf4jnsgd1na2vs0mg"},{"bike_id":"c4270ea9-5ce6-4111-8dc1-8ae345013bb1","system_id":"levelo_inurba_marseille","lat":43.27185,"lon":5.40993,"is_reserved":false,"is_disabled":true,"rental_uris":{"android":"levelo://app?vid=c4270ea9-5ce6-4111-8dc1-8ae345013bb1","ios":"levelo://app?vid=c4270ea9-5ce6-4111-8dc1-8ae345013bb1"},"vehicle_type_id":"4","last_reported":1734423233,"current_range_meters":11600,"station_id":"ce4bhl12rcd13ifvqgf0","pricing_plan_id":"cebpf4jnsgd1na2vs0mg"},{"bike_id":"3a4d755e-dac7-480f-9d1d-6524fb668d2e","system_id":"levelo_inurba_marseille","lat":43.27922,"lon":5.39578,"is_reserved":false,"is_disabled":true,"rental_uris":{"android":"levelo://app?vid=3a4d755e-dac7-480f-9d1d-6524fb668d2e","ios":"levelo://app?vid=3a4d755e-dac7-480f-9d1d-6524fb668d2e"},"vehicle_type_id":"4","last_reported":1734423233,"current_range_meters":1200,"station_id":"ce4bhf92rcd13ifvqf40","pricing_plan_id":"cebpf4jnsgd1na2vs0mg"},{"bike_id":"d9f638ef-8ccb-454e-adae-4e085f7e7956","system_id":"levelo_inurba_marseille","lat":43.24396,"lon":5.3704,"is_reserved":false,"is_disabled":false,"rental_uris":{"android":"levelo://app?vid=d9f638ef-8ccb-454e-adae-4e085f7e7956","ios":"levelo://app?vid=d9f638ef-8ccb-454e-adae-4e085f7e7956"},"vehicle_type_id":"4","last_reported":1734423233,"current_range_meters":38800,"station_id":"ce4bhhh2rcd13ifvqfk0","pricing_plan_id":"cebpf4jnsgd1na2vs0mg"},{"bike_id":"bc58f67f-2d15-4b81-980e-a5b29618e48d","system_id":"levelo_inurba_marseille","lat":43.30444,"lon":5.3888,"is_reserved":false,"is_disabled":true,"rental_uris":{"android":"levelo://app?vid=bc58f67f-2d15-4b81-980e-a5b29618e48d","ios":"levelo://app?vid=bc58f67f-2d15-4b81-980e-a5b29618e48d"},"vehicle_type_id":"4","last_reported":1734423233,"current_range_meters":24000,"station_id":"ce4bgk12rcd13ifvqbi0","pricing_plan_id":"cebpf4jnsgd1na2vs0mg"},{"bike_id":"14270be7-87cd-4bad-92bc-7f49cbd5cacd","system_id":"levelo_inurba_marseille","lat":43.2816,"lon":5.42652,"is_reserved":false,"is_disabled":false,"rental_uris":{"android":"levelo://app?vid=14270be7-87cd-4bad-92bc-7f49cbd5cacd","ios":"levelo://app?vid=14270be7-87cd-4bad-92bc-7f49cbd5cacd"},"vehicle_type_id":"4","last_reported":1734423233,"current_range_meters":10000,"station_id":"ce4bhnh2rcd13ifvqgug","pricing_plan_id":"cebpf4jnsgd1na2vs0mg"},{"bike_id":"7b70bd7c-233a-4d42-9c2b-cff9df18c3b2","system_id":"levelo_inurba_marseille","lat":43.29273,"lon":5.40116,"is_reserved":false,"is_disabled":false,"rental_uris":{"android":"levelo://app?vid=7b70bd7c-233a-4d42-9c2b-cff9df18c3b2","ios":"levelo://app?vid=7b70bd7c-233a-4d42-9c2b-cff9df18c3b2"},"vehicle_type_id":"4","last_reported":1734423233,"current_range_meters":38800,"station_id":"ce4bh312rcd13ifvqdk0","pricing_plan_id":"cebpf4jnsgd1na2vs0mg"},{"bike_id":"ab710161-8d0b-4d9b-9009-a8d6ee1c50f6","system_id":"levelo_inurba_marseille","lat":43.33607,"lon":5.41031,"is_reserved":false,"is_disabled":false,"rental_uris":{"android":"levelo://app?vid=ab710161-8d0b-4d9b-9009-a8d6ee1c50f6","ios":"levelo://app?vid=ab710161-8d0b-4d9b-9009-a8d6ee1c50f6"},"vehicle_type_id":"4","last_reported":1734423233,"current_range_meters":37600,"station_id":"ce4bhqh2rcd13ifvqhmg","pricing_plan_id":"cebpf4jnsgd1na2vs0mg"},{"bike_id":"268184fb-1851-4b75-af84-15cc515788c0","system_id":"levelo_inurba_marseille","lat":43.30536,"lon":5.3672,"is_reserved":false,"is_disabled":false,"rental_uris":{"android":"levelo://app?vid=268184fb-1851-4b75-af84-15cc515788c0","ios":"levelo://app?vid=268184fb-1851-4b75-af84-15cc515788c0"},"vehicle_type_id":"4","last_reported":1734423233,"current_range_meters":36800,"station_id":"ce4bgrp2rcd13ifvqc9g","pricing_plan_id":"cebpf4jnsgd1na2vs0mg"},{"bike_id":"3fb6596b-b720-4e37-88d1-377c7a736425","system_id":"levelo_inurba_marseille","lat":43.23192,"lon":5.35557,"is_reserved":false,"is_disabled":false,"rental_uris":{"android":"levelo://app?vid=3fb6596b-b720-4e37-88d1-377c7a736425","ios":"levelo://app?vid=3fb6596b-b720-4e37-88d1-377c7a736425"},"vehicle_type_id":"4","last_reported":1734423233,"current_range_meters":38800,"station_id":"ce4bhu92rcd13ifvqi70","pricing_plan_id":"cebpf4jnsgd1na2vs0mg"},{"bike_id":"8914bb17-7251-4066-b905-d58eaff8838d","system_id":"levelo_inurba_marseille","lat":43.2718,"lon":5.40992,"is_reserved":false,"is_disabled":false,"rental_uris":{"android":"levelo://app?vid=8914bb17-7251-4066-b905-d58eaff8838d","ios":"levelo://app?vid=8914bb17-7251-4066-b905-d58eaff8838d"},"vehicle_type_id":"4","last_reported":1734423233,"current_range_meters":26000,"station_id":"ce4bhl12rcd13ifvqgf0","pricing_plan_id":"cebpf4jnsgd1na2vs0mg"},{"bike_id":"8ee62417-ba9c-4b61-84a5-5bd7e2cbee2e","system_id":"levelo_inurba_marseille","lat":43.337444,"lon":5.374475,"is_reserved":false,"is_disabled":true,"rental_uris":{"android":"levelo://app?vid=8ee62417-ba9c-4b61-84a5-5bd7e2cbee2e","ios":"levelo://app?vid=8ee62417-ba9c-4b61-84a5-5bd7e2cbee2e"},"vehicle_type_id":"4","last_reported":1734423233,"current_range_meters":0,"station_id":"","pricing_plan_id":"cebpf4jnsgd1na2vs0mg"},{"bike_id":"1106d33b-e0d2-425e-9734-64485de34d96","system_id":"levelo_inurba_marseille","lat":43.28839,"lon":5.35836,"is_reserved":false,"is_disabled":true,"rental_uris":{"android":"levelo://app?vid=1106d33b-e0d2-425e-9734-64485de34d96","ios":"levelo://app?vid=1106d33b-e0d2-425e-9734-64485de34d96"},"vehicle_type_id":"4","last_reported":1734423233,"current_range_meters":1200,"station_id":"ce4bhb12rcd13ifvqem0","pricing_plan_id":"cebpf4jnsgd1na2vs0mg"},{"bike_id":"d2294c64-af77-450b-b299-fc06315dbf1a","system_id":"levelo_inurba_marseille","lat":43.29307,"lon":5.37183,"is_reserved":false,"is_disabled":true,"rental_uris":{"android":"levelo://app?vid=d2294c64-af77-450b-b299-fc06315dbf1a","ios":"levelo://app?vid=d2294c64-af77-450b-b299-fc06315dbf1a"},"vehicle_type_id":"4","last_reported":1734423233,"current_range_meters":18000,"station_id":"ce4bgh92rcd13ifvqb40","pricing_plan_id":"cebpf4jnsgd1na2vs0mg"},{"bike_id":"efc57f04-4351-4676-97a0-14c3c2859977","system_id":"levelo_inurba_marseille","lat":43.29584,"lon":5.36743,"is_reserved":false,"is_disabled":true,"rental_uris":{"android":"levelo://app?vid=efc57f04-4351-4676-97a0-14c3c2859977","ios":"levelo://app?vid=efc57f04-4351-4676-97a0-14c3c2859977"},"vehicle_type_id":"4","last_reported":1734423233,"current_range_meters":38800,"station_id":"ce4bgph2rcd13ifvqc2g","pricing_plan_id":"cebpf4jnsgd1na2vs0mg"},{"bike_id":"056177a6-f3a6-40fa-80e0-574bf5840c95","system_id":"levelo_inurba_marseille","lat":43.283644,"lon":5.386477,"is_reserved":false,"is_disabled":true,"rental_uris":{"android":"levelo://app?vid=056177a6-f3a6-40fa-80e0-574bf5840c95","ios":"levelo://app?vid=056177a6-f3a6-40fa-80e0-574bf5840c95"},"vehicle_type_id":"4","last_reported":1734423233,"current_range_meters":27200,"station_id":"ce4bh492rcd13ifvqdvg","pricing_plan_id":"cebpf4jnsgd1na2vs0mg"},{"bike_id":"2a03e7a9-e623-43fe-99c0-8c16e6af2b40","system_id":"levelo_inurba_marseille","lat":43.2699,"lon":5.39862,"is_reserved":false,"is_disabled":false,"rental_uris":{"android":"levelo://app?vid=2a03e7a9-e623-43fe-99c0-8c16e6af2b40","ios":"levelo://app?vid=2a03e7a9-e623-43fe-99c0-8c16e6af2b40"},"vehicle_type_id":"4","last_reported":1734423233,"current_range_meters":12000,"station_id":"","pricing_plan_id":"cebpf4jnsgd1na2vs0mg"},{"bike_id":"d8b25cd5-b5be-4841-a47d-35b7d851c026","system_id":"levelo_inurba_marseille","lat":43.25941,"lon":5.409,"is_reserved":false,"is_disabled":false,"rental_uris":{"android":"levelo://app?vid=d8b25cd5-b5be-4841-a47d-35b7d851c026","ios":"levelo://app?vid=d8b25cd5-b5be-4841-a47d-35b7d851c026"},"vehicle_type_id":"4","last_reported":1734423233,"current_range_meters":4000,"station_id":"ce4bhm92rcd13ifvqglg","pricing_plan_id":"cebpf4jnsgd1na2vs0mg"},{"bike_id":"0a2befa9-d524-4c76-a190-4f11e42f1d7e","system_id":"levelo_inurba_marseille","lat":43.29618,"lon":5.37717,"is_reserved":false,"is_disabled":false,"rental_uris":{"android":"levelo://app?vid=0a2befa9-d524-4c76-a190-4f11e42f1d7e","ios":"levelo://app?vid=0a2befa9-d524-4c76-a190-4f11e42f1d7e"},"vehicle_type_id":"4","last_reported":1734423233,"current_range_meters":38800,"station_id":"ce4bgi92rcd13ifvqb90","pricing_plan_id":"cebpf4jnsgd1na2vs0mg"},{"bike_id":"0e009e2b-5946-4a59-bf02-ae4910d6465b","system_id":"levelo_inurba_marseille","lat":43.2955,"lon":5.42284,"is_reserved":false,"is_disabled":false,"rental_uris":{"android":"levelo://app?vid=0e009e2b-5946-4a59-bf02-ae4910d6465b","ios":"levelo://app?vid=0e009e2b-5946-4a59-bf02-ae4910d6465b"},"vehicle_type_id":"4","last_reported":1734423233,"current_range_meters":8000,"station_id":"ce4bhph2rcd13ifvqhdg","pricing_plan_id":"cebpf4jnsgd1na2vs0mg"},{"bike_id":"eaee731d-2db8-4568-9e40-1f94ed746a40","system_id":"levelo_inurba_marseille","lat":43.28943,"lon":5.3638,"is_reserved":false,"is_disabled":false,"rental_uris":{"android":"levelo://app?vid=eaee731d-2db8-4568-9e40-1f94ed746a40","ios":"levelo://app?vid=eaee731d-2db8-4568-9e40-1f94ed746a40"},"vehicle_type_id":"4","last_reported":1734423233,"current_range_meters":27200,"station_id":"ce4bhc92rcd13ifvqetg","pricing_plan_id":"cebpf4jnsgd1na2vs0mg"},{"bike_id":"0e2e421d-cab6-4bab-ab43-0de2daec6dd5","system_id":"levelo_inurba_marseille","lat":43.278805,"lon":5.388003,"is_reserved":false,"is_disabled":true,"rental_uris":{"android":"levelo://app?vid=0e2e421d-cab6-4bab-ab43-0de2daec6dd5","ios":"levelo://app?vid=0e2e421d-cab6-4bab-ab43-0de2daec6dd5"},"vehicle_type_id":"4","last_reported":1734423233,"current_range_meters":0,"station_id":"","pricing_plan_id":"cebpf4jnsgd1na2vs0mg"},{"bike_id":"8502b089-cc21-4430-ae9b-191f30338f55","system_id":"levelo_inurba_marseille","lat":43.29273,"lon":5.38933,"is_reserved":false,"is_disabled":false,"rental_uris":{"android":"levelo://app?vid=8502b089-cc21-4430-ae9b-191f30338f55","ios":"levelo://app?vid=8502b089-cc21-4430-ae9b-191f30338f55"},"vehicle_type_id":"4","last_reported":1734423233,"current_range_meters":9600,"station_id":"","pricing_plan_id":"cebpf4jnsgd1na2vs0mg"},{"bike_id":"bf85f0b9-c86c-43a7-bfe7-23af3028a90a","system_id":"levelo_inurba_marseille","lat":43.25583,"lon":5.3823,"is_reserved":false,"is_disabled":false,"rental_uris":{"android":"levelo://app?vid=bf85f0b9-c86c-43a7-bfe7-23af3028a90a","ios":"levelo://app?vid=bf85f0b9-c86c-43a7-bfe7-23af3028a90a"},"vehicle_type_id":"4","last_reported":1734423233,"current_range_meters":38800,"station_id":"ce4bhih2rcd13ifvqfs0","pricing_plan_id":"cebpf4jnsgd1na2vs0mg"},{"bike_id":"25c0c336-834d-421d-b66d-e51c42a0ba97","system_id":"levelo_inurba_marseille","lat":43.30718,"lon":5.36824,"is_reserved":false,"is_disabled":false,"rental_uris":{"android":"levelo://app?vid=25c0c336-834d-421d-b66d-e51c42a0ba97","ios":"levelo://app?vid=25c0c336-834d-421d-b66d-e51c42a0ba97"},"vehicle_type_id":"4","last_reported":1734423233,"current_range_meters":10800,"station_id":"","pricing_plan_id":"cebpf4jnsgd1na2vs0mg"},{"bike_id":"5e10a06f-6d61-4ebb-9345-c784442507a3","system_id":"levelo_inurba_marseille","lat":43.324867,"lon":5.365606,"is_reserved":false,"is_disabled":true,"rental_uris":{"android":"levelo://app?vid=5e10a06f-6d61-4ebb-9345-c784442507a3","ios":"levelo://app?vid=5e10a06f-6d61-4ebb-9345-c784442507a3"},"vehicle_type_id":"4","last_reported":1734423233,"current_range_meters":38800,"station_id":"ce4bhs12rcd13ifvqhvg","pricing_plan_id":"cebpf4jnsgd1na2vs0mg"},{"bike_id":"48317259-4084-45cf-baa8-fd11ee8922ae","system_id":"levelo_inurba_marseille","lat":43.3054,"lon":5.36699,"is_reserved":false,"is_disabled":false,"rental_uris":{"android":"levelo://app?vid=48317259-4084-45cf-baa8-fd11ee8922ae","ios":"levelo://app?vid=48317259-4084-45cf-baa8-fd11ee8922ae"},"vehicle_type_id":"4","last_reported":1734423233,"current_range_meters":28400,"station_id":"ce4bgrp2rcd13ifvqc9g","pricing_plan_id":"cebpf4jnsgd1na2vs0mg"},{"bike_id":"efe72c67-c1eb-4f8b-b309-b77863334661","system_id":"levelo_inurba_marseille","lat":43.29021,"lon":5.38124,"is_reserved":false,"is_disabled":false,"rental_uris":{"android":"levelo://app?vid=efe72c67-c1eb-4f8b-b309-b77863334661","ios":"levelo://app?vid=efe72c67-c1eb-4f8b-b309-b77863334661"},"vehicle_type_id":"4","last_reported":1734423233,"current_range_meters":28400,"station_id":"ce4bh4p2rcd13ifvqe1g","pricing_plan_id":"cebpf4jnsgd1na2vs0mg"},{"bike_id":"9a4c7886-9fe8-4b15-b02a-38314440a870","system_id":"levelo_inurba_marseille","lat":43.3135,"lon":5.36712,"is_reserved":false,"is_disabled":false,"rental_uris":{"android":"levelo://app?vid=9a4c7886-9fe8-4b15-b02a-38314440a870","ios":"levelo://app?vid=9a4c7886-9fe8-4b15-b02a-38314440a870"},"vehicle_type_id":"4","last_reported":1734423233,"current_range_meters":16400,"station_id":"ce4bgr92rcd13ifvqc6g","pricing_plan_id":"cebpf4jnsgd1na2vs0mg"},{"bike_id":"584b569e-7298-4afe-b48b-612c38273697","system_id":"levelo_inurba_marseille","lat":43.31073,"lon":5.38341,"is_reserved":false,"is_disabled":true,"rental_uris":{"android":"levelo://app?vid=584b569e-7298-4afe-b48b-612c38273697","ios":"levelo://app?vid=584b569e-7298-4afe-b48b-612c38273697"},"vehicle_type_id":"4","last_reported":1734423233,"current_range_meters":0,"station_id":"ce4bgv92rcd13ifvqcr0","pricing_plan_id":"cebpf4jnsgd1na2vs0mg"},{"bike_id":"77183828-d161-45a0-b243-20dbd4e0ee89","system_id":"levelo_inurba_marseille","lat":43.24071,"lon":5.37758,"is_reserved":false,"is_disabled":false,"rental_uris":{"android":"levelo://app?vid=77183828-d161-45a0-b243-20dbd4e0ee89","ios":"levelo://app?vid=77183828-d161-45a0-b243-20dbd4e0ee89"},"vehicle_type_id":"4","last_reported":1734423233,"current_range_meters":18800,"station_id":"ce4bhnp2rcd13ifvqgvg","pricing_plan_id":"cebpf4jnsgd1na2vs0mg"},{"bike_id":"91ba94df-1b8f-4474-a354-8d42722f793b","system_id":"levelo_inurba_marseille","lat":43.30545,"lon":5.36556,"is_reserved":false,"is_disabled":false,"rental_uris":{"android":"levelo://app?vid=91ba94df-1b8f-4474-a354-8d42722f793b","ios":"levelo://app?vid=91ba94df-1b8f-4474-a354-8d42722f793b"},"vehicle_type_id":"4","last_reported":1734423233,"current_range_meters":34000,"station_id":"ce4bgs12rcd13ifvqcag","pricing_plan_id":"cebpf4jnsgd1na2vs0mg"},{"bike_id":"2b15d063-7a3f-4ab1-9a96-79820bd042f5","system_id":"levelo_inurba_marseille","lat":43.30244,"lon":5.400604,"is_reserved":false,"is_disabled":true,"rental_uris":{"android":"levelo://app?vid=2b15d063-7a3f-4ab1-9a96-79820bd042f5","ios":"levelo://app?vid=2b15d063-7a3f-4ab1-9a96-79820bd042f5"},"vehicle_type_id":"4","last_reported":1734423233,"current_range_meters":17200,"station_id":"ce4bgvh2rcd13ifvqcs0","pricing_plan_id":"cebpf4jnsgd1na2vs0mg"},{"bike_id":"058d910c-5dbf-4517-b14b-5037c9720da7","system_id":"levelo_inurba_marseille","lat":43.275,"lon":5.42453,"is_reserved":false,"is_disabled":false,"rental_uris":{"android":"levelo://app?vid=058d910c-5dbf-4517-b14b-5037c9720da7","ios":"levelo://app?vid=058d910c-5dbf-4517-b14b-5037c9720da7"},"vehicle_type_id":"4","last_reported":1734423233,"current_range_meters":26800,"station_id":"ce4bhn92rcd13ifvqgrg","pricing_plan_id":"cebpf4jnsgd1na2vs0mg"},{"bike_id":"cc01b96a-fba0-49f2-aff9-ccb6b0df1bbb","system_id":"levelo_inurba_marseille","lat":43.27671,"lon":5.3889,"is_reserved":false,"is_disabled":true,"rental_uris":{"android":"levelo://app?vid=cc01b96a-fba0-49f2-aff9-ccb6b0df1bbb","ios":"levelo://app?vid=cc01b96a-fba0-49f2-aff9-ccb6b0df1bbb"},"vehicle_type_id":"4","last_reported":1734423233,"current_range_meters":38800,"station_id":"ce4bhi12rcd13ifvqfo0","pricing_plan_id":"cebpf4jnsgd1na2vs0mg"},{"bike_id":"120b7c18-b21e-44dc-8a4c-391f2499c59c","system_id":"levelo_inurba_marseille","lat":43.26569,"lon":5.37313,"is_reserved":false,"is_disabled":false,"rental_uris":{"android":"levelo://app?vid=120b7c18-b21e-44dc-8a4c-391f2499c59c","ios":"levelo://app?vid=120b7c18-b21e-44dc-8a4c-391f2499c59c"},"vehicle_type_id":"4","last_reported":1734423233,"current_range_meters":27600,"station_id":"ce4bhg12rcd13ifvqf70","pricing_plan_id":"cebpf4jnsgd1na2vs0mg"},{"bike_id":"bf9705c9-2ce1-4d23-9bfe-79f776149b63","system_id":"levelo_inurba_marseille","lat":43.25577,"lon":5.38239,"is_reserved":false,"is_disabled":false,"rental_uris":{"android":"levelo://app?vid=bf9705c9-2ce1-4d23-9bfe-79f776149b63","ios":"levelo://app?vid=bf9705c9-2ce1-4d23-9bfe-79f776149b63"},"vehicle_type_id":"4","last_reported":1734423233,"current_range_meters":36800,"station_id":"ce4bhih2rcd13ifvqfs0","pricing_plan_id":"cebpf4jnsgd1na2vs0mg"},{"bike_id":"b4465d41-b132-4381-a1bd-5624211fbb21","system_id":"levelo_inurba_marseille","lat":43.30539,"lon":5.36548,"is_reserved":false,"is_disabled":false,"rental_uris":{"android":"levelo://app?vid=b4465d41-b132-4381-a1bd-5624211fbb21","ios":"levelo://app?vid=b4465d41-b132-4381-a1bd-5624211fbb21"},"vehicle_type_id":"4","last_reported":1734423233,"current_range_meters":38800,"station_id":"ce4bgs12rcd13ifvqcag","pricing_plan_id":"cebpf4jnsgd1na2vs0mg"},{"bike_id":"8c7e2759-1761-4283-8484-bda9243b869e","system_id":"levelo_inurba_marseille","lat":43.32484,"lon":5.36572,"is_reserved":false,"is_disabled":false,"rental_uris":{"android":"levelo://app?vid=8c7e2759-1761-4283-8484-bda9243b869e","ios":"levelo://app?vid=8c7e2759-1761-4283-8484-bda9243b869e"},"vehicle_type_id":"4","last_reported":1734423233,"current_range_meters":38800,"station_id":"ce4bhs12rcd13ifvqhvg","pricing_plan_id":"cebpf4jnsgd1na2vs0mg"},{"bike_id":"e55307a2-7187-4063-abeb-5bc34bbea26f","system_id":"levelo_inurba_marseille","lat":43.30319,"lon":5.36889,"is_reserved":false,"is_disabled":false,"rental_uris":{"android":"levelo://app?vid=e55307a2-7187-4063-abeb-5bc34bbea26f","ios":"levelo://app?vid=e55307a2-7187-4063-abeb-5bc34bbea26f"},"vehicle_type_id":"4","last_reported":1734423233,"current_range_meters":35600,"station_id":"ce4bgqh2rcd13ifvqc5g","pricing_plan_id":"cebpf4jnsgd1na2vs0mg"},{"bike_id":"be14868e-8525-40b8-bef8-4b5b7f127609","system_id":"levelo_inurba_marseille","lat":43.29872,"lon":5.39721,"is_reserved":false,"is_disabled":false,"rental_uris":{"android":"levelo://app?vid=be14868e-8525-40b8-bef8-4b5b7f127609","ios":"levelo://app?vid=be14868e-8525-40b8-bef8-4b5b7f127609"},"vehicle_type_id":"4","last_reported":1734423233,"current_range_meters":17600,"station_id":"ce4bh0h2rcd13ifvqd50","pricing_plan_id":"cebpf4jnsgd1na2vs0mg"},{"bike_id":"6355e2aa-7575-45ae-bbf2-d0aaeb43ee79","system_id":"levelo_inurba_marseille","lat":43.27042,"lon":5.40291,"is_reserved":false,"is_disabled":false,"rental_uris":{"android":"levelo://app?vid=6355e2aa-7575-45ae-bbf2-d0aaeb43ee79","ios":"levelo://app?vid=6355e2aa-7575-45ae-bbf2-d0aaeb43ee79"},"vehicle_type_id":"4","last_reported":1734423233,"current_range_meters":14000,"station_id":"ce4bhk92rcd13ifvqgc0","pricing_plan_id":"cebpf4jnsgd1na2vs0mg"},{"bike_id":"d600d5f9-a3e6-4b94-ba8f-df9f8ed10059","system_id":"levelo_inurba_marseille","lat":43.24548,"lon":5.39523,"is_reserved":false,"is_disabled":false,"rental_uris":{"android":"levelo://app?vid=d600d5f9-a3e6-4b94-ba8f-df9f8ed10059","ios":"levelo://app?vid=d600d5f9-a3e6-4b94-ba8f-df9f8ed10059"},"vehicle_type_id":"4","last_reported":1734423233,"current_range_meters":11600,"station_id":"ce4bhlp2rcd13ifvqgjg","pricing_plan_id":"cebpf4jnsgd1na2vs0mg"},{"bike_id":"aa4941cc-0cb9-417c-a364-6178ec91abf0","system_id":"levelo_inurba_marseille","lat":43.24551,"lon":5.39518,"is_reserved":false,"is_disabled":false,"rental_uris":{"android":"levelo://app?vid=aa4941cc-0cb9-417c-a364-6178ec91abf0","ios":"levelo://app?vid=aa4941cc-0cb9-417c-a364-6178ec91abf0"},"vehicle_type_id":"4","last_reported":1734423233,"current_range_meters":39200,"station_id":"ce4bhlp2rcd13ifvqgjg","pricing_plan_id":"cebpf4jnsgd1na2vs0mg"},{"bike_id":"76ec3642-6b04-4fa3-81b8-996f867e214d","system_id":"levelo_inurba_marseille","lat":43.24167,"lon":5.3972,"is_reserved":false,"is_disabled":true,"rental_uris":{"android":"levelo://app?vid=76ec3642-6b04-4fa3-81b8-996f867e214d","ios":"levelo://app?vid=76ec3642-6b04-4fa3-81b8-996f867e214d"},"vehicle_type_id":"4","last_reported":1734423233,"current_range_meters":12800,"station_id":"ce4bhn12rcd13ifvqgpg","pricing_plan_id":"cebpf4jnsgd1na2vs0mg"},{"bike_id":"a88760a5-bded-4b2b-92be-418e7a03d3a5","system_id":"levelo_inurba_marseille","lat":43.29624,"lon":5.37704,"is_reserved":false,"is_disabled":true,"rental_uris":{"android":"levelo://app?vid=a88760a5-bded-4b2b-92be-418e7a03d3a5","ios":"levelo://app?vid=a88760a5-bded-4b2b-92be-418e7a03d3a5"},"vehicle_type_id":"4","last_reported":1734423233,"current_range_meters":0,"station_id":"ce4bgi92rcd13ifvqb90","pricing_plan_id":"cebpf4jnsgd1na2vs0mg"},{"bike_id":"79f3ae0d-6333-4e50-b3b7-522f8072751f","system_id":"levelo_inurba_marseille","lat":43.33611,"lon":5.41027,"is_reserved":false,"is_disabled":false,"rental_uris":{"android":"levelo://app?vid=79f3ae0d-6333-4e50-b3b7-522f8072751f","ios":"levelo://app?vid=79f3ae0d-6333-4e50-b3b7-522f8072751f"},"vehicle_type_id":"4","last_reported":1734423233,"current_range_meters":38800,"station_id":"ce4bhqh2rcd13ifvqhmg","pricing_plan_id":"cebpf4jnsgd1na2vs0mg"},{"bike_id":"d52f43bd-12e0-4c74-a520-a5fbf6da2785","system_id":"levelo_inurba_marseille","lat":43.29904,"lon":5.39672,"is_reserved":false,"is_disabled":false,"rental_uris":{"android":"levelo://app?vid=d52f43bd-12e0-4c74-a520-a5fbf6da2785","ios":"levelo://app?vid=d52f43bd-12e0-4c74-a520-a5fbf6da2785"},"vehicle_type_id":"4","last_reported":1734423233,"current_range_meters":17200,"station_id":"","pricing_plan_id":"cebpf4jnsgd1na2vs0mg"},{"bike_id":"8707fff4-af9e-4ef2-84fb-27fb545031ef","system_id":"levelo_inurba_marseille","lat":43.30943,"lon":5.39024,"is_reserved":false,"is_disabled":false,"rental_uris":{"android":"levelo://app?vid=8707fff4-af9e-4ef2-84fb-27fb545031ef","ios":"levelo://app?vid=8707fff4-af9e-4ef2-84fb-27fb545031ef"},"vehicle_type_id":"4","last_reported":1734423233,"current_range_meters":29600,"station_id":"ce4bgup2rcd13ifvqco0","pricing_plan_id":"cebpf4jnsgd1na2vs0mg"},{"bike_id":"6406da8e-4015-4884-84f3-5dcad338f4a8","system_id":"levelo_inurba_marseille","lat":43.32474,"lon":5.36565,"is_reserved":false,"is_disabled":false,"rental_uris":{"android":"levelo://app?vid=6406da8e-4015-4884-84f3-5dcad338f4a8","ios":"levelo://app?vid=6406da8e-4015-4884-84f3-5dcad338f4a8"},"vehicle_type_id":"4","last_reported":1734423233,"current_range_meters":34000,"station_id":"ce4bhs12rcd13ifvqhvg","pricing_plan_id":"cebpf4jnsgd1na2vs0mg"},{"bike_id":"ada98252-264b-448c-8457-dbe7b3f92be4","system_id":"levelo_inurba_marseille","lat":43.30468,"lon":5.37899,"is_reserved":false,"is_disabled":true,"rental_uris":{"android":"levelo://app?vid=ada98252-264b-448c-8457-dbe7b3f92be4","ios":"levelo://app?vid=ada98252-264b-448c-8457-dbe7b3f92be4"},"vehicle_type_id":"4","last_reported":1734423233,"current_range_meters":36800,"station_id":"ce4bgup2rcd13ifvqcn0","pricing_plan_id":"cebpf4jnsgd1na2vs0mg"},{"bike_id":"e3d58221-3d4d-4c5b-8ea9-b89a3ac635f3","system_id":"levelo_inurba_marseille","lat":43.32475,"lon":5.36577,"is_reserved":false,"is_disabled":false,"rental_uris":{"android":"levelo://app?vid=e3d58221-3d4d-4c5b-8ea9-b89a3ac635f3","ios":"levelo://app?vid=e3d58221-3d4d-4c5b-8ea9-b89a3ac635f3"},"vehicle_type_id":"4","last_reported":1734423233,"current_range_meters":38800,"station_id":"ce4bhs12rcd13ifvqhvg","pricing_plan_id":"cebpf4jnsgd1na2vs0mg"},{"bike_id":"6b2019df-57c6-4717-bb28-99523c4cbdf8","system_id":"levelo_inurba_marseille","lat":43.295218,"lon":5.390282,"is_reserved":false,"is_disabled":true,"rental_uris":{"android":"levelo://app?vid=6b2019df-57c6-4717-bb28-99523c4cbdf8","ios":"levelo://app?vid=6b2019df-57c6-4717-bb28-99523c4cbdf8"},"vehicle_type_id":"4","last_reported":1734423233,"current_range_meters":6400,"station_id":"ce4bh3p2rcd13ifvqdp0","pricing_plan_id":"cebpf4jnsgd1na2vs0mg"},{"bike_id":"9064f44a-7173-4693-b4e4-b33cadc2b2b3","system_id":"levelo_inurba_marseille","lat":43.32553,"lon":5.41467,"is_reserved":false,"is_disabled":false,"rental_uris":{"android":"levelo://app?vid=9064f44a-7173-4693-b4e4-b33cadc2b2b3","ios":"levelo://app?vid=9064f44a-7173-4693-b4e4-b33cadc2b2b3"},"vehicle_type_id":"4","last_reported":1734423233,"current_range_meters":27200,"station_id":"ce4bhq12rcd13ifvqhhg","pricing_plan_id":"cebpf4jnsgd1na2vs0mg"},{"bike_id":"31258b1a-5d53-43c4-bfc9-1c3c86bbf630","system_id":"levelo_inurba_marseille","lat":43.30149,"lon":5.38077,"is_reserved":false,"is_disabled":true,"rental_uris":{"android":"levelo://app?vid=31258b1a-5d53-43c4-bfc9-1c3c86bbf630","ios":"levelo://app?vid=31258b1a-5d53-43c4-bfc9-1c3c86bbf630"},"vehicle_type_id":"4","last_reported":1734423233,"current_range_meters":39200,"station_id":"ce4bgjp2rcd13ifvqbh0","pricing_plan_id":"cebpf4jnsgd1na2vs0mg"},{"bike_id":"4375d76a-dfa4-4b4b-b81c-b45a1fb8d4ca","system_id":"levelo_inurba_marseille","lat":43.28945,"lon":5.36398,"is_reserved":false,"is_disabled":false,"rental_uris":{"android":"levelo://app?vid=4375d76a-dfa4-4b4b-b81c-b45a1fb8d4ca","ios":"levelo://app?vid=4375d76a-dfa4-4b4b-b81c-b45a1fb8d4ca"},"vehicle_type_id":"4","last_reported":1734423233,"current_range_meters":34000,"station_id":"ce4bhc92rcd13ifvqetg","pricing_plan_id":"cebpf4jnsgd1na2vs0mg"},{"bike_id":"f5c0822d-e5fc-48af-9261-881b9d0794bb","system_id":"levelo_inurba_marseille","lat":43.27065,"lon":5.42274,"is_reserved":false,"is_disabled":false,"rental_uris":{"android":"levelo://app?vid=f5c0822d-e5fc-48af-9261-881b9d0794bb","ios":"levelo://app?vid=f5c0822d-e5fc-48af-9261-881b9d0794bb"},"vehicle_type_id":"4","last_reported":1734423233,"current_range_meters":19600,"station_id":"ce4bhk92rcd13ifvqgb0","pricing_plan_id":"cebpf4jnsgd1na2vs0mg"},{"bike_id":"3adf56f7-e398-4f39-9aed-d791bf6ebdd6","system_id":"levelo_inurba_marseille","lat":43.26485,"lon":5.39545,"is_reserved":false,"is_disabled":false,"rental_uris":{"android":"levelo://app?vid=3adf56f7-e398-4f39-9aed-d791bf6ebdd6","ios":"levelo://app?vid=3adf56f7-e398-4f39-9aed-d791bf6ebdd6"},"vehicle_type_id":"4","last_reported":1734423233,"current_range_meters":10800,"station_id":"ce4bhi12rcd13ifvqfq0","pricing_plan_id":"cebpf4jnsgd1na2vs0mg"},{"bike_id":"730a6134-88d8-47e4-be24-a87eaceaba81","system_id":"levelo_inurba_marseille","lat":43.279273,"lon":5.395727,"is_reserved":false,"is_disabled":true,"rental_uris":{"android":"levelo://app?vid=730a6134-88d8-47e4-be24-a87eaceaba81","ios":"levelo://app?vid=730a6134-88d8-47e4-be24-a87eaceaba81"},"vehicle_type_id":"4","last_reported":1734423233,"current_range_meters":38400,"station_id":"ce4bhf92rcd13ifvqf40","pricing_plan_id":"cebpf4jnsgd1na2vs0mg"},{"bike_id":"7c849768-0845-4891-b81b-3aad0926e6dd","system_id":"levelo_inurba_marseille","lat":43.30245,"lon":5.400577,"is_reserved":false,"is_disabled":true,"rental_uris":{"android":"levelo://app?vid=7c849768-0845-4891-b81b-3aad0926e6dd","ios":"levelo://app?vid=7c849768-0845-4891-b81b-3aad0926e6dd"},"vehicle_type_id":"4","last_reported":1734423233,"current_range_meters":34000,"station_id":"ce4bgvh2rcd13ifvqcs0","pricing_plan_id":"cebpf4jnsgd1na2vs0mg"},{"bike_id":"bb1c0ef0-184d-4b17-9016-88e561b3d27b","system_id":"levelo_inurba_marseille","lat":43.28614,"lon":5.35103,"is_reserved":false,"is_disabled":true,"rental_uris":{"android":"levelo://app?vid=bb1c0ef0-184d-4b17-9016-88e561b3d27b","ios":"levelo://app?vid=bb1c0ef0-184d-4b17-9016-88e561b3d27b"},"vehicle_type_id":"4","last_reported":1734423233,"current_range_meters":24000,"station_id":"ce4bhch2rcd13ifvqeug","pricing_plan_id":"cebpf4jnsgd1na2vs0mg"},{"bike_id":"9b754709-8835-4aad-a1a8-d852611ef7f8","system_id":"levelo_inurba_marseille","lat":43.33609,"lon":5.41028,"is_reserved":false,"is_disabled":true,"rental_uris":{"android":"levelo://app?vid=9b754709-8835-4aad-a1a8-d852611ef7f8","ios":"levelo://app?vid=9b754709-8835-4aad-a1a8-d852611ef7f8"},"vehicle_type_id":"4","last_reported":1734423233,"current_range_meters":0,"station_id":"ce4bhqh2rcd13ifvqhmg","pricing_plan_id":"cebpf4jnsgd1na2vs0mg"},{"bike_id":"44861a73-1a94-4497-ad37-285de7daa1ae","system_id":"levelo_inurba_marseille","lat":43.28026,"lon":5.36952,"is_reserved":false,"is_disabled":false,"rental_uris":{"android":"levelo://app?vid=44861a73-1a94-4497-ad37-285de7daa1ae","ios":"levelo://app?vid=44861a73-1a94-4497-ad37-285de7daa1ae"},"vehicle_type_id":"4","last_reported":1734423233,"current_range_meters":38800,"station_id":"ce4bha12rcd13ifvqef0","pricing_plan_id":"cebpf4jnsgd1na2vs0mg"},{"bike_id":"c5595fd0-fc8e-462b-8984-5c1c92ed35f5","system_id":"levelo_inurba_marseille","lat":43.29567,"lon":5.42289,"is_reserved":false,"is_disabled":true,"rental_uris":{"android":"levelo://app?vid=c5595fd0-fc8e-462b-8984-5c1c92ed35f5","ios":"levelo://app?vid=c5595fd0-fc8e-462b-8984-5c1c92ed35f5"},"vehicle_type_id":"4","last_reported":1734423233,"current_range_meters":0,"station_id":"ce4bhph2rcd13ifvqhdg","pricing_plan_id":"cebpf4jnsgd1na2vs0mg"},{"bike_id":"d7fc73d9-2bfb-4d76-bfdc-a98adec233d1","system_id":"levelo_inurba_marseille","lat":43.30905,"lon":5.36841,"is_reserved":false,"is_disabled":false,"rental_uris":{"android":"levelo://app?vid=d7fc73d9-2bfb-4d76-bfdc-a98adec233d1","ios":"levelo://app?vid=d7fc73d9-2bfb-4d76-bfdc-a98adec233d1"},"vehicle_type_id":"4","last_reported":1734423233,"current_range_meters":24400,"station_id":"ce4bgn92rcd13ifvqbvg","pricing_plan_id":"cebpf4jnsgd1na2vs0mg"},{"bike_id":"ebaa68e4-3d1b-47af-9a69-6f7f2246f6e7","system_id":"levelo_inurba_marseille","lat":43.24667,"lon":5.38166,"is_reserved":false,"is_disabled":true,"rental_uris":{"android":"levelo://app?vid=ebaa68e4-3d1b-47af-9a69-6f7f2246f6e7","ios":"levelo://app?vid=ebaa68e4-3d1b-47af-9a69-6f7f2246f6e7"},"vehicle_type_id":"4","last_reported":1734423233,"current_range_meters":38000,"station_id":"ce4bhih2rcd13ifvqfr0","pricing_plan_id":"cebpf4jnsgd1na2vs0mg"},{"bike_id":"8255f9a7-6654-4611-b0dc-42cda27b080c","system_id":"levelo_inurba_marseille","lat":43.26193,"lon":5.37444,"is_reserved":false,"is_disabled":false,"rental_uris":{"android":"levelo://app?vid=8255f9a7-6654-4611-b0dc-42cda27b080c","ios":"levelo://app?vid=8255f9a7-6654-4611-b0dc-42cda27b080c"},"vehicle_type_id":"4","last_reported":1734423233,"current_range_meters":38000,"station_id":"ce4bhgp2rcd13ifvqfc0","pricing_plan_id":"cebpf4jnsgd1na2vs0mg"},{"bike_id":"11cbe600-901a-49d9-bcb2-69e8b2b10f09","system_id":"levelo_inurba_marseille","lat":43.3378,"lon":5.37429,"is_reserved":false,"is_disabled":false,"rental_uris":{"android":"levelo://app?vid=11cbe600-901a-49d9-bcb2-69e8b2b10f09","ios":"levelo://app?vid=11cbe600-901a-49d9-bcb2-69e8b2b10f09"},"vehicle_type_id":"4","last_reported":1734423233,"current_range_meters":28000,"station_id":"","pricing_plan_id":"cebpf4jnsgd1na2vs0mg"},{"bike_id":"9177c7a9-a91b-44ca-bb4d-997766847066","system_id":"levelo_inurba_marseille","lat":43.2407,"lon":5.37758,"is_reserved":false,"is_disabled":false,"rental_uris":{"android":"levelo://app?vid=9177c7a9-a91b-44ca-bb4d-997766847066","ios":"levelo://app?vid=9177c7a9-a91b-44ca-bb4d-997766847066"},"vehicle_type_id":"4","last_reported":1734423233,"current_range_meters":38800,"station_id":"ce4bhnp2rcd13ifvqgvg","pricing_plan_id":"cebpf4jnsgd1na2vs0mg"},{"bike_id":"1cf25303-dd39-448c-9740-9f191a0a2657","system_id":"levelo_inurba_marseille","lat":43.2894,"lon":5.36388,"is_reserved":false,"is_disabled":false,"rental_uris":{"android":"levelo://app?vid=1cf25303-dd39-448c-9740-9f191a0a2657","ios":"levelo://app?vid=1cf25303-dd39-448c-9740-9f191a0a2657"},"vehicle_type_id":"4","last_reported":1734423233,"current_range_meters":15200,"station_id":"ce4bhc92rcd13ifvqetg","pricing_plan_id":"cebpf4jnsgd1na2vs0mg"},{"bike_id":"8e7c3683-99a9-4188-89c4-858575c3d04c","system_id":"levelo_inurba_marseille","lat":43.276713,"lon":5.389126,"is_reserved":false,"is_disabled":true,"rental_uris":{"android":"levelo://app?vid=8e7c3683-99a9-4188-89c4-858575c3d04c","ios":"levelo://app?vid=8e7c3683-99a9-4188-89c4-858575c3d04c"},"vehicle_type_id":"4","last_reported":1734423233,"current_range_meters":31200,"station_id":"ce4bhi12rcd13ifvqfo0","pricing_plan_id":"cebpf4jnsgd1na2vs0mg"},{"bike_id":"ae60cc7b-5b37-424a-bce7-0c3f67a52e64","system_id":"levelo_inurba_marseille","lat":43.30466,"lon":5.37904,"is_reserved":false,"is_disabled":false,"rental_uris":{"android":"levelo://app?vid=ae60cc7b-5b37-424a-bce7-0c3f67a52e64","ios":"levelo://app?vid=ae60cc7b-5b37-424a-bce7-0c3f67a52e64"},"vehicle_type_id":"4","last_reported":1734423233,"current_range_meters":8000,"station_id":"ce4bgup2rcd13ifvqcn0","pricing_plan_id":"cebpf4jnsgd1na2vs0mg"},{"bike_id":"b94843c9-9f28-41da-b5e5-912400e120a2","system_id":"levelo_inurba_marseille","lat":43.26558,"lon":5.3902,"is_reserved":false,"is_disabled":false,"rental_uris":{"android":"levelo://app?vid=b94843c9-9f28-41da-b5e5-912400e120a2","ios":"levelo://app?vid=b94843c9-9f28-41da-b5e5-912400e120a2"},"vehicle_type_id":"4","last_reported":1734423233,"current_range_meters":34800,"station_id":"ce4bhe12rcd13ifvqf30","pricing_plan_id":"cebpf4jnsgd1na2vs0mg"},{"bike_id":"4577e3e8-7ec6-4361-8738-81257af38076","system_id":"levelo_inurba_marseille","lat":43.28418,"lon":5.34981,"is_reserved":false,"is_disabled":false,"rental_uris":{"android":"levelo://app?vid=4577e3e8-7ec6-4361-8738-81257af38076","ios":"levelo://app?vid=4577e3e8-7ec6-4361-8738-81257af38076"},"vehicle_type_id":"4","last_reported":1734423233,"current_range_meters":36800,"station_id":"ce4bhbh2rcd13ifvqepg","pricing_plan_id":"cebpf4jnsgd1na2vs0mg"},{"bike_id":"85c611d4-2eea-40f9-a167-f068da541cb3","system_id":"levelo_inurba_marseille","lat":43.26951,"lon":5.38631,"is_reserved":false,"is_disabled":true,"rental_uris":{"android":"levelo://app?vid=85c611d4-2eea-40f9-a167-f068da541cb3","ios":"levelo://app?vid=85c611d4-2eea-40f9-a167-f068da541cb3"},"vehicle_type_id":"4","last_reported":1734423233,"current_range_meters":36800,"station_id":"ce4bhh92rcd13ifvqfh0","pricing_plan_id":"cebpf4jnsgd1na2vs0mg"},{"bike_id":"bca3b16b-7ae1-463b-944a-4cce2729cd1e","system_id":"levelo_inurba_marseille","lat":43.30185,"lon":5.36584,"is_reserved":false,"is_disabled":false,"rental_uris":{"android":"levelo://app?vid=bca3b16b-7ae1-463b-944a-4cce2729cd1e","ios":"levelo://app?vid=bca3b16b-7ae1-463b-944a-4cce2729cd1e"},"vehicle_type_id":"4","last_reported":1734423233,"current_range_meters":22000,"station_id":"ce4bgrh2rcd13ifvqc8g","pricing_plan_id":"cebpf4jnsgd1na2vs0mg"},{"bike_id":"05b11ecc-3c0a-42fa-91db-48cd7cbce6b9","system_id":"levelo_inurba_marseille","lat":43.30271,"lon":5.37719,"is_reserved":false,"is_disabled":false,"rental_uris":{"android":"levelo://app?vid=05b11ecc-3c0a-42fa-91db-48cd7cbce6b9","ios":"levelo://app?vid=05b11ecc-3c0a-42fa-91db-48cd7cbce6b9"},"vehicle_type_id":"4","last_reported":1734423233,"current_range_meters":6800,"station_id":"ce4bguh2rcd13ifvqcj0","pricing_plan_id":"cebpf4jnsgd1na2vs0mg"},{"bike_id":"9b077cf7-98d5-40cb-b5c0-c8454ccd93f2","system_id":"levelo_inurba_marseille","lat":43.29318,"lon":5.41159,"is_reserved":false,"is_disabled":true,"rental_uris":{"android":"levelo://app?vid=9b077cf7-98d5-40cb-b5c0-c8454ccd93f2","ios":"levelo://app?vid=9b077cf7-98d5-40cb-b5c0-c8454ccd93f2"},"vehicle_type_id":"4","last_reported":1734423233,"current_range_meters":0,"station_id":"","pricing_plan_id":"cebpf4jnsgd1na2vs0mg"},{"bike_id":"201584b4-95b9-4563-8e2a-9a489a1b4b70","system_id":"levelo_inurba_marseille","lat":43.26953,"lon":5.38628,"is_reserved":false,"is_disabled":false,"rental_uris":{"android":"levelo://app?vid=201584b4-95b9-4563-8e2a-9a489a1b4b70","ios":"levelo://app?vid=201584b4-95b9-4563-8e2a-9a489a1b4b70"},"vehicle_type_id":"4","last_reported":1734423233,"current_range_meters":22000,"station_id":"ce4bhh92rcd13ifvqfh0","pricing_plan_id":"cebpf4jnsgd1na2vs0mg"},{"bike_id":"cbd46a1e-a30c-4edf-bd43-7bd67d2d18c8","system_id":"levelo_inurba_marseille","lat":43.28932,"lon":5.36398,"is_reserved":false,"is_disabled":false,"rental_uris":{"android":"levelo://app?vid=cbd46a1e-a30c-4edf-bd43-7bd67d2d18c8","ios":"levelo://app?vid=cbd46a1e-a30c-4edf-bd43-7bd67d2d18c8"},"vehicle_type_id":"4","last_reported":1734423233,"current_range_meters":38800,"station_id":"ce4bhc92rcd13ifvqetg","pricing_plan_id":"cebpf4jnsgd1na2vs0mg"},{"bike_id":"6afe920d-4000-429a-84e5-416689c1fee2","system_id":"levelo_inurba_marseille","lat":43.28848,"lon":5.35852,"is_reserved":false,"is_disabled":false,"rental_uris":{"android":"levelo://app?vid=6afe920d-4000-429a-84e5-416689c1fee2","ios":"levelo://app?vid=6afe920d-4000-429a-84e5-416689c1fee2"},"vehicle_type_id":"4","last_reported":1734423233,"current_range_meters":38800,"station_id":"ce4bhb12rcd13ifvqem0","pricing_plan_id":"cebpf4jnsgd1na2vs0mg"},{"bike_id":"e88aa21a-8542-4e46-860c-239c66c8eee7","system_id":"levelo_inurba_marseille","lat":43.25942,"lon":5.40902,"is_reserved":false,"is_disabled":false,"rental_uris":{"android":"levelo://app?vid=e88aa21a-8542-4e46-860c-239c66c8eee7","ios":"levelo://app?vid=e88aa21a-8542-4e46-860c-239c66c8eee7"},"vehicle_type_id":"4","last_reported":1734423233,"current_range_meters":36400,"station_id":"ce4bhm92rcd13ifvqglg","pricing_plan_id":"cebpf4jnsgd1na2vs0mg"},{"bike_id":"63988bc4-443f-43e2-98fc-208c43b95700","system_id":"levelo_inurba_marseille","lat":43.30172,"lon":5.38076,"is_reserved":false,"is_disabled":false,"rental_uris":{"android":"levelo://app?vid=63988bc4-443f-43e2-98fc-208c43b95700","ios":"levelo://app?vid=63988bc4-443f-43e2-98fc-208c43b95700"},"vehicle_type_id":"4","last_reported":1734423233,"current_range_meters":32800,"station_id":"ce4bgjp2rcd13ifvqbh0","pricing_plan_id":"cebpf4jnsgd1na2vs0mg"},{"bike_id":"ed10ca62-da33-46b2-9b86-0480aa248831","system_id":"levelo_inurba_marseille","lat":43.31347,"lon":5.36712,"is_reserved":false,"is_disabled":false,"rental_uris":{"android":"levelo://app?vid=ed10ca62-da33-46b2-9b86-0480aa248831","ios":"levelo://app?vid=ed10ca62-da33-46b2-9b86-0480aa248831"},"vehicle_type_id":"4","last_reported":1734423233,"current_range_meters":35600,"station_id":"ce4bgr92rcd13ifvqc6g","pricing_plan_id":"cebpf4jnsgd1na2vs0mg"},{"bike_id":"2a2f3060-6318-4d93-b289-d483da8bc112","system_id":"levelo_inurba_marseille","lat":43.29572,"lon":5.39983,"is_reserved":false,"is_disabled":false,"rental_uris":{"android":"levelo://app?vid=2a2f3060-6318-4d93-b289-d483da8bc112","ios":"levelo://app?vid=2a2f3060-6318-4d93-b289-d483da8bc112"},"vehicle_type_id":"4","last_reported":1734423233,"current_range_meters":37600,"station_id":"ce4bh312rcd13ifvqdj0","pricing_plan_id":"cebpf4jnsgd1na2vs0mg"},{"bike_id":"17fd1c3b-23af-4fb5-9435-033e2a988571","system_id":"levelo_inurba_marseille","lat":43.30996,"lon":5.40137,"is_reserved":false,"is_disabled":true,"rental_uris":{"android":"levelo://app?vid=17fd1c3b-23af-4fb5-9435-033e2a988571","ios":"levelo://app?vid=17fd1c3b-23af-4fb5-9435-033e2a988571"},"vehicle_type_id":"4","last_reported":1734423233,"current_range_meters":34800,"station_id":"","pricing_plan_id":"cebpf4jnsgd1na2vs0mg"},{"bike_id":"e2044f09-c884-429e-a5cf-48be22d7ccae","system_id":"levelo_inurba_marseille","lat":34.672202,"lon":-1.878747,"is_reserved":false,"is_disabled":true,"rental_uris":{"android":"levelo://app?vid=e2044f09-c884-429e-a5cf-48be22d7ccae","ios":"levelo://app?vid=e2044f09-c884-429e-a5cf-48be22d7ccae"},"vehicle_type_id":"4","last_reported":1734423233,"current_range_meters":21600,"station_id":"","pricing_plan_id":"cebpf4jnsgd1na2vs0mg"},{"bike_id":"eeeb6675-eae2-4e81-9977-35e405b6cce6","system_id":"levelo_inurba_marseille","lat":43.26956,"lon":5.38635,"is_reserved":false,"is_disabled":false,"rental_uris":{"android":"levelo://app?vid=eeeb6675-eae2-4e81-9977-35e405b6cce6","ios":"levelo://app?vid=eeeb6675-eae2-4e81-9977-35e405b6cce6"},"vehicle_type_id":"4","last_reported":1734423233,"current_range_meters":38800,"station_id":"ce4bhh92rcd13ifvqfh0","pricing_plan_id":"cebpf4jnsgd1na2vs0mg"},{"bike_id":"3f652d88-933a-4f9b-b42a-56ce4e2a2126","system_id":"levelo_inurba_marseille","lat":43.31361,"lon":5.38494,"is_reserved":false,"is_disabled":false,"rental_uris":{"android":"levelo://app?vid=3f652d88-933a-4f9b-b42a-56ce4e2a2126","ios":"levelo://app?vid=3f652d88-933a-4f9b-b42a-56ce4e2a2126"},"vehicle_type_id":"4","last_reported":1734423233,"current_range_meters":22000,"station_id":"ce4bgt92rcd13ifvqcf0","pricing_plan_id":"cebpf4jnsgd1na2vs0mg"},{"bike_id":"d7c1cf73-5ea5-4c2f-a402-88978e03c60a","system_id":"levelo_inurba_marseille","lat":43.29471,"lon":5.36234,"is_reserved":false,"is_disabled":false,"rental_uris":{"android":"levelo://app?vid=d7c1cf73-5ea5-4c2f-a402-88978e03c60a","ios":"levelo://app?vid=d7c1cf73-5ea5-4c2f-a402-88978e03c60a"},"vehicle_type_id":"4","last_reported":1734423233,"current_range_meters":4800,"station_id":"","pricing_plan_id":"cebpf4jnsgd1na2vs0mg"},{"bike_id":"26ef2c06-f6a1-44da-a156-f1644ab22047","system_id":"levelo_inurba_marseille","lat":43.33613,"lon":5.41035,"is_reserved":false,"is_disabled":false,"rental_uris":{"android":"levelo://app?vid=26ef2c06-f6a1-44da-a156-f1644ab22047","ios":"levelo://app?vid=26ef2c06-f6a1-44da-a156-f1644ab22047"},"vehicle_type_id":"4","last_reported":1734423233,"current_range_meters":38800,"station_id":"ce4bhqh2rcd13ifvqhmg","pricing_plan_id":"cebpf4jnsgd1na2vs0mg"},{"bike_id":"bd7e907d-3c2d-4a3f-94b9-a1be4ea3d428","system_id":"levelo_inurba_marseille","lat":43.31087,"lon":5.42434,"is_reserved":false,"is_disabled":false,"rental_uris":{"android":"levelo://app?vid=bd7e907d-3c2d-4a3f-94b9-a1be4ea3d428","ios":"levelo://app?vid=bd7e907d-3c2d-4a3f-94b9-a1be4ea3d428"},"vehicle_type_id":"4","last_reported":1734423233,"current_range_meters":38000,"station_id":"ce4bhp92rcd13ifvqhag","pricing_plan_id":"cebpf4jnsgd1na2vs0mg"},{"bike_id":"d68a8bfe-a1fe-43aa-94f3-8bfaa3478d06","system_id":"levelo_inurba_marseille","lat":43.26557,"lon":5.37281,"is_reserved":false,"is_disabled":false,"rental_uris":{"android":"levelo://app?vid=d68a8bfe-a1fe-43aa-94f3-8bfaa3478d06","ios":"levelo://app?vid=d68a8bfe-a1fe-43aa-94f3-8bfaa3478d06"},"vehicle_type_id":"4","last_reported":1734423233,"current_range_meters":38000,"station_id":"ce4bhg12rcd13ifvqf70","pricing_plan_id":"cebpf4jnsgd1na2vs0mg"},{"bike_id":"b8633f79-eb23-4632-8433-16f06c153c85","system_id":"levelo_inurba_marseille","lat":43.29985,"lon":5.37187,"is_reserved":false,"is_disabled":false,"rental_uris":{"android":"levelo://app?vid=b8633f79-eb23-4632-8433-16f06c153c85","ios":"levelo://app?vid=b8633f79-eb23-4632-8433-16f06c153c85"},"vehicle_type_id":"4","last_reported":1734423233,"current_range_meters":24400,"station_id":"ce4bgr92rcd13ifvqc7g","pricing_plan_id":"cebpf4jnsgd1na2vs0mg"},{"bike_id":"a89cd9c8-8f1d-4d1b-8c2f-0bea6fec6c3b","system_id":"levelo_inurba_marseille","lat":43.299001,"lon":5.397391,"is_reserved":false,"is_disabled":false,"rental_uris":{"android":"levelo://app?vid=a89cd9c8-8f1d-4d1b-8c2f-0bea6fec6c3b","ios":"levelo://app?vid=a89cd9c8-8f1d-4d1b-8c2f-0bea6fec6c3b"},"vehicle_type_id":"4","last_reported":1734423233,"current_range_meters":10000,"station_id":"ce4bh0h2rcd13ifvqd50","pricing_plan_id":"cebpf4jnsgd1na2vs0mg"},{"bike_id":"55f80f81-ad6e-4bc9-b366-50507bc87bcd","system_id":"levelo_inurba_marseille","lat":43.323417,"lon":5.406196,"is_reserved":false,"is_disabled":true,"rental_uris":{"android":"levelo://app?vid=55f80f81-ad6e-4bc9-b366-50507bc87bcd","ios":"levelo://app?vid=55f80f81-ad6e-4bc9-b366-50507bc87bcd"},"vehicle_type_id":"4","last_reported":1734423233,"current_range_meters":400,"station_id":"ce4bhq92rcd13ifvqhjg","pricing_plan_id":"cebpf4jnsgd1na2vs0mg"},{"bike_id":"82419c04-c888-4e27-9ad0-e6d696d2cd91","system_id":"levelo_inurba_marseille","lat":43.29923,"lon":5.3747,"is_reserved":false,"is_disabled":false,"rental_uris":{"android":"levelo://app?vid=82419c04-c888-4e27-9ad0-e6d696d2cd91","ios":"levelo://app?vid=82419c04-c888-4e27-9ad0-e6d696d2cd91"},"vehicle_type_id":"4","last_reported":1734423233,"current_range_meters":33600,"station_id":"ce4bgjh2rcd13ifvqbg0","pricing_plan_id":"cebpf4jnsgd1na2vs0mg"},{"bike_id":"c9662c85-f4fb-4090-b7ba-3927272dbbb6","system_id":"levelo_inurba_marseille","lat":43.29304,"lon":5.37189,"is_reserved":false,"is_disabled":true,"rental_uris":{"android":"levelo://app?vid=c9662c85-f4fb-4090-b7ba-3927272dbbb6","ios":"levelo://app?vid=c9662c85-f4fb-4090-b7ba-3927272dbbb6"},"vehicle_type_id":"4","last_reported":1734423233,"current_range_meters":38000,"station_id":"ce4bgh92rcd13ifvqb40","pricing_plan_id":"cebpf4jnsgd1na2vs0mg"},{"bike_id":"582cc43e-9e1a-46c5-9131-49698d942397","system_id":"levelo_inurba_marseille","lat":43.270541,"lon":5.423208,"is_reserved":false,"is_disabled":false,"rental_uris":{"android":"levelo://app?vid=582cc43e-9e1a-46c5-9131-49698d942397","ios":"levelo://app?vid=582cc43e-9e1a-46c5-9131-49698d942397"},"vehicle_type_id":"4","last_reported":1734423233,"current_range_meters":8000,"station_id":"ce4bhk92rcd13ifvqgb0","pricing_plan_id":"cebpf4jnsgd1na2vs0mg"},{"bike_id":"2072f0fc-a96f-45ce-8a70-7a64f6a0041e","system_id":"levelo_inurba_marseille","lat":43.29169,"lon":5.37163,"is_reserved":false,"is_disabled":false,"rental_uris":{"android":"levelo://app?vid=2072f0fc-a96f-45ce-8a70-7a64f6a0041e","ios":"levelo://app?vid=2072f0fc-a96f-45ce-8a70-7a64f6a0041e"},"vehicle_type_id":"4","last_reported":1734423233,"current_range_meters":29600,"station_id":"ce4bha92rcd13ifvqeh0","pricing_plan_id":"cebpf4jnsgd1na2vs0mg"},{"bike_id":"5f2be17f-083e-494f-a7a1-4802346cfcb9","system_id":"levelo_inurba_marseille","lat":43.28571,"lon":5.39492,"is_reserved":false,"is_disabled":true,"rental_uris":{"android":"levelo://app?vid=5f2be17f-083e-494f-a7a1-4802346cfcb9","ios":"levelo://app?vid=5f2be17f-083e-494f-a7a1-4802346cfcb9"},"vehicle_type_id":"4","last_reported":1734423233,"current_range_meters":24000,"station_id":"ce4bh292rcd13ifvqdg0","pricing_plan_id":"cebpf4jnsgd1na2vs0mg"},{"bike_id":"2553ed0b-d0db-41b9-bd83-dd898ffa2b02","system_id":"levelo_inurba_marseille","lat":43.24543,"lon":5.39522,"is_reserved":false,"is_disabled":false,"rental_uris":{"android":"levelo://app?vid=2553ed0b-d0db-41b9-bd83-dd898ffa2b02","ios":"levelo://app?vid=2553ed0b-d0db-41b9-bd83-dd898ffa2b02"},"vehicle_type_id":"4","last_reported":1734423233,"current_range_meters":22800,"station_id":"ce4bhlp2rcd13ifvqgjg","pricing_plan_id":"cebpf4jnsgd1na2vs0mg"},{"bike_id":"12c0f2f6-da58-4054-b8ea-66cf0689d0ae","system_id":"levelo_inurba_marseille","lat":43.30474,"lon":5.37901,"is_reserved":false,"is_disabled":true,"rental_uris":{"android":"levelo://app?vid=12c0f2f6-da58-4054-b8ea-66cf0689d0ae","ios":"levelo://app?vid=12c0f2f6-da58-4054-b8ea-66cf0689d0ae"},"vehicle_type_id":"4","last_reported":1734423233,"current_range_meters":38000,"station_id":"ce4bgup2rcd13ifvqcn0","pricing_plan_id":"cebpf4jnsgd1na2vs0mg"},{"bike_id":"02557a60-f058-497c-93a3-e74550da0736","system_id":"levelo_inurba_marseille","lat":43.26952,"lon":5.38638,"is_reserved":false,"is_disabled":false,"rental_uris":{"android":"levelo://app?vid=02557a60-f058-497c-93a3-e74550da0736","ios":"levelo://app?vid=02557a60-f058-497c-93a3-e74550da0736"},"vehicle_type_id":"4","last_reported":1734423233,"current_range_meters":39200,"station_id":"ce4bhh92rcd13ifvqfh0","pricing_plan_id":"cebpf4jnsgd1na2vs0mg"},{"bike_id":"5114b35a-0fbb-4692-915a-909bb398d975","system_id":"levelo_inurba_marseille","lat":43.30953,"lon":5.39025,"is_reserved":false,"is_disabled":false,"rental_uris":{"android":"levelo://app?vid=5114b35a-0fbb-4692-915a-909bb398d975","ios":"levelo://app?vid=5114b35a-0fbb-4692-915a-909bb398d975"},"vehicle_type_id":"4","last_reported":1734423233,"current_range_meters":32400,"station_id":"ce4bgup2rcd13ifvqco0","pricing_plan_id":"cebpf4jnsgd1na2vs0mg"},{"bike_id":"01d152f5-26df-4962-a1f2-478ba5058708","system_id":"levelo_inurba_marseille","lat":43.26024,"lon":5.37549,"is_reserved":false,"is_disabled":false,"rental_uris":{"android":"levelo://app?vid=01d152f5-26df-4962-a1f2-478ba5058708","ios":"levelo://app?vid=01d152f5-26df-4962-a1f2-478ba5058708"},"vehicle_type_id":"4","last_reported":1734423233,"current_range_meters":38000,"station_id":"ce4bhgh2rcd13ifvqfa0","pricing_plan_id":"cebpf4jnsgd1na2vs0mg"},{"bike_id":"586ce07a-15e4-4f19-a803-224f9d280bb7","system_id":"levelo_inurba_marseille","lat":43.24382,"lon":5.37056,"is_reserved":false,"is_disabled":false,"rental_uris":{"android":"levelo://app?vid=586ce07a-15e4-4f19-a803-224f9d280bb7","ios":"levelo://app?vid=586ce07a-15e4-4f19-a803-224f9d280bb7"},"vehicle_type_id":"4","last_reported":1734423233,"current_range_meters":38000,"station_id":"ce4bhhh2rcd13ifvqfk0","pricing_plan_id":"cebpf4jnsgd1na2vs0mg"},{"bike_id":"048ede08-1dd8-40d1-8404-3b85f61fc0d5","system_id":"levelo_inurba_marseille","lat":43.29554,"lon":5.42277,"is_reserved":false,"is_disabled":true,"rental_uris":{"android":"levelo://app?vid=048ede08-1dd8-40d1-8404-3b85f61fc0d5","ios":"levelo://app?vid=048ede08-1dd8-40d1-8404-3b85f61fc0d5"},"vehicle_type_id":"4","last_reported":1734423233,"current_range_meters":36000,"station_id":"ce4bhph2rcd13ifvqhdg","pricing_plan_id":"cebpf4jnsgd1na2vs0mg"},{"bike_id":"029bb566-7d8f-4c15-b417-513d9573a13b","system_id":"levelo_inurba_marseille","lat":43.30145,"lon":5.37406,"is_reserved":false,"is_disabled":false,"rental_uris":{"android":"levelo://app?vid=029bb566-7d8f-4c15-b417-513d9573a13b","ios":"levelo://app?vid=029bb566-7d8f-4c15-b417-513d9573a13b"},"vehicle_type_id":"4","last_reported":1734423233,"current_range_meters":19600,"station_id":"ce4bgs92rcd13ifvqcc0","pricing_plan_id":"cebpf4jnsgd1na2vs0mg"},{"bike_id":"087129b8-71a0-4148-b23a-b3fec29f7911","system_id":"levelo_inurba_marseille","lat":43.30121,"lon":5.38765,"is_reserved":false,"is_disabled":true,"rental_uris":{"android":"levelo://app?vid=087129b8-71a0-4148-b23a-b3fec29f7911","ios":"levelo://app?vid=087129b8-71a0-4148-b23a-b3fec29f7911"},"vehicle_type_id":"4","last_reported":1734423233,"current_range_meters":15200,"station_id":"ce4bghh2rcd13ifvqb60","pricing_plan_id":"cebpf4jnsgd1na2vs0mg"},{"bike_id":"a3ae6ee4-d060-4597-a716-f8c3846f7f84","system_id":"levelo_inurba_marseille","lat":43.28272,"lon":5.35063,"is_reserved":false,"is_disabled":false,"rental_uris":{"android":"levelo://app?vid=a3ae6ee4-d060-4597-a716-f8c3846f7f84","ios":"levelo://app?vid=a3ae6ee4-d060-4597-a716-f8c3846f7f84"},"vehicle_type_id":"4","last_reported":1734423233,"current_range_meters":36800,"station_id":"ce4bhbp2rcd13ifvqerg","pricing_plan_id":"cebpf4jnsgd1na2vs0mg"},{"bike_id":"6c12a643-7d84-4d8e-b607-eb11c3ba920c","system_id":"levelo_inurba_marseille","lat":43.29067,"lon":5.37184,"is_reserved":false,"is_disabled":false,"rental_uris":{"android":"levelo://app?vid=6c12a643-7d84-4d8e-b607-eb11c3ba920c","ios":"levelo://app?vid=6c12a643-7d84-4d8e-b607-eb11c3ba920c"},"vehicle_type_id":"4","last_reported":1734423233,"current_range_meters":30400,"station_id":"ce4bh5p2rcd13ifvqe4g","pricing_plan_id":"cebpf4jnsgd1na2vs0mg"},{"bike_id":"6edb9fe2-48b3-4ff2-9ad9-5cdffebfcbee","system_id":"levelo_inurba_marseille","lat":43.325442,"lon":5.414195,"is_reserved":false,"is_disabled":false,"rental_uris":{"android":"levelo://app?vid=6edb9fe2-48b3-4ff2-9ad9-5cdffebfcbee","ios":"levelo://app?vid=6edb9fe2-48b3-4ff2-9ad9-5cdffebfcbee"},"vehicle_type_id":"4","last_reported":1734423233,"current_range_meters":26800,"station_id":"ce4bhq12rcd13ifvqhhg","pricing_plan_id":"cebpf4jnsgd1na2vs0mg"},{"bike_id":"a939b72a-eb93-48d5-93d2-5b5defdd7d63","system_id":"levelo_inurba_marseille","lat":43.245463,"lon":5.395307,"is_reserved":false,"is_disabled":false,"rental_uris":{"android":"levelo://app?vid=a939b72a-eb93-48d5-93d2-5b5defdd7d63","ios":"levelo://app?vid=a939b72a-eb93-48d5-93d2-5b5defdd7d63"},"vehicle_type_id":"4","last_reported":1734423233,"current_range_meters":9600,"station_id":"ce4bhlp2rcd13ifvqgjg","pricing_plan_id":"cebpf4jnsgd1na2vs0mg"},{"bike_id":"b034ffa5-2e2f-4411-b0ad-406bb0eddb86","system_id":"levelo_inurba_marseille","lat":43.2668,"lon":5.38272,"is_reserved":false,"is_disabled":false,"rental_uris":{"android":"levelo://app?vid=b034ffa5-2e2f-4411-b0ad-406bb0eddb86","ios":"levelo://app?vid=b034ffa5-2e2f-4411-b0ad-406bb0eddb86"},"vehicle_type_id":"4","last_reported":1734423233,"current_range_meters":33600,"station_id":"ce4bhg92rcd13ifvqf90","pricing_plan_id":"cebpf4jnsgd1na2vs0mg"},{"bike_id":"8c646a78-8adf-41a1-a8e9-d46a651e640d","system_id":"levelo_inurba_marseille","lat":43.24078,"lon":5.37761,"is_reserved":false,"is_disabled":false,"rental_uris":{"android":"levelo://app?vid=8c646a78-8adf-41a1-a8e9-d46a651e640d","ios":"levelo://app?vid=8c646a78-8adf-41a1-a8e9-d46a651e640d"},"vehicle_type_id":"4","last_reported":1734423233,"current_range_meters":21600,"station_id":"ce4bhnp2rcd13ifvqgvg","pricing_plan_id":"cebpf4jnsgd1na2vs0mg"},{"bike_id":"ceeded70-dc81-4188-aa9c-6a35b50f0174","system_id":"levelo_inurba_marseille","lat":43.28951,"lon":5.3639,"is_reserved":false,"is_disabled":false,"rental_uris":{"android":"levelo://app?vid=ceeded70-dc81-4188-aa9c-6a35b50f0174","ios":"levelo://app?vid=ceeded70-dc81-4188-aa9c-6a35b50f0174"},"vehicle_type_id":"4","last_reported":1734423233,"current_range_meters":32000,"station_id":"ce4bhc92rcd13ifvqetg","pricing_plan_id":"cebpf4jnsgd1na2vs0mg"},{"bike_id":"c5eb6f3b-a816-44ab-8531-d55ee1fbf65a","system_id":"levelo_inurba_marseille","lat":43.30797,"lon":5.37637,"is_reserved":false,"is_disabled":false,"rental_uris":{"android":"levelo://app?vid=c5eb6f3b-a816-44ab-8531-d55ee1fbf65a","ios":"levelo://app?vid=c5eb6f3b-a816-44ab-8531-d55ee1fbf65a"},"vehicle_type_id":"4","last_reported":1734423233,"current_range_meters":9200,"station_id":"ce4bgv92rcd13ifvqcq0","pricing_plan_id":"cebpf4jnsgd1na2vs0mg"},{"bike_id":"44b3d68c-b1ac-43fd-8125-0bb0f629c502","system_id":"levelo_inurba_marseille","lat":43.26928,"lon":5.38916,"is_reserved":false,"is_disabled":false,"rental_uris":{"android":"levelo://app?vid=44b3d68c-b1ac-43fd-8125-0bb0f629c502","ios":"levelo://app?vid=44b3d68c-b1ac-43fd-8125-0bb0f629c502"},"vehicle_type_id":"4","last_reported":1734423233,"current_range_meters":8800,"station_id":"ce4bhhh2rcd13ifvqfl0","pricing_plan_id":"cebpf4jnsgd1na2vs0mg"},{"bike_id":"0311e056-96a4-45ed-b6e7-ba5cb2063198","system_id":"levelo_inurba_marseille","lat":43.27995,"lon":5.40021,"is_reserved":false,"is_disabled":false,"rental_uris":{"android":"levelo://app?vid=0311e056-96a4-45ed-b6e7-ba5cb2063198","ios":"levelo://app?vid=0311e056-96a4-45ed-b6e7-ba5cb2063198"},"vehicle_type_id":"4","last_reported":1734423233,"current_range_meters":22400,"station_id":"ce4bho92rcd13ifvqh4g","pricing_plan_id":"cebpf4jnsgd1na2vs0mg"},{"bike_id":"a72d515e-4dfd-4d0f-a401-002693668383","system_id":"levelo_inurba_marseille","lat":43.30542,"lon":5.36542,"is_reserved":false,"is_disabled":false,"rental_uris":{"android":"levelo://app?vid=a72d515e-4dfd-4d0f-a401-002693668383","ios":"levelo://app?vid=a72d515e-4dfd-4d0f-a401-002693668383"},"vehicle_type_id":"4","last_reported":1734423233,"current_range_meters":38800,"station_id":"ce4bgs12rcd13ifvqcag","pricing_plan_id":"cebpf4jnsgd1na2vs0mg"},{"bike_id":"4b4e0251-fe93-47eb-889a-2bee023cc4f2","system_id":"levelo_inurba_marseille","lat":43.30154,"lon":5.38077,"is_reserved":false,"is_disabled":false,"rental_uris":{"android":"levelo://app?vid=4b4e0251-fe93-47eb-889a-2bee023cc4f2","ios":"levelo://app?vid=4b4e0251-fe93-47eb-889a-2bee023cc4f2"},"vehicle_type_id":"4","last_reported":1734423233,"current_range_meters":34000,"station_id":"ce4bgjp2rcd13ifvqbh0","pricing_plan_id":"cebpf4jnsgd1na2vs0mg"},{"bike_id":"f1aadd49-9bfb-483b-854b-777c4e88c029","system_id":"levelo_inurba_marseille","lat":43.30435,"lon":5.38882,"is_reserved":false,"is_disabled":false,"rental_uris":{"android":"levelo://app?vid=f1aadd49-9bfb-483b-854b-777c4e88c029","ios":"levelo://app?vid=f1aadd49-9bfb-483b-854b-777c4e88c029"},"vehicle_type_id":"4","last_reported":1734423233,"current_range_meters":14000,"station_id":"ce4bgk12rcd13ifvqbi0","pricing_plan_id":"cebpf4jnsgd1na2vs0mg"},{"bike_id":"1b787b72-8f03-4a1f-8961-a6ff508bb873","system_id":"levelo_inurba_marseille","lat":43.30912,"lon":5.36842,"is_reserved":false,"is_disabled":false,"rental_uris":{"android":"levelo://app?vid=1b787b72-8f03-4a1f-8961-a6ff508bb873","ios":"levelo://app?vid=1b787b72-8f03-4a1f-8961-a6ff508bb873"},"vehicle_type_id":"4","last_reported":1734423233,"current_range_meters":38800,"station_id":"ce4bgn92rcd13ifvqbvg","pricing_plan_id":"cebpf4jnsgd1na2vs0mg"},{"bike_id":"ad3e51cb-df7c-4ce4-b243-f609a121c657","system_id":"levelo_inurba_marseille","lat":43.24168,"lon":5.36385,"is_reserved":false,"is_disabled":false,"rental_uris":{"android":"levelo://app?vid=ad3e51cb-df7c-4ce4-b243-f609a121c657","ios":"levelo://app?vid=ad3e51cb-df7c-4ce4-b243-f609a121c657"},"vehicle_type_id":"4","last_reported":1734423233,"current_range_meters":11600,"station_id":"cpo36qri1sfpv3e86is0","pricing_plan_id":"cebpf4jnsgd1na2vs0mg"},{"bike_id":"a6609935-e32d-4de9-b36e-bba3ddea4f0f","system_id":"levelo_inurba_marseille","lat":43.29073,"lon":5.37173,"is_reserved":false,"is_disabled":false,"rental_uris":{"android":"levelo://app?vid=a6609935-e32d-4de9-b36e-bba3ddea4f0f","ios":"levelo://app?vid=a6609935-e32d-4de9-b36e-bba3ddea4f0f"},"vehicle_type_id":"4","last_reported":1734423233,"current_range_meters":26000,"station_id":"ce4bh5p2rcd13ifvqe4g","pricing_plan_id":"cebpf4jnsgd1na2vs0mg"},{"bike_id":"c941303e-d219-49a6-957d-15e78bbb6539","system_id":"levelo_inurba_marseille","lat":43.30597,"lon":5.39358,"is_reserved":false,"is_disabled":true,"rental_uris":{"android":"levelo://app?vid=c941303e-d219-49a6-957d-15e78bbb6539","ios":"levelo://app?vid=c941303e-d219-49a6-957d-15e78bbb6539"},"vehicle_type_id":"4","last_reported":1734423233,"current_range_meters":28800,"station_id":"ce4bh0p2rcd13ifvqd80","pricing_plan_id":"cebpf4jnsgd1na2vs0mg"},{"bike_id":"b4dbfec7-0626-4095-92d2-6abd7e7eb768","system_id":"levelo_inurba_marseille","lat":43.30316,"lon":5.369,"is_reserved":false,"is_disabled":false,"rental_uris":{"android":"levelo://app?vid=b4dbfec7-0626-4095-92d2-6abd7e7eb768","ios":"levelo://app?vid=b4dbfec7-0626-4095-92d2-6abd7e7eb768"},"vehicle_type_id":"4","last_reported":1734423233,"current_range_meters":28800,"station_id":"ce4bgqh2rcd13ifvqc5g","pricing_plan_id":"cebpf4jnsgd1na2vs0mg"},{"bike_id":"5238a452-8b9f-4926-9e6f-8cdba3b52d76","system_id":"levelo_inurba_marseille","lat":43.23161,"lon":5.43704,"is_reserved":false,"is_disabled":false,"rental_uris":{"android":"levelo://app?vid=5238a452-8b9f-4926-9e6f-8cdba3b52d76","ios":"levelo://app?vid=5238a452-8b9f-4926-9e6f-8cdba3b52d76"},"vehicle_type_id":"4","last_reported":1734423233,"current_range_meters":35600,"station_id":"ce4bhmp2rcd13ifvqgog","pricing_plan_id":"cebpf4jnsgd1na2vs0mg"},{"bike_id":"96d42845-e8a2-434d-91d2-278c95d26621","system_id":"levelo_inurba_marseille","lat":43.29534,"lon":5.37493,"is_reserved":false,"is_disabled":false,"rental_uris":{"android":"levelo://app?vid=96d42845-e8a2-434d-91d2-278c95d26621","ios":"levelo://app?vid=96d42845-e8a2-434d-91d2-278c95d26621"},"vehicle_type_id":"4","last_reported":1734423233,"current_range_meters":37600,"station_id":"ce4bgkp2rcd13ifvqbmg","pricing_plan_id":"cebpf4jnsgd1na2vs0mg"},{"bike_id":"3422ad70-3d08-449f-9cf1-9b6c5964c68b","system_id":"levelo_inurba_marseille","lat":43.33716,"lon":5.39183,"is_reserved":false,"is_disabled":false,"rental_uris":{"android":"levelo://app?vid=3422ad70-3d08-449f-9cf1-9b6c5964c68b","ios":"levelo://app?vid=3422ad70-3d08-449f-9cf1-9b6c5964c68b"},"vehicle_type_id":"4","last_reported":1734423233,"current_range_meters":19200,"station_id":"ce4bhr92rcd13ifvqhsg","pricing_plan_id":"cebpf4jnsgd1na2vs0mg"},{"bike_id":"81391304-b451-4119-80ac-f61ef4862eb2","system_id":"levelo_inurba_marseille","lat":43.337444,"lon":5.374475,"is_reserved":false,"is_disabled":true,"rental_uris":{"android":"levelo://app?vid=81391304-b451-4119-80ac-f61ef4862eb2","ios":"levelo://app?vid=81391304-b451-4119-80ac-f61ef4862eb2"},"vehicle_type_id":"4","last_reported":1734423233,"current_range_meters":0,"station_id":"","pricing_plan_id":"cebpf4jnsgd1na2vs0mg"},{"bike_id":"7f7004a0-a4f6-453f-a2a2-b719b573786c","system_id":"levelo_inurba_marseille","lat":43.29791,"lon":5.38104,"is_reserved":false,"is_disabled":true,"rental_uris":{"android":"levelo://app?vid=7f7004a0-a4f6-453f-a2a2-b719b573786c","ios":"levelo://app?vid=7f7004a0-a4f6-453f-a2a2-b719b573786c"},"vehicle_type_id":"4","last_reported":1734423233,"current_range_meters":9600,"station_id":"ce4bgip2rcd13ifvqbb0","pricing_plan_id":"cebpf4jnsgd1na2vs0mg"},{"bike_id":"66343f16-c96a-493e-b903-7c265d82cce1","system_id":"levelo_inurba_marseille","lat":43.32469,"lon":5.36528,"is_reserved":false,"is_disabled":false,"rental_uris":{"android":"levelo://app?vid=66343f16-c96a-493e-b903-7c265d82cce1","ios":"levelo://app?vid=66343f16-c96a-493e-b903-7c265d82cce1"},"vehicle_type_id":"4","last_reported":1734423233,"current_range_meters":27200,"station_id":"ce4bhs12rcd13ifvqhvg","pricing_plan_id":"cebpf4jnsgd1na2vs0mg"},{"bike_id":"15f71a9f-864d-48de-9d20-f621cbff105e","system_id":"levelo_inurba_marseille","lat":43.26809,"lon":5.4026,"is_reserved":false,"is_disabled":false,"rental_uris":{"android":"levelo://app?vid=15f71a9f-864d-48de-9d20-f621cbff105e","ios":"levelo://app?vid=15f71a9f-864d-48de-9d20-f621cbff105e"},"vehicle_type_id":"4","last_reported":1734423233,"current_range_meters":38400,"station_id":"ce501612rcd8frsf0b60","pricing_plan_id":"cebpf4jnsgd1na2vs0mg"},{"bike_id":"3f540f59-f128-41e6-a549-799b8ad1f3b1","system_id":"levelo_inurba_marseille","lat":43.31084,"lon":5.42425,"is_reserved":false,"is_disabled":false,"rental_uris":{"android":"levelo://app?vid=3f540f59-f128-41e6-a549-799b8ad1f3b1","ios":"levelo://app?vid=3f540f59-f128-41e6-a549-799b8ad1f3b1"},"vehicle_type_id":"4","last_reported":1734423233,"current_range_meters":27200,"station_id":"ce4bhp92rcd13ifvqhag","pricing_plan_id":"cebpf4jnsgd1na2vs0mg"},{"bike_id":"8a02a869-baaa-4cb3-acbe-c222d7f08297","system_id":"levelo_inurba_marseille","lat":43.2678,"lon":5.39414,"is_reserved":false,"is_disabled":false,"rental_uris":{"android":"levelo://app?vid=8a02a869-baaa-4cb3-acbe-c222d7f08297","ios":"levelo://app?vid=8a02a869-baaa-4cb3-acbe-c222d7f08297"},"vehicle_type_id":"4","last_reported":1734423233,"current_range_meters":20800,"station_id":"ce4bhh12rcd13ifvqfg0","pricing_plan_id":"cebpf4jnsgd1na2vs0mg"},{"bike_id":"a61fc3ac-0dad-4c88-af51-0b126799d633","system_id":"levelo_inurba_marseille","lat":43.25942,"lon":5.40893,"is_reserved":false,"is_disabled":true,"rental_uris":{"android":"levelo://app?vid=a61fc3ac-0dad-4c88-af51-0b126799d633","ios":"levelo://app?vid=a61fc3ac-0dad-4c88-af51-0b126799d633"},"vehicle_type_id":"4","last_reported":1734423233,"current_range_meters":29600,"station_id":"ce4bhm92rcd13ifvqglg","pricing_plan_id":"cebpf4jnsgd1na2vs0mg"},{"bike_id":"4e92d2ac-4a30-4a17-847e-3d7dfee78f2f","system_id":"levelo_inurba_marseille","lat":43.29872,"lon":5.39724,"is_reserved":false,"is_disabled":false,"rental_uris":{"android":"levelo://app?vid=4e92d2ac-4a30-4a17-847e-3d7dfee78f2f","ios":"levelo://app?vid=4e92d2ac-4a30-4a17-847e-3d7dfee78f2f"},"vehicle_type_id":"4","last_reported":1734423233,"current_range_meters":26000,"station_id":"ce4bh0h2rcd13ifvqd50","pricing_plan_id":"cebpf4jnsgd1na2vs0mg"},{"bike_id":"29f246a6-bf44-455d-b9d7-de191a6777e4","system_id":"levelo_inurba_marseille","lat":43.2922,"lon":5.36036,"is_reserved":false,"is_disabled":true,"rental_uris":{"android":"levelo://app?vid=29f246a6-bf44-455d-b9d7-de191a6777e4","ios":"levelo://app?vid=29f246a6-bf44-455d-b9d7-de191a6777e4"},"vehicle_type_id":"4","last_reported":1734423233,"current_range_meters":0,"station_id":"ce4bhbh2rcd13ifvqeqg","pricing_plan_id":"cebpf4jnsgd1na2vs0mg"},{"bike_id":"dd1c961e-8d02-4403-8bcf-b7176fd11221","system_id":"levelo_inurba_marseille","lat":43.26684,"lon":5.38274,"is_reserved":false,"is_disabled":false,"rental_uris":{"android":"levelo://app?vid=dd1c961e-8d02-4403-8bcf-b7176fd11221","ios":"levelo://app?vid=dd1c961e-8d02-4403-8bcf-b7176fd11221"},"vehicle_type_id":"4","last_reported":1734423233,"current_range_meters":18000,"station_id":"ce4bhg92rcd13ifvqf90","pricing_plan_id":"cebpf4jnsgd1na2vs0mg"},{"bike_id":"168e6fe2-8b83-4d3a-8b1c-4b08586bfd0e","system_id":"levelo_inurba_marseille","lat":43.26957,"lon":5.38627,"is_reserved":false,"is_disabled":false,"rental_uris":{"android":"levelo://app?vid=168e6fe2-8b83-4d3a-8b1c-4b08586bfd0e","ios":"levelo://app?vid=168e6fe2-8b83-4d3a-8b1c-4b08586bfd0e"},"vehicle_type_id":"4","last_reported":1734423233,"current_range_meters":24400,"station_id":"ce4bhh92rcd13ifvqfh0","pricing_plan_id":"cebpf4jnsgd1na2vs0mg"},{"bike_id":"04fa4d3c-1095-44c1-a3c9-59a4ee2ce33c","system_id":"levelo_inurba_marseille","lat":43.29548,"lon":5.42272,"is_reserved":false,"is_disabled":false,"rental_uris":{"android":"levelo://app?vid=04fa4d3c-1095-44c1-a3c9-59a4ee2ce33c","ios":"levelo://app?vid=04fa4d3c-1095-44c1-a3c9-59a4ee2ce33c"},"vehicle_type_id":"4","last_reported":1734423233,"current_range_meters":38800,"station_id":"ce4bhph2rcd13ifvqhdg","pricing_plan_id":"cebpf4jnsgd1na2vs0mg"},{"bike_id":"357e9fd1-442a-4d16-8ebb-e3c6b4000be1","system_id":"levelo_inurba_marseille","lat":43.26949,"lon":5.3863,"is_reserved":false,"is_disabled":true,"rental_uris":{"android":"levelo://app?vid=357e9fd1-442a-4d16-8ebb-e3c6b4000be1","ios":"levelo://app?vid=357e9fd1-442a-4d16-8ebb-e3c6b4000be1"},"vehicle_type_id":"4","last_reported":1734423233,"current_range_meters":0,"station_id":"ce4bhh92rcd13ifvqfh0","pricing_plan_id":"cebpf4jnsgd1na2vs0mg"},{"bike_id":"477d2549-b022-4827-9d7e-c01d93ff35ae","system_id":"levelo_inurba_marseille","lat":43.278151,"lon":5.407153,"is_reserved":false,"is_disabled":false,"rental_uris":{"android":"levelo://app?vid=477d2549-b022-4827-9d7e-c01d93ff35ae","ios":"levelo://app?vid=477d2549-b022-4827-9d7e-c01d93ff35ae"},"vehicle_type_id":"4","last_reported":1734423233,"current_range_meters":20800,"station_id":"ce4bhnh2rcd13ifvqgtg","pricing_plan_id":"cebpf4jnsgd1na2vs0mg"},{"bike_id":"3f27d279-1803-4c81-af7b-bbf551f71008","system_id":"levelo_inurba_marseille","lat":43.26676,"lon":5.38263,"is_reserved":false,"is_disabled":false,"rental_uris":{"android":"levelo://app?vid=3f27d279-1803-4c81-af7b-bbf551f71008","ios":"levelo://app?vid=3f27d279-1803-4c81-af7b-bbf551f71008"},"vehicle_type_id":"4","last_reported":1734423233,"current_range_meters":38800,"station_id":"ce4bhg92rcd13ifvqf90","pricing_plan_id":"cebpf4jnsgd1na2vs0mg"},{"bike_id":"25ac64b0-d8cf-4fde-91a2-a4a0f2c9f2a7","system_id":"levelo_inurba_marseille","lat":43.262,"lon":5.37929,"is_reserved":false,"is_disabled":false,"rental_uris":{"android":"levelo://app?vid=25ac64b0-d8cf-4fde-91a2-a4a0f2c9f2a7","ios":"levelo://app?vid=25ac64b0-d8cf-4fde-91a2-a4a0f2c9f2a7"},"vehicle_type_id":"4","last_reported":1734423233,"current_range_meters":20000,"station_id":"ce4bhjp2rcd13ifvqg90","pricing_plan_id":"cebpf4jnsgd1na2vs0mg"},{"bike_id":"355d3cec-1f2a-4cc5-b8ad-18644ad340da","system_id":"levelo_inurba_marseille","lat":43.30259,"lon":5.40079,"is_reserved":false,"is_disabled":true,"rental_uris":{"android":"levelo://app?vid=355d3cec-1f2a-4cc5-b8ad-18644ad340da","ios":"levelo://app?vid=355d3cec-1f2a-4cc5-b8ad-18644ad340da"},"vehicle_type_id":"4","last_reported":1734423233,"current_range_meters":38800,"station_id":"ce4bgvh2rcd13ifvqcs0","pricing_plan_id":"cebpf4jnsgd1na2vs0mg"},{"bike_id":"7af2ef9a-eb71-4148-a748-b140dab6df51","system_id":"levelo_inurba_marseille","lat":43.26561,"lon":5.39032,"is_reserved":false,"is_disabled":false,"rental_uris":{"android":"levelo://app?vid=7af2ef9a-eb71-4148-a748-b140dab6df51","ios":"levelo://app?vid=7af2ef9a-eb71-4148-a748-b140dab6df51"},"vehicle_type_id":"4","last_reported":1734423233,"current_range_meters":38000,"station_id":"ce4bhe12rcd13ifvqf30","pricing_plan_id":"cebpf4jnsgd1na2vs0mg"},{"bike_id":"26579991-0e4b-445a-93aa-31ab44d1afae","system_id":"levelo_inurba_marseille","lat":43.33634,"lon":5.41007,"is_reserved":false,"is_disabled":true,"rental_uris":{"android":"levelo://app?vid=26579991-0e4b-445a-93aa-31ab44d1afae","ios":"levelo://app?vid=26579991-0e4b-445a-93aa-31ab44d1afae"},"vehicle_type_id":"4","last_reported":1734423233,"current_range_meters":36000,"station_id":"ce4bhqh2rcd13ifvqhmg","pricing_plan_id":"cebpf4jnsgd1na2vs0mg"},{"bike_id":"1c625ce6-6d73-4f27-9bd6-c25955847929","system_id":"levelo_inurba_marseille","lat":43.27802,"lon":5.407,"is_reserved":false,"is_disabled":true,"rental_uris":{"android":"levelo://app?vid=1c625ce6-6d73-4f27-9bd6-c25955847929","ios":"levelo://app?vid=1c625ce6-6d73-4f27-9bd6-c25955847929"},"vehicle_type_id":"4","last_reported":1734423233,"current_range_meters":31200,"station_id":"ce4bhnh2rcd13ifvqgtg","pricing_plan_id":"cebpf4jnsgd1na2vs0mg"},{"bike_id":"384e07d1-d26f-4b4f-8369-45451436077b","system_id":"levelo_inurba_marseille","lat":43.29092,"lon":5.38161,"is_reserved":false,"is_disabled":false,"rental_uris":{"android":"levelo://app?vid=384e07d1-d26f-4b4f-8369-45451436077b","ios":"levelo://app?vid=384e07d1-d26f-4b4f-8369-45451436077b"},"vehicle_type_id":"4","last_reported":1734423233,"current_range_meters":30000,"station_id":"ce4bh512rcd13ifvqe2g","pricing_plan_id":"cebpf4jnsgd1na2vs0mg"},{"bike_id":"9e459aeb-5a88-4ad3-aaa8-a80e1a5939a9","system_id":"levelo_inurba_marseille","lat":43.30471,"lon":5.37912,"is_reserved":false,"is_disabled":false,"rental_uris":{"android":"levelo://app?vid=9e459aeb-5a88-4ad3-aaa8-a80e1a5939a9","ios":"levelo://app?vid=9e459aeb-5a88-4ad3-aaa8-a80e1a5939a9"},"vehicle_type_id":"4","last_reported":1734423233,"current_range_meters":34000,"station_id":"ce4bgup2rcd13ifvqcn0","pricing_plan_id":"cebpf4jnsgd1na2vs0mg"},{"bike_id":"dee21283-4521-4c1a-b53d-9510ded6ec60","system_id":"levelo_inurba_marseille","lat":43.23968,"lon":5.36635,"is_reserved":false,"is_disabled":false,"rental_uris":{"android":"levelo://app?vid=dee21283-4521-4c1a-b53d-9510ded6ec60","ios":"levelo://app?vid=dee21283-4521-4c1a-b53d-9510ded6ec60"},"vehicle_type_id":"4","last_reported":1734423233,"current_range_meters":38800,"station_id":"ce4bhi12rcd13ifvqfp0","pricing_plan_id":"cebpf4jnsgd1na2vs0mg"},{"bike_id":"c7e9f94c-1092-48bf-a2dd-89292dc7038b","system_id":"levelo_inurba_marseille","lat":43.27498,"lon":5.42446,"is_reserved":false,"is_disabled":false,"rental_uris":{"android":"levelo://app?vid=c7e9f94c-1092-48bf-a2dd-89292dc7038b","ios":"levelo://app?vid=c7e9f94c-1092-48bf-a2dd-89292dc7038b"},"vehicle_type_id":"4","last_reported":1734423233,"current_range_meters":26800,"station_id":"ce4bhn92rcd13ifvqgrg","pricing_plan_id":"cebpf4jnsgd1na2vs0mg"},{"bike_id":"c7206e72-636f-40a1-9852-db3acc8cb171","system_id":"levelo_inurba_marseille","lat":43.32538,"lon":5.41425,"is_reserved":false,"is_disabled":false,"rental_uris":{"android":"levelo://app?vid=c7206e72-636f-40a1-9852-db3acc8cb171","ios":"levelo://app?vid=c7206e72-636f-40a1-9852-db3acc8cb171"},"vehicle_type_id":"4","last_reported":1734423233,"current_range_meters":16400,"station_id":"ce4bhq12rcd13ifvqhhg","pricing_plan_id":"cebpf4jnsgd1na2vs0mg"},{"bike_id":"1ae6207e-3766-4bd7-b27c-f863d078e7ac","system_id":"levelo_inurba_marseille","lat":43.27493,"lon":5.42448,"is_reserved":false,"is_disabled":false,"rental_uris":{"android":"levelo://app?vid=1ae6207e-3766-4bd7-b27c-f863d078e7ac","ios":"levelo://app?vid=1ae6207e-3766-4bd7-b27c-f863d078e7ac"},"vehicle_type_id":"4","last_reported":1734423233,"current_range_meters":26800,"station_id":"ce4bhn92rcd13ifvqgrg","pricing_plan_id":"cebpf4jnsgd1na2vs0mg"},{"bike_id":"33ff8604-91f8-4a1d-a187-6688d2b8e783","system_id":"levelo_inurba_marseille","lat":43.29974,"lon":5.37175,"is_reserved":false,"is_disabled":false,"rental_uris":{"android":"levelo://app?vid=33ff8604-91f8-4a1d-a187-6688d2b8e783","ios":"levelo://app?vid=33ff8604-91f8-4a1d-a187-6688d2b8e783"},"vehicle_type_id":"4","last_reported":1734423233,"current_range_meters":12000,"station_id":"ce4bgr92rcd13ifvqc7g","pricing_plan_id":"cebpf4jnsgd1na2vs0mg"},{"bike_id":"a0ccc59a-1ea6-4444-942c-6329956d6f86","system_id":"levelo_inurba_marseille","lat":43.27492,"lon":5.42453,"is_reserved":false,"is_disabled":false,"rental_uris":{"android":"levelo://app?vid=a0ccc59a-1ea6-4444-942c-6329956d6f86","ios":"levelo://app?vid=a0ccc59a-1ea6-4444-942c-6329956d6f86"},"vehicle_type_id":"4","last_reported":1734423233,"current_range_meters":36000,"station_id":"ce4bhn92rcd13ifvqgrg","pricing_plan_id":"cebpf4jnsgd1na2vs0mg"},{"bike_id":"db5af532-5a9c-479f-a3ab-184ca5feaf5e","system_id":"levelo_inurba_marseille","lat":43.30948,"lon":5.39029,"is_reserved":false,"is_disabled":false,"rental_uris":{"android":"levelo://app?vid=db5af532-5a9c-479f-a3ab-184ca5feaf5e","ios":"levelo://app?vid=db5af532-5a9c-479f-a3ab-184ca5feaf5e"},"vehicle_type_id":"4","last_reported":1734423233,"current_range_meters":21600,"station_id":"ce4bgup2rcd13ifvqco0","pricing_plan_id":"cebpf4jnsgd1na2vs0mg"},{"bike_id":"29cbfce0-213b-4827-9939-2f7c4e6725d8","system_id":"levelo_inurba_marseille","lat":43.31728,"lon":5.42406,"is_reserved":false,"is_disabled":false,"rental_uris":{"android":"levelo://app?vid=29cbfce0-213b-4827-9939-2f7c4e6725d8","ios":"levelo://app?vid=29cbfce0-213b-4827-9939-2f7c4e6725d8"},"vehicle_type_id":"4","last_reported":1734423233,"current_range_meters":38400,"station_id":"ce4bhp92rcd13ifvqhbg","pricing_plan_id":"cebpf4jnsgd1na2vs0mg"},{"bike_id":"bb58af26-33d4-40df-9cde-d5ec772eaa4f","system_id":"levelo_inurba_marseille","lat":43.30159,"lon":5.38102,"is_reserved":false,"is_disabled":false,"rental_uris":{"android":"levelo://app?vid=bb58af26-33d4-40df-9cde-d5ec772eaa4f","ios":"levelo://app?vid=bb58af26-33d4-40df-9cde-d5ec772eaa4f"},