{"last_updated":1715465159,"ttl":30,"version":"2.2","data":{"bikes":[{"bike_id":"37173049-93a5-486a-b3d2-6425b934bdad","system_id":"levelo_inurba_marseille","lat":43.31248,"lon":5.36845,"is_reserved":false,"is_disabled":false,"rental_uris":{"android":"levelo://app?vid=37173049-93a5-486a-b3d2-6425b934bdad","ios":"levelo://app?vid=37173049-93a5-486a-b3d2-6425b934bdad"},"vehicle_type_id":"4","last_reported":1715465160,"current_range_meters":4800,"station_id":"ce4bgl92rcd13ifvqbq0","pricing_plan_id":"cebpf4jnsgd1na2vs0mg"},{"bike_id":"0c6a400a-1536-4957-8776-585a8aa7742f","system_id":"levelo_inurba_marseille","lat":43.312239,"lon":5.368562,"is_reserved":false,"is_disabled":false,"rental_uris":{"android":"levelo://app?vid=0c6a400a-1536-4957-8776-585a8aa7742f","ios":"levelo://app?vid=0c6a400a-1536-4957-8776-585a8aa7742f"},"vehicle_type_id":"4","last_reported":1715465160,"current_range_meters":2400,"station_id":"ce4bgl92rcd13ifvqbq0","pricing_plan_id":"cebpf4jnsgd1na2vs0mg"},{"bike_id":"797d066d-e843-4120-af98-be5455e2e437","system_id":"levelo_inurba_marseille","lat":43.312239,"lon":5.368562,"is_reserved":false,"is_disabled":false,"rental_uris":{"android":"levelo://app?vid=797d066d-e843-4120-af98-be5455e2e437","ios":"levelo://app?vid=797d066d-e843-4120-af98-be5455e2e437"},"vehicle_type_id":"4","last_reported":1715465160,"current_range_meters":26400,"station_id":"ce4bgl92rcd13ifvqbq0","pricing_plan_id":"cebpf4jnsgd1na2vs0mg"},{"bike_id":"1e41a50c-5ea5-4d6d-af8a-88248a15d18b","system_id":"levelo_inurba_marseille","lat":43.309076,"lon":5.368465,"is_reserved":false,"is_disabled":false,"rental_uris":{"android":"levelo://app?vid=1e41a50c-5ea5-4d6d-af8a-88248a15d18b","ios":"levelo://app?vid=1e41a50c-5ea5-4d6d-af8a-88248a15d18b"},"vehicle_type_id":"4","last_reported":1715465160,"current_range_meters":25600,"station_id":"ce4bgn92rcd13ifvqbvg","pricing_plan_id":"cebpf4jnsgd1na2vs0mg"},{"bike_id":"75ae3393-a7f1-421c-a2e5-958f2d4d7f26","system_id":"levelo_inurba_marseille","lat":43.309076,"lon":5.368465,"is_reserved":false,"is_disabled":false,"rental_uris":{"android":"levelo://app?vid=75ae3393-a7f1-421c-a2e5-958f2d4d7f26","ios":"levelo://app?vid=75ae3393-a7f1-421c-a2e5-958f2d4d7f26"},"vehicle_type_id":"4","last_reported":1715465160,"current_range_meters":4000,"station_id":"ce4bgn92rcd13ifvqbvg","pricing_plan_id":"cebpf4jnsgd1na2vs0mg"},{"bike_id":"a48e7fcd-d733-403b-8003-e8da2d68833f","system_id":"levelo_inurba_marseille","lat":43.314811,"lon":5.373103,"is_reserved":false,"is_disabled":false,"rental_uris":{"android":"levelo://app?vid=a48e7fcd-d733-403b-8003-e8da2d68833f","ios":"levelo://app?vid=a48e7fcd-d733-403b-8003-e8da2d68833f"},"vehicle_type_id":"4","last_reported":1715465160,"current_range_meters":0,"station_id":"ce4bgt12rcd13ifvqcd0","pricing_plan_id":"cebpf4jnsgd1na2vs0mg"},{"bike_id":"f810f5a0-f783-44fc-b524-774d35ca36aa","system_id":"levelo_inurba_marseille","lat":43.314811,"lon":5.373103,"is_reserved":false,"is_disabled":false,"rental_uris":{"android":"levelo://app?vid=f810f5a0-f783-44fc-b524-774d35ca36aa","ios":"levelo://app?vid=f810f5a0-f783-44fc-b524-774d35ca36aa"},"vehicle_type_id":"4","last_reported":1715465160,"current_range_meters":0,"station_id":"ce4bgt12rcd13ifvqcd0","pricing_plan_id":"cebpf4jnsgd1na2vs0mg"},{"bike_id":"44351873-e415-4b5d-a2e7-c98f5a7f50e4","system_id":"levelo_inurba_marseille","lat":43.314811,"lon":5.373103,"is_reserved":false,"is_disabled":false,"rental_uris":{"android":"levelo://app?vid=44351873-e415-4b5d-a2e7-c98f5a7f50e4","ios":"levelo://app?vid=44351873-e415-4b5d-a2e7-c98f5a7f50e4"},"vehicle_type_id":"4","last_reported":1715465160,"current_range_meters":7200,"station_id":"ce4bgt12rcd13ifvqcd0","pricing_plan_id":"cebpf4jnsgd1na2vs0mg"},{"bike_id":"5561dd20-64d9-4e25-98f7-df24ba5c3cd6","system_id":"levelo_inurba_marseille","lat":43.314811,"lon":5.373103,"is_reserved":false,"is_disabled":false,"rental_uris":{"android":"levelo://app?vid=5561dd20-64d9-4e25-98f7-df24ba5c3cd6","ios":"levelo://app?vid=5561dd20-64d9-4e25-98f7-df24ba5c3cd6"},"vehicle_type_id":"4","last_reported":1715465160,"current_range_meters":2400,"station_id":"ce4bgt12rcd13ifvqcd0","pricing_plan_id":"cebpf4jnsgd1na2vs0mg"},{"bike_id":"58239540-9d6e-4fde-a549-30603d995777","system_id":"levelo_inurba_marseille","lat":43.314811,"lon":5.373104,"is_reserved":false,"is_disabled":false,"rental_uris":{"android":"levelo://app?vid=58239540-9d6e-4fde-a549-30603d995777","ios":"levelo://app?vid=58239540-9d6e-4fde-a549-30603d995777"},"vehicle_type_id":"4","last_reported":1715465160,"current_range_meters":3200,"station_id":"ce4bgt12rcd13ifvqcd0","pricing_plan_id":"cebpf4jnsgd1na2vs0mg"},{"bike_id":"0ad8755b-b8d6-4caf-b0d2-205eceda3633","system_id":"levelo_inurba_marseille","lat":43.314811,"lon":5.373104,"is_reserved":false,"is_disabled":false,"rental_uris":{"android":"levelo://app?vid=0ad8755b-b8d6-4caf-b0d2-205eceda3633","ios":"levelo://app?vid=0ad8755b-b8d6-4caf-b0d2-205eceda3633"},"vehicle_type_id":"4","last_reported":1715465160,"current_range_meters":12400,"station_id":"ce4bgt12rcd13ifvqcd0","pricing_plan_id":"cebpf4jnsgd1na2vs0mg"},{"bike_id":"800a26d9-93f9-4b56-afba-1b3ff51ba908","system_id":"levelo_inurba_marseille","lat":43.314811,"lon":5.373104,"is_reserved":false,"is_disabled":false,"rental_uris":{"android":"levelo://app?vid=800a26d9-93f9-4b56-afba-1b3ff51ba908","ios":"levelo://app?vid=800a26d9-93f9-4b56-afba-1b3ff51ba908"},"vehicle_type_id":"4","last_reported":1715465160,"current_range_meters":0,"station_id":"ce4bgt12rcd13ifvqcd0","pricing_plan_id":"cebpf4jnsgd1na2vs0mg"},{"bike_id":"a7e70623-490b-419c-ac75-6336f5d5a1cc","system_id":"levelo_inurba_marseille","lat":43.292569,"lon":5.409107,"is_reserved":false,"is_disabled":false,"rental_uris":{"android":"levelo://app?vid=a7e70623-490b-419c-ac75-6336f5d5a1cc","ios":"levelo://app?vid=a7e70623-490b-419c-ac75-6336f5d5a1cc"},"vehicle_type_id":"4","last_reported":1715465160,"current_range_meters":6800,"station_id":"ce4bh192rcd13ifvqdc0","pricing_plan_id":"cebpf4jnsgd1na2vs0mg"},{"bike_id":"61284d99-4d45-48a5-8ec9-ffd45de27888","system_id":"levelo_inurba_marseille","lat":43.309039,"lon":5.371797,"is_reserved":false,"is_disabled":false,"rental_uris":{"android":"levelo://app?vid=61284d99-4d45-48a5-8ec9-ffd45de27888","ios":"levelo://app?vid=61284d99-4d45-48a5-8ec9-ffd45de27888"},"vehicle_type_id":"4","last_reported":1715465160,"current_range_meters":8800,"station_id":"ce4bguh2rcd13ifvqckg","pricing_plan_id":"cebpf4jnsgd1na2vs0mg"},{"bike_id":"6f969598-bb3d-450e-ad15-877552d055e0","system_id":"levelo_inurba_marseille","lat":43.309039,"lon":5.371797,"is_reserved":false,"is_disabled":false,"rental_uris":{"android":"levelo://app?vid=6f969598-bb3d-450e-ad15-877552d055e0","ios":"levelo://app?vid=6f969598-bb3d-450e-ad15-877552d055e0"},"vehicle_type_id":"4","last_reported":1715465160,"current_range_meters":9200,"station_id":"ce4bguh2rcd13ifvqckg","pricing_plan_id":"cebpf4jnsgd1na2vs0mg"},{"bike_id":"dd62bde6-6d10-4ce5-a382-398ff291eceb","system_id":"levelo_inurba_marseille","lat":43.309039,"lon":5.371797,"is_reserved":false,"is_disabled":false,"rental_uris":{"android":"levelo://app?vid=dd62bde6-6d10-4ce5-a382-398ff291eceb","ios":"levelo://app?vid=dd62bde6-6d10-4ce5-a382-398ff291eceb"},"vehicle_type_id":"4","last_reported":1715465160,"current_range_meters":3600,"station_id":"ce4bguh2rcd13ifvqckg","pricing_plan_id":"cebpf4jnsgd1na2vs0mg"},{"bike_id":"0957e933-1b51-46a7-8089-090eb8de71ba","system_id":"levelo_inurba_marseille","lat":43.308852,"lon":5.371903,"is_reserved":false,"is_disabled":false,"rental_uris":{"android":"levelo://app?vid=0957e933-1b51-46a7-8089-090eb8de71ba","ios":"levelo://app?vid=0957e933-1b51-46a7-8089-090eb8de71ba"},"vehicle_type_id":"4","last_reported":1715465160,"current_range_meters":0,"station_id":"ce4bguh2rcd13ifvqckg","pricing_plan_id":"cebpf4jnsgd1na2vs0mg"},{"bike_id":"146395f5-a492-4b72-bb64-df09128b2747","system_id":"levelo_inurba_marseille","lat":43.305989,"lon":5.37225,"is_reserved":false,"is_disabled":false,"rental_uris":{"android":"levelo://app?vid=146395f5-a492-4b72-bb64-df09128b2747","ios":"levelo://app?vid=146395f5-a492-4b72-bb64-df09128b2747"},"vehicle_type_id":"4","last_reported":1715465160,"current_range_meters":12000,"station_id":"ce4bgqh2rcd13ifvqc4g","pricing_plan_id":"cebpf4jnsgd1na2vs0mg"},{"bike_id":"fb5808e5-e022-4350-bb01-d63c608c75ed","system_id":"levelo_inurba_marseille","lat":43.311131,"lon":5.377651,"is_reserved":false,"is_disabled":false,"rental_uris":{"android":"levelo://app?vid=fb5808e5-e022-4350-bb01-d63c608c75ed","ios":"levelo://app?vid=fb5808e5-e022-4350-bb01-d63c608c75ed"},"vehicle_type_id":"4","last_reported":1715465160,"current_range_meters":7600,"station_id":"ce4bgt92rcd13ifvqcg0","pricing_plan_id":"cebpf4jnsgd1na2vs0mg"},{"bike_id":"c317af9c-df59-4a3f-9ef8-114edae49360","system_id":"levelo_inurba_marseille","lat":43.311131,"lon":5.377651,"is_reserved":false,"is_disabled":false,"rental_uris":{"android":"levelo://app?vid=c317af9c-df59-4a3f-9ef8-114edae49360","ios":"levelo://app?vid=c317af9c-df59-4a3f-9ef8-114edae49360"},"vehicle_type_id":"4","last_reported":1715465160,"current_range_meters":26400,"station_id":"ce4bgt92rcd13ifvqcg0","pricing_plan_id":"cebpf4jnsgd1na2vs0mg"},{"bike_id":"a8d7d92e-a121-4505-95a7-3c0d330425e8","system_id":"levelo_inurba_marseille","lat":43.311131,"lon":5.377651,"is_reserved":false,"is_disabled":false,"rental_uris":{"android":"levelo://app?vid=a8d7d92e-a121-4505-95a7-3c0d330425e8","ios":"levelo://app?vid=a8d7d92e-a121-4505-95a7-3c0d330425e8"},"vehicle_type_id":"4","last_reported":1715465160,"current_range_meters":22000,"station_id":"ce4bgt92rcd13ifvqcg0","pricing_plan_id":"cebpf4jnsgd1na2vs0mg"},{"bike_id":"d080e089-308f-4331-8522-fd542409311a","system_id":"levelo_inurba_marseille","lat":43.311131,"lon":5.377651,"is_reserved":false,"is_disabled":false,"rental_uris":{"android":"levelo://app?vid=d080e089-308f-4331-8522-fd542409311a","ios":"levelo://app?vid=d080e089-308f-4331-8522-fd542409311a"},"vehicle_type_id":"4","last_reported":1715465160,"current_range_meters":30000,"station_id":"ce4bgt92rcd13ifvqcg0","pricing_plan_id":"cebpf4jnsgd1na2vs0mg"},{"bike_id":"425e9729-26b4-4634-9a15-836e01acf79f","system_id":"levelo_inurba_marseille","lat":43.311131,"lon":5.377651,"is_reserved":false,"is_disabled":false,"rental_uris":{"android":"levelo://app?vid=425e9729-26b4-4634-9a15-836e01acf79f","ios":"levelo://app?vid=425e9729-26b4-4634-9a15-836e01acf79f"},"vehicle_type_id":"4","last_reported":1715465160,"current_range_meters":27200,"station_id":"ce4bgt92rcd13ifvqcg0","pricing_plan_id":"cebpf4jnsgd1na2vs0mg"},{"bike_id":"6a48b64b-b605-4eb9-bb9c-e30ab168d7a6","system_id":"levelo_inurba_marseille","lat":43.311125,"lon":5.377624,"is_reserved":false,"is_disabled":false,"rental_uris":{"android":"levelo://app?vid=6a48b64b-b605-4eb9-bb9c-e30ab168d7a6","ios":"levelo://app?vid=6a48b64b-b605-4eb9-bb9c-e30ab168d7a6"},"vehicle_type_id":"4","last_reported":1715465160,"current_range_meters":24800,"station_id":"ce4bgt92rcd13ifvqcg0","pricing_plan_id":"cebpf4jnsgd1na2vs0mg"},{"bike_id":"57cdd391-6219-4e7a-8995-c368b7a8c90f","system_id":"levelo_inurba_marseille","lat":43.311125,"lon":5.377624,"is_reserved":false,"is_disabled":false,"rental_uris":{"android":"levelo://app?vid=57cdd391-6219-4e7a-8995-c368b7a8c90f","ios":"levelo://app?vid=57cdd391-6219-4e7a-8995-c368b7a8c90f"},"vehicle_type_id":"4","last_reported":1715465160,"current_range_meters":16000,"station_id":"ce4bgt92rcd13ifvqcg0","pricing_plan_id":"cebpf4jnsgd1na2vs0mg"},{"bike_id":"4c9a5573-21a0-431d-8e1b-df63ac6306c8","system_id":"levelo_inurba_marseille","lat":43.311131,"lon":5.377651,"is_reserved":false,"is_disabled":false,"rental_uris":{"android":"levelo://app?vid=4c9a5573-21a0-431d-8e1b-df63ac6306c8","ios":"levelo://app?vid=4c9a5573-21a0-431d-8e1b-df63ac6306c8"},"vehicle_type_id":"4","last_reported":1715465160,"current_range_meters":15200,"station_id":"ce4bgt92rcd13ifvqcg0","pricing_plan_id":"cebpf4jnsgd1na2vs0mg"},{"bike_id":"8c25579f-f663-4f4d-9762-bbb9c1788c12","system_id":"levelo_inurba_marseille","lat":43.311125,"lon":5.377624,"is_reserved":false,"is_disabled":false,"rental_uris":{"android":"levelo://app?vid=8c25579f-f663-4f4d-9762-bbb9c1788c12","ios":"levelo://app?vid=8c25579f-f663-4f4d-9762-bbb9c1788c12"},"vehicle_type_id":"4","last_reported":1715465160,"current_range_meters":14400,"station_id":"ce4bgt92rcd13ifvqcg0","pricing_plan_id":"cebpf4jnsgd1na2vs0mg"},{"bike_id":"7028835a-ae64-4d33-a20b-5465db284918","system_id":"levelo_inurba_marseille","lat":43.307945,"lon":5.376487,"is_reserved":false,"is_disabled":false,"rental_uris":{"android":"levelo://app?vid=7028835a-ae64-4d33-a20b-5465db284918","ios":"levelo://app?vid=7028835a-ae64-4d33-a20b-5465db284918"},"vehicle_type_id":"4","last_reported":1715465160,"current_range_meters":25200,"station_id":"ce4bgv92rcd13ifvqcq0","pricing_plan_id":"cebpf4jnsgd1na2vs0mg"},{"bike_id":"2e766caf-c75e-4dfa-80ad-bb7ac8dc6af7","system_id":"levelo_inurba_marseille","lat":43.307945,"lon":5.376487,"is_reserved":false,"is_disabled":false,"rental_uris":{"android":"levelo://app?vid=2e766caf-c75e-4dfa-80ad-bb7ac8dc6af7","ios":"levelo://app?vid=2e766caf-c75e-4dfa-80ad-bb7ac8dc6af7"},"vehicle_type_id":"4","last_reported":1715465160,"current_range_meters":800,"station_id":"ce4bgv92rcd13ifvqcq0","pricing_plan_id":"cebpf4jnsgd1na2vs0mg"},{"bike_id":"6290b255-28dd-407f-be8c-86ab54d7656b","system_id":"levelo_inurba_marseille","lat":43.307945,"lon":5.376487,"is_reserved":false,"is_disabled":false,"rental_uris":{"android":"levelo://app?vid=6290b255-28dd-407f-be8c-86ab54d7656b","ios":"levelo://app?vid=6290b255-28dd-407f-be8c-86ab54d7656b"},"vehicle_type_id":"4","last_reported":1715465160,"current_range_meters":16400,"station_id":"ce4bgv92rcd13ifvqcq0","pricing_plan_id":"cebpf4jnsgd1na2vs0mg"},{"bike_id":"a8420d12-5ea1-4553-ba77-74153419b9a1","system_id":"levelo_inurba_marseille","lat":43.307945,"lon":5.376487,"is_reserved":false,"is_disabled":false,"rental_uris":{"android":"levelo://app?vid=a8420d12-5ea1-4553-ba77-74153419b9a1","ios":"levelo://app?vid=a8420d12-5ea1-4553-ba77-74153419b9a1"},"vehicle_type_id":"4","last_reported":1715465160,"current_range_meters":31200,"station_id":"ce4bgv92rcd13ifvqcq0","pricing_plan_id":"cebpf4jnsgd1na2vs0mg"},{"bike_id":"38227d49-b2f9-4e1e-adcd-b8939f7ea0a4","system_id":"levelo_inurba_marseille","lat":43.307945,"lon":5.376487,"is_reserved":false,"is_disabled":false,"rental_uris":{"android":"levelo://app?vid=38227d49-b2f9-4e1e-adcd-b8939f7ea0a4","ios":"levelo://app?vid=38227d49-b2f9-4e1e-adcd-b8939f7ea0a4"},"vehicle_type_id":"4","last_reported":1715465160,"current_range_meters":24400,"station_id":"ce4bgv92rcd13ifvqcq0","pricing_plan_id":"cebpf4jnsgd1na2vs0mg"},{"bike_id":"4bf92838-c09e-4f8e-aa7d-448a6884f219","system_id":"levelo_inurba_marseille","lat":43.307945,"lon":5.376487,"is_reserved":false,"is_disabled":false,"rental_uris":{"android":"levelo://app?vid=4bf92838-c09e-4f8e-aa7d-448a6884f219","ios":"levelo://app?vid=4bf92838-c09e-4f8e-aa7d-448a6884f219"},"vehicle_type_id":"4","last_reported":1715465160,"current_range_meters":25600,"station_id":"ce4bgv92rcd13ifvqcq0","pricing_plan_id":"cebpf4jnsgd1na2vs0mg"},{"bike_id":"5a7b2386-7fee-4c94-914b-cee4237803e9","system_id":"levelo_inurba_marseille","lat":43.307945,"lon":5.376487,"is_reserved":false,"is_disabled":false,"rental_uris":{"android":"levelo://app?vid=5a7b2386-7fee-4c94-914b-cee4237803e9","ios":"levelo://app?vid=5a7b2386-7fee-4c94-914b-cee4237803e9"},"vehicle_type_id":"4","last_reported":1715465160,"current_range_meters":23200,"station_id":"ce4bgv92rcd13ifvqcq0","pricing_plan_id":"cebpf4jnsgd1na2vs0mg"},{"bike_id":"57e96d4e-aa35-4a7e-8ac8-a7cd46ff08fa","system_id":"levelo_inurba_marseille","lat":43.307945,"lon":5.376487,"is_reserved":false,"is_disabled":false,"rental_uris":{"android":"levelo://app?vid=57e96d4e-aa35-4a7e-8ac8-a7cd46ff08fa","ios":"levelo://app?vid=57e96d4e-aa35-4a7e-8ac8-a7cd46ff08fa"},"vehicle_type_id":"4","last_reported":1715465160,"current_range_meters":2400,"station_id":"ce4bgv92rcd13ifvqcq0","pricing_plan_id":"cebpf4jnsgd1na2vs0mg"},{"bike_id":"f11099b3-1b7f-4559-9884-83e89a0555a9","system_id":"levelo_inurba_marseille","lat":43.317075,"lon":5.377367,"is_reserved":false,"is_disabled":false,"rental_uris":{"android":"levelo://app?vid=f11099b3-1b7f-4559-9884-83e89a0555a9","ios":"levelo://app?vid=f11099b3-1b7f-4559-9884-83e89a0555a9"},"vehicle_type_id":"4","last_reported":1715465160,"current_range_meters":22000,"station_id":"ce4bgth2rcd13ifvqch0","pricing_plan_id":"cebpf4jnsgd1na2vs0mg"},{"bike_id":"8c097122-685e-41d0-8670-2bb464d989b0","system_id":"levelo_inurba_marseille","lat":43.317075,"lon":5.377367,"is_reserved":false,"is_disabled":false,"rental_uris":{"android":"levelo://app?vid=8c097122-685e-41d0-8670-2bb464d989b0","ios":"levelo://app?vid=8c097122-685e-41d0-8670-2bb464d989b0"},"vehicle_type_id":"4","last_reported":1715465160,"current_range_meters":11200,"station_id":"ce4bgth2rcd13ifvqch0","pricing_plan_id":"cebpf4jnsgd1na2vs0mg"},{"bike_id":"43eeca73-981a-4e0a-b033-348ec10d81e0","system_id":"levelo_inurba_marseille","lat":43.317075,"lon":5.377367,"is_reserved":false,"is_disabled":false,"rental_uris":{"android":"levelo://app?vid=43eeca73-981a-4e0a-b033-348ec10d81e0","ios":"levelo://app?vid=43eeca73-981a-4e0a-b033-348ec10d81e0"},"vehicle_type_id":"4","last_reported":1715465160,"current_range_meters":24000,"station_id":"ce4bgth2rcd13ifvqch0","pricing_plan_id":"cebpf4jnsgd1na2vs0mg"},{"bike_id":"9cc97b40-2e13-4905-a4b4-fb8dc745abd0","system_id":"levelo_inurba_marseille","lat":43.303046,"lon":5.368981,"is_reserved":false,"is_disabled":false,"rental_uris":{"android":"levelo://app?vid=9cc97b40-2e13-4905-a4b4-fb8dc745abd0","ios":"levelo://app?vid=9cc97b40-2e13-4905-a4b4-fb8dc745abd0"},"vehicle_type_id":"4","last_reported":1715465160,"current_range_meters":6800,"station_id":"ce4bgqh2rcd13ifvqc5g","pricing_plan_id":"cebpf4jnsgd1na2vs0mg"},{"bike_id":"dfc7ec82-cde0-4457-a8fa-45b6c6a6be39","system_id":"levelo_inurba_marseille","lat":43.30189,"lon":5.36608,"is_reserved":false,"is_disabled":false,"rental_uris":{"android":"levelo://app?vid=dfc7ec82-cde0-4457-a8fa-45b6c6a6be39","ios":"levelo://app?vid=dfc7ec82-cde0-4457-a8fa-45b6c6a6be39"},"vehicle_type_id":"4","last_reported":1715465160,"current_range_meters":0,"station_id":"ce4bgrh2rcd13ifvqc8g","pricing_plan_id":"cebpf4jnsgd1na2vs0mg"},{"bike_id":"46ca62fe-2200-4fb9-b209-fa360db28095","system_id":"levelo_inurba_marseille","lat":43.308012,"lon":5.381511,"is_reserved":false,"is_disabled":false,"rental_uris":{"android":"levelo://app?vid=46ca62fe-2200-4fb9-b209-fa360db28095","ios":"levelo://app?vid=46ca62fe-2200-4fb9-b209-fa360db28095"},"vehicle_type_id":"4","last_reported":1715465160,"current_range_meters":12400,"station_id":"ce4bgt12rcd13ifvqce0","pricing_plan_id":"cebpf4jnsgd1na2vs0mg"},{"bike_id":"aa6b2747-fc8e-44cc-b1a0-3a7f1394569a","system_id":"levelo_inurba_marseille","lat":43.307918,"lon":5.381423,"is_reserved":false,"is_disabled":false,"rental_uris":{"android":"levelo://app?vid=aa6b2747-fc8e-44cc-b1a0-3a7f1394569a","ios":"levelo://app?vid=aa6b2747-fc8e-44cc-b1a0-3a7f1394569a"},"vehicle_type_id":"4","last_reported":1715465160,"current_range_meters":3200,"station_id":"ce4bgt12rcd13ifvqce0","pricing_plan_id":"cebpf4jnsgd1na2vs0mg"},{"bike_id":"3ca35f78-1ed2-40ef-a3d9-4ab8e251fb4a","system_id":"levelo_inurba_marseille","lat":43.308012,"lon":5.381511,"is_reserved":false,"is_disabled":false,"rental_uris":{"android":"levelo://app?vid=3ca35f78-1ed2-40ef-a3d9-4ab8e251fb4a","ios":"levelo://app?vid=3ca35f78-1ed2-40ef-a3d9-4ab8e251fb4a"},"vehicle_type_id":"4","last_reported":1715465160,"current_range_meters":0,"station_id":"ce4bgt12rcd13ifvqce0","pricing_plan_id":"cebpf4jnsgd1na2vs0mg"},{"bike_id":"02b0faa7-289c-4b50-8314-7603932f402f","system_id":"levelo_inurba_marseille","lat":43.308012,"lon":5.381511,"is_reserved":false,"is_disabled":false,"rental_uris":{"android":"levelo://app?vid=02b0faa7-289c-4b50-8314-7603932f402f","ios":"levelo://app?vid=02b0faa7-289c-4b50-8314-7603932f402f"},"vehicle_type_id":"4","last_reported":1715465160,"current_range_meters":10400,"station_id":"ce4bgt12rcd13ifvqce0","pricing_plan_id":"cebpf4jnsgd1na2vs0mg"},{"bike_id":"7b518c58-1b73-46bf-99fd-da5482feded9","system_id":"levelo_inurba_marseille","lat":43.308012,"lon":5.381511,"is_reserved":false,"is_disabled":false,"rental_uris":{"android":"levelo://app?vid=7b518c58-1b73-46bf-99fd-da5482feded9","ios":"levelo://app?vid=7b518c58-1b73-46bf-99fd-da5482feded9"},"vehicle_type_id":"4","last_reported":1715465160,"current_range_meters":24000,"station_id":"ce4bgt12rcd13ifvqce0","pricing_plan_id":"cebpf4jnsgd1na2vs0mg"},{"bike_id":"f0519099-c2a2-4b00-9e88-4684a9a3ca1e","system_id":"levelo_inurba_marseille","lat":43.308012,"lon":5.381511,"is_reserved":false,"is_disabled":false,"rental_uris":{"android":"levelo://app?vid=f0519099-c2a2-4b00-9e88-4684a9a3ca1e","ios":"levelo://app?vid=f0519099-c2a2-4b00-9e88-4684a9a3ca1e"},"vehicle_type_id":"4","last_reported":1715465160,"current_range_meters":28000,"station_id":"ce4bgt12rcd13ifvqce0","pricing_plan_id":"cebpf4jnsgd1na2vs0mg"},{"bike_id":"a2b6beba-e19e-40ae-b577-d87cc8cc051a","system_id":"levelo_inurba_marseille","lat":43.301939,"lon":5.366286,"is_reserved":false,"is_disabled":false,"rental_uris":{"android":"levelo://app?vid=a2b6beba-e19e-40ae-b577-d87cc8cc051a","ios":"levelo://app?vid=a2b6beba-e19e-40ae-b577-d87cc8cc051a"},"vehicle_type_id":"4","last_reported":1715465160,"current_range_meters":5600,"station_id":"ce4bgrh2rcd13ifvqc8g","pricing_plan_id":"cebpf4jnsgd1na2vs0mg"},{"bike_id":"4b0d06c7-696b-4a4d-acfd-185c77660e8a","system_id":"levelo_inurba_marseille","lat":43.324771,"lon":5.365732,"is_reserved":false,"is_disabled":false,"rental_uris":{"android":"levelo://app?vid=4b0d06c7-696b-4a4d-acfd-185c77660e8a","ios":"levelo://app?vid=4b0d06c7-696b-4a4d-acfd-185c77660e8a"},"vehicle_type_id":"4","last_reported":1715465160,"current_range_meters":27200,"station_id":"ce4bhs12rcd13ifvqhvg","pricing_plan_id":"cebpf4jnsgd1na2vs0mg"},{"bike_id":"b477d686-c217-4fd8-853d-78a541c0c23e","system_id":"levelo_inurba_marseille","lat":43.324771,"lon":5.36557,"is_reserved":false,"is_disabled":false,"rental_uris":{"android":"levelo://app?vid=b477d686-c217-4fd8-853d-78a541c0c23e","ios":"levelo://app?vid=b477d686-c217-4fd8-853d-78a541c0c23e"},"vehicle_type_id":"4","last_reported":1715465160,"current_range_meters":1600,"station_id":"ce4bhs12rcd13ifvqhvg","pricing_plan_id":"cebpf4jnsgd1na2vs0mg"},{"bike_id":"a76ac9e1-e5fc-45aa-83a4-d1570f8cca81","system_id":"levelo_inurba_marseille","lat":43.3248,"lon":5.36556,"is_reserved":false,"is_disabled":false,"rental_uris":{"android":"levelo://app?vid=a76ac9e1-e5fc-45aa-83a4-d1570f8cca81","ios":"levelo://app?vid=a76ac9e1-e5fc-45aa-83a4-d1570f8cca81"},"vehicle_type_id":"4","last_reported":1715465160,"current_range_meters":8400,"station_id":"","pricing_plan_id":"cebpf4jnsgd1na2vs0mg"},{"bike_id":"d48e85bd-0e54-4244-87ed-8513561bc3d3","system_id":"levelo_inurba_marseille","lat":43.324771,"lon":5.36557,"is_reserved":false,"is_disabled":false,"rental_uris":{"android":"levelo://app?vid=d48e85bd-0e54-4244-87ed-8513561bc3d3","ios":"levelo://app?vid=d48e85bd-0e54-4244-87ed-8513561bc3d3"},"vehicle_type_id":"4","last_reported":1715465160,"current_range_meters":4800,"station_id":"ce4bhs12rcd13ifvqhvg","pricing_plan_id":"cebpf4jnsgd1na2vs0mg"},{"bike_id":"27864151-07c6-46e0-bb7f-76413df57206","system_id":"levelo_inurba_marseille","lat":43.324771,"lon":5.36557,"is_reserved":false,"is_disabled":false,"rental_uris":{"android":"levelo://app?vid=27864151-07c6-46e0-bb7f-76413df57206","ios":"levelo://app?vid=27864151-07c6-46e0-bb7f-76413df57206"},"vehicle_type_id":"4","last_reported":1715465160,"current_range_meters":19200,"station_id":"ce4bhs12rcd13ifvqhvg","pricing_plan_id":"cebpf4jnsgd1na2vs0mg"},{"bike_id":"333cb693-6337-42b4-8566-231779fdd3f3","system_id":"levelo_inurba_marseille","lat":43.324771,"lon":5.36557,"is_reserved":false,"is_disabled":false,"rental_uris":{"android":"levelo://app?vid=333cb693-6337-42b4-8566-231779fdd3f3","ios":"levelo://app?vid=333cb693-6337-42b4-8566-231779fdd3f3"},"vehicle_type_id":"4","last_reported":1715465160,"current_range_meters":5600,"station_id":"ce4bhs12rcd13ifvqhvg","pricing_plan_id":"cebpf4jnsgd1na2vs0mg"},{"bike_id":"7d725402-757b-4cd9-84ff-6dd57d0cc79e","system_id":"levelo_inurba_marseille","lat":43.32487,"lon":5.36565,"is_reserved":false,"is_disabled":false,"rental_uris":{"android":"levelo://app?vid=7d725402-757b-4cd9-84ff-6dd57d0cc79e","ios":"levelo://app?vid=7d725402-757b-4cd9-84ff-6dd57d0cc79e"},"vehicle_type_id":"4","last_reported":1715465160,"current_range_meters":27200,"station_id":"ce4bhs12rcd13ifvqhvg","pricing_plan_id":"cebpf4jnsgd1na2vs0mg"},{"bike_id":"7279300e-a5c4-4f3b-858a-e2bd296be7c9","system_id":"levelo_inurba_marseille","lat":43.324771,"lon":5.36557,"is_reserved":false,"is_disabled":false,"rental_uris":{"android":"levelo://app?vid=7279300e-a5c4-4f3b-858a-e2bd296be7c9","ios":"levelo://app?vid=7279300e-a5c4-4f3b-858a-e2bd296be7c9"},"vehicle_type_id":"4","last_reported":1715465160,"current_range_meters":8000,"station_id":"ce4bhs12rcd13ifvqhvg","pricing_plan_id":"cebpf4jnsgd1na2vs0mg"},{"bike_id":"de363a9b-b8dd-4f25-97c4-05ca23eea0b0","system_id":"levelo_inurba_marseille","lat":43.324771,"lon":5.36557,"is_reserved":false,"is_disabled":false,"rental_uris":{"android":"levelo://app?vid=de363a9b-b8dd-4f25-97c4-05ca23eea0b0","ios":"levelo://app?vid=de363a9b-b8dd-4f25-97c4-05ca23eea0b0"},"vehicle_type_id":"4","last_reported":1715465160,"current_range_meters":30000,"station_id":"ce4bhs12rcd13ifvqhvg","pricing_plan_id":"cebpf4jnsgd1na2vs0mg"},{"bike_id":"9533a675-c7b3-4a17-9a94-05ea11af0952","system_id":"levelo_inurba_marseille","lat":43.310804,"lon":5.38359,"is_reserved":false,"is_disabled":false,"rental_uris":{"android":"levelo://app?vid=9533a675-c7b3-4a17-9a94-05ea11af0952","ios":"levelo://app?vid=9533a675-c7b3-4a17-9a94-05ea11af0952"},"vehicle_type_id":"4","last_reported":1715465160,"current_range_meters":800,"station_id":"ce4bgv92rcd13ifvqcr0","pricing_plan_id":"cebpf4jnsgd1na2vs0mg"},{"bike_id":"a5aae73a-6cf1-4b49-87b4-d746ca727a77","system_id":"levelo_inurba_marseille","lat":43.310804,"lon":5.38359,"is_reserved":false,"is_disabled":false,"rental_uris":{"android":"levelo://app?vid=a5aae73a-6cf1-4b49-87b4-d746ca727a77","ios":"levelo://app?vid=a5aae73a-6cf1-4b49-87b4-d746ca727a77"},"vehicle_type_id":"4","last_reported":1715465160,"current_range_meters":9200,"station_id":"ce4bgv92rcd13ifvqcr0","pricing_plan_id":"cebpf4jnsgd1na2vs0mg"},{"bike_id":"8f48c512-046e-4018-bc08-1af00933015a","system_id":"levelo_inurba_marseille","lat":43.310804,"lon":5.38359,"is_reserved":false,"is_disabled":false,"rental_uris":{"android":"levelo://app?vid=8f48c512-046e-4018-bc08-1af00933015a","ios":"levelo://app?vid=8f48c512-046e-4018-bc08-1af00933015a"},"vehicle_type_id":"4","last_reported":1715465160,"current_range_meters":1200,"station_id":"ce4bgv92rcd13ifvqcr0","pricing_plan_id":"cebpf4jnsgd1na2vs0mg"},{"bike_id":"3122e0f8-a2e2-4908-9064-d596e83f2d1f","system_id":"levelo_inurba_marseille","lat":43.310719,"lon":5.383594,"is_reserved":false,"is_disabled":false,"rental_uris":{"android":"levelo://app?vid=3122e0f8-a2e2-4908-9064-d596e83f2d1f","ios":"levelo://app?vid=3122e0f8-a2e2-4908-9064-d596e83f2d1f"},"vehicle_type_id":"4","last_reported":1715465160,"current_range_meters":8400,"station_id":"","pricing_plan_id":"cebpf4jnsgd1na2vs0mg"},{"bike_id":"13d0dd01-1a1b-4578-bd9f-d9af4caf5307","system_id":"levelo_inurba_marseille","lat":43.301429,"lon":5.37413,"is_reserved":false,"is_disabled":false,"rental_uris":{"android":"levelo://app?vid=13d0dd01-1a1b-4578-bd9f-d9af4caf5307","ios":"levelo://app?vid=13d0dd01-1a1b-4578-bd9f-d9af4caf5307"},"vehicle_type_id":"4","last_reported":1715465160,"current_range_meters":8000,"station_id":"ce4bgs92rcd13ifvqcc0","pricing_plan_id":"cebpf4jnsgd1na2vs0mg"},{"bike_id":"2dd3cac5-3ee2-40c1-aecc-4c4892b20bde","system_id":"levelo_inurba_marseille","lat":43.301429,"lon":5.37413,"is_reserved":false,"is_disabled":false,"rental_uris":{"android":"levelo://app?vid=2dd3cac5-3ee2-40c1-aecc-4c4892b20bde","ios":"levelo://app?vid=2dd3cac5-3ee2-40c1-aecc-4c4892b20bde"},"vehicle_type_id":"4","last_reported":1715465160,"current_range_meters":4800,"station_id":"ce4bgs92rcd13ifvqcc0","pricing_plan_id":"cebpf4jnsgd1na2vs0mg"},{"bike_id":"6af742f2-0eb4-4b4b-9472-79c0986fb7ab","system_id":"levelo_inurba_marseille","lat":43.301429,"lon":5.37413,"is_reserved":false,"is_disabled":false,"rental_uris":{"android":"levelo://app?vid=6af742f2-0eb4-4b4b-9472-79c0986fb7ab","ios":"levelo://app?vid=6af742f2-0eb4-4b4b-9472-79c0986fb7ab"},"vehicle_type_id":"4","last_reported":1715465160,"current_range_meters":13200,"station_id":"ce4bgs92rcd13ifvqcc0","pricing_plan_id":"cebpf4jnsgd1na2vs0mg"},{"bike_id":"e8ef476a-b1e3-4e8c-82c7-a87911daffc5","system_id":"levelo_inurba_marseille","lat":43.313571,"lon":5.384829,"is_reserved":false,"is_disabled":false,"rental_uris":{"android":"levelo://app?vid=e8ef476a-b1e3-4e8c-82c7-a87911daffc5","ios":"levelo://app?vid=e8ef476a-b1e3-4e8c-82c7-a87911daffc5"},"vehicle_type_id":"4","last_reported":1715465160,"current_range_meters":31200,"station_id":"ce4bgt92rcd13ifvqcf0","pricing_plan_id":"cebpf4jnsgd1na2vs0mg"},{"bike_id":"71f32a51-aac5-46d6-bd87-52815eff3e1b","system_id":"levelo_inurba_marseille","lat":43.313571,"lon":5.384829,"is_reserved":false,"is_disabled":false,"rental_uris":{"android":"levelo://app?vid=71f32a51-aac5-46d6-bd87-52815eff3e1b","ios":"levelo://app?vid=71f32a51-aac5-46d6-bd87-52815eff3e1b"},"vehicle_type_id":"4","last_reported":1715465160,"current_range_meters":28000,"station_id":"ce4bgt92rcd13ifvqcf0","pricing_plan_id":"cebpf4jnsgd1na2vs0mg"},{"bike_id":"8a892240-39c1-4809-8bab-7ab6c51e5c34","system_id":"levelo_inurba_marseille","lat":43.313571,"lon":5.384829,"is_reserved":false,"is_disabled":false,"rental_uris":{"android":"levelo://app?vid=8a892240-39c1-4809-8bab-7ab6c51e5c34","ios":"levelo://app?vid=8a892240-39c1-4809-8bab-7ab6c51e5c34"},"vehicle_type_id":"4","last_reported":1715465160,"current_range_meters":10400,"station_id":"ce4bgt92rcd13ifvqcf0","pricing_plan_id":"cebpf4jnsgd1na2vs0mg"},{"bike_id":"ab66e624-79f5-419e-ab4d-504c9d1261a5","system_id":"levelo_inurba_marseille","lat":43.313571,"lon":5.384829,"is_reserved":false,"is_disabled":false,"rental_uris":{"android":"levelo://app?vid=ab66e624-79f5-419e-ab4d-504c9d1261a5","ios":"levelo://app?vid=ab66e624-79f5-419e-ab4d-504c9d1261a5"},"vehicle_type_id":"4","last_reported":1715465160,"current_range_meters":16000,"station_id":"ce4bgt92rcd13ifvqcf0","pricing_plan_id":"cebpf4jnsgd1na2vs0mg"},{"bike_id":"b125298d-03d9-4812-acc8-376d3fccfa8d","system_id":"levelo_inurba_marseille","lat":43.313571,"lon":5.384829,"is_reserved":false,"is_disabled":false,"rental_uris":{"android":"levelo://app?vid=b125298d-03d9-4812-acc8-376d3fccfa8d","ios":"levelo://app?vid=b125298d-03d9-4812-acc8-376d3fccfa8d"},"vehicle_type_id":"4","last_reported":1715465160,"current_range_meters":5600,"station_id":"ce4bgt92rcd13ifvqcf0","pricing_plan_id":"cebpf4jnsgd1na2vs0mg"},{"bike_id":"824678c8-d02e-4845-9caa-d250dffb6a67","system_id":"levelo_inurba_marseille","lat":43.313571,"lon":5.384829,"is_reserved":false,"is_disabled":false,"rental_uris":{"android":"levelo://app?vid=824678c8-d02e-4845-9caa-d250dffb6a67","ios":"levelo://app?vid=824678c8-d02e-4845-9caa-d250dffb6a67"},"vehicle_type_id":"4","last_reported":1715465160,"current_range_meters":10000,"station_id":"ce4bgt92rcd13ifvqcf0","pricing_plan_id":"cebpf4jnsgd1na2vs0mg"},{"bike_id":"6c1a755c-5877-43ab-b148-9d39b1a6f17e","system_id":"levelo_inurba_marseille","lat":43.31366,"lon":5.38491,"is_reserved":false,"is_disabled":false,"rental_uris":{"android":"levelo://app?vid=6c1a755c-5877-43ab-b148-9d39b1a6f17e","ios":"levelo://app?vid=6c1a755c-5877-43ab-b148-9d39b1a6f17e"},"vehicle_type_id":"4","last_reported":1715465160,"current_range_meters":31200,"station_id":"ce4bgt92rcd13ifvqcf0","pricing_plan_id":"cebpf4jnsgd1na2vs0mg"},{"bike_id":"217b4672-bb68-4f72-9b99-22fe469e5cc6","system_id":"levelo_inurba_marseille","lat":43.313571,"lon":5.384829,"is_reserved":false,"is_disabled":false,"rental_uris":{"android":"levelo://app?vid=217b4672-bb68-4f72-9b99-22fe469e5cc6","ios":"levelo://app?vid=217b4672-bb68-4f72-9b99-22fe469e5cc6"},"vehicle_type_id":"4","last_reported":1715465160,"current_range_meters":26400,"station_id":"ce4bgt92rcd13ifvqcf0","pricing_plan_id":"cebpf4jnsgd1na2vs0mg"},{"bike_id":"d2506008-a100-435a-bffe-83df217b07b5","system_id":"levelo_inurba_marseille","lat":43.313571,"lon":5.384829,"is_reserved":false,"is_disabled":false,"rental_uris":{"android":"levelo://app?vid=d2506008-a100-435a-bffe-83df217b07b5","ios":"levelo://app?vid=d2506008-a100-435a-bffe-83df217b07b5"},"vehicle_type_id":"4","last_reported":1715465160,"current_range_meters":1600,"station_id":"ce4bgt92rcd13ifvqcf0","pricing_plan_id":"cebpf4jnsgd1na2vs0mg"},{"bike_id":"bcc739ae-5e43-4f31-bb87-9f6fe09e2442","system_id":"levelo_inurba_marseille","lat":43.313571,"lon":5.384829,"is_reserved":false,"is_disabled":false,"rental_uris":{"android":"levelo://app?vid=bcc739ae-5e43-4f31-bb87-9f6fe09e2442","ios":"levelo://app?vid=bcc739ae-5e43-4f31-bb87-9f6fe09e2442"},"vehicle_type_id":"4","last_reported":1715465160,"current_range_meters":12800,"station_id":"ce4bgt92rcd13ifvqcf0","pricing_plan_id":"cebpf4jnsgd1na2vs0mg"},{"bike_id":"cc258dc5-2747-4c4f-9e8a-0d841802ebaf","system_id":"levelo_inurba_marseille","lat":43.313571,"lon":5.384829,"is_reserved":false,"is_disabled":false,"rental_uris":{"android":"levelo://app?vid=cc258dc5-2747-4c4f-9e8a-0d841802ebaf","ios":"levelo://app?vid=cc258dc5-2747-4c4f-9e8a-0d841802ebaf"},"vehicle_type_id":"4","last_reported":1715465160,"current_range_meters":31200,"station_id":"ce4bgt92rcd13ifvqcf0","pricing_plan_id":"cebpf4jnsgd1na2vs0mg"},{"bike_id":"c7bea60e-910f-4220-9a58-7743cbc63306","system_id":"levelo_inurba_marseille","lat":43.313571,"lon":5.384829,"is_reserved":false,"is_disabled":false,"rental_uris":{"android":"levelo://app?vid=c7bea60e-910f-4220-9a58-7743cbc63306","ios":"levelo://app?vid=c7bea60e-910f-4220-9a58-7743cbc63306"},"vehicle_type_id":"4","last_reported":1715465160,"current_range_meters":24000,"station_id":"ce4bgt92rcd13ifvqcf0","pricing_plan_id":"cebpf4jnsgd1na2vs0mg"},{"bike_id":"718f2b07-0300-4364-8588-66ffa33bf596","system_id":"levelo_inurba_marseille","lat":43.299724,"lon":5.371829,"is_reserved":false,"is_disabled":false,"rental_uris":{"android":"levelo://app?vid=718f2b07-0300-4364-8588-66ffa33bf596","ios":"levelo://app?vid=718f2b07-0300-4364-8588-66ffa33bf596"},"vehicle_type_id":"4","last_reported":1715465160,"current_range_meters":11600,"station_id":"ce4bgr92rcd13ifvqc7g","pricing_plan_id":"cebpf4jnsgd1na2vs0mg"},{"bike_id":"04d861cf-f85f-46fa-abf4-2402315089bf","system_id":"levelo_inurba_marseille","lat":43.299724,"lon":5.371829,"is_reserved":false,"is_disabled":false,"rental_uris":{"android":"levelo://app?vid=04d861cf-f85f-46fa-abf4-2402315089bf","ios":"levelo://app?vid=04d861cf-f85f-46fa-abf4-2402315089bf"},"vehicle_type_id":"4","last_reported":1715465160,"current_range_meters":16400,"station_id":"ce4bgr92rcd13ifvqc7g","pricing_plan_id":"cebpf4jnsgd1na2vs0mg"},{"bike_id":"2915bcef-6d0f-41af-8423-16b6d0b335f0","system_id":"levelo_inurba_marseille","lat":43.29942,"lon":5.37434,"is_reserved":false,"is_disabled":false,"rental_uris":{"android":"levelo://app?vid=2915bcef-6d0f-41af-8423-16b6d0b335f0","ios":"levelo://app?vid=2915bcef-6d0f-41af-8423-16b6d0b335f0"},"vehicle_type_id":"4","last_reported":1715465160,"current_range_meters":19200,"station_id":"ce4bgjh2rcd13ifvqbg0","pricing_plan_id":"cebpf4jnsgd1na2vs0mg"},{"bike_id":"54a1d89e-df4b-4799-b4c3-21437836e2bc","system_id":"levelo_inurba_marseille","lat":43.29855,"lon":5.36288,"is_reserved":false,"is_disabled":false,"rental_uris":{"android":"levelo://app?vid=54a1d89e-df4b-4799-b4c3-21437836e2bc","ios":"levelo://app?vid=54a1d89e-df4b-4799-b4c3-21437836e2bc"},"vehicle_type_id":"4","last_reported":1715465160,"current_range_meters":24800,"station_id":"ce4bgpp2rcd13ifvqc3g","pricing_plan_id":"cebpf4jnsgd1na2vs0mg"},{"bike_id":"ba944ba5-e0f9-44ca-a4f1-ead4ab55be8c","system_id":"levelo_inurba_marseille","lat":43.305364,"lon":5.384119,"is_reserved":false,"is_disabled":false,"rental_uris":{"android":"levelo://app?vid=ba944ba5-e0f9-44ca-a4f1-ead4ab55be8c","ios":"levelo://app?vid=ba944ba5-e0f9-44ca-a4f1-ead4ab55be8c"},"vehicle_type_id":"4","last_reported":1715465160,"current_range_meters":7600,"station_id":"ce4bgg92rcd13ifvqb30","pricing_plan_id":"cebpf4jnsgd1na2vs0mg"},{"bike_id":"e3714528-3356-4621-98dd-64f632056a95","system_id":"levelo_inurba_marseille","lat":43.305364,"lon":5.384119,"is_reserved":false,"is_disabled":false,"rental_uris":{"android":"levelo://app?vid=e3714528-3356-4621-98dd-64f632056a95","ios":"levelo://app?vid=e3714528-3356-4621-98dd-64f632056a95"},"vehicle_type_id":"4","last_reported":1715465160,"current_range_meters":20000,"station_id":"ce4bgg92rcd13ifvqb30","pricing_plan_id":"cebpf4jnsgd1na2vs0mg"},{"bike_id":"655788ce-5898-4a64-9cf7-5ce898650bcd","system_id":"levelo_inurba_marseille","lat":43.298433,"lon":5.362774,"is_reserved":false,"is_disabled":false,"rental_uris":{"android":"levelo://app?vid=655788ce-5898-4a64-9cf7-5ce898650bcd","ios":"levelo://app?vid=655788ce-5898-4a64-9cf7-5ce898650bcd"},"vehicle_type_id":"4","last_reported":1715465160,"current_range_meters":26800,"station_id":"ce4bgpp2rcd13ifvqc3g","pricing_plan_id":"cebpf4jnsgd1na2vs0mg"},{"bike_id":"5977ca17-aa6d-4101-883a-4cac9f41aa3d","system_id":"levelo_inurba_marseille","lat":43.298433,"lon":5.362774,"is_reserved":false,"is_disabled":false,"rental_uris":{"android":"levelo://app?vid=5977ca17-aa6d-4101-883a-4cac9f41aa3d","ios":"levelo://app?vid=5977ca17-aa6d-4101-883a-4cac9f41aa3d"},"vehicle_type_id":"4","last_reported":1715465160,"current_range_meters":9200,"station_id":"ce4bgpp2rcd13ifvqc3g","pricing_plan_id":"cebpf4jnsgd1na2vs0mg"},{"bike_id":"41652381-016a-4d60-989e-be2a71ece869","system_id":"levelo_inurba_marseille","lat":43.311722,"lon":5.387247,"is_reserved":false,"is_disabled":false,"rental_uris":{"android":"levelo://app?vid=41652381-016a-4d60-989e-be2a71ece869","ios":"levelo://app?vid=41652381-016a-4d60-989e-be2a71ece869"},"vehicle_type_id":"4","last_reported":1715465160,"current_range_meters":11600,"station_id":"ce4bgv12rcd13ifvqcp0","pricing_plan_id":"cebpf4jnsgd1na2vs0mg"},{"bike_id":"748f2757-e8ff-4f73-a074-a57de5c4052c","system_id":"levelo_inurba_marseille","lat":43.311722,"lon":5.387247,"is_reserved":false,"is_disabled":false,"rental_uris":{"android":"levelo://app?vid=748f2757-e8ff-4f73-a074-a57de5c4052c","ios":"levelo://app?vid=748f2757-e8ff-4f73-a074-a57de5c4052c"},"vehicle_type_id":"4","last_reported":1715465160,"current_range_meters":8000,"station_id":"ce4bgv12rcd13ifvqcp0","pricing_plan_id":"cebpf4jnsgd1na2vs0mg"},{"bike_id":"9853a789-7e91-46ed-bd87-beee1c9c9b0d","system_id":"levelo_inurba_marseille","lat":43.311722,"lon":5.387247,"is_reserved":false,"is_disabled":false,"rental_uris":{"android":"levelo://app?vid=9853a789-7e91-46ed-bd87-beee1c9c9b0d","ios":"levelo://app?vid=9853a789-7e91-46ed-bd87-beee1c9c9b0d"},"vehicle_type_id":"4","last_reported":1715465160,"current_range_meters":4000,"station_id":"ce4bgv12rcd13ifvqcp0","pricing_plan_id":"cebpf4jnsgd1na2vs0mg"},{"bike_id":"12c261f4-ac1b-4364-83d4-2dbe87ccc028","system_id":"levelo_inurba_marseille","lat":43.311722,"lon":5.387247,"is_reserved":false,"is_disabled":false,"rental_uris":{"android":"levelo://app?vid=12c261f4-ac1b-4364-83d4-2dbe87ccc028","ios":"levelo://app?vid=12c261f4-ac1b-4364-83d4-2dbe87ccc028"},"vehicle_type_id":"4","last_reported":1715465160,"current_range_meters":16000,"station_id":"ce4bgv12rcd13ifvqcp0","pricing_plan_id":"cebpf4jnsgd1na2vs0mg"},{"bike_id":"93bda417-4709-43f5-9a25-85df3cb92379","system_id":"levelo_inurba_marseille","lat":43.311722,"lon":5.387247,"is_reserved":false,"is_disabled":false,"rental_uris":{"android":"levelo://app?vid=93bda417-4709-43f5-9a25-85df3cb92379","ios":"levelo://app?vid=93bda417-4709-43f5-9a25-85df3cb92379"},"vehicle_type_id":"4","last_reported":1715465160,"current_range_meters":21200,"station_id":"ce4bgv12rcd13ifvqcp0","pricing_plan_id":"cebpf4jnsgd1na2vs0mg"},{"bike_id":"28208c5e-a420-44e7-b0a7-fbc156da9b7d","system_id":"levelo_inurba_marseille","lat":43.311722,"lon":5.387247,"is_reserved":false,"is_disabled":false,"rental_uris":{"android":"levelo://app?vid=28208c5e-a420-44e7-b0a7-fbc156da9b7d","ios":"levelo://app?vid=28208c5e-a420-44e7-b0a7-fbc156da9b7d"},"vehicle_type_id":"4","last_reported":1715465160,"current_range_meters":12800,"station_id":"ce4bgv12rcd13ifvqcp0","pricing_plan_id":"cebpf4jnsgd1na2vs0mg"},{"bike_id":"5d3d217e-c5e2-44ba-9704-4fda0f7b1d35","system_id":"levelo_inurba_marseille","lat":43.311747,"lon":5.387228,"is_reserved":false,"is_disabled":false,"rental_uris":{"android":"levelo://app?vid=5d3d217e-c5e2-44ba-9704-4fda0f7b1d35","ios":"levelo://app?vid=5d3d217e-c5e2-44ba-9704-4fda0f7b1d35"},"vehicle_type_id":"4","last_reported":1715465160,"current_range_meters":0,"station_id":"ce4bgv12rcd13ifvqcp0","pricing_plan_id":"cebpf4jnsgd1na2vs0mg"},{"bike_id":"3269a82e-20fd-46cb-9087-cc49c8cec2db","system_id":"levelo_inurba_marseille","lat":43.32787,"lon":5.36578,"is_reserved":false,"is_disabled":false,"rental_uris":{"android":"levelo://app?vid=3269a82e-20fd-46cb-9087-cc49c8cec2db","ios":"levelo://app?vid=3269a82e-20fd-46cb-9087-cc49c8cec2db"},"vehicle_type_id":"4","last_reported":1715465160,"current_range_meters":7200,"station_id":"","pricing_plan_id":"cebpf4jnsgd1na2vs0mg"},{"bike_id":"e927a95c-94ec-448d-a33b-2db2c79eee0f","system_id":"levelo_inurba_marseille","lat":43.322872,"lon":5.382756,"is_reserved":false,"is_disabled":false,"rental_uris":{"android":"levelo://app?vid=e927a95c-94ec-448d-a33b-2db2c79eee0f","ios":"levelo://app?vid=e927a95c-94ec-448d-a33b-2db2c79eee0f"},"vehicle_type_id":"4","last_reported":1715465160,"current_range_meters":27600,"station_id":"ce4bhr12rcd13ifvqhqg","pricing_plan_id":"cebpf4jnsgd1na2vs0mg"},{"bike_id":"2ac2f7f6-9d0f-4b48-86fb-7ab458ca1ed8","system_id":"levelo_inurba_marseille","lat":43.297794,"lon":5.370888,"is_reserved":false,"is_disabled":false,"rental_uris":{"android":"levelo://app?vid=2ac2f7f6-9d0f-4b48-86fb-7ab458ca1ed8","ios":"levelo://app?vid=2ac2f7f6-9d0f-4b48-86fb-7ab458ca1ed8"},"vehicle_type_id":"4","last_reported":1715465160,"current_range_meters":18800,"station_id":"ce4bgop2rcd13ifvqc1g","pricing_plan_id":"cebpf4jnsgd1na2vs0mg"},{"bike_id":"8b8b727e-8cc4-407b-b396-22de4655dafa","system_id":"levelo_inurba_marseille","lat":43.322872,"lon":5.382756,"is_reserved":false,"is_disabled":false,"rental_uris":{"android":"levelo://app?vid=8b8b727e-8cc4-407b-b396-22de4655dafa","ios":"levelo://app?vid=8b8b727e-8cc4-407b-b396-22de4655dafa"},"vehicle_type_id":"4","last_reported":1715465160,"current_range_meters":12400,"station_id":"ce4bhr12rcd13ifvqhqg","pricing_plan_id":"cebpf4jnsgd1na2vs0mg"},{"bike_id":"0e719a90-1353-479f-a655-b3481ca7816b","system_id":"levelo_inurba_marseille","lat":43.297163,"lon":5.365866,"is_reserved":false,"is_disabled":false,"rental_uris":{"android":"levelo://app?vid=0e719a90-1353-479f-a655-b3481ca7816b","ios":"levelo://app?vid=0e719a90-1353-479f-a655-b3481ca7816b"},"vehicle_type_id":"4","last_reported":1715465160,"current_range_meters":10400,"station_id":"ce4bgn12rcd13ifvqbt0","pricing_plan_id":"cebpf4jnsgd1na2vs0mg"},{"bike_id":"71999647-3358-4218-864c-b2f7e4503899","system_id":"levelo_inurba_marseille","lat":43.309589,"lon":5.390258,"is_reserved":false,"is_disabled":false,"rental_uris":{"android":"levelo://app?vid=71999647-3358-4218-864c-b2f7e4503899","ios":"levelo://app?vid=71999647-3358-4218-864c-b2f7e4503899"},"vehicle_type_id":"4","last_reported":1715465160,"current_range_meters":1600,"station_id":"ce4bgup2rcd13ifvqco0","pricing_plan_id":"cebpf4jnsgd1na2vs0mg"},{"bike_id":"1f428780-77ff-4bc6-ad93-88923086a95b","system_id":"levelo_inurba_marseille","lat":43.29622,"lon":5.37164,"is_reserved":false,"is_disabled":false,"rental_uris":{"android":"levelo://app?vid=1f428780-77ff-4bc6-ad93-88923086a95b","ios":"levelo://app?vid=1f428780-77ff-4bc6-ad93-88923086a95b"},"vehicle_type_id":"4","last_reported":1715465160,"current_range_meters":4000,"station_id":"ce4bgnh2rcd13ifvqc0g","pricing_plan_id":"cebpf4jnsgd1na2vs0mg"},{"bike_id":"17724cbd-bb50-4a97-aeab-c9c7dd881926","system_id":"levelo_inurba_marseille","lat":43.29586,"lon":5.36742,"is_reserved":false,"is_disabled":false,"rental_uris":{"android":"levelo://app?vid=17724cbd-bb50-4a97-aeab-c9c7dd881926","ios":"levelo://app?vid=17724cbd-bb50-4a97-aeab-c9c7dd881926"},"vehicle_type_id":"4","last_reported":1715465160,"current_range_meters":400,"station_id":"ce4bgph2rcd13ifvqc2g","pricing_plan_id":"cebpf4jnsgd1na2vs0mg"},{"bike_id":"2f262488-b195-427b-9118-235292c05054","system_id":"levelo_inurba_marseille","lat":43.309564,"lon":5.390206,"is_reserved":false,"is_disabled":false,"rental_uris":{"android":"levelo://app?vid=2f262488-b195-427b-9118-235292c05054","ios":"levelo://app?vid=2f262488-b195-427b-9118-235292c05054"},"vehicle_type_id":"4","last_reported":1715465160,"current_range_meters":2800,"station_id":"ce4bgup2rcd13ifvqco0","pricing_plan_id":"cebpf4jnsgd1na2vs0mg"},{"bike_id":"305badf6-9b2c-498b-ad7a-f470f5e82ce6","system_id":"levelo_inurba_marseille","lat":43.3095,"lon":5.39032,"is_reserved":false,"is_disabled":false,"rental_uris":{"android":"levelo://app?vid=305badf6-9b2c-498b-ad7a-f470f5e82ce6","ios":"levelo://app?vid=305badf6-9b2c-498b-ad7a-f470f5e82ce6"},"vehicle_type_id":"4","last_reported":1715465160,"current_range_meters":0,"station_id":"ce4bgup2rcd13ifvqco0","pricing_plan_id":"cebpf4jnsgd1na2vs0mg"},{"bike_id":"5ac93315-54c4-458e-afef-cc7b23a07317","system_id":"levelo_inurba_marseille","lat":43.317557,"lon":5.390173,"is_reserved":false,"is_disabled":false,"rental_uris":{"android":"levelo://app?vid=5ac93315-54c4-458e-afef-cc7b23a07317","ios":"levelo://app?vid=5ac93315-54c4-458e-afef-cc7b23a07317"},"vehicle_type_id":"4","last_reported":1715465160,"current_range_meters":17200,"station_id":"ce4bhqp2rcd13ifvqhng","pricing_plan_id":"cebpf4jnsgd1na2vs0mg"},{"bike_id":"dd631198-812c-404c-a00f-2b8fc8478619","system_id":"levelo_inurba_marseille","lat":43.317557,"lon":5.390173,"is_reserved":false,"is_disabled":false,"rental_uris":{"android":"levelo://app?vid=dd631198-812c-404c-a00f-2b8fc8478619","ios":"levelo://app?vid=dd631198-812c-404c-a00f-2b8fc8478619"},"vehicle_type_id":"4","last_reported":1715465160,"current_range_meters":5600,"station_id":"ce4bhqp2rcd13ifvqhng","pricing_plan_id":"cebpf4jnsgd1na2vs0mg"},{"bike_id":"66f07dc0-e62d-42d0-af4e-5d18350d2a53","system_id":"levelo_inurba_marseille","lat":43.317557,"lon":5.390173,"is_reserved":false,"is_disabled":false,"rental_uris":{"android":"levelo://app?vid=66f07dc0-e62d-42d0-af4e-5d18350d2a53","ios":"levelo://app?vid=66f07dc0-e62d-42d0-af4e-5d18350d2a53"},"vehicle_type_id":"4","last_reported":1715465160,"current_range_meters":17600,"station_id":"ce4bhqp2rcd13ifvqhng","pricing_plan_id":"cebpf4jnsgd1na2vs0mg"},{"bike_id":"117ea6a9-01af-49f7-ba3b-ee891c9546f5","system_id":"levelo_inurba_marseille","lat":43.317585,"lon":5.39015,"is_reserved":false,"is_disabled":false,"rental_uris":{"android":"levelo://app?vid=117ea6a9-01af-49f7-ba3b-ee891c9546f5","ios":"levelo://app?vid=117ea6a9-01af-49f7-ba3b-ee891c9546f5"},"vehicle_type_id":"4","last_reported":1715465160,"current_range_meters":2400,"station_id":"ce4bhqp2rcd13ifvqhng","pricing_plan_id":"cebpf4jnsgd1na2vs0mg"},{"bike_id":"e3604d0e-f552-4bef-ab20-0b6ff1bd1e80","system_id":"levelo_inurba_marseille","lat":43.317557,"lon":5.390173,"is_reserved":false,"is_disabled":false,"rental_uris":{"android":"levelo://app?vid=e3604d0e-f552-4bef-ab20-0b6ff1bd1e80","ios":"levelo://app?vid=e3604d0e-f552-4bef-ab20-0b6ff1bd1e80"},"vehicle_type_id":"4","last_reported":1715465160,"current_range_meters":30800,"station_id":"ce4bhqp2rcd13ifvqhng","pricing_plan_id":"cebpf4jnsgd1na2vs0mg"},{"bike_id":"88031d4c-0039-492a-b461-541581b52a53","system_id":"levelo_inurba_marseille","lat":43.317557,"lon":5.390173,"is_reserved":false,"is_disabled":false,"rental_uris":{"android":"levelo://app?vid=88031d4c-0039-492a-b461-541581b52a53","ios":"levelo://app?vid=88031d4c-0039-492a-b461-541581b52a53"},"vehicle_type_id":"4","last_reported":1715465160,"current_range_meters":31600,"station_id":"ce4bhqp2rcd13ifvqhng","pricing_plan_id":"cebpf4jnsgd1na2vs0mg"},{"bike_id":"662197a8-0a40-4bac-ae79-87f649ced84e","system_id":"levelo_inurba_marseille","lat":43.29527,"lon":5.36385,"is_reserved":false,"is_disabled":false,"rental_uris":{"android":"levelo://app?vid=662197a8-0a40-4bac-ae79-87f649ced84e","ios":"levelo://app?vid=662197a8-0a40-4bac-ae79-87f649ced84e"},"vehicle_type_id":"4","last_reported":1715465160,"current_range_meters":20000,"station_id":"","pricing_plan_id":"cebpf4jnsgd1na2vs0mg"},{"bike_id":"27f5a602-61a3-4e1c-a12a-a3b88cf8a687","system_id":"levelo_inurba_marseille","lat":43.2979,"lon":5.38016,"is_reserved":false,"is_disabled":false,"rental_uris":{"android":"levelo://app?vid=27f5a602-61a3-4e1c-a12a-a3b88cf8a687","ios":"levelo://app?vid=27f5a602-61a3-4e1c-a12a-a3b88cf8a687"},"vehicle_type_id":"4","last_reported":1715465160,"current_range_meters":31200,"station_id":"","pricing_plan_id":"cebpf4jnsgd1na2vs0mg"},{"bike_id":"e5233de3-b99c-47c5-9765-f8e108c4a4c4","system_id":"levelo_inurba_marseille","lat":43.29803,"lon":5.3809,"is_reserved":false,"is_disabled":false,"rental_uris":{"android":"levelo://app?vid=e5233de3-b99c-47c5-9765-f8e108c4a4c4","ios":"levelo://app?vid=e5233de3-b99c-47c5-9765-f8e108c4a4c4"},"vehicle_type_id":"4","last_reported":1715465160,"current_range_meters":28000,"station_id":"ce4bgip2rcd13ifvqbb0","pricing_plan_id":"cebpf4jnsgd1na2vs0mg"},{"bike_id":"96d9c78f-374c-4c4a-950f-efc9c4a70030","system_id":"levelo_inurba_marseille","lat":43.29575,"lon":5.37487,"is_reserved":false,"is_disabled":false,"rental_uris":{"android":"levelo://app?vid=96d9c78f-374c-4c4a-950f-efc9c4a70030","ios":"levelo://app?vid=96d9c78f-374c-4c4a-950f-efc9c4a70030"},"vehicle_type_id":"4","last_reported":1715465160,"current_range_meters":29600,"station_id":"ce4bgh92rcd13ifvqb50","pricing_plan_id":"cebpf4jnsgd1na2vs0mg"},{"bike_id":"b02664ad-7c34-489a-a175-48007fd762f4","system_id":"levelo_inurba_marseille","lat":43.2979,"lon":5.38085,"is_reserved":false,"is_disabled":false,"rental_uris":{"android":"levelo://app?vid=b02664ad-7c34-489a-a175-48007fd762f4","ios":"levelo://app?vid=b02664ad-7c34-489a-a175-48007fd762f4"},"vehicle_type_id":"4","last_reported":1715465160,"current_range_meters":28000,"station_id":"ce4bgip2rcd13ifvqbb0","pricing_plan_id":"cebpf4jnsgd1na2vs0mg"},{"bike_id":"cb14fd99-869f-473b-9967-b57aee6b5147","system_id":"levelo_inurba_marseille","lat":43.295728,"lon":5.375029,"is_reserved":false,"is_disabled":false,"rental_uris":{"android":"levelo://app?vid=cb14fd99-869f-473b-9967-b57aee6b5147","ios":"levelo://app?vid=cb14fd99-869f-473b-9967-b57aee6b5147"},"vehicle_type_id":"4","last_reported":1715465160,"current_range_meters":31200,"station_id":"ce4bgh92rcd13ifvqb50","pricing_plan_id":"cebpf4jnsgd1na2vs0mg"},{"bike_id":"fffedb30-e0ca-481c-84ee-6dc5026b84f3","system_id":"levelo_inurba_marseille","lat":43.304274,"lon":5.388873,"is_reserved":false,"is_disabled":false,"rental_uris":{"android":"levelo://app?vid=fffedb30-e0ca-481c-84ee-6dc5026b84f3","ios":"levelo://app?vid=fffedb30-e0ca-481c-84ee-6dc5026b84f3"},"vehicle_type_id":"4","last_reported":1715465160,"current_range_meters":14800,"station_id":"ce4bgk12rcd13ifvqbi0","pricing_plan_id":"cebpf4jnsgd1na2vs0mg"},{"bike_id":"419d3dee-4201-4f54-bda3-96dca33c1d22","system_id":"levelo_inurba_marseille","lat":43.3043,"lon":5.38886,"is_reserved":false,"is_disabled":false,"rental_uris":{"android":"levelo://app?vid=419d3dee-4201-4f54-bda3-96dca33c1d22","ios":"levelo://app?vid=419d3dee-4201-4f54-bda3-96dca33c1d22"},"vehicle_type_id":"4","last_reported":1715465160,"current_range_meters":0,"station_id":"ce4bgk12rcd13ifvqbi0","pricing_plan_id":"cebpf4jnsgd1na2vs0mg"},{"bike_id":"a712a299-e107-4791-99a3-dc2acb03ee56","system_id":"levelo_inurba_marseille","lat":43.2979,"lon":5.38106,"is_reserved":false,"is_disabled":false,"rental_uris":{"android":"levelo://app?vid=a712a299-e107-4791-99a3-dc2acb03ee56","ios":"levelo://app?vid=a712a299-e107-4791-99a3-dc2acb03ee56"},"vehicle_type_id":"4","last_reported":1715465160,"current_range_meters":22800,"station_id":"ce4bgip2rcd13ifvqbb0","pricing_plan_id":"cebpf4jnsgd1na2vs0mg"},{"bike_id":"301f08e1-8da8-448e-9445-cb769feb4021","system_id":"levelo_inurba_marseille","lat":43.304278,"lon":5.388868,"is_reserved":false,"is_disabled":false,"rental_uris":{"android":"levelo://app?vid=301f08e1-8da8-448e-9445-cb769feb4021","ios":"levelo://app?vid=301f08e1-8da8-448e-9445-cb769feb4021"},"vehicle_type_id":"4","last_reported":1715465160,"current_range_meters":30000,"station_id":"ce4bgk12rcd13ifvqbi0","pricing_plan_id":"cebpf4jnsgd1na2vs0mg"},{"bike_id":"52105503-3333-476a-b162-16619bfe7cad","system_id":"levelo_inurba_marseille","lat":43.304278,"lon":5.388868,"is_reserved":false,"is_disabled":false,"rental_uris":{"android":"levelo://app?vid=52105503-3333-476a-b162-16619bfe7cad","ios":"levelo://app?vid=52105503-3333-476a-b162-16619bfe7cad"},"vehicle_type_id":"4","last_reported":1715465160,"current_range_meters":31200,"station_id":"ce4bgk12rcd13ifvqbi0","pricing_plan_id":"cebpf4jnsgd1na2vs0mg"},{"bike_id":"21dd603c-a67a-49ab-b64c-54e6b71cd70d","system_id":"levelo_inurba_marseille","lat":43.29626,"lon":5.37717,"is_reserved":false,"is_disabled":false,"rental_uris":{"android":"levelo://app?vid=21dd603c-a67a-49ab-b64c-54e6b71cd70d","ios":"levelo://app?vid=21dd603c-a67a-49ab-b64c-54e6b71cd70d"},"vehicle_type_id":"4","last_reported":1715465160,"current_range_meters":31200,"station_id":"ce4bgi92rcd13ifvqb90","pricing_plan_id":"cebpf4jnsgd1na2vs0mg"},{"bike_id":"be223a97-935e-46f9-b52d-084b5572b3f9","system_id":"levelo_inurba_marseille","lat":43.29788,"lon":5.3811,"is_reserved":false,"is_disabled":false,"rental_uris":{"android":"levelo://app?vid=be223a97-935e-46f9-b52d-084b5572b3f9","ios":"levelo://app?vid=be223a97-935e-46f9-b52d-084b5572b3f9"},"vehicle_type_id":"4","last_reported":1715465160,"current_range_meters":22000,"station_id":"ce4bgip2rcd13ifvqbb0","pricing_plan_id":"cebpf4jnsgd1na2vs0mg"},{"bike_id":"087fb80d-4764-4efb-8374-a75d9886d2b4","system_id":"levelo_inurba_marseille","lat":43.295711,"lon":5.375308,"is_reserved":false,"is_disabled":false,"rental_uris":{"android":"levelo://app?vid=087fb80d-4764-4efb-8374-a75d9886d2b4","ios":"levelo://app?vid=087fb80d-4764-4efb-8374-a75d9886d2b4"},"vehicle_type_id":"4","last_reported":1715465160,"current_range_meters":11200,"station_id":"","pricing_plan_id":"cebpf4jnsgd1na2vs0mg"},{"bike_id":"5b117286-d995-458e-a7d7-d3a9f68676ae","system_id":"levelo_inurba_marseille","lat":43.304274,"lon":5.388873,"is_reserved":false,"is_disabled":false,"rental_uris":{"android":"levelo://app?vid=5b117286-d995-458e-a7d7-d3a9f68676ae","ios":"levelo://app?vid=5b117286-d995-458e-a7d7-d3a9f68676ae"},"vehicle_type_id":"4","last_reported":1715465160,"current_range_meters":29200,"station_id":"ce4bgk12rcd13ifvqbi0","pricing_plan_id":"cebpf4jnsgd1na2vs0mg"},{"bike_id":"bc312e84-8f22-4a2c-bf99-b1e1272342ec","system_id":"levelo_inurba_marseille","lat":43.304278,"lon":5.388868,"is_reserved":false,"is_disabled":false,"rental_uris":{"android":"levelo://app?vid=bc312e84-8f22-4a2c-bf99-b1e1272342ec","ios":"levelo://app?vid=bc312e84-8f22-4a2c-bf99-b1e1272342ec"},"vehicle_type_id":"4","last_reported":1715465160,"current_range_meters":21600,"station_id":"ce4bgk12rcd13ifvqbi0","pricing_plan_id":"cebpf4jnsgd1na2vs0mg"},{"bike_id":"b46dd7a7-2d14-4fdd-83f8-a639c529f125","system_id":"levelo_inurba_marseille","lat":43.2979,"lon":5.38116,"is_reserved":false,"is_disabled":false,"rental_uris":{"android":"levelo://app?vid=b46dd7a7-2d14-4fdd-83f8-a639c529f125","ios":"levelo://app?vid=b46dd7a7-2d14-4fdd-83f8-a639c529f125"},"vehicle_type_id":"4","last_reported":1715465160,"current_range_meters":20000,"station_id":"ce4bgip2rcd13ifvqbb0","pricing_plan_id":"cebpf4jnsgd1na2vs0mg"},{"bike_id":"117158d2-eb9b-4ed6-b358-fb51e4800c33","system_id":"levelo_inurba_marseille","lat":43.296236,"lon":5.377141,"is_reserved":false,"is_disabled":false,"rental_uris":{"android":"levelo://app?vid=117158d2-eb9b-4ed6-b358-fb51e4800c33","ios":"levelo://app?vid=117158d2-eb9b-4ed6-b358-fb51e4800c33"},"vehicle_type_id":"4","last_reported":1715465160,"current_range_meters":31200,"station_id":"ce4bgi92rcd13ifvqb90","pricing_plan_id":"cebpf4jnsgd1na2vs0mg"},{"bike_id":"847ffd41-b33d-438c-8926-628255fb64f9","system_id":"levelo_inurba_marseille","lat":43.304278,"lon":5.388868,"is_reserved":false,"is_disabled":false,"rental_uris":{"android":"levelo://app?vid=847ffd41-b33d-438c-8926-628255fb64f9","ios":"levelo://app?vid=847ffd41-b33d-438c-8926-628255fb64f9"},"vehicle_type_id":"4","last_reported":1715465160,"current_range_meters":23200,"station_id":"ce4bgk12rcd13ifvqbi0","pricing_plan_id":"cebpf4jnsgd1na2vs0mg"},{"bike_id":"081ea22b-81ff-4ee8-86b1-6c67edcd8631","system_id":"levelo_inurba_marseille","lat":43.304278,"lon":5.388868,"is_reserved":false,"is_disabled":false,"rental_uris":{"android":"levelo://app?vid=081ea22b-81ff-4ee8-86b1-6c67edcd8631","ios":"levelo://app?vid=081ea22b-81ff-4ee8-86b1-6c67edcd8631"},"vehicle_type_id":"4","last_reported":1715465160,"current_range_meters":7200,"station_id":"ce4bgk12rcd13ifvqbi0","pricing_plan_id":"cebpf4jnsgd1na2vs0mg"},{"bike_id":"4b25df1e-6bab-45d2-a644-4b6fd4a38008","system_id":"levelo_inurba_marseille","lat":43.296277,"lon":5.377108,"is_reserved":false,"is_disabled":false,"rental_uris":{"android":"levelo://app?vid=4b25df1e-6bab-45d2-a644-4b6fd4a38008","ios":"levelo://app?vid=4b25df1e-6bab-45d2-a644-4b6fd4a38008"},"vehicle_type_id":"4","last_reported":1715465160,"current_range_meters":21200,"station_id":"ce4bgi92rcd13ifvqb90","pricing_plan_id":"cebpf4jnsgd1na2vs0mg"},{"bike_id":"fc0e221f-4170-49d3-bc3b-6fa2977fb149","system_id":"levelo_inurba_marseille","lat":43.29782,"lon":5.38104,"is_reserved":false,"is_disabled":false,"rental_uris":{"android":"levelo://app?vid=fc0e221f-4170-49d3-bc3b-6fa2977fb149","ios":"levelo://app?vid=fc0e221f-4170-49d3-bc3b-6fa2977fb149"},"vehicle_type_id":"4","last_reported":1715465160,"current_range_meters":19600,"station_id":"ce4bgip2rcd13ifvqbb0","pricing_plan_id":"cebpf4jnsgd1na2vs0mg"},{"bike_id":"734e5dce-25fb-4cd7-99df-6ef60802d202","system_id":"levelo_inurba_marseille","lat":43.296277,"lon":5.377108,"is_reserved":false,"is_disabled":false,"rental_uris":{"android":"levelo://app?vid=734e5dce-25fb-4cd7-99df-6ef60802d202","ios":"levelo://app?vid=734e5dce-25fb-4cd7-99df-6ef60802d202"},"vehicle_type_id":"4","last_reported":1715465160,"current_range_meters":6800,"station_id":"ce4bgi92rcd13ifvqb90","pricing_plan_id":"cebpf4jnsgd1na2vs0mg"},{"bike_id":"68f5a890-4c84-4811-a15a-c80320776e65","system_id":"levelo_inurba_marseille","lat":43.304278,"lon":5.388868,"is_reserved":false,"is_disabled":false,"rental_uris":{"android":"levelo://app?vid=68f5a890-4c84-4811-a15a-c80320776e65","ios":"levelo://app?vid=68f5a890-4c84-4811-a15a-c80320776e65"},"vehicle_type_id":"4","last_reported":1715465160,"current_range_meters":14800,"station_id":"ce4bgk12rcd13ifvqbi0","pricing_plan_id":"cebpf4jnsgd1na2vs0mg"},{"bike_id":"d565777b-11c9-4c8e-b8f1-676c76292ebe","system_id":"levelo_inurba_marseille","lat":43.296222,"lon":5.377232,"is_reserved":false,"is_disabled":false,"rental_uris":{"android":"levelo://app?vid=d565777b-11c9-4c8e-b8f1-676c76292ebe","ios":"levelo://app?vid=d565777b-11c9-4c8e-b8f1-676c76292ebe"},"vehicle_type_id":"4","last_reported":1715465160,"current_range_meters":31200,"station_id":"ce4bgi92rcd13ifvqb90","pricing_plan_id":"cebpf4jnsgd1na2vs0mg"},{"bike_id":"5bc35382-5339-4dfc-a4a3-04be1f91f65a","system_id":"levelo_inurba_marseille","lat":43.29621,"lon":5.37725,"is_reserved":false,"is_disabled":false,"rental_uris":{"android":"levelo://app?vid=5bc35382-5339-4dfc-a4a3-04be1f91f65a","ios":"levelo://app?vid=5bc35382-5339-4dfc-a4a3-04be1f91f65a"},"vehicle_type_id":"4","last_reported":1715465160,"current_range_meters":30400,"station_id":"ce4bgi92rcd13ifvqb90","pricing_plan_id":"cebpf4jnsgd1na2vs0mg"},{"bike_id":"7c134dc2-ec93-4f3c-b356-3bc0de528619","system_id":"levelo_inurba_marseille","lat":43.296277,"lon":5.377108,"is_reserved":false,"is_disabled":false,"rental_uris":{"android":"levelo://app?vid=7c134dc2-ec93-4f3c-b356-3bc0de528619","ios":"levelo://app?vid=7c134dc2-ec93-4f3c-b356-3bc0de528619"},"vehicle_type_id":"4","last_reported":1715465160,"current_range_meters":3200,"station_id":"ce4bgi92rcd13ifvqb90","pricing_plan_id":"cebpf4jnsgd1na2vs0mg"},{"bike_id":"ec9136a7-aea8-4586-824e-633d97f64ed9","system_id":"levelo_inurba_marseille","lat":43.296224,"lon":5.377372,"is_reserved":false,"is_disabled":false,"rental_uris":{"android":"levelo://app?vid=ec9136a7-aea8-4586-824e-633d97f64ed9","ios":"levelo://app?vid=ec9136a7-aea8-4586-824e-633d97f64ed9"},"vehicle_type_id":"4","last_reported":1715465160,"current_range_meters":31200,"station_id":"","pricing_plan_id":"cebpf4jnsgd1na2vs0mg"},{"bike_id":"64e79427-44f6-471a-80f7-8780ce9077c8","system_id":"levelo_inurba_marseille","lat":43.29614,"lon":5.37733,"is_reserved":false,"is_disabled":false,"rental_uris":{"android":"levelo://app?vid=64e79427-44f6-471a-80f7-8780ce9077c8","ios":"levelo://app?vid=64e79427-44f6-471a-80f7-8780ce9077c8"},"vehicle_type_id":"4","last_reported":1715465160,"current_range_meters":30400,"station_id":"ce4bgi92rcd13ifvqb90","pricing_plan_id":"cebpf4jnsgd1na2vs0mg"},{"bike_id":"d6266799-6336-4ee0-90dc-33a2620eed62","system_id":"levelo_inurba_marseille","lat":43.296114,"lon":5.37729,"is_reserved":false,"is_disabled":false,"rental_uris":{"android":"levelo://app?vid=d6266799-6336-4ee0-90dc-33a2620eed62","ios":"levelo://app?vid=d6266799-6336-4ee0-90dc-33a2620eed62"},"vehicle_type_id":"4","last_reported":1715465160,"current_range_meters":31200,"station_id":"ce4bgi92rcd13ifvqb90","pricing_plan_id":"cebpf4jnsgd1na2vs0mg"},{"bike_id":"38056fee-53e3-4666-aa61-dc385cfd9c09","system_id":"levelo_inurba_marseille","lat":43.29609,"lon":5.37723,"is_reserved":false,"is_disabled":false,"rental_uris":{"android":"levelo://app?vid=38056fee-53e3-4666-aa61-dc385cfd9c09","ios":"levelo://app?vid=38056fee-53e3-4666-aa61-dc385cfd9c09"},"vehicle_type_id":"4","last_reported":1715465160,"current_range_meters":29600,"station_id":"ce4bgi92rcd13ifvqb90","pricing_plan_id":"cebpf4jnsgd1na2vs0mg"},{"bike_id":"f579cca4-b094-4b88-85a0-e07fb55b060a","system_id":"levelo_inurba_marseille","lat":43.29603,"lon":5.37732,"is_reserved":false,"is_disabled":false,"rental_uris":{"android":"levelo://app?vid=f579cca4-b094-4b88-85a0-e07fb55b060a","ios":"levelo://app?vid=f579cca4-b094-4b88-85a0-e07fb55b060a"},"vehicle_type_id":"4","last_reported":1715465160,"current_range_meters":27600,"station_id":"ce4bgi92rcd13ifvqb90","pricing_plan_id":"cebpf4jnsgd1na2vs0mg"},{"bike_id":"d6b6009c-402a-4da9-8669-7c5a5a65ecc4","system_id":"levelo_inurba_marseille","lat":43.2998,"lon":5.38482,"is_reserved":false,"is_disabled":false,"rental_uris":{"android":"levelo://app?vid=d6b6009c-402a-4da9-8669-7c5a5a65ecc4","ios":"levelo://app?vid=d6b6009c-402a-4da9-8669-7c5a5a65ecc4"},"vehicle_type_id":"4","last_reported":1715465160,"current_range_meters":31200,"station_id":"ce4bgj92rcd13ifvqbd0","pricing_plan_id":"cebpf4jnsgd1na2vs0mg"},{"bike_id":"d547daa1-f510-4187-b84b-fd2897de8a11","system_id":"levelo_inurba_marseille","lat":43.299724,"lon":5.384848,"is_reserved":false,"is_disabled":false,"rental_uris":{"android":"levelo://app?vid=d547daa1-f510-4187-b84b-fd2897de8a11","ios":"levelo://app?vid=d547daa1-f510-4187-b84b-fd2897de8a11"},"vehicle_type_id":"4","last_reported":1715465160,"current_range_meters":4000,"station_id":"ce4bgj92rcd13ifvqbd0","pricing_plan_id":"cebpf4jnsgd1na2vs0mg"},{"bike_id":"e17e27d9-61d7-4524-a981-96dfb4d5ae3f","system_id":"levelo_inurba_marseille","lat":43.29977,"lon":5.38485,"is_reserved":false,"is_disabled":false,"rental_uris":{"android":"levelo://app?vid=e17e27d9-61d7-4524-a981-96dfb4d5ae3f","ios":"levelo://app?vid=e17e27d9-61d7-4524-a981-96dfb4d5ae3f"},"vehicle_type_id":"4","last_reported":1715465160,"current_range_meters":31200,"station_id":"ce4bgj92rcd13ifvqbd0","pricing_plan_id":"cebpf4jnsgd1na2vs0mg"},{"bike_id":"7f748e94-f9a1-4724-b1e1-840ec55f1ab5","system_id":"levelo_inurba_marseille","lat":43.29976,"lon":5.38488,"is_reserved":false,"is_disabled":false,"rental_uris":{"android":"levelo://app?vid=7f748e94-f9a1-4724-b1e1-840ec55f1ab5","ios":"levelo://app?vid=7f748e94-f9a1-4724-b1e1-840ec55f1ab5"},"vehicle_type_id":"4","last_reported":1715465160,"current_range_meters":31200,"station_id":"ce4bgj92rcd13ifvqbd0","pricing_plan_id":"cebpf4jnsgd1na2vs0mg"},{"bike_id":"6b230355-6e00-4bce-ba8e-922f76924a49","system_id":"levelo_inurba_marseille","lat":43.299717,"lon":5.384845,"is_reserved":false,"is_disabled":false,"rental_uris":{"android":"levelo://app?vid=6b230355-6e00-4bce-ba8e-922f76924a49","ios":"levelo://app?vid=6b230355-6e00-4bce-ba8e-922f76924a49"},"vehicle_type_id":"4","last_reported":1715465160,"current_range_meters":5600,"station_id":"ce4bgj92rcd13ifvqbd0","pricing_plan_id":"cebpf4jnsgd1na2vs0mg"},{"bike_id":"95d8a62c-08d4-4d1b-a4df-e45f08d16051","system_id":"levelo_inurba_marseille","lat":43.29975,"lon":5.38492,"is_reserved":false,"is_disabled":false,"rental_uris":{"android":"levelo://app?vid=95d8a62c-08d4-4d1b-a4df-e45f08d16051","ios":"levelo://app?vid=95d8a62c-08d4-4d1b-a4df-e45f08d16051"},"vehicle_type_id":"4","last_reported":1715465160,"current_range_meters":11200,"station_id":"ce4bgj92rcd13ifvqbd0","pricing_plan_id":"cebpf4jnsgd1na2vs0mg"},{"bike_id":"5d4134a1-8334-42b2-9343-35bfb8982321","system_id":"levelo_inurba_marseille","lat":43.29971,"lon":5.38489,"is_reserved":false,"is_disabled":false,"rental_uris":{"android":"levelo://app?vid=5d4134a1-8334-42b2-9343-35bfb8982321","ios":"levelo://app?vid=5d4134a1-8334-42b2-9343-35bfb8982321"},"vehicle_type_id":"4","last_reported":1715465160,"current_range_meters":400,"station_id":"ce4bgj92rcd13ifvqbd0","pricing_plan_id":"cebpf4jnsgd1na2vs0mg"},{"bike_id":"96ab395d-4566-40de-ba7c-322745a1a648","system_id":"levelo_inurba_marseille","lat":43.29971,"lon":5.38489,"is_reserved":false,"is_disabled":false,"rental_uris":{"android":"levelo://app?vid=96ab395d-4566-40de-ba7c-322745a1a648","ios":"levelo://app?vid=96ab395d-4566-40de-ba7c-322745a1a648"},"vehicle_type_id":"4","last_reported":1715465160,"current_range_meters":29600,"station_id":"ce4bgj92rcd13ifvqbd0","pricing_plan_id":"cebpf4jnsgd1na2vs0mg"},{"bike_id":"fd722814-1804-4198-96ce-ce9be86971f2","system_id":"levelo_inurba_marseille","lat":43.299707,"lon":5.384859,"is_reserved":false,"is_disabled":false,"rental_uris":{"android":"levelo://app?vid=fd722814-1804-4198-96ce-ce9be86971f2","ios":"levelo://app?vid=fd722814-1804-4198-96ce-ce9be86971f2"},"vehicle_type_id":"4","last_reported":1715465160,"current_range_meters":8400,"station_id":"ce4bgj92rcd13ifvqbd0","pricing_plan_id":"cebpf4jnsgd1na2vs0mg"},{"bike_id":"6eade27a-763d-4f00-b865-03f835783ec3","system_id":"levelo_inurba_marseille","lat":43.29969,"lon":5.3849,"is_reserved":false,"is_disabled":false,"rental_uris":{"android":"levelo://app?vid=6eade27a-763d-4f00-b865-03f835783ec3","ios":"levelo://app?vid=6eade27a-763d-4f00-b865-03f835783ec3"},"vehicle_type_id":"4","last_reported":1715465160,"current_range_meters":20400,"station_id":"ce4bgj92rcd13ifvqbd0","pricing_plan_id":"cebpf4jnsgd1na2vs0mg"},{"bike_id":"270a7ebd-7534-4e2d-958d-bb595c18b704","system_id":"levelo_inurba_marseille","lat":43.29968,"lon":5.38491,"is_reserved":false,"is_disabled":false,"rental_uris":{"android":"levelo://app?vid=270a7ebd-7534-4e2d-958d-bb595c18b704","ios":"levelo://app?vid=270a7ebd-7534-4e2d-958d-bb595c18b704"},"vehicle_type_id":"4","last_reported":1715465160,"current_range_meters":28400,"station_id":"ce4bgj92rcd13ifvqbd0","pricing_plan_id":"cebpf4jnsgd1na2vs0mg"},{"bike_id":"f174ddaf-6afa-4945-8687-83071e60dec5","system_id":"levelo_inurba_marseille","lat":43.299717,"lon":5.384845,"is_reserved":false,"is_disabled":false,"rental_uris":{"android":"levelo://app?vid=f174ddaf-6afa-4945-8687-83071e60dec5","ios":"levelo://app?vid=f174ddaf-6afa-4945-8687-83071e60dec5"},"vehicle_type_id":"4","last_reported":1715465160,"current_range_meters":6400,"station_id":"ce4bgj92rcd13ifvqbd0","pricing_plan_id":"cebpf4jnsgd1na2vs0mg"},{"bike_id":"37adfbea-6128-4d80-b579-4e04fd293e44","system_id":"levelo_inurba_marseille","lat":43.295279,"lon":5.375048,"is_reserved":false,"is_disabled":false,"rental_uris":{"android":"levelo://app?vid=37adfbea-6128-4d80-b579-4e04fd293e44","ios":"levelo://app?vid=37adfbea-6128-4d80-b579-4e04fd293e44"},"vehicle_type_id":"4","last_reported":1715465160,"current_range_meters":19200,"station_id":"ce4bgkp2rcd13ifvqbmg","pricing_plan_id":"cebpf4jnsgd1na2vs0mg"},{"bike_id":"02e7c436-e582-46e3-a7e8-fc69d1750ece","system_id":"levelo_inurba_marseille","lat":43.299724,"lon":5.384848,"is_reserved":false,"is_disabled":false,"rental_uris":{"android":"levelo://app?vid=02e7c436-e582-46e3-a7e8-fc69d1750ece","ios":"levelo://app?vid=02e7c436-e582-46e3-a7e8-fc69d1750ece"},"vehicle_type_id":"4","last_reported":1715465160,"current_range_meters":30400,"station_id":"ce4bgj92rcd13ifvqbd0","pricing_plan_id":"cebpf4jnsgd1na2vs0mg"},{"bike_id":"9941d827-cfcb-43e4-b725-2cfc2bcd899a","system_id":"levelo_inurba_marseille","lat":43.299717,"lon":5.384845,"is_reserved":false,"is_disabled":false,"rental_uris":{"android":"levelo://app?vid=9941d827-cfcb-43e4-b725-2cfc2bcd899a","ios":"levelo://app?vid=9941d827-cfcb-43e4-b725-2cfc2bcd899a"},"vehicle_type_id":"4","last_reported":1715465160,"current_range_meters":5200,"station_id":"ce4bgj92rcd13ifvqbd0","pricing_plan_id":"cebpf4jnsgd1na2vs0mg"},{"bike_id":"18b705b4-e740-4c7a-9868-e22b2acf9e9b","system_id":"levelo_inurba_marseille","lat":43.299724,"lon":5.384848,"is_reserved":false,"is_disabled":false,"rental_uris":{"android":"levelo://app?vid=18b705b4-e740-4c7a-9868-e22b2acf9e9b","ios":"levelo://app?vid=18b705b4-e740-4c7a-9868-e22b2acf9e9b"},"vehicle_type_id":"4","last_reported":1715465160,"current_range_meters":8400,"station_id":"ce4bgj92rcd13ifvqbd0","pricing_plan_id":"cebpf4jnsgd1na2vs0mg"},{"bike_id":"fb898be3-ec57-4138-90c1-9d32451f6b46","system_id":"levelo_inurba_marseille","lat":43.2951,"lon":5.37502,"is_reserved":false,"is_disabled":false,"rental_uris":{"android":"levelo://app?vid=fb898be3-ec57-4138-90c1-9d32451f6b46","ios":"levelo://app?vid=fb898be3-ec57-4138-90c1-9d32451f6b46"},"vehicle_type_id":"4","last_reported":1715465160,"current_range_meters":0,"station_id":"ce4bgkp2rcd13ifvqbmg","pricing_plan_id":"cebpf4jnsgd1na2vs0mg"},{"bike_id":"daea4f0b-c564-46fd-8cac-acc3bab5e006","system_id":"levelo_inurba_marseille","lat":43.299051,"lon":5.384819,"is_reserved":false,"is_disabled":false,"rental_uris":{"android":"levelo://app?vid=daea4f0b-c564-46fd-8cac-acc3bab5e006","ios":"levelo://app?vid=daea4f0b-c564-46fd-8cac-acc3bab5e006"},"vehicle_type_id":"4","last_reported":1715465160,"current_range_meters":0,"station_id":"","pricing_plan_id":"cebpf4jnsgd1na2vs0mg"},{"bike_id":"3512b53f-9906-4c3e-8801-a85814bc0d02","system_id":"levelo_inurba_marseille","lat":43.32372,"lon":5.38874,"is_reserved":false,"is_disabled":false,"rental_uris":{"android":"levelo://app?vid=3512b53f-9906-4c3e-8801-a85814bc0d02","ios":"levelo://app?vid=3512b53f-9906-4c3e-8801-a85814bc0d02"},"vehicle_type_id":"4","last_reported":1715465160,"current_range_meters":4800,"station_id":"ce4bhqp2rcd13ifvqhog","pricing_plan_id":"cebpf4jnsgd1na2vs0mg"},{"bike_id":"83cb1ab1-ec7f-488f-97dd-7a4be64c170c","system_id":"levelo_inurba_marseille","lat":43.32365,"lon":5.38881,"is_reserved":false,"is_disabled":false,"rental_uris":{"android":"levelo://app?vid=83cb1ab1-ec7f-488f-97dd-7a4be64c170c","ios":"levelo://app?vid=83cb1ab1-ec7f-488f-97dd-7a4be64c170c"},"vehicle_type_id":"4","last_reported":1715465160,"current_range_meters":16800,"station_id":"ce4bhqp2rcd13ifvqhog","pricing_plan_id":"cebpf4jnsgd1na2vs0mg"},{"bike_id":"59f7ed56-efa1-4a89-b479-251d4588ad8a","system_id":"levelo_inurba_marseille","lat":43.32366,"lon":5.38882,"is_reserved":false,"is_disabled":false,"rental_uris":{"android":"levelo://app?vid=59f7ed56-efa1-4a89-b479-251d4588ad8a","ios":"levelo://app?vid=59f7ed56-efa1-4a89-b479-251d4588ad8a"},"vehicle_type_id":"4","last_reported":1715465160,"current_range_meters":14000,"station_id":"ce4bhqp2rcd13ifvqhog","pricing_plan_id":"cebpf4jnsgd1na2vs0mg"},{"bike_id":"81efba0e-12fe-4fa0-a4ae-da8c5b033846","system_id":"levelo_inurba_marseille","lat":43.32369,"lon":5.3888,"is_reserved":false,"is_disabled":false,"rental_uris":{"android":"levelo://app?vid=81efba0e-12fe-4fa0-a4ae-da8c5b033846","ios":"levelo://app?vid=81efba0e-12fe-4fa0-a4ae-da8c5b033846"},"vehicle_type_id":"4","last_reported":1715465160,"current_range_meters":9200,"station_id":"ce4bhqp2rcd13ifvqhog","pricing_plan_id":"cebpf4jnsgd1na2vs0mg"},{"bike_id":"62d89777-5e88-42c4-9b78-e3aaa49751a4","system_id":"levelo_inurba_marseille","lat":43.32368,"lon":5.38881,"is_reserved":false,"is_disabled":false,"rental_uris":{"android":"levelo://app?vid=62d89777-5e88-42c4-9b78-e3aaa49751a4","ios":"levelo://app?vid=62d89777-5e88-42c4-9b78-e3aaa49751a4"},"vehicle_type_id":"4","last_reported":1715465160,"current_range_meters":1200,"station_id":"ce4bhqp2rcd13ifvqhog","pricing_plan_id":"cebpf4jnsgd1na2vs0mg"},{"bike_id":"b7a8912c-8a7d-4e12-9580-854fcaddddcb","system_id":"levelo_inurba_marseille","lat":43.32366,"lon":5.38883,"is_reserved":false,"is_disabled":false,"rental_uris":{"android":"levelo://app?vid=b7a8912c-8a7d-4e12-9580-854fcaddddcb","ios":"levelo://app?vid=b7a8912c-8a7d-4e12-9580-854fcaddddcb"},"vehicle_type_id":"4","last_reported":1715465160,"current_range_meters":6800,"station_id":"ce4bhqp2rcd13ifvqhog","pricing_plan_id":"cebpf4jnsgd1na2vs0mg"},{"bike_id":"53f4033f-b9cb-412c-b6b0-275f1c656d8f","system_id":"levelo_inurba_marseille","lat":43.32367,"lon":5.38886,"is_reserved":false,"is_disabled":false,"rental_uris":{"android":"levelo://app?vid=53f4033f-b9cb-412c-b6b0-275f1c656d8f","ios":"levelo://app?vid=53f4033f-b9cb-412c-b6b0-275f1c656d8f"},"vehicle_type_id":"4","last_reported":1715465160,"current_range_meters":0,"station_id":"ce4bhqp2rcd13ifvqhog","pricing_plan_id":"cebpf4jnsgd1na2vs0mg"},{"bike_id":"730bb873-a3bc-4693-9665-5ffcca74c19b","system_id":"levelo_inurba_marseille","lat":43.29607,"lon":5.38094,"is_reserved":false,"is_disabled":false,"rental_uris":{"android":"levelo://app?vid=730bb873-a3bc-4693-9665-5ffcca74c19b","ios":"levelo://app?vid=730bb873-a3bc-4693-9665-5ffcca74c19b"},"vehicle_type_id":"4","last_reported":1715465160,"current_range_meters":0,"station_id":"ce4bgl12rcd13ifvqbo0","pricing_plan_id":"cebpf4jnsgd1na2vs0mg"},{"bike_id":"45082d2b-e532-426b-97ee-daf61b7ab1ff","system_id":"levelo_inurba_marseille","lat":43.29602,"lon":5.381084,"is_reserved":false,"is_disabled":false,"rental_uris":{"android":"levelo://app?vid=45082d2b-e532-426b-97ee-daf61b7ab1ff","ios":"levelo://app?vid=45082d2b-e532-426b-97ee-daf61b7ab1ff"},"vehicle_type_id":"4","last_reported":1715465160,"current_range_meters":0,"station_id":"ce4bgl12rcd13ifvqbo0","pricing_plan_id":"cebpf4jnsgd1na2vs0mg"},{"bike_id":"83d7e098-8f60-4537-8920-d2e4b0f5e2d1","system_id":"levelo_inurba_marseille","lat":43.29605,"lon":5.38091,"is_reserved":false,"is_disabled":false,"rental_uris":{"android":"levelo://app?vid=83d7e098-8f60-4537-8920-d2e4b0f5e2d1","ios":"levelo://app?vid=83d7e098-8f60-4537-8920-d2e4b0f5e2d1"},"vehicle_type_id":"4","last_reported":1715465160,"current_range_meters":2800,"station_id":"ce4bgl12rcd13ifvqbo0","pricing_plan_id":"cebpf4jnsgd1na2vs0mg"},{"bike_id":"f6cfe7cb-f254-48b2-9dae-f8d0e2af11c9","system_id":"levelo_inurba_marseille","lat":43.29602,"lon":5.381084,"is_reserved":false,"is_disabled":false,"rental_uris":{"android":"levelo://app?vid=f6cfe7cb-f254-48b2-9dae-f8d0e2af11c9","ios":"levelo://app?vid=f6cfe7cb-f254-48b2-9dae-f8d0e2af11c9"},"vehicle_type_id":"4","last_reported":1715465160,"current_range_meters":4000,"station_id":"ce4bgl12rcd13ifvqbo0","pricing_plan_id":"cebpf4jnsgd1na2vs0mg"},{"bike_id":"84b35357-ef20-478d-9c0e-185ec9dc6d25","system_id":"levelo_inurba_marseille","lat":43.29598,"lon":5.38091,"is_reserved":false,"is_disabled":false,"rental_uris":{"android":"levelo://app?vid=84b35357-ef20-478d-9c0e-185ec9dc6d25","ios":"levelo://app?vid=84b35357-ef20-478d-9c0e-185ec9dc6d25"},"vehicle_type_id":"4","last_reported":1715465160,"current_range_meters":4400,"station_id":"ce4bgl12rcd13ifvqbo0","pricing_plan_id":"cebpf4jnsgd1na2vs0mg"},{"bike_id":"89eaeaa6-bf3b-4581-a1cc-6797819dc791","system_id":"levelo_inurba_marseille","lat":43.29598,"lon":5.38092,"is_reserved":false,"is_disabled":false,"rental_uris":{"android":"levelo://app?vid=89eaeaa6-bf3b-4581-a1cc-6797819dc791","ios":"levelo://app?vid=89eaeaa6-bf3b-4581-a1cc-6797819dc791"},"vehicle_type_id":"4","last_reported":1715465160,"current_range_meters":24800,"station_id":"ce4bgl12rcd13ifvqbo0","pricing_plan_id":"cebpf4jnsgd1na2vs0mg"},{"bike_id":"acecbad5-c116-4b34-8cc6-d9a2a944ef66","system_id":"levelo_inurba_marseille","lat":43.29602,"lon":5.381084,"is_reserved":false,"is_disabled":false,"rental_uris":{"android":"levelo://app?vid=acecbad5-c116-4b34-8cc6-d9a2a944ef66","ios":"levelo://app?vid=acecbad5-c116-4b34-8cc6-d9a2a944ef66"},"vehicle_type_id":"4","last_reported":1715465160,"current_range_meters":3200,"station_id":"ce4bgl12rcd13ifvqbo0","pricing_plan_id":"cebpf4jnsgd1na2vs0mg"},{"bike_id":"12f28360-0993-4b5b-956c-f9f9dbdc413f","system_id":"levelo_inurba_marseille","lat":43.29598,"lon":5.38095,"is_reserved":false,"is_disabled":false,"rental_uris":{"android":"levelo://app?vid=12f28360-0993-4b5b-956c-f9f9dbdc413f","ios":"levelo://app?vid=12f28360-0993-4b5b-956c-f9f9dbdc413f"},"vehicle_type_id":"4","last_reported":1715465160,"current_range_meters":0,"station_id":"ce4bgl12rcd13ifvqbo0","pricing_plan_id":"cebpf4jnsgd1na2vs0mg"},{"bike_id":"6332f1c8-4c8e-4147-baf5-80057df70d11","system_id":"levelo_inurba_marseille","lat":43.29602,"lon":5.381084,"is_reserved":false,"is_disabled":false,"rental_uris":{"android":"levelo://app?vid=6332f1c8-4c8e-4147-baf5-80057df70d11","ios":"levelo://app?vid=6332f1c8-4c8e-4147-baf5-80057df70d11"},"vehicle_type_id":"4","last_reported":1715465160,"current_range_meters":3600,"station_id":"ce4bgl12rcd13ifvqbo0","pricing_plan_id":"cebpf4jnsgd1na2vs0mg"},{"bike_id":"d0ddbb0a-9dbe-4059-99e0-309d3facdd52","system_id":"levelo_inurba_marseille","lat":43.29592,"lon":5.38087,"is_reserved":false,"is_disabled":false,"rental_uris":{"android":"levelo://app?vid=d0ddbb0a-9dbe-4059-99e0-309d3facdd52","ios":"levelo://app?vid=d0ddbb0a-9dbe-4059-99e0-309d3facdd52"},"vehicle_type_id":"4","last_reported":1715465160,"current_range_meters":0,"station_id":"ce4bgl12rcd13ifvqbo0","pricing_plan_id":"cebpf4jnsgd1na2vs0mg"},{"bike_id":"75c4ffc4-0ef8-405d-bfb5-dc4dec5339cc","system_id":"levelo_inurba_marseille","lat":43.29602,"lon":5.381084,"is_reserved":false,"is_disabled":false,"rental_uris":{"android":"levelo://app?vid=75c4ffc4-0ef8-405d-bfb5-dc4dec5339cc","ios":"levelo://app?vid=75c4ffc4-0ef8-405d-bfb5-dc4dec5339cc"},"vehicle_type_id":"4","last_reported":1715465160,"current_range_meters":27200,"station_id":"ce4bgl12rcd13ifvqbo0","pricing_plan_id":"cebpf4jnsgd1na2vs0mg"},{"bike_id":"8199ee93-a28e-400b-aee9-e3fce21bd8dd","system_id":"levelo_inurba_marseille","lat":43.292749,"lon":5.368402,"is_reserved":false,"is_disabled":false,"rental_uris":{"android":"levelo://app?vid=8199ee93-a28e-400b-aee9-e3fce21bd8dd","ios":"levelo://app?vid=8199ee93-a28e-400b-aee9-e3fce21bd8dd"},"vehicle_type_id":"4","last_reported":1715465160,"current_range_meters":800,"station_id":"ce4bhbp2rcd13ifvqesg","pricing_plan_id":"cebpf4jnsgd1na2vs0mg"},{"bike_id":"4db2fb7b-c27b-41fc-b572-5d6ca4258101","system_id":"levelo_inurba_marseille","lat":43.293259,"lon":5.371586,"is_reserved":false,"is_disabled":false,"rental_uris":{"android":"levelo://app?vid=4db2fb7b-c27b-41fc-b572-5d6ca4258101","ios":"levelo://app?vid=4db2fb7b-c27b-41fc-b572-5d6ca4258101"},"vehicle_type_id":"4","last_reported":1715465160,"current_range_meters":9600,"station_id":"ce4bgh92rcd13ifvqb40","pricing_plan_id":"cebpf4jnsgd1na2vs0mg"},{"bike_id":"9467f9e2-b080-40b7-95c7-56e6524a0f1b","system_id":"levelo_inurba_marseille","lat":43.292749,"lon":5.368402,"is_reserved":false,"is_disabled":false,"rental_uris":{"android":"levelo://app?vid=9467f9e2-b080-40b7-95c7-56e6524a0f1b","ios":"levelo://app?vid=9467f9e2-b080-40b7-95c7-56e6524a0f1b"},"vehicle_type_id":"4","last_reported":1715465160,"current_range_meters":19200,"station_id":"ce4bhbp2rcd13ifvqesg","pricing_plan_id":"cebpf4jnsgd1na2vs0mg"},{"bike_id":"8807b0dc-ee86-4cb1-bd33-5d8de370838d","system_id":"levelo_inurba_marseille","lat":43.29308,"lon":5.37183,"is_reserved":false,"is_disabled":false,"rental_uris":{"android":"levelo://app?vid=8807b0dc-ee86-4cb1-bd33-5d8de370838d","ios":"levelo://app?vid=8807b0dc-ee86-4cb1-bd33-5d8de370838d"},"vehicle_type_id":"4","last_reported":1715465160,"current_range_meters":0,"station_id":"ce4bgh92rcd13ifvqb40","pricing_plan_id":"cebpf4jnsgd1na2vs0mg"},{"bike_id":"a36408e1-8ece-4e79-b515-12aeeac2d13b","system_id":"levelo_inurba_marseille","lat":43.293259,"lon":5.371586,"is_reserved":false,"is_disabled":false,"rental_uris":{"android":"levelo://app?vid=a36408e1-8ece-4e79-b515-12aeeac2d13b","ios":"levelo://app?vid=a36408e1-8ece-4e79-b515-12aeeac2d13b"},"vehicle_type_id":"4","last_reported":1715465160,"current_range_meters":15600,"station_id":"ce4bgh92rcd13ifvqb40","pricing_plan_id":"cebpf4jnsgd1na2vs0mg"},{"bike_id":"ace5f1ba-d409-47f8-8f94-137520b885a6","system_id":"levelo_inurba_marseille","lat":43.292749,"lon":5.368402,"is_reserved":false,"is_disabled":false,"rental_uris":{"android":"levelo://app?vid=ace5f1ba-d409-47f8-8f94-137520b885a6","ios":"levelo://app?vid=ace5f1ba-d409-47f8-8f94-137520b885a6"},"vehicle_type_id":"4","last_reported":1715465160,"current_range_meters":0,"station_id":"ce4bhbp2rcd13ifvqesg","pricing_plan_id":"cebpf4jnsgd1na2vs0mg"},{"bike_id":"d83159b2-d6bb-43a2-a7df-0790efb56469","system_id":"levelo_inurba_marseille","lat":43.29319,"lon":5.37441,"is_reserved":false,"is_disabled":false,"rental_uris":{"android":"levelo://app?vid=d83159b2-d6bb-43a2-a7df-0790efb56469","ios":"levelo://app?vid=d83159b2-d6bb-43a2-a7df-0790efb56469"},"vehicle_type_id":"4","last_reported":1715465160,"current_range_meters":25200,"station_id":"ce4bgi12rcd13ifvqb70","pricing_plan_id":"cebpf4jnsgd1na2vs0mg"},{"bike_id":"0427881a-3f91-4083-8014-f1f2ca5778ae","system_id":"levelo_inurba_marseille","lat":43.29302,"lon":5.37457,"is_reserved":false,"is_disabled":false,"rental_uris":{"android":"levelo://app?vid=0427881a-3f91-4083-8014-f1f2ca5778ae","ios":"levelo://app?vid=0427881a-3f91-4083-8014-f1f2ca5778ae"},"vehicle_type_id":"4","last_reported":1715465160,"current_range_meters":0,"station_id":"ce4bgi12rcd13ifvqb70","pricing_plan_id":"cebpf4jnsgd1na2vs0mg"},{"bike_id":"2af4424c-fd65-4ff0-9cf6-31460101abf4","system_id":"levelo_inurba_marseille","lat":43.30601,"lon":5.393563,"is_reserved":false,"is_disabled":false,"rental_uris":{"android":"levelo://app?vid=2af4424c-fd65-4ff0-9cf6-31460101abf4","ios":"levelo://app?vid=2af4424c-fd65-4ff0-9cf6-31460101abf4"},"vehicle_type_id":"4","last_reported":1715465160,"current_range_meters":8400,"station_id":"ce4bh0p2rcd13ifvqd80","pricing_plan_id":"cebpf4jnsgd1na2vs0mg"},{"bike_id":"56c6b93e-428a-406c-abce-16e7bdd6bf1c","system_id":"levelo_inurba_marseille","lat":43.305994,"lon":5.393687,"is_reserved":false,"is_disabled":false,"rental_uris":{"android":"levelo://app?vid=56c6b93e-428a-406c-abce-16e7bdd6bf1c","ios":"levelo://app?vid=56c6b93e-428a-406c-abce-16e7bdd6bf1c"},"vehicle_type_id":"4","last_reported":1715465160,"current_range_meters":4800,"station_id":"ce4bh0p2rcd13ifvqd80","pricing_plan_id":"cebpf4jnsgd1na2vs0mg"},{"bike_id":"ab03bcb5-9633-4828-b9bf-0ca2a813ea59","system_id":"levelo_inurba_marseille","lat":43.303002,"lon":5.392142,"is_reserved":false,"is_disabled":false,"rental_uris":{"android":"levelo://app?vid=ab03bcb5-9633-4828-b9bf-0ca2a813ea59","ios":"levelo://app?vid=ab03bcb5-9633-4828-b9bf-0ca2a813ea59"},"vehicle_type_id":"4","last_reported":1715465160,"current_range_meters":800,"station_id":"ce4bgkh2rcd13ifvqbk0","pricing_plan_id":"cebpf4jnsgd1na2vs0mg"},{"bike_id":"85150ce0-21d9-4e42-9ebf-a3c085dd4559","system_id":"levelo_inurba_marseille","lat":43.29289,"lon":5.37438,"is_reserved":false,"is_disabled":false,"rental_uris":{"android":"levelo://app?vid=85150ce0-21d9-4e42-9ebf-a3c085dd4559","ios":"levelo://app?vid=85150ce0-21d9-4e42-9ebf-a3c085dd4559"},"vehicle_type_id":"4","last_reported":1715465160,"current_range_meters":1600,"station_id":"ce4bgi12rcd13ifvqb70","pricing_plan_id":"cebpf4jnsgd1na2vs0mg"},{"bike_id":"372f5a94-93ff-4042-8655-2526339459ec","system_id":"levelo_inurba_marseille","lat":43.30305,"lon":5.39203,"is_reserved":false,"is_disabled":false,"rental_uris":{"android":"levelo://app?vid=372f5a94-93ff-4042-8655-2526339459ec","ios":"levelo://app?vid=372f5a94-93ff-4042-8655-2526339459ec"},"vehicle_type_id":"4","last_reported":1715465160,"current_range_meters":0,"station_id":"ce4bgkh2rcd13ifvqbk0","pricing_plan_id":"cebpf4jnsgd1na2vs0mg"},{"bike_id":"bbb7d549-09a2-440d-b302-659225036dfd","system_id":"levelo_inurba_marseille","lat":43.2936,"lon":5.37835,"is_reserved":false,"is_disabled":false,"rental_uris":{"android":"levelo://app?vid=bbb7d549-09a2-440d-b302-659225036dfd","ios":"levelo://app?vid=bbb7d549-09a2-440d-b302-659225036dfd"},"vehicle_type_id":"4","last_reported":1715465160,"current_range_meters":19600,"station_id":"ce4bgjh2rcd13ifvqbf0","pricing_plan_id":"cebpf4jnsgd1na2vs0mg"},{"bike_id":"f3f7b03b-40bb-4f83-9a47-cde57329742b","system_id":"levelo_inurba_marseille","lat":43.302987,"lon":5.39202,"is_reserved":false,"is_disabled":false,"rental_uris":{"android":"levelo://app?vid=f3f7b03b-40bb-4f83-9a47-cde57329742b","ios":"levelo://app?vid=f3f7b03b-40bb-4f83-9a47-cde57329742b"},"vehicle_type_id":"4","last_reported":1715465160,"current_range_meters":0,"station_id":"ce4bgkh2rcd13ifvqbk0","pricing_plan_id":"cebpf4jnsgd1na2vs0mg"},{"bike_id":"55e71824-3fe3-4a83-93c9-e20f1887bf0b","system_id":"levelo_inurba_marseille","lat":43.303,"lon":5.39203,"is_reserved":false,"is_disabled":false,"rental_uris":{"android":"levelo://app?vid=55e71824-3fe3-4a83-93c9-e20f1887bf0b","ios":"levelo://app?vid=55e71824-3fe3-4a83-93c9-e20f1887bf0b"},"vehicle_type_id":"4","last_reported":1715465160,"current_range_meters":6000,"station_id":"ce4bgkh2rcd13ifvqbk0","pricing_plan_id":"cebpf4jnsgd1na2vs0mg"},{"bike_id":"75c60b03-f942-4a59-b374-dce630dd76e5","system_id":"levelo_inurba_marseille","lat":43.303002,"lon":5.392142,"is_reserved":false,"is_disabled":false,"rental_uris":{"android":"levelo://app?vid=75c60b03-f942-4a59-b374-dce630dd76e5","ios":"levelo://app?vid=75c60b03-f942-4a59-b374-dce630dd76e5"},"vehicle_type_id":"4","last_reported":1715465160,"current_range_meters":26400,"station_id":"ce4bgkh2rcd13ifvqbk0","pricing_plan_id":"cebpf4jnsgd1na2vs0mg"},{"bike_id":"ec821044-58a2-4082-942a-518b1ab60297","system_id":"levelo_inurba_marseille","lat":43.2936,"lon":5.37835,"is_reserved":false,"is_disabled":false,"rental_uris":{"android":"levelo://app?vid=ec821044-58a2-4082-942a-518b1ab60297","ios":"levelo://app?vid=ec821044-58a2-4082-942a-518b1ab60297"},"vehicle_type_id":"4","last_reported":1715465160,"current_range_meters":16000,"station_id":"ce4bgjh2rcd13ifvqbf0","pricing_plan_id":"cebpf4jnsgd1na2vs0mg"},{"bike_id":"7a2ff73b-fdb8-4f31-b199-2786ca049ed3","system_id":"levelo_inurba_marseille","lat":43.2936,"lon":5.37835,"is_reserved":false,"is_disabled":false,"rental_uris":{"android":"levelo://app?vid=7a2ff73b-fdb8-4f31-b199-2786ca049ed3","ios":"levelo://app?vid=7a2ff73b-fdb8-4f31-b199-2786ca049ed3"},"vehicle_type_id":"4","last_reported":1715465160,"current_range_meters":16800,"station_id":"ce4bgjh2rcd13ifvqbf0","pricing_plan_id":"cebpf4jnsgd1na2vs0mg"},{"bike_id":"049f36af-44b4-4900-a8ee-9186f8086b04","system_id":"levelo_inurba_marseille","lat":43.2936,"lon":5.37835,"is_reserved":false,"is_disabled":false,"rental_uris":{"android":"levelo://app?vid=049f36af-44b4-4900-a8ee-9186f8086b04","ios":"levelo://app?vid=049f36af-44b4-4900-a8ee-9186f8086b04"},"vehicle_type_id":"4","last_reported":1715465160,"current_range_meters":18000,"station_id":"ce4bgjh2rcd13ifvqbf0","pricing_plan_id":"cebpf4jnsgd1na2vs0mg"},{"bike_id":"be5ef0d5-9a6d-4dff-a781-961eb6489d1a","system_id":"levelo_inurba_marseille","lat":43.302992,"lon":5.392136,"is_reserved":false,"is_disabled":false,"rental_uris":{"android":"levelo://app?vid=be5ef0d5-9a6d-4dff-a781-961eb6489d1a","ios":"levelo://app?vid=be5ef0d5-9a6d-4dff-a781-961eb6489d1a"},"vehicle_type_id":"4","last_reported":1715465160,"current_range_meters":14400,"station_id":"ce4bgkh2rcd13ifvqbk0","pricing_plan_id":"cebpf4jnsgd1na2vs0mg"},{"bike_id":"3a6b8a46-784d-4d03-b44e-f684f66c229a","system_id":"levelo_inurba_marseille","lat":43.303002,"lon":5.392142,"is_reserved":false,"is_disabled":false,"rental_uris":{"android":"levelo://app?vid=3a6b8a46-784d-4d03-b44e-f684f66c229a","ios":"levelo://app?vid=3a6b8a46-784d-4d03-b44e-f684f66c229a"},"vehicle_type_id":"4","last_reported":1715465160,"current_range_meters":11600,"station_id":"ce4bgkh2rcd13ifvqbk0","pricing_plan_id":"cebpf4jnsgd1na2vs0mg"},{"bike_id":"b6538cb7-c30a-44f5-a669-0faf7240a998","system_id":"levelo_inurba_marseille","lat":43.2936,"lon":5.37835,"is_reserved":false,"is_disabled":false,"rental_uris":{"android":"levelo://app?vid=b6538cb7-c30a-44f5-a669-0faf7240a998","ios":"levelo://app?vid=b6538cb7-c30a-44f5-a669-0faf7240a998"},"vehicle_type_id":"4","last_reported":1715465160,"current_range_meters":14800,"station_id":"ce4bgjh2rcd13ifvqbf0","pricing_plan_id":"cebpf4jnsgd1na2vs0mg"},{"bike_id":"ac9fb051-a99a-490c-9f63-bfe10e92dcaa","system_id":"levelo_inurba_marseille","lat":43.2936,"lon":5.37835,"is_reserved":false,"is_disabled":false,"rental_uris":{"android":"levelo://app?vid=ac9fb051-a99a-490c-9f63-bfe10e92dcaa","ios":"levelo://app?vid=ac9fb051-a99a-490c-9f63-bfe10e92dcaa"},"vehicle_type_id":"4","last_reported":1715465160,"current_range_meters":15200,"station_id":"ce4bgjh2rcd13ifvqbf0","pricing_plan_id":"cebpf4jnsgd1na2vs0mg"},{"bike_id":"ec21294e-b3fc-4f0f-a744-a8e7f85594ae","system_id":"levelo_inurba_marseille","lat":43.2936,"lon":5.37835,"is_reserved":false,"is_disabled":false,"rental_uris":{"android":"levelo://app?vid=ec21294e-b3fc-4f0f-a744-a8e7f85594ae","ios":"levelo://app?vid=ec21294e-b3fc-4f0f-a744-a8e7f85594ae"},"vehicle_type_id":"4","last_reported":1715465160,"current_range_meters":24400,"station_id":"ce4bgjh2rcd13ifvqbf0","pricing_plan_id":"cebpf4jnsgd1na2vs0mg"},{"bike_id":"483f9f08-2244-424c-9540-5c5111bc2c73","system_id":"levelo_inurba_marseille","lat":43.29366,"lon":5.3785,"is_reserved":false,"is_disabled":false,"rental_uris":{"android":"levelo://app?vid=483f9f08-2244-424c-9540-5c5111bc2c73","ios":"levelo://app?vid=483f9f08-2244-424c-9540-5c5111bc2c73"},"vehicle_type_id":"4","last_reported":1715465160,"current_range_meters":12800,"station_id":"","pricing_plan_id":"cebpf4jnsgd1na2vs0mg"},{"bike_id":"4ef0c972-fbed-4ec9-8a9b-398fdc5b1fb5","system_id":"levelo_inurba_marseille","lat":43.30085,"lon":5.390856,"is_reserved":false,"is_disabled":false,"rental_uris":{"android":"levelo://app?vid=4ef0c972-fbed-4ec9-8a9b-398fdc5b1fb5","ios":"levelo://app?vid=4ef0c972-fbed-4ec9-8a9b-398fdc5b1fb5"},"vehicle_type_id":"4","last_reported":1715465160,"current_range_meters":6400,"station_id":"ce4bh192rcd13ifvqdb0","pricing_plan_id":"cebpf4jnsgd1na2vs0mg"},{"bike_id":"ff0f8d1e-24d7-47d1-8bcd-420c4ff1943b","system_id":"levelo_inurba_marseille","lat":43.302992,"lon":5.392136,"is_reserved":false,"is_disabled":false,"rental_uris":{"android":"levelo://app?vid=ff0f8d1e-24d7-47d1-8bcd-420c4ff1943b","ios":"levelo://app?vid=ff0f8d1e-24d7-47d1-8bcd-420c4ff1943b"},"vehicle_type_id":"4","last_reported":1715465160,"current_range_meters":3600,"station_id":"ce4bgkh2rcd13ifvqbk0","pricing_plan_id":"cebpf4jnsgd1na2vs0mg"},{"bike_id":"96651535-f3a0-48c2-a87e-2cbb79709d14","system_id":"levelo_inurba_marseille","lat":43.2936,"lon":5.37835,"is_reserved":false,"is_disabled":false,"rental_uris":{"android":"levelo://app?vid=96651535-f3a0-48c2-a87e-2cbb79709d14","ios":"levelo://app?vid=96651535-f3a0-48c2-a87e-2cbb79709d14"},"vehicle_type_id":"4","last_reported":1715465160,"current_range_meters":4400,"station_id":"ce4bgjh2rcd13ifvqbf0","pricing_plan_id":"cebpf4jnsgd1na2vs0mg"},{"bike_id":"ed1dc993-735b-4776-b996-1a77d7bf1a79","system_id":"levelo_inurba_marseille","lat":43.29222,"lon":5.3606,"is_reserved":false,"is_disabled":false,"rental_uris":{"android":"levelo://app?vid=ed1dc993-735b-4776-b996-1a77d7bf1a79","ios":"levelo://app?vid=ed1dc993-735b-4776-b996-1a77d7bf1a79"},"vehicle_type_id":"4","last_reported":1715465160,"current_range_meters":23600,"station_id":"ce4bhbh2rcd13ifvqeqg","pricing_plan_id":"cebpf4jnsgd1na2vs0mg"},{"bike_id":"f17be9fb-01b9-4d6b-9b73-79de9865d668","system_id":"levelo_inurba_marseille","lat":43.30083,"lon":5.39076,"is_reserved":false,"is_disabled":false,"rental_uris":{"android":"levelo://app?vid=f17be9fb-01b9-4d6b-9b73-79de9865d668","ios":"levelo://app?vid=f17be9fb-01b9-4d6b-9b73-79de9865d668"},"vehicle_type_id":"4","last_reported":1715465160,"current_range_meters":6000,"station_id":"ce4bh192rcd13ifvqdb0","pricing_plan_id":"cebpf4jnsgd1na2vs0mg"},{"bike_id":"ba554edd-5113-4132-bdb1-70829cb3bd87","system_id":"levelo_inurba_marseille","lat":43.30085,"lon":5.390856,"is_reserved":false,"is_disabled":false,"rental_uris":{"android":"levelo://app?vid=ba554edd-5113-4132-bdb1-70829cb3bd87","ios":"levelo://app?vid=ba554edd-5113-4132-bdb1-70829cb3bd87"},"vehicle_type_id":"4","last_reported":1715465160,"current_range_meters":27200,"station_id":"ce4bh192rcd13ifvqdb0","pricing_plan_id":"cebpf4jnsgd1na2vs0mg"},{"bike_id":"92e08384-2cf8-4906-8bcf-04e8b6b886cc","system_id":"levelo_inurba_marseille","lat":43.29262,"lon":5.3761,"is_reserved":false,"is_disabled":false,"rental_uris":{"android":"levelo://app?vid=92e08384-2cf8-4906-8bcf-04e8b6b886cc","ios":"levelo://app?vid=92e08384-2cf8-4906-8bcf-04e8b6b886cc"},"vehicle_type_id":"4","last_reported":1715465160,"current_range_meters":28400,"station_id":"","pricing_plan_id":"cebpf4jnsgd1na2vs0mg"},{"bike_id":"5afbec35-3136-48a3-a7d2-efce90fa9c91","system_id":"levelo_inurba_marseille","lat":43.29259,"lon":5.37627,"is_reserved":false,"is_disabled":false,"rental_uris":{"android":"levelo://app?vid=5afbec35-3136-48a3-a7d2-efce90fa9c91","ios":"levelo://app?vid=5afbec35-3136-48a3-a7d2-efce90fa9c91"},"vehicle_type_id":"4","last_reported":1715465160,"current_range_meters":14400,"station_id":"","pricing_plan_id":"cebpf4jnsgd1na2vs0mg"},{"bike_id":"00823731-87a2-426a-a898-128edce7cdb8","system_id":"levelo_inurba_marseille","lat":43.29887,"lon":5.3891,"is_reserved":false,"is_disabled":false,"rental_uris":{"android":"levelo://app?vid=00823731-87a2-426a-a898-128edce7cdb8","ios":"levelo://app?vid=00823731-87a2-426a-a898-128edce7cdb8"},"vehicle_type_id":"4","last_reported":1715465160,"current_range_meters":10000,"station_id":"ce4bh392rcd13ifvqdl0","pricing_plan_id":"cebpf4jnsgd1na2vs0mg"},{"bike_id":"a1005953-1e96-4385-84c7-3a2395f5e69d","system_id":"levelo_inurba_marseille","lat":43.2988,"lon":5.389093,"is_reserved":false,"is_disabled":false,"rental_uris":{"android":"levelo://app?vid=a1005953-1e96-4385-84c7-3a2395f5e69d","ios":"levelo://app?vid=a1005953-1e96-4385-84c7-3a2395f5e69d"},"vehicle_type_id":"4","last_reported":1715465160,"current_range_meters":0,"station_id":"ce4bh392rcd13ifvqdl0","pricing_plan_id":"cebpf4jnsgd1na2vs0mg"},{"bike_id":"256bb6b8-b4f0-49b2-9f53-caf18fc37f79","system_id":"levelo_inurba_marseille","lat":43.291675,"lon":5.371583,"is_reserved":false,"is_disabled":false,"rental_uris":{"android":"levelo://app?vid=256bb6b8-b4f0-49b2-9f53-caf18fc37f79","ios":"levelo://app?vid=256bb6b8-b4f0-49b2-9f53-caf18fc37f79"},"vehicle_type_id":"4","last_reported":1715465160,"current_range_meters":0,"station_id":"ce4bha92rcd13ifvqeh0","pricing_plan_id":"cebpf4jnsgd1na2vs0mg"},{"bike_id":"9b45110e-5b14-47c0-8e93-cae88717fda1","system_id":"levelo_inurba_marseille","lat":43.291671,"lon":5.371575,"is_reserved":false,"is_disabled":false,"rental_uris":{"android":"levelo://app?vid=9b45110e-5b14-47c0-8e93-cae88717fda1","ios":"levelo://app?vid=9b45110e-5b14-47c0-8e93-cae88717fda1"},"vehicle_type_id":"4","last_reported":1715465160,"current_range_meters":4800,"station_id":"ce4bha92rcd13ifvqeh0","pricing_plan_id":"cebpf4jnsgd1na2vs0mg"},{"bike_id":"a237bf7e-fa27-442d-8cbe-dad048b7794e","system_id":"levelo_inurba_marseille","lat":43.291675,"lon":5.371583,"is_reserved":false,"is_disabled":false,"rental_uris":{"android":"levelo://app?vid=a237bf7e-fa27-442d-8cbe-dad048b7794e","ios":"levelo://app?vid=a237bf7e-fa27-442d-8cbe-dad048b7794e"},"vehicle_type_id":"4","last_reported":1715465160,"current_range_meters":16000,"station_id":"ce4bha92rcd13ifvqeh0","pricing_plan_id":"cebpf4jnsgd1na2vs0mg"},{"bike_id":"c4114e2b-3558-4180-8fa6-642ef6e613c8","system_id":"levelo_inurba_marseille","lat":43.298764,"lon":5.388973,"is_reserved":false,"is_disabled":false,"rental_uris":{"android":"levelo://app?vid=c4114e2b-3558-4180-8fa6-642ef6e613c8","ios":"levelo://app?vid=c4114e2b-3558-4180-8fa6-642ef6e613c8"},"vehicle_type_id":"4","last_reported":1715465160,"current_range_meters":0,"station_id":"ce4bh392rcd13ifvqdl0","pricing_plan_id":"cebpf4jnsgd1na2vs0mg"},{"bike_id":"8ed0af27-4c2e-45c0-98dc-31fe6301694a","system_id":"levelo_inurba_marseille","lat":43.298764,"lon":5.388973,"is_reserved":false,"is_disabled":false,"rental_uris":{"android":"levelo://app?vid=8ed0af27-4c2e-45c0-98dc-31fe6301694a","ios":"levelo://app?vid=8ed0af27-4c2e-45c0-98dc-31fe6301694a"},"vehicle_type_id":"4","last_reported":1715465160,"current_range_meters":0,"station_id":"ce4bh392rcd13ifvqdl0","pricing_plan_id":"cebpf4jnsgd1na2vs0mg"},{"bike_id":"f3ebc673-6700-4797-8b9e-8a2056f853b0","system_id":"levelo_inurba_marseille","lat":43.298764,"lon":5.388973,"is_reserved":false,"is_disabled":false,"rental_uris":{"android":"levelo://app?vid=f3ebc673-6700-4797-8b9e-8a2056f853b0","ios":"levelo://app?vid=f3ebc673-6700-4797-8b9e-8a2056f853b0"},"vehicle_type_id":"4","last_reported":1715465160,"current_range_meters":9200,"station_id":"ce4bh392rcd13ifvqdl0","pricing_plan_id":"cebpf4jnsgd1na2vs0mg"},{"bike_id":"f95d94d3-009a-4a20-9470-8d41d954d033","system_id":"levelo_inurba_marseille","lat":43.309038,"lon":5.396546,"is_reserved":false,"is_disabled":false,"rental_uris":{"android":"levelo://app?vid=f95d94d3-009a-4a20-9470-8d41d954d033","ios":"levelo://app?vid=f95d94d3-009a-4a20-9470-8d41d954d033"},"vehicle_type_id":"4","last_reported":1715465160,"current_range_meters":26400,"station_id":"ce4bh012rcd13ifvqcv0","pricing_plan_id":"cebpf4jnsgd1na2vs0mg"},{"bike_id":"3d659689-6cb1-43b1-adc1-680cafa47597","system_id":"levelo_inurba_marseille","lat":43.313291,"lon":5.396838,"is_reserved":false,"is_disabled":false,"rental_uris":{"android":"levelo://app?vid=3d659689-6cb1-43b1-adc1-680cafa47597","ios":"levelo://app?vid=3d659689-6cb1-43b1-adc1-680cafa47597"},"vehicle_type_id":"4","last_reported":1715465160,"current_range_meters":10000,"station_id":"ce4bgvp2rcd13ifvqcu0","pricing_plan_id":"cebpf4jnsgd1na2vs0mg"},{"bike_id":"5088d70a-e97d-41c9-b229-0923221dcd8b","system_id":"levelo_inurba_marseille","lat":43.313291,"lon":5.396838,"is_reserved":false,"is_disabled":false,"rental_uris":{"android":"levelo://app?vid=5088d70a-e97d-41c9-b229-0923221dcd8b","ios":"levelo://app?vid=5088d70a-e97d-41c9-b229-0923221dcd8b"},