{"last_updated":1702750090,"ttl":30,"version":"2.2","data":{"bikes":[{"bike_id":"d43b2938-90c9-4740-b49a-e0c6a01b5941","system_id":"levelo_inurba_marseille","lat":43.314811,"lon":5.373104,"is_reserved":false,"is_disabled":false,"rental_uris":{"android":"levelo://app?vid=d43b2938-90c9-4740-b49a-e0c6a01b5941","ios":"levelo://app?vid=d43b2938-90c9-4740-b49a-e0c6a01b5941"},"vehicle_type_id":"4","last_reported":1702750090,"current_range_meters":0,"station_id":"ce4bgt12rcd13ifvqcd0","pricing_plan_id":"free"},{"bike_id":"0729f88f-01d0-404e-833c-7913c64dfd77","system_id":"levelo_inurba_marseille","lat":43.309039,"lon":5.371797,"is_reserved":false,"is_disabled":false,"rental_uris":{"android":"levelo://app?vid=0729f88f-01d0-404e-833c-7913c64dfd77","ios":"levelo://app?vid=0729f88f-01d0-404e-833c-7913c64dfd77"},"vehicle_type_id":"4","last_reported":1702750090,"current_range_meters":5200,"station_id":"ce4bguh2rcd13ifvqckg","pricing_plan_id":"free"},{"bike_id":"3f8b821f-e430-4a35-bf14-f8b6e777ea11","system_id":"levelo_inurba_marseille","lat":43.313939,"lon":5.375306,"is_reserved":false,"is_disabled":false,"rental_uris":{"android":"levelo://app?vid=3f8b821f-e430-4a35-bf14-f8b6e777ea11","ios":"levelo://app?vid=3f8b821f-e430-4a35-bf14-f8b6e777ea11"},"vehicle_type_id":"4","last_reported":1702750090,"current_range_meters":0,"station_id":"","pricing_plan_id":"free"},{"bike_id":"884e5024-4225-42ec-be7b-c6c1e8b3ab1d","system_id":"levelo_inurba_marseille","lat":43.305714,"lon":5.365633,"is_reserved":false,"is_disabled":false,"rental_uris":{"android":"levelo://app?vid=884e5024-4225-42ec-be7b-c6c1e8b3ab1d","ios":"levelo://app?vid=884e5024-4225-42ec-be7b-c6c1e8b3ab1d"},"vehicle_type_id":"4","last_reported":1702750090,"current_range_meters":14400,"station_id":"ce4bgs12rcd13ifvqcag","pricing_plan_id":"free"},{"bike_id":"955e4ab2-16e5-44e8-a986-a2f50ff96c06","system_id":"levelo_inurba_marseille","lat":43.305382,"lon":5.365389,"is_reserved":false,"is_disabled":false,"rental_uris":{"android":"levelo://app?vid=955e4ab2-16e5-44e8-a986-a2f50ff96c06","ios":"levelo://app?vid=955e4ab2-16e5-44e8-a986-a2f50ff96c06"},"vehicle_type_id":"4","last_reported":1702750090,"current_range_meters":14800,"station_id":"","pricing_plan_id":"free"},{"bike_id":"8d62bfb0-ac9c-4fe8-92b1-b4df6f1c49e4","system_id":"levelo_inurba_marseille","lat":43.305989,"lon":5.37225,"is_reserved":false,"is_disabled":false,"rental_uris":{"android":"levelo://app?vid=8d62bfb0-ac9c-4fe8-92b1-b4df6f1c49e4","ios":"levelo://app?vid=8d62bfb0-ac9c-4fe8-92b1-b4df6f1c49e4"},"vehicle_type_id":"4","last_reported":1702750090,"current_range_meters":400,"station_id":"ce4bgqh2rcd13ifvqc4g","pricing_plan_id":"free"},{"bike_id":"0132f81a-39f7-4761-9ce5-80b3a0c9dcc8","system_id":"levelo_inurba_marseille","lat":43.305989,"lon":5.37225,"is_reserved":false,"is_disabled":false,"rental_uris":{"android":"levelo://app?vid=0132f81a-39f7-4761-9ce5-80b3a0c9dcc8","ios":"levelo://app?vid=0132f81a-39f7-4761-9ce5-80b3a0c9dcc8"},"vehicle_type_id":"4","last_reported":1702750090,"current_range_meters":13200,"station_id":"ce4bgqh2rcd13ifvqc4g","pricing_plan_id":"free"},{"bike_id":"baa1c594-206a-4fa7-a32a-4275a7358caa","system_id":"levelo_inurba_marseille","lat":43.303046,"lon":5.368981,"is_reserved":false,"is_disabled":false,"rental_uris":{"android":"levelo://app?vid=baa1c594-206a-4fa7-a32a-4275a7358caa","ios":"levelo://app?vid=baa1c594-206a-4fa7-a32a-4275a7358caa"},"vehicle_type_id":"4","last_reported":1702750090,"current_range_meters":0,"station_id":"ce4bgqh2rcd13ifvqc5g","pricing_plan_id":"free"},{"bike_id":"b2883f9a-b6f8-4bcb-942c-6f8ada097a44","system_id":"levelo_inurba_marseille","lat":43.301939,"lon":5.366286,"is_reserved":false,"is_disabled":false,"rental_uris":{"android":"levelo://app?vid=b2883f9a-b6f8-4bcb-942c-6f8ada097a44","ios":"levelo://app?vid=b2883f9a-b6f8-4bcb-942c-6f8ada097a44"},"vehicle_type_id":"4","last_reported":1702750090,"current_range_meters":11600,"station_id":"ce4bgrh2rcd13ifvqc8g","pricing_plan_id":"free"},{"bike_id":"52fe12d3-0543-458a-9652-7e8bf136670b","system_id":"levelo_inurba_marseille","lat":43.308045,"lon":5.38146,"is_reserved":false,"is_disabled":false,"rental_uris":{"android":"levelo://app?vid=52fe12d3-0543-458a-9652-7e8bf136670b","ios":"levelo://app?vid=52fe12d3-0543-458a-9652-7e8bf136670b"},"vehicle_type_id":"4","last_reported":1702750090,"current_range_meters":0,"station_id":"ce4bgt12rcd13ifvqce0","pricing_plan_id":"free"},{"bike_id":"95010191-bc4b-4181-8a6f-4e4c1b11792a","system_id":"levelo_inurba_marseille","lat":43.308012,"lon":5.381511,"is_reserved":false,"is_disabled":false,"rental_uris":{"android":"levelo://app?vid=95010191-bc4b-4181-8a6f-4e4c1b11792a","ios":"levelo://app?vid=95010191-bc4b-4181-8a6f-4e4c1b11792a"},"vehicle_type_id":"4","last_reported":1702750090,"current_range_meters":31200,"station_id":"ce4bgt12rcd13ifvqce0","pricing_plan_id":"free"},{"bike_id":"f12105f9-c9e9-47ea-8128-a183db89fd65","system_id":"levelo_inurba_marseille","lat":43.30795,"lon":5.3815,"is_reserved":false,"is_disabled":false,"rental_uris":{"android":"levelo://app?vid=f12105f9-c9e9-47ea-8128-a183db89fd65","ios":"levelo://app?vid=f12105f9-c9e9-47ea-8128-a183db89fd65"},"vehicle_type_id":"4","last_reported":1702750090,"current_range_meters":800,"station_id":"ce4bgt12rcd13ifvqce0","pricing_plan_id":"free"},{"bike_id":"8cff5300-277c-4d40-88db-141140b0769e","system_id":"levelo_inurba_marseille","lat":43.308012,"lon":5.381511,"is_reserved":false,"is_disabled":false,"rental_uris":{"android":"levelo://app?vid=8cff5300-277c-4d40-88db-141140b0769e","ios":"levelo://app?vid=8cff5300-277c-4d40-88db-141140b0769e"},"vehicle_type_id":"4","last_reported":1702750090,"current_range_meters":5200,"station_id":"ce4bgt12rcd13ifvqce0","pricing_plan_id":"free"},{"bike_id":"d86a5502-a020-4330-8c78-3d616465f465","system_id":"levelo_inurba_marseille","lat":43.304606,"lon":5.379026,"is_reserved":false,"is_disabled":false,"rental_uris":{"android":"levelo://app?vid=d86a5502-a020-4330-8c78-3d616465f465","ios":"levelo://app?vid=d86a5502-a020-4330-8c78-3d616465f465"},"vehicle_type_id":"4","last_reported":1702750090,"current_range_meters":0,"station_id":"ce4bgup2rcd13ifvqcn0","pricing_plan_id":"free"},{"bike_id":"44c8b40c-0afe-48d3-8480-d4dfd6b81af3","system_id":"levelo_inurba_marseille","lat":43.32475,"lon":5.36562,"is_reserved":false,"is_disabled":false,"rental_uris":{"android":"levelo://app?vid=44c8b40c-0afe-48d3-8480-d4dfd6b81af3","ios":"levelo://app?vid=44c8b40c-0afe-48d3-8480-d4dfd6b81af3"},"vehicle_type_id":"4","last_reported":1702750090,"current_range_meters":26000,"station_id":"ce4bhs12rcd13ifvqhvg","pricing_plan_id":"free"},{"bike_id":"dfe62985-6f65-471f-8bdb-4e96693a7937","system_id":"levelo_inurba_marseille","lat":43.324775,"lon":5.365741,"is_reserved":false,"is_disabled":false,"rental_uris":{"android":"levelo://app?vid=dfe62985-6f65-471f-8bdb-4e96693a7937","ios":"levelo://app?vid=dfe62985-6f65-471f-8bdb-4e96693a7937"},"vehicle_type_id":"4","last_reported":1702750090,"current_range_meters":17200,"station_id":"ce4bhs12rcd13ifvqhvg","pricing_plan_id":"free"},{"bike_id":"88f7ea2a-62f7-4a88-9e9d-900940b4d7e5","system_id":"levelo_inurba_marseille","lat":43.324771,"lon":5.36557,"is_reserved":false,"is_disabled":false,"rental_uris":{"android":"levelo://app?vid=88f7ea2a-62f7-4a88-9e9d-900940b4d7e5","ios":"levelo://app?vid=88f7ea2a-62f7-4a88-9e9d-900940b4d7e5"},"vehicle_type_id":"4","last_reported":1702750090,"current_range_meters":14800,"station_id":"ce4bhs12rcd13ifvqhvg","pricing_plan_id":"free"},{"bike_id":"dd62cb3a-3f08-44cf-8561-0c89ff17ac35","system_id":"levelo_inurba_marseille","lat":43.31375,"lon":5.3847,"is_reserved":false,"is_disabled":false,"rental_uris":{"android":"levelo://app?vid=dd62cb3a-3f08-44cf-8561-0c89ff17ac35","ios":"levelo://app?vid=dd62cb3a-3f08-44cf-8561-0c89ff17ac35"},"vehicle_type_id":"4","last_reported":1702750090,"current_range_meters":20400,"station_id":"ce4bgt92rcd13ifvqcf0","pricing_plan_id":"free"},{"bike_id":"c4e77394-aef9-4077-b745-e99148625344","system_id":"levelo_inurba_marseille","lat":43.32733,"lon":5.36707,"is_reserved":false,"is_disabled":false,"rental_uris":{"android":"levelo://app?vid=c4e77394-aef9-4077-b745-e99148625344","ios":"levelo://app?vid=c4e77394-aef9-4077-b745-e99148625344"},"vehicle_type_id":"4","last_reported":1702750090,"current_range_meters":22000,"station_id":"","pricing_plan_id":"free"},{"bike_id":"819cb438-2e9c-4e0b-902b-5e19ef554d5c","system_id":"levelo_inurba_marseille","lat":43.305492,"lon":5.384548,"is_reserved":false,"is_disabled":false,"rental_uris":{"android":"levelo://app?vid=819cb438-2e9c-4e0b-902b-5e19ef554d5c","ios":"levelo://app?vid=819cb438-2e9c-4e0b-902b-5e19ef554d5c"},"vehicle_type_id":"4","last_reported":1702750090,"current_range_meters":15200,"station_id":"ce4bgg92rcd13ifvqb30","pricing_plan_id":"free"},{"bike_id":"768a75f8-c2a0-4e2e-8817-a440c5ea72cc","system_id":"levelo_inurba_marseille","lat":43.297794,"lon":5.370888,"is_reserved":false,"is_disabled":false,"rental_uris":{"android":"levelo://app?vid=768a75f8-c2a0-4e2e-8817-a440c5ea72cc","ios":"levelo://app?vid=768a75f8-c2a0-4e2e-8817-a440c5ea72cc"},"vehicle_type_id":"4","last_reported":1702750090,"current_range_meters":12400,"station_id":"ce4bgop2rcd13ifvqc1g","pricing_plan_id":"free"},{"bike_id":"e608665c-a0fa-449d-b33f-ed0cd033c740","system_id":"levelo_inurba_marseille","lat":43.32394,"lon":5.38425,"is_reserved":false,"is_disabled":false,"rental_uris":{"android":"levelo://app?vid=e608665c-a0fa-449d-b33f-ed0cd033c740","ios":"levelo://app?vid=e608665c-a0fa-449d-b33f-ed0cd033c740"},"vehicle_type_id":"4","last_reported":1702750090,"current_range_meters":9200,"station_id":"","pricing_plan_id":"free"},{"bike_id":"e1ad0814-965b-4bad-8316-3449270783d2","system_id":"levelo_inurba_marseille","lat":43.296131,"lon":5.370791,"is_reserved":false,"is_disabled":false,"rental_uris":{"android":"levelo://app?vid=e1ad0814-965b-4bad-8316-3449270783d2","ios":"levelo://app?vid=e1ad0814-965b-4bad-8316-3449270783d2"},"vehicle_type_id":"4","last_reported":1702750090,"current_range_meters":14000,"station_id":"ce4bgnh2rcd13ifvqc0g","pricing_plan_id":"free"},{"bike_id":"88925a24-958c-4f29-ba93-14c6c9a14ae6","system_id":"levelo_inurba_marseille","lat":43.296131,"lon":5.370791,"is_reserved":false,"is_disabled":false,"rental_uris":{"android":"levelo://app?vid=88925a24-958c-4f29-ba93-14c6c9a14ae6","ios":"levelo://app?vid=88925a24-958c-4f29-ba93-14c6c9a14ae6"},"vehicle_type_id":"4","last_reported":1702750090,"current_range_meters":22000,"station_id":"ce4bgnh2rcd13ifvqc0g","pricing_plan_id":"free"},{"bike_id":"a6a40609-fcbf-4a81-ad30-d3348257e8a2","system_id":"levelo_inurba_marseille","lat":43.29573,"lon":5.367355,"is_reserved":false,"is_disabled":false,"rental_uris":{"android":"levelo://app?vid=a6a40609-fcbf-4a81-ad30-d3348257e8a2","ios":"levelo://app?vid=a6a40609-fcbf-4a81-ad30-d3348257e8a2"},"vehicle_type_id":"4","last_reported":1702750090,"current_range_meters":22000,"station_id":"ce4bgph2rcd13ifvqc2g","pricing_plan_id":"free"},{"bike_id":"2e8bca08-173b-41bd-b658-66b483d2066f","system_id":"levelo_inurba_marseille","lat":43.309589,"lon":5.390258,"is_reserved":false,"is_disabled":false,"rental_uris":{"android":"levelo://app?vid=2e8bca08-173b-41bd-b658-66b483d2066f","ios":"levelo://app?vid=2e8bca08-173b-41bd-b658-66b483d2066f"},"vehicle_type_id":"4","last_reported":1702750090,"current_range_meters":15200,"station_id":"ce4bgup2rcd13ifvqco0","pricing_plan_id":"free"},{"bike_id":"ccf20645-da75-48ec-9b6b-4eab800b1af1","system_id":"levelo_inurba_marseille","lat":43.296921,"lon":5.376579,"is_reserved":false,"is_disabled":false,"rental_uris":{"android":"levelo://app?vid=ccf20645-da75-48ec-9b6b-4eab800b1af1","ios":"levelo://app?vid=ccf20645-da75-48ec-9b6b-4eab800b1af1"},"vehicle_type_id":"4","last_reported":1702750090,"current_range_meters":5200,"station_id":"ce4bgkh2rcd13ifvqbl0","pricing_plan_id":"free"},{"bike_id":"4fe68cb0-ef05-4f1c-919b-7a2b0e3c1f89","system_id":"levelo_inurba_marseille","lat":43.317557,"lon":5.390173,"is_reserved":false,"is_disabled":false,"rental_uris":{"android":"levelo://app?vid=4fe68cb0-ef05-4f1c-919b-7a2b0e3c1f89","ios":"levelo://app?vid=4fe68cb0-ef05-4f1c-919b-7a2b0e3c1f89"},"vehicle_type_id":"4","last_reported":1702750090,"current_range_meters":20000,"station_id":"ce4bhqp2rcd13ifvqhng","pricing_plan_id":"free"},{"bike_id":"2622b891-792e-4442-a826-3eb3052c639f","system_id":"levelo_inurba_marseille","lat":43.304278,"lon":5.388868,"is_reserved":false,"is_disabled":false,"rental_uris":{"android":"levelo://app?vid=2622b891-792e-4442-a826-3eb3052c639f","ios":"levelo://app?vid=2622b891-792e-4442-a826-3eb3052c639f"},"vehicle_type_id":"4","last_reported":1702750090,"current_range_meters":18800,"station_id":"ce4bgk12rcd13ifvqbi0","pricing_plan_id":"free"},{"bike_id":"94d78911-7034-47b4-826c-88a9432fe43e","system_id":"levelo_inurba_marseille","lat":43.304274,"lon":5.388873,"is_reserved":false,"is_disabled":false,"rental_uris":{"android":"levelo://app?vid=94d78911-7034-47b4-826c-88a9432fe43e","ios":"levelo://app?vid=94d78911-7034-47b4-826c-88a9432fe43e"},"vehicle_type_id":"4","last_reported":1702750090,"current_range_meters":9200,"station_id":"ce4bgk12rcd13ifvqbi0","pricing_plan_id":"free"},{"bike_id":"14a83aa0-1fab-439a-9e9a-b67eeb937432","system_id":"levelo_inurba_marseille","lat":43.29567,"lon":5.37493,"is_reserved":false,"is_disabled":false,"rental_uris":{"android":"levelo://app?vid=14a83aa0-1fab-439a-9e9a-b67eeb937432","ios":"levelo://app?vid=14a83aa0-1fab-439a-9e9a-b67eeb937432"},"vehicle_type_id":"4","last_reported":1702750090,"current_range_meters":0,"station_id":"ce4bgh92rcd13ifvqb50","pricing_plan_id":"free"},{"bike_id":"6374163c-d149-4765-9bc8-c55eb52b58b0","system_id":"levelo_inurba_marseille","lat":43.299724,"lon":5.384848,"is_reserved":false,"is_disabled":false,"rental_uris":{"android":"levelo://app?vid=6374163c-d149-4765-9bc8-c55eb52b58b0","ios":"levelo://app?vid=6374163c-d149-4765-9bc8-c55eb52b58b0"},"vehicle_type_id":"4","last_reported":1702750090,"current_range_meters":28800,"station_id":"ce4bgj92rcd13ifvqbd0","pricing_plan_id":"free"},{"bike_id":"2d339ccb-9fe7-4132-b39e-b9bd4a932749","system_id":"levelo_inurba_marseille","lat":43.32364,"lon":5.38879,"is_reserved":false,"is_disabled":false,"rental_uris":{"android":"levelo://app?vid=2d339ccb-9fe7-4132-b39e-b9bd4a932749","ios":"levelo://app?vid=2d339ccb-9fe7-4132-b39e-b9bd4a932749"},"vehicle_type_id":"4","last_reported":1702750090,"current_range_meters":15600,"station_id":"ce4bhqp2rcd13ifvqhog","pricing_plan_id":"free"},{"bike_id":"31954c81-37ea-46a3-a087-7d824ac76191","system_id":"levelo_inurba_marseille","lat":43.32367,"lon":5.388836,"is_reserved":false,"is_disabled":false,"rental_uris":{"android":"levelo://app?vid=31954c81-37ea-46a3-a087-7d824ac76191","ios":"levelo://app?vid=31954c81-37ea-46a3-a087-7d824ac76191"},"vehicle_type_id":"4","last_reported":1702750090,"current_range_meters":6000,"station_id":"ce4bhqp2rcd13ifvqhog","pricing_plan_id":"free"},{"bike_id":"569c2ac3-a02f-429b-ba12-8f37b0499548","system_id":"levelo_inurba_marseille","lat":43.29279,"lon":5.36841,"is_reserved":false,"is_disabled":false,"rental_uris":{"android":"levelo://app?vid=569c2ac3-a02f-429b-ba12-8f37b0499548","ios":"levelo://app?vid=569c2ac3-a02f-429b-ba12-8f37b0499548"},"vehicle_type_id":"4","last_reported":1702750090,"current_range_meters":12800,"station_id":"ce4bhbp2rcd13ifvqesg","pricing_plan_id":"free"},{"bike_id":"385157b9-0c8f-4035-a7e5-a9b4ee023e63","system_id":"levelo_inurba_marseille","lat":43.292749,"lon":5.368402,"is_reserved":false,"is_disabled":false,"rental_uris":{"android":"levelo://app?vid=385157b9-0c8f-4035-a7e5-a9b4ee023e63","ios":"levelo://app?vid=385157b9-0c8f-4035-a7e5-a9b4ee023e63"},"vehicle_type_id":"4","last_reported":1702750090,"current_range_meters":1600,"station_id":"ce4bhbp2rcd13ifvqesg","pricing_plan_id":"free"},{"bike_id":"fa886c85-cf6e-4aec-bfb5-316c4da0721f","system_id":"levelo_inurba_marseille","lat":43.29304,"lon":5.37168,"is_reserved":false,"is_disabled":false,"rental_uris":{"android":"levelo://app?vid=fa886c85-cf6e-4aec-bfb5-316c4da0721f","ios":"levelo://app?vid=fa886c85-cf6e-4aec-bfb5-316c4da0721f"},"vehicle_type_id":"4","last_reported":1702750090,"current_range_meters":6000,"station_id":"ce4bgh92rcd13ifvqb40","pricing_plan_id":"free"},{"bike_id":"36a6f3e6-6c8d-4f1d-aa18-89620504ee6a","system_id":"levelo_inurba_marseille","lat":43.29274,"lon":5.3685,"is_reserved":false,"is_disabled":false,"rental_uris":{"android":"levelo://app?vid=36a6f3e6-6c8d-4f1d-aa18-89620504ee6a","ios":"levelo://app?vid=36a6f3e6-6c8d-4f1d-aa18-89620504ee6a"},"vehicle_type_id":"4","last_reported":1702750090,"current_range_meters":7200,"station_id":"ce4bhbp2rcd13ifvqesg","pricing_plan_id":"free"},{"bike_id":"43e2b0a3-ead1-4586-bbe7-e51ce1559a8b","system_id":"levelo_inurba_marseille","lat":43.29297,"lon":5.37165,"is_reserved":false,"is_disabled":false,"rental_uris":{"android":"levelo://app?vid=43e2b0a3-ead1-4586-bbe7-e51ce1559a8b","ios":"levelo://app?vid=43e2b0a3-ead1-4586-bbe7-e51ce1559a8b"},"vehicle_type_id":"4","last_reported":1702750090,"current_range_meters":13600,"station_id":"ce4bgh92rcd13ifvqb40","pricing_plan_id":"free"},{"bike_id":"0b9e95fa-f61b-4978-9020-1774092ea85a","system_id":"levelo_inurba_marseille","lat":43.303002,"lon":5.392142,"is_reserved":false,"is_disabled":false,"rental_uris":{"android":"levelo://app?vid=0b9e95fa-f61b-4978-9020-1774092ea85a","ios":"levelo://app?vid=0b9e95fa-f61b-4978-9020-1774092ea85a"},"vehicle_type_id":"4","last_reported":1702750090,"current_range_meters":1200,"station_id":"ce4bgkh2rcd13ifvqbk0","pricing_plan_id":"free"},{"bike_id":"2d76b3ef-7f38-436a-a685-b5a5801543ed","system_id":"levelo_inurba_marseille","lat":43.30297,"lon":5.39201,"is_reserved":false,"is_disabled":false,"rental_uris":{"android":"levelo://app?vid=2d76b3ef-7f38-436a-a685-b5a5801543ed","ios":"levelo://app?vid=2d76b3ef-7f38-436a-a685-b5a5801543ed"},"vehicle_type_id":"4","last_reported":1702750090,"current_range_meters":0,"station_id":"ce4bgkh2rcd13ifvqbk0","pricing_plan_id":"free"},{"bike_id":"0d6481c0-4097-49b0-905f-9f60efdb68ad","system_id":"levelo_inurba_marseille","lat":43.2936,"lon":5.37835,"is_reserved":false,"is_disabled":false,"rental_uris":{"android":"levelo://app?vid=0d6481c0-4097-49b0-905f-9f60efdb68ad","ios":"levelo://app?vid=0d6481c0-4097-49b0-905f-9f60efdb68ad"},"vehicle_type_id":"4","last_reported":1702750090,"current_range_meters":3600,"station_id":"ce4bgjh2rcd13ifvqbf0","pricing_plan_id":"free"},{"bike_id":"9b8382a7-daaf-4c42-9f7c-831415bdaa35","system_id":"levelo_inurba_marseille","lat":43.297163,"lon":5.365866,"is_reserved":false,"is_disabled":false,"rental_uris":{"android":"levelo://app?vid=9b8382a7-daaf-4c42-9f7c-831415bdaa35","ios":"levelo://app?vid=9b8382a7-daaf-4c42-9f7c-831415bdaa35"},"vehicle_type_id":"4","last_reported":1702750090,"current_range_meters":23600,"station_id":"ce4bgn12rcd13ifvqbt0","pricing_plan_id":"free"},{"bike_id":"d600d1c3-1fb1-4062-aa51-4b1a5c5448bc","system_id":"levelo_inurba_marseille","lat":43.291675,"lon":5.371583,"is_reserved":false,"is_disabled":false,"rental_uris":{"android":"levelo://app?vid=d600d1c3-1fb1-4062-aa51-4b1a5c5448bc","ios":"levelo://app?vid=d600d1c3-1fb1-4062-aa51-4b1a5c5448bc"},"vehicle_type_id":"4","last_reported":1702750090,"current_range_meters":6000,"station_id":"ce4bha92rcd13ifvqeh0","pricing_plan_id":"free"},{"bike_id":"5d854556-3e2e-4530-8c9e-5cdb91b8f31e","system_id":"levelo_inurba_marseille","lat":43.295194,"lon":5.39397,"is_reserved":false,"is_disabled":false,"rental_uris":{"android":"levelo://app?vid=5d854556-3e2e-4530-8c9e-5cdb91b8f31e","ios":"levelo://app?vid=5d854556-3e2e-4530-8c9e-5cdb91b8f31e"},"vehicle_type_id":"4","last_reported":1702750090,"current_range_meters":12400,"station_id":"ce4bh292rcd13ifvqdf0","pricing_plan_id":"free"},{"bike_id":"0ab20684-0b7c-44e5-9b30-dfaa232d009e","system_id":"levelo_inurba_marseille","lat":43.313291,"lon":5.396838,"is_reserved":false,"is_disabled":false,"rental_uris":{"android":"levelo://app?vid=0ab20684-0b7c-44e5-9b30-dfaa232d009e","ios":"levelo://app?vid=0ab20684-0b7c-44e5-9b30-dfaa232d009e"},"vehicle_type_id":"4","last_reported":1702750090,"current_range_meters":4400,"station_id":"ce4bgvp2rcd13ifvqcu0","pricing_plan_id":"free"},{"bike_id":"ff5f7c86-1966-4264-8635-2d61f4b9310f","system_id":"levelo_inurba_marseille","lat":43.30891,"lon":5.39653,"is_reserved":false,"is_disabled":false,"rental_uris":{"android":"levelo://app?vid=ff5f7c86-1966-4264-8635-2d61f4b9310f","ios":"levelo://app?vid=ff5f7c86-1966-4264-8635-2d61f4b9310f"},"vehicle_type_id":"4","last_reported":1702750090,"current_range_meters":0,"station_id":"ce4bh012rcd13ifvqcv0","pricing_plan_id":"free"},{"bike_id":"d1b9b79c-4477-4a8a-a481-ff4eead6a952","system_id":"levelo_inurba_marseille","lat":43.29529,"lon":5.385581,"is_reserved":false,"is_disabled":false,"rental_uris":{"android":"levelo://app?vid=d1b9b79c-4477-4a8a-a481-ff4eead6a952","ios":"levelo://app?vid=d1b9b79c-4477-4a8a-a481-ff4eead6a952"},"vehicle_type_id":"4","last_reported":1702750090,"current_range_meters":0,"station_id":"ce4bgih2rcd13ifvqba0","pricing_plan_id":"free"},{"bike_id":"198cef34-5533-4b0e-9603-110a8beedd14","system_id":"levelo_inurba_marseille","lat":43.295292,"lon":5.385344,"is_reserved":false,"is_disabled":false,"rental_uris":{"android":"levelo://app?vid=198cef34-5533-4b0e-9603-110a8beedd14","ios":"levelo://app?vid=198cef34-5533-4b0e-9603-110a8beedd14"},"vehicle_type_id":"4","last_reported":1702750090,"current_range_meters":16400,"station_id":"ce4bgih2rcd13ifvqba0","pricing_plan_id":"free"},{"bike_id":"08a986be-b270-4e3a-818f-8b5ae02015b8","system_id":"levelo_inurba_marseille","lat":43.290779,"lon":5.371482,"is_reserved":false,"is_disabled":false,"rental_uris":{"android":"levelo://app?vid=08a986be-b270-4e3a-818f-8b5ae02015b8","ios":"levelo://app?vid=08a986be-b270-4e3a-818f-8b5ae02015b8"},"vehicle_type_id":"4","last_reported":1702750090,"current_range_meters":21200,"station_id":"ce4bh5p2rcd13ifvqe4g","pricing_plan_id":"free"},{"bike_id":"90132d3a-0b68-4c87-8307-0832aa049845","system_id":"levelo_inurba_marseille","lat":43.290779,"lon":5.371482,"is_reserved":false,"is_disabled":false,"rental_uris":{"android":"levelo://app?vid=90132d3a-0b68-4c87-8307-0832aa049845","ios":"levelo://app?vid=90132d3a-0b68-4c87-8307-0832aa049845"},"vehicle_type_id":"4","last_reported":1702750090,"current_range_meters":0,"station_id":"ce4bh5p2rcd13ifvqe4g","pricing_plan_id":"free"},{"bike_id":"3772355c-dd3d-4933-bb85-f26fe7335f9d","system_id":"levelo_inurba_marseille","lat":43.302087,"lon":5.394573,"is_reserved":false,"is_disabled":false,"rental_uris":{"android":"levelo://app?vid=3772355c-dd3d-4933-bb85-f26fe7335f9d","ios":"levelo://app?vid=3772355c-dd3d-4933-bb85-f26fe7335f9d"},"vehicle_type_id":"4","last_reported":1702750090,"current_range_meters":5200,"station_id":"ce4bh0p2rcd13ifvqd70","pricing_plan_id":"free"},{"bike_id":"4d6e3414-ceaa-4989-a637-2349b3529ba6","system_id":"levelo_inurba_marseille","lat":43.302008,"lon":5.394694,"is_reserved":false,"is_disabled":false,"rental_uris":{"android":"levelo://app?vid=4d6e3414-ceaa-4989-a637-2349b3529ba6","ios":"levelo://app?vid=4d6e3414-ceaa-4989-a637-2349b3529ba6"},"vehicle_type_id":"4","last_reported":1702750090,"current_range_meters":25600,"station_id":"ce4bh0p2rcd13ifvqd70","pricing_plan_id":"free"},{"bike_id":"b6b2c5df-af65-44d5-9213-efb3f3a66dd4","system_id":"levelo_inurba_marseille","lat":43.290624,"lon":5.359245,"is_reserved":false,"is_disabled":false,"rental_uris":{"android":"levelo://app?vid=b6b2c5df-af65-44d5-9213-efb3f3a66dd4","ios":"levelo://app?vid=b6b2c5df-af65-44d5-9213-efb3f3a66dd4"},"vehicle_type_id":"4","last_reported":1702750090,"current_range_meters":4800,"station_id":"ce4bha92rcd13ifvqeg0","pricing_plan_id":"free"},{"bike_id":"54521fa5-ca51-484e-8e80-a6651b78538c","system_id":"levelo_inurba_marseille","lat":43.291994,"lon":5.357886,"is_reserved":false,"is_disabled":false,"rental_uris":{"android":"levelo://app?vid=54521fa5-ca51-484e-8e80-a6651b78538c","ios":"levelo://app?vid=54521fa5-ca51-484e-8e80-a6651b78538c"},"vehicle_type_id":"4","last_reported":1702750090,"current_range_meters":0,"station_id":"ce4bhb12rcd13ifvqel0","pricing_plan_id":"free"},{"bike_id":"c3dee460-2071-407b-ba11-6c152e6ed989","system_id":"levelo_inurba_marseille","lat":43.290327,"lon":5.375711,"is_reserved":false,"is_disabled":false,"rental_uris":{"android":"levelo://app?vid=c3dee460-2071-407b-ba11-6c152e6ed989","ios":"levelo://app?vid=c3dee460-2071-407b-ba11-6c152e6ed989"},"vehicle_type_id":"4","last_reported":1702750090,"current_range_meters":23600,"station_id":"ce4bh692rcd13ifvqe90","pricing_plan_id":"free"},{"bike_id":"ee778b53-d012-415f-aab0-40bc364a7013","system_id":"levelo_inurba_marseille","lat":43.294153,"lon":5.386305,"is_reserved":false,"is_disabled":false,"rental_uris":{"android":"levelo://app?vid=ee778b53-d012-415f-aab0-40bc364a7013","ios":"levelo://app?vid=ee778b53-d012-415f-aab0-40bc364a7013"},"vehicle_type_id":"4","last_reported":1702750090,"current_range_meters":0,"station_id":"ce4bh2h2rcd13ifvqdh0","pricing_plan_id":"free"},{"bike_id":"333a44da-4457-48cf-9003-3db3b3a49e3b","system_id":"levelo_inurba_marseille","lat":43.294153,"lon":5.386305,"is_reserved":false,"is_disabled":false,"rental_uris":{"android":"levelo://app?vid=333a44da-4457-48cf-9003-3db3b3a49e3b","ios":"levelo://app?vid=333a44da-4457-48cf-9003-3db3b3a49e3b"},"vehicle_type_id":"4","last_reported":1702750090,"current_range_meters":400,"station_id":"ce4bh2h2rcd13ifvqdh0","pricing_plan_id":"free"},{"bike_id":"b08ac7c9-841e-4584-b3fb-8beefdd5cf44","system_id":"levelo_inurba_marseille","lat":43.290327,"lon":5.375711,"is_reserved":false,"is_disabled":false,"rental_uris":{"android":"levelo://app?vid=b08ac7c9-841e-4584-b3fb-8beefdd5cf44","ios":"levelo://app?vid=b08ac7c9-841e-4584-b3fb-8beefdd5cf44"},"vehicle_type_id":"4","last_reported":1702750090,"current_range_meters":19200,"station_id":"ce4bh692rcd13ifvqe90","pricing_plan_id":"free"},{"bike_id":"55ec930a-97aa-4edc-8e29-d3c289b8b020","system_id":"levelo_inurba_marseille","lat":43.289184,"lon":5.366408,"is_reserved":false,"is_disabled":false,"rental_uris":{"android":"levelo://app?vid=55ec930a-97aa-4edc-8e29-d3c289b8b020","ios":"levelo://app?vid=55ec930a-97aa-4edc-8e29-d3c289b8b020"},"vehicle_type_id":"4","last_reported":1702750090,"current_range_meters":24400,"station_id":"ce4bhap2rcd13ifvqek0","pricing_plan_id":"free"},{"bike_id":"8c70c038-2329-4a9e-b1a1-5568e0973bff","system_id":"levelo_inurba_marseille","lat":43.289184,"lon":5.366408,"is_reserved":false,"is_disabled":false,"rental_uris":{"android":"levelo://app?vid=8c70c038-2329-4a9e-b1a1-5568e0973bff","ios":"levelo://app?vid=8c70c038-2329-4a9e-b1a1-5568e0973bff"},"vehicle_type_id":"4","last_reported":1702750090,"current_range_meters":26800,"station_id":"ce4bhap2rcd13ifvqek0","pricing_plan_id":"free"},{"bike_id":"81243c84-2baf-44a5-b316-50dcac9b557c","system_id":"levelo_inurba_marseille","lat":43.292686,"lon":5.384343,"is_reserved":false,"is_disabled":false,"rental_uris":{"android":"levelo://app?vid=81243c84-2baf-44a5-b316-50dcac9b557c","ios":"levelo://app?vid=81243c84-2baf-44a5-b316-50dcac9b557c"},"vehicle_type_id":"4","last_reported":1702750090,"current_range_meters":2000,"station_id":"","pricing_plan_id":"free"},{"bike_id":"e8ae1d38-df6f-480b-b2bf-74843b3a7ecc","system_id":"levelo_inurba_marseille","lat":43.304296,"lon":5.397513,"is_reserved":false,"is_disabled":false,"rental_uris":{"android":"levelo://app?vid=e8ae1d38-df6f-480b-b2bf-74843b3a7ecc","ios":"levelo://app?vid=e8ae1d38-df6f-480b-b2bf-74843b3a7ecc"},"vehicle_type_id":"4","last_reported":1702750090,"current_range_meters":2400,"station_id":"ce4bh092rcd13ifvqd20","pricing_plan_id":"free"},{"bike_id":"bbca14cf-0793-4ec4-8676-60d03df4c976","system_id":"levelo_inurba_marseille","lat":43.292644,"lon":5.384257,"is_reserved":false,"is_disabled":false,"rental_uris":{"android":"levelo://app?vid=bbca14cf-0793-4ec4-8676-60d03df4c976","ios":"levelo://app?vid=bbca14cf-0793-4ec4-8676-60d03df4c976"},"vehicle_type_id":"4","last_reported":1702750090,"current_range_meters":5600,"station_id":"ce4bh692rcd13ifvqea0","pricing_plan_id":"free"},{"bike_id":"90735d25-7f91-4a0b-ae34-af97db0a9a93","system_id":"levelo_inurba_marseille","lat":43.292644,"lon":5.384257,"is_reserved":false,"is_disabled":false,"rental_uris":{"android":"levelo://app?vid=90735d25-7f91-4a0b-ae34-af97db0a9a93","ios":"levelo://app?vid=90735d25-7f91-4a0b-ae34-af97db0a9a93"},"vehicle_type_id":"4","last_reported":1702750090,"current_range_meters":400,"station_id":"ce4bh692rcd13ifvqea0","pricing_plan_id":"free"},{"bike_id":"b7015c97-1e2d-47ea-9fe4-1521fdff8377","system_id":"levelo_inurba_marseille","lat":43.292644,"lon":5.384257,"is_reserved":false,"is_disabled":false,"rental_uris":{"android":"levelo://app?vid=b7015c97-1e2d-47ea-9fe4-1521fdff8377","ios":"levelo://app?vid=b7015c97-1e2d-47ea-9fe4-1521fdff8377"},"vehicle_type_id":"4","last_reported":1702750090,"current_range_meters":31200,"station_id":"ce4bh692rcd13ifvqea0","pricing_plan_id":"free"},{"bike_id":"64084bda-cfbd-4ddf-9c19-58d103f60019","system_id":"levelo_inurba_marseille","lat":43.292644,"lon":5.384257,"is_reserved":false,"is_disabled":false,"rental_uris":{"android":"levelo://app?vid=64084bda-cfbd-4ddf-9c19-58d103f60019","ios":"levelo://app?vid=64084bda-cfbd-4ddf-9c19-58d103f60019"},"vehicle_type_id":"4","last_reported":1702750090,"current_range_meters":3200,"station_id":"ce4bh692rcd13ifvqea0","pricing_plan_id":"free"},{"bike_id":"7869065b-ba9c-4e14-a6e0-075a72b86610","system_id":"levelo_inurba_marseille","lat":43.33043,"lon":5.38919,"is_reserved":false,"is_disabled":false,"rental_uris":{"android":"levelo://app?vid=7869065b-ba9c-4e14-a6e0-075a72b86610","ios":"levelo://app?vid=7869065b-ba9c-4e14-a6e0-075a72b86610"},"vehicle_type_id":"4","last_reported":1702750090,"current_range_meters":7600,"station_id":"ce4bhr92rcd13ifvqhrg","pricing_plan_id":"free"},{"bike_id":"0019cc72-50a3-4298-937a-c3025a814462","system_id":"levelo_inurba_marseille","lat":43.330411,"lon":5.38923,"is_reserved":false,"is_disabled":false,"rental_uris":{"android":"levelo://app?vid=0019cc72-50a3-4298-937a-c3025a814462","ios":"levelo://app?vid=0019cc72-50a3-4298-937a-c3025a814462"},"vehicle_type_id":"4","last_reported":1702750090,"current_range_meters":3200,"station_id":"ce4bhr92rcd13ifvqhrg","pricing_plan_id":"free"},{"bike_id":"44c12117-7ca4-478a-8990-f1ac328d275f","system_id":"levelo_inurba_marseille","lat":43.290995,"lon":5.381361,"is_reserved":false,"is_disabled":false,"rental_uris":{"android":"levelo://app?vid=44c12117-7ca4-478a-8990-f1ac328d275f","ios":"levelo://app?vid=44c12117-7ca4-478a-8990-f1ac328d275f"},"vehicle_type_id":"4","last_reported":1702750090,"current_range_meters":16800,"station_id":"ce4bh512rcd13ifvqe2g","pricing_plan_id":"free"},{"bike_id":"ddcc71f2-dfcc-48b7-b091-1bd01344af9a","system_id":"levelo_inurba_marseille","lat":43.295169,"lon":5.390426,"is_reserved":false,"is_disabled":false,"rental_uris":{"android":"levelo://app?vid=ddcc71f2-dfcc-48b7-b091-1bd01344af9a","ios":"levelo://app?vid=ddcc71f2-dfcc-48b7-b091-1bd01344af9a"},"vehicle_type_id":"4","last_reported":1702750090,"current_range_meters":16800,"station_id":"ce4bh3p2rcd13ifvqdp0","pricing_plan_id":"free"},{"bike_id":"aa61cfca-1469-45a7-9d97-12e4cd90ff3c","system_id":"levelo_inurba_marseille","lat":43.29078,"lon":5.38129,"is_reserved":false,"is_disabled":false,"rental_uris":{"android":"levelo://app?vid=aa61cfca-1469-45a7-9d97-12e4cd90ff3c","ios":"levelo://app?vid=aa61cfca-1469-45a7-9d97-12e4cd90ff3c"},"vehicle_type_id":"4","last_reported":1702750090,"current_range_meters":3600,"station_id":"ce4bh512rcd13ifvqe2g","pricing_plan_id":"free"},{"bike_id":"c77c7db2-7fdf-404b-82dc-7cf9e8f96f64","system_id":"levelo_inurba_marseille","lat":43.2978,"lon":5.39345,"is_reserved":false,"is_disabled":false,"rental_uris":{"android":"levelo://app?vid=c77c7db2-7fdf-404b-82dc-7cf9e8f96f64","ios":"levelo://app?vid=c77c7db2-7fdf-404b-82dc-7cf9e8f96f64"},"vehicle_type_id":"4","last_reported":1702750090,"current_range_meters":2400,"station_id":"chh1huq6cuj3fo74tm60","pricing_plan_id":"free"},{"bike_id":"ac269434-58b7-4b01-bbc6-0f487df52c93","system_id":"levelo_inurba_marseille","lat":43.28978,"lon":5.37831,"is_reserved":false,"is_disabled":false,"rental_uris":{"android":"levelo://app?vid=ac269434-58b7-4b01-bbc6-0f487df52c93","ios":"levelo://app?vid=ac269434-58b7-4b01-bbc6-0f487df52c93"},"vehicle_type_id":"4","last_reported":1702750090,"current_range_meters":0,"station_id":"ce4bh9p2rcd13ifvqed0","pricing_plan_id":"free"},{"bike_id":"62da484e-8334-46ac-9f7c-60809dd59db9","system_id":"levelo_inurba_marseille","lat":43.312609,"lon":5.401662,"is_reserved":false,"is_disabled":false,"rental_uris":{"android":"levelo://app?vid=62da484e-8334-46ac-9f7c-60809dd59db9","ios":"levelo://app?vid=62da484e-8334-46ac-9f7c-60809dd59db9"},"vehicle_type_id":"4","last_reported":1702750090,"current_range_meters":0,"station_id":"ce4bh092rcd13ifvqd30","pricing_plan_id":"free"},{"bike_id":"f0cd831c-cfb9-44c7-9487-103b6df223ca","system_id":"levelo_inurba_marseille","lat":43.337445,"lon":5.374592,"is_reserved":false,"is_disabled":false,"rental_uris":{"android":"levelo://app?vid=f0cd831c-cfb9-44c7-9487-103b6df223ca","ios":"levelo://app?vid=f0cd831c-cfb9-44c7-9487-103b6df223ca"},"vehicle_type_id":"4","last_reported":1702750090,"current_range_meters":28400,"station_id":"","pricing_plan_id":"free"},{"bike_id":"ef80ceab-dc9f-4b6c-8f52-707d5177f481","system_id":"levelo_inurba_marseille","lat":43.33752,"lon":5.37466,"is_reserved":false,"is_disabled":false,"rental_uris":{"android":"levelo://app?vid=ef80ceab-dc9f-4b6c-8f52-707d5177f481","ios":"levelo://app?vid=ef80ceab-dc9f-4b6c-8f52-707d5177f481"},"vehicle_type_id":"4","last_reported":1702750090,"current_range_meters":28000,"station_id":"","pricing_plan_id":"free"},{"bike_id":"c2d4ce2d-b9db-46c1-8f89-b3f2bc1c76f1","system_id":"levelo_inurba_marseille","lat":43.306412,"lon":5.401035,"is_reserved":false,"is_disabled":false,"rental_uris":{"android":"levelo://app?vid=c2d4ce2d-b9db-46c1-8f89-b3f2bc1c76f1","ios":"levelo://app?vid=c2d4ce2d-b9db-46c1-8f89-b3f2bc1c76f1"},"vehicle_type_id":"4","last_reported":1702750090,"current_range_meters":16800,"station_id":"ce4bh112rcd13ifvqda0","pricing_plan_id":"free"},{"bike_id":"5cb934fd-35e0-4367-a670-7f3309bc4ef7","system_id":"levelo_inurba_marseille","lat":43.301117,"lon":5.398795,"is_reserved":false,"is_disabled":false,"rental_uris":{"android":"levelo://app?vid=5cb934fd-35e0-4367-a670-7f3309bc4ef7","ios":"levelo://app?vid=5cb934fd-35e0-4367-a670-7f3309bc4ef7"},"vehicle_type_id":"4","last_reported":1702750090,"current_range_meters":5600,"station_id":"ce4bh0h2rcd13ifvqd40","pricing_plan_id":"free"},{"bike_id":"0d78b37c-1a50-4f71-9331-fd4e6d497291","system_id":"levelo_inurba_marseille","lat":43.28727,"lon":5.36078,"is_reserved":false,"is_disabled":false,"rental_uris":{"android":"levelo://app?vid=0d78b37c-1a50-4f71-9331-fd4e6d497291","ios":"levelo://app?vid=0d78b37c-1a50-4f71-9331-fd4e6d497291"},"vehicle_type_id":"4","last_reported":1702750090,"current_range_meters":19600,"station_id":"cki0cbj6b192h4jlfktg","pricing_plan_id":"free"},{"bike_id":"9de7fe6b-2b83-4447-9f36-8d653e85334f","system_id":"levelo_inurba_marseille","lat":43.286591,"lon":5.363346,"is_reserved":false,"is_disabled":false,"rental_uris":{"android":"levelo://app?vid=9de7fe6b-2b83-4447-9f36-8d653e85334f","ios":"levelo://app?vid=9de7fe6b-2b83-4447-9f36-8d653e85334f"},"vehicle_type_id":"4","last_reported":1702750090,"current_range_meters":24000,"station_id":"ce4bhah2rcd13ifvqej0","pricing_plan_id":"free"},{"bike_id":"0a6347a3-6aed-4591-ba89-15a27aa3668c","system_id":"levelo_inurba_marseille","lat":43.286961,"lon":5.373785,"is_reserved":false,"is_disabled":false,"rental_uris":{"android":"levelo://app?vid=0a6347a3-6aed-4591-ba89-15a27aa3668c","ios":"levelo://app?vid=0a6347a3-6aed-4591-ba89-15a27aa3668c"},"vehicle_type_id":"4","last_reported":1702750090,"current_range_meters":5600,"station_id":"ce4bh3p2rcd13ifvqdq0","pricing_plan_id":"free"},{"bike_id":"22a28bb8-b664-476e-801d-f7bb7c8bd5c9","system_id":"levelo_inurba_marseille","lat":43.286961,"lon":5.373785,"is_reserved":false,"is_disabled":false,"rental_uris":{"android":"levelo://app?vid=22a28bb8-b664-476e-801d-f7bb7c8bd5c9","ios":"levelo://app?vid=22a28bb8-b664-476e-801d-f7bb7c8bd5c9"},"vehicle_type_id":"4","last_reported":1702750090,"current_range_meters":6000,"station_id":"ce4bh3p2rcd13ifvqdq0","pricing_plan_id":"free"},{"bike_id":"f209ef84-10b9-4737-856f-2baa952700c6","system_id":"levelo_inurba_marseille","lat":43.295196,"lon":5.39397,"is_reserved":false,"is_disabled":false,"rental_uris":{"android":"levelo://app?vid=f209ef84-10b9-4737-856f-2baa952700c6","ios":"levelo://app?vid=f209ef84-10b9-4737-856f-2baa952700c6"},"vehicle_type_id":"4","last_reported":1702750090,"current_range_meters":4000,"station_id":"ce4bh292rcd13ifvqdf0","pricing_plan_id":"free"},{"bike_id":"c939b357-8e56-4157-ad97-c9ff0189974a","system_id":"levelo_inurba_marseille","lat":43.295196,"lon":5.39397,"is_reserved":false,"is_disabled":false,"rental_uris":{"android":"levelo://app?vid=c939b357-8e56-4157-ad97-c9ff0189974a","ios":"levelo://app?vid=c939b357-8e56-4157-ad97-c9ff0189974a"},"vehicle_type_id":"4","last_reported":1702750090,"current_range_meters":28400,"station_id":"ce4bh292rcd13ifvqdf0","pricing_plan_id":"free"},{"bike_id":"e63951e2-3f81-4d81-948c-d1a22be4690a","system_id":"levelo_inurba_marseille","lat":43.302759,"lon":5.400793,"is_reserved":false,"is_disabled":false,"rental_uris":{"android":"levelo://app?vid=e63951e2-3f81-4d81-948c-d1a22be4690a","ios":"levelo://app?vid=e63951e2-3f81-4d81-948c-d1a22be4690a"},"vehicle_type_id":"4","last_reported":1702750090,"current_range_meters":3200,"station_id":"ce4bgvh2rcd13ifvqcs0","pricing_plan_id":"free"},{"bike_id":"d05281b1-ed0d-4cb8-b456-814b9fc06e9e","system_id":"levelo_inurba_marseille","lat":43.290345,"lon":5.38646,"is_reserved":false,"is_disabled":false,"rental_uris":{"android":"levelo://app?vid=d05281b1-ed0d-4cb8-b456-814b9fc06e9e","ios":"levelo://app?vid=d05281b1-ed0d-4cb8-b456-814b9fc06e9e"},"vehicle_type_id":"4","last_reported":1702750090,"current_range_meters":1600,"station_id":"ce4bh4p2rcd13ifvqe0g","pricing_plan_id":"free"},{"bike_id":"9a4284c5-6dfa-4f90-8e28-2107874dbd62","system_id":"levelo_inurba_marseille","lat":43.302759,"lon":5.400793,"is_reserved":false,"is_disabled":false,"rental_uris":{"android":"levelo://app?vid=9a4284c5-6dfa-4f90-8e28-2107874dbd62","ios":"levelo://app?vid=9a4284c5-6dfa-4f90-8e28-2107874dbd62"},"vehicle_type_id":"4","last_reported":1702750090,"current_range_meters":8000,"station_id":"ce4bgvh2rcd13ifvqcs0","pricing_plan_id":"free"},{"bike_id":"4028c188-8502-44c0-9ce2-ac900cd6dff8","system_id":"levelo_inurba_marseille","lat":43.302759,"lon":5.400793,"is_reserved":false,"is_disabled":false,"rental_uris":{"android":"levelo://app?vid=4028c188-8502-44c0-9ce2-ac900cd6dff8","ios":"levelo://app?vid=4028c188-8502-44c0-9ce2-ac900cd6dff8"},"vehicle_type_id":"4","last_reported":1702750090,"current_range_meters":2000,"station_id":"ce4bgvh2rcd13ifvqcs0","pricing_plan_id":"free"},{"bike_id":"920a2a36-453c-48fa-aab6-a4b0e10df01d","system_id":"levelo_inurba_marseille","lat":43.286039,"lon":5.370679,"is_reserved":false,"is_disabled":false,"rental_uris":{"android":"levelo://app?vid=920a2a36-453c-48fa-aab6-a4b0e10df01d","ios":"levelo://app?vid=920a2a36-453c-48fa-aab6-a4b0e10df01d"},"vehicle_type_id":"4","last_reported":1702750090,"current_range_meters":24000,"station_id":"ce4bht12rcd13ifvqi60","pricing_plan_id":"free"},{"bike_id":"80c2415c-a02a-4f7d-a385-9c71ad364caf","system_id":"levelo_inurba_marseille","lat":43.287185,"lon":5.379373,"is_reserved":false,"is_disabled":false,"rental_uris":{"android":"levelo://app?vid=80c2415c-a02a-4f7d-a385-9c71ad364caf","ios":"levelo://app?vid=80c2415c-a02a-4f7d-a385-9c71ad364caf"},"vehicle_type_id":"4","last_reported":1702750090,"current_range_meters":20000,"station_id":"ce4bh9p2rcd13ifvqec0","pricing_plan_id":"free"},{"bike_id":"aa2ede14-6901-4b03-b092-c4a124603f26","system_id":"levelo_inurba_marseille","lat":43.316828,"lon":5.404723,"is_reserved":false,"is_disabled":false,"rental_uris":{"android":"levelo://app?vid=aa2ede14-6901-4b03-b092-c4a124603f26","ios":"levelo://app?vid=aa2ede14-6901-4b03-b092-c4a124603f26"},"vehicle_type_id":"4","last_reported":1702750090,"current_range_meters":5600,"station_id":"ce4bh012rcd13ifvqd00","pricing_plan_id":"free"},{"bike_id":"451b6bab-0444-4e4b-b949-5e6ff1258e86","system_id":"levelo_inurba_marseille","lat":43.31694,"lon":5.40479,"is_reserved":false,"is_disabled":false,"rental_uris":{"android":"levelo://app?vid=451b6bab-0444-4e4b-b949-5e6ff1258e86","ios":"levelo://app?vid=451b6bab-0444-4e4b-b949-5e6ff1258e86"},"vehicle_type_id":"4","last_reported":1702750090,"current_range_meters":3200,"station_id":"ce4bh012rcd13ifvqd00","pricing_plan_id":"free"},{"bike_id":"52b98762-df9c-4b31-a561-ff791e1eaa16","system_id":"levelo_inurba_marseille","lat":43.29228,"lon":5.39345,"is_reserved":false,"is_disabled":false,"rental_uris":{"android":"levelo://app?vid=52b98762-df9c-4b31-a561-ff791e1eaa16","ios":"levelo://app?vid=52b98762-df9c-4b31-a561-ff791e1eaa16"},"vehicle_type_id":"4","last_reported":1702750090,"current_range_meters":0,"station_id":"","pricing_plan_id":"free"},{"bike_id":"bda6638e-c5c4-4ce0-b27a-d31b010cb013","system_id":"levelo_inurba_marseille","lat":43.291994,"lon":5.392907,"is_reserved":false,"is_disabled":false,"rental_uris":{"android":"levelo://app?vid=bda6638e-c5c4-4ce0-b27a-d31b010cb013","ios":"levelo://app?vid=bda6638e-c5c4-4ce0-b27a-d31b010cb013"},"vehicle_type_id":"4","last_reported":1702750090,"current_range_meters":8800,"station_id":"ce4bh192rcd13ifvqdd0","pricing_plan_id":"free"},{"bike_id":"8658d281-8453-4bbc-ac83-275c68c5d875","system_id":"levelo_inurba_marseille","lat":43.291994,"lon":5.392907,"is_reserved":false,"is_disabled":false,"rental_uris":{"android":"levelo://app?vid=8658d281-8453-4bbc-ac83-275c68c5d875","ios":"levelo://app?vid=8658d281-8453-4bbc-ac83-275c68c5d875"},"vehicle_type_id":"4","last_reported":1702750090,"current_range_meters":19200,"station_id":"ce4bh192rcd13ifvqdd0","pricing_plan_id":"free"},{"bike_id":"05eb5255-f5d3-4971-93c6-64c8fefb7bf7","system_id":"levelo_inurba_marseille","lat":43.291994,"lon":5.392907,"is_reserved":false,"is_disabled":false,"rental_uris":{"android":"levelo://app?vid=05eb5255-f5d3-4971-93c6-64c8fefb7bf7","ios":"levelo://app?vid=05eb5255-f5d3-4971-93c6-64c8fefb7bf7"},"vehicle_type_id":"4","last_reported":1702750090,"current_range_meters":7600,"station_id":"ce4bh192rcd13ifvqdd0","pricing_plan_id":"free"},{"bike_id":"8f104b6b-4d05-4570-ae2b-932129c63ca9","system_id":"levelo_inurba_marseille","lat":43.284219,"lon":5.3497,"is_reserved":false,"is_disabled":false,"rental_uris":{"android":"levelo://app?vid=8f104b6b-4d05-4570-ae2b-932129c63ca9","ios":"levelo://app?vid=8f104b6b-4d05-4570-ae2b-932129c63ca9"},"vehicle_type_id":"4","last_reported":1702750090,"current_range_meters":18400,"station_id":"ce4bhbh2rcd13ifvqepg","pricing_plan_id":"free"},{"bike_id":"f774e64d-2336-4070-8941-4cae3e3b4120","system_id":"levelo_inurba_marseille","lat":43.284538,"lon":5.358657,"is_reserved":false,"is_disabled":false,"rental_uris":{"android":"levelo://app?vid=f774e64d-2336-4070-8941-4cae3e3b4120","ios":"levelo://app?vid=f774e64d-2336-4070-8941-4cae3e3b4120"},"vehicle_type_id":"4","last_reported":1702750090,"current_range_meters":16400,"station_id":"ce4bhah2rcd13ifvqei0","pricing_plan_id":"free"},{"bike_id":"d3e48f61-722f-458d-8694-0039838ac5c2","system_id":"levelo_inurba_marseille","lat":43.294314,"lon":5.397498,"is_reserved":false,"is_disabled":false,"rental_uris":{"android":"levelo://app?vid=d3e48f61-722f-458d-8694-0039838ac5c2","ios":"levelo://app?vid=d3e48f61-722f-458d-8694-0039838ac5c2"},"vehicle_type_id":"4","last_reported":1702750090,"current_range_meters":12400,"station_id":"ce4bh3h2rcd13ifvqdo0","pricing_plan_id":"free"},{"bike_id":"2800d5bb-a244-477c-9939-1224849b0a27","system_id":"levelo_inurba_marseille","lat":43.284209,"lon":5.375072,"is_reserved":false,"is_disabled":false,"rental_uris":{"android":"levelo://app?vid=2800d5bb-a244-477c-9939-1224849b0a27","ios":"levelo://app?vid=2800d5bb-a244-477c-9939-1224849b0a27"},"vehicle_type_id":"4","last_reported":1702750090,"current_range_meters":13200,"station_id":"ce4bh412rcd13ifvqds0","pricing_plan_id":"free"},{"bike_id":"f242a942-61a1-4b14-92e0-1cf7b79fab3f","system_id":"levelo_inurba_marseille","lat":43.283998,"lon":5.375062,"is_reserved":false,"is_disabled":false,"rental_uris":{"android":"levelo://app?vid=f242a942-61a1-4b14-92e0-1cf7b79fab3f","ios":"levelo://app?vid=f242a942-61a1-4b14-92e0-1cf7b79fab3f"},"vehicle_type_id":"4","last_reported":1702750090,"current_range_meters":0,"station_id":"ce4bh412rcd13ifvqds0","pricing_plan_id":"free"},{"bike_id":"61522803-3f09-4b23-b1f6-93722170e6e1","system_id":"levelo_inurba_marseille","lat":43.295713,"lon":5.399639,"is_reserved":false,"is_disabled":false,"rental_uris":{"android":"levelo://app?vid=61522803-3f09-4b23-b1f6-93722170e6e1","ios":"levelo://app?vid=61522803-3f09-4b23-b1f6-93722170e6e1"},"vehicle_type_id":"4","last_reported":1702750090,"current_range_meters":0,"station_id":"ce4bh312rcd13ifvqdj0","pricing_plan_id":"free"},{"bike_id":"6e6058dc-7013-46a1-a374-d5838281da91","system_id":"levelo_inurba_marseille","lat":43.283998,"lon":5.375062,"is_reserved":false,"is_disabled":false,"rental_uris":{"android":"levelo://app?vid=6e6058dc-7013-46a1-a374-d5838281da91","ios":"levelo://app?vid=6e6058dc-7013-46a1-a374-d5838281da91"},"vehicle_type_id":"4","last_reported":1702750090,"current_range_meters":7200,"station_id":"ce4bh412rcd13ifvqds0","pricing_plan_id":"free"},{"bike_id":"2dfa5049-0e1b-4839-b5c3-156910a65dbd","system_id":"levelo_inurba_marseille","lat":43.33177,"lon":5.39828,"is_reserved":false,"is_disabled":false,"rental_uris":{"android":"levelo://app?vid=2dfa5049-0e1b-4839-b5c3-156910a65dbd","ios":"levelo://app?vid=2dfa5049-0e1b-4839-b5c3-156910a65dbd"},"vehicle_type_id":"4","last_reported":1702750090,"current_range_meters":8000,"station_id":"","pricing_plan_id":"free"},{"bike_id":"74c5cf30-49f6-42f3-835f-9c531e7566b4","system_id":"levelo_inurba_marseille","lat":43.319179,"lon":5.407725,"is_reserved":false,"is_disabled":false,"rental_uris":{"android":"levelo://app?vid=74c5cf30-49f6-42f3-835f-9c531e7566b4","ios":"levelo://app?vid=74c5cf30-49f6-42f3-835f-9c531e7566b4"},"vehicle_type_id":"4","last_reported":1702750090,"current_range_meters":28800,"station_id":"ce4bhq12rcd13ifvqhig","pricing_plan_id":"free"},{"bike_id":"9731b6da-669a-4754-b25b-11e16f34b7cc","system_id":"levelo_inurba_marseille","lat":43.284793,"lon":5.384113,"is_reserved":false,"is_disabled":false,"rental_uris":{"android":"levelo://app?vid=9731b6da-669a-4754-b25b-11e16f34b7cc","ios":"levelo://app?vid=9731b6da-669a-4754-b25b-11e16f34b7cc"},"vehicle_type_id":"4","last_reported":1702750090,"current_range_meters":18000,"station_id":"ce4bh512rcd13ifvqe3g","pricing_plan_id":"free"},{"bike_id":"3854414a-3d77-43b0-9f9b-2227ca3200ff","system_id":"levelo_inurba_marseille","lat":43.284787,"lon":5.384116,"is_reserved":false,"is_disabled":false,"rental_uris":{"android":"levelo://app?vid=3854414a-3d77-43b0-9f9b-2227ca3200ff","ios":"levelo://app?vid=3854414a-3d77-43b0-9f9b-2227ca3200ff"},"vehicle_type_id":"4","last_reported":1702750090,"current_range_meters":13200,"station_id":"ce4bh512rcd13ifvqe3g","pricing_plan_id":"free"},{"bike_id":"9292aeb4-cff7-46b1-bb92-2a3577e587ff","system_id":"levelo_inurba_marseille","lat":43.297946,"lon":5.404063,"is_reserved":false,"is_disabled":false,"rental_uris":{"android":"levelo://app?vid=9292aeb4-cff7-46b1-bb92-2a3577e587ff","ios":"levelo://app?vid=9292aeb4-cff7-46b1-bb92-2a3577e587ff"},"vehicle_type_id":"4","last_reported":1702750090,"current_range_meters":10800,"station_id":"ce4bh112rcd13ifvqd90","pricing_plan_id":"free"},{"bike_id":"083f24e2-6c14-49e6-b050-864c3d895699","system_id":"levelo_inurba_marseille","lat":43.283494,"lon":5.380945,"is_reserved":false,"is_disabled":false,"rental_uris":{"android":"levelo://app?vid=083f24e2-6c14-49e6-b050-864c3d895699","ios":"levelo://app?vid=083f24e2-6c14-49e6-b050-864c3d895699"},"vehicle_type_id":"4","last_reported":1702750090,"current_range_meters":0,"station_id":"ce4bh412rcd13ifvqdr0","pricing_plan_id":"free"},{"bike_id":"5df58169-d8ee-40b7-9f84-c9d50b957b7e","system_id":"levelo_inurba_marseille","lat":43.283494,"lon":5.380945,"is_reserved":false,"is_disabled":false,"rental_uris":{"android":"levelo://app?vid=5df58169-d8ee-40b7-9f84-c9d50b957b7e","ios":"levelo://app?vid=5df58169-d8ee-40b7-9f84-c9d50b957b7e"},"vehicle_type_id":"4","last_reported":1702750090,"current_range_meters":19600,"station_id":"ce4bh412rcd13ifvqdr0","pricing_plan_id":"free"},{"bike_id":"8c305b81-05cc-4435-91b0-f7cca16b3c0a","system_id":"levelo_inurba_marseille","lat":43.292724,"lon":5.401131,"is_reserved":false,"is_disabled":false,"rental_uris":{"android":"levelo://app?vid=8c305b81-05cc-4435-91b0-f7cca16b3c0a","ios":"levelo://app?vid=8c305b81-05cc-4435-91b0-f7cca16b3c0a"},"vehicle_type_id":"4","last_reported":1702750090,"current_range_meters":10000,"station_id":"ce4bh312rcd13ifvqdk0","pricing_plan_id":"free"},{"bike_id":"5991cfce-9ba7-4a9e-b213-22b8f71a9d7d","system_id":"levelo_inurba_marseille","lat":43.283502,"lon":5.386471,"is_reserved":false,"is_disabled":false,"rental_uris":{"android":"levelo://app?vid=5991cfce-9ba7-4a9e-b213-22b8f71a9d7d","ios":"levelo://app?vid=5991cfce-9ba7-4a9e-b213-22b8f71a9d7d"},"vehicle_type_id":"4","last_reported":1702750090,"current_range_meters":15200,"station_id":"ce4bh492rcd13ifvqdvg","pricing_plan_id":"free"},{"bike_id":"39bf55a0-55b6-4e47-8733-70f6b700eb39","system_id":"levelo_inurba_marseille","lat":43.280382,"lon":5.369291,"is_reserved":false,"is_disabled":false,"rental_uris":{"android":"levelo://app?vid=39bf55a0-55b6-4e47-8733-70f6b700eb39","ios":"levelo://app?vid=39bf55a0-55b6-4e47-8733-70f6b700eb39"},"vehicle_type_id":"4","last_reported":1702750090,"current_range_meters":26400,"station_id":"ce4bha12rcd13ifvqef0","pricing_plan_id":"free"},{"bike_id":"8b955e7a-662d-4c35-827c-097b7c366ae1","system_id":"levelo_inurba_marseille","lat":43.28039,"lon":5.369297,"is_reserved":false,"is_disabled":false,"rental_uris":{"android":"levelo://app?vid=8b955e7a-662d-4c35-827c-097b7c366ae1","ios":"levelo://app?vid=8b955e7a-662d-4c35-827c-097b7c366ae1"},"vehicle_type_id":"4","last_reported":1702750090,"current_range_meters":14800,"station_id":"ce4bha12rcd13ifvqef0","pricing_plan_id":"free"},{"bike_id":"f6aeece9-5192-45e2-8134-4932236d1934","system_id":"levelo_inurba_marseille","lat":43.28039,"lon":5.369297,"is_reserved":false,"is_disabled":false,"rental_uris":{"android":"levelo://app?vid=f6aeece9-5192-45e2-8134-4932236d1934","ios":"levelo://app?vid=f6aeece9-5192-45e2-8134-4932236d1934"},"vehicle_type_id":"4","last_reported":1702750090,"current_range_meters":2000,"station_id":"ce4bha12rcd13ifvqef0","pricing_plan_id":"free"},{"bike_id":"afe69227-7a3c-48cd-ad3c-a17e4e74446c","system_id":"levelo_inurba_marseille","lat":43.320045,"lon":5.415048,"is_reserved":false,"is_disabled":false,"rental_uris":{"android":"levelo://app?vid=afe69227-7a3c-48cd-ad3c-a17e4e74446c","ios":"levelo://app?vid=afe69227-7a3c-48cd-ad3c-a17e4e74446c"},"vehicle_type_id":"4","last_reported":1702750090,"current_range_meters":12800,"station_id":"ce4bhq92rcd13ifvqhkg","pricing_plan_id":"free"},{"bike_id":"77750821-5062-4bd8-899f-18710ede1603","system_id":"levelo_inurba_marseille","lat":43.296263,"lon":5.40601,"is_reserved":false,"is_disabled":false,"rental_uris":{"android":"levelo://app?vid=77750821-5062-4bd8-899f-18710ede1603","ios":"levelo://app?vid=77750821-5062-4bd8-899f-18710ede1603"},"vehicle_type_id":"4","last_reported":1702750090,"current_range_meters":8000,"station_id":"ce4bh0h2rcd13ifvqd60","pricing_plan_id":"free"},{"bike_id":"731d583b-11fa-40c8-861f-c9b6b9dddff6","system_id":"levelo_inurba_marseille","lat":43.296263,"lon":5.40601,"is_reserved":false,"is_disabled":false,"rental_uris":{"android":"levelo://app?vid=731d583b-11fa-40c8-861f-c9b6b9dddff6","ios":"levelo://app?vid=731d583b-11fa-40c8-861f-c9b6b9dddff6"},"vehicle_type_id":"4","last_reported":1702750090,"current_range_meters":0,"station_id":"ce4bh0h2rcd13ifvqd60","pricing_plan_id":"free"},{"bike_id":"cc41ff2b-f5f0-4406-9181-4ed8087eaf55","system_id":"levelo_inurba_marseille","lat":43.284488,"lon":5.391993,"is_reserved":false,"is_disabled":false,"rental_uris":{"android":"levelo://app?vid=cc41ff2b-f5f0-4406-9181-4ed8087eaf55","ios":"levelo://app?vid=cc41ff2b-f5f0-4406-9181-4ed8087eaf55"},"vehicle_type_id":"4","last_reported":1702750090,"current_range_meters":0,"station_id":"ce4bh292rcd13ifvqdg0","pricing_plan_id":"free"},{"bike_id":"fd38bf83-c6c8-4584-99c6-568f23717249","system_id":"levelo_inurba_marseille","lat":43.30421,"lon":5.41272,"is_reserved":false,"is_disabled":false,"rental_uris":{"android":"levelo://app?vid=fd38bf83-c6c8-4584-99c6-568f23717249","ios":"levelo://app?vid=fd38bf83-c6c8-4584-99c6-568f23717249"},"vehicle_type_id":"4","last_reported":1702750090,"current_range_meters":0,"station_id":"ce4bhop2rcd13ifvqh8g","pricing_plan_id":"free"},{"bike_id":"b20b997c-e71c-4908-ab85-2e82e1ac7d9c","system_id":"levelo_inurba_marseille","lat":43.299579,"lon":5.413255,"is_reserved":false,"is_disabled":false,"rental_uris":{"android":"levelo://app?vid=b20b997c-e71c-4908-ab85-2e82e1ac7d9c","ios":"levelo://app?vid=b20b997c-e71c-4908-ab85-2e82e1ac7d9c"},"vehicle_type_id":"4","last_reported":1702750090,"current_range_meters":25600,"station_id":"ce4bhp12rcd13ifvqh9g","pricing_plan_id":"free"},{"bike_id":"52b3070a-f8dc-4ce0-bb0f-cd5abfd8243a","system_id":"levelo_inurba_marseille","lat":43.320045,"lon":5.415048,"is_reserved":false,"is_disabled":false,"rental_uris":{"android":"levelo://app?vid=52b3070a-f8dc-4ce0-bb0f-cd5abfd8243a","ios":"levelo://app?vid=52b3070a-f8dc-4ce0-bb0f-cd5abfd8243a"},"vehicle_type_id":"4","last_reported":1702750090,"current_range_meters":21200,"station_id":"ce4bhq92rcd13ifvqhkg","pricing_plan_id":"free"},{"bike_id":"c09d5640-e4d2-42f2-bdca-a4e52c321055","system_id":"levelo_inurba_marseille","lat":43.320045,"lon":5.415048,"is_reserved":false,"is_disabled":false,"rental_uris":{"android":"levelo://app?vid=c09d5640-e4d2-42f2-bdca-a4e52c321055","ios":"levelo://app?vid=c09d5640-e4d2-42f2-bdca-a4e52c321055"},"vehicle_type_id":"4","last_reported":1702750090,"current_range_meters":22400,"station_id":"ce4bhq92rcd13ifvqhkg","pricing_plan_id":"free"},{"bike_id":"9e6744c9-908c-4a9e-bcad-f869b2ae96a6","system_id":"levelo_inurba_marseille","lat":43.292571,"lon":5.409107,"is_reserved":false,"is_disabled":false,"rental_uris":{"android":"levelo://app?vid=9e6744c9-908c-4a9e-bcad-f869b2ae96a6","ios":"levelo://app?vid=9e6744c9-908c-4a9e-bcad-f869b2ae96a6"},"vehicle_type_id":"4","last_reported":1702750090,"current_range_meters":10400,"station_id":"ce4bh192rcd13ifvqdc0","pricing_plan_id":"free"},{"bike_id":"069d0ffc-e878-4e9f-93f9-764b39788a48","system_id":"levelo_inurba_marseille","lat":43.292571,"lon":5.409107,"is_reserved":false,"is_disabled":false,"rental_uris":{"android":"levelo://app?vid=069d0ffc-e878-4e9f-93f9-764b39788a48","ios":"levelo://app?vid=069d0ffc-e878-4e9f-93f9-764b39788a48"},"vehicle_type_id":"4","last_reported":1702750090,"current_range_meters":14000,"station_id":"ce4bh192rcd13ifvqdc0","pricing_plan_id":"free"},{"bike_id":"644c4a41-d319-4712-bcdb-9eb3cb6df6c2","system_id":"levelo_inurba_marseille","lat":43.292569,"lon":5.409107,"is_reserved":false,"is_disabled":false,"rental_uris":{"android":"levelo://app?vid=644c4a41-d319-4712-bcdb-9eb3cb6df6c2","ios":"levelo://app?vid=644c4a41-d319-4712-bcdb-9eb3cb6df6c2"},"vehicle_type_id":"4","last_reported":1702750090,"current_range_meters":0,"station_id":"ce4bh192rcd13ifvqdc0","pricing_plan_id":"free"},{"bike_id":"528ddb9b-dfba-4f79-b617-7a07f1ac783d","system_id":"levelo_inurba_marseille","lat":43.292569,"lon":5.409107,"is_reserved":false,"is_disabled":false,"rental_uris":{"android":"levelo://app?vid=528ddb9b-dfba-4f79-b617-7a07f1ac783d","ios":"levelo://app?vid=528ddb9b-dfba-4f79-b617-7a07f1ac783d"},"vehicle_type_id":"4","last_reported":1702750090,"current_range_meters":31600,"station_id":"ce4bh192rcd13ifvqdc0","pricing_plan_id":"free"},{"bike_id":"7905dc6e-b2af-44e7-9f04-d54f13a39370","system_id":"levelo_inurba_marseille","lat":43.27618,"lon":5.361009,"is_reserved":false,"is_disabled":false,"rental_uris":{"android":"levelo://app?vid=7905dc6e-b2af-44e7-9f04-d54f13a39370","ios":"levelo://app?vid=7905dc6e-b2af-44e7-9f04-d54f13a39370"},"vehicle_type_id":"4","last_reported":1702750090,"current_range_meters":0,"station_id":"ce4bgj92rcd13ifvqbe0","pricing_plan_id":"free"},{"bike_id":"e7fcdeca-090d-491e-a8ea-4f6571be908d","system_id":"levelo_inurba_marseille","lat":43.280784,"lon":5.396622,"is_reserved":false,"is_disabled":false,"rental_uris":{"android":"levelo://app?vid=e7fcdeca-090d-491e-a8ea-4f6571be908d","ios":"levelo://app?vid=e7fcdeca-090d-491e-a8ea-4f6571be908d"},"vehicle_type_id":"4","last_reported":1702750090,"current_range_meters":13200,"station_id":"ce4bho12rcd13ifvqh2g","pricing_plan_id":"free"},{"bike_id":"a79d03e4-a6f2-485a-966e-fa282320a800","system_id":"levelo_inurba_marseille","lat":43.33593,"lon":5.4102,"is_reserved":false,"is_disabled":false,"rental_uris":{"android":"levelo://app?vid=a79d03e4-a6f2-485a-966e-fa282320a800","ios":"levelo://app?vid=a79d03e4-a6f2-485a-966e-fa282320a800"},"vehicle_type_id":"4","last_reported":1702750090,"current_range_meters":28400,"station_id":"ce4bhqh2rcd13ifvqhmg","pricing_plan_id":"free"},{"bike_id":"e34eaf55-c35f-4101-9878-ba8bdd65c155","system_id":"levelo_inurba_marseille","lat":43.275625,"lon":5.384392,"is_reserved":false,"is_disabled":false,"rental_uris":{"android":"levelo://app?vid=e34eaf55-c35f-4101-9878-ba8bdd65c155","ios":"levelo://app?vid=e34eaf55-c35f-4101-9878-ba8bdd65c155"},"vehicle_type_id":"4","last_reported":1702750090,"current_range_meters":15600,"station_id":"ce4bhh92rcd13ifvqfi0","pricing_plan_id":"free"},{"bike_id":"ea3d35f6-b07e-4308-ae51-5376e9d8e7cc","system_id":"levelo_inurba_marseille","lat":43.27352,"lon":5.364558,"is_reserved":false,"is_disabled":false,"rental_uris":{"android":"levelo://app?vid=ea3d35f6-b07e-4308-ae51-5376e9d8e7cc","ios":"levelo://app?vid=ea3d35f6-b07e-4308-ae51-5376e9d8e7cc"},"vehicle_type_id":"4","last_reported":1702750090,"current_range_meters":15600,"station_id":"","pricing_plan_id":"free"},{"bike_id":"dd100710-f13f-4f6d-b6b7-8bc6b1d00b8c","system_id":"levelo_inurba_marseille","lat":43.279952,"lon":5.400085,"is_reserved":false,"is_disabled":false,"rental_uris":{"android":"levelo://app?vid=dd100710-f13f-4f6d-b6b7-8bc6b1d00b8c","ios":"levelo://app?vid=dd100710-f13f-4f6d-b6b7-8bc6b1d00b8c"},"vehicle_type_id":"4","last_reported":1702750090,"current_range_meters":7200,"station_id":"ce4bho92rcd13ifvqh4g","pricing_plan_id":"free"},{"bike_id":"2069f7ce-d397-4cc3-800b-fa9681334a84","system_id":"levelo_inurba_marseille","lat":43.279952,"lon":5.400085,"is_reserved":false,"is_disabled":false,"rental_uris":{"android":"levelo://app?vid=2069f7ce-d397-4cc3-800b-fa9681334a84","ios":"levelo://app?vid=2069f7ce-d397-4cc3-800b-fa9681334a84"},"vehicle_type_id":"4","last_reported":1702750090,"current_range_meters":26400,"station_id":"ce4bho92rcd13ifvqh4g","pricing_plan_id":"free"},{"bike_id":"93a9a0b0-f09a-4679-973e-f3ebca0caf36","system_id":"levelo_inurba_marseille","lat":43.310785,"lon":5.424305,"is_reserved":false,"is_disabled":false,"rental_uris":{"android":"levelo://app?vid=93a9a0b0-f09a-4679-973e-f3ebca0caf36","ios":"levelo://app?vid=93a9a0b0-f09a-4679-973e-f3ebca0caf36"},"vehicle_type_id":"4","last_reported":1702750090,"current_range_meters":31200,"station_id":"ce4bhp92rcd13ifvqhag","pricing_plan_id":"free"},{"bike_id":"537d4ba1-d686-41ad-b23a-d66071d8f96a","system_id":"levelo_inurba_marseille","lat":43.31085,"lon":5.42431,"is_reserved":false,"is_disabled":false,"rental_uris":{"android":"levelo://app?vid=537d4ba1-d686-41ad-b23a-d66071d8f96a","ios":"levelo://app?vid=537d4ba1-d686-41ad-b23a-d66071d8f96a"},"vehicle_type_id":"4","last_reported":1702750090,"current_range_meters":31200,"station_id":"ce4bhp92rcd13ifvqhag","pricing_plan_id":"free"},{"bike_id":"10eadedf-b2e9-4bb9-a1f0-77df69175439","system_id":"levelo_inurba_marseille","lat":43.28386,"lon":5.40852,"is_reserved":false,"is_disabled":false,"rental_uris":{"android":"levelo://app?vid=10eadedf-b2e9-4bb9-a1f0-77df69175439","ios":"levelo://app?vid=10eadedf-b2e9-4bb9-a1f0-77df69175439"},"vehicle_type_id":"4","last_reported":1702750090,"current_range_meters":11600,"station_id":"","pricing_plan_id":"free"},{"bike_id":"87cc8c4f-8ecf-420c-bac2-ed05f14f8c04","system_id":"levelo_inurba_marseille","lat":43.2761,"lon":5.39493,"is_reserved":false,"is_disabled":false,"rental_uris":{"android":"levelo://app?vid=87cc8c4f-8ecf-420c-bac2-ed05f14f8c04","ios":"levelo://app?vid=87cc8c4f-8ecf-420c-bac2-ed05f14f8c04"},"vehicle_type_id":"4","last_reported":1702750090,"current_range_meters":15200,"station_id":"","pricing_plan_id":"free"},{"bike_id":"0acc6b6b-3448-40d9-b621-4c4b1653b16d","system_id":"levelo_inurba_marseille","lat":43.34132,"lon":5.40912,"is_reserved":false,"is_disabled":false,"rental_uris":{"android":"levelo://app?vid=0acc6b6b-3448-40d9-b621-4c4b1653b16d","ios":"levelo://app?vid=0acc6b6b-3448-40d9-b621-4c4b1653b16d"},"vehicle_type_id":"4","last_reported":1702750090,"current_range_meters":29600,"station_id":"ce4bhqh2rcd13ifvqhlg","pricing_plan_id":"free"},{"bike_id":"3ca2c2d2-99b0-4aa6-a05d-e30f02e6a7fb","system_id":"levelo_inurba_marseille","lat":43.276092,"lon":5.395289,"is_reserved":false,"is_disabled":false,"rental_uris":{"android":"levelo://app?vid=3ca2c2d2-99b0-4aa6-a05d-e30f02e6a7fb","ios":"levelo://app?vid=3ca2c2d2-99b0-4aa6-a05d-e30f02e6a7fb"},"vehicle_type_id":"4","last_reported":1702750090,"current_range_meters":21600,"station_id":"","pricing_plan_id":"free"},{"bike_id":"a4e48fad-82f8-44c5-a08b-d276980591d3","system_id":"levelo_inurba_marseille","lat":43.304096,"lon":5.425385,"is_reserved":false,"is_disabled":false,"rental_uris":{"android":"levelo://app?vid=a4e48fad-82f8-44c5-a08b-d276980591d3","ios":"levelo://app?vid=a4e48fad-82f8-44c5-a08b-d276980591d3"},"vehicle_type_id":"4","last_reported":1702750090,"current_range_meters":4000,"station_id":"ce4bhoh2rcd13ifvqh6g","pricing_plan_id":"free"},{"bike_id":"bf39cdd6-5b84-4a52-ae59-c069fec5a89b","system_id":"levelo_inurba_marseille","lat":43.295523,"lon":5.422926,"is_reserved":false,"is_disabled":false,"rental_uris":{"android":"levelo://app?vid=bf39cdd6-5b84-4a52-ae59-c069fec5a89b","ios":"levelo://app?vid=bf39cdd6-5b84-4a52-ae59-c069fec5a89b"},"vehicle_type_id":"4","last_reported":1702750090,"current_range_meters":14000,"station_id":"ce4bhph2rcd13ifvqhdg","pricing_plan_id":"free"},{"bike_id":"7c5e5a9a-9f39-4a14-9573-d5b8ab599dd5","system_id":"levelo_inurba_marseille","lat":43.27191,"lon":5.392298,"is_reserved":false,"is_disabled":false,"rental_uris":{"android":"levelo://app?vid=7c5e5a9a-9f39-4a14-9573-d5b8ab599dd5","ios":"levelo://app?vid=7c5e5a9a-9f39-4a14-9573-d5b8ab599dd5"},"vehicle_type_id":"4","last_reported":1702750090,"current_range_meters":18000,"station_id":"ce4bhhp2rcd13ifvqfm0","pricing_plan_id":"free"},{"bike_id":"b3ef1960-99e4-4fd2-907a-6d81731c206b","system_id":"levelo_inurba_marseille","lat":43.278128,"lon":5.407195,"is_reserved":false,"is_disabled":false,"rental_uris":{"android":"levelo://app?vid=b3ef1960-99e4-4fd2-907a-6d81731c206b","ios":"levelo://app?vid=b3ef1960-99e4-4fd2-907a-6d81731c206b"},"vehicle_type_id":"4","last_reported":1702750090,"current_range_meters":17600,"station_id":"ce4bhnh2rcd13ifvqgtg","pricing_plan_id":"free"},{"bike_id":"db774753-4382-453e-a138-c32d538f9839","system_id":"levelo_inurba_marseille","lat":43.35867,"lon":5.35674,"is_reserved":false,"is_disabled":false,"rental_uris":{"android":"levelo://app?vid=db774753-4382-453e-a138-c32d538f9839","ios":"levelo://app?vid=db774753-4382-453e-a138-c32d538f9839"},"vehicle_type_id":"4","last_reported":1702750090,"current_range_meters":9200,"station_id":"","pricing_plan_id":"free"},{"bike_id":"3cf20bd2-a34c-4063-8276-7172f1ff5204","system_id":"levelo_inurba_marseille","lat":43.26554,"lon":5.37283,"is_reserved":false,"is_disabled":false,"rental_uris":{"android":"levelo://app?vid=3cf20bd2-a34c-4063-8276-7172f1ff5204","ios":"levelo://app?vid=3cf20bd2-a34c-4063-8276-7172f1ff5204"},"vehicle_type_id":"4","last_reported":1702750090,"current_range_meters":0,"station_id":"ce4bhg12rcd13ifvqf70","pricing_plan_id":"free"},{"bike_id":"52de8be1-9ba2-4c7e-ab8f-715d3a87692c","system_id":"levelo_inurba_marseille","lat":43.26554,"lon":5.37284,"is_reserved":false,"is_disabled":false,"rental_uris":{"android":"levelo://app?vid=52de8be1-9ba2-4c7e-ab8f-715d3a87692c","ios":"levelo://app?vid=52de8be1-9ba2-4c7e-ab8f-715d3a87692c"},"vehicle_type_id":"4","last_reported":1702750090,"current_range_meters":2800,"station_id":"ce4bhg12rcd13ifvqf70","pricing_plan_id":"free"},{"bike_id":"e5425772-f843-49fe-b869-a52f2462f4b8","system_id":"levelo_inurba_marseille","lat":43.26552,"lon":5.37286,"is_reserved":false,"is_disabled":false,"rental_uris":{"android":"levelo://app?vid=e5425772-f843-49fe-b869-a52f2462f4b8","ios":"levelo://app?vid=e5425772-f843-49fe-b869-a52f2462f4b8"},"vehicle_type_id":"4","last_reported":1702750090,"current_range_meters":20400,"station_id":"ce4bhg12rcd13ifvqf70","pricing_plan_id":"free"},{"bike_id":"4e5fa13c-797e-4b2b-9a7c-88c2a22fc530","system_id":"levelo_inurba_marseille","lat":43.27996,"lon":5.416624,"is_reserved":false,"is_disabled":false,"rental_uris":{"android":"levelo://app?vid=4e5fa13c-797e-4b2b-9a7c-88c2a22fc530","ios":"levelo://app?vid=4e5fa13c-797e-4b2b-9a7c-88c2a22fc530"},"vehicle_type_id":"4","last_reported":1702750090,"current_range_meters":30400,"station_id":"ce4bho12rcd13ifvqh1g","pricing_plan_id":"free"},{"bike_id":"7b3acfec-7269-4a55-abfa-7819202d73ef","system_id":"levelo_inurba_marseille","lat":43.308051,"lon":5.43527,"is_reserved":false,"is_disabled":false,"rental_uris":{"android":"levelo://app?vid=7b3acfec-7269-4a55-abfa-7819202d73ef","ios":"levelo://app?vid=7b3acfec-7269-4a55-abfa-7819202d73ef"},"vehicle_type_id":"4","last_reported":1702750090,"current_range_meters":28400,"station_id":"ce4bhph2rcd13ifvqheg","pricing_plan_id":"free"},{"bike_id":"63a5be26-ca79-42ce-b963-ff2f251917d4","system_id":"levelo_inurba_marseille","lat":43.26566,"lon":5.38999,"is_reserved":false,"is_disabled":false,"rental_uris":{"android":"levelo://app?vid=63a5be26-ca79-42ce-b963-ff2f251917d4","ios":"levelo://app?vid=63a5be26-ca79-42ce-b963-ff2f251917d4"},"vehicle_type_id":"4","last_reported":1702750090,"current_range_meters":0,"station_id":"ce4bhe12rcd13ifvqf30","pricing_plan_id":"free"},{"bike_id":"b9c95d77-1d41-4ee7-8cad-aac1965baaa7","system_id":"levelo_inurba_marseille","lat":43.26941,"lon":5.4026,"is_reserved":false,"is_disabled":false,"rental_uris":{"android":"levelo://app?vid=b9c95d77-1d41-4ee7-8cad-aac1965baaa7","ios":"levelo://app?vid=b9c95d77-1d41-4ee7-8cad-aac1965baaa7"},"vehicle_type_id":"4","last_reported":1702750090,"current_range_meters":12800,"station_id":"cjm6bp8fraef2m0cb0m0","pricing_plan_id":"free"},{"bike_id":"b4098807-c247-4f97-ab77-cebed29f8a76","system_id":"levelo_inurba_marseille","lat":43.261782,"lon":5.374515,"is_reserved":false,"is_disabled":false,"rental_uris":{"android":"levelo://app?vid=b4098807-c247-4f97-ab77-cebed29f8a76","ios":"levelo://app?vid=b4098807-c247-4f97-ab77-cebed29f8a76"},"vehicle_type_id":"4","last_reported":1702750090,"current_range_meters":5200,"station_id":"ce4bhgp2rcd13ifvqfc0","pricing_plan_id":"free"},{"bike_id":"9b148fe7-0ffd-4931-8c29-6e6064af2347","system_id":"levelo_inurba_marseille","lat":43.317104,"lon":5.436818,"is_reserved":false,"is_disabled":false,"rental_uris":{"android":"levelo://app?vid=9b148fe7-0ffd-4931-8c29-6e6064af2347","ios":"levelo://app?vid=9b148fe7-0ffd-4931-8c29-6e6064af2347"},"vehicle_type_id":"4","last_reported":1702750090,"current_range_meters":18400,"station_id":"ce4bhp92rcd13ifvqhcg","pricing_plan_id":"free"},{"bike_id":"1178483c-0d1a-47b4-85ee-c550971cda20","system_id":"levelo_inurba_marseille","lat":43.317104,"lon":5.436818,"is_reserved":false,"is_disabled":false,"rental_uris":{"android":"levelo://app?vid=1178483c-0d1a-47b4-85ee-c550971cda20","ios":"levelo://app?vid=1178483c-0d1a-47b4-85ee-c550971cda20"},"vehicle_type_id":"4","last_reported":1702750090,"current_range_meters":24000,"station_id":"ce4bhp92rcd13ifvqhcg","pricing_plan_id":"free"},{"bike_id":"6bca7f14-330c-412a-9432-6438f3451c27","system_id":"levelo_inurba_marseille","lat":43.317104,"lon":5.436818,"is_reserved":false,"is_disabled":false,"rental_uris":{"android":"levelo://app?vid=6bca7f14-330c-412a-9432-6438f3451c27","ios":"levelo://app?vid=6bca7f14-330c-412a-9432-6438f3451c27"},"vehicle_type_id":"4","last_reported":1702750090,"current_range_meters":12400,"station_id":"ce4bhp92rcd13ifvqhcg","pricing_plan_id":"free"},{"bike_id":"d084d587-4b27-4e47-8734-14f6d302ab83","system_id":"levelo_inurba_marseille","lat":43.298768,"lon":5.43643,"is_reserved":false,"is_disabled":false,"rental_uris":{"android":"levelo://app?vid=d084d587-4b27-4e47-8734-14f6d302ab83","ios":"levelo://app?vid=d084d587-4b27-4e47-8734-14f6d302ab83"},"vehicle_type_id":"4","last_reported":1702750090,"current_range_meters":27600,"station_id":"ce4bhpp2rcd13ifvqhfg","pricing_plan_id":"free"},{"bike_id":"e26792ce-4f9c-47df-8537-3fa8963ccdce","system_id":"levelo_inurba_marseille","lat":43.260225,"lon":5.375455,"is_reserved":false,"is_disabled":false,"rental_uris":{"android":"levelo://app?vid=e26792ce-4f9c-47df-8537-3fa8963ccdce","ios":"levelo://app?vid=e26792ce-4f9c-47df-8537-3fa8963ccdce"},"vehicle_type_id":"4","last_reported":1702750090,"current_range_meters":6400,"station_id":"ce4bhgh2rcd13ifvqfa0","pricing_plan_id":"free"},{"bike_id":"4dd764f6-774c-4512-8b0e-1beb34d8f863","system_id":"levelo_inurba_marseille","lat":43.281548,"lon":5.42643,"is_reserved":false,"is_disabled":false,"rental_uris":{"android":"levelo://app?vid=4dd764f6-774c-4512-8b0e-1beb34d8f863","ios":"levelo://app?vid=4dd764f6-774c-4512-8b0e-1beb34d8f863"},"vehicle_type_id":"4","last_reported":1702750090,"current_range_meters":3200,"station_id":"ce4bhnh2rcd13ifvqgug","pricing_plan_id":"free"},{"bike_id":"015d1bdd-8436-4e32-9689-46fc9fa5e8e3","system_id":"levelo_inurba_marseille","lat":43.25585,"lon":5.38235,"is_reserved":false,"is_disabled":false,"rental_uris":{"android":"levelo://app?vid=015d1bdd-8436-4e32-9689-46fc9fa5e8e3","ios":"levelo://app?vid=015d1bdd-8436-4e32-9689-46fc9fa5e8e3"},"vehicle_type_id":"4","last_reported":1702750090,"current_range_meters":800,"station_id":"ce4bhih2rcd13ifvqfs0","pricing_plan_id":"free"},{"bike_id":"be439717-a42e-49af-8f3f-9e313091d2ef","system_id":"levelo_inurba_marseille","lat":43.258224,"lon":5.394369,"is_reserved":false,"is_disabled":false,"rental_uris":{"android":"levelo://app?vid=be439717-a42e-49af-8f3f-9e313091d2ef","ios":"levelo://app?vid=be439717-a42e-49af-8f3f-9e313091d2ef"},"vehicle_type_id":"4","last_reported":1702750090,"current_range_meters":30000,"station_id":"ce4bhip2rcd13ifvqft0","pricing_plan_id":"free"},{"bike_id":"bacfe1e7-350e-4ee2-b919-71adf6442a86","system_id":"levelo_inurba_marseille","lat":43.25497,"lon":5.3765,"is_reserved":false,"is_disabled":false,"rental_uris":{"android":"levelo://app?vid=bacfe1e7-350e-4ee2-b919-71adf6442a86","ios":"levelo://app?vid=bacfe1e7-350e-4ee2-b919-71adf6442a86"},"vehicle_type_id":"4","last_reported":1702750090,"current_range_meters":6000,"station_id":"ce4bhh12rcd13ifvqff0","pricing_plan_id":"free"},{"bike_id":"7a47a71b-315e-4a6b-aec6-3d24641c898b","system_id":"levelo_inurba_marseille","lat":43.25494,"lon":5.3765,"is_reserved":false,"is_disabled":false,"rental_uris":{"android":"levelo://app?vid=7a47a71b-315e-4a6b-aec6-3d24641c898b","ios":"levelo://app?vid=7a47a71b-315e-4a6b-aec6-3d24641c898b"},"vehicle_type_id":"4","last_reported":1702750090,"current_range_meters":800,"station_id":"ce4bhh12rcd13ifvqff0","pricing_plan_id":"free"},{"bike_id":"f5a8fbea-f33a-4da1-926f-44d2ecea28ea","system_id":"levelo_inurba_marseille","lat":43.25492,"lon":5.37649,"is_reserved":false,"is_disabled":false,"rental_uris":{"android":"levelo://app?vid=f5a8fbea-f33a-4da1-926f-44d2ecea28ea","ios":"levelo://app?vid=f5a8fbea-f33a-4da1-926f-44d2ecea28ea"},"vehicle_type_id":"4","last_reported":1702750090,"current_range_meters":1600,"station_id":"ce4bhh12rcd13ifvqff0","pricing_plan_id":"free"},{"bike_id":"68e7d4f2-afdf-4f29-901c-35913c5aae20","system_id":"levelo_inurba_marseille","lat":43.27073,"lon":5.42277,"is_reserved":false,"is_disabled":false,"rental_uris":{"android":"levelo://app?vid=68e7d4f2-afdf-4f29-901c-35913c5aae20","ios":"levelo://app?vid=68e7d4f2-afdf-4f29-901c-35913c5aae20"},"vehicle_type_id":"4","last_reported":1702750090,"current_range_meters":16400,"station_id":"ce4bhk92rcd13ifvqgb0","pricing_plan_id":"free"},{"bike_id":"c98d070b-1c6e-483c-b054-c855006c48f8","system_id":"levelo_inurba_marseille","lat":43.27066,"lon":5.42269,"is_reserved":false,"is_disabled":false,"rental_uris":{"android":"levelo://app?vid=c98d070b-1c6e-483c-b054-c855006c48f8","ios":"levelo://app?vid=c98d070b-1c6e-483c-b054-c855006c48f8"},"vehicle_type_id":"4","last_reported":1702750090,"current_range_meters":31200,"station_id":"ce4bhk92rcd13ifvqgb0","pricing_plan_id":"free"},{"bike_id":"26954362-f19b-4ce0-ad65-e308ed4d326d","system_id":"levelo_inurba_marseille","lat":43.27072,"lon":5.42281,"is_reserved":false,"is_disabled":false,"rental_uris":{"android":"levelo://app?vid=26954362-f19b-4ce0-ad65-e308ed4d326d","ios":"levelo://app?vid=26954362-f19b-4ce0-ad65-e308ed4d326d"},"vehicle_type_id":"4","last_reported":1702750090,"current_range_meters":27600,"station_id":"ce4bhk92rcd13ifvqgb0","pricing_plan_id":"free"},{"bike_id":"6f8bc308-b6c9-4130-ae6a-c51ab599cbdb","system_id":"levelo_inurba_marseille","lat":43.259013,"lon":5.409301,"is_reserved":false,"is_disabled":false,"rental_uris":{"android":"levelo://app?vid=6f8bc308-b6c9-4130-ae6a-c51ab599cbdb","ios":"levelo://app?vid=6f8bc308-b6c9-4130-ae6a-c51ab599cbdb"},"vehicle_type_id":"4","last_reported":1702750090,"current_range_meters":6400,"station_id":"ce4bhm92rcd13ifvqglg","pricing_plan_id":"free"},{"bike_id":"d580425e-fb16-4470-bb41-0d899b50c75c","system_id":"levelo_inurba_marseille","lat":43.257079,"lon":5.411051,"is_reserved":false,"is_disabled":false,"rental_uris":{"android":"levelo://app?vid=d580425e-fb16-4470-bb41-0d899b50c75c","ios":"levelo://app?vid=d580425e-fb16-4470-bb41-0d899b50c75c"},"vehicle_type_id":"4","last_reported":1702750090,"current_range_meters":28000,"station_id":"ce4bhkp2rcd13ifvqgd0","pricing_plan_id":"free"},{"bike_id":"99ba9d84-c93f-454d-acfc-7fa92c9b8fd3","system_id":"levelo_inurba_marseille","lat":43.257079,"lon":5.411051,"is_reserved":false,"is_disabled":false,"rental_uris":{"android":"levelo://app?vid=99ba9d84-c93f-454d-acfc-7fa92c9b8fd3","ios":"levelo://app?vid=99ba9d84-c93f-454d-acfc-7fa92c9b8fd3"},"vehicle_type_id":"4","last_reported":1702750090,"current_range_meters":26800,"station_id":"ce4bhkp2rcd13ifvqgd0","pricing_plan_id":"free"},{"bike_id":"448471ab-9356-485e-81ba-dceb5359d400","system_id":"levelo_inurba_marseille","lat":43.250009,"lon":5.389195,"is_reserved":false,"is_disabled":false,"rental_uris":{"android":"levelo://app?vid=448471ab-9356-485e-81ba-dceb5359d400","ios":"levelo://app?vid=448471ab-9356-485e-81ba-dceb5359d400"},"vehicle_type_id":"4","last_reported":1702750090,"current_range_meters":27600,"station_id":"ce4bhgp2rcd13ifvqfd0","pricing_plan_id":"free"},{"bike_id":"27ef411b-5c91-4199-860c-0519706cd3b8","system_id":"levelo_inurba_marseille","lat":43.2479,"lon":5.374457,"is_reserved":false,"is_disabled":false,"rental_uris":{"android":"levelo://app?vid=27ef411b-5c91-4199-860c-0519706cd3b8","ios":"levelo://app?vid=27ef411b-5c91-4199-860c-0519706cd3b8"},"vehicle_type_id":"4","last_reported":1702750090,"current_range_meters":31200,"station_id":"ce4bhgh2rcd13ifvqfb0","pricing_plan_id":"free"},{"bike_id":"e0c92d68-5ac6-467a-a76e-ccc45eae5eb1","system_id":"levelo_inurba_marseille","lat":43.248083,"lon":5.374626,"is_reserved":false,"is_disabled":false,"rental_uris":{"android":"levelo://app?vid=e0c92d68-5ac6-467a-a76e-ccc45eae5eb1","ios":"levelo://app?vid=e0c92d68-5ac6-467a-a76e-ccc45eae5eb1"},"vehicle_type_id":"4","last_reported":1702750090,"current_range_meters":14400,"station_id":"ce4bhgh2rcd13ifvqfb0","pricing_plan_id":"free"},{"bike_id":"b18fae3e-3e5b-4535-ac93-f816f3f674ce","system_id":"levelo_inurba_marseille","lat":43.2479,"lon":5.374457,"is_reserved":false,"is_disabled":false,"rental_uris":{"android":"levelo://app?vid=b18fae3e-3e5b-4535-ac93-f816f3f674ce","ios":"levelo://app?vid=b18fae3e-3e5b-4535-ac93-f816f3f674ce"},"vehicle_type_id":"4","last_reported":1702750090,"current_range_meters":19600,"station_id":"ce4bhgh2rcd13ifvqfb0","pricing_plan_id":"free"},{"bike_id":"7c0e03fc-f49c-4340-a907-c4e63b7db039","system_id":"levelo_inurba_marseille","lat":43.2479,"lon":5.374457,"is_reserved":false,"is_disabled":false,"rental_uris":{"android":"levelo://app?vid=7c0e03fc-f49c-4340-a907-c4e63b7db039","ios":"levelo://app?vid=7c0e03fc-f49c-4340-a907-c4e63b7db039"},"vehicle_type_id":"4","last_reported":1702750090,"current_range_meters":8000,"station_id":"ce4bhgh2rcd13ifvqfb0","pricing_plan_id":"free"},{"bike_id":"a9883920-5b53-4f2a-af45-e5254224c0ee","system_id":"levelo_inurba_marseille","lat":43.250966,"lon":5.395186,"is_reserved":false,"is_disabled":false,"rental_uris":{"android":"levelo://app?vid=a9883920-5b53-4f2a-af45-e5254224c0ee","ios":"levelo://app?vid=a9883920-5b53-4f2a-af45-e5254224c0ee"},"vehicle_type_id":"4","last_reported":1702750090,"current_range_meters":22800,"station_id":"ce4bhm12rcd13ifvqgkg","pricing_plan_id":"free"},{"bike_id":"93602676-acb0-42fe-87b6-f7f2d933725d","system_id":"levelo_inurba_marseille","lat":43.250966,"lon":5.395186,"is_reserved":false,"is_disabled":false,"rental_uris":{"android":"levelo://app?vid=93602676-acb0-42fe-87b6-f7f2d933725d","ios":"levelo://app?vid=93602676-acb0-42fe-87b6-f7f2d933725d"},"vehicle_type_id":"4","last_reported":1702750090,"current_range_meters":13200,"station_id":"ce4bhm12rcd13ifvqgkg","pricing_plan_id":"free"},{"bike_id":"cda151f2-9ad2-46c9-9115-b73ba9a06619","system_id":"levelo_inurba_marseille","lat":43.25221,"lon":5.4064,"is_reserved":false,"is_disabled":false,"rental_uris":{"android":"levelo://app?vid=cda151f2-9ad2-46c9-9115-b73ba9a06619","ios":"levelo://app?vid=cda151f2-9ad2-46c9-9115-b73ba9a06619"},"vehicle_type_id":"4","last_reported":1702750090,"current_range_meters":3200,"station_id":"","pricing_plan_id":"free"},{"bike_id":"316231fa-dedc-4562-9e70-22bc3ca2ba5a","system_id":"levelo_inurba_marseille","lat":43.25102,"lon":5.403214,"is_reserved":false,"is_disabled":false,"rental_uris":{"android":"levelo://app?vid=316231fa-dedc-4562-9e70-22bc3ca2ba5a","ios":"levelo://app?vid=316231fa-dedc-4562-9e70-22bc3ca2ba5a"},"vehicle_type_id":"4","last_reported":1702750090,"current_range_meters":26800,"station_id":"ce4bhlh2rcd13ifvqgig","pricing_plan_id":"free"},{"bike_id":"a6b077af-1cdf-42be-a50a-3ff120aafe8b","system_id":"levelo_inurba_marseille","lat":43.25102,"lon":5.403214,"is_reserved":false,"is_disabled":false,"rental_uris":{"android":"levelo://app?vid=a6b077af-1cdf-42be-a50a-3ff120aafe8b","ios":"levelo://app?vid=a6b077af-1cdf-42be-a50a-3ff120aafe8b"},"vehicle_type_id":"4","last_reported":1702750090,"current_range_meters":15600,"station_id":"ce4bhlh2rcd13ifvqgig","pricing_plan_id":"free"},{"bike_id":"b35e49f7-2d7c-42c5-bdb1-1b9bc960b21b","system_id":"levelo_inurba_marseille","lat":43.24391,"lon":5.37069,"is_reserved":false,"is_disabled":false,"rental_uris":{"android":"levelo://app?vid=b35e49f7-2d7c-42c5-bdb1-1b9bc960b21b","ios":"levelo://app?vid=b35e49f7-2d7c-42c5-bdb1-1b9bc960b21b"},"vehicle_type_id":"4","last_reported":1702750090,"current_range_meters":0,"station_id":"ce4bhhh2rcd13ifvqfk0","pricing_plan_id":"free"},{"bike_id":"736c3f25-a862-4296-8690-b1e2405f956c","system_id":"levelo_inurba_marseille","lat":43.243884,"lon":5.370737,"is_reserved":false,"is_disabled":false,"rental_uris":{"android":"levelo://app?vid=736c3f25-a862-4296-8690-b1e2405f956c","ios":"levelo://app?vid=736c3f25-a862-4296-8690-b1e2405f956c"},"vehicle_type_id":"4","last_reported":1702750090,"current_range_meters":10800,"station_id":"ce4bhhh2rcd13ifvqfk0","pricing_plan_id":"free"},{"bike_id":"908af08a-6663-4dfd-a50f-e107f5da61f8","system_id":"levelo_inurba_marseille","lat":43.245581,"lon":5.395069,"is_reserved":false,"is_disabled":false,"rental_uris":{"android":"levelo://app?vid=908af08a-6663-4dfd-a50f-e107f5da61f8","ios":"levelo://app?vid=908af08a-6663-4dfd-a50f-e107f5da61f8"},"vehicle_type_id":"4","last_reported":1702750090,"current_range_meters":20400,"station_id":"ce4bhlp2rcd13ifvqgjg","pricing_plan_id":"free"},{"bike_id":"8ff5bee7-f115-4061-88c8-1586aae217e6","system_id":"levelo_inurba_marseille","lat":43.245581,"lon":5.395069,"is_reserved":false,"is_disabled":false,"rental_uris":{"android":"levelo://app?vid=8ff5bee7-f115-4061-88c8-1586aae217e6","ios":"levelo://app?vid=8ff5bee7-f115-4061-88c8-1586aae217e6"},"vehicle_type_id":"4","last_reported":1702750090,"current_range_meters":20800,"station_id":"ce4bhlp2rcd13ifvqgjg","pricing_plan_id":"free"},{"bike_id":"036f38be-eb22-4abf-b97e-af9b17578d60","system_id":"levelo_inurba_marseille","lat":43.25102,"lon":5.403214,"is_reserved":false,"is_disabled":false,"rental_uris":{"android":"levelo://app?vid=036f38be-eb22-4abf-b97e-af9b17578d60","ios":"levelo://app?vid=036f38be-eb22-4abf-b97e-af9b17578d60"},"vehicle_type_id":"4","last_reported":1702750090,"current_range_meters":21600,"station_id":"ce4bhlh2rcd13ifvqgig","pricing_plan_id":"free"},{"bike_id":"2913b0e3-c44c-49f1-ba84-d9d46d3f68b0","system_id":"levelo_inurba_marseille","lat":43.24869,"lon":5.41,"is_reserved":false,"is_disabled":false,"rental_uris":{"android":"levelo://app?vid=2913b0e3-c44c-49f1-ba84-d9d46d3f68b0","ios":"levelo://app?vid=2913b0e3-c44c-49f1-ba84-d9d46d3f68b0"},"vehicle_type_id":"4","last_reported":1702750090,"current_range_meters":18400,"station_id":"","pricing_plan_id":"free"},{"bike_id":"ee83fd25-65b9-414e-935b-7e3d2531a0b9","system_id":"levelo_inurba_marseille","lat":43.24134,"lon":5.37028,"is_reserved":false,"is_disabled":false,"rental_uris":{"android":"levelo://app?vid=ee83fd25-65b9-414e-935b-7e3d2531a0b9","ios":"levelo://app?vid=ee83fd25-65b9-414e-935b-7e3d2531a0b9"},"vehicle_type_id":"4","last_reported":1702750090,"current_range_meters":400,"station_id":"","pricing_plan_id":"free"},{"bike_id":"03cf0765-15f0-42dc-ac27-fb1473e09a89","system_id":"levelo_inurba_marseille","lat":43.240623,"lon":5.377642,"is_reserved":false,"is_disabled":false,"rental_uris":{"android":"levelo://app?vid=03cf0765-15f0-42dc-ac27-fb1473e09a89","ios":"levelo://app?vid=03cf0765-15f0-42dc-ac27-fb1473e09a89"},"vehicle_type_id":"4","last_reported":1702750090,"current_range_meters":0,"station_id":"ce4bhnp2rcd13ifvqgvg","pricing_plan_id":"free"},{"bike_id":"8bde1f20-3114-431c-b2df-22d6e7b7655a","system_id":"levelo_inurba_marseille","lat":43.23199,"lon":5.35553,"is_reserved":false,"is_disabled":false,"rental_uris":{"android":"levelo://app?vid=8bde1f20-3114-431c-b2df-22d6e7b7655a","ios":"levelo://app?vid=8bde1f20-3114-431c-b2df-22d6e7b7655a"},"vehicle_type_id":"4","last_reported":1702750090,"current_range_meters":9200,"station_id":"ce4bhu92rcd13ifvqi70","pricing_plan_id":"free"},{"bike_id":"be641546-dcea-4309-ad5a-32c7507f146a","system_id":"levelo_inurba_marseille","lat":43.23199,"lon":5.3555,"is_reserved":false,"is_disabled":false,"rental_uris":{"android":"levelo://app?vid=be641546-dcea-4309-ad5a-32c7507f146a","ios":"levelo://app?vid=be641546-dcea-4309-ad5a-32c7507f146a"},"vehicle_type_id":"4","last_reported":1702750090,"current_range_meters":14000,"station_id":"ce4bhu92rcd13ifvqi70","pricing_plan_id":"free"},{"bike_id":"85d4097c-b8fb-47e3-9b73-ba49b70e33d8","system_id":"levelo_inurba_marseille","lat":43.23197,"lon":5.35552,"is_reserved":false,"is_disabled":false,"rental_uris":{"android":"levelo://app?vid=85d4097c-b8fb-47e3-9b73-ba49b70e33d8","ios":"levelo://app?vid=85d4097c-b8fb-47e3-9b73-ba49b70e33d8"},"vehicle_type_id":"4","last_reported":1702750090,"current_range_meters":23600,"station_id":"ce4bhu92rcd13ifvqi70","pricing_plan_id":"free"},{"bike_id":"90458881-97e2-4d19-a7dd-597c18dc1844","system_id":"levelo_inurba_marseille","lat":43.23196,"lon":5.35557,"is_reserved":false,"is_disabled":false,"rental_uris":{"android":"levelo://app?vid=90458881-97e2-4d19-a7dd-597c18dc1844","ios":"levelo://app?vid=90458881-97e2-4d19-a7dd-597c18dc1844"},"vehicle_type_id":"4","last_reported":1702750090,"current_range_meters":22000,"station_id":"ce4bhu92rcd13ifvqi70","pricing_plan_id":"free"},{"bike_id":"760219ab-0887-48ce-b49e-5a40cc3afc6e","system_id":"levelo_inurba_marseille","lat":43.23196,"lon":5.35547,"is_reserved":false,"is_disabled":false,"rental_uris":{"android":"levelo://app?vid=760219ab-0887-48ce-b49e-5a40cc3afc6e","ios":"levelo://app?vid=760219ab-0887-48ce-b49e-5a40cc3afc6e"},"vehicle_type_id":"4","last_reported":1702750090,"current_range_meters":21600,"station_id":"ce4bhu92rcd13ifvqi70","pricing_plan_id":"free"},{"bike_id":"d3de5ca6-d559-43d0-8ed6-c46c756ed81c","system_id":"levelo_inurba_marseille","lat":43.23196,"lon":5.35544,"is_reserved":false,"is_disabled":false,"rental_uris":{"android":"levelo://app?vid=d3de5ca6-d559-43d0-8ed6-c46c756ed81c","ios":"levelo://app?vid=d3de5ca6-d559-43d0-8ed6-c46c756ed81c"},"vehicle_type_id":"4","last_reported":1702750090,"current_range_meters":2000,"station_id":"ce4bhu92rcd13ifvqi70","pricing_plan_id":"free"},{"bike_id":"9ca3011f-2d0a-4b46-84e2-5e1bb5df7278","system_id":"levelo_inurba_marseille","lat":43.231946,"lon":5.355484,"is_reserved":false,"is_disabled":false,"rental_uris":{"android":"levelo://app?vid=9ca3011f-2d0a-4b46-84e2-5e1bb5df7278","ios":"levelo://app?vid=9ca3011f-2d0a-4b46-84e2-5e1bb5df7278"},"vehicle_type_id":"4","last_reported":1702750090,"current_range_meters":31200,"station_id":"ce4bhu92rcd13ifvqi70","pricing_plan_id":"free"},{"bike_id":"0914bc04-89c8-46f4-bf04-78aea5230869","system_id":"levelo_inurba_marseille","lat":43.23194,"lon":5.35549,"is_reserved":false,"is_disabled":false,"rental_uris":{"android":"levelo://app?vid=0914bc04-89c8-46f4-bf04-78aea5230869","ios":"levelo://app?vid=0914bc04-89c8-46f4-bf04-78aea5230869"},"vehicle_type_id":"4","last_reported":1702750090,"current_range_meters":29600,"station_id":"ce4bhu92rcd13ifvqi70","pricing_plan_id":"free"},{"bike_id":"c0509687-6622-44dd-a042-9b19ef27d0ea","system_id":"levelo_inurba_marseille","lat":43.231927,"lon":5.355563,"is_reserved":false,"is_disabled":false,"rental_uris":{"android":"levelo://app?vid=c0509687-6622-44dd-a042-9b19ef27d0ea","ios":"levelo://app?vid=c0509687-6622-44dd-a042-9b19ef27d0ea"},"vehicle_type_id":"4","last_reported":1702750090,"current_range_meters":31200,"station_id":"ce4bhu92rcd13ifvqi70","pricing_plan_id":"free"},{"bike_id":"c58c2105-152a-4be3-96b7-ef7d8114d5d4","system_id":"levelo_inurba_marseille","lat":43.23192,"lon":5.35554,"is_reserved":false,"is_disabled":false,"rental_uris":{"android":"levelo://app?vid=c58c2105-152a-4be3-96b7-ef7d8114d5d4","ios":"levelo://app?vid=c58c2105-152a-4be3-96b7-ef7d8114d5d4"},"vehicle_type_id":"4","last_reported":1702750090,"current_range_meters":16800,"station_id":"ce4bhu92rcd13ifvqi70","pricing_plan_id":"free"},{"bike_id":"e4f94050-aae1-4821-b78a-030e7070af2a","system_id":"levelo_inurba_marseille","lat":43.231885,"lon":5.355564,"is_reserved":false,"is_disabled":false,"rental_uris":{"android":"levelo://app?vid=e4f94050-aae1-4821-b78a-030e7070af2a","ios":"levelo://app?vid=e4f94050-aae1-4821-b78a-030e7070af2a"},"vehicle_type_id":"4","last_reported":1702750090,"current_range_meters":19600,"station_id":"ce4bhu92rcd13ifvqi70","pricing_plan_id":"free"}]}}