{"last_updated":1737623394,"ttl":60,"version":"2.2","data":{"bikes":[{"bike_id":"43513531-b1ac-43c3-b2ff-ca980d6c6eb5","system_id":"levelo_inurba_marseille","lat":43.29595,"lon":5.38099,"is_reserved":false,"is_disabled":false,"rental_uris":{"android":"levelo://app?vid=43513531-b1ac-43c3-b2ff-ca980d6c6eb5","ios":"levelo://app?vid=43513531-b1ac-43c3-b2ff-ca980d6c6eb5"},"vehicle_type_id":"4","last_reported":1737623394,"current_range_meters":30000,"station_id":"ce4bgl12rcd13ifvqbo0","pricing_plan_id":"cebpf4jnsgd1na2vs0mg"},{"bike_id":"9f49916b-590a-412e-a3bc-92a1ac35f99d","system_id":"levelo_inurba_marseille","lat":43.30594,"lon":5.39342,"is_reserved":false,"is_disabled":false,"rental_uris":{"android":"levelo://app?vid=9f49916b-590a-412e-a3bc-92a1ac35f99d","ios":"levelo://app?vid=9f49916b-590a-412e-a3bc-92a1ac35f99d"},"vehicle_type_id":"4","last_reported":1737623394,"current_range_meters":24000,"station_id":"ce4bh0p2rcd13ifvqd80","pricing_plan_id":"cebpf4jnsgd1na2vs0mg"},{"bike_id":"e7a9d219-cbd7-47d5-a273-74e1a09eebd1","system_id":"levelo_inurba_marseille","lat":43.3248,"lon":5.36591,"is_reserved":false,"is_disabled":false,"rental_uris":{"android":"levelo://app?vid=e7a9d219-cbd7-47d5-a273-74e1a09eebd1","ios":"levelo://app?vid=e7a9d219-cbd7-47d5-a273-74e1a09eebd1"},"vehicle_type_id":"4","last_reported":1737623394,"current_range_meters":16000,"station_id":"ce4bhs12rcd13ifvqhvg","pricing_plan_id":"cebpf4jnsgd1na2vs0mg"},{"bike_id":"9aff2613-f85d-49aa-a3c3-3c3e7031c8e3","system_id":"levelo_inurba_marseille","lat":43.26956,"lon":5.38628,"is_reserved":false,"is_disabled":false,"rental_uris":{"android":"levelo://app?vid=9aff2613-f85d-49aa-a3c3-3c3e7031c8e3","ios":"levelo://app?vid=9aff2613-f85d-49aa-a3c3-3c3e7031c8e3"},"vehicle_type_id":"4","last_reported":1737623394,"current_range_meters":29600,"station_id":"ce4bhh92rcd13ifvqfh0","pricing_plan_id":"cebpf4jnsgd1na2vs0mg"},{"bike_id":"abe46b30-44f7-4ac9-ad11-3b5816b92b4c","system_id":"levelo_inurba_marseille","lat":43.30091,"lon":5.39082,"is_reserved":false,"is_disabled":false,"rental_uris":{"android":"levelo://app?vid=abe46b30-44f7-4ac9-ad11-3b5816b92b4c","ios":"levelo://app?vid=abe46b30-44f7-4ac9-ad11-3b5816b92b4c"},"vehicle_type_id":"4","last_reported":1737623394,"current_range_meters":27600,"station_id":"ce4bh192rcd13ifvqdb0","pricing_plan_id":"cebpf4jnsgd1na2vs0mg"},{"bike_id":"f7287b9a-d591-427c-a646-35e4fb4a8649","system_id":"levelo_inurba_marseille","lat":43.26189,"lon":5.37453,"is_reserved":false,"is_disabled":false,"rental_uris":{"android":"levelo://app?vid=f7287b9a-d591-427c-a646-35e4fb4a8649","ios":"levelo://app?vid=f7287b9a-d591-427c-a646-35e4fb4a8649"},"vehicle_type_id":"4","last_reported":1737623394,"current_range_meters":34800,"station_id":"ce4bhgp2rcd13ifvqfc0","pricing_plan_id":"cebpf4jnsgd1na2vs0mg"},{"bike_id":"dcf4555a-aebc-4561-8ac8-3e8a57d63da1","system_id":"levelo_inurba_marseille","lat":43.29579,"lon":5.36749,"is_reserved":false,"is_disabled":false,"rental_uris":{"android":"levelo://app?vid=dcf4555a-aebc-4561-8ac8-3e8a57d63da1","ios":"levelo://app?vid=dcf4555a-aebc-4561-8ac8-3e8a57d63da1"},"vehicle_type_id":"4","last_reported":1737623394,"current_range_meters":8800,"station_id":"ce4bgph2rcd13ifvqc2g","pricing_plan_id":"cebpf4jnsgd1na2vs0mg"},{"bike_id":"cc01a69d-a58e-43ce-8178-1c56f048940e","system_id":"levelo_inurba_marseille","lat":43.23152,"lon":5.43732,"is_reserved":false,"is_disabled":false,"rental_uris":{"android":"levelo://app?vid=cc01a69d-a58e-43ce-8178-1c56f048940e","ios":"levelo://app?vid=cc01a69d-a58e-43ce-8178-1c56f048940e"},"vehicle_type_id":"4","last_reported":1737623394,"current_range_meters":6800,"station_id":"ce4bhmp2rcd13ifvqgog","pricing_plan_id":"cebpf4jnsgd1na2vs0mg"},{"bike_id":"9d3a46e0-8be9-4564-b938-0cf12747b06b","system_id":"levelo_inurba_marseille","lat":43.30601,"lon":5.39357,"is_reserved":false,"is_disabled":false,"rental_uris":{"android":"levelo://app?vid=9d3a46e0-8be9-4564-b938-0cf12747b06b","ios":"levelo://app?vid=9d3a46e0-8be9-4564-b938-0cf12747b06b"},"vehicle_type_id":"4","last_reported":1737623394,"current_range_meters":34800,"station_id":"ce4bh0p2rcd13ifvqd80","pricing_plan_id":"cebpf4jnsgd1na2vs0mg"},{"bike_id":"52bfe84c-e6b2-45c9-a02c-0a086a3b4c79","system_id":"levelo_inurba_marseille","lat":43.32489,"lon":5.36617,"is_reserved":false,"is_disabled":false,"rental_uris":{"android":"levelo://app?vid=52bfe84c-e6b2-45c9-a02c-0a086a3b4c79","ios":"levelo://app?vid=52bfe84c-e6b2-45c9-a02c-0a086a3b4c79"},"vehicle_type_id":"4","last_reported":1737623394,"current_range_meters":38800,"station_id":"","pricing_plan_id":"cebpf4jnsgd1na2vs0mg"},{"bike_id":"f9509cf3-61c9-4e98-a3dc-ab6e052fedb5","system_id":"levelo_inurba_marseille","lat":43.24064,"lon":5.37779,"is_reserved":false,"is_disabled":false,"rental_uris":{"android":"levelo://app?vid=f9509cf3-61c9-4e98-a3dc-ab6e052fedb5","ios":"levelo://app?vid=f9509cf3-61c9-4e98-a3dc-ab6e052fedb5"},"vehicle_type_id":"4","last_reported":1737623394,"current_range_meters":38800,"station_id":"ce4bhnp2rcd13ifvqgvg","pricing_plan_id":"cebpf4jnsgd1na2vs0mg"},{"bike_id":"024ac1b6-7c92-4f9f-8832-c59077a33f31","system_id":"levelo_inurba_marseille","lat":43.31357,"lon":5.36746,"is_reserved":false,"is_disabled":false,"rental_uris":{"android":"levelo://app?vid=024ac1b6-7c92-4f9f-8832-c59077a33f31","ios":"levelo://app?vid=024ac1b6-7c92-4f9f-8832-c59077a33f31"},"vehicle_type_id":"4","last_reported":1737623394,"current_range_meters":38800,"station_id":"ce4bgr92rcd13ifvqc6g","pricing_plan_id":"cebpf4jnsgd1na2vs0mg"},{"bike_id":"c4506175-ea91-45a6-b284-80102913496f","system_id":"levelo_inurba_marseille","lat":43.33016,"lon":5.39052,"is_reserved":false,"is_disabled":false,"rental_uris":{"android":"levelo://app?vid=c4506175-ea91-45a6-b284-80102913496f","ios":"levelo://app?vid=c4506175-ea91-45a6-b284-80102913496f"},"vehicle_type_id":"4","last_reported":1737623394,"current_range_meters":38000,"station_id":"ce4bhr92rcd13ifvqhrg","pricing_plan_id":"cebpf4jnsgd1na2vs0mg"},{"bike_id":"5d5748fb-ce75-4d7f-9010-3950cfaba24d","system_id":"levelo_inurba_marseille","lat":43.27317,"lon":5.39072,"is_reserved":false,"is_disabled":false,"rental_uris":{"android":"levelo://app?vid=5d5748fb-ce75-4d7f-9010-3950cfaba24d","ios":"levelo://app?vid=5d5748fb-ce75-4d7f-9010-3950cfaba24d"},"vehicle_type_id":"4","last_reported":1737623394,"current_range_meters":37600,"station_id":"ce4bhgp2rcd13ifvqfe0","pricing_plan_id":"cebpf4jnsgd1na2vs0mg"},{"bike_id":"5ac0757a-76a2-41ae-a275-0c5c666962f4","system_id":"levelo_inurba_marseille","lat":43.2606,"lon":5.39396,"is_reserved":false,"is_disabled":false,"rental_uris":{"android":"levelo://app?vid=5ac0757a-76a2-41ae-a275-0c5c666962f4","ios":"levelo://app?vid=5ac0757a-76a2-41ae-a275-0c5c666962f4"},"vehicle_type_id":"4","last_reported":1737623394,"current_range_meters":28800,"station_id":"ce4bhh92rcd13ifvqfj0","pricing_plan_id":"cebpf4jnsgd1na2vs0mg"},{"bike_id":"47a5c903-d960-4eec-b908-6451b150f9f7","system_id":"levelo_inurba_marseille","lat":43.24075,"lon":5.37785,"is_reserved":false,"is_disabled":false,"rental_uris":{"android":"levelo://app?vid=47a5c903-d960-4eec-b908-6451b150f9f7","ios":"levelo://app?vid=47a5c903-d960-4eec-b908-6451b150f9f7"},"vehicle_type_id":"4","last_reported":1737623394,"current_range_meters":39200,"station_id":"ce4bhnp2rcd13ifvqgvg","pricing_plan_id":"cebpf4jnsgd1na2vs0mg"},{"bike_id":"7946a17a-a52b-493b-ae42-77a3135e0634","system_id":"levelo_inurba_marseille","lat":43.27973,"lon":5.38736,"is_reserved":false,"is_disabled":false,"rental_uris":{"android":"levelo://app?vid=7946a17a-a52b-493b-ae42-77a3135e0634","ios":"levelo://app?vid=7946a17a-a52b-493b-ae42-77a3135e0634"},"vehicle_type_id":"4","last_reported":1737623394,"current_range_meters":24400,"station_id":"ce4bhg12rcd13ifvqf80","pricing_plan_id":"cebpf4jnsgd1na2vs0mg"},{"bike_id":"30ed2cc6-f71f-42ec-a788-fecd9edec9ce","system_id":"levelo_inurba_marseille","lat":43.30965,"lon":5.39027,"is_reserved":false,"is_disabled":false,"rental_uris":{"android":"levelo://app?vid=30ed2cc6-f71f-42ec-a788-fecd9edec9ce","ios":"levelo://app?vid=30ed2cc6-f71f-42ec-a788-fecd9edec9ce"},"vehicle_type_id":"4","last_reported":1737623394,"current_range_meters":8400,"station_id":"ce4bgup2rcd13ifvqco0","pricing_plan_id":"cebpf4jnsgd1na2vs0mg"},{"bike_id":"b8f625b4-c025-49b7-be32-8fa0a50c8883","system_id":"levelo_inurba_marseille","lat":43.30126,"lon":5.38789,"is_reserved":false,"is_disabled":true,"rental_uris":{"android":"levelo://app?vid=b8f625b4-c025-49b7-be32-8fa0a50c8883","ios":"levelo://app?vid=b8f625b4-c025-49b7-be32-8fa0a50c8883"},"vehicle_type_id":"4","last_reported":1737623394,"current_range_meters":0,"station_id":"ce4bghh2rcd13ifvqb60","pricing_plan_id":"cebpf4jnsgd1na2vs0mg"},{"bike_id":"2a80df51-a758-43ec-8377-7504eaafab77","system_id":"levelo_inurba_marseille","lat":43.25927,"lon":5.40914,"is_reserved":false,"is_disabled":false,"rental_uris":{"android":"levelo://app?vid=2a80df51-a758-43ec-8377-7504eaafab77","ios":"levelo://app?vid=2a80df51-a758-43ec-8377-7504eaafab77"},"vehicle_type_id":"4","last_reported":1737623394,"current_range_meters":38800,"station_id":"ce4bhm92rcd13ifvqglg","pricing_plan_id":"cebpf4jnsgd1na2vs0mg"},{"bike_id":"62deda02-398b-428c-93c7-c43dbeb4b460","system_id":"levelo_inurba_marseille","lat":43.31995,"lon":5.38169,"is_reserved":false,"is_disabled":false,"rental_uris":{"android":"levelo://app?vid=62deda02-398b-428c-93c7-c43dbeb4b460","ios":"levelo://app?vid=62deda02-398b-428c-93c7-c43dbeb4b460"},"vehicle_type_id":"4","last_reported":1737623394,"current_range_meters":35600,"station_id":"ce4bhr12rcd13ifvqhpg","pricing_plan_id":"cebpf4jnsgd1na2vs0mg"},{"bike_id":"9e81dc59-8f27-4b8f-b9f5-64c9903a7bf4","system_id":"levelo_inurba_marseille","lat":43.30908,"lon":5.36854,"is_reserved":false,"is_disabled":false,"rental_uris":{"android":"levelo://app?vid=9e81dc59-8f27-4b8f-b9f5-64c9903a7bf4","ios":"levelo://app?vid=9e81dc59-8f27-4b8f-b9f5-64c9903a7bf4"},"vehicle_type_id":"4","last_reported":1737623394,"current_range_meters":37600,"station_id":"ce4bgn92rcd13ifvqbvg","pricing_plan_id":"cebpf4jnsgd1na2vs0mg"},{"bike_id":"4b99948f-ea48-4383-875e-b58ed823d600","system_id":"levelo_inurba_marseille","lat":43.30527,"lon":5.36697,"is_reserved":false,"is_disabled":false,"rental_uris":{"android":"levelo://app?vid=4b99948f-ea48-4383-875e-b58ed823d600","ios":"levelo://app?vid=4b99948f-ea48-4383-875e-b58ed823d600"},"vehicle_type_id":"4","last_reported":1737623394,"current_range_meters":39200,"station_id":"ce4bgrp2rcd13ifvqc9g","pricing_plan_id":"cebpf4jnsgd1na2vs0mg"},{"bike_id":"d558efa3-0468-430b-a0f1-01100ffa09d3","system_id":"levelo_inurba_marseille","lat":43.28911,"lon":5.36399,"is_reserved":false,"is_disabled":false,"rental_uris":{"android":"levelo://app?vid=d558efa3-0468-430b-a0f1-01100ffa09d3","ios":"levelo://app?vid=d558efa3-0468-430b-a0f1-01100ffa09d3"},"vehicle_type_id":"4","last_reported":1737623394,"current_range_meters":24800,"station_id":"ce4bhc92rcd13ifvqetg","pricing_plan_id":"cebpf4jnsgd1na2vs0mg"},{"bike_id":"e38da209-d8d9-4680-be99-11d1954272ef","system_id":"levelo_inurba_marseille","lat":43.26205,"lon":5.37935,"is_reserved":false,"is_disabled":false,"rental_uris":{"android":"levelo://app?vid=e38da209-d8d9-4680-be99-11d1954272ef","ios":"levelo://app?vid=e38da209-d8d9-4680-be99-11d1954272ef"},"vehicle_type_id":"4","last_reported":1737623394,"current_range_meters":38800,"station_id":"ce4bhjp2rcd13ifvqg90","pricing_plan_id":"cebpf4jnsgd1na2vs0mg"},{"bike_id":"6073b87a-d048-41c4-961e-450cfc1069e3","system_id":"levelo_inurba_marseille","lat":43.26556,"lon":5.39013,"is_reserved":false,"is_disabled":false,"rental_uris":{"android":"levelo://app?vid=6073b87a-d048-41c4-961e-450cfc1069e3","ios":"levelo://app?vid=6073b87a-d048-41c4-961e-450cfc1069e3"},"vehicle_type_id":"4","last_reported":1737623394,"current_range_meters":24400,"station_id":"ce4bhe12rcd13ifvqf30","pricing_plan_id":"cebpf4jnsgd1na2vs0mg"},{"bike_id":"77f1573a-30a1-4557-8b1e-0b2d3380a621","system_id":"levelo_inurba_marseille","lat":43.29971,"lon":5.37177,"is_reserved":false,"is_disabled":false,"rental_uris":{"android":"levelo://app?vid=77f1573a-30a1-4557-8b1e-0b2d3380a621","ios":"levelo://app?vid=77f1573a-30a1-4557-8b1e-0b2d3380a621"},"vehicle_type_id":"4","last_reported":1737623394,"current_range_meters":12400,"station_id":"ce4bgr92rcd13ifvqc7g","pricing_plan_id":"cebpf4jnsgd1na2vs0mg"},{"bike_id":"5d4fa761-e480-4599-a18e-55917918b6b9","system_id":"levelo_inurba_marseille","lat":43.23141,"lon":5.43718,"is_reserved":false,"is_disabled":false,"rental_uris":{"android":"levelo://app?vid=5d4fa761-e480-4599-a18e-55917918b6b9","ios":"levelo://app?vid=5d4fa761-e480-4599-a18e-55917918b6b9"},"vehicle_type_id":"4","last_reported":1737623394,"current_range_meters":18800,"station_id":"ce4bhmp2rcd13ifvqgog","pricing_plan_id":"cebpf4jnsgd1na2vs0mg"},{"bike_id":"143be6c7-efad-4491-92ee-bf3f01173a41","system_id":"levelo_inurba_marseille","lat":43.30459,"lon":5.37904,"is_reserved":false,"is_disabled":false,"rental_uris":{"android":"levelo://app?vid=143be6c7-efad-4491-92ee-bf3f01173a41","ios":"levelo://app?vid=143be6c7-efad-4491-92ee-bf3f01173a41"},"vehicle_type_id":"4","last_reported":1737623394,"current_range_meters":39200,"station_id":"ce4bgup2rcd13ifvqcn0","pricing_plan_id":"cebpf4jnsgd1na2vs0mg"},{"bike_id":"b8ebc2f4-f1cf-4888-ba79-1801de2cf3e3","system_id":"levelo_inurba_marseille","lat":43.27494,"lon":5.42461,"is_reserved":false,"is_disabled":false,"rental_uris":{"android":"levelo://app?vid=b8ebc2f4-f1cf-4888-ba79-1801de2cf3e3","ios":"levelo://app?vid=b8ebc2f4-f1cf-4888-ba79-1801de2cf3e3"},"vehicle_type_id":"4","last_reported":1737623394,"current_range_meters":24800,"station_id":"ce4bhn92rcd13ifvqgrg","pricing_plan_id":"cebpf4jnsgd1na2vs0mg"},{"bike_id":"476e1891-c5e3-4d5c-b1b5-9f6fc81f93b2","system_id":"levelo_inurba_marseille","lat":43.29928,"lon":5.37472,"is_reserved":false,"is_disabled":false,"rental_uris":{"android":"levelo://app?vid=476e1891-c5e3-4d5c-b1b5-9f6fc81f93b2","ios":"levelo://app?vid=476e1891-c5e3-4d5c-b1b5-9f6fc81f93b2"},"vehicle_type_id":"4","last_reported":1737623394,"current_range_meters":22000,"station_id":"ce4bgjh2rcd13ifvqbg0","pricing_plan_id":"cebpf4jnsgd1na2vs0mg"},{"bike_id":"6171e78d-5e82-40e0-a245-3343ba3b2b4e","system_id":"levelo_inurba_marseille","lat":43.28265,"lon":5.35073,"is_reserved":false,"is_disabled":false,"rental_uris":{"android":"levelo://app?vid=6171e78d-5e82-40e0-a245-3343ba3b2b4e","ios":"levelo://app?vid=6171e78d-5e82-40e0-a245-3343ba3b2b4e"},"vehicle_type_id":"4","last_reported":1737623394,"current_range_meters":38800,"station_id":"ce4bhbp2rcd13ifvqerg","pricing_plan_id":"cebpf4jnsgd1na2vs0mg"},{"bike_id":"b29a25d6-fd63-45cc-bcff-78b9e62160ef","system_id":"levelo_inurba_marseille","lat":43.27367,"lon":5.36253,"is_reserved":false,"is_disabled":false,"rental_uris":{"android":"levelo://app?vid=b29a25d6-fd63-45cc-bcff-78b9e62160ef","ios":"levelo://app?vid=b29a25d6-fd63-45cc-bcff-78b9e62160ef"},"vehicle_type_id":"4","last_reported":1737623394,"current_range_meters":38000,"station_id":"ce4bhbh2rcd13ifvqeo0","pricing_plan_id":"cebpf4jnsgd1na2vs0mg"},{"bike_id":"9885c3b6-bcd1-4482-97df-d738948a9fd6","system_id":"levelo_inurba_marseille","lat":43.33584,"lon":5.40977,"is_reserved":false,"is_disabled":false,"rental_uris":{"android":"levelo://app?vid=9885c3b6-bcd1-4482-97df-d738948a9fd6","ios":"levelo://app?vid=9885c3b6-bcd1-4482-97df-d738948a9fd6"},"vehicle_type_id":"4","last_reported":1737623394,"current_range_meters":28400,"station_id":"ce4bhqh2rcd13ifvqhmg","pricing_plan_id":"cebpf4jnsgd1na2vs0mg"},{"bike_id":"917c7999-6487-4499-8a0c-74386aa53253","system_id":"levelo_inurba_marseille","lat":43.30638,"lon":5.40093,"is_reserved":false,"is_disabled":false,"rental_uris":{"android":"levelo://app?vid=917c7999-6487-4499-8a0c-74386aa53253","ios":"levelo://app?vid=917c7999-6487-4499-8a0c-74386aa53253"},"vehicle_type_id":"4","last_reported":1737623394,"current_range_meters":25200,"station_id":"ce4bh112rcd13ifvqda0","pricing_plan_id":"cebpf4jnsgd1na2vs0mg"},{"bike_id":"4a1877ac-0eba-4d1d-a5b6-5c57a0d326b7","system_id":"levelo_inurba_marseille","lat":43.31083,"lon":5.42444,"is_reserved":false,"is_disabled":false,"rental_uris":{"android":"levelo://app?vid=4a1877ac-0eba-4d1d-a5b6-5c57a0d326b7","ios":"levelo://app?vid=4a1877ac-0eba-4d1d-a5b6-5c57a0d326b7"},"vehicle_type_id":"4","last_reported":1737623394,"current_range_meters":12800,"station_id":"ce4bhp92rcd13ifvqhag","pricing_plan_id":"cebpf4jnsgd1na2vs0mg"},{"bike_id":"4c3fd064-567c-4c07-aded-62366cae8c14","system_id":"levelo_inurba_marseille","lat":43.30294,"lon":5.37711,"is_reserved":false,"is_disabled":false,"rental_uris":{"android":"levelo://app?vid=4c3fd064-567c-4c07-aded-62366cae8c14","ios":"levelo://app?vid=4c3fd064-567c-4c07-aded-62366cae8c14"},"vehicle_type_id":"4","last_reported":1737623394,"current_range_meters":38800,"station_id":"ce4bguh2rcd13ifvqcj0","pricing_plan_id":"cebpf4jnsgd1na2vs0mg"},{"bike_id":"c84a2894-341a-4136-8b9d-71e5429e0f86","system_id":"levelo_inurba_marseille","lat":43.30094,"lon":5.39075,"is_reserved":false,"is_disabled":false,"rental_uris":{"android":"levelo://app?vid=c84a2894-341a-4136-8b9d-71e5429e0f86","ios":"levelo://app?vid=c84a2894-341a-4136-8b9d-71e5429e0f86"},"vehicle_type_id":"4","last_reported":1737623394,"current_range_meters":25600,"station_id":"ce4bh192rcd13ifvqdb0","pricing_plan_id":"cebpf4jnsgd1na2vs0mg"},{"bike_id":"690385e8-71e7-4e2e-86f0-4412257663f3","system_id":"levelo_inurba_marseille","lat":43.27424,"lon":5.39417,"is_reserved":false,"is_disabled":false,"rental_uris":{"android":"levelo://app?vid=690385e8-71e7-4e2e-86f0-4412257663f3","ios":"levelo://app?vid=690385e8-71e7-4e2e-86f0-4412257663f3"},"vehicle_type_id":"4","last_reported":1737623394,"current_range_meters":17200,"station_id":"ce4bhdp2rcd13ifvqf20","pricing_plan_id":"cebpf4jnsgd1na2vs0mg"},{"bike_id":"7cc0c3e6-61f4-492e-ba4b-4d21f5545628","system_id":"levelo_inurba_marseille","lat":43.31366,"lon":5.38488,"is_reserved":false,"is_disabled":false,"rental_uris":{"android":"levelo://app?vid=7cc0c3e6-61f4-492e-ba4b-4d21f5545628","ios":"levelo://app?vid=7cc0c3e6-61f4-492e-ba4b-4d21f5545628"},"vehicle_type_id":"4","last_reported":1737623394,"current_range_meters":17600,"station_id":"ce4bgt92rcd13ifvqcf0","pricing_plan_id":"cebpf4jnsgd1na2vs0mg"},{"bike_id":"b643a99a-69fe-476a-9b0c-812e19557960","system_id":"levelo_inurba_marseille","lat":43.30472,"lon":5.37909,"is_reserved":false,"is_disabled":false,"rental_uris":{"android":"levelo://app?vid=b643a99a-69fe-476a-9b0c-812e19557960","ios":"levelo://app?vid=b643a99a-69fe-476a-9b0c-812e19557960"},"vehicle_type_id":"4","last_reported":1737623394,"current_range_meters":9600,"station_id":"ce4bgup2rcd13ifvqcn0","pricing_plan_id":"cebpf4jnsgd1na2vs0mg"},{"bike_id":"e0038022-ef79-4ecb-b723-da42924d2ef0","system_id":"levelo_inurba_marseille","lat":43.29606,"lon":5.38106,"is_reserved":false,"is_disabled":false,"rental_uris":{"android":"levelo://app?vid=e0038022-ef79-4ecb-b723-da42924d2ef0","ios":"levelo://app?vid=e0038022-ef79-4ecb-b723-da42924d2ef0"},"vehicle_type_id":"4","last_reported":1737623394,"current_range_meters":32800,"station_id":"ce4bgl12rcd13ifvqbo0","pricing_plan_id":"cebpf4jnsgd1na2vs0mg"},{"bike_id":"7ace546e-9c67-4124-8420-9ed07a575e5a","system_id":"levelo_inurba_marseille","lat":43.31614,"lon":5.40549,"is_reserved":false,"is_disabled":true,"rental_uris":{"android":"levelo://app?vid=7ace546e-9c67-4124-8420-9ed07a575e5a","ios":"levelo://app?vid=7ace546e-9c67-4124-8420-9ed07a575e5a"},"vehicle_type_id":"4","last_reported":1737623394,"current_range_meters":0,"station_id":"","pricing_plan_id":"cebpf4jnsgd1na2vs0mg"},{"bike_id":"f4064b91-d50f-4faa-b80a-c4b38df2d08b","system_id":"levelo_inurba_marseille","lat":43.22921,"lon":5.35385,"is_reserved":false,"is_disabled":false,"rental_uris":{"android":"levelo://app?vid=f4064b91-d50f-4faa-b80a-c4b38df2d08b","ios":"levelo://app?vid=f4064b91-d50f-4faa-b80a-c4b38df2d08b"},"vehicle_type_id":"4","last_reported":1737623394,"current_range_meters":38800,"station_id":"cpo3532slgdg3j2ikp40","pricing_plan_id":"cebpf4jnsgd1na2vs0mg"},{"bike_id":"79fbb389-20e4-4ca1-95d0-d5c308573137","system_id":"levelo_inurba_marseille","lat":43.24062,"lon":5.37762,"is_reserved":false,"is_disabled":false,"rental_uris":{"android":"levelo://app?vid=79fbb389-20e4-4ca1-95d0-d5c308573137","ios":"levelo://app?vid=79fbb389-20e4-4ca1-95d0-d5c308573137"},"vehicle_type_id":"4","last_reported":1737623394,"current_range_meters":22400,"station_id":"ce4bhnp2rcd13ifvqgvg","pricing_plan_id":"cebpf4jnsgd1na2vs0mg"},{"bike_id":"010d7af0-1cdd-4754-9cac-a1dc0f27c72d","system_id":"levelo_inurba_marseille","lat":43.33105,"lon":5.3822,"is_reserved":false,"is_disabled":false,"rental_uris":{"android":"levelo://app?vid=010d7af0-1cdd-4754-9cac-a1dc0f27c72d","ios":"levelo://app?vid=010d7af0-1cdd-4754-9cac-a1dc0f27c72d"},"vehicle_type_id":"4","last_reported":1737623394,"current_range_meters":27200,"station_id":"","pricing_plan_id":"cebpf4jnsgd1na2vs0mg"},{"bike_id":"5e75dd30-ab3b-44d3-8dcb-cb5fd4a0eb65","system_id":"levelo_inurba_marseille","lat":43.24636,"lon":5.38914,"is_reserved":false,"is_disabled":false,"rental_uris":{"android":"levelo://app?vid=5e75dd30-ab3b-44d3-8dcb-cb5fd4a0eb65","ios":"levelo://app?vid=5e75dd30-ab3b-44d3-8dcb-cb5fd4a0eb65"},"vehicle_type_id":"4","last_reported":1737623394,"current_range_meters":38400,"station_id":"ce4bhg12rcd13ifvqf60","pricing_plan_id":"cebpf4jnsgd1na2vs0mg"},{"bike_id":"fdf93da9-75a1-4a4e-b95e-8126f728c2af","system_id":"levelo_inurba_marseille","lat":43.2418,"lon":5.39728,"is_reserved":false,"is_disabled":false,"rental_uris":{"android":"levelo://app?vid=fdf93da9-75a1-4a4e-b95e-8126f728c2af","ios":"levelo://app?vid=fdf93da9-75a1-4a4e-b95e-8126f728c2af"},"vehicle_type_id":"4","last_reported":1737623394,"current_range_meters":20400,"station_id":"ce4bhn12rcd13ifvqgpg","pricing_plan_id":"cebpf4jnsgd1na2vs0mg"},{"bike_id":"6d736148-0838-4827-bf70-745978854c80","system_id":"levelo_inurba_marseille","lat":43.262,"lon":5.37933,"is_reserved":false,"is_disabled":false,"rental_uris":{"android":"levelo://app?vid=6d736148-0838-4827-bf70-745978854c80","ios":"levelo://app?vid=6d736148-0838-4827-bf70-745978854c80"},"vehicle_type_id":"4","last_reported":1737623394,"current_range_meters":38800,"station_id":"ce4bhjp2rcd13ifvqg90","pricing_plan_id":"cebpf4jnsgd1na2vs0mg"},{"bike_id":"4c74b5cd-ca18-46b6-9ca8-3f73986a7d28","system_id":"levelo_inurba_marseille","lat":43.29271,"lon":5.40108,"is_reserved":false,"is_disabled":true,"rental_uris":{"android":"levelo://app?vid=4c74b5cd-ca18-46b6-9ca8-3f73986a7d28","ios":"levelo://app?vid=4c74b5cd-ca18-46b6-9ca8-3f73986a7d28"},"vehicle_type_id":"4","last_reported":1737623394,"current_range_meters":6400,"station_id":"ce4bh312rcd13ifvqdk0","pricing_plan_id":"cebpf4jnsgd1na2vs0mg"},{"bike_id":"6c2e2f41-9c52-4308-86ab-09129b1176ab","system_id":"levelo_inurba_marseille","lat":43.30545,"lon":5.36542,"is_reserved":false,"is_disabled":false,"rental_uris":{"android":"levelo://app?vid=6c2e2f41-9c52-4308-86ab-09129b1176ab","ios":"levelo://app?vid=6c2e2f41-9c52-4308-86ab-09129b1176ab"},"vehicle_type_id":"4","last_reported":1737623394,"current_range_meters":32800,"station_id":"ce4bgs12rcd13ifvqcag","pricing_plan_id":"cebpf4jnsgd1na2vs0mg"},{"bike_id":"df570c82-1ba3-4893-abbc-6c8e2015a56b","system_id":"levelo_inurba_marseille","lat":43.3169,"lon":5.40468,"is_reserved":false,"is_disabled":false,"rental_uris":{"android":"levelo://app?vid=df570c82-1ba3-4893-abbc-6c8e2015a56b","ios":"levelo://app?vid=df570c82-1ba3-4893-abbc-6c8e2015a56b"},"vehicle_type_id":"4","last_reported":1737623394,"current_range_meters":8000,"station_id":"ce4bh012rcd13ifvqd00","pricing_plan_id":"cebpf4jnsgd1na2vs0mg"},{"bike_id":"69de389c-1fa0-4684-882e-b5d424149d2a","system_id":"levelo_inurba_marseille","lat":43.28986,"lon":5.37821,"is_reserved":false,"is_disabled":false,"rental_uris":{"android":"levelo://app?vid=69de389c-1fa0-4684-882e-b5d424149d2a","ios":"levelo://app?vid=69de389c-1fa0-4684-882e-b5d424149d2a"},"vehicle_type_id":"4","last_reported":1737623394,"current_range_meters":36400,"station_id":"ce4bh9p2rcd13ifvqed0","pricing_plan_id":"cebpf4jnsgd1na2vs0mg"},{"bike_id":"65094a7f-b962-43c6-b0af-b51087b9f16f","system_id":"levelo_inurba_marseille","lat":43.28932,"lon":5.36629,"is_reserved":false,"is_disabled":false,"rental_uris":{"android":"levelo://app?vid=65094a7f-b962-43c6-b0af-b51087b9f16f","ios":"levelo://app?vid=65094a7f-b962-43c6-b0af-b51087b9f16f"},"vehicle_type_id":"4","last_reported":1737623394,"current_range_meters":30000,"station_id":"ce4bhap2rcd13ifvqek0","pricing_plan_id":"cebpf4jnsgd1na2vs0mg"},{"bike_id":"9838cc78-2b53-49d3-ae13-82df62c4fd64","system_id":"levelo_inurba_marseille","lat":43.28456,"lon":5.40929,"is_reserved":false,"is_disabled":false,"rental_uris":{"android":"levelo://app?vid=9838cc78-2b53-49d3-ae13-82df62c4fd64","ios":"levelo://app?vid=9838cc78-2b53-49d3-ae13-82df62c4fd64"},"vehicle_type_id":"4","last_reported":1737623394,"current_range_meters":6800,"station_id":"","pricing_plan_id":"cebpf4jnsgd1na2vs0mg"},{"bike_id":"ddc670a5-f5a7-44b7-89e1-ea5e9c7c2fff","system_id":"levelo_inurba_marseille","lat":43.31362,"lon":5.36757,"is_reserved":false,"is_disabled":false,"rental_uris":{"android":"levelo://app?vid=ddc670a5-f5a7-44b7-89e1-ea5e9c7c2fff","ios":"levelo://app?vid=ddc670a5-f5a7-44b7-89e1-ea5e9c7c2fff"},"vehicle_type_id":"4","last_reported":1737623394,"current_range_meters":16000,"station_id":"ce4bgr92rcd13ifvqc6g","pricing_plan_id":"cebpf4jnsgd1na2vs0mg"},{"bike_id":"d9d67e50-ff60-4024-bb97-06b4cc192a7e","system_id":"levelo_inurba_marseille","lat":43.30214,"lon":5.37482,"is_reserved":false,"is_disabled":true,"rental_uris":{"android":"levelo://app?vid=d9d67e50-ff60-4024-bb97-06b4cc192a7e","ios":"levelo://app?vid=d9d67e50-ff60-4024-bb97-06b4cc192a7e"},"vehicle_type_id":"4","last_reported":1737623394,"current_range_meters":38800,"station_id":"","pricing_plan_id":"cebpf4jnsgd1na2vs0mg"},{"bike_id":"119214ee-6b87-4f01-9e11-980178b3273a","system_id":"levelo_inurba_marseille","lat":43.29564,"lon":5.3997,"is_reserved":false,"is_disabled":true,"rental_uris":{"android":"levelo://app?vid=119214ee-6b87-4f01-9e11-980178b3273a","ios":"levelo://app?vid=119214ee-6b87-4f01-9e11-980178b3273a"},"vehicle_type_id":"4","last_reported":1737623394,"current_range_meters":21600,"station_id":"ce4bh312rcd13ifvqdj0","pricing_plan_id":"cebpf4jnsgd1na2vs0mg"},{"bike_id":"532ce141-6fb4-44aa-a275-8c13d9f2c261","system_id":"levelo_inurba_marseille","lat":43.27203,"lon":5.3919,"is_reserved":false,"is_disabled":false,"rental_uris":{"android":"levelo://app?vid=532ce141-6fb4-44aa-a275-8c13d9f2c261","ios":"levelo://app?vid=532ce141-6fb4-44aa-a275-8c13d9f2c261"},"vehicle_type_id":"4","last_reported":1737623394,"current_range_meters":31200,"station_id":"ce4bhhp2rcd13ifvqfm0","pricing_plan_id":"cebpf4jnsgd1na2vs0mg"},{"bike_id":"19b8198b-0b8b-41c2-8c4a-a703ec5c010b","system_id":"levelo_inurba_marseille","lat":43.30134,"lon":5.38095,"is_reserved":false,"is_disabled":false,"rental_uris":{"android":"levelo://app?vid=19b8198b-0b8b-41c2-8c4a-a703ec5c010b","ios":"levelo://app?vid=19b8198b-0b8b-41c2-8c4a-a703ec5c010b"},"vehicle_type_id":"4","last_reported":1737623394,"current_range_meters":38800,"station_id":"ce4bgjp2rcd13ifvqbh0","pricing_plan_id":"cebpf4jnsgd1na2vs0mg"},{"bike_id":"b15a91c0-7c93-4278-9be2-c5e0789ac33f","system_id":"levelo_inurba_marseille","lat":43.31889,"lon":5.40747,"is_reserved":false,"is_disabled":false,"rental_uris":{"android":"levelo://app?vid=b15a91c0-7c93-4278-9be2-c5e0789ac33f","ios":"levelo://app?vid=b15a91c0-7c93-4278-9be2-c5e0789ac33f"},"vehicle_type_id":"4","last_reported":1737623394,"current_range_meters":38000,"station_id":"ce4bhq12rcd13ifvqhig","pricing_plan_id":"cebpf4jnsgd1na2vs0mg"},{"bike_id":"9f96de60-ba44-4c93-9707-a282028a4274","system_id":"levelo_inurba_marseille","lat":43.24222,"lon":5.39739,"is_reserved":false,"is_disabled":false,"rental_uris":{"android":"levelo://app?vid=9f96de60-ba44-4c93-9707-a282028a4274","ios":"levelo://app?vid=9f96de60-ba44-4c93-9707-a282028a4274"},"vehicle_type_id":"4","last_reported":1737623394,"current_range_meters":38000,"station_id":"ce4bhn12rcd13ifvqgpg","pricing_plan_id":"cebpf4jnsgd1na2vs0mg"},{"bike_id":"19591d98-701d-420d-9752-47fe7e378acc","system_id":"levelo_inurba_marseille","lat":43.28129,"lon":5.37829,"is_reserved":false,"is_disabled":false,"rental_uris":{"android":"levelo://app?vid=19591d98-701d-420d-9752-47fe7e378acc","ios":"levelo://app?vid=19591d98-701d-420d-9752-47fe7e378acc"},"vehicle_type_id":"4","last_reported":1737623394,"current_range_meters":16800,"station_id":"ce4bha12rcd13ifvqee0","pricing_plan_id":"cebpf4jnsgd1na2vs0mg"},{"bike_id":"d08c37a7-7fe0-4179-ac80-eb214b053de8","system_id":"levelo_inurba_marseille","lat":43.3254,"lon":5.41428,"is_reserved":false,"is_disabled":false,"rental_uris":{"android":"levelo://app?vid=d08c37a7-7fe0-4179-ac80-eb214b053de8","ios":"levelo://app?vid=d08c37a7-7fe0-4179-ac80-eb214b053de8"},"vehicle_type_id":"4","last_reported":1737623394,"current_range_meters":38400,"station_id":"ce4bhq12rcd13ifvqhhg","pricing_plan_id":"cebpf4jnsgd1na2vs0mg"},{"bike_id":"7728d8c8-51dd-47e1-a60e-603c7f64c2bd","system_id":"levelo_inurba_marseille","lat":43.31917,"lon":5.4114,"is_reserved":false,"is_disabled":false,"rental_uris":{"android":"levelo://app?vid=7728d8c8-51dd-47e1-a60e-603c7f64c2bd","ios":"levelo://app?vid=7728d8c8-51dd-47e1-a60e-603c7f64c2bd"},"vehicle_type_id":"4","last_reported":1737623394,"current_range_meters":26000,"station_id":"","pricing_plan_id":"cebpf4jnsgd1na2vs0mg"},{"bike_id":"b6a17ddb-9bbb-49ff-bd70-8900a4bca0f7","system_id":"levelo_inurba_marseille","lat":43.30952,"lon":5.39036,"is_reserved":false,"is_disabled":false,"rental_uris":{"android":"levelo://app?vid=b6a17ddb-9bbb-49ff-bd70-8900a4bca0f7","ios":"levelo://app?vid=b6a17ddb-9bbb-49ff-bd70-8900a4bca0f7"},"vehicle_type_id":"4","last_reported":1737623394,"current_range_meters":32000,"station_id":"ce4bgup2rcd13ifvqco0","pricing_plan_id":"cebpf4jnsgd1na2vs0mg"},{"bike_id":"68b608b1-4b2e-42e4-afbb-5cdcf5bc15cf","system_id":"levelo_inurba_marseille","lat":43.2669,"lon":5.3827,"is_reserved":false,"is_disabled":false,"rental_uris":{"android":"levelo://app?vid=68b608b1-4b2e-42e4-afbb-5cdcf5bc15cf","ios":"levelo://app?vid=68b608b1-4b2e-42e4-afbb-5cdcf5bc15cf"},"vehicle_type_id":"4","last_reported":1737623394,"current_range_meters":24800,"station_id":"ce4bhg92rcd13ifvqf90","pricing_plan_id":"cebpf4jnsgd1na2vs0mg"},{"bike_id":"e6e8646a-47fe-42a2-b78a-21530b7ebe2d","system_id":"levelo_inurba_marseille","lat":43.31692,"lon":5.40442,"is_reserved":false,"is_disabled":false,"rental_uris":{"android":"levelo://app?vid=e6e8646a-47fe-42a2-b78a-21530b7ebe2d","ios":"levelo://app?vid=e6e8646a-47fe-42a2-b78a-21530b7ebe2d"},"vehicle_type_id":"4","last_reported":1737623394,"current_range_meters":28400,"station_id":"ce4bh012rcd13ifvqd00","pricing_plan_id":"cebpf4jnsgd1na2vs0mg"},{"bike_id":"110f4d36-27c9-49b8-86bf-d85558408b80","system_id":"levelo_inurba_marseille","lat":43.32391,"lon":5.38902,"is_reserved":false,"is_disabled":false,"rental_uris":{"android":"levelo://app?vid=110f4d36-27c9-49b8-86bf-d85558408b80","ios":"levelo://app?vid=110f4d36-27c9-49b8-86bf-d85558408b80"},"vehicle_type_id":"4","last_reported":1737623394,"current_range_meters":20000,"station_id":"ce4bhqp2rcd13ifvqhog","pricing_plan_id":"cebpf4jnsgd1na2vs0mg"},{"bike_id":"e2151eb3-314b-404c-b259-cf12a3a3e0c6","system_id":"levelo_inurba_marseille","lat":43.315877,"lon":5.4026,"is_reserved":false,"is_disabled":false,"rental_uris":{"android":"levelo://app?vid=e2151eb3-314b-404c-b259-cf12a3a3e0c6","ios":"levelo://app?vid=e2151eb3-314b-404c-b259-cf12a3a3e0c6"},"vehicle_type_id":"4","last_reported":1737623394,"current_range_meters":23200,"station_id":"","pricing_plan_id":"cebpf4jnsgd1na2vs0mg"},{"bike_id":"2a4119c1-0715-44be-8eb6-4bd6b8441ce5","system_id":"levelo_inurba_marseille","lat":43.29834,"lon":5.36271,"is_reserved":false,"is_disabled":false,"rental_uris":{"android":"levelo://app?vid=2a4119c1-0715-44be-8eb6-4bd6b8441ce5","ios":"levelo://app?vid=2a4119c1-0715-44be-8eb6-4bd6b8441ce5"},"vehicle_type_id":"4","last_reported":1737623394,"current_range_meters":22400,"station_id":"ce4bgpp2rcd13ifvqc3g","pricing_plan_id":"cebpf4jnsgd1na2vs0mg"},{"bike_id":"5bc66414-50af-4cae-89c3-2cba4062827e","system_id":"levelo_inurba_marseille","lat":43.29911,"lon":5.37479,"is_reserved":false,"is_disabled":false,"rental_uris":{"android":"levelo://app?vid=5bc66414-50af-4cae-89c3-2cba4062827e","ios":"levelo://app?vid=5bc66414-50af-4cae-89c3-2cba4062827e"},"vehicle_type_id":"4","last_reported":1737623394,"current_range_meters":38000,"station_id":"ce4bgjh2rcd13ifvqbg0","pricing_plan_id":"cebpf4jnsgd1na2vs0mg"},{"bike_id":"37a5bfaa-bf3c-4576-a034-4184ba5c8c33","system_id":"levelo_inurba_marseille","lat":43.32485,"lon":5.36573,"is_reserved":false,"is_disabled":false,"rental_uris":{"android":"levelo://app?vid=37a5bfaa-bf3c-4576-a034-4184ba5c8c33","ios":"levelo://app?vid=37a5bfaa-bf3c-4576-a034-4184ba5c8c33"},"vehicle_type_id":"4","last_reported":1737623394,"current_range_meters":19600,"station_id":"ce4bhs12rcd13ifvqhvg","pricing_plan_id":"cebpf4jnsgd1na2vs0mg"},{"bike_id":"04de6f23-407d-4fcf-b28c-ee2a21a52bbe","system_id":"levelo_inurba_marseille","lat":43.23157,"lon":5.43707,"is_reserved":false,"is_disabled":false,"rental_uris":{"android":"levelo://app?vid=04de6f23-407d-4fcf-b28c-ee2a21a52bbe","ios":"levelo://app?vid=04de6f23-407d-4fcf-b28c-ee2a21a52bbe"},"vehicle_type_id":"4","last_reported":1737623394,"current_range_meters":25200,"station_id":"ce4bhmp2rcd13ifvqgog","pricing_plan_id":"cebpf4jnsgd1na2vs0mg"},{"bike_id":"d6555a85-9bf9-4f6f-8963-17c7982023b7","system_id":"levelo_inurba_marseille","lat":43.29302,"lon":5.37463,"is_reserved":false,"is_disabled":false,"rental_uris":{"android":"levelo://app?vid=d6555a85-9bf9-4f6f-8963-17c7982023b7","ios":"levelo://app?vid=d6555a85-9bf9-4f6f-8963-17c7982023b7"},"vehicle_type_id":"4","last_reported":1737623394,"current_range_meters":30000,"station_id":"ce4bgi12rcd13ifvqb70","pricing_plan_id":"cebpf4jnsgd1na2vs0mg"},{"bike_id":"c3a5bbba-d5d8-4521-a5b6-55624652b779","system_id":"levelo_inurba_marseille","lat":43.29965,"lon":5.38496,"is_reserved":false,"is_disabled":false,"rental_uris":{"android":"levelo://app?vid=c3a5bbba-d5d8-4521-a5b6-55624652b779","ios":"levelo://app?vid=c3a5bbba-d5d8-4521-a5b6-55624652b779"},"vehicle_type_id":"4","last_reported":1737623394,"current_range_meters":26000,"station_id":"ce4bgj92rcd13ifvqbd0","pricing_plan_id":"cebpf4jnsgd1na2vs0mg"},{"bike_id":"c3af026f-9e26-4934-915e-d872eef9c4d2","system_id":"levelo_inurba_marseille","lat":43.29909,"lon":5.37481,"is_reserved":false,"is_disabled":false,"rental_uris":{"android":"levelo://app?vid=c3af026f-9e26-4934-915e-d872eef9c4d2","ios":"levelo://app?vid=c3af026f-9e26-4934-915e-d872eef9c4d2"},"vehicle_type_id":"4","last_reported":1737623394,"current_range_meters":38000,"station_id":"ce4bgjh2rcd13ifvqbg0","pricing_plan_id":"cebpf4jnsgd1na2vs0mg"},{"bike_id":"12ccaffa-419f-4e2e-a36d-36dbb8e78d4b","system_id":"levelo_inurba_marseille","lat":43.31345,"lon":5.36724,"is_reserved":false,"is_disabled":false,"rental_uris":{"android":"levelo://app?vid=12ccaffa-419f-4e2e-a36d-36dbb8e78d4b","ios":"levelo://app?vid=12ccaffa-419f-4e2e-a36d-36dbb8e78d4b"},"vehicle_type_id":"4","last_reported":1737623394,"current_range_meters":20800,"station_id":"ce4bgr92rcd13ifvqc6g","pricing_plan_id":"cebpf4jnsgd1na2vs0mg"},{"bike_id":"3b78501e-373d-4af9-a07c-c1a27585fc17","system_id":"levelo_inurba_marseille","lat":43.29951,"lon":5.41327,"is_reserved":false,"is_disabled":false,"rental_uris":{"android":"levelo://app?vid=3b78501e-373d-4af9-a07c-c1a27585fc17","ios":"levelo://app?vid=3b78501e-373d-4af9-a07c-c1a27585fc17"},"vehicle_type_id":"4","last_reported":1737623394,"current_range_meters":28000,"station_id":"ce4bhp12rcd13ifvqh9g","pricing_plan_id":"cebpf4jnsgd1na2vs0mg"},{"bike_id":"5cf53051-933f-490b-9be0-88e9e4676d39","system_id":"levelo_inurba_marseille","lat":43.30112,"lon":5.39887,"is_reserved":false,"is_disabled":false,"rental_uris":{"android":"levelo://app?vid=5cf53051-933f-490b-9be0-88e9e4676d39","ios":"levelo://app?vid=5cf53051-933f-490b-9be0-88e9e4676d39"},"vehicle_type_id":"4","last_reported":1737623394,"current_range_meters":20400,"station_id":"ce4bh0h2rcd13ifvqd40","pricing_plan_id":"cebpf4jnsgd1na2vs0mg"},{"bike_id":"1970fe03-2a19-4871-a01b-17809d851312","system_id":"levelo_inurba_marseille","lat":43.24379,"lon":5.37074,"is_reserved":false,"is_disabled":false,"rental_uris":{"android":"levelo://app?vid=1970fe03-2a19-4871-a01b-17809d851312","ios":"levelo://app?vid=1970fe03-2a19-4871-a01b-17809d851312"},"vehicle_type_id":"4","last_reported":1737623394,"current_range_meters":24000,"station_id":"ce4bhhh2rcd13ifvqfk0","pricing_plan_id":"cebpf4jnsgd1na2vs0mg"},{"bike_id":"9999a319-4fe3-4fb4-a91e-417112ebc396","system_id":"levelo_inurba_marseille","lat":43.30305,"lon":5.36902,"is_reserved":false,"is_disabled":false,"rental_uris":{"android":"levelo://app?vid=9999a319-4fe3-4fb4-a91e-417112ebc396","ios":"levelo://app?vid=9999a319-4fe3-4fb4-a91e-417112ebc396"},"vehicle_type_id":"4","last_reported":1737623394,"current_range_meters":11200,"station_id":"ce4bgqh2rcd13ifvqc5g","pricing_plan_id":"cebpf4jnsgd1na2vs0mg"},{"bike_id":"1ac06258-ad9a-434b-839f-fd5f6c847dd6","system_id":"levelo_inurba_marseille","lat":43.30544,"lon":5.36706,"is_reserved":false,"is_disabled":false,"rental_uris":{"android":"levelo://app?vid=1ac06258-ad9a-434b-839f-fd5f6c847dd6","ios":"levelo://app?vid=1ac06258-ad9a-434b-839f-fd5f6c847dd6"},"vehicle_type_id":"4","last_reported":1737623394,"current_range_meters":35200,"station_id":"ce4bgrp2rcd13ifvqc9g","pricing_plan_id":"cebpf4jnsgd1na2vs0mg"},{"bike_id":"6440f376-b0ac-4979-8b74-813c76d7599b","system_id":"levelo_inurba_marseille","lat":43.24152,"lon":5.39752,"is_reserved":false,"is_disabled":false,"rental_uris":{"android":"levelo://app?vid=6440f376-b0ac-4979-8b74-813c76d7599b","ios":"levelo://app?vid=6440f376-b0ac-4979-8b74-813c76d7599b"},"vehicle_type_id":"4","last_reported":1737623394,"current_range_meters":26000,"station_id":"ce4bhn12rcd13ifvqgpg","pricing_plan_id":"cebpf4jnsgd1na2vs0mg"},{"bike_id":"53608539-8cd0-47e7-9cfb-d1161556d6fb","system_id":"levelo_inurba_marseille","lat":43.25519,"lon":5.37678,"is_reserved":false,"is_disabled":false,"rental_uris":{"android":"levelo://app?vid=53608539-8cd0-47e7-9cfb-d1161556d6fb","ios":"levelo://app?vid=53608539-8cd0-47e7-9cfb-d1161556d6fb"},"vehicle_type_id":"4","last_reported":1737623394,"current_range_meters":22800,"station_id":"ce4bhh12rcd13ifvqff0","pricing_plan_id":"cebpf4jnsgd1na2vs0mg"},{"bike_id":"f98a7ee0-f9fe-4556-933e-ecf6827038e5","system_id":"levelo_inurba_marseille","lat":43.29177,"lon":5.35727,"is_reserved":false,"is_disabled":false,"rental_uris":{"android":"levelo://app?vid=f98a7ee0-f9fe-4556-933e-ecf6827038e5","ios":"levelo://app?vid=f98a7ee0-f9fe-4556-933e-ecf6827038e5"},"vehicle_type_id":"4","last_reported":1737623394,"current_range_meters":14800,"station_id":"","pricing_plan_id":"cebpf4jnsgd1na2vs0mg"},{"bike_id":"46e55038-fbd6-4771-893c-ab44f3c1642a","system_id":"levelo_inurba_marseille","lat":43.31689,"lon":5.40492,"is_reserved":false,"is_disabled":true,"rental_uris":{"android":"levelo://app?vid=46e55038-fbd6-4771-893c-ab44f3c1642a","ios":"levelo://app?vid=46e55038-fbd6-4771-893c-ab44f3c1642a"},"vehicle_type_id":"4","last_reported":1737623394,"current_range_meters":0,"station_id":"ce4bh012rcd13ifvqd00","pricing_plan_id":"cebpf4jnsgd1na2vs0mg"},{"bike_id":"582e8754-15b7-4502-adec-5b8a77d5b5e9","system_id":"levelo_inurba_marseille","lat":43.31704,"lon":5.40463,"is_reserved":false,"is_disabled":true,"rental_uris":{"android":"levelo://app?vid=582e8754-15b7-4502-adec-5b8a77d5b5e9","ios":"levelo://app?vid=582e8754-15b7-4502-adec-5b8a77d5b5e9"},"vehicle_type_id":"4","last_reported":1737623394,"current_range_meters":4800,"station_id":"ce4bh012rcd13ifvqd00","pricing_plan_id":"cebpf4jnsgd1na2vs0mg"},{"bike_id":"91f957bd-7ae6-4841-8ac4-1ecdcd0c697e","system_id":"levelo_inurba_marseille","lat":43.31537,"lon":5.40197,"is_reserved":false,"is_disabled":false,"rental_uris":{"android":"levelo://app?vid=91f957bd-7ae6-4841-8ac4-1ecdcd0c697e","ios":"levelo://app?vid=91f957bd-7ae6-4841-8ac4-1ecdcd0c697e"},"vehicle_type_id":"4","last_reported":1737623394,"current_range_meters":26800,"station_id":"","pricing_plan_id":"cebpf4jnsgd1na2vs0mg"},{"bike_id":"632b28ad-d7cb-46af-a69c-c857c2a0764e","system_id":"levelo_inurba_marseille","lat":43.27059,"lon":5.4026,"is_reserved":false,"is_disabled":false,"rental_uris":{"android":"levelo://app?vid=632b28ad-d7cb-46af-a69c-c857c2a0764e","ios":"levelo://app?vid=632b28ad-d7cb-46af-a69c-c857c2a0764e"},"vehicle_type_id":"4","last_reported":1737623394,"current_range_meters":16800,"station_id":"ce4bhk92rcd13ifvqgc0","pricing_plan_id":"cebpf4jnsgd1na2vs0mg"},{"bike_id":"97f30324-56af-4610-8e3d-c06b58b423c9","system_id":"levelo_inurba_marseille","lat":43.30467,"lon":5.37909,"is_reserved":false,"is_disabled":false,"rental_uris":{"android":"levelo://app?vid=97f30324-56af-4610-8e3d-c06b58b423c9","ios":"levelo://app?vid=97f30324-56af-4610-8e3d-c06b58b423c9"},"vehicle_type_id":"4","last_reported":1737623394,"current_range_meters":16400,"station_id":"ce4bgup2rcd13ifvqcn0","pricing_plan_id":"cebpf4jnsgd1na2vs0mg"},{"bike_id":"96663138-92b9-4343-9a11-314ee4531fc0","system_id":"levelo_inurba_marseille","lat":43.30791,"lon":5.37662,"is_reserved":false,"is_disabled":true,"rental_uris":{"android":"levelo://app?vid=96663138-92b9-4343-9a11-314ee4531fc0","ios":"levelo://app?vid=96663138-92b9-4343-9a11-314ee4531fc0"},"vehicle_type_id":"4","last_reported":1737623394,"current_range_meters":14800,"station_id":"ce4bgv92rcd13ifvqcq0","pricing_plan_id":"cebpf4jnsgd1na2vs0mg"},{"bike_id":"9c75546a-9790-44de-b82b-46b710608a97","system_id":"levelo_inurba_marseille","lat":43.2582,"lon":5.39437,"is_reserved":false,"is_disabled":false,"rental_uris":{"android":"levelo://app?vid=9c75546a-9790-44de-b82b-46b710608a97","ios":"levelo://app?vid=9c75546a-9790-44de-b82b-46b710608a97"},"vehicle_type_id":"4","last_reported":1737623394,"current_range_meters":33600,"station_id":"ce4bhip2rcd13ifvqft0","pricing_plan_id":"cebpf4jnsgd1na2vs0mg"},{"bike_id":"2e2e8490-b92e-4c4b-8457-33e124143e07","system_id":"levelo_inurba_marseille","lat":43.33608,"lon":5.41034,"is_reserved":false,"is_disabled":false,"rental_uris":{"android":"levelo://app?vid=2e2e8490-b92e-4c4b-8457-33e124143e07","ios":"levelo://app?vid=2e2e8490-b92e-4c4b-8457-33e124143e07"},"vehicle_type_id":"4","last_reported":1737623394,"current_range_meters":39200,"station_id":"ce4bhqh2rcd13ifvqhmg","pricing_plan_id":"cebpf4jnsgd1na2vs0mg"},{"bike_id":"6a54c5b1-be36-4ae2-bc29-177bd38ec82c","system_id":"levelo_inurba_marseille","lat":43.28899,"lon":5.36395,"is_reserved":false,"is_disabled":false,"rental_uris":{"android":"levelo://app?vid=6a54c5b1-be36-4ae2-bc29-177bd38ec82c","ios":"levelo://app?vid=6a54c5b1-be36-4ae2-bc29-177bd38ec82c"},"vehicle_type_id":"4","last_reported":1737623394,"current_range_meters":28800,"station_id":"","pricing_plan_id":"cebpf4jnsgd1na2vs0mg"},{"bike_id":"ce90fea6-ff2a-4d0b-bd4f-45ced0acf4c0","system_id":"levelo_inurba_marseille","lat":43.32355,"lon":5.36761,"is_reserved":false,"is_disabled":false,"rental_uris":{"android":"levelo://app?vid=ce90fea6-ff2a-4d0b-bd4f-45ced0acf4c0","ios":"levelo://app?vid=ce90fea6-ff2a-4d0b-bd4f-45ced0acf4c0"},"vehicle_type_id":"4","last_reported":1737623394,"current_range_meters":12000,"station_id":"ce4bhsh2rcd13ifvqi2g","pricing_plan_id":"cebpf4jnsgd1na2vs0mg"},{"bike_id":"ab13439f-1c4b-4b83-ac72-9f4e6d1f64cb","system_id":"levelo_inurba_marseille","lat":43.31238,"lon":5.37971,"is_reserved":false,"is_disabled":true,"rental_uris":{"android":"levelo://app?vid=ab13439f-1c4b-4b83-ac72-9f4e6d1f64cb","ios":"levelo://app?vid=ab13439f-1c4b-4b83-ac72-9f4e6d1f64cb"},"vehicle_type_id":"4","last_reported":1737623394,"current_range_meters":11200,"station_id":"","pricing_plan_id":"cebpf4jnsgd1na2vs0mg"},{"bike_id":"bbd46f4e-69b3-408a-a511-013d09da517f","system_id":"levelo_inurba_marseille","lat":43.30083,"lon":5.39069,"is_reserved":false,"is_disabled":false,"rental_uris":{"android":"levelo://app?vid=bbd46f4e-69b3-408a-a511-013d09da517f","ios":"levelo://app?vid=bbd46f4e-69b3-408a-a511-013d09da517f"},"vehicle_type_id":"4","last_reported":1737623394,"current_range_meters":38800,"station_id":"ce4bh192rcd13ifvqdb0","pricing_plan_id":"cebpf4jnsgd1na2vs0mg"},{"bike_id":"81408bc5-859b-4ca6-9aad-dd3adb52eb7f","system_id":"levelo_inurba_marseille","lat":43.29002,"lon":5.3561,"is_reserved":false,"is_disabled":false,"rental_uris":{"android":"levelo://app?vid=81408bc5-859b-4ca6-9aad-dd3adb52eb7f","ios":"levelo://app?vid=81408bc5-859b-4ca6-9aad-dd3adb52eb7f"},"vehicle_type_id":"4","last_reported":1737623394,"current_range_meters":38400,"station_id":"ce4bhb92rcd13ifvqen0","pricing_plan_id":"cebpf4jnsgd1na2vs0mg"},{"bike_id":"5484cb23-bbf9-4647-9a5b-bfcaeee09987","system_id":"levelo_inurba_marseille","lat":43.2928,"lon":5.36844,"is_reserved":false,"is_disabled":false,"rental_uris":{"android":"levelo://app?vid=5484cb23-bbf9-4647-9a5b-bfcaeee09987","ios":"levelo://app?vid=5484cb23-bbf9-4647-9a5b-bfcaeee09987"},"vehicle_type_id":"4","last_reported":1737623394,"current_range_meters":27200,"station_id":"ce4bhbp2rcd13ifvqesg","pricing_plan_id":"cebpf4jnsgd1na2vs0mg"},{"bike_id":"c50849c8-c3ac-4431-a7eb-c9cdc1db403c","system_id":"levelo_inurba_marseille","lat":43.30901,"lon":5.36836,"is_reserved":false,"is_disabled":false,"rental_uris":{"android":"levelo://app?vid=c50849c8-c3ac-4431-a7eb-c9cdc1db403c","ios":"levelo://app?vid=c50849c8-c3ac-4431-a7eb-c9cdc1db403c"},"vehicle_type_id":"4","last_reported":1737623394,"current_range_meters":39200,"station_id":"ce4bgn92rcd13ifvqbvg","pricing_plan_id":"cebpf4jnsgd1na2vs0mg"},{"bike_id":"c2fdb3f4-f186-4f5e-af71-1188225f1855","system_id":"levelo_inurba_marseille","lat":43.2984,"lon":5.36271,"is_reserved":false,"is_disabled":false,"rental_uris":{"android":"levelo://app?vid=c2fdb3f4-f186-4f5e-af71-1188225f1855","ios":"levelo://app?vid=c2fdb3f4-f186-4f5e-af71-1188225f1855"},"vehicle_type_id":"4","last_reported":1737623394,"current_range_meters":30400,"station_id":"ce4bgpp2rcd13ifvqc3g","pricing_plan_id":"cebpf4jnsgd1na2vs0mg"},{"bike_id":"704b9ac4-08a6-48ef-85ea-bb2a6455baf7","system_id":"levelo_inurba_marseille","lat":43.26201,"lon":5.3793,"is_reserved":false,"is_disabled":false,"rental_uris":{"android":"levelo://app?vid=704b9ac4-08a6-48ef-85ea-bb2a6455baf7","ios":"levelo://app?vid=704b9ac4-08a6-48ef-85ea-bb2a6455baf7"},"vehicle_type_id":"4","last_reported":1737623394,"current_range_meters":38400,"station_id":"ce4bhjp2rcd13ifvqg90","pricing_plan_id":"cebpf4jnsgd1na2vs0mg"},{"bike_id":"dc25515f-2516-4d8e-8ff7-eaa9f571f705","system_id":"levelo_inurba_marseille","lat":43.30102,"lon":5.39082,"is_reserved":false,"is_disabled":true,"rental_uris":{"android":"levelo://app?vid=dc25515f-2516-4d8e-8ff7-eaa9f571f705","ios":"levelo://app?vid=dc25515f-2516-4d8e-8ff7-eaa9f571f705"},"vehicle_type_id":"4","last_reported":1737623394,"current_range_meters":0,"station_id":"ce4bh192rcd13ifvqdb0","pricing_plan_id":"cebpf4jnsgd1na2vs0mg"},{"bike_id":"7e0bb011-ea8e-4d52-baea-fca62842f570","system_id":"levelo_inurba_marseille","lat":43.30942,"lon":5.39037,"is_reserved":false,"is_disabled":false,"rental_uris":{"android":"levelo://app?vid=7e0bb011-ea8e-4d52-baea-fca62842f570","ios":"levelo://app?vid=7e0bb011-ea8e-4d52-baea-fca62842f570"},"vehicle_type_id":"4","last_reported":1737623394,"current_range_meters":32000,"station_id":"ce4bgup2rcd13ifvqco0","pricing_plan_id":"cebpf4jnsgd1na2vs0mg"},{"bike_id":"cb89451d-fcbc-47ab-bfa4-263d9c5e103c","system_id":"levelo_inurba_marseille","lat":43.25003,"lon":5.38938,"is_reserved":false,"is_disabled":false,"rental_uris":{"android":"levelo://app?vid=cb89451d-fcbc-47ab-bfa4-263d9c5e103c","ios":"levelo://app?vid=cb89451d-fcbc-47ab-bfa4-263d9c5e103c"},"vehicle_type_id":"4","last_reported":1737623394,"current_range_meters":30400,"station_id":"ce4bhgp2rcd13ifvqfd0","pricing_plan_id":"cebpf4jnsgd1na2vs0mg"},{"bike_id":"c4db15ea-eb22-409d-a92c-518ac96d96dd","system_id":"levelo_inurba_marseille","lat":43.29571,"lon":5.42282,"is_reserved":false,"is_disabled":false,"rental_uris":{"android":"levelo://app?vid=c4db15ea-eb22-409d-a92c-518ac96d96dd","ios":"levelo://app?vid=c4db15ea-eb22-409d-a92c-518ac96d96dd"},"vehicle_type_id":"4","last_reported":1737623394,"current_range_meters":38000,"station_id":"ce4bhph2rcd13ifvqhdg","pricing_plan_id":"cebpf4jnsgd1na2vs0mg"},{"bike_id":"e1946048-020d-470f-9b77-ffaa6ef35ac1","system_id":"levelo_inurba_marseille","lat":43.3095,"lon":5.39037,"is_reserved":false,"is_disabled":false,"rental_uris":{"android":"levelo://app?vid=e1946048-020d-470f-9b77-ffaa6ef35ac1","ios":"levelo://app?vid=e1946048-020d-470f-9b77-ffaa6ef35ac1"},"vehicle_type_id":"4","last_reported":1737623394,"current_range_meters":24800,"station_id":"ce4bgup2rcd13ifvqco0","pricing_plan_id":"cebpf4jnsgd1na2vs0mg"},{"bike_id":"682dc4ba-1771-434e-a109-1dcef5dddeb4","system_id":"levelo_inurba_marseille","lat":43.31373,"lon":5.36701,"is_reserved":false,"is_disabled":false,"rental_uris":{"android":"levelo://app?vid=682dc4ba-1771-434e-a109-1dcef5dddeb4","ios":"levelo://app?vid=682dc4ba-1771-434e-a109-1dcef5dddeb4"},"vehicle_type_id":"4","last_reported":1737623394,"current_range_meters":38800,"station_id":"ce4bgr92rcd13ifvqc6g","pricing_plan_id":"cebpf4jnsgd1na2vs0mg"},{"bike_id":"6db8d710-0799-43c0-85fe-57e7f9acc12c","system_id":"levelo_inurba_marseille","lat":43.27495,"lon":5.42451,"is_reserved":false,"is_disabled":false,"rental_uris":{"android":"levelo://app?vid=6db8d710-0799-43c0-85fe-57e7f9acc12c","ios":"levelo://app?vid=6db8d710-0799-43c0-85fe-57e7f9acc12c"},"vehicle_type_id":"4","last_reported":1737623394,"current_range_meters":11600,"station_id":"ce4bhn92rcd13ifvqgrg","pricing_plan_id":"cebpf4jnsgd1na2vs0mg"},{"bike_id":"1bf316b5-e489-41ce-8231-0df992cb2b56","system_id":"levelo_inurba_marseille","lat":43.28716,"lon":5.37401,"is_reserved":false,"is_disabled":false,"rental_uris":{"android":"levelo://app?vid=1bf316b5-e489-41ce-8231-0df992cb2b56","ios":"levelo://app?vid=1bf316b5-e489-41ce-8231-0df992cb2b56"},"vehicle_type_id":"4","last_reported":1737623394,"current_range_meters":32400,"station_id":"ce4bh3p2rcd13ifvqdq0","pricing_plan_id":"cebpf4jnsgd1na2vs0mg"},{"bike_id":"f2c81127-eb63-4c1f-8e2f-9a2254fbb814","system_id":"levelo_inurba_marseille","lat":43.24075,"lon":5.37761,"is_reserved":false,"is_disabled":false,"rental_uris":{"android":"levelo://app?vid=f2c81127-eb63-4c1f-8e2f-9a2254fbb814","ios":"levelo://app?vid=f2c81127-eb63-4c1f-8e2f-9a2254fbb814"},"vehicle_type_id":"4","last_reported":1737623394,"current_range_meters":6000,"station_id":"ce4bhnp2rcd13ifvqgvg","pricing_plan_id":"cebpf4jnsgd1na2vs0mg"},{"bike_id":"9bfdf7cb-91d1-44ae-89e3-489d8a73d8f7","system_id":"levelo_inurba_marseille","lat":43.32467,"lon":5.36545,"is_reserved":false,"is_disabled":false,"rental_uris":{"android":"levelo://app?vid=9bfdf7cb-91d1-44ae-89e3-489d8a73d8f7","ios":"levelo://app?vid=9bfdf7cb-91d1-44ae-89e3-489d8a73d8f7"},"vehicle_type_id":"4","last_reported":1737623394,"current_range_meters":38800,"station_id":"ce4bhs12rcd13ifvqhvg","pricing_plan_id":"cebpf4jnsgd1na2vs0mg"},{"bike_id":"b5062cad-2028-4365-9036-ec1aaf0b4d9d","system_id":"levelo_inurba_marseille","lat":43.30882,"lon":5.37188,"is_reserved":false,"is_disabled":false,"rental_uris":{"android":"levelo://app?vid=b5062cad-2028-4365-9036-ec1aaf0b4d9d","ios":"levelo://app?vid=b5062cad-2028-4365-9036-ec1aaf0b4d9d"},"vehicle_type_id":"4","last_reported":1737623394,"current_range_meters":38800,"station_id":"ce4bguh2rcd13ifvqckg","pricing_plan_id":"cebpf4jnsgd1na2vs0mg"},{"bike_id":"093df64a-8571-43cb-b3e7-2c22d1d6e828","system_id":"levelo_inurba_marseille","lat":43.25925,"lon":5.40914,"is_reserved":false,"is_disabled":false,"rental_uris":{"android":"levelo://app?vid=093df64a-8571-43cb-b3e7-2c22d1d6e828","ios":"levelo://app?vid=093df64a-8571-43cb-b3e7-2c22d1d6e828"},"vehicle_type_id":"4","last_reported":1737623394,"current_range_meters":38800,"station_id":"ce4bhm92rcd13ifvqglg","pricing_plan_id":"cebpf4jnsgd1na2vs0mg"},{"bike_id":"6af01551-9900-4546-99a1-d63a6c9402e6","system_id":"levelo_inurba_marseille","lat":43.30137,"lon":5.37428,"is_reserved":false,"is_disabled":false,"rental_uris":{"android":"levelo://app?vid=6af01551-9900-4546-99a1-d63a6c9402e6","ios":"levelo://app?vid=6af01551-9900-4546-99a1-d63a6c9402e6"},"vehicle_type_id":"4","last_reported":1737623394,"current_range_meters":14400,"station_id":"ce4bgs92rcd13ifvqcc0","pricing_plan_id":"cebpf4jnsgd1na2vs0mg"},{"bike_id":"dc106d26-2435-4fc6-b189-67702605d5dc","system_id":"levelo_inurba_marseille","lat":43.27054,"lon":5.40262,"is_reserved":false,"is_disabled":false,"rental_uris":{"android":"levelo://app?vid=dc106d26-2435-4fc6-b189-67702605d5dc","ios":"levelo://app?vid=dc106d26-2435-4fc6-b189-67702605d5dc"},"vehicle_type_id":"4","last_reported":1737623394,"current_range_meters":24800,"station_id":"ce4bhk92rcd13ifvqgc0","pricing_plan_id":"cebpf4jnsgd1na2vs0mg"},{"bike_id":"62a4859e-3ecc-4714-869d-bc3060ae3156","system_id":"levelo_inurba_marseille","lat":43.25947,"lon":5.40898,"is_reserved":false,"is_disabled":false,"rental_uris":{"android":"levelo://app?vid=62a4859e-3ecc-4714-869d-bc3060ae3156","ios":"levelo://app?vid=62a4859e-3ecc-4714-869d-bc3060ae3156"},"vehicle_type_id":"4","last_reported":1737623394,"current_range_meters":36800,"station_id":"ce4bhm92rcd13ifvqglg","pricing_plan_id":"cebpf4jnsgd1na2vs0mg"},{"bike_id":"036ef21a-cd0f-4d78-a9a9-bcbf43217439","system_id":"levelo_inurba_marseille","lat":43.27508,"lon":5.42477,"is_reserved":false,"is_disabled":false,"rental_uris":{"android":"levelo://app?vid=036ef21a-cd0f-4d78-a9a9-bcbf43217439","ios":"levelo://app?vid=036ef21a-cd0f-4d78-a9a9-bcbf43217439"},"vehicle_type_id":"4","last_reported":1737623394,"current_range_meters":33200,"station_id":"ce4bhn92rcd13ifvqgrg","pricing_plan_id":"cebpf4jnsgd1na2vs0mg"},{"bike_id":"a0ea94d5-d4ca-4b99-8b33-7876b74517b4","system_id":"levelo_inurba_marseille","lat":43.30283,"lon":5.36881,"is_reserved":false,"is_disabled":false,"rental_uris":{"android":"levelo://app?vid=a0ea94d5-d4ca-4b99-8b33-7876b74517b4","ios":"levelo://app?vid=a0ea94d5-d4ca-4b99-8b33-7876b74517b4"},"vehicle_type_id":"4","last_reported":1737623394,"current_range_meters":24400,"station_id":"ce4bgqh2rcd13ifvqc5g","pricing_plan_id":"cebpf4jnsgd1na2vs0mg"},{"bike_id":"232b25b7-fa81-4630-9104-082348ac0480","system_id":"levelo_inurba_marseille","lat":43.27995,"lon":5.40035,"is_reserved":false,"is_disabled":false,"rental_uris":{"android":"levelo://app?vid=232b25b7-fa81-4630-9104-082348ac0480","ios":"levelo://app?vid=232b25b7-fa81-4630-9104-082348ac0480"},"vehicle_type_id":"4","last_reported":1737623394,"current_range_meters":37600,"station_id":"ce4bho92rcd13ifvqh4g","pricing_plan_id":"cebpf4jnsgd1na2vs0mg"},{"bike_id":"e27655d4-4288-4bf0-b85c-3c846dba64a1","system_id":"levelo_inurba_marseille","lat":43.29843,"lon":5.36278,"is_reserved":false,"is_disabled":false,"rental_uris":{"android":"levelo://app?vid=e27655d4-4288-4bf0-b85c-3c846dba64a1","ios":"levelo://app?vid=e27655d4-4288-4bf0-b85c-3c846dba64a1"},"vehicle_type_id":"4","last_reported":1737623394,"current_range_meters":38400,"station_id":"ce4bgpp2rcd13ifvqc3g","pricing_plan_id":"cebpf4jnsgd1na2vs0mg"},{"bike_id":"ccfb2536-57fe-454d-858f-d7397a4801d9","system_id":"levelo_inurba_marseille","lat":43.32476,"lon":5.36555,"is_reserved":false,"is_disabled":false,"rental_uris":{"android":"levelo://app?vid=ccfb2536-57fe-454d-858f-d7397a4801d9","ios":"levelo://app?vid=ccfb2536-57fe-454d-858f-d7397a4801d9"},"vehicle_type_id":"4","last_reported":1737623394,"current_range_meters":38800,"station_id":"ce4bhs12rcd13ifvqhvg","pricing_plan_id":"cebpf4jnsgd1na2vs0mg"},{"bike_id":"dcb048dc-cdc9-4384-89c0-8b2fb6c6a910","system_id":"levelo_inurba_marseille","lat":43.28937,"lon":5.36413,"is_reserved":false,"is_disabled":false,"rental_uris":{"android":"levelo://app?vid=dcb048dc-cdc9-4384-89c0-8b2fb6c6a910","ios":"levelo://app?vid=dcb048dc-cdc9-4384-89c0-8b2fb6c6a910"},"vehicle_type_id":"4","last_reported":1737623394,"current_range_meters":14400,"station_id":"ce4bhc92rcd13ifvqetg","pricing_plan_id":"cebpf4jnsgd1na2vs0mg"},{"bike_id":"b279096e-575d-4cb2-8542-8899d46b4c13","system_id":"levelo_inurba_marseille","lat":43.30471,"lon":5.3791,"is_reserved":false,"is_disabled":false,"rental_uris":{"android":"levelo://app?vid=b279096e-575d-4cb2-8542-8899d46b4c13","ios":"levelo://app?vid=b279096e-575d-4cb2-8542-8899d46b4c13"},"vehicle_type_id":"4","last_reported":1737623394,"current_range_meters":28000,"station_id":"ce4bgup2rcd13ifvqcn0","pricing_plan_id":"cebpf4jnsgd1na2vs0mg"},{"bike_id":"96e0558c-cec8-47c4-89d3-1aa21c4b0119","system_id":"levelo_inurba_marseille","lat":43.25705,"lon":5.418129,"is_reserved":false,"is_disabled":false,"rental_uris":{"android":"levelo://app?vid=96e0558c-cec8-47c4-89d3-1aa21c4b0119","ios":"levelo://app?vid=96e0558c-cec8-47c4-89d3-1aa21c4b0119"},"vehicle_type_id":"4","last_reported":1737623394,"current_range_meters":16800,"station_id":"","pricing_plan_id":"cebpf4jnsgd1na2vs0mg"},{"bike_id":"f214401a-dba5-4f6f-8c9a-9bc928023425","system_id":"levelo_inurba_marseille","lat":43.29036,"lon":5.39965,"is_reserved":false,"is_disabled":false,"rental_uris":{"android":"levelo://app?vid=f214401a-dba5-4f6f-8c9a-9bc928023425","ios":"levelo://app?vid=f214401a-dba5-4f6f-8c9a-9bc928023425"},"vehicle_type_id":"4","last_reported":1737623394,"current_range_meters":38800,"station_id":"ce4bh392rcd13ifvqdm0","pricing_plan_id":"cebpf4jnsgd1na2vs0mg"},{"bike_id":"654ccd02-fa15-4156-96e5-36e96574898a","system_id":"levelo_inurba_marseille","lat":43.29057,"lon":5.35917,"is_reserved":false,"is_disabled":false,"rental_uris":{"android":"levelo://app?vid=654ccd02-fa15-4156-96e5-36e96574898a","ios":"levelo://app?vid=654ccd02-fa15-4156-96e5-36e96574898a"},"vehicle_type_id":"4","last_reported":1737623394,"current_range_meters":28800,"station_id":"ce4bha92rcd13ifvqeg0","pricing_plan_id":"cebpf4jnsgd1na2vs0mg"},{"bike_id":"6e5c0b6a-fc4f-4714-93d9-b9dedde0f5dc","system_id":"levelo_inurba_marseille","lat":43.28938,"lon":5.36638,"is_reserved":false,"is_disabled":false,"rental_uris":{"android":"levelo://app?vid=6e5c0b6a-fc4f-4714-93d9-b9dedde0f5dc","ios":"levelo://app?vid=6e5c0b6a-fc4f-4714-93d9-b9dedde0f5dc"},"vehicle_type_id":"4","last_reported":1737623394,"current_range_meters":27200,"station_id":"ce4bhap2rcd13ifvqek0","pricing_plan_id":"cebpf4jnsgd1na2vs0mg"},{"bike_id":"755fbef0-a8d1-445d-a38a-9354fdc36d67","system_id":"levelo_inurba_marseille","lat":43.24079,"lon":5.37745,"is_reserved":false,"is_disabled":false,"rental_uris":{"android":"levelo://app?vid=755fbef0-a8d1-445d-a38a-9354fdc36d67","ios":"levelo://app?vid=755fbef0-a8d1-445d-a38a-9354fdc36d67"},"vehicle_type_id":"4","last_reported":1737623394,"current_range_meters":17200,"station_id":"ce4bhnp2rcd13ifvqgvg","pricing_plan_id":"cebpf4jnsgd1na2vs0mg"},{"bike_id":"7780f830-f4e0-48b7-bb65-c214ecccd912","system_id":"levelo_inurba_marseille","lat":43.30528,"lon":5.38423,"is_reserved":false,"is_disabled":false,"rental_uris":{"android":"levelo://app?vid=7780f830-f4e0-48b7-bb65-c214ecccd912","ios":"levelo://app?vid=7780f830-f4e0-48b7-bb65-c214ecccd912"},"vehicle_type_id":"4","last_reported":1737623394,"current_range_meters":37600,"station_id":"ce4bgg92rcd13ifvqb30","pricing_plan_id":"cebpf4jnsgd1na2vs0mg"},{"bike_id":"bdc9df5b-15df-4da6-8498-c1412c4f1ee3","system_id":"levelo_inurba_marseille","lat":43.26944,"lon":5.38627,"is_reserved":false,"is_disabled":false,"rental_uris":{"android":"levelo://app?vid=bdc9df5b-15df-4da6-8498-c1412c4f1ee3","ios":"levelo://app?vid=bdc9df5b-15df-4da6-8498-c1412c4f1ee3"},"vehicle_type_id":"4","last_reported":1737623394,"current_range_meters":36800,"station_id":"ce4bhh92rcd13ifvqfh0","pricing_plan_id":"cebpf4jnsgd1na2vs0mg"},{"bike_id":"13a64475-e4c7-493c-900a-0bcfe86942ca","system_id":"levelo_inurba_marseille","lat":43.30817,"lon":5.43543,"is_reserved":false,"is_disabled":false,"rental_uris":{"android":"levelo://app?vid=13a64475-e4c7-493c-900a-0bcfe86942ca","ios":"levelo://app?vid=13a64475-e4c7-493c-900a-0bcfe86942ca"},"vehicle_type_id":"4","last_reported":1737623394,"current_range_meters":12000,"station_id":"ce4bhph2rcd13ifvqheg","pricing_plan_id":"cebpf4jnsgd1na2vs0mg"},{"bike_id":"eec29bcc-4db9-490c-8509-0569ef65d3a4","system_id":"levelo_inurba_marseille","lat":43.23149,"lon":5.43719,"is_reserved":false,"is_disabled":true,"rental_uris":{"android":"levelo://app?vid=eec29bcc-4db9-490c-8509-0569ef65d3a4","ios":"levelo://app?vid=eec29bcc-4db9-490c-8509-0569ef65d3a4"},"vehicle_type_id":"4","last_reported":1737623394,"current_range_meters":400,"station_id":"ce4bhmp2rcd13ifvqgog","pricing_plan_id":"cebpf4jnsgd1na2vs0mg"},{"bike_id":"366618e5-58e4-49a2-b359-c5654fbadc2c","system_id":"levelo_inurba_marseille","lat":43.24066,"lon":5.37753,"is_reserved":false,"is_disabled":false,"rental_uris":{"android":"levelo://app?vid=366618e5-58e4-49a2-b359-c5654fbadc2c","ios":"levelo://app?vid=366618e5-58e4-49a2-b359-c5654fbadc2c"},"vehicle_type_id":"4","last_reported":1737623394,"current_range_meters":18000,"station_id":"ce4bhnp2rcd13ifvqgvg","pricing_plan_id":"cebpf4jnsgd1na2vs0mg"},{"bike_id":"193061f2-6f62-4a7d-b2a8-944e9118d4b9","system_id":"levelo_inurba_marseille","lat":43.3228,"lon":5.38282,"is_reserved":false,"is_disabled":false,"rental_uris":{"android":"levelo://app?vid=193061f2-6f62-4a7d-b2a8-944e9118d4b9","ios":"levelo://app?vid=193061f2-6f62-4a7d-b2a8-944e9118d4b9"},"vehicle_type_id":"4","last_reported":1737623394,"current_range_meters":38800,"station_id":"ce4bhr12rcd13ifvqhqg","pricing_plan_id":"cebpf4jnsgd1na2vs0mg"},{"bike_id":"e91ed29f-6d7c-4e60-8189-11773ebb5840","system_id":"levelo_inurba_marseille","lat":43.25712,"lon":5.41805,"is_reserved":false,"is_disabled":true,"rental_uris":{"android":"levelo://app?vid=e91ed29f-6d7c-4e60-8189-11773ebb5840","ios":"levelo://app?vid=e91ed29f-6d7c-4e60-8189-11773ebb5840"},"vehicle_type_id":"4","last_reported":1737623394,"current_range_meters":29600,"station_id":"","pricing_plan_id":"cebpf4jnsgd1na2vs0mg"},{"bike_id":"8b5b2ad9-2aec-4c41-a14f-2627ba9e143b","system_id":"levelo_inurba_marseille","lat":43.24084,"lon":5.37754,"is_reserved":false,"is_disabled":false,"rental_uris":{"android":"levelo://app?vid=8b5b2ad9-2aec-4c41-a14f-2627ba9e143b","ios":"levelo://app?vid=8b5b2ad9-2aec-4c41-a14f-2627ba9e143b"},"vehicle_type_id":"4","last_reported":1737623394,"current_range_meters":11200,"station_id":"ce4bhnp2rcd13ifvqgvg","pricing_plan_id":"cebpf4jnsgd1na2vs0mg"},{"bike_id":"58bd67b2-eea0-4ad2-8092-8cb589d6733b","system_id":"levelo_inurba_marseille","lat":43.30793,"lon":5.43534,"is_reserved":false,"is_disabled":false,"rental_uris":{"android":"levelo://app?vid=58bd67b2-eea0-4ad2-8092-8cb589d6733b","ios":"levelo://app?vid=58bd67b2-eea0-4ad2-8092-8cb589d6733b"},"vehicle_type_id":"4","last_reported":1737623394,"current_range_meters":6400,"station_id":"ce4bhph2rcd13ifvqheg","pricing_plan_id":"cebpf4jnsgd1na2vs0mg"},{"bike_id":"f8216a2b-e7c5-4eea-8c3d-912daef0d729","system_id":"levelo_inurba_marseille","lat":43.29882,"lon":5.43671,"is_reserved":false,"is_disabled":false,"rental_uris":{"android":"levelo://app?vid=f8216a2b-e7c5-4eea-8c3d-912daef0d729","ios":"levelo://app?vid=f8216a2b-e7c5-4eea-8c3d-912daef0d729"},"vehicle_type_id":"4","last_reported":1737623394,"current_range_meters":20000,"station_id":"ce4bhpp2rcd13ifvqhfg","pricing_plan_id":"cebpf4jnsgd1na2vs0mg"},{"bike_id":"174ef919-1de8-4476-8071-7ce5e1cde64a","system_id":"levelo_inurba_marseille","lat":43.26955,"lon":5.3863,"is_reserved":false,"is_disabled":false,"rental_uris":{"android":"levelo://app?vid=174ef919-1de8-4476-8071-7ce5e1cde64a","ios":"levelo://app?vid=174ef919-1de8-4476-8071-7ce5e1cde64a"},"vehicle_type_id":"4","last_reported":1737623394,"current_range_meters":24800,"station_id":"ce4bhh92rcd13ifvqfh0","pricing_plan_id":"cebpf4jnsgd1na2vs0mg"},{"bike_id":"350ab8f0-9fde-43c2-bf89-4a124be2e10d","system_id":"levelo_inurba_marseille","lat":43.29604,"lon":5.38092,"is_reserved":false,"is_disabled":false,"rental_uris":{"android":"levelo://app?vid=350ab8f0-9fde-43c2-bf89-4a124be2e10d","ios":"levelo://app?vid=350ab8f0-9fde-43c2-bf89-4a124be2e10d"},"vehicle_type_id":"4","last_reported":1737623394,"current_range_meters":35600,"station_id":"ce4bgl12rcd13ifvqbo0","pricing_plan_id":"cebpf4jnsgd1na2vs0mg"},{"bike_id":"549b1928-e1cf-4e8f-979d-82ddd1e2f667","system_id":"levelo_inurba_marseille","lat":43.31893,"lon":5.40735,"is_reserved":false,"is_disabled":false,"rental_uris":{"android":"levelo://app?vid=549b1928-e1cf-4e8f-979d-82ddd1e2f667","ios":"levelo://app?vid=549b1928-e1cf-4e8f-979d-82ddd1e2f667"},"vehicle_type_id":"4","last_reported":1737623394,"current_range_meters":38000,"station_id":"ce4bhq12rcd13ifvqhig","pricing_plan_id":"cebpf4jnsgd1na2vs0mg"},{"bike_id":"c9b59356-4a07-4507-ba94-9e7752baf636","system_id":"levelo_inurba_marseille","lat":43.30907,"lon":5.36863,"is_reserved":false,"is_disabled":false,"rental_uris":{"android":"levelo://app?vid=c9b59356-4a07-4507-ba94-9e7752baf636","ios":"levelo://app?vid=c9b59356-4a07-4507-ba94-9e7752baf636"},"vehicle_type_id":"4","last_reported":1737623394,"current_range_meters":28000,"station_id":"ce4bgn92rcd13ifvqbvg","pricing_plan_id":"cebpf4jnsgd1na2vs0mg"},{"bike_id":"8e0ddf17-f172-49fd-aa4a-5802e9bc1eb4","system_id":"levelo_inurba_marseille","lat":43.34148,"lon":5.40903,"is_reserved":false,"is_disabled":false,"rental_uris":{"android":"levelo://app?vid=8e0ddf17-f172-49fd-aa4a-5802e9bc1eb4","ios":"levelo://app?vid=8e0ddf17-f172-49fd-aa4a-5802e9bc1eb4"},"vehicle_type_id":"4","last_reported":1737623394,"current_range_meters":39200,"station_id":"ce4bhqh2rcd13ifvqhlg","pricing_plan_id":"cebpf4jnsgd1na2vs0mg"},{"bike_id":"4ec96207-5c88-4957-875c-7fb36b853318","system_id":"levelo_inurba_marseille","lat":43.30952,"lon":5.39028,"is_reserved":false,"is_disabled":false,"rental_uris":{"android":"levelo://app?vid=4ec96207-5c88-4957-875c-7fb36b853318","ios":"levelo://app?vid=4ec96207-5c88-4957-875c-7fb36b853318"},"vehicle_type_id":"4","last_reported":1737623394,"current_range_meters":8800,"station_id":"ce4bgup2rcd13ifvqco0","pricing_plan_id":"cebpf4jnsgd1na2vs0mg"},{"bike_id":"104d2b0a-20ef-4b97-96c3-5231651d9405","system_id":"levelo_inurba_marseille","lat":43.30472,"lon":5.37905,"is_reserved":false,"is_disabled":false,"rental_uris":{"android":"levelo://app?vid=104d2b0a-20ef-4b97-96c3-5231651d9405","ios":"levelo://app?vid=104d2b0a-20ef-4b97-96c3-5231651d9405"},"vehicle_type_id":"4","last_reported":1737623394,"current_range_meters":39200,"station_id":"ce4bgup2rcd13ifvqcn0","pricing_plan_id":"cebpf4jnsgd1na2vs0mg"},{"bike_id":"9863b7f9-4316-4322-9f6c-3cc66b0448e2","system_id":"levelo_inurba_marseille","lat":43.279439,"lon":5.389008,"is_reserved":false,"is_disabled":true,"rental_uris":{"android":"levelo://app?vid=9863b7f9-4316-4322-9f6c-3cc66b0448e2","ios":"levelo://app?vid=9863b7f9-4316-4322-9f6c-3cc66b0448e2"},"vehicle_type_id":"4","last_reported":1737623394,"current_range_meters":25200,"station_id":"","pricing_plan_id":"cebpf4jnsgd1na2vs0mg"},{"bike_id":"8741379d-312c-4f8a-874b-6f14433f6a99","system_id":"levelo_inurba_marseille","lat":43.30532,"lon":5.36547,"is_reserved":false,"is_disabled":false,"rental_uris":{"android":"levelo://app?vid=8741379d-312c-4f8a-874b-6f14433f6a99","ios":"levelo://app?vid=8741379d-312c-4f8a-874b-6f14433f6a99"},"vehicle_type_id":"4","last_reported":1737623394,"current_range_meters":36000,"station_id":"ce4bgs12rcd13ifvqcag","pricing_plan_id":"cebpf4jnsgd1na2vs0mg"},{"bike_id":"8321d96b-90be-4414-a696-09a6390b760d","system_id":"levelo_inurba_marseille","lat":43.30471,"lon":5.37904,"is_reserved":false,"is_disabled":true,"rental_uris":{"android":"levelo://app?vid=8321d96b-90be-4414-a696-09a6390b760d","ios":"levelo://app?vid=8321d96b-90be-4414-a696-09a6390b760d"},"vehicle_type_id":"4","last_reported":1737623394,"current_range_meters":34000,"station_id":"ce4bgup2rcd13ifvqcn0","pricing_plan_id":"cebpf4jnsgd1na2vs0mg"},{"bike_id":"eddb6b89-082b-479c-b34f-44c352a03897","system_id":"levelo_inurba_marseille","lat":43.25497,"lon":5.37646,"is_reserved":false,"is_disabled":false,"rental_uris":{"android":"levelo://app?vid=eddb6b89-082b-479c-b34f-44c352a03897","ios":"levelo://app?vid=eddb6b89-082b-479c-b34f-44c352a03897"},"vehicle_type_id":"4","last_reported":1737623394,"current_range_meters":38400,"station_id":"ce4bhh12rcd13ifvqff0","pricing_plan_id":"cebpf4jnsgd1na2vs0mg"},{"bike_id":"c7cb396a-5cdc-4332-9092-3fdc3a3fcf14","system_id":"levelo_inurba_marseille","lat":43.29301,"lon":5.3746,"is_reserved":false,"is_disabled":false,"rental_uris":{"android":"levelo://app?vid=c7cb396a-5cdc-4332-9092-3fdc3a3fcf14","ios":"levelo://app?vid=c7cb396a-5cdc-4332-9092-3fdc3a3fcf14"},"vehicle_type_id":"4","last_reported":1737623394,"current_range_meters":36400,"station_id":"ce4bgi12rcd13ifvqb70","pricing_plan_id":"cebpf4jnsgd1na2vs0mg"},{"bike_id":"4cbc6001-4859-491c-8f7b-7c4cb757c724","system_id":"levelo_inurba_marseille","lat":43.30298,"lon":5.37738,"is_reserved":false,"is_disabled":false,"rental_uris":{"android":"levelo://app?vid=4cbc6001-4859-491c-8f7b-7c4cb757c724","ios":"levelo://app?vid=4cbc6001-4859-491c-8f7b-7c4cb757c724"},"vehicle_type_id":"4","last_reported":1737623394,"current_range_meters":38000,"station_id":"ce4bguh2rcd13ifvqcj0","pricing_plan_id":"cebpf4jnsgd1na2vs0mg"},{"bike_id":"66298199-3847-478a-aaf4-8eeb6eae21ba","system_id":"levelo_inurba_marseille","lat":43.290328,"lon":5.399774,"is_reserved":false,"is_disabled":false,"rental_uris":{"android":"levelo://app?vid=66298199-3847-478a-aaf4-8eeb6eae21ba","ios":"levelo://app?vid=66298199-3847-478a-aaf4-8eeb6eae21ba"},"vehicle_type_id":"4","last_reported":1737623394,"current_range_meters":38800,"station_id":"ce4bh392rcd13ifvqdm0","pricing_plan_id":"cebpf4jnsgd1na2vs0mg"},{"bike_id":"2b8eb6aa-82c8-45b2-80a5-e15fd8b8ca3a","system_id":"levelo_inurba_marseille","lat":43.30472,"lon":5.37903,"is_reserved":false,"is_disabled":false,"rental_uris":{"android":"levelo://app?vid=2b8eb6aa-82c8-45b2-80a5-e15fd8b8ca3a","ios":"levelo://app?vid=2b8eb6aa-82c8-45b2-80a5-e15fd8b8ca3a"},"vehicle_type_id":"4","last_reported":1737623394,"current_range_meters":24800,"station_id":"ce4bgup2rcd13ifvqcn0","pricing_plan_id":"cebpf4jnsgd1na2vs0mg"},{"bike_id":"dfbd27e7-12bf-4812-80d1-488dbaf230dc","system_id":"levelo_inurba_marseille","lat":43.324913,"lon":5.365554,"is_reserved":false,"is_disabled":false,"rental_uris":{"android":"levelo://app?vid=dfbd27e7-12bf-4812-80d1-488dbaf230dc","ios":"levelo://app?vid=dfbd27e7-12bf-4812-80d1-488dbaf230dc"},"vehicle_type_id":"4","last_reported":1737623394,"current_range_meters":23200,"station_id":"ce4bhs12rcd13ifvqhvg","pricing_plan_id":"cebpf4jnsgd1na2vs0mg"},{"bike_id":"28f51610-2ace-4ef5-8acd-b95cf52e90cb","system_id":"levelo_inurba_marseille","lat":43.30608,"lon":5.39364,"is_reserved":false,"is_disabled":false,"rental_uris":{"android":"levelo://app?vid=28f51610-2ace-4ef5-8acd-b95cf52e90cb","ios":"levelo://app?vid=28f51610-2ace-4ef5-8acd-b95cf52e90cb"},"vehicle_type_id":"4","last_reported":1737623394,"current_range_meters":10000,"station_id":"ce4bh0p2rcd13ifvqd80","pricing_plan_id":"cebpf4jnsgd1na2vs0mg"},{"bike_id":"4a4d7f0d-0d96-4ef7-98a7-344ef12c0393","system_id":"levelo_inurba_marseille","lat":43.29035,"lon":5.37572,"is_reserved":false,"is_disabled":false,"rental_uris":{"android":"levelo://app?vid=4a4d7f0d-0d96-4ef7-98a7-344ef12c0393","ios":"levelo://app?vid=4a4d7f0d-0d96-4ef7-98a7-344ef12c0393"},"vehicle_type_id":"4","last_reported":1737623394,"current_range_meters":14800,"station_id":"ce4bh692rcd13ifvqe90","pricing_plan_id":"cebpf4jnsgd1na2vs0mg"},{"bike_id":"6d9a4246-24ff-446a-b261-6af59c8b56bf","system_id":"levelo_inurba_marseille","lat":43.29841,"lon":5.36264,"is_reserved":false,"is_disabled":false,"rental_uris":{"android":"levelo://app?vid=6d9a4246-24ff-446a-b261-6af59c8b56bf","ios":"levelo://app?vid=6d9a4246-24ff-446a-b261-6af59c8b56bf"},"vehicle_type_id":"4","last_reported":1737623394,"current_range_meters":24800,"station_id":"ce4bgpp2rcd13ifvqc3g","pricing_plan_id":"cebpf4jnsgd1na2vs0mg"},{"bike_id":"db3d231d-edae-4435-9f3d-91f005f85580","system_id":"levelo_inurba_marseille","lat":43.30467,"lon":5.37913,"is_reserved":false,"is_disabled":false,"rental_uris":{"android":"levelo://app?vid=db3d231d-edae-4435-9f3d-91f005f85580","ios":"levelo://app?vid=db3d231d-edae-4435-9f3d-91f005f85580"},"vehicle_type_id":"4","last_reported":1737623394,"current_range_meters":26000,"station_id":"ce4bgup2rcd13ifvqcn0","pricing_plan_id":"cebpf4jnsgd1na2vs0mg"},{"bike_id":"1bf356b9-0346-48ea-82cf-8e5f9ce64345","system_id":"levelo_inurba_marseille","lat":43.337207,"lon":5.391737,"is_reserved":false,"is_disabled":false,"rental_uris":{"android":"levelo://app?vid=1bf356b9-0346-48ea-82cf-8e5f9ce64345","ios":"levelo://app?vid=1bf356b9-0346-48ea-82cf-8e5f9ce64345"},"vehicle_type_id":"4","last_reported":1737623394,"current_range_meters":22800,"station_id":"ce4bhr92rcd13ifvqhsg","pricing_plan_id":"cebpf4jnsgd1na2vs0mg"},{"bike_id":"a353073b-3453-490f-bdfe-01f1c076898b","system_id":"levelo_inurba_marseille","lat":43.31363,"lon":5.36686,"is_reserved":false,"is_disabled":false,"rental_uris":{"android":"levelo://app?vid=a353073b-3453-490f-bdfe-01f1c076898b","ios":"levelo://app?vid=a353073b-3453-490f-bdfe-01f1c076898b"},"vehicle_type_id":"4","last_reported":1737623394,"current_range_meters":26800,"station_id":"ce4bgr92rcd13ifvqc6g","pricing_plan_id":"cebpf4jnsgd1na2vs0mg"},{"bike_id":"49052dc3-4d8a-4007-89e4-6a2b13d47195","system_id":"levelo_inurba_marseille","lat":43.2438,"lon":5.37084,"is_reserved":false,"is_disabled":true,"rental_uris":{"android":"levelo://app?vid=49052dc3-4d8a-4007-89e4-6a2b13d47195","ios":"levelo://app?vid=49052dc3-4d8a-4007-89e4-6a2b13d47195"},"vehicle_type_id":"4","last_reported":1737623394,"current_range_meters":10800,"station_id":"ce4bhhh2rcd13ifvqfk0","pricing_plan_id":"cebpf4jnsgd1na2vs0mg"},{"bike_id":"13404d01-1c7c-4d4b-bb24-e98755f8bf24","system_id":"levelo_inurba_marseille","lat":43.30537,"lon":5.36703,"is_reserved":false,"is_disabled":false,"rental_uris":{"android":"levelo://app?vid=13404d01-1c7c-4d4b-bb24-e98755f8bf24","ios":"levelo://app?vid=13404d01-1c7c-4d4b-bb24-e98755f8bf24"},"vehicle_type_id":"4","last_reported":1737623394,"current_range_meters":33600,"station_id":"ce4bgrp2rcd13ifvqc9g","pricing_plan_id":"cebpf4jnsgd1na2vs0mg"},{"bike_id":"5fd5deb8-85db-4c77-9556-3d5346f224b3","system_id":"levelo_inurba_marseille","lat":43.30535,"lon":5.36707,"is_reserved":false,"is_disabled":false,"rental_uris":{"android":"levelo://app?vid=5fd5deb8-85db-4c77-9556-3d5346f224b3","ios":"levelo://app?vid=5fd5deb8-85db-4c77-9556-3d5346f224b3"},"vehicle_type_id":"4","last_reported":1737623394,"current_range_meters":33200,"station_id":"ce4bgrp2rcd13ifvqc9g","pricing_plan_id":"cebpf4jnsgd1na2vs0mg"},{"bike_id":"e6d69e77-2426-40e6-8b56-caff4d581c0e","system_id":"levelo_inurba_marseille","lat":43.29554,"lon":5.42276,"is_reserved":false,"is_disabled":false,"rental_uris":{"android":"levelo://app?vid=e6d69e77-2426-40e6-8b56-caff4d581c0e","ios":"levelo://app?vid=e6d69e77-2426-40e6-8b56-caff4d581c0e"},"vehicle_type_id":"4","last_reported":1737623394,"current_range_meters":38800,"station_id":"ce4bhph2rcd13ifvqhdg","pricing_plan_id":"cebpf4jnsgd1na2vs0mg"},{"bike_id":"fcd4837f-6e09-4786-bcf5-c3a686cbcfef","system_id":"levelo_inurba_marseille","lat":43.29899,"lon":5.43672,"is_reserved":false,"is_disabled":false,"rental_uris":{"android":"levelo://app?vid=fcd4837f-6e09-4786-bcf5-c3a686cbcfef","ios":"levelo://app?vid=fcd4837f-6e09-4786-bcf5-c3a686cbcfef"},"vehicle_type_id":"4","last_reported":1737623394,"current_range_meters":28800,"station_id":"ce4bhpp2rcd13ifvqhfg","pricing_plan_id":"cebpf4jnsgd1na2vs0mg"},{"bike_id":"8b7fa1cb-608c-4e71-bdf3-40ff09dae2dc","system_id":"levelo_inurba_marseille","lat":43.303574,"lon":5.39276,"is_reserved":false,"is_disabled":false,"rental_uris":{"android":"levelo://app?vid=8b7fa1cb-608c-4e71-bdf3-40ff09dae2dc","ios":"levelo://app?vid=8b7fa1cb-608c-4e71-bdf3-40ff09dae2dc"},"vehicle_type_id":"4","last_reported":1737623394,"current_range_meters":22800,"station_id":"ce4bh092rcd13ifvqd20","pricing_plan_id":"cebpf4jnsgd1na2vs0mg"},{"bike_id":"d46a74b4-d575-4284-b10d-520ab1619e29","system_id":"levelo_inurba_marseille","lat":43.2466,"lon":5.38165,"is_reserved":false,"is_disabled":false,"rental_uris":{"android":"levelo://app?vid=d46a74b4-d575-4284-b10d-520ab1619e29","ios":"levelo://app?vid=d46a74b4-d575-4284-b10d-520ab1619e29"},"vehicle_type_id":"4","last_reported":1737623394,"current_range_meters":9600,"station_id":"ce4bhih2rcd13ifvqfr0","pricing_plan_id":"cebpf4jnsgd1na2vs0mg"},{"bike_id":"be03f043-40b5-4dd7-931d-bea229e80d48","system_id":"levelo_inurba_marseille","lat":43.30321,"lon":5.36905,"is_reserved":false,"is_disabled":false,"rental_uris":{"android":"levelo://app?vid=be03f043-40b5-4dd7-931d-bea229e80d48","ios":"levelo://app?vid=be03f043-40b5-4dd7-931d-bea229e80d48"},"vehicle_type_id":"4","last_reported":1737623394,"current_range_meters":33200,"station_id":"ce4bgqh2rcd13ifvqc5g","pricing_plan_id":"cebpf4jnsgd1na2vs0mg"},{"bike_id":"f7923ad2-f1c4-4f5c-a5e5-189abf850b05","system_id":"levelo_inurba_marseille","lat":43.29043,"lon":5.3994,"is_reserved":false,"is_disabled":false,"rental_uris":{"android":"levelo://app?vid=f7923ad2-f1c4-4f5c-a5e5-189abf850b05","ios":"levelo://app?vid=f7923ad2-f1c4-4f5c-a5e5-189abf850b05"},"vehicle_type_id":"4","last_reported":1737623394,"current_range_meters":16000,"station_id":"ce4bh392rcd13ifvqdm0","pricing_plan_id":"cebpf4jnsgd1na2vs0mg"},{"bike_id":"16f0e6b5-d946-47d2-a97c-ad19d0c1e9a1","system_id":"levelo_inurba_marseille","lat":43.30908,"lon":5.36851,"is_reserved":false,"is_disabled":false,"rental_uris":{"android":"levelo://app?vid=16f0e6b5-d946-47d2-a97c-ad19d0c1e9a1","ios":"levelo://app?vid=16f0e6b5-d946-47d2-a97c-ad19d0c1e9a1"},"vehicle_type_id":"4","last_reported":1737623394,"current_range_meters":30800,"station_id":"ce4bgn92rcd13ifvqbvg","pricing_plan_id":"cebpf4jnsgd1na2vs0mg"},{"bike_id":"23cbf68b-004a-4a92-9108-cf5e88d72d1d","system_id":"levelo_inurba_marseille","lat":43.27303,"lon":5.39084,"is_reserved":false,"is_disabled":false,"rental_uris":{"android":"levelo://app?vid=23cbf68b-004a-4a92-9108-cf5e88d72d1d","ios":"levelo://app?vid=23cbf68b-004a-4a92-9108-cf5e88d72d1d"},"vehicle_type_id":"4","last_reported":1737623394,"current_range_meters":38400,"station_id":"ce4bhgp2rcd13ifvqfe0","pricing_plan_id":"cebpf4jnsgd1na2vs0mg"},{"bike_id":"6ad3127b-9f04-4c09-8c11-29b3be8571b8","system_id":"levelo_inurba_marseille","lat":43.26674,"lon":5.38258,"is_reserved":false,"is_disabled":false,"rental_uris":{"android":"levelo://app?vid=6ad3127b-9f04-4c09-8c11-29b3be8571b8","ios":"levelo://app?vid=6ad3127b-9f04-4c09-8c11-29b3be8571b8"},"vehicle_type_id":"4","last_reported":1737623394,"current_range_meters":30400,"station_id":"ce4bhg92rcd13ifvqf90","pricing_plan_id":"cebpf4jnsgd1na2vs0mg"},{"bike_id":"e4758cb0-0367-4c65-b523-571a72650646","system_id":"levelo_inurba_marseille","lat":43.30554,"lon":5.36535,"is_reserved":false,"is_disabled":false,"rental_uris":{"android":"levelo://app?vid=e4758cb0-0367-4c65-b523-571a72650646","ios":"levelo://app?vid=e4758cb0-0367-4c65-b523-571a72650646"},"vehicle_type_id":"4","last_reported":1737623394,"current_range_meters":38800,"station_id":"ce4bgs12rcd13ifvqcag","pricing_plan_id":"cebpf4jnsgd1na2vs0mg"},{"bike_id":"4073ffe7-39d3-437b-91da-450e41fb252c","system_id":"levelo_inurba_marseille","lat":43.31334,"lon":5.36732,"is_reserved":false,"is_disabled":false,"rental_uris":{"android":"levelo://app?vid=4073ffe7-39d3-437b-91da-450e41fb252c","ios":"levelo://app?vid=4073ffe7-39d3-437b-91da-450e41fb252c"},"vehicle_type_id":"4","last_reported":1737623394,"current_range_meters":16800,"station_id":"ce4bgr92rcd13ifvqc6g","pricing_plan_id":"cebpf4jnsgd1na2vs0mg"},{"bike_id":"be9a4d12-764a-4e37-9588-380f5b93f1cc","system_id":"levelo_inurba_marseille","lat":43.27316,"lon":5.39104,"is_reserved":false,"is_disabled":false,"rental_uris":{"android":"levelo://app?vid=be9a4d12-764a-4e37-9588-380f5b93f1cc","ios":"levelo://app?vid=be9a4d12-764a-4e37-9588-380f5b93f1cc"},"vehicle_type_id":"4","last_reported":1737623394,"current_range_meters":36400,"station_id":"ce4bhgp2rcd13ifvqfe0","pricing_plan_id":"cebpf4jnsgd1na2vs0mg"},{"bike_id":"d96f7a91-42fe-404b-b108-4c7a0d7b5adf","system_id":"levelo_inurba_marseille","lat":43.33587,"lon":5.41017,"is_reserved":false,"is_disabled":true,"rental_uris":{"android":"levelo://app?vid=d96f7a91-42fe-404b-b108-4c7a0d7b5adf","ios":"levelo://app?vid=d96f7a91-42fe-404b-b108-4c7a0d7b5adf"},"vehicle_type_id":"4","last_reported":1737623394,"current_range_meters":13600,"station_id":"ce4bhqh2rcd13ifvqhmg","pricing_plan_id":"cebpf4jnsgd1na2vs0mg"},{"bike_id":"2ed35bd3-1fe4-43c7-b8b2-713d0a30cf03","system_id":"levelo_inurba_marseille","lat":43.25583,"lon":5.3823,"is_reserved":false,"is_disabled":false,"rental_uris":{"android":"levelo://app?vid=2ed35bd3-1fe4-43c7-b8b2-713d0a30cf03","ios":"levelo://app?vid=2ed35bd3-1fe4-43c7-b8b2-713d0a30cf03"},"vehicle_type_id":"4","last_reported":1737623394,"current_range_meters":3600,"station_id":"ce4bhih2rcd13ifvqfs0","pricing_plan_id":"cebpf4jnsgd1na2vs0mg"},{"bike_id":"740ca7dc-7fcb-49cd-8b20-28b6f7632f45","system_id":"levelo_inurba_marseille","lat":43.30201,"lon":5.39467,"is_reserved":false,"is_disabled":true,"rental_uris":{"android":"levelo://app?vid=740ca7dc-7fcb-49cd-8b20-28b6f7632f45","ios":"levelo://app?vid=740ca7dc-7fcb-49cd-8b20-28b6f7632f45"},"vehicle_type_id":"4","last_reported":1737623394,"current_range_meters":800,"station_id":"ce4bh0p2rcd13ifvqd70","pricing_plan_id":"cebpf4jnsgd1na2vs0mg"},{"bike_id":"8feb1e8e-5f96-46fb-bd08-eff6d475fec6","system_id":"levelo_inurba_marseille","lat":43.29176,"lon":5.37166,"is_reserved":false,"is_disabled":false,"rental_uris":{"android":"levelo://app?vid=8feb1e8e-5f96-46fb-bd08-eff6d475fec6","ios":"levelo://app?vid=8feb1e8e-5f96-46fb-bd08-eff6d475fec6"},"vehicle_type_id":"4","last_reported":1737623394,"current_range_meters":12000,"station_id":"ce4bha92rcd13ifvqeh0","pricing_plan_id":"cebpf4jnsgd1na2vs0mg"},{"bike_id":"36f81c8a-6848-4fd4-92d9-9d71889640c9","system_id":"levelo_inurba_marseille","lat":43.2986,"lon":5.36297,"is_reserved":false,"is_disabled":false,"rental_uris":{"android":"levelo://app?vid=36f81c8a-6848-4fd4-92d9-9d71889640c9","ios":"levelo://app?vid=36f81c8a-6848-4fd4-92d9-9d71889640c9"},"vehicle_type_id":"4","last_reported":1737623394,"current_range_meters":33600,"station_id":"ce4bgpp2rcd13ifvqc3g","pricing_plan_id":"cebpf4jnsgd1na2vs0mg"},{"bike_id":"433c5acb-0074-4249-a229-86b8f48bca85","system_id":"levelo_inurba_marseille","lat":43.30543,"lon":5.36511,"is_reserved":false,"is_disabled":false,"rental_uris":{"android":"levelo://app?vid=433c5acb-0074-4249-a229-86b8f48bca85","ios":"levelo://app?vid=433c5acb-0074-4249-a229-86b8f48bca85"},"vehicle_type_id":"4","last_reported":1737623394,"current_range_meters":26800,"station_id":"ce4bgs12rcd13ifvqcag","pricing_plan_id":"cebpf4jnsgd1na2vs0mg"},{"bike_id":"89e2b720-9093-42f6-9fcf-f2e3b21e47f6","system_id":"levelo_inurba_marseille","lat":43.30144,"lon":5.37423,"is_reserved":false,"is_disabled":false,"rental_uris":{"android":"levelo://app?vid=89e2b720-9093-42f6-9fcf-f2e3b21e47f6","ios":"levelo://app?vid=89e2b720-9093-42f6-9fcf-f2e3b21e47f6"},"vehicle_type_id":"4","last_reported":1737623394,"current_range_meters":25200,"station_id":"ce4bgs92rcd13ifvqcc0","pricing_plan_id":"cebpf4jnsgd1na2vs0mg"},{"bike_id":"83166b0a-899b-4693-98c4-ffc2b5705e20","system_id":"levelo_inurba_marseille","lat":43.25003,"lon":5.3896,"is_reserved":false,"is_disabled":false,"rental_uris":{"android":"levelo://app?vid=83166b0a-899b-4693-98c4-ffc2b5705e20","ios":"levelo://app?vid=83166b0a-899b-4693-98c4-ffc2b5705e20"},"vehicle_type_id":"4","last_reported":1737623394,"current_range_meters":30000,"station_id":"ce4bhgp2rcd13ifvqfd0","pricing_plan_id":"cebpf4jnsgd1na2vs0mg"},{"bike_id":"adf123f7-dac3-486c-9428-0fa9f3449c81","system_id":"levelo_inurba_marseille","lat":43.26797,"lon":5.39419,"is_reserved":false,"is_disabled":false,"rental_uris":{"android":"levelo://app?vid=adf123f7-dac3-486c-9428-0fa9f3449c81","ios":"levelo://app?vid=adf123f7-dac3-486c-9428-0fa9f3449c81"},"vehicle_type_id":"4","last_reported":1737623394,"current_range_meters":39200,"station_id":"ce4bhh12rcd13ifvqfg0","pricing_plan_id":"cebpf4jnsgd1na2vs0mg"},{"bike_id":"13ff516e-16cf-4543-8540-9030b8b296b4","system_id":"levelo_inurba_marseille","lat":43.23185,"lon":5.35576,"is_reserved":false,"is_disabled":false,"rental_uris":{"android":"levelo://app?vid=13ff516e-16cf-4543-8540-9030b8b296b4","ios":"levelo://app?vid=13ff516e-16cf-4543-8540-9030b8b296b4"},"vehicle_type_id":"4","last_reported":1737623394,"current_range_meters":30000,"station_id":"ce4bhu92rcd13ifvqi70","pricing_plan_id":"cebpf4jnsgd1na2vs0mg"},{"bike_id":"de0ec065-4aaf-40ba-8a36-526b76de18b8","system_id":"levelo_inurba_marseille","lat":43.24174,"lon":5.39735,"is_reserved":false,"is_disabled":false,"rental_uris":{"android":"levelo://app?vid=de0ec065-4aaf-40ba-8a36-526b76de18b8","ios":"levelo://app?vid=de0ec065-4aaf-40ba-8a36-526b76de18b8"},"vehicle_type_id":"4","last_reported":1737623394,"current_range_meters":38800,"station_id":"ce4bhn12rcd13ifvqgpg","pricing_plan_id":"cebpf4jnsgd1na2vs0mg"},{"bike_id":"967bf3ca-5ba7-4719-a015-7125df89029a","system_id":"levelo_inurba_marseille","lat":43.30878,"lon":5.39649,"is_reserved":false,"is_disabled":false,"rental_uris":{"android":"levelo://app?vid=967bf3ca-5ba7-4719-a015-7125df89029a","ios":"levelo://app?vid=967bf3ca-5ba7-4719-a015-7125df89029a"},"vehicle_type_id":"4","last_reported":1737623394,"current_range_meters":34000,"station_id":"ce4bh012rcd13ifvqcv0","pricing_plan_id":"cebpf4jnsgd1na2vs0mg"},{"bike_id":"6b412e3f-934e-4407-858b-fad865be8605","system_id":"levelo_inurba_marseille","lat":43.30479,"lon":5.379,"is_reserved":false,"is_disabled":true,"rental_uris":{"android":"levelo://app?vid=6b412e3f-934e-4407-858b-fad865be8605","ios":"levelo://app?vid=6b412e3f-934e-4407-858b-fad865be8605"},"vehicle_type_id":"4","last_reported":1737623394,"current_range_meters":36800,"station_id":"ce4bgup2rcd13ifvqcn0","pricing_plan_id":"cebpf4jnsgd1na2vs0mg"},{"bike_id":"dc9afc0d-d533-431b-a32f-6f6423d7880b","system_id":"levelo_inurba_marseille","lat":43.31726,"lon":5.42404,"is_reserved":false,"is_disabled":true,"rental_uris":{"android":"levelo://app?vid=dc9afc0d-d533-431b-a32f-6f6423d7880b","ios":"levelo://app?vid=dc9afc0d-d533-431b-a32f-6f6423d7880b"},"vehicle_type_id":"4","last_reported":1737623394,"current_range_meters":31200,"station_id":"ce4bhp92rcd13ifvqhbg","pricing_plan_id":"cebpf4jnsgd1na2vs0mg"},{"bike_id":"af78eefb-cdfb-4b91-89fc-38a73448dac1","system_id":"levelo_inurba_marseille","lat":43.29284,"lon":5.40137,"is_reserved":false,"is_disabled":false,"rental_uris":{"android":"levelo://app?vid=af78eefb-cdfb-4b91-89fc-38a73448dac1","ios":"levelo://app?vid=af78eefb-cdfb-4b91-89fc-38a73448dac1"},"vehicle_type_id":"4","last_reported":1737623394,"current_range_meters":6400,"station_id":"ce4bh312rcd13ifvqdk0","pricing_plan_id":"cebpf4jnsgd1na2vs0mg"},{"bike_id":"461dd524-02b2-40e3-a494-342cc710d993","system_id":"levelo_inurba_marseille","lat":43.31068,"lon":5.38354,"is_reserved":false,"is_disabled":false,"rental_uris":{"android":"levelo://app?vid=461dd524-02b2-40e3-a494-342cc710d993","ios":"levelo://app?vid=461dd524-02b2-40e3-a494-342cc710d993"},"vehicle_type_id":"4","last_reported":1737623394,"current_range_meters":4000,"station_id":"ce4bgv92rcd13ifvqcr0","pricing_plan_id":"cebpf4jnsgd1na2vs0mg"},{"bike_id":"efb77760-1ded-4569-b83c-0f260c3750ad","system_id":"levelo_inurba_marseille","lat":43.33604,"lon":5.41037,"is_reserved":false,"is_disabled":false,"rental_uris":{"android":"levelo://app?vid=efb77760-1ded-4569-b83c-0f260c3750ad","ios":"levelo://app?vid=efb77760-1ded-4569-b83c-0f260c3750ad"},"vehicle_type_id":"4","last_reported":1737623394,"current_range_meters":30400,"station_id":"ce4bhqh2rcd13ifvqhmg","pricing_plan_id":"cebpf4jnsgd1na2vs0mg"},{"bike_id":"1876537c-c9d8-4160-b31c-e17d644f44c6","system_id":"levelo_inurba_marseille","lat":43.32478,"lon":5.36593,"is_reserved":false,"is_disabled":false,"rental_uris":{"android":"levelo://app?vid=1876537c-c9d8-4160-b31c-e17d644f44c6","ios":"levelo://app?vid=1876537c-c9d8-4160-b31c-e17d644f44c6"},"vehicle_type_id":"4","last_reported":1737623394,"current_range_meters":33600,"station_id":"ce4bhs12rcd13ifvqhvg","pricing_plan_id":"cebpf4jnsgd1na2vs0mg"},{"bike_id":"d439e7ac-e22d-47e6-ab9a-4304288a37aa","system_id":"levelo_inurba_marseille","lat":43.25499,"lon":5.37654,"is_reserved":false,"is_disabled":false,"rental_uris":{"android":"levelo://app?vid=d439e7ac-e22d-47e6-ab9a-4304288a37aa","ios":"levelo://app?vid=d439e7ac-e22d-47e6-ab9a-4304288a37aa"},"vehicle_type_id":"4","last_reported":1737623394,"current_range_meters":28800,"station_id":"ce4bhh12rcd13ifvqff0","pricing_plan_id":"cebpf4jnsgd1na2vs0mg"},{"bike_id":"c39beb18-b568-4699-95c1-ddaef8c27d01","system_id":"levelo_inurba_marseille","lat":43.30948,"lon":5.3904,"is_reserved":false,"is_disabled":true,"rental_uris":{"android":"levelo://app?vid=c39beb18-b568-4699-95c1-ddaef8c27d01","ios":"levelo://app?vid=c39beb18-b568-4699-95c1-ddaef8c27d01"},"vehicle_type_id":"4","last_reported":1737623394,"current_range_meters":400,"station_id":"ce4bgup2rcd13ifvqco0","pricing_plan_id":"cebpf4jnsgd1na2vs0mg"},{"bike_id":"a4990aa9-5817-4db3-b27e-b46aa302df30","system_id":"levelo_inurba_marseille","lat":43.24075,"lon":5.3776,"is_reserved":false,"is_disabled":false,"rental_uris":{"android":"levelo://app?vid=a4990aa9-5817-4db3-b27e-b46aa302df30","ios":"levelo://app?vid=a4990aa9-5817-4db3-b27e-b46aa302df30"},"vehicle_type_id":"4","last_reported":1737623394,"current_range_meters":30000,"station_id":"ce4bhnp2rcd13ifvqgvg","pricing_plan_id":"cebpf4jnsgd1na2vs0mg"},{"bike_id":"8e84dc1b-8ee4-480d-9e7d-c17267e180e7","system_id":"levelo_inurba_marseille","lat":43.29602,"lon":5.37663,"is_reserved":false,"is_disabled":false,"rental_uris":{"android":"levelo://app?vid=8e84dc1b-8ee4-480d-9e7d-c17267e180e7","ios":"levelo://app?vid=8e84dc1b-8ee4-480d-9e7d-c17267e180e7"},"vehicle_type_id":"4","last_reported":1737623394,"current_range_meters":38800,"station_id":"ce4bgi92rcd13ifvqb90","pricing_plan_id":"cebpf4jnsgd1na2vs0mg"},{"bike_id":"047de2d8-e2d9-4cca-801a-aea25689a488","system_id":"levelo_inurba_marseille","lat":43.27187,"lon":5.41011,"is_reserved":false,"is_disabled":false,"rental_uris":{"android":"levelo://app?vid=047de2d8-e2d9-4cca-801a-aea25689a488","ios":"levelo://app?vid=047de2d8-e2d9-4cca-801a-aea25689a488"},"vehicle_type_id":"4","last_reported":1737623394,"current_range_meters":32400,"station_id":"ce4bhl12rcd13ifvqgf0","pricing_plan_id":"cebpf4jnsgd1na2vs0mg"},{"bike_id":"37c90366-1f73-41fa-9e11-962522b59f25","system_id":"levelo_inurba_marseille","lat":43.287026,"lon":5.373775,"is_reserved":false,"is_disabled":false,"rental_uris":{"android":"levelo://app?vid=37c90366-1f73-41fa-9e11-962522b59f25","ios":"levelo://app?vid=37c90366-1f73-41fa-9e11-962522b59f25"},"vehicle_type_id":"4","last_reported":1737623394,"current_range_meters":26800,"station_id":"ce4bh3p2rcd13ifvqdq0","pricing_plan_id":"cebpf4jnsgd1na2vs0mg"},{"bike_id":"5b5d4d96-8df1-499e-a530-eead026d912a","system_id":"levelo_inurba_marseille","lat":43.27377,"lon":5.36265,"is_reserved":false,"is_disabled":false,"rental_uris":{"android":"levelo://app?vid=5b5d4d96-8df1-499e-a530-eead026d912a","ios":"levelo://app?vid=5b5d4d96-8df1-499e-a530-eead026d912a"},"vehicle_type_id":"4","last_reported":1737623394,"current_range_meters":37600,"station_id":"ce4bhbh2rcd13ifvqeo0","pricing_plan_id":"cebpf4jnsgd1na2vs0mg"},{"bike_id":"222072f2-c282-4164-bc75-160d4d92c321","system_id":"levelo_inurba_marseille","lat":43.30481,"lon":5.37907,"is_reserved":false,"is_disabled":false,"rental_uris":{"android":"levelo://app?vid=222072f2-c282-4164-bc75-160d4d92c321","ios":"levelo://app?vid=222072f2-c282-4164-bc75-160d4d92c321"},"vehicle_type_id":"4","last_reported":1737623394,"current_range_meters":22400,"station_id":"ce4bgup2rcd13ifvqcn0","pricing_plan_id":"cebpf4jnsgd1na2vs0mg"},{"bike_id":"d5e580bb-31f1-420b-8967-4ef30e3f9e43","system_id":"levelo_inurba_marseille","lat":43.31075,"lon":5.42482,"is_reserved":false,"is_disabled":false,"rental_uris":{"android":"levelo://app?vid=d5e580bb-31f1-420b-8967-4ef30e3f9e43","ios":"levelo://app?vid=d5e580bb-31f1-420b-8967-4ef30e3f9e43"},"vehicle_type_id":"4","last_reported":1737623394,"current_range_meters":26800,"station_id":"ce4bhp92rcd13ifvqhag","pricing_plan_id":"cebpf4jnsgd1na2vs0mg"},{"bike_id":"68e9c31c-ad3e-43bf-9dd6-a2db62b95ef7","system_id":"levelo_inurba_marseille","lat":43.32495,"lon":5.3658,"is_reserved":false,"is_disabled":false,"rental_uris":{"android":"levelo://app?vid=68e9c31c-ad3e-43bf-9dd6-a2db62b95ef7","ios":"levelo://app?vid=68e9c31c-ad3e-43bf-9dd6-a2db62b95ef7"},"vehicle_type_id":"4","last_reported":1737623394,"current_range_meters":23200,"station_id":"ce4bhs12rcd13ifvqhvg","pricing_plan_id":"cebpf4jnsgd1na2vs0mg"},{"bike_id":"c57a4656-9914-4691-8920-de942ac8d52d","system_id":"levelo_inurba_marseille","lat":43.250045,"lon":5.389655,"is_reserved":false,"is_disabled":false,"rental_uris":{"android":"levelo://app?vid=c57a4656-9914-4691-8920-de942ac8d52d","ios":"levelo://app?vid=c57a4656-9914-4691-8920-de942ac8d52d"},"vehicle_type_id":"4","last_reported":1737623394,"current_range_meters":27200,"station_id":"ce4bhgp2rcd13ifvqfd0","pricing_plan_id":"cebpf4jnsgd1na2vs0mg"},{"bike_id":"b8338bfe-1284-4232-9a51-15bb8e974f1c","system_id":"levelo_inurba_marseille","lat":43.2984,"lon":5.36269,"is_reserved":false,"is_disabled":false,"rental_uris":{"android":"levelo://app?vid=b8338bfe-1284-4232-9a51-15bb8e974f1c","ios":"levelo://app?vid=b8338bfe-1284-4232-9a51-15bb8e974f1c"},"vehicle_type_id":"4","last_reported":1737623394,"current_range_meters":38800,"station_id":"ce4bgpp2rcd13ifvqc3g","pricing_plan_id":"cebpf4jnsgd1na2vs0mg"},{"bike_id":"d44e0181-8fda-48f6-8535-2fda924ce2fd","system_id":"levelo_inurba_marseille","lat":43.29894,"lon":5.43665,"is_reserved":false,"is_disabled":false,"rental_uris":{"android":"levelo://app?vid=d44e0181-8fda-48f6-8535-2fda924ce2fd","ios":"levelo://app?vid=d44e0181-8fda-48f6-8535-2fda924ce2fd"},"vehicle_type_id":"4","last_reported":1737623394,"current_range_meters":4400,"station_id":"ce4bhpp2rcd13ifvqhfg","pricing_plan_id":"cebpf4jnsgd1na2vs0mg"},{"bike_id":"c91ef280-e199-4bba-bd65-1dcb6d52b6b3","system_id":"levelo_inurba_marseille","lat":43.28927,"lon":5.36627,"is_reserved":false,"is_disabled":false,"rental_uris":{"android":"levelo://app?vid=c91ef280-e199-4bba-bd65-1dcb6d52b6b3","ios":"levelo://app?vid=c91ef280-e199-4bba-bd65-1dcb6d52b6b3"},"vehicle_type_id":"4","last_reported":1737623394,"current_range_meters":39200,"station_id":"ce4bhap2rcd13ifvqek0","pricing_plan_id":"cebpf4jnsgd1na2vs0mg"},{"bike_id":"44f5db68-407d-4966-a28a-c0a33a46f118","system_id":"levelo_inurba_marseille","lat":43.29879,"lon":5.38901,"is_reserved":false,"is_disabled":false,"rental_uris":{"android":"levelo://app?vid=44f5db68-407d-4966-a28a-c0a33a46f118","ios":"levelo://app?vid=44f5db68-407d-4966-a28a-c0a33a46f118"},"vehicle_type_id":"4","last_reported":1737623394,"current_range_meters":38800,"station_id":"ce4bh392rcd13ifvqdl0","pricing_plan_id":"cebpf4jnsgd1na2vs0mg"},{"bike_id":"f15a3926-03ea-4c4b-9f1b-6e7324acfe94","system_id":"levelo_inurba_marseille","lat":43.30905,"lon":5.36865,"is_reserved":false,"is_disabled":false,"rental_uris":{"android":"levelo://app?vid=f15a3926-03ea-4c4b-9f1b-6e7324acfe94","ios":"levelo://app?vid=f15a3926-03ea-4c4b-9f1b-6e7324acfe94"},"vehicle_type_id":"4","last_reported":1737623394,"current_range_meters":16000,"station_id":"ce4bgn92rcd13ifvqbvg","pricing_plan_id":"cebpf4jnsgd1na2vs0mg"},{"bike_id":"79806346-ef00-40e4-a531-9c56ff9a9c76","system_id":"levelo_inurba_marseille","lat":43.30469,"lon":5.379,"is_reserved":false,"is_disabled":false,"rental_uris":{"android":"levelo://app?vid=79806346-ef00-40e4-a531-9c56ff9a9c76","ios":"levelo://app?vid=79806346-ef00-40e4-a531-9c56ff9a9c76"},"vehicle_type_id":"4","last_reported":1737623394,"current_range_meters":36800,"station_id":"ce4bgup2rcd13ifvqcn0","pricing_plan_id":"cebpf4jnsgd1na2vs0mg"},{"bike_id":"79c49610-b1db-4f80-b70f-d282a39244ce","system_id":"levelo_inurba_marseille","lat":43.24079,"lon":5.3776,"is_reserved":false,"is_disabled":false,"rental_uris":{"android":"levelo://app?vid=79c49610-b1db-4f80-b70f-d282a39244ce","ios":"levelo://app?vid=79c49610-b1db-4f80-b70f-d282a39244ce"},"vehicle_type_id":"4","last_reported":1737623394,"current_range_meters":38800,"station_id":"ce4bhnp2rcd13ifvqgvg","pricing_plan_id":"cebpf4jnsgd1na2vs0mg"},{"bike_id":"ff525654-da70-4f30-9f4b-7720845385ef","system_id":"levelo_inurba_marseille","lat":43.30491,"lon":5.37916,"is_reserved":false,"is_disabled":false,"rental_uris":{"android":"levelo://app?vid=ff525654-da70-4f30-9f4b-7720845385ef","ios":"levelo://app?vid=ff525654-da70-4f30-9f4b-7720845385ef"},"vehicle_type_id":"4","last_reported":1737623394,"current_range_meters":39200,"station_id":"ce4bgup2rcd13ifvqcn0","pricing_plan_id":"cebpf4jnsgd1na2vs0mg"},{"bike_id":"4c43a9c4-bfa7-45b0-9298-d49c582c365e","system_id":"levelo_inurba_marseille","lat":43.26932,"lon":5.38636,"is_reserved":false,"is_disabled":false,"rental_uris":{"android":"levelo://app?vid=4c43a9c4-bfa7-45b0-9298-d49c582c365e","ios":"levelo://app?vid=4c43a9c4-bfa7-45b0-9298-d49c582c365e"},"vehicle_type_id":"4","last_reported":1737623394,"current_range_meters":38800,"station_id":"ce4bhh92rcd13ifvqfh0","pricing_plan_id":"cebpf4jnsgd1na2vs0mg"},{"bike_id":"73437ec1-c49c-4c1d-87bb-5c89656ded36","system_id":"levelo_inurba_marseille","lat":43.30531,"lon":5.36704,"is_reserved":false,"is_disabled":false,"rental_uris":{"android":"levelo://app?vid=73437ec1-c49c-4c1d-87bb-5c89656ded36","ios":"levelo://app?vid=73437ec1-c49c-4c1d-87bb-5c89656ded36"},"vehicle_type_id":"4","last_reported":1737623394,"current_range_meters":39200,"station_id":"ce4bgrp2rcd13ifvqc9g","pricing_plan_id":"cebpf4jnsgd1na2vs0mg"},{"bike_id":"c433d072-0a66-4269-8237-4a9666d43019","system_id":"levelo_inurba_marseille","lat":43.2721,"lon":5.39174,"is_reserved":false,"is_disabled":false,"rental_uris":{"android":"levelo://app?vid=c433d072-0a66-4269-8237-4a9666d43019","ios":"levelo://app?vid=c433d072-0a66-4269-8237-4a9666d43019"},"vehicle_type_id":"4","last_reported":1737623394,"current_range_meters":39200,"station_id":"ce4bhhp2rcd13ifvqfm0","pricing_plan_id":"cebpf4jnsgd1na2vs0mg"},{"bike_id":"22194593-f787-46d9-8429-b9675a290fcf","system_id":"levelo_inurba_marseille","lat":43.33604,"lon":5.41037,"is_reserved":false,"is_disabled":false,"rental_uris":{"android":"levelo://app?vid=22194593-f787-46d9-8429-b9675a290fcf","ios":"levelo://app?vid=22194593-f787-46d9-8429-b9675a290fcf"},"vehicle_type_id":"4","last_reported":1737623394,"current_range_meters":39200,"station_id":"ce4bhqh2rcd13ifvqhmg","pricing_plan_id":"cebpf4jnsgd1na2vs0mg"},{"bike_id":"1714e45e-7747-4d49-a740-f2b4f1a907bf","system_id":"levelo_inurba_marseille","lat":43.32491,"lon":5.36589,"is_reserved":false,"is_disabled":false,"rental_uris":{"android":"levelo://app?vid=1714e45e-7747-4d49-a740-f2b4f1a907bf","ios":"levelo://app?vid=1714e45e-7747-4d49-a740-f2b4f1a907bf"},"vehicle_type_id":"4","last_reported":1737623394,"current_range_meters":26000,"station_id":"ce4bhs12rcd13ifvqhvg","pricing_plan_id":"cebpf4jnsgd1na2vs0mg"},