{"last_updated":1769084826,"ttl":60,"version":"2.2","data":{"bikes":[{"bike_id":"a1c26339-501e-47fe-84d5-f2ac4a36152f","system_id":"levelo_inurba_marseille","lat":43.30123,"lon":5.39858,"is_reserved":false,"is_disabled":false,"rental_uris":{"android":"levelo://app?vid=a1c26339-501e-47fe-84d5-f2ac4a36152f","ios":"levelo://app?vid=a1c26339-501e-47fe-84d5-f2ac4a36152f"},"vehicle_type_id":"4","last_reported":1769084826,"current_range_meters":2800,"station_id":"ce4bh0h2rcd13ifvqd40","pricing_plan_id":"cebpf4jnsgd1na2vs0mg"},{"bike_id":"9154bc03-7524-4911-a6aa-2a522e406536","system_id":"levelo_inurba_marseille","lat":43.28489,"lon":5.38415,"is_reserved":false,"is_disabled":false,"rental_uris":{"android":"levelo://app?vid=9154bc03-7524-4911-a6aa-2a522e406536","ios":"levelo://app?vid=9154bc03-7524-4911-a6aa-2a522e406536"},"vehicle_type_id":"4","last_reported":1769084826,"current_range_meters":2800,"station_id":"ce4bh512rcd13ifvqe3g","pricing_plan_id":"cebpf4jnsgd1na2vs0mg"},{"bike_id":"a4e0bc82-a3ca-4377-bace-544218639f46","system_id":"levelo_inurba_marseille","lat":43.30206,"lon":5.36623,"is_reserved":false,"is_disabled":false,"rental_uris":{"android":"levelo://app?vid=a4e0bc82-a3ca-4377-bace-544218639f46","ios":"levelo://app?vid=a4e0bc82-a3ca-4377-bace-544218639f46"},"vehicle_type_id":"4","last_reported":1769084826,"current_range_meters":2800,"station_id":"ce4bgrh2rcd13ifvqc8g","pricing_plan_id":"cebpf4jnsgd1na2vs0mg"},{"bike_id":"524d578e-a05d-4e3b-a710-025f60cee79e","system_id":"levelo_inurba_marseille","lat":43.3078,"lon":5.37661,"is_reserved":false,"is_disabled":false,"rental_uris":{"android":"levelo://app?vid=524d578e-a05d-4e3b-a710-025f60cee79e","ios":"levelo://app?vid=524d578e-a05d-4e3b-a710-025f60cee79e"},"vehicle_type_id":"4","last_reported":1769084826,"current_range_meters":2800,"station_id":"ce4bgv92rcd13ifvqcq0","pricing_plan_id":"cebpf4jnsgd1na2vs0mg"},{"bike_id":"0b84d7e2-c60d-4bea-976e-5fc656e5779c","system_id":"levelo_inurba_marseille","lat":43.26775,"lon":5.39425,"is_reserved":false,"is_disabled":false,"rental_uris":{"android":"levelo://app?vid=0b84d7e2-c60d-4bea-976e-5fc656e5779c","ios":"levelo://app?vid=0b84d7e2-c60d-4bea-976e-5fc656e5779c"},"vehicle_type_id":"4","last_reported":1769084826,"current_range_meters":2800,"station_id":"ce4bhh12rcd13ifvqfg0","pricing_plan_id":"cebpf4jnsgd1na2vs0mg"},{"bike_id":"13c816e9-5043-41d0-a44f-0b67121a9c07","system_id":"levelo_inurba_marseille","lat":43.27947,"lon":5.39152,"is_reserved":false,"is_disabled":false,"rental_uris":{"android":"levelo://app?vid=13c816e9-5043-41d0-a44f-0b67121a9c07","ios":"levelo://app?vid=13c816e9-5043-41d0-a44f-0b67121a9c07"},"vehicle_type_id":"4","last_reported":1769084826,"current_range_meters":2800,"station_id":"ce4bhjp2rcd13ifvqga0","pricing_plan_id":"cebpf4jnsgd1na2vs0mg"},{"bike_id":"cb6814fc-ea38-4a95-8242-56aa61d84e9e","system_id":"levelo_inurba_marseille","lat":43.26711,"lon":5.38255,"is_reserved":false,"is_disabled":false,"rental_uris":{"android":"levelo://app?vid=cb6814fc-ea38-4a95-8242-56aa61d84e9e","ios":"levelo://app?vid=cb6814fc-ea38-4a95-8242-56aa61d84e9e"},"vehicle_type_id":"4","last_reported":1769084826,"current_range_meters":2800,"station_id":"ce4bhg92rcd13ifvqf90","pricing_plan_id":"cebpf4jnsgd1na2vs0mg"},{"bike_id":"5676d44b-615e-4f97-a702-88a54990cf48","system_id":"levelo_inurba_marseille","lat":43.26806,"lon":5.40264,"is_reserved":false,"is_disabled":false,"rental_uris":{"android":"levelo://app?vid=5676d44b-615e-4f97-a702-88a54990cf48","ios":"levelo://app?vid=5676d44b-615e-4f97-a702-88a54990cf48"},"vehicle_type_id":"4","last_reported":1769084826,"current_range_meters":2800,"station_id":"ce501612rcd8frsf0b60","pricing_plan_id":"cebpf4jnsgd1na2vs0mg"},{"bike_id":"f09c06aa-a05d-4b00-b228-d8bee2b62b4f","system_id":"levelo_inurba_marseille","lat":43.32368,"lon":5.36778,"is_reserved":false,"is_disabled":false,"rental_uris":{"android":"levelo://app?vid=f09c06aa-a05d-4b00-b228-d8bee2b62b4f","ios":"levelo://app?vid=f09c06aa-a05d-4b00-b228-d8bee2b62b4f"},"vehicle_type_id":"4","last_reported":1769084826,"current_range_meters":3200,"station_id":"ce4bhsh2rcd13ifvqi2g","pricing_plan_id":"cebpf4jnsgd1na2vs0mg"},{"bike_id":"8f37b858-03c9-4dc4-9353-016aa6a18d48","system_id":"levelo_inurba_marseille","lat":43.29064,"lon":5.37188,"is_reserved":false,"is_disabled":false,"rental_uris":{"android":"levelo://app?vid=8f37b858-03c9-4dc4-9353-016aa6a18d48","ios":"levelo://app?vid=8f37b858-03c9-4dc4-9353-016aa6a18d48"},"vehicle_type_id":"4","last_reported":1769084826,"current_range_meters":3200,"station_id":"ce4bh5p2rcd13ifvqe4g","pricing_plan_id":"cebpf4jnsgd1na2vs0mg"},{"bike_id":"5f477738-733e-4c98-961a-33429c5938fd","system_id":"levelo_inurba_marseille","lat":43.260586,"lon":5.393984,"is_reserved":false,"is_disabled":false,"rental_uris":{"android":"levelo://app?vid=5f477738-733e-4c98-961a-33429c5938fd","ios":"levelo://app?vid=5f477738-733e-4c98-961a-33429c5938fd"},"vehicle_type_id":"4","last_reported":1769084826,"current_range_meters":3200,"station_id":"ce4bhh92rcd13ifvqfj0","pricing_plan_id":"cebpf4jnsgd1na2vs0mg"},{"bike_id":"9fe9b7fa-bf5e-456b-b148-d56a572e2392","system_id":"levelo_inurba_marseille","lat":43.22562,"lon":5.41635,"is_reserved":false,"is_disabled":false,"rental_uris":{"android":"levelo://app?vid=9fe9b7fa-bf5e-456b-b148-d56a572e2392","ios":"levelo://app?vid=9fe9b7fa-bf5e-456b-b148-d56a572e2392"},"vehicle_type_id":"4","last_reported":1769084826,"current_range_meters":3200,"station_id":"st_d2o4gvlbi1j2169b742g","pricing_plan_id":"cebpf4jnsgd1na2vs0mg"},{"bike_id":"054e163b-1e47-4a0a-a038-a7939885860e","system_id":"levelo_inurba_marseille","lat":43.32361,"lon":5.36729,"is_reserved":false,"is_disabled":false,"rental_uris":{"android":"levelo://app?vid=054e163b-1e47-4a0a-a038-a7939885860e","ios":"levelo://app?vid=054e163b-1e47-4a0a-a038-a7939885860e"},"vehicle_type_id":"4","last_reported":1769084826,"current_range_meters":3200,"station_id":"ce4bhsh2rcd13ifvqi2g","pricing_plan_id":"cebpf4jnsgd1na2vs0mg"},{"bike_id":"ffabd398-f54b-45bd-9851-1b3115defcf6","system_id":"levelo_inurba_marseille","lat":43.24182,"lon":5.39739,"is_reserved":false,"is_disabled":false,"rental_uris":{"android":"levelo://app?vid=ffabd398-f54b-45bd-9851-1b3115defcf6","ios":"levelo://app?vid=ffabd398-f54b-45bd-9851-1b3115defcf6"},"vehicle_type_id":"4","last_reported":1769084826,"current_range_meters":3200,"station_id":"ce4bhn12rcd13ifvqgpg","pricing_plan_id":"cebpf4jnsgd1na2vs0mg"},{"bike_id":"9d8f6b40-000e-4394-ad1e-cfceb15b7d69","system_id":"levelo_inurba_marseille","lat":43.27959,"lon":5.38732,"is_reserved":false,"is_disabled":false,"rental_uris":{"android":"levelo://app?vid=9d8f6b40-000e-4394-ad1e-cfceb15b7d69","ios":"levelo://app?vid=9d8f6b40-000e-4394-ad1e-cfceb15b7d69"},"vehicle_type_id":"4","last_reported":1769084826,"current_range_meters":3200,"station_id":"ce4bhg12rcd13ifvqf80","pricing_plan_id":"cebpf4jnsgd1na2vs0mg"},{"bike_id":"e3006b68-2895-43e3-a6a3-f525aa75c699","system_id":"levelo_inurba_marseille","lat":43.24078,"lon":5.3776,"is_reserved":false,"is_disabled":false,"rental_uris":{"android":"levelo://app?vid=e3006b68-2895-43e3-a6a3-f525aa75c699","ios":"levelo://app?vid=e3006b68-2895-43e3-a6a3-f525aa75c699"},"vehicle_type_id":"4","last_reported":1769084826,"current_range_meters":3200,"station_id":"ce4bhnp2rcd13ifvqgvg","pricing_plan_id":"cebpf4jnsgd1na2vs0mg"},{"bike_id":"64089e70-95ae-4ee4-8be8-a9da03038877","system_id":"levelo_inurba_marseille","lat":43.31344,"lon":5.36712,"is_reserved":false,"is_disabled":false,"rental_uris":{"android":"levelo://app?vid=64089e70-95ae-4ee4-8be8-a9da03038877","ios":"levelo://app?vid=64089e70-95ae-4ee4-8be8-a9da03038877"},"vehicle_type_id":"4","last_reported":1769084826,"current_range_meters":3200,"station_id":"ce4bgr92rcd13ifvqc6g","pricing_plan_id":"cebpf4jnsgd1na2vs0mg"},{"bike_id":"ef6fae58-91e5-4bb7-aaac-7e9985256503","system_id":"levelo_inurba_marseille","lat":43.29267,"lon":5.40911,"is_reserved":false,"is_disabled":false,"rental_uris":{"android":"levelo://app?vid=ef6fae58-91e5-4bb7-aaac-7e9985256503","ios":"levelo://app?vid=ef6fae58-91e5-4bb7-aaac-7e9985256503"},"vehicle_type_id":"4","last_reported":1769084826,"current_range_meters":3200,"station_id":"ce4bh192rcd13ifvqdc0","pricing_plan_id":"cebpf4jnsgd1na2vs0mg"},{"bike_id":"87376c51-7b52-4611-acd2-49441baafe3f","system_id":"levelo_inurba_marseille","lat":43.24624,"lon":5.4021,"is_reserved":false,"is_disabled":false,"rental_uris":{"android":"levelo://app?vid=87376c51-7b52-4611-acd2-49441baafe3f","ios":"levelo://app?vid=87376c51-7b52-4611-acd2-49441baafe3f"},"vehicle_type_id":"4","last_reported":1769084826,"current_range_meters":3200,"station_id":"","pricing_plan_id":"cebpf4jnsgd1na2vs0mg"},{"bike_id":"7f896ee4-6a1d-46ab-98be-a505b02fd9e4","system_id":"levelo_inurba_marseille","lat":43.23785,"lon":5.36632,"is_reserved":false,"is_disabled":false,"rental_uris":{"android":"levelo://app?vid=7f896ee4-6a1d-46ab-98be-a505b02fd9e4","ios":"levelo://app?vid=7f896ee4-6a1d-46ab-98be-a505b02fd9e4"},"vehicle_type_id":"4","last_reported":1769084826,"current_range_meters":3200,"station_id":"st_d3nk18o9ro0c73en2l3g","pricing_plan_id":"cebpf4jnsgd1na2vs0mg"},{"bike_id":"601dd45f-78bd-4d0d-8423-9cbcf09bba95","system_id":"levelo_inurba_marseille","lat":43.2849,"lon":5.38554,"is_reserved":false,"is_disabled":false,"rental_uris":{"android":"levelo://app?vid=601dd45f-78bd-4d0d-8423-9cbcf09bba95","ios":"levelo://app?vid=601dd45f-78bd-4d0d-8423-9cbcf09bba95"},"vehicle_type_id":"4","last_reported":1769084826,"current_range_meters":3200,"station_id":"ce4bh8p2rcd13ifvqeb0","pricing_plan_id":"cebpf4jnsgd1na2vs0mg"},{"bike_id":"12bd883b-612b-4744-aa30-09be7d3e24e5","system_id":"levelo_inurba_marseille","lat":43.29059,"lon":5.39946,"is_reserved":false,"is_disabled":false,"rental_uris":{"android":"levelo://app?vid=12bd883b-612b-4744-aa30-09be7d3e24e5","ios":"levelo://app?vid=12bd883b-612b-4744-aa30-09be7d3e24e5"},"vehicle_type_id":"4","last_reported":1769084826,"current_range_meters":3600,"station_id":"ce4bh392rcd13ifvqdm0","pricing_plan_id":"cebpf4jnsgd1na2vs0mg"},{"bike_id":"99d65f09-c0e6-4f0f-b72f-6e110c0f1bd4","system_id":"levelo_inurba_marseille","lat":43.28984,"lon":5.37602,"is_reserved":false,"is_disabled":false,"rental_uris":{"android":"levelo://app?vid=99d65f09-c0e6-4f0f-b72f-6e110c0f1bd4","ios":"levelo://app?vid=99d65f09-c0e6-4f0f-b72f-6e110c0f1bd4"},"vehicle_type_id":"4","last_reported":1769084826,"current_range_meters":3600,"station_id":"","pricing_plan_id":"cebpf4jnsgd1na2vs0mg"},{"bike_id":"19c9b524-76f1-4e5d-8be9-000b11a19079","system_id":"levelo_inurba_marseille","lat":43.25017,"lon":5.38907,"is_reserved":false,"is_disabled":false,"rental_uris":{"android":"levelo://app?vid=19c9b524-76f1-4e5d-8be9-000b11a19079","ios":"levelo://app?vid=19c9b524-76f1-4e5d-8be9-000b11a19079"},"vehicle_type_id":"4","last_reported":1769084826,"current_range_meters":3600,"station_id":"ce4bhgp2rcd13ifvqfd0","pricing_plan_id":"cebpf4jnsgd1na2vs0mg"},{"bike_id":"0e8b9a28-6d75-47ae-afad-4f8de92c4373","system_id":"levelo_inurba_marseille","lat":43.28492,"lon":5.38414,"is_reserved":false,"is_disabled":false,"rental_uris":{"android":"levelo://app?vid=0e8b9a28-6d75-47ae-afad-4f8de92c4373","ios":"levelo://app?vid=0e8b9a28-6d75-47ae-afad-4f8de92c4373"},"vehicle_type_id":"4","last_reported":1769084826,"current_range_meters":3600,"station_id":"ce4bh512rcd13ifvqe3g","pricing_plan_id":"cebpf4jnsgd1na2vs0mg"},{"bike_id":"628d1d29-948b-4815-bc3f-a0ef2ac1c781","system_id":"levelo_inurba_marseille","lat":43.24165,"lon":5.36395,"is_reserved":false,"is_disabled":false,"rental_uris":{"android":"levelo://app?vid=628d1d29-948b-4815-bc3f-a0ef2ac1c781","ios":"levelo://app?vid=628d1d29-948b-4815-bc3f-a0ef2ac1c781"},"vehicle_type_id":"4","last_reported":1769084826,"current_range_meters":3600,"station_id":"cpo36qri1sfpv3e86is0","pricing_plan_id":"cebpf4jnsgd1na2vs0mg"},{"bike_id":"23952ec8-a0f1-4bc7-aad6-a1231657c9e9","system_id":"levelo_inurba_marseille","lat":43.26553,"lon":5.37288,"is_reserved":false,"is_disabled":false,"rental_uris":{"android":"levelo://app?vid=23952ec8-a0f1-4bc7-aad6-a1231657c9e9","ios":"levelo://app?vid=23952ec8-a0f1-4bc7-aad6-a1231657c9e9"},"vehicle_type_id":"4","last_reported":1769084826,"current_range_meters":3600,"station_id":"ce4bhg12rcd13ifvqf70","pricing_plan_id":"cebpf4jnsgd1na2vs0mg"},{"bike_id":"545e4f83-e51a-49da-ad95-1c0f7558160f","system_id":"levelo_inurba_marseille","lat":43.24804,"lon":5.37459,"is_reserved":false,"is_disabled":false,"rental_uris":{"android":"levelo://app?vid=545e4f83-e51a-49da-ad95-1c0f7558160f","ios":"levelo://app?vid=545e4f83-e51a-49da-ad95-1c0f7558160f"},"vehicle_type_id":"4","last_reported":1769084826,"current_range_meters":3600,"station_id":"ce4bhgh2rcd13ifvqfb0","pricing_plan_id":"cebpf4jnsgd1na2vs0mg"},{"bike_id":"1faea985-2c7d-46b3-a0c7-11ff4bef455a","system_id":"levelo_inurba_marseille","lat":43.24648,"lon":5.38892,"is_reserved":false,"is_disabled":false,"rental_uris":{"android":"levelo://app?vid=1faea985-2c7d-46b3-a0c7-11ff4bef455a","ios":"levelo://app?vid=1faea985-2c7d-46b3-a0c7-11ff4bef455a"},"vehicle_type_id":"4","last_reported":1769084826,"current_range_meters":3600,"station_id":"ce4bhg12rcd13ifvqf60","pricing_plan_id":"cebpf4jnsgd1na2vs0mg"},{"bike_id":"c3c9d165-9f18-496b-a420-1a5a46ea337c","system_id":"levelo_inurba_marseille","lat":43.30555,"lon":5.36713,"is_reserved":false,"is_disabled":false,"rental_uris":{"android":"levelo://app?vid=c3c9d165-9f18-496b-a420-1a5a46ea337c","ios":"levelo://app?vid=c3c9d165-9f18-496b-a420-1a5a46ea337c"},"vehicle_type_id":"4","last_reported":1769084826,"current_range_meters":3600,"station_id":"ce4bgrp2rcd13ifvqc9g","pricing_plan_id":"cebpf4jnsgd1na2vs0mg"},{"bike_id":"4c7ae057-d306-4108-a109-f703240d1f82","system_id":"levelo_inurba_marseille","lat":43.25936,"lon":5.40909,"is_reserved":false,"is_disabled":false,"rental_uris":{"android":"levelo://app?vid=4c7ae057-d306-4108-a109-f703240d1f82","ios":"levelo://app?vid=4c7ae057-d306-4108-a109-f703240d1f82"},"vehicle_type_id":"4","last_reported":1769084826,"current_range_meters":3600,"station_id":"ce4bhm92rcd13ifvqglg","pricing_plan_id":"cebpf4jnsgd1na2vs0mg"},{"bike_id":"c0db7285-41a2-48d5-8666-424ca161e485","system_id":"levelo_inurba_marseille","lat":43.24643,"lon":5.38901,"is_reserved":false,"is_disabled":false,"rental_uris":{"android":"levelo://app?vid=c0db7285-41a2-48d5-8666-424ca161e485","ios":"levelo://app?vid=c0db7285-41a2-48d5-8666-424ca161e485"},"vehicle_type_id":"4","last_reported":1769084826,"current_range_meters":3600,"station_id":"ce4bhg12rcd13ifvqf60","pricing_plan_id":"cebpf4jnsgd1na2vs0mg"},{"bike_id":"94e447ef-188e-4e98-a497-4fbe709caccf","system_id":"levelo_inurba_marseille","lat":43.23966,"lon":5.36631,"is_reserved":false,"is_disabled":false,"rental_uris":{"android":"levelo://app?vid=94e447ef-188e-4e98-a497-4fbe709caccf","ios":"levelo://app?vid=94e447ef-188e-4e98-a497-4fbe709caccf"},"vehicle_type_id":"4","last_reported":1769084826,"current_range_meters":4000,"station_id":"ce4bhi12rcd13ifvqfp0","pricing_plan_id":"cebpf4jnsgd1na2vs0mg"},{"bike_id":"db3f14e4-220b-415c-9e28-2fe041e49f9a","system_id":"levelo_inurba_marseille","lat":43.26069,"lon":5.394,"is_reserved":false,"is_disabled":false,"rental_uris":{"android":"levelo://app?vid=db3f14e4-220b-415c-9e28-2fe041e49f9a","ios":"levelo://app?vid=db3f14e4-220b-415c-9e28-2fe041e49f9a"},"vehicle_type_id":"4","last_reported":1769084826,"current_range_meters":4000,"station_id":"ce4bhh92rcd13ifvqfj0","pricing_plan_id":"cebpf4jnsgd1na2vs0mg"},{"bike_id":"0b64e895-792b-4498-9172-5f40249c5668","system_id":"levelo_inurba_marseille","lat":43.26072,"lon":5.39394,"is_reserved":false,"is_disabled":false,"rental_uris":{"android":"levelo://app?vid=0b64e895-792b-4498-9172-5f40249c5668","ios":"levelo://app?vid=0b64e895-792b-4498-9172-5f40249c5668"},"vehicle_type_id":"4","last_reported":1769084826,"current_range_meters":4000,"station_id":"ce4bhh92rcd13ifvqfj0","pricing_plan_id":"cebpf4jnsgd1na2vs0mg"},{"bike_id":"bf9df301-dc0d-41cc-96a1-27301e9f819b","system_id":"levelo_inurba_marseille","lat":43.28468,"lon":5.48392,"is_reserved":false,"is_disabled":false,"rental_uris":{"android":"levelo://app?vid=bf9df301-dc0d-41cc-96a1-27301e9f819b","ios":"levelo://app?vid=bf9df301-dc0d-41cc-96a1-27301e9f819b"},"vehicle_type_id":"4","last_reported":1769084826,"current_range_meters":4000,"station_id":"st_d3svhcjqgbts73a3dn0g","pricing_plan_id":"cebpf4jnsgd1na2vs0mg"},{"bike_id":"f9bba3aa-9a2f-490b-9bc7-41b7584a0aad","system_id":"levelo_inurba_marseille","lat":43.29008,"lon":5.38134,"is_reserved":false,"is_disabled":false,"rental_uris":{"android":"levelo://app?vid=f9bba3aa-9a2f-490b-9bc7-41b7584a0aad","ios":"levelo://app?vid=f9bba3aa-9a2f-490b-9bc7-41b7584a0aad"},"vehicle_type_id":"4","last_reported":1769084826,"current_range_meters":4000,"station_id":"ce4bh4p2rcd13ifvqe1g","pricing_plan_id":"cebpf4jnsgd1na2vs0mg"},{"bike_id":"d8892e33-ad73-49f6-b42d-ef08d537f462","system_id":"levelo_inurba_marseille","lat":43.29571,"lon":5.39966,"is_reserved":false,"is_disabled":false,"rental_uris":{"android":"levelo://app?vid=d8892e33-ad73-49f6-b42d-ef08d537f462","ios":"levelo://app?vid=d8892e33-ad73-49f6-b42d-ef08d537f462"},"vehicle_type_id":"4","last_reported":1769084826,"current_range_meters":4000,"station_id":"ce4bh312rcd13ifvqdj0","pricing_plan_id":"cebpf4jnsgd1na2vs0mg"},{"bike_id":"c410668a-fb9f-4d89-8357-51bcc7148eda","system_id":"levelo_inurba_marseille","lat":43.24178,"lon":5.39726,"is_reserved":false,"is_disabled":false,"rental_uris":{"android":"levelo://app?vid=c410668a-fb9f-4d89-8357-51bcc7148eda","ios":"levelo://app?vid=c410668a-fb9f-4d89-8357-51bcc7148eda"},"vehicle_type_id":"4","last_reported":1769084826,"current_range_meters":4000,"station_id":"ce4bhn12rcd13ifvqgpg","pricing_plan_id":"cebpf4jnsgd1na2vs0mg"},{"bike_id":"57560f65-e4ea-4eda-9d46-c69dedf142ff","system_id":"levelo_inurba_marseille","lat":43.26373,"lon":5.41082,"is_reserved":false,"is_disabled":false,"rental_uris":{"android":"levelo://app?vid=57560f65-e4ea-4eda-9d46-c69dedf142ff","ios":"levelo://app?vid=57560f65-e4ea-4eda-9d46-c69dedf142ff"},"vehicle_type_id":"4","last_reported":1769084826,"current_range_meters":4000,"station_id":"st_d4e5ca6na9uc73bfl5fg","pricing_plan_id":"cebpf4jnsgd1na2vs0mg"},{"bike_id":"0622c09a-dde2-4599-b63f-34134029cfdb","system_id":"levelo_inurba_marseille","lat":43.26948,"lon":5.38639,"is_reserved":false,"is_disabled":false,"rental_uris":{"android":"levelo://app?vid=0622c09a-dde2-4599-b63f-34134029cfdb","ios":"levelo://app?vid=0622c09a-dde2-4599-b63f-34134029cfdb"},"vehicle_type_id":"4","last_reported":1769084826,"current_range_meters":4000,"station_id":"ce4bhh92rcd13ifvqfh0","pricing_plan_id":"cebpf4jnsgd1na2vs0mg"},{"bike_id":"8be7c910-6e5e-4942-a314-af910f4c526f","system_id":"levelo_inurba_marseille","lat":43.28347,"lon":5.38104,"is_reserved":false,"is_disabled":false,"rental_uris":{"android":"levelo://app?vid=8be7c910-6e5e-4942-a314-af910f4c526f","ios":"levelo://app?vid=8be7c910-6e5e-4942-a314-af910f4c526f"},"vehicle_type_id":"4","last_reported":1769084826,"current_range_meters":4000,"station_id":"ce4bh412rcd13ifvqdr0","pricing_plan_id":"cebpf4jnsgd1na2vs0mg"},{"bike_id":"f5dbe3f0-b000-4485-bfe7-7e6728e7222b","system_id":"levelo_inurba_marseille","lat":43.27363,"lon":5.36262,"is_reserved":false,"is_disabled":false,"rental_uris":{"android":"levelo://app?vid=f5dbe3f0-b000-4485-bfe7-7e6728e7222b","ios":"levelo://app?vid=f5dbe3f0-b000-4485-bfe7-7e6728e7222b"},"vehicle_type_id":"4","last_reported":1769084826,"current_range_meters":4000,"station_id":"ce4bhbh2rcd13ifvqeo0","pricing_plan_id":"cebpf4jnsgd1na2vs0mg"},{"bike_id":"ce33f6ad-f3bd-4953-bd7c-6e1238f24a4f","system_id":"levelo_inurba_marseille","lat":43.24675,"lon":5.38144,"is_reserved":false,"is_disabled":false,"rental_uris":{"android":"levelo://app?vid=ce33f6ad-f3bd-4953-bd7c-6e1238f24a4f","ios":"levelo://app?vid=ce33f6ad-f3bd-4953-bd7c-6e1238f24a4f"},"vehicle_type_id":"4","last_reported":1769084826,"current_range_meters":4000,"station_id":"ce4bhih2rcd13ifvqfr0","pricing_plan_id":"cebpf4jnsgd1na2vs0mg"},{"bike_id":"19f100e7-b629-4937-9dfc-fd2ffdddb939","system_id":"levelo_inurba_marseille","lat":43.24074,"lon":5.3775,"is_reserved":false,"is_disabled":false,"rental_uris":{"android":"levelo://app?vid=19f100e7-b629-4937-9dfc-fd2ffdddb939","ios":"levelo://app?vid=19f100e7-b629-4937-9dfc-fd2ffdddb939"},"vehicle_type_id":"4","last_reported":1769084826,"current_range_meters":4000,"station_id":"ce4bhnp2rcd13ifvqgvg","pricing_plan_id":"cebpf4jnsgd1na2vs0mg"},{"bike_id":"34f60833-f4b4-4fe8-9369-551914a61488","system_id":"levelo_inurba_marseille","lat":43.29382,"lon":5.37281,"is_reserved":false,"is_disabled":false,"rental_uris":{"android":"levelo://app?vid=34f60833-f4b4-4fe8-9369-551914a61488","ios":"levelo://app?vid=34f60833-f4b4-4fe8-9369-551914a61488"},"vehicle_type_id":"4","last_reported":1769084826,"current_range_meters":4000,"station_id":"","pricing_plan_id":"cebpf4jnsgd1na2vs0mg"},{"bike_id":"4fd85399-6e65-44dc-b649-96594c9312ab","system_id":"levelo_inurba_marseille","lat":43.30299,"lon":5.40453,"is_reserved":false,"is_disabled":false,"rental_uris":{"android":"levelo://app?vid=4fd85399-6e65-44dc-b649-96594c9312ab","ios":"levelo://app?vid=4fd85399-6e65-44dc-b649-96594c9312ab"},"vehicle_type_id":"4","last_reported":1769084826,"current_range_meters":4400,"station_id":"ce4bh012rcd13ifvqd10","pricing_plan_id":"cebpf4jnsgd1na2vs0mg"},{"bike_id":"e1873dcd-d59c-47bc-b958-ae4e64499e0a","system_id":"levelo_inurba_marseille","lat":43.27683,"lon":5.389,"is_reserved":false,"is_disabled":false,"rental_uris":{"android":"levelo://app?vid=e1873dcd-d59c-47bc-b958-ae4e64499e0a","ios":"levelo://app?vid=e1873dcd-d59c-47bc-b958-ae4e64499e0a"},"vehicle_type_id":"4","last_reported":1769084826,"current_range_meters":4400,"station_id":"ce4bhi12rcd13ifvqfo0","pricing_plan_id":"cebpf4jnsgd1na2vs0mg"},{"bike_id":"6c089fda-8c58-4d9f-ba9f-5b075f1678f2","system_id":"levelo_inurba_marseille","lat":43.29588,"lon":5.37728,"is_reserved":false,"is_disabled":false,"rental_uris":{"android":"levelo://app?vid=6c089fda-8c58-4d9f-ba9f-5b075f1678f2","ios":"levelo://app?vid=6c089fda-8c58-4d9f-ba9f-5b075f1678f2"},"vehicle_type_id":"4","last_reported":1769084826,"current_range_meters":4400,"station_id":"ce4bgi92rcd13ifvqb90","pricing_plan_id":"cebpf4jnsgd1na2vs0mg"},{"bike_id":"10cf34e3-ebeb-4616-ad1f-0d1fe2900973","system_id":"levelo_inurba_marseille","lat":43.24067,"lon":5.37756,"is_reserved":false,"is_disabled":false,"rental_uris":{"android":"levelo://app?vid=10cf34e3-ebeb-4616-ad1f-0d1fe2900973","ios":"levelo://app?vid=10cf34e3-ebeb-4616-ad1f-0d1fe2900973"},"vehicle_type_id":"4","last_reported":1769084826,"current_range_meters":4400,"station_id":"ce4bhnp2rcd13ifvqgvg","pricing_plan_id":"cebpf4jnsgd1na2vs0mg"},{"bike_id":"488d3d36-c3f0-4390-80be-f0194a76248a","system_id":"levelo_inurba_marseille","lat":43.25596,"lon":5.40427,"is_reserved":false,"is_disabled":false,"rental_uris":{"android":"levelo://app?vid=488d3d36-c3f0-4390-80be-f0194a76248a","ios":"levelo://app?vid=488d3d36-c3f0-4390-80be-f0194a76248a"},"vehicle_type_id":"4","last_reported":1769084826,"current_range_meters":4400,"station_id":"","pricing_plan_id":"cebpf4jnsgd1na2vs0mg"},{"bike_id":"b1976e7f-f8b8-4864-9e87-b9955da362dc","system_id":"levelo_inurba_marseille","lat":43.28682,"lon":5.38951,"is_reserved":false,"is_disabled":false,"rental_uris":{"android":"levelo://app?vid=b1976e7f-f8b8-4864-9e87-b9955da362dc","ios":"levelo://app?vid=b1976e7f-f8b8-4864-9e87-b9955da362dc"},"vehicle_type_id":"4","last_reported":1769084826,"current_range_meters":4400,"station_id":"","pricing_plan_id":"cebpf4jnsgd1na2vs0mg"},{"bike_id":"beb99d3a-6147-4b1a-9c23-62ca2bec7b3f","system_id":"levelo_inurba_marseille","lat":43.26502,"lon":5.39533,"is_reserved":false,"is_disabled":false,"rental_uris":{"android":"levelo://app?vid=beb99d3a-6147-4b1a-9c23-62ca2bec7b3f","ios":"levelo://app?vid=beb99d3a-6147-4b1a-9c23-62ca2bec7b3f"},"vehicle_type_id":"4","last_reported":1769084826,"current_range_meters":4400,"station_id":"ce4bhi12rcd13ifvqfq0","pricing_plan_id":"cebpf4jnsgd1na2vs0mg"},{"bike_id":"5ad98fb6-2b18-44c2-8799-bf2ae668d269","system_id":"levelo_inurba_marseille","lat":43.30372,"lon":5.42489,"is_reserved":false,"is_disabled":false,"rental_uris":{"android":"levelo://app?vid=5ad98fb6-2b18-44c2-8799-bf2ae668d269","ios":"levelo://app?vid=5ad98fb6-2b18-44c2-8799-bf2ae668d269"},"vehicle_type_id":"4","last_reported":1769084826,"current_range_meters":4400,"station_id":"ce4bhoh2rcd13ifvqh6g","pricing_plan_id":"cebpf4jnsgd1na2vs0mg"},{"bike_id":"5550a5b9-adf4-46c0-959f-1b39fcd94aad","system_id":"levelo_inurba_marseille","lat":43.29702,"lon":5.37292,"is_reserved":false,"is_disabled":false,"rental_uris":{"android":"levelo://app?vid=5550a5b9-adf4-46c0-959f-1b39fcd94aad","ios":"levelo://app?vid=5550a5b9-adf4-46c0-959f-1b39fcd94aad"},"vehicle_type_id":"4","last_reported":1769084826,"current_range_meters":4800,"station_id":"ce4bgk12rcd13ifvqbj0","pricing_plan_id":"cebpf4jnsgd1na2vs0mg"},{"bike_id":"d891b86b-9c4a-46fd-b64a-73de9353aaf0","system_id":"levelo_inurba_marseille","lat":43.30966,"lon":5.39052,"is_reserved":false,"is_disabled":false,"rental_uris":{"android":"levelo://app?vid=d891b86b-9c4a-46fd-b64a-73de9353aaf0","ios":"levelo://app?vid=d891b86b-9c4a-46fd-b64a-73de9353aaf0"},"vehicle_type_id":"4","last_reported":1769084826,"current_range_meters":4800,"station_id":"ce4bgup2rcd13ifvqco0","pricing_plan_id":"cebpf4jnsgd1na2vs0mg"},{"bike_id":"fe2a828f-710f-491e-b529-f22ca09a8365","system_id":"levelo_inurba_marseille","lat":43.30734,"lon":5.40959,"is_reserved":false,"is_disabled":false,"rental_uris":{"android":"levelo://app?vid=fe2a828f-710f-491e-b529-f22ca09a8365","ios":"levelo://app?vid=fe2a828f-710f-491e-b529-f22ca09a8365"},"vehicle_type_id":"4","last_reported":1769084826,"current_range_meters":4800,"station_id":"","pricing_plan_id":"cebpf4jnsgd1na2vs0mg"},{"bike_id":"f3a01c85-86e9-4a7c-837b-602faf4bbfde","system_id":"levelo_inurba_marseille","lat":43.27992,"lon":5.3871,"is_reserved":false,"is_disabled":false,"rental_uris":{"android":"levelo://app?vid=f3a01c85-86e9-4a7c-837b-602faf4bbfde","ios":"levelo://app?vid=f3a01c85-86e9-4a7c-837b-602faf4bbfde"},"vehicle_type_id":"4","last_reported":1769084826,"current_range_meters":4800,"station_id":"ce4bhg12rcd13ifvqf80","pricing_plan_id":"cebpf4jnsgd1na2vs0mg"},{"bike_id":"dde7b0e0-bbd1-44de-82f6-999f8e69694c","system_id":"levelo_inurba_marseille","lat":43.25511,"lon":5.37666,"is_reserved":false,"is_disabled":false,"rental_uris":{"android":"levelo://app?vid=dde7b0e0-bbd1-44de-82f6-999f8e69694c","ios":"levelo://app?vid=dde7b0e0-bbd1-44de-82f6-999f8e69694c"},"vehicle_type_id":"4","last_reported":1769084826,"current_range_meters":4800,"station_id":"ce4bhh12rcd13ifvqff0","pricing_plan_id":"cebpf4jnsgd1na2vs0mg"},{"bike_id":"623e2b1b-358e-4441-9481-57ef61957b04","system_id":"levelo_inurba_marseille","lat":43.31179,"lon":5.38703,"is_reserved":false,"is_disabled":false,"rental_uris":{"android":"levelo://app?vid=623e2b1b-358e-4441-9481-57ef61957b04","ios":"levelo://app?vid=623e2b1b-358e-4441-9481-57ef61957b04"},"vehicle_type_id":"4","last_reported":1769084826,"current_range_meters":4800,"station_id":"ce4bgv12rcd13ifvqcp0","pricing_plan_id":"cebpf4jnsgd1na2vs0mg"},{"bike_id":"0fca58a3-d51f-4248-8d53-9dde04da93e5","system_id":"levelo_inurba_marseille","lat":43.28998,"lon":5.37853,"is_reserved":false,"is_disabled":false,"rental_uris":{"android":"levelo://app?vid=0fca58a3-d51f-4248-8d53-9dde04da93e5","ios":"levelo://app?vid=0fca58a3-d51f-4248-8d53-9dde04da93e5"},"vehicle_type_id":"4","last_reported":1769084826,"current_range_meters":4800,"station_id":"ce4bh9p2rcd13ifvqed0","pricing_plan_id":"cebpf4jnsgd1na2vs0mg"},{"bike_id":"3d3c635d-bdc1-420a-92f6-f7730f8a3248","system_id":"levelo_inurba_marseille","lat":43.309068,"lon":5.368518,"is_reserved":false,"is_disabled":false,"rental_uris":{"android":"levelo://app?vid=3d3c635d-bdc1-420a-92f6-f7730f8a3248","ios":"levelo://app?vid=3d3c635d-bdc1-420a-92f6-f7730f8a3248"},"vehicle_type_id":"4","last_reported":1769084826,"current_range_meters":4800,"station_id":"ce4bgn92rcd13ifvqbvg","pricing_plan_id":"cebpf4jnsgd1na2vs0mg"},{"bike_id":"5702b7dd-6610-470c-aa4b-9a42ea10f3cc","system_id":"levelo_inurba_marseille","lat":43.30533,"lon":5.3652,"is_reserved":false,"is_disabled":false,"rental_uris":{"android":"levelo://app?vid=5702b7dd-6610-470c-aa4b-9a42ea10f3cc","ios":"levelo://app?vid=5702b7dd-6610-470c-aa4b-9a42ea10f3cc"},"vehicle_type_id":"4","last_reported":1769084826,"current_range_meters":4800,"station_id":"ce4bgs12rcd13ifvqcag","pricing_plan_id":"cebpf4jnsgd1na2vs0mg"},{"bike_id":"a0f898d9-83f1-4ac9-932e-8cf1f6205158","system_id":"levelo_inurba_marseille","lat":43.31221,"lon":5.3685,"is_reserved":false,"is_disabled":false,"rental_uris":{"android":"levelo://app?vid=a0f898d9-83f1-4ac9-932e-8cf1f6205158","ios":"levelo://app?vid=a0f898d9-83f1-4ac9-932e-8cf1f6205158"},"vehicle_type_id":"4","last_reported":1769084826,"current_range_meters":4800,"station_id":"ce4bgl92rcd13ifvqbq0","pricing_plan_id":"cebpf4jnsgd1na2vs0mg"},{"bike_id":"8411430b-a2ea-43a1-94e6-374360ddaba3","system_id":"levelo_inurba_marseille","lat":43.297,"lon":5.37698,"is_reserved":false,"is_disabled":false,"rental_uris":{"android":"levelo://app?vid=8411430b-a2ea-43a1-94e6-374360ddaba3","ios":"levelo://app?vid=8411430b-a2ea-43a1-94e6-374360ddaba3"},"vehicle_type_id":"4","last_reported":1769084826,"current_range_meters":4800,"station_id":"ce4bgkh2rcd13ifvqbl0","pricing_plan_id":"cebpf4jnsgd1na2vs0mg"},{"bike_id":"70942bdb-cce8-4766-ba54-c7a8cb5b950f","system_id":"levelo_inurba_marseille","lat":43.25603,"lon":5.38251,"is_reserved":false,"is_disabled":false,"rental_uris":{"android":"levelo://app?vid=70942bdb-cce8-4766-ba54-c7a8cb5b950f","ios":"levelo://app?vid=70942bdb-cce8-4766-ba54-c7a8cb5b950f"},"vehicle_type_id":"4","last_reported":1769084826,"current_range_meters":4800,"station_id":"ce4bhih2rcd13ifvqfs0","pricing_plan_id":"cebpf4jnsgd1na2vs0mg"},{"bike_id":"ee33ab3a-e3bc-40d4-a67a-4cd737f87d9a","system_id":"levelo_inurba_marseille","lat":43.29894,"lon":5.37475,"is_reserved":false,"is_disabled":false,"rental_uris":{"android":"levelo://app?vid=ee33ab3a-e3bc-40d4-a67a-4cd737f87d9a","ios":"levelo://app?vid=ee33ab3a-e3bc-40d4-a67a-4cd737f87d9a"},"vehicle_type_id":"4","last_reported":1769084826,"current_range_meters":4800,"station_id":"ce4bgjh2rcd13ifvqbg0","pricing_plan_id":"cebpf4jnsgd1na2vs0mg"},{"bike_id":"24792bcb-cccb-4354-9495-98d42ecb2237","system_id":"levelo_inurba_marseille","lat":43.290295,"lon":5.386538,"is_reserved":false,"is_disabled":false,"rental_uris":{"android":"levelo://app?vid=24792bcb-cccb-4354-9495-98d42ecb2237","ios":"levelo://app?vid=24792bcb-cccb-4354-9495-98d42ecb2237"},"vehicle_type_id":"4","last_reported":1769084826,"current_range_meters":4800,"station_id":"ce4bh4p2rcd13ifvqe0g","pricing_plan_id":"cebpf4jnsgd1na2vs0mg"},{"bike_id":"87671982-a6d5-44ee-a428-257b656b8cd5","system_id":"levelo_inurba_marseille","lat":43.28441,"lon":5.3919,"is_reserved":false,"is_disabled":false,"rental_uris":{"android":"levelo://app?vid=87671982-a6d5-44ee-a428-257b656b8cd5","ios":"levelo://app?vid=87671982-a6d5-44ee-a428-257b656b8cd5"},"vehicle_type_id":"4","last_reported":1769084826,"current_range_meters":4800,"station_id":"ce4bhoh2rcd13ifvqh5g","pricing_plan_id":"cebpf4jnsgd1na2vs0mg"},{"bike_id":"91c6b80f-ebf8-40dd-9043-2f1efcca7d75","system_id":"levelo_inurba_marseille","lat":43.295377,"lon":5.385464,"is_reserved":false,"is_disabled":true,"rental_uris":{"android":"levelo://app?vid=91c6b80f-ebf8-40dd-9043-2f1efcca7d75","ios":"levelo://app?vid=91c6b80f-ebf8-40dd-9043-2f1efcca7d75"},"vehicle_type_id":"4","last_reported":1769084826,"current_range_meters":4800,"station_id":"ce4bgih2rcd13ifvqba0","pricing_plan_id":"cebpf4jnsgd1na2vs0mg"},{"bike_id":"2ff152df-2638-45a4-87e0-67ff6133f732","system_id":"levelo_inurba_marseille","lat":43.290961,"lon":5.381574,"is_reserved":false,"is_disabled":false,"rental_uris":{"android":"levelo://app?vid=2ff152df-2638-45a4-87e0-67ff6133f732","ios":"levelo://app?vid=2ff152df-2638-45a4-87e0-67ff6133f732"},"vehicle_type_id":"4","last_reported":1769084826,"current_range_meters":5600,"station_id":"ce4bh512rcd13ifvqe2g","pricing_plan_id":"cebpf4jnsgd1na2vs0mg"},{"bike_id":"e2c75bb6-a8f5-4d10-8f8c-b5c9ff3756c1","system_id":"levelo_inurba_marseille","lat":43.30544,"lon":5.36521,"is_reserved":false,"is_disabled":false,"rental_uris":{"android":"levelo://app?vid=e2c75bb6-a8f5-4d10-8f8c-b5c9ff3756c1","ios":"levelo://app?vid=e2c75bb6-a8f5-4d10-8f8c-b5c9ff3756c1"},"vehicle_type_id":"4","last_reported":1769084826,"current_range_meters":5600,"station_id":"ce4bgs12rcd13ifvqcag","pricing_plan_id":"cebpf4jnsgd1na2vs0mg"},{"bike_id":"68226070-db87-4f3a-bcca-d8c5e4b321f8","system_id":"levelo_inurba_marseille","lat":43.29676,"lon":5.37789,"is_reserved":false,"is_disabled":false,"rental_uris":{"android":"levelo://app?vid=68226070-db87-4f3a-bcca-d8c5e4b321f8","ios":"levelo://app?vid=68226070-db87-4f3a-bcca-d8c5e4b321f8"},"vehicle_type_id":"4","last_reported":1769084826,"current_range_meters":5600,"station_id":"","pricing_plan_id":"cebpf4jnsgd1na2vs0mg"},{"bike_id":"206441f8-aeae-4f5a-aba6-5de70a26d57c","system_id":"levelo_inurba_marseille","lat":43.26548,"lon":5.37288,"is_reserved":false,"is_disabled":false,"rental_uris":{"android":"levelo://app?vid=206441f8-aeae-4f5a-aba6-5de70a26d57c","ios":"levelo://app?vid=206441f8-aeae-4f5a-aba6-5de70a26d57c"},"vehicle_type_id":"4","last_reported":1769084826,"current_range_meters":5600,"station_id":"ce4bhg12rcd13ifvqf70","pricing_plan_id":"cebpf4jnsgd1na2vs0mg"},{"bike_id":"abb88afc-d82b-4ba7-ab70-224a7abe4dfa","system_id":"levelo_inurba_marseille","lat":43.32486,"lon":5.38296,"is_reserved":false,"is_disabled":false,"rental_uris":{"android":"levelo://app?vid=abb88afc-d82b-4ba7-ab70-224a7abe4dfa","ios":"levelo://app?vid=abb88afc-d82b-4ba7-ab70-224a7abe4dfa"},"vehicle_type_id":"4","last_reported":1769084826,"current_range_meters":5600,"station_id":"st_d4asgbiv49dc73anf9m0","pricing_plan_id":"cebpf4jnsgd1na2vs0mg"},{"bike_id":"ea0f05f9-500e-4b7e-9027-9fb9e092d3c4","system_id":"levelo_inurba_marseille","lat":43.3266,"lon":5.40986,"is_reserved":false,"is_disabled":false,"rental_uris":{"android":"levelo://app?vid=ea0f05f9-500e-4b7e-9027-9fb9e092d3c4","ios":"levelo://app?vid=ea0f05f9-500e-4b7e-9027-9fb9e092d3c4"},"vehicle_type_id":"4","last_reported":1769084826,"current_range_meters":5600,"station_id":"ce4bhpp2rcd13ifvqhgg","pricing_plan_id":"cebpf4jnsgd1na2vs0mg"},{"bike_id":"607c435d-5fb0-4f63-b221-a58bdcfdc9c2","system_id":"levelo_inurba_marseille","lat":43.24999,"lon":5.38926,"is_reserved":false,"is_disabled":false,"rental_uris":{"android":"levelo://app?vid=607c435d-5fb0-4f63-b221-a58bdcfdc9c2","ios":"levelo://app?vid=607c435d-5fb0-4f63-b221-a58bdcfdc9c2"},"vehicle_type_id":"4","last_reported":1769084826,"current_range_meters":5600,"station_id":"ce4bhgp2rcd13ifvqfd0","pricing_plan_id":"cebpf4jnsgd1na2vs0mg"},{"bike_id":"55a602f1-3839-4478-b1d2-effd6c4cbbf1","system_id":"levelo_inurba_marseille","lat":43.29962,"lon":5.38505,"is_reserved":false,"is_disabled":false,"rental_uris":{"android":"levelo://app?vid=55a602f1-3839-4478-b1d2-effd6c4cbbf1","ios":"levelo://app?vid=55a602f1-3839-4478-b1d2-effd6c4cbbf1"},"vehicle_type_id":"4","last_reported":1769084826,"current_range_meters":5600,"station_id":"ce4bgj92rcd13ifvqbd0","pricing_plan_id":"cebpf4jnsgd1na2vs0mg"},{"bike_id":"322a8371-b487-4336-bae5-cd0cb29822d1","system_id":"levelo_inurba_marseille","lat":43.31711,"lon":5.43709,"is_reserved":false,"is_disabled":false,"rental_uris":{"android":"levelo://app?vid=322a8371-b487-4336-bae5-cd0cb29822d1","ios":"levelo://app?vid=322a8371-b487-4336-bae5-cd0cb29822d1"},"vehicle_type_id":"4","last_reported":1769084826,"current_range_meters":5600,"station_id":"ce4bhp92rcd13ifvqhcg","pricing_plan_id":"cebpf4jnsgd1na2vs0mg"},{"bike_id":"d8f34b5e-d831-4a3d-8643-93f2f2dfecae","system_id":"levelo_inurba_marseille","lat":43.24164,"lon":5.36408,"is_reserved":false,"is_disabled":true,"rental_uris":{"android":"levelo://app?vid=d8f34b5e-d831-4a3d-8643-93f2f2dfecae","ios":"levelo://app?vid=d8f34b5e-d831-4a3d-8643-93f2f2dfecae"},"vehicle_type_id":"4","last_reported":1769084826,"current_range_meters":5600,"station_id":"cpo36qri1sfpv3e86is0","pricing_plan_id":"cebpf4jnsgd1na2vs0mg"},{"bike_id":"94d782ce-d646-4a15-909c-4c48f4840c8d","system_id":"levelo_inurba_marseille","lat":43.25842,"lon":5.39434,"is_reserved":false,"is_disabled":false,"rental_uris":{"android":"levelo://app?vid=94d782ce-d646-4a15-909c-4c48f4840c8d","ios":"levelo://app?vid=94d782ce-d646-4a15-909c-4c48f4840c8d"},"vehicle_type_id":"4","last_reported":1769084826,"current_range_meters":5600,"station_id":"ce4bhip2rcd13ifvqft0","pricing_plan_id":"cebpf4jnsgd1na2vs0mg"},{"bike_id":"20deef10-ed33-4ec9-9903-ad6ab49b17b3","system_id":"levelo_inurba_marseille","lat":43.24462,"lon":5.42539,"is_reserved":false,"is_disabled":false,"rental_uris":{"android":"levelo://app?vid=20deef10-ed33-4ec9-9903-ad6ab49b17b3","ios":"levelo://app?vid=20deef10-ed33-4ec9-9903-ad6ab49b17b3"},"vehicle_type_id":"4","last_reported":1769084826,"current_range_meters":5600,"station_id":"st_d4a3vfp97mjs738cd8kg","pricing_plan_id":"cebpf4jnsgd1na2vs0mg"},{"bike_id":"45d2ab38-4eed-4c99-8842-7a1fd970ccbd","system_id":"levelo_inurba_marseille","lat":43.26029,"lon":5.37553,"is_reserved":false,"is_disabled":false,"rental_uris":{"android":"levelo://app?vid=45d2ab38-4eed-4c99-8842-7a1fd970ccbd","ios":"levelo://app?vid=45d2ab38-4eed-4c99-8842-7a1fd970ccbd"},"vehicle_type_id":"4","last_reported":1769084826,"current_range_meters":5600,"station_id":"ce4bhgh2rcd13ifvqfa0","pricing_plan_id":"cebpf4jnsgd1na2vs0mg"},{"bike_id":"09299833-1cab-4d88-9fd7-ec3ed736bdf9","system_id":"levelo_inurba_marseille","lat":43.25721,"lon":5.42244,"is_reserved":false,"is_disabled":false,"rental_uris":{"android":"levelo://app?vid=09299833-1cab-4d88-9fd7-ec3ed736bdf9","ios":"levelo://app?vid=09299833-1cab-4d88-9fd7-ec3ed736bdf9"},"vehicle_type_id":"4","last_reported":1769084826,"current_range_meters":5600,"station_id":"","pricing_plan_id":"cebpf4jnsgd1na2vs0mg"},{"bike_id":"da9abf00-e8d8-4952-8c76-66599c2538f5","system_id":"levelo_inurba_marseille","lat":43.30538,"lon":5.38419,"is_reserved":false,"is_disabled":false,"rental_uris":{"android":"levelo://app?vid=da9abf00-e8d8-4952-8c76-66599c2538f5","ios":"levelo://app?vid=da9abf00-e8d8-4952-8c76-66599c2538f5"},"vehicle_type_id":"4","last_reported":1769084826,"current_range_meters":6000,"station_id":"ce4bgg92rcd13ifvqb30","pricing_plan_id":"cebpf4jnsgd1na2vs0mg"},{"bike_id":"7e67f891-715f-459a-a371-586807dd9847","system_id":"levelo_inurba_marseille","lat":43.311674,"lon":5.387175,"is_reserved":false,"is_disabled":false,"rental_uris":{"android":"levelo://app?vid=7e67f891-715f-459a-a371-586807dd9847","ios":"levelo://app?vid=7e67f891-715f-459a-a371-586807dd9847"},"vehicle_type_id":"4","last_reported":1769084826,"current_range_meters":6000,"station_id":"ce4bgv12rcd13ifvqcp0","pricing_plan_id":"cebpf4jnsgd1na2vs0mg"},{"bike_id":"efe98a95-3a21-49ba-9a6d-8fbeddac23c8","system_id":"levelo_inurba_marseille","lat":43.27973,"lon":5.41661,"is_reserved":false,"is_disabled":false,"rental_uris":{"android":"levelo://app?vid=efe98a95-3a21-49ba-9a6d-8fbeddac23c8","ios":"levelo://app?vid=efe98a95-3a21-49ba-9a6d-8fbeddac23c8"},"vehicle_type_id":"4","last_reported":1769084826,"current_range_meters":6000,"station_id":"ce4bho12rcd13ifvqh1g","pricing_plan_id":"cebpf4jnsgd1na2vs0mg"},{"bike_id":"ebc59118-e1a4-482d-84d0-eafb34b0b9ea","system_id":"levelo_inurba_marseille","lat":43.23779,"lon":5.36624,"is_reserved":false,"is_disabled":false,"rental_uris":{"android":"levelo://app?vid=ebc59118-e1a4-482d-84d0-eafb34b0b9ea","ios":"levelo://app?vid=ebc59118-e1a4-482d-84d0-eafb34b0b9ea"},"vehicle_type_id":"4","last_reported":1769084826,"current_range_meters":6000,"station_id":"st_d3nk18o9ro0c73en2l3g","pricing_plan_id":"cebpf4jnsgd1na2vs0mg"},{"bike_id":"c5ce8352-3569-43f4-b61c-9c49854b9ea4","system_id":"levelo_inurba_marseille","lat":43.26541,"lon":5.37309,"is_reserved":false,"is_disabled":false,"rental_uris":{"android":"levelo://app?vid=c5ce8352-3569-43f4-b61c-9c49854b9ea4","ios":"levelo://app?vid=c5ce8352-3569-43f4-b61c-9c49854b9ea4"},"vehicle_type_id":"4","last_reported":1769084826,"current_range_meters":6000,"station_id":"ce4bhg12rcd13ifvqf70","pricing_plan_id":"cebpf4jnsgd1na2vs0mg"},{"bike_id":"24da7d1f-4c31-464c-8591-7c8451c98bcf","system_id":"levelo_inurba_marseille","lat":43.23151,"lon":5.43724,"is_reserved":false,"is_disabled":false,"rental_uris":{"android":"levelo://app?vid=24da7d1f-4c31-464c-8591-7c8451c98bcf","ios":"levelo://app?vid=24da7d1f-4c31-464c-8591-7c8451c98bcf"},"vehicle_type_id":"4","last_reported":1769084826,"current_range_meters":6000,"station_id":"ce4bhmp2rcd13ifvqgog","pricing_plan_id":"cebpf4jnsgd1na2vs0mg"},{"bike_id":"3998b630-1550-4129-b95e-2d12a38501a1","system_id":"levelo_inurba_marseille","lat":43.25577,"lon":5.38229,"is_reserved":false,"is_disabled":false,"rental_uris":{"android":"levelo://app?vid=3998b630-1550-4129-b95e-2d12a38501a1","ios":"levelo://app?vid=3998b630-1550-4129-b95e-2d12a38501a1"},"vehicle_type_id":"4","last_reported":1769084826,"current_range_meters":6000,"station_id":"ce4bhih2rcd13ifvqfs0","pricing_plan_id":"cebpf4jnsgd1na2vs0mg"},{"bike_id":"aec5c08c-9f05-47e9-bb02-2d63b83fc483","system_id":"levelo_inurba_marseille","lat":43.26753,"lon":5.3924,"is_reserved":false,"is_disabled":false,"rental_uris":{"android":"levelo://app?vid=aec5c08c-9f05-47e9-bb02-2d63b83fc483","ios":"levelo://app?vid=aec5c08c-9f05-47e9-bb02-2d63b83fc483"},"vehicle_type_id":"4","last_reported":1769084826,"current_range_meters":6000,"station_id":"","pricing_plan_id":"cebpf4jnsgd1na2vs0mg"},{"bike_id":"133dd31b-7e8b-494a-b027-d9d75407821f","system_id":"levelo_inurba_marseille","lat":43.32467,"lon":5.36551,"is_reserved":false,"is_disabled":false,"rental_uris":{"android":"levelo://app?vid=133dd31b-7e8b-494a-b027-d9d75407821f","ios":"levelo://app?vid=133dd31b-7e8b-494a-b027-d9d75407821f"},"vehicle_type_id":"4","last_reported":1769084826,"current_range_meters":6000,"station_id":"ce4bhs12rcd13ifvqhvg","pricing_plan_id":"cebpf4jnsgd1na2vs0mg"},{"bike_id":"dc4ceef8-23de-4910-9db6-c2c9947acc9d","system_id":"levelo_inurba_marseille","lat":43.301385,"lon":5.374185,"is_reserved":false,"is_disabled":false,"rental_uris":{"android":"levelo://app?vid=dc4ceef8-23de-4910-9db6-c2c9947acc9d","ios":"levelo://app?vid=dc4ceef8-23de-4910-9db6-c2c9947acc9d"},"vehicle_type_id":"4","last_reported":1769084826,"current_range_meters":6000,"station_id":"ce4bgs92rcd13ifvqcc0","pricing_plan_id":"cebpf4jnsgd1na2vs0mg"},{"bike_id":"a7dca984-2a89-4f7d-a4b2-c4b75083a65d","system_id":"levelo_inurba_marseille","lat":43.24642,"lon":5.38913,"is_reserved":false,"is_disabled":false,"rental_uris":{"android":"levelo://app?vid=a7dca984-2a89-4f7d-a4b2-c4b75083a65d","ios":"levelo://app?vid=a7dca984-2a89-4f7d-a4b2-c4b75083a65d"},"vehicle_type_id":"4","last_reported":1769084826,"current_range_meters":6000,"station_id":"ce4bh392rcd13ifvqdl0","pricing_plan_id":"cebpf4jnsgd1na2vs0mg"},{"bike_id":"24f3fbff-620e-43c2-ba5a-0daf2b9a5f5a","system_id":"levelo_inurba_marseille","lat":43.27368,"lon":5.39093,"is_reserved":false,"is_disabled":false,"rental_uris":{"android":"levelo://app?vid=24f3fbff-620e-43c2-ba5a-0daf2b9a5f5a","ios":"levelo://app?vid=24f3fbff-620e-43c2-ba5a-0daf2b9a5f5a"},"vehicle_type_id":"4","last_reported":1769084826,"current_range_meters":6000,"station_id":"","pricing_plan_id":"cebpf4jnsgd1na2vs0mg"},{"bike_id":"1b59461f-3677-4267-96f9-307d21825e19","system_id":"levelo_inurba_marseille","lat":43.283476,"lon":5.3812,"is_reserved":false,"is_disabled":false,"rental_uris":{"android":"levelo://app?vid=1b59461f-3677-4267-96f9-307d21825e19","ios":"levelo://app?vid=1b59461f-3677-4267-96f9-307d21825e19"},"vehicle_type_id":"4","last_reported":1769084826,"current_range_meters":6000,"station_id":"ce4bh412rcd13ifvqdr0","pricing_plan_id":"cebpf4jnsgd1na2vs0mg"},{"bike_id":"737cdf6e-8c2e-4b43-8e7d-478c69e4c6a4","system_id":"levelo_inurba_marseille","lat":43.33093,"lon":5.39026,"is_reserved":false,"is_disabled":false,"rental_uris":{"android":"levelo://app?vid=737cdf6e-8c2e-4b43-8e7d-478c69e4c6a4","ios":"levelo://app?vid=737cdf6e-8c2e-4b43-8e7d-478c69e4c6a4"},"vehicle_type_id":"4","last_reported":1769084826,"current_range_meters":6000,"station_id":"","pricing_plan_id":"cebpf4jnsgd1na2vs0mg"},{"bike_id":"a9d2cbb9-b682-43b1-9072-2e382fcdc0f1","system_id":"levelo_inurba_marseille","lat":43.24477,"lon":5.42552,"is_reserved":false,"is_disabled":false,"rental_uris":{"android":"levelo://app?vid=a9d2cbb9-b682-43b1-9072-2e382fcdc0f1","ios":"levelo://app?vid=a9d2cbb9-b682-43b1-9072-2e382fcdc0f1"},"vehicle_type_id":"4","last_reported":1769084826,"current_range_meters":6400,"station_id":"st_d4a3vfp97mjs738cd8kg","pricing_plan_id":"cebpf4jnsgd1na2vs0mg"},{"bike_id":"fc5d102e-6a36-4a5b-99d5-23cf30eec9b5","system_id":"levelo_inurba_marseille","lat":43.23192,"lon":5.35553,"is_reserved":false,"is_disabled":false,"rental_uris":{"android":"levelo://app?vid=fc5d102e-6a36-4a5b-99d5-23cf30eec9b5","ios":"levelo://app?vid=fc5d102e-6a36-4a5b-99d5-23cf30eec9b5"},"vehicle_type_id":"4","last_reported":1769084826,"current_range_meters":6400,"station_id":"ce4bhu92rcd13ifvqi70","pricing_plan_id":"cebpf4jnsgd1na2vs0mg"},{"bike_id":"37a6ba89-0d66-46be-ad14-7de2d3d5b58b","system_id":"levelo_inurba_marseille","lat":43.27053,"lon":5.40264,"is_reserved":false,"is_disabled":false,"rental_uris":{"android":"levelo://app?vid=37a6ba89-0d66-46be-ad14-7de2d3d5b58b","ios":"levelo://app?vid=37a6ba89-0d66-46be-ad14-7de2d3d5b58b"},"vehicle_type_id":"4","last_reported":1769084826,"current_range_meters":6400,"station_id":"ce4bhk92rcd13ifvqgc0","pricing_plan_id":"cebpf4jnsgd1na2vs0mg"},{"bike_id":"bd3222b3-dffe-4214-a25c-da1b23e1c71b","system_id":"levelo_inurba_marseille","lat":43.32344,"lon":5.36741,"is_reserved":false,"is_disabled":false,"rental_uris":{"android":"levelo://app?vid=bd3222b3-dffe-4214-a25c-da1b23e1c71b","ios":"levelo://app?vid=bd3222b3-dffe-4214-a25c-da1b23e1c71b"},"vehicle_type_id":"4","last_reported":1769084826,"current_range_meters":6400,"station_id":"ce4bhsh2rcd13ifvqi2g","pricing_plan_id":"cebpf4jnsgd1na2vs0mg"},{"bike_id":"a9c9ec15-fb58-4a05-993a-880cadd334ed","system_id":"levelo_inurba_marseille","lat":43.27816,"lon":5.39215,"is_reserved":false,"is_disabled":false,"rental_uris":{"android":"levelo://app?vid=a9c9ec15-fb58-4a05-993a-880cadd334ed","ios":"levelo://app?vid=a9c9ec15-fb58-4a05-993a-880cadd334ed"},"vehicle_type_id":"4","last_reported":1769084826,"current_range_meters":6400,"station_id":"ce4bhjp2rcd13ifvqga0","pricing_plan_id":"cebpf4jnsgd1na2vs0mg"},{"bike_id":"f6eb85c1-f53f-4dc1-8797-0471cff4e32e","system_id":"levelo_inurba_marseille","lat":43.28558,"lon":5.39103,"is_reserved":false,"is_disabled":false,"rental_uris":{"android":"levelo://app?vid=f6eb85c1-f53f-4dc1-8797-0471cff4e32e","ios":"levelo://app?vid=f6eb85c1-f53f-4dc1-8797-0471cff4e32e"},"vehicle_type_id":"4","last_reported":1769084826,"current_range_meters":6400,"station_id":"","pricing_plan_id":"cebpf4jnsgd1na2vs0mg"},{"bike_id":"811e4109-4554-441e-908e-4c588b5c7adf","system_id":"levelo_inurba_marseille","lat":43.29741,"lon":5.3687,"is_reserved":false,"is_disabled":false,"rental_uris":{"android":"levelo://app?vid=811e4109-4554-441e-908e-4c588b5c7adf","ios":"levelo://app?vid=811e4109-4554-441e-908e-4c588b5c7adf"},"vehicle_type_id":"4","last_reported":1769084826,"current_range_meters":6400,"station_id":"","pricing_plan_id":"cebpf4jnsgd1na2vs0mg"},{"bike_id":"63550df3-d87e-4087-bfb2-31599e2ca646","system_id":"levelo_inurba_marseille","lat":43.25805,"lon":5.39433,"is_reserved":false,"is_disabled":false,"rental_uris":{"android":"levelo://app?vid=63550df3-d87e-4087-bfb2-31599e2ca646","ios":"levelo://app?vid=63550df3-d87e-4087-bfb2-31599e2ca646"},"vehicle_type_id":"4","last_reported":1769084826,"current_range_meters":6400,"station_id":"ce4bhip2rcd13ifvqft0","pricing_plan_id":"cebpf4jnsgd1na2vs0mg"},{"bike_id":"b05d35a6-a4b1-4f68-ab22-eac501a6370f","system_id":"levelo_inurba_marseille","lat":43.323414,"lon":5.367561,"is_reserved":false,"is_disabled":false,"rental_uris":{"android":"levelo://app?vid=b05d35a6-a4b1-4f68-ab22-eac501a6370f","ios":"levelo://app?vid=b05d35a6-a4b1-4f68-ab22-eac501a6370f"},"vehicle_type_id":"4","last_reported":1769084826,"current_range_meters":6400,"station_id":"ce4bhsh2rcd13ifvqi2g","pricing_plan_id":"cebpf4jnsgd1na2vs0mg"},{"bike_id":"e3fe8bab-9b08-44ae-bcfb-5f41b4700269","system_id":"levelo_inurba_marseille","lat":43.24679,"lon":5.38145,"is_reserved":false,"is_disabled":false,"rental_uris":{"android":"levelo://app?vid=e3fe8bab-9b08-44ae-bcfb-5f41b4700269","ios":"levelo://app?vid=e3fe8bab-9b08-44ae-bcfb-5f41b4700269"},"vehicle_type_id":"4","last_reported":1769084826,"current_range_meters":6400,"station_id":"ce4bhih2rcd13ifvqfr0","pricing_plan_id":"cebpf4jnsgd1na2vs0mg"},{"bike_id":"c548ac70-1f60-4b54-ab53-e16a61fb05da","system_id":"levelo_inurba_marseille","lat":43.29974,"lon":5.3719,"is_reserved":false,"is_disabled":false,"rental_uris":{"android":"levelo://app?vid=c548ac70-1f60-4b54-ab53-e16a61fb05da","ios":"levelo://app?vid=c548ac70-1f60-4b54-ab53-e16a61fb05da"},"vehicle_type_id":"4","last_reported":1769084826,"current_range_meters":6400,"station_id":"ce4bgr92rcd13ifvqc7g","pricing_plan_id":"cebpf4jnsgd1na2vs0mg"},{"bike_id":"62931247-4aff-4f68-9011-cb1aa7863151","system_id":"levelo_inurba_marseille","lat":43.2558,"lon":5.38251,"is_reserved":false,"is_disabled":false,"rental_uris":{"android":"levelo://app?vid=62931247-4aff-4f68-9011-cb1aa7863151","ios":"levelo://app?vid=62931247-4aff-4f68-9011-cb1aa7863151"},"vehicle_type_id":"4","last_reported":1769084826,"current_range_meters":6400,"station_id":"ce4bhih2rcd13ifvqfs0","pricing_plan_id":"cebpf4jnsgd1na2vs0mg"},{"bike_id":"b74ed38c-8073-4ba5-905e-8cdabc2cf58c","system_id":"levelo_inurba_marseille","lat":43.2315,"lon":5.43726,"is_reserved":false,"is_disabled":false,"rental_uris":{"android":"levelo://app?vid=b74ed38c-8073-4ba5-905e-8cdabc2cf58c","ios":"levelo://app?vid=b74ed38c-8073-4ba5-905e-8cdabc2cf58c"},"vehicle_type_id":"4","last_reported":1769084826,"current_range_meters":6400,"station_id":"ce4bhmp2rcd13ifvqgog","pricing_plan_id":"cebpf4jnsgd1na2vs0mg"},{"bike_id":"5b8789d8-8a74-46cb-9a03-3650cf54c996","system_id":"levelo_inurba_marseille","lat":43.2465,"lon":5.43157,"is_reserved":false,"is_disabled":false,"rental_uris":{"android":"levelo://app?vid=5b8789d8-8a74-46cb-9a03-3650cf54c996","ios":"levelo://app?vid=5b8789d8-8a74-46cb-9a03-3650cf54c996"},"vehicle_type_id":"4","last_reported":1769084826,"current_range_meters":6400,"station_id":"st_d2m6c4gdas8pm72e190g","pricing_plan_id":"cebpf4jnsgd1na2vs0mg"},{"bike_id":"0da72354-4265-41f4-82cc-5df68d6d06d4","system_id":"levelo_inurba_marseille","lat":43.24065,"lon":5.37769,"is_reserved":false,"is_disabled":false,"rental_uris":{"android":"levelo://app?vid=0da72354-4265-41f4-82cc-5df68d6d06d4","ios":"levelo://app?vid=0da72354-4265-41f4-82cc-5df68d6d06d4"},"vehicle_type_id":"4","last_reported":1769084826,"current_range_meters":6400,"station_id":"ce4bhnp2rcd13ifvqgvg","pricing_plan_id":"cebpf4jnsgd1na2vs0mg"},{"bike_id":"af3e4ec7-913b-43cf-991c-29cf9d90a50c","system_id":"levelo_inurba_marseille","lat":43.31063,"lon":5.37155,"is_reserved":false,"is_disabled":false,"rental_uris":{"android":"levelo://app?vid=af3e4ec7-913b-43cf-991c-29cf9d90a50c","ios":"levelo://app?vid=af3e4ec7-913b-43cf-991c-29cf9d90a50c"},"vehicle_type_id":"4","last_reported":1769084826,"current_range_meters":6400,"station_id":"st_d4kl2rp97mjs73e7tdfg","pricing_plan_id":"cebpf4jnsgd1na2vs0mg"},{"bike_id":"f52ae717-6764-4b85-9f20-3d7d4e4c5ff9","system_id":"levelo_inurba_marseille","lat":43.289755,"lon":5.37834,"is_reserved":false,"is_disabled":false,"rental_uris":{"android":"levelo://app?vid=f52ae717-6764-4b85-9f20-3d7d4e4c5ff9","ios":"levelo://app?vid=f52ae717-6764-4b85-9f20-3d7d4e4c5ff9"},"vehicle_type_id":"4","last_reported":1769084826,"current_range_meters":6800,"station_id":"ce4bh9p2rcd13ifvqed0","pricing_plan_id":"cebpf4jnsgd1na2vs0mg"},{"bike_id":"96211231-e125-49f0-8cc9-82b3d3d6626e","system_id":"levelo_inurba_marseille","lat":43.25969,"lon":5.4089,"is_reserved":false,"is_disabled":false,"rental_uris":{"android":"levelo://app?vid=96211231-e125-49f0-8cc9-82b3d3d6626e","ios":"levelo://app?vid=96211231-e125-49f0-8cc9-82b3d3d6626e"},"vehicle_type_id":"4","last_reported":1769084826,"current_range_meters":6800,"station_id":"ce4bhm92rcd13ifvqglg","pricing_plan_id":"cebpf4jnsgd1na2vs0mg"},{"bike_id":"01c732cc-5cd6-4f68-aa5b-bba65270e62e","system_id":"levelo_inurba_marseille","lat":43.30959,"lon":5.39077,"is_reserved":false,"is_disabled":false,"rental_uris":{"android":"levelo://app?vid=01c732cc-5cd6-4f68-aa5b-bba65270e62e","ios":"levelo://app?vid=01c732cc-5cd6-4f68-aa5b-bba65270e62e"},"vehicle_type_id":"4","last_reported":1769084826,"current_range_meters":6800,"station_id":"ce4bgup2rcd13ifvqco0","pricing_plan_id":"cebpf4jnsgd1na2vs0mg"},{"bike_id":"b1497b8a-91a3-4219-9714-db397e11f82b","system_id":"levelo_inurba_marseille","lat":43.27034,"lon":5.39251,"is_reserved":false,"is_disabled":false,"rental_uris":{"android":"levelo://app?vid=b1497b8a-91a3-4219-9714-db397e11f82b","ios":"levelo://app?vid=b1497b8a-91a3-4219-9714-db397e11f82b"},"vehicle_type_id":"4","last_reported":1769084826,"current_range_meters":6800,"station_id":"","pricing_plan_id":"cebpf4jnsgd1na2vs0mg"},{"bike_id":"d8344329-153b-4a08-9de8-fc84530e10b9","system_id":"levelo_inurba_marseille","lat":43.23785,"lon":5.36648,"is_reserved":false,"is_disabled":false,"rental_uris":{"android":"levelo://app?vid=d8344329-153b-4a08-9de8-fc84530e10b9","ios":"levelo://app?vid=d8344329-153b-4a08-9de8-fc84530e10b9"},"vehicle_type_id":"4","last_reported":1769084826,"current_range_meters":6800,"station_id":"st_d3nk18o9ro0c73en2l3g","pricing_plan_id":"cebpf4jnsgd1na2vs0mg"},{"bike_id":"4b5aa404-a223-4202-a9b4-4364010f0fb4","system_id":"levelo_inurba_marseille","lat":43.33763,"lon":5.37473,"is_reserved":false,"is_disabled":false,"rental_uris":{"android":"levelo://app?vid=4b5aa404-a223-4202-a9b4-4364010f0fb4","ios":"levelo://app?vid=4b5aa404-a223-4202-a9b4-4364010f0fb4"},"vehicle_type_id":"4","last_reported":1769084826,"current_range_meters":6800,"station_id":"","pricing_plan_id":"cebpf4jnsgd1na2vs0mg"},{"bike_id":"f98220fc-889d-44fd-83c4-b74d36c9d0de","system_id":"levelo_inurba_marseille","lat":43.30145,"lon":5.43114,"is_reserved":false,"is_disabled":false,"rental_uris":{"android":"levelo://app?vid=f98220fc-889d-44fd-83c4-b74d36c9d0de","ios":"levelo://app?vid=f98220fc-889d-44fd-83c4-b74d36c9d0de"},"vehicle_type_id":"4","last_reported":1769084826,"current_range_meters":6800,"station_id":"st_d3js3co5814s73ftftug","pricing_plan_id":"cebpf4jnsgd1na2vs0mg"},{"bike_id":"e91caa36-cdcc-47fc-a852-2e51c3010f53","system_id":"levelo_inurba_marseille","lat":43.31263,"lon":5.40168,"is_reserved":false,"is_disabled":false,"rental_uris":{"android":"levelo://app?vid=e91caa36-cdcc-47fc-a852-2e51c3010f53","ios":"levelo://app?vid=e91caa36-cdcc-47fc-a852-2e51c3010f53"},"vehicle_type_id":"4","last_reported":1769084826,"current_range_meters":6800,"station_id":"ce4bh092rcd13ifvqd30","pricing_plan_id":"cebpf4jnsgd1na2vs0mg"},{"bike_id":"68a97176-b5f0-40c2-844b-54696f24afa8","system_id":"levelo_inurba_marseille","lat":43.29591,"lon":5.3776,"is_reserved":false,"is_disabled":false,"rental_uris":{"android":"levelo://app?vid=68a97176-b5f0-40c2-844b-54696f24afa8","ios":"levelo://app?vid=68a97176-b5f0-40c2-844b-54696f24afa8"},"vehicle_type_id":"4","last_reported":1769084826,"current_range_meters":6800,"station_id":"","pricing_plan_id":"cebpf4jnsgd1na2vs0mg"},{"bike_id":"66b52710-c980-4dbe-934a-c3e8ffc0f9e1","system_id":"levelo_inurba_marseille","lat":43.33133,"lon":5.37711,"is_reserved":false,"is_disabled":false,"rental_uris":{"android":"levelo://app?vid=66b52710-c980-4dbe-934a-c3e8ffc0f9e1","ios":"levelo://app?vid=66b52710-c980-4dbe-934a-c3e8ffc0f9e1"},"vehicle_type_id":"4","last_reported":1769084826,"current_range_meters":6800,"station_id":"st_d46cu089ee8s73dldbu0","pricing_plan_id":"cebpf4jnsgd1na2vs0mg"},{"bike_id":"33299776-2c9b-4959-8c33-6a412a8deb29","system_id":"levelo_inurba_marseille","lat":43.23154,"lon":5.4372,"is_reserved":false,"is_disabled":false,"rental_uris":{"android":"levelo://app?vid=33299776-2c9b-4959-8c33-6a412a8deb29","ios":"levelo://app?vid=33299776-2c9b-4959-8c33-6a412a8deb29"},"vehicle_type_id":"4","last_reported":1769084826,"current_range_meters":6800,"station_id":"ce4bhmp2rcd13ifvqgog","pricing_plan_id":"cebpf4jnsgd1na2vs0mg"},{"bike_id":"22bc6d8e-7e0c-4234-afe0-c88e2589ac70","system_id":"levelo_inurba_marseille","lat":43.27058,"lon":5.3991,"is_reserved":false,"is_disabled":false,"rental_uris":{"android":"levelo://app?vid=22bc6d8e-7e0c-4234-afe0-c88e2589ac70","ios":"levelo://app?vid=22bc6d8e-7e0c-4234-afe0-c88e2589ac70"},"vehicle_type_id":"4","last_reported":1769084826,"current_range_meters":6800,"station_id":"","pricing_plan_id":"cebpf4jnsgd1na2vs0mg"},{"bike_id":"d68cd528-87dc-4a28-8471-721b0cea6df0","system_id":"levelo_inurba_marseille","lat":43.28185,"lon":5.39213,"is_reserved":false,"is_disabled":false,"rental_uris":{"android":"levelo://app?vid=d68cd528-87dc-4a28-8471-721b0cea6df0","ios":"levelo://app?vid=d68cd528-87dc-4a28-8471-721b0cea6df0"},"vehicle_type_id":"4","last_reported":1769084826,"current_range_meters":6800,"station_id":"","pricing_plan_id":"cebpf4jnsgd1na2vs0mg"},{"bike_id":"7772a790-f29a-43f5-898c-6eafe7fed317","system_id":"levelo_inurba_marseille","lat":43.29095,"lon":5.38136,"is_reserved":false,"is_disabled":false,"rental_uris":{"android":"levelo://app?vid=7772a790-f29a-43f5-898c-6eafe7fed317","ios":"levelo://app?vid=7772a790-f29a-43f5-898c-6eafe7fed317"},"vehicle_type_id":"4","last_reported":1769084826,"current_range_meters":6800,"station_id":"ce4bh512rcd13ifvqe2g","pricing_plan_id":"cebpf4jnsgd1na2vs0mg"},{"bike_id":"596c41c7-2beb-4c3c-8922-aa97d708cd66","system_id":"levelo_inurba_marseille","lat":43.32349,"lon":5.36732,"is_reserved":false,"is_disabled":false,"rental_uris":{"android":"levelo://app?vid=596c41c7-2beb-4c3c-8922-aa97d708cd66","ios":"levelo://app?vid=596c41c7-2beb-4c3c-8922-aa97d708cd66"},"vehicle_type_id":"4","last_reported":1769084826,"current_range_meters":6800,"station_id":"ce4bhsh2rcd13ifvqi2g","pricing_plan_id":"cebpf4jnsgd1na2vs0mg"},{"bike_id":"3206456b-45fe-4b57-ad6e-10515c2f78b7","system_id":"levelo_inurba_marseille","lat":43.24477,"lon":5.42539,"is_reserved":false,"is_disabled":false,"rental_uris":{"android":"levelo://app?vid=3206456b-45fe-4b57-ad6e-10515c2f78b7","ios":"levelo://app?vid=3206456b-45fe-4b57-ad6e-10515c2f78b7"},"vehicle_type_id":"4","last_reported":1769084826,"current_range_meters":6800,"station_id":"st_d4a3vfp97mjs738cd8kg","pricing_plan_id":"cebpf4jnsgd1na2vs0mg"},{"bike_id":"756842e0-b53e-46c2-a183-413f67f1a28f","system_id":"levelo_inurba_marseille","lat":43.30464,"lon":5.37906,"is_reserved":false,"is_disabled":false,"rental_uris":{"android":"levelo://app?vid=756842e0-b53e-46c2-a183-413f67f1a28f","ios":"levelo://app?vid=756842e0-b53e-46c2-a183-413f67f1a28f"},"vehicle_type_id":"4","last_reported":1769084826,"current_range_meters":7200,"station_id":"ce4bgup2rcd13ifvqcn0","pricing_plan_id":"cebpf4jnsgd1na2vs0mg"},{"bike_id":"d7611743-c0bd-4134-b9b6-f5b22485bb34","system_id":"levelo_inurba_marseille","lat":43.2407,"lon":5.37753,"is_reserved":false,"is_disabled":false,"rental_uris":{"android":"levelo://app?vid=d7611743-c0bd-4134-b9b6-f5b22485bb34","ios":"levelo://app?vid=d7611743-c0bd-4134-b9b6-f5b22485bb34"},"vehicle_type_id":"4","last_reported":1769084826,"current_range_meters":7200,"station_id":"ce4bhnp2rcd13ifvqgvg","pricing_plan_id":"cebpf4jnsgd1na2vs0mg"},{"bike_id":"f937a57b-876e-4112-8def-d43cc1095f9c","system_id":"levelo_inurba_marseille","lat":43.2593,"lon":5.40903,"is_reserved":false,"is_disabled":false,"rental_uris":{"android":"levelo://app?vid=f937a57b-876e-4112-8def-d43cc1095f9c","ios":"levelo://app?vid=f937a57b-876e-4112-8def-d43cc1095f9c"},"vehicle_type_id":"4","last_reported":1769084826,"current_range_meters":7200,"station_id":"ce4bhm92rcd13ifvqglg","pricing_plan_id":"cebpf4jnsgd1na2vs0mg"},{"bike_id":"db52c014-7507-43f9-8010-c9eb4d059d84","system_id":"levelo_inurba_marseille","lat":43.25094,"lon":5.39524,"is_reserved":false,"is_disabled":false,"rental_uris":{"android":"levelo://app?vid=db52c014-7507-43f9-8010-c9eb4d059d84","ios":"levelo://app?vid=db52c014-7507-43f9-8010-c9eb4d059d84"},"vehicle_type_id":"4","last_reported":1769084826,"current_range_meters":7200,"station_id":"ce4bhm12rcd13ifvqgkg","pricing_plan_id":"cebpf4jnsgd1na2vs0mg"},{"bike_id":"ccd513f0-682d-43a5-94d9-74b311e185d1","system_id":"levelo_inurba_marseille","lat":43.30566,"lon":5.36552,"is_reserved":false,"is_disabled":false,"rental_uris":{"android":"levelo://app?vid=ccd513f0-682d-43a5-94d9-74b311e185d1","ios":"levelo://app?vid=ccd513f0-682d-43a5-94d9-74b311e185d1"},"vehicle_type_id":"4","last_reported":1769084826,"current_range_meters":7200,"station_id":"ce4bgs12rcd13ifvqcag","pricing_plan_id":"cebpf4jnsgd1na2vs0mg"},{"bike_id":"9d86a94f-f259-4bff-8fc3-bc1bf1b477e4","system_id":"levelo_inurba_marseille","lat":43.2586,"lon":5.41815,"is_reserved":false,"is_disabled":false,"rental_uris":{"android":"levelo://app?vid=9d86a94f-f259-4bff-8fc3-bc1bf1b477e4","ios":"levelo://app?vid=9d86a94f-f259-4bff-8fc3-bc1bf1b477e4"},"vehicle_type_id":"4","last_reported":1769084826,"current_range_meters":7200,"station_id":"","pricing_plan_id":"cebpf4jnsgd1na2vs0mg"},{"bike_id":"9442084c-3381-47e8-b2dc-95ca76f97342","system_id":"levelo_inurba_marseille","lat":43.24996,"lon":5.38928,"is_reserved":false,"is_disabled":false,"rental_uris":{"android":"levelo://app?vid=9442084c-3381-47e8-b2dc-95ca76f97342","ios":"levelo://app?vid=9442084c-3381-47e8-b2dc-95ca76f97342"},"vehicle_type_id":"4","last_reported":1769084826,"current_range_meters":7200,"station_id":"ce4bhgp2rcd13ifvqfd0","pricing_plan_id":"cebpf4jnsgd1na2vs0mg"},{"bike_id":"f39628e7-f451-4af8-80af-ee31b074b0b2","system_id":"levelo_inurba_marseille","lat":43.285393,"lon":5.440966,"is_reserved":false,"is_disabled":false,"rental_uris":{"android":"levelo://app?vid=f39628e7-f451-4af8-80af-ee31b074b0b2","ios":"levelo://app?vid=f39628e7-f451-4af8-80af-ee31b074b0b2"},"vehicle_type_id":"4","last_reported":1769084826,"current_range_meters":7200,"station_id":"st_d3j3df2ikq2c7380ej80","pricing_plan_id":"cebpf4jnsgd1na2vs0mg"},{"bike_id":"f9143ecb-aade-4bb9-990c-9859476787e9","system_id":"levelo_inurba_marseille","lat":43.237828,"lon":5.366329,"is_reserved":false,"is_disabled":false,"rental_uris":{"android":"levelo://app?vid=f9143ecb-aade-4bb9-990c-9859476787e9","ios":"levelo://app?vid=f9143ecb-aade-4bb9-990c-9859476787e9"},"vehicle_type_id":"4","last_reported":1769084826,"current_range_meters":7200,"station_id":"st_d3nk18o9ro0c73en2l3g","pricing_plan_id":"cebpf4jnsgd1na2vs0mg"},{"bike_id":"6fedd87d-43f4-49d4-8c29-92430be6252f","system_id":"levelo_inurba_marseille","lat":43.28081,"lon":5.36652,"is_reserved":false,"is_disabled":false,"rental_uris":{"android":"levelo://app?vid=6fedd87d-43f4-49d4-8c29-92430be6252f","ios":"levelo://app?vid=6fedd87d-43f4-49d4-8c29-92430be6252f"},"vehicle_type_id":"4","last_reported":1769084826,"current_range_meters":7200,"station_id":"","pricing_plan_id":"cebpf4jnsgd1na2vs0mg"},{"bike_id":"c9dee47c-00b4-4792-bb20-0e804a11ccd5","system_id":"levelo_inurba_marseille","lat":43.301442,"lon":5.380913,"is_reserved":false,"is_disabled":false,"rental_uris":{"android":"levelo://app?vid=c9dee47c-00b4-4792-bb20-0e804a11ccd5","ios":"levelo://app?vid=c9dee47c-00b4-4792-bb20-0e804a11ccd5"},"vehicle_type_id":"4","last_reported":1769084826,"current_range_meters":7200,"station_id":"ce4bgjp2rcd13ifvqbh0","pricing_plan_id":"cebpf4jnsgd1na2vs0mg"},{"bike_id":"14a8ee4e-79d5-40ba-9f2d-be4d84ed1852","system_id":"levelo_inurba_marseille","lat":43.23157,"lon":5.43719,"is_reserved":false,"is_disabled":false,"rental_uris":{"android":"levelo://app?vid=14a8ee4e-79d5-40ba-9f2d-be4d84ed1852","ios":"levelo://app?vid=14a8ee4e-79d5-40ba-9f2d-be4d84ed1852"},"vehicle_type_id":"4","last_reported":1769084826,"current_range_meters":7200,"station_id":"ce4bhmp2rcd13ifvqgog","pricing_plan_id":"cebpf4jnsgd1na2vs0mg"},{"bike_id":"30f7428d-5c9b-46c4-9d00-dbf16f0f1b3b","system_id":"levelo_inurba_marseille","lat":43.24054,"lon":5.37743,"is_reserved":false,"is_disabled":false,"rental_uris":{"android":"levelo://app?vid=30f7428d-5c9b-46c4-9d00-dbf16f0f1b3b","ios":"levelo://app?vid=30f7428d-5c9b-46c4-9d00-dbf16f0f1b3b"},"vehicle_type_id":"4","last_reported":1769084826,"current_range_meters":7200,"station_id":"ce4bhnp2rcd13ifvqgvg","pricing_plan_id":"cebpf4jnsgd1na2vs0mg"},{"bike_id":"feaa501d-61a5-44de-af88-e639bbc9a92e","system_id":"levelo_inurba_marseille","lat":43.23784,"lon":5.36634,"is_reserved":false,"is_disabled":false,"rental_uris":{"android":"levelo://app?vid=feaa501d-61a5-44de-af88-e639bbc9a92e","ios":"levelo://app?vid=feaa501d-61a5-44de-af88-e639bbc9a92e"},"vehicle_type_id":"4","last_reported":1769084826,"current_range_meters":7200,"station_id":"st_d3nk18o9ro0c73en2l3g","pricing_plan_id":"cebpf4jnsgd1na2vs0mg"},{"bike_id":"754ac35f-65a5-4bba-8ae0-a96e52c53fb7","system_id":"levelo_inurba_marseille","lat":43.31169,"lon":5.38704,"is_reserved":false,"is_disabled":false,"rental_uris":{"android":"levelo://app?vid=754ac35f-65a5-4bba-8ae0-a96e52c53fb7","ios":"levelo://app?vid=754ac35f-65a5-4bba-8ae0-a96e52c53fb7"},"vehicle_type_id":"4","last_reported":1769084826,"current_range_meters":7200,"station_id":"ce4bgv12rcd13ifvqcp0","pricing_plan_id":"cebpf4jnsgd1na2vs0mg"},{"bike_id":"dfb6b791-badd-4621-9306-ea3c833e2455","system_id":"levelo_inurba_marseille","lat":43.32771,"lon":5.40707,"is_reserved":false,"is_disabled":false,"rental_uris":{"android":"levelo://app?vid=dfb6b791-badd-4621-9306-ea3c833e2455","ios":"levelo://app?vid=dfb6b791-badd-4621-9306-ea3c833e2455"},"vehicle_type_id":"4","last_reported":1769084826,"current_range_meters":7200,"station_id":"","pricing_plan_id":"cebpf4jnsgd1na2vs0mg"},{"bike_id":"9602bfb2-a38b-4065-8c80-dc0f09d03485","system_id":"levelo_inurba_marseille","lat":43.23189,"lon":5.35577,"is_reserved":false,"is_disabled":false,"rental_uris":{"android":"levelo://app?vid=9602bfb2-a38b-4065-8c80-dc0f09d03485","ios":"levelo://app?vid=9602bfb2-a38b-4065-8c80-dc0f09d03485"},"vehicle_type_id":"4","last_reported":1769084826,"current_range_meters":7200,"station_id":"ce4bhu92rcd13ifvqi70","pricing_plan_id":"cebpf4jnsgd1na2vs0mg"},{"bike_id":"53f2879f-b266-431f-832c-1df1cfd5ed6b","system_id":"levelo_inurba_marseille","lat":43.30538,"lon":5.36522,"is_reserved":false,"is_disabled":false,"rental_uris":{"android":"levelo://app?vid=53f2879f-b266-431f-832c-1df1cfd5ed6b","ios":"levelo://app?vid=53f2879f-b266-431f-832c-1df1cfd5ed6b"},"vehicle_type_id":"4","last_reported":1769084826,"current_range_meters":7200,"station_id":"ce4bgs12rcd13ifvqcag","pricing_plan_id":"cebpf4jnsgd1na2vs0mg"},{"bike_id":"53563e6b-7433-47cd-b7e5-a8b0077cc14f","system_id":"levelo_inurba_marseille","lat":43.24067,"lon":5.37773,"is_reserved":false,"is_disabled":false,"rental_uris":{"android":"levelo://app?vid=53563e6b-7433-47cd-b7e5-a8b0077cc14f","ios":"levelo://app?vid=53563e6b-7433-47cd-b7e5-a8b0077cc14f"},"vehicle_type_id":"4","last_reported":1769084826,"current_range_meters":8000,"station_id":"ce4bhnp2rcd13ifvqgvg","pricing_plan_id":"cebpf4jnsgd1na2vs0mg"},{"bike_id":"b53456d2-0b9c-41b3-9cdb-8499eaa6161f","system_id":"levelo_inurba_marseille","lat":43.30953,"lon":5.39036,"is_reserved":false,"is_disabled":false,"rental_uris":{"android":"levelo://app?vid=b53456d2-0b9c-41b3-9cdb-8499eaa6161f","ios":"levelo://app?vid=b53456d2-0b9c-41b3-9cdb-8499eaa6161f"},"vehicle_type_id":"4","last_reported":1769084826,"current_range_meters":8000,"station_id":"ce4bgup2rcd13ifvqco0","pricing_plan_id":"cebpf4jnsgd1na2vs0mg"},{"bike_id":"bca2f72e-00dc-416a-9eb6-45c1808c0c68","system_id":"levelo_inurba_marseille","lat":43.30484,"lon":5.37896,"is_reserved":false,"is_disabled":false,"rental_uris":{"android":"levelo://app?vid=bca2f72e-00dc-416a-9eb6-45c1808c0c68","ios":"levelo://app?vid=bca2f72e-00dc-416a-9eb6-45c1808c0c68"},"vehicle_type_id":"4","last_reported":1769084826,"current_range_meters":8000,"station_id":"ce4bgup2rcd13ifvqcn0","pricing_plan_id":"cebpf4jnsgd1na2vs0mg"},{"bike_id":"8faea1bc-2bab-43f5-883d-baf4d0b180cc","system_id":"levelo_inurba_marseille","lat":43.31113,"lon":5.37755,"is_reserved":false,"is_disabled":false,"rental_uris":{"android":"levelo://app?vid=8faea1bc-2bab-43f5-883d-baf4d0b180cc","ios":"levelo://app?vid=8faea1bc-2bab-43f5-883d-baf4d0b180cc"},"vehicle_type_id":"4","last_reported":1769084826,"current_range_meters":8000,"station_id":"ce4bgt92rcd13ifvqcg0","pricing_plan_id":"cebpf4jnsgd1na2vs0mg"},{"bike_id":"a2e16a74-8d4c-419e-acf2-09b9340b0862","system_id":"levelo_inurba_marseille","lat":43.29906,"lon":5.37497,"is_reserved":false,"is_disabled":false,"rental_uris":{"android":"levelo://app?vid=a2e16a74-8d4c-419e-acf2-09b9340b0862","ios":"levelo://app?vid=a2e16a74-8d4c-419e-acf2-09b9340b0862"},"vehicle_type_id":"4","last_reported":1769084826,"current_range_meters":8000,"station_id":"ce4bgjh2rcd13ifvqbg0","pricing_plan_id":"cebpf4jnsgd1na2vs0mg"},{"bike_id":"bc155171-5926-4120-a41f-255ec3666b8f","system_id":"levelo_inurba_marseille","lat":43.30144,"lon":5.38103,"is_reserved":false,"is_disabled":false,"rental_uris":{"android":"levelo://app?vid=bc155171-5926-4120-a41f-255ec3666b8f","ios":"levelo://app?vid=bc155171-5926-4120-a41f-255ec3666b8f"},"vehicle_type_id":"4","last_reported":1769084826,"current_range_meters":8000,"station_id":"ce4bgjp2rcd13ifvqbh0","pricing_plan_id":"cebpf4jnsgd1na2vs0mg"},{"bike_id":"591b5644-5fd4-46a5-8462-4e652135d379","system_id":"levelo_inurba_marseille","lat":43.29095,"lon":5.38139,"is_reserved":false,"is_disabled":false,"rental_uris":{"android":"levelo://app?vid=591b5644-5fd4-46a5-8462-4e652135d379","ios":"levelo://app?vid=591b5644-5fd4-46a5-8462-4e652135d379"},"vehicle_type_id":"4","last_reported":1769084826,"current_range_meters":8000,"station_id":"ce4bh512rcd13ifvqe2g","pricing_plan_id":"cebpf4jnsgd1na2vs0mg"},{"bike_id":"3b364841-63d1-4d4f-bb34-83c89b251a49","system_id":"levelo_inurba_marseille","lat":43.308905,"lon":5.372013,"is_reserved":false,"is_disabled":false,"rental_uris":{"android":"levelo://app?vid=3b364841-63d1-4d4f-bb34-83c89b251a49","ios":"levelo://app?vid=3b364841-63d1-4d4f-bb34-83c89b251a49"},"vehicle_type_id":"4","last_reported":1769084826,"current_range_meters":8000,"station_id":"ce4bguh2rcd13ifvqckg","pricing_plan_id":"cebpf4jnsgd1na2vs0mg"},{"bike_id":"3a151a5b-63c8-4f33-b7c5-ad8aab7d4e9c","system_id":"levelo_inurba_marseille","lat":43.28626,"lon":5.3511,"is_reserved":false,"is_disabled":false,"rental_uris":{"android":"levelo://app?vid=3a151a5b-63c8-4f33-b7c5-ad8aab7d4e9c","ios":"levelo://app?vid=3a151a5b-63c8-4f33-b7c5-ad8aab7d4e9c"},"vehicle_type_id":"4","last_reported":1769084826,"current_range_meters":8000,"station_id":"ce4bhch2rcd13ifvqeug","pricing_plan_id":"cebpf4jnsgd1na2vs0mg"},{"bike_id":"a9f26b00-32d0-4434-8e4d-6736741abe5e","system_id":"levelo_inurba_marseille","lat":43.27068,"lon":5.42293,"is_reserved":false,"is_disabled":false,"rental_uris":{"android":"levelo://app?vid=a9f26b00-32d0-4434-8e4d-6736741abe5e","ios":"levelo://app?vid=a9f26b00-32d0-4434-8e4d-6736741abe5e"},"vehicle_type_id":"4","last_reported":1769084826,"current_range_meters":8000,"station_id":"ce4bhk92rcd13ifvqgb0","pricing_plan_id":"cebpf4jnsgd1na2vs0mg"},{"bike_id":"4568df28-8966-47d1-8aff-4132d45a8570","system_id":"levelo_inurba_marseille","lat":43.29582,"lon":5.37512,"is_reserved":false,"is_disabled":false,"rental_uris":{"android":"levelo://app?vid=4568df28-8966-47d1-8aff-4132d45a8570","ios":"levelo://app?vid=4568df28-8966-47d1-8aff-4132d45a8570"},"vehicle_type_id":"4","last_reported":1769084826,"current_range_meters":8000,"station_id":"ce4bgh92rcd13ifvqb50","pricing_plan_id":"cebpf4jnsgd1na2vs0mg"},{"bike_id":"861bb7de-0e5d-4b2e-aab7-e5d1b3a5eab9","system_id":"levelo_inurba_marseille","lat":43.23157,"lon":5.43733,"is_reserved":false,"is_disabled":false,"rental_uris":{"android":"levelo://app?vid=861bb7de-0e5d-4b2e-aab7-e5d1b3a5eab9","ios":"levelo://app?vid=861bb7de-0e5d-4b2e-aab7-e5d1b3a5eab9"},"vehicle_type_id":"4","last_reported":1769084826,"current_range_meters":8000,"station_id":"ce4bhmp2rcd13ifvqgog","pricing_plan_id":"cebpf4jnsgd1na2vs0mg"},{"bike_id":"5630e9f9-70f3-4757-a8dd-7793cc2c1fe2","system_id":"levelo_inurba_marseille","lat":43.255657,"lon":5.382431,"is_reserved":false,"is_disabled":false,"rental_uris":{"android":"levelo://app?vid=5630e9f9-70f3-4757-a8dd-7793cc2c1fe2","ios":"levelo://app?vid=5630e9f9-70f3-4757-a8dd-7793cc2c1fe2"},"vehicle_type_id":"4","last_reported":1769084826,"current_range_meters":8000,"station_id":"ce4bhih2rcd13ifvqfs0","pricing_plan_id":"cebpf4jnsgd1na2vs0mg"},{"bike_id":"6cde08db-2d60-4fc0-a7d5-505f4f93c6d4","system_id":"levelo_inurba_marseille","lat":43.33553,"lon":5.37457,"is_reserved":false,"is_disabled":false,"rental_uris":{"android":"levelo://app?vid=6cde08db-2d60-4fc0-a7d5-505f4f93c6d4","ios":"levelo://app?vid=6cde08db-2d60-4fc0-a7d5-505f4f93c6d4"},"vehicle_type_id":"4","last_reported":1769084826,"current_range_meters":8000,"station_id":"","pricing_plan_id":"cebpf4jnsgd1na2vs0mg"},{"bike_id":"f334eac9-1990-4328-9072-df41648d0bee","system_id":"levelo_inurba_marseille","lat":43.268408,"lon":5.401705,"is_reserved":false,"is_disabled":false,"rental_uris":{"android":"levelo://app?vid=f334eac9-1990-4328-9072-df41648d0bee","ios":"levelo://app?vid=f334eac9-1990-4328-9072-df41648d0bee"},"vehicle_type_id":"4","last_reported":1769084826,"current_range_meters":8000,"station_id":"ce4bhkp2rcd13ifvqgd0","pricing_plan_id":"cebpf4jnsgd1na2vs0mg"},{"bike_id":"ff0abe3a-541a-4b03-b925-2d332a8f803b","system_id":"levelo_inurba_marseille","lat":43.27188,"lon":5.39179,"is_reserved":false,"is_disabled":false,"rental_uris":{"android":"levelo://app?vid=ff0abe3a-541a-4b03-b925-2d332a8f803b","ios":"levelo://app?vid=ff0abe3a-541a-4b03-b925-2d332a8f803b"},"vehicle_type_id":"4","last_reported":1769084826,"current_range_meters":8000,"station_id":"ce4bhhp2rcd13ifvqfm0","pricing_plan_id":"cebpf4jnsgd1na2vs0mg"},{"bike_id":"d88332fd-cbdc-4166-ba91-10e24a9e8b5e","system_id":"levelo_inurba_marseille","lat":43.30958,"lon":5.39036,"is_reserved":false,"is_disabled":false,"rental_uris":{"android":"levelo://app?vid=d88332fd-cbdc-4166-ba91-10e24a9e8b5e","ios":"levelo://app?vid=d88332fd-cbdc-4166-ba91-10e24a9e8b5e"},"vehicle_type_id":"4","last_reported":1769084826,"current_range_meters":8000,"station_id":"ce4bgup2rcd13ifvqco0","pricing_plan_id":"cebpf4jnsgd1na2vs0mg"},{"bike_id":"cbd6d55e-5809-4853-9878-dbbf6af6a148","system_id":"levelo_inurba_marseille","lat":43.28862,"lon":5.42523,"is_reserved":false,"is_disabled":false,"rental_uris":{"android":"levelo://app?vid=cbd6d55e-5809-4853-9878-dbbf6af6a148","ios":"levelo://app?vid=cbd6d55e-5809-4853-9878-dbbf6af6a148"},"vehicle_type_id":"4","last_reported":1769084826,"current_range_meters":8400,"station_id":"st_d3b462108ojc7389ooeg","pricing_plan_id":"cebpf4jnsgd1na2vs0mg"},{"bike_id":"12d65139-8fbd-418b-8523-1b0952363e37","system_id":"levelo_inurba_marseille","lat":43.24642,"lon":5.38907,"is_reserved":false,"is_disabled":false,"rental_uris":{"android":"levelo://app?vid=12d65139-8fbd-418b-8523-1b0952363e37","ios":"levelo://app?vid=12d65139-8fbd-418b-8523-1b0952363e37"},"vehicle_type_id":"4","last_reported":1769084826,"current_range_meters":8400,"station_id":"ce4bhg12rcd13ifvqf60","pricing_plan_id":"cebpf4jnsgd1na2vs0mg"},{"bike_id":"090da4bf-e1ff-427c-b741-8d3293006606","system_id":"levelo_inurba_marseille","lat":43.23205,"lon":5.35555,"is_reserved":false,"is_disabled":false,"rental_uris":{"android":"levelo://app?vid=090da4bf-e1ff-427c-b741-8d3293006606","ios":"levelo://app?vid=090da4bf-e1ff-427c-b741-8d3293006606"},"vehicle_type_id":"4","last_reported":1769084826,"current_range_meters":8400,"station_id":"ce4bhu92rcd13ifvqi70","pricing_plan_id":"cebpf4jnsgd1na2vs0mg"},{"bike_id":"ada24cbf-21a4-415f-beb7-8a5866d6dfcb","system_id":"levelo_inurba_marseille","lat":43.25582,"lon":5.38231,"is_reserved":false,"is_disabled":false,"rental_uris":{"android":"levelo://app?vid=ada24cbf-21a4-415f-beb7-8a5866d6dfcb","ios":"levelo://app?vid=ada24cbf-21a4-415f-beb7-8a5866d6dfcb"},"vehicle_type_id":"4","last_reported":1769084826,"current_range_meters":8400,"station_id":"ce4bhih2rcd13ifvqfs0","pricing_plan_id":"cebpf4jnsgd1na2vs0mg"},{"bike_id":"ae72a7f7-0a78-43a1-a80c-a2893de3e9bb","system_id":"levelo_inurba_marseille","lat":43.24816,"lon":5.37462,"is_reserved":false,"is_disabled":false,"rental_uris":{"android":"levelo://app?vid=ae72a7f7-0a78-43a1-a80c-a2893de3e9bb","ios":"levelo://app?vid=ae72a7f7-0a78-43a1-a80c-a2893de3e9bb"},"vehicle_type_id":"4","last_reported":1769084826,"current_range_meters":8400,"station_id":"ce4bhgh2rcd13ifvqfb0","pricing_plan_id":"cebpf4jnsgd1na2vs0mg"},{"bike_id":"983dfa04-9e71-401d-b498-feaefa1c2d24","system_id":"levelo_inurba_marseille","lat":43.26992,"lon":5.39203,"is_reserved":false,"is_disabled":false,"rental_uris":{"android":"levelo://app?vid=983dfa04-9e71-401d-b498-feaefa1c2d24","ios":"levelo://app?vid=983dfa04-9e71-401d-b498-feaefa1c2d24"},"vehicle_type_id":"4","last_reported":1769084826,"current_range_meters":8400,"station_id":"","pricing_plan_id":"cebpf4jnsgd1na2vs0mg"},{"bike_id":"1143d8bb-b3f3-4123-acc8-d00a51c8fc2d","system_id":"levelo_inurba_marseille","lat":43.299781,"lon":5.371793,"is_reserved":false,"is_disabled":false,"rental_uris":{"android":"levelo://app?vid=1143d8bb-b3f3-4123-acc8-d00a51c8fc2d","ios":"levelo://app?vid=1143d8bb-b3f3-4123-acc8-d00a51c8fc2d"},"vehicle_type_id":"4","last_reported":1769084826,"current_range_meters":8400,"station_id":"ce4bgr92rcd13ifvqc7g","pricing_plan_id":"cebpf4jnsgd1na2vs0mg"},{"bike_id":"983434e7-b7db-4a47-ba3e-cd485de0f943","system_id":"levelo_inurba_marseille","lat":43.30145,"lon":5.38092,"is_reserved":false,"is_disabled":false,"rental_uris":{"android":"levelo://app?vid=983434e7-b7db-4a47-ba3e-cd485de0f943","ios":"levelo://app?vid=983434e7-b7db-4a47-ba3e-cd485de0f943"},"vehicle_type_id":"4","last_reported":1769084826,"current_range_meters":8400,"station_id":"ce4bgjp2rcd13ifvqbh0","pricing_plan_id":"cebpf4jnsgd1na2vs0mg"},{"bike_id":"c462c4a3-3f5e-4fd1-8a2f-56615210c468","system_id":"levelo_inurba_marseille","lat":43.25843,"lon":5.38579,"is_reserved":false,"is_disabled":false,"rental_uris":{"android":"levelo://app?vid=c462c4a3-3f5e-4fd1-8a2f-56615210c468","ios":"levelo://app?vid=c462c4a3-3f5e-4fd1-8a2f-56615210c468"},"vehicle_type_id":"4","last_reported":1769084826,"current_range_meters":8400,"station_id":"","pricing_plan_id":"cebpf4jnsgd1na2vs0mg"},{"bike_id":"521f984b-b479-4097-8d0c-0ce22afdc144","system_id":"levelo_inurba_marseille","lat":43.30135,"lon":5.39846,"is_reserved":false,"is_disabled":false,"rental_uris":{"android":"levelo://app?vid=521f984b-b479-4097-8d0c-0ce22afdc144","ios":"levelo://app?vid=521f984b-b479-4097-8d0c-0ce22afdc144"},"vehicle_type_id":"4","last_reported":1769084826,"current_range_meters":8400,"station_id":"ce4bh0h2rcd13ifvqd40","pricing_plan_id":"cebpf4jnsgd1na2vs0mg"},{"bike_id":"48a13fb2-aa96-4e6e-9601-12ca0a4fdb46","system_id":"levelo_inurba_marseille","lat":43.24641,"lon":5.3891,"is_reserved":false,"is_disabled":false,"rental_uris":{"android":"levelo://app?vid=48a13fb2-aa96-4e6e-9601-12ca0a4fdb46","ios":"levelo://app?vid=48a13fb2-aa96-4e6e-9601-12ca0a4fdb46"},"vehicle_type_id":"4","last_reported":1769084826,"current_range_meters":8400,"station_id":"ce4bhg12rcd13ifvqf60","pricing_plan_id":"cebpf4jnsgd1na2vs0mg"},{"bike_id":"6bd1a5ab-41fd-43c7-adb4-59ab64e7fec3","system_id":"levelo_inurba_marseille","lat":43.26553,"lon":5.37291,"is_reserved":false,"is_disabled":false,"rental_uris":{"android":"levelo://app?vid=6bd1a5ab-41fd-43c7-adb4-59ab64e7fec3","ios":"levelo://app?vid=6bd1a5ab-41fd-43c7-adb4-59ab64e7fec3"},"vehicle_type_id":"4","last_reported":1769084826,"current_range_meters":8400,"station_id":"ce4bhg12rcd13ifvqf70","pricing_plan_id":"cebpf4jnsgd1na2vs0mg"},{"bike_id":"fa026bbf-9c12-43b8-a820-2f2ab3922f54","system_id":"levelo_inurba_marseille","lat":43.309032,"lon":5.368538,"is_reserved":false,"is_disabled":false,"rental_uris":{"android":"levelo://app?vid=fa026bbf-9c12-43b8-a820-2f2ab3922f54","ios":"levelo://app?vid=fa026bbf-9c12-43b8-a820-2f2ab3922f54"},"vehicle_type_id":"4","last_reported":1769084826,"current_range_meters":8400,"station_id":"ce4bgn92rcd13ifvqbvg","pricing_plan_id":"cebpf4jnsgd1na2vs0mg"},{"bike_id":"f903fd21-0804-4be6-9218-e52b837fda5b","system_id":"levelo_inurba_marseille","lat":43.28723,"lon":5.37925,"is_reserved":false,"is_disabled":false,"rental_uris":{"android":"levelo://app?vid=f903fd21-0804-4be6-9218-e52b837fda5b","ios":"levelo://app?vid=f903fd21-0804-4be6-9218-e52b837fda5b"},"vehicle_type_id":"4","last_reported":1769084826,"current_range_meters":8400,"station_id":"ce4bh9p2rcd13ifvqec0","pricing_plan_id":"cebpf4jnsgd1na2vs0mg"},{"bike_id":"2fa28398-73c6-40b0-abd2-13b571db7bc0","system_id":"levelo_inurba_marseille","lat":43.262099,"lon":5.379263,"is_reserved":false,"is_disabled":false,"rental_uris":{"android":"levelo://app?vid=2fa28398-73c6-40b0-abd2-13b571db7bc0","ios":"levelo://app?vid=2fa28398-73c6-40b0-abd2-13b571db7bc0"},"vehicle_type_id":"4","last_reported":1769084826,"current_range_meters":8400,"station_id":"ce4bhjp2rcd13ifvqg90","pricing_plan_id":"cebpf4jnsgd1na2vs0mg"},{"bike_id":"fb3ff625-62fd-4ae8-9254-8c4981e04e71","system_id":"levelo_inurba_marseille","lat":43.33145,"lon":5.37716,"is_reserved":false,"is_disabled":false,"rental_uris":{"android":"levelo://app?vid=fb3ff625-62fd-4ae8-9254-8c4981e04e71","ios":"levelo://app?vid=fb3ff625-62fd-4ae8-9254-8c4981e04e71"},"vehicle_type_id":"4","last_reported":1769084826,"current_range_meters":8400,"station_id":"st_d46cu089ee8s73dldbu0","pricing_plan_id":"cebpf4jnsgd1na2vs0mg"},{"bike_id":"2bd7b052-198e-4662-8aa6-61b0cac79738","system_id":"levelo_inurba_marseille","lat":43.272747,"lon":5.390734,"is_reserved":false,"is_disabled":false,"rental_uris":{"android":"levelo://app?vid=2bd7b052-198e-4662-8aa6-61b0cac79738","ios":"levelo://app?vid=2bd7b052-198e-4662-8aa6-61b0cac79738"},"vehicle_type_id":"4","last_reported":1769084826,"current_range_meters":8400,"station_id":"ce4bhgp2rcd13ifvqfe0","pricing_plan_id":"cebpf4jnsgd1na2vs0mg"},{"bike_id":"dc46bf46-763d-4b7a-9b3b-47e7a09bc6be","system_id":"levelo_inurba_marseille","lat":43.32187,"lon":5.40583,"is_reserved":false,"is_disabled":false,"rental_uris":{"android":"levelo://app?vid=dc46bf46-763d-4b7a-9b3b-47e7a09bc6be","ios":"levelo://app?vid=dc46bf46-763d-4b7a-9b3b-47e7a09bc6be"},"vehicle_type_id":"4","last_reported":1769084826,"current_range_meters":8400,"station_id":"","pricing_plan_id":"cebpf4jnsgd1na2vs0mg"},{"bike_id":"6055bb6e-3d5f-4359-bcc3-e96115ee8c1f","system_id":"levelo_inurba_marseille","lat":43.255766,"lon":5.382506,"is_reserved":false,"is_disabled":false,"rental_uris":{"android":"levelo://app?vid=6055bb6e-3d5f-4359-bcc3-e96115ee8c1f","ios":"levelo://app?vid=6055bb6e-3d5f-4359-bcc3-e96115ee8c1f"},"vehicle_type_id":"4","last_reported":1769084826,"current_range_meters":8800,"station_id":"ce4bhih2rcd13ifvqfs0","pricing_plan_id":"cebpf4jnsgd1na2vs0mg"},{"bike_id":"1a51c1a6-4125-451d-bdac-9cae5da4a3dc","system_id":"levelo_inurba_marseille","lat":43.28464,"lon":5.38419,"is_reserved":false,"is_disabled":false,"rental_uris":{"android":"levelo://app?vid=1a51c1a6-4125-451d-bdac-9cae5da4a3dc","ios":"levelo://app?vid=1a51c1a6-4125-451d-bdac-9cae5da4a3dc"},"vehicle_type_id":"4","last_reported":1769084826,"current_range_meters":8800,"station_id":"ce4bh512rcd13ifvqe3g","pricing_plan_id":"cebpf4jnsgd1na2vs0mg"},{"bike_id":"fd925f8e-899e-40ec-9287-4e65251eafb1","system_id":"levelo_inurba_marseille","lat":43.26805,"lon":5.38503,"is_reserved":false,"is_disabled":false,"rental_uris":{"android":"levelo://app?vid=fd925f8e-899e-40ec-9287-4e65251eafb1","ios":"levelo://app?vid=fd925f8e-899e-40ec-9287-4e65251eafb1"},"vehicle_type_id":"4","last_reported":1769084826,"current_range_meters":8800,"station_id":"","pricing_plan_id":"cebpf4jnsgd1na2vs0mg"},{"bike_id":"a1cf0267-a9c6-4cb7-b49a-598a4cc67209","system_id":"levelo_inurba_marseille","lat":43.231845,"lon":5.355449,"is_reserved":false,"is_disabled":false,"rental_uris":{"android":"levelo://app?vid=a1cf0267-a9c6-4cb7-b49a-598a4cc67209","ios":"levelo://app?vid=a1cf0267-a9c6-4cb7-b49a-598a4cc67209"},"vehicle_type_id":"4","last_reported":1769084826,"current_range_meters":8800,"station_id":"ce4bhu92rcd13ifvqi70","pricing_plan_id":"cebpf4jnsgd1na2vs0mg"},{"bike_id":"9864eb71-e1a9-41e3-a300-f80070833647","system_id":"levelo_inurba_marseille","lat":43.26563,"lon":5.40326,"is_reserved":false,"is_disabled":false,"rental_uris":{"android":"levelo://app?vid=9864eb71-e1a9-41e3-a300-f80070833647","ios":"levelo://app?vid=9864eb71-e1a9-41e3-a300-f80070833647"},"vehicle_type_id":"4","last_reported":1769084826,"current_range_meters":8800,"station_id":"ce4bhmp2rcd13ifvqgng","pricing_plan_id":"cebpf4jnsgd1na2vs0mg"},{"bike_id":"cc9f4717-497d-46b4-8770-89f5df0571cd","system_id":"levelo_inurba_marseille","lat":43.24389,"lon":5.37083,"is_reserved":false,"is_disabled":false,"rental_uris":{"android":"levelo://app?vid=cc9f4717-497d-46b4-8770-89f5df0571cd","ios":"levelo://app?vid=cc9f4717-497d-46b4-8770-89f5df0571cd"},"vehicle_type_id":"4","last_reported":1769084826,"current_range_meters":8800,"station_id":"ce4bhhh2rcd13ifvqfk0","pricing_plan_id":"cebpf4jnsgd1na2vs0mg"},{"bike_id":"2403f0bf-de39-4f6c-b1d8-f725bb90dee3","system_id":"levelo_inurba_marseille","lat":43.24166,"lon":5.36406,"is_reserved":false,"is_disabled":false,"rental_uris":{"android":"levelo://app?vid=2403f0bf-de39-4f6c-b1d8-f725bb90dee3","ios":"levelo://app?vid=2403f0bf-de39-4f6c-b1d8-f725bb90dee3"},"vehicle_type_id":"4","last_reported":1769084826,"current_range_meters":8800,"station_id":"cpo36qri1sfpv3e86is0","pricing_plan_id":"cebpf4jnsgd1na2vs0mg"},{"bike_id":"83fd25b2-0eb6-4c52-a978-8a8a8a40284a","system_id":"levelo_inurba_marseille","lat":43.26947,"lon":5.38625,"is_reserved":false,"is_disabled":false,"rental_uris":{"android":"levelo://app?vid=83fd25b2-0eb6-4c52-a978-8a8a8a40284a","ios":"levelo://app?vid=83fd25b2-0eb6-4c52-a978-8a8a8a40284a"},"vehicle_type_id":"4","last_reported":1769084826,"current_range_meters":8800,"station_id":"ce4bhh92rcd13ifvqfh0","pricing_plan_id":"cebpf4jnsgd1na2vs0mg"},{"bike_id":"249a4cf7-06f6-4fea-96cc-c9c6b750c37f","system_id":"levelo_inurba_marseille","lat":43.24164,"lon":5.36396,"is_reserved":false,"is_disabled":false,"rental_uris":{"android":"levelo://app?vid=249a4cf7-06f6-4fea-96cc-c9c6b750c37f","ios":"levelo://app?vid=249a4cf7-06f6-4fea-96cc-c9c6b750c37f"},"vehicle_type_id":"4","last_reported":1769084826,"current_range_meters":8800,"station_id":"cpo36qri1sfpv3e86is0","pricing_plan_id":"cebpf4jnsgd1na2vs0mg"},{"bike_id":"40e5e2c7-0e64-4220-a47b-eba55999faf7","system_id":"levelo_inurba_marseille","lat":43.22567,"lon":5.41621,"is_reserved":false,"is_disabled":false,"rental_uris":{"android":"levelo://app?vid=40e5e2c7-0e64-4220-a47b-eba55999faf7","ios":"levelo://app?vid=40e5e2c7-0e64-4220-a47b-eba55999faf7"},"vehicle_type_id":"4","last_reported":1769084826,"current_range_meters":8800,"station_id":"st_d2o4gvlbi1j2169b742g","pricing_plan_id":"cebpf4jnsgd1na2vs0mg"},{"bike_id":"c9c91417-1c93-40bd-ac7d-c76d147f675b","system_id":"levelo_inurba_marseille","lat":43.25001,"lon":5.38935,"is_reserved":false,"is_disabled":false,"rental_uris":{"android":"levelo://app?vid=c9c91417-1c93-40bd-ac7d-c76d147f675b","ios":"levelo://app?vid=c9c91417-1c93-40bd-ac7d-c76d147f675b"},"vehicle_type_id":"4","last_reported":1769084826,"current_range_meters":8800,"station_id":"ce4bhgp2rcd13ifvqfd0","pricing_plan_id":"cebpf4jnsgd1na2vs0mg"},{"bike_id":"2e3412de-bcc1-4643-b268-17cfdfed58f2","system_id":"levelo_inurba_marseille","lat":43.27198,"lon":5.39193,"is_reserved":false,"is_disabled":false,"rental_uris":{"android":"levelo://app?vid=2e3412de-bcc1-4643-b268-17cfdfed58f2","ios":"levelo://app?vid=2e3412de-bcc1-4643-b268-17cfdfed58f2"},"vehicle_type_id":"4","last_reported":1769084826,"current_range_meters":8800,"station_id":"ce4bhhp2rcd13ifvqfm0","pricing_plan_id":"cebpf4jnsgd1na2vs0mg"},{"bike_id":"0cd30a7b-e23d-4e83-9cdf-26d25a422cc3","system_id":"levelo_inurba_marseille","lat":43.304618,"lon":5.379148,"is_reserved":false,"is_disabled":false,"rental_uris":{"android":"levelo://app?vid=0cd30a7b-e23d-4e83-9cdf-26d25a422cc3","ios":"levelo://app?vid=0cd30a7b-e23d-4e83-9cdf-26d25a422cc3"},"vehicle_type_id":"4","last_reported":1769084826,"current_range_meters":8800,"station_id":"ce4bgup2rcd13ifvqcn0","pricing_plan_id":"cebpf4jnsgd1na2vs0mg"},{"bike_id":"dafaf639-8c17-4478-ae89-45f3a4e0f420","system_id":"levelo_inurba_marseille","lat":43.32103,"lon":5.36782,"is_reserved":false,"is_disabled":false,"rental_uris":{"android":"levelo://app?vid=dafaf639-8c17-4478-ae89-45f3a4e0f420","ios":"levelo://app?vid=dafaf639-8c17-4478-ae89-45f3a4e0f420"},"vehicle_type_id":"4","last_reported":1769084826,"current_range_meters":8800,"station_id":"ce4bhrh2rcd13ifvqhug","pricing_plan_id":"cebpf4jnsgd1na2vs0mg"},{"bike_id":"85769ba7-7e14-43db-85b5-49d42466c490","system_id":"levelo_inurba_marseille","lat":43.29623,"lon":5.3772,"is_reserved":false,"is_disabled":false,"rental_uris":{"android":"levelo://app?vid=85769ba7-7e14-43db-85b5-49d42466c490","ios":"levelo://app?vid=85769ba7-7e14-43db-85b5-49d42466c490"},"vehicle_type_id":"4","last_reported":1769084826,"current_range_meters":8800,"station_id":"ce4bgi92rcd13ifvqb90","pricing_plan_id":"cebpf4jnsgd1na2vs0mg"},{"bike_id":"267fb2bb-66f3-4c1f-a624-aae9270030c5","system_id":"levelo_inurba_marseille","lat":43.2293,"lon":5.35384,"is_reserved":false,"is_disabled":false,"rental_uris":{"android":"levelo://app?vid=267fb2bb-66f3-4c1f-a624-aae9270030c5","ios":"levelo://app?vid=267fb2bb-66f3-4c1f-a624-aae9270030c5"},"vehicle_type_id":"4","last_reported":1769084826,"current_range_meters":8800,"station_id":"cpo3532slgdg3j2ikp40","pricing_plan_id":"cebpf4jnsgd1na2vs0mg"},{"bike_id":"003040f3-3c33-4fcd-ac1b-c3cd1aec2434","system_id":"levelo_inurba_marseille","lat":43.25101,"lon":5.39578,"is_reserved":false,"is_disabled":false,"rental_uris":{"android":"levelo://app?vid=003040f3-3c33-4fcd-ac1b-c3cd1aec2434","ios":"levelo://app?vid=003040f3-3c33-4fcd-ac1b-c3cd1aec2434"},"vehicle_type_id":"4","last_reported":1769084826,"current_range_meters":8800,"station_id":"ce4bhm12rcd13ifvqgkg","pricing_plan_id":"cebpf4jnsgd1na2vs0mg"},{"bike_id":"ac9a53e6-8b03-42d1-9d22-200e9aa358de","system_id":"levelo_inurba_marseille","lat":43.32408,"lon":5.36604,"is_reserved":false,"is_disabled":false,"rental_uris":{"android":"levelo://app?vid=ac9a53e6-8b03-42d1-9d22-200e9aa358de","ios":"levelo://app?vid=ac9a53e6-8b03-42d1-9d22-200e9aa358de"},"vehicle_type_id":"4","last_reported":1769084826,"current_range_meters":8800,"station_id":"","pricing_plan_id":"cebpf4jnsgd1na2vs0mg"},{"bike_id":"53477a8a-200a-4a08-b617-a36d48dbee19","system_id":"levelo_inurba_marseille","lat":43.29607,"lon":5.3773,"is_reserved":false,"is_disabled":false,"rental_uris":{"android":"levelo://app?vid=53477a8a-200a-4a08-b617-a36d48dbee19","ios":"levelo://app?vid=53477a8a-200a-4a08-b617-a36d48dbee19"},"vehicle_type_id":"4","last_reported":1769084826,"current_range_meters":8800,"station_id":"ce4bgi92rcd13ifvqb90","pricing_plan_id":"cebpf4jnsgd1na2vs0mg"},{"bike_id":"7a44288c-76ef-42bd-aa63-09fedbfa4f09","system_id":"levelo_inurba_marseille","lat":43.244672,"lon":5.425422,"is_reserved":false,"is_disabled":false,"rental_uris":{"android":"levelo://app?vid=7a44288c-76ef-42bd-aa63-09fedbfa4f09","ios":"levelo://app?vid=7a44288c-76ef-42bd-aa63-09fedbfa4f09"},"vehicle_type_id":"4","last_reported":1769084826,"current_range_meters":8800,"station_id":"st_d4a3vfp97mjs738cd8kg","pricing_plan_id":"cebpf4jnsgd1na2vs0mg"},{"bike_id":"88188b24-2096-4127-ae81-f4888fd46d09","system_id":"levelo_inurba_marseille","lat":43.30492,"lon":5.37904,"is_reserved":false,"is_disabled":false,"rental_uris":{"android":"levelo://app?vid=88188b24-2096-4127-ae81-f4888fd46d09","ios":"levelo://app?vid=88188b24-2096-4127-ae81-f4888fd46d09"},"vehicle_type_id":"4","last_reported":1769084826,"current_range_meters":9200,"station_id":"ce4bgup2rcd13ifvqcn0","pricing_plan_id":"cebpf4jnsgd1na2vs0mg"},{"bike_id":"3e2deb9e-e71a-4d11-940d-76cd444019bd","system_id":"levelo_inurba_marseille","lat":43.30123,"lon":5.43107,"is_reserved":false,"is_disabled":false,"rental_uris":{"android":"levelo://app?vid=3e2deb9e-e71a-4d11-940d-76cd444019bd","ios":"levelo://app?vid=3e2deb9e-e71a-4d11-940d-76cd444019bd"},"vehicle_type_id":"4","last_reported":1769084826,"current_range_meters":9200,"station_id":"st_d3js3co5814s73ftftug","pricing_plan_id":"cebpf4jnsgd1na2vs0mg"},{"bike_id":"97cf7abb-37b9-4b16-9da3-b4d081055195","system_id":"levelo_inurba_marseille","lat":43.30141,"lon":5.37416,"is_reserved":false,"is_disabled":false,"rental_uris":{"android":"levelo://app?vid=97cf7abb-37b9-4b16-9da3-b4d081055195","ios":"levelo://app?vid=97cf7abb-37b9-4b16-9da3-b4d081055195"},"vehicle_type_id":"4","last_reported":1769084826,"current_range_meters":9200,"station_id":"ce4bgs92rcd13ifvqcc0","pricing_plan_id":"cebpf4jnsgd1na2vs0mg"},{"bike_id":"733d2f54-cd81-4838-963b-331436b0807a","system_id":"levelo_inurba_marseille","lat":43.28145,"lon":5.42646,"is_reserved":false,"is_disabled":false,"rental_uris":{"android":"levelo://app?vid=733d2f54-cd81-4838-963b-331436b0807a","ios":"levelo://app?vid=733d2f54-cd81-4838-963b-331436b0807a"},"vehicle_type_id":"4","last_reported":1769084826,"current_range_meters":9200,"station_id":"ce4bhnh2rcd13ifvqgug","pricing_plan_id":"cebpf4jnsgd1na2vs0mg"},{"bike_id":"e7976355-0661-4163-9b6b-c42b54da9723","system_id":"levelo_inurba_marseille","lat":43.24555,"lon":5.39525,"is_reserved":false,"is_disabled":false,"rental_uris":{"android":"levelo://app?vid=e7976355-0661-4163-9b6b-c42b54da9723","ios":"levelo://app?vid=e7976355-0661-4163-9b6b-c42b54da9723"},"vehicle_type_id":"4","last_reported":1769084826,"current_range_meters":9200,"station_id":"ce4bhlp2rcd13ifvqgjg","pricing_plan_id":"cebpf4jnsgd1na2vs0mg"},{"bike_id":"c810b0da-c681-48b0-962c-29a278949d7e","system_id":"levelo_inurba_marseille","lat":43.22925,"lon":5.35388,"is_reserved":false,"is_disabled":false,"rental_uris":{"android":"levelo://app?vid=c810b0da-c681-48b0-962c-29a278949d7e","ios":"levelo://app?vid=c810b0da-c681-48b0-962c-29a278949d7e"},"vehicle_type_id":"4","last_reported":1769084826,"current_range_meters":9200,"station_id":"cpo3532slgdg3j2ikp40","pricing_plan_id":"cebpf4jnsgd1na2vs0mg"},{"bike_id":"4289f0cf-d95b-41d5-8ced-ea98ca673e4a","system_id":"levelo_inurba_marseille","lat":43.24656,"lon":5.38141,"is_reserved":false,"is_disabled":false,"rental_uris":{"android":"levelo://app?vid=4289f0cf-d95b-41d5-8ced-ea98ca673e4a","ios":"levelo://app?vid=4289f0cf-d95b-41d5-8ced-ea98ca673e4a"},"vehicle_type_id":"4","last_reported":1769084826,"current_range_meters":9200,"station_id":"ce4bhih2rcd13ifvqfr0","pricing_plan_id":"cebpf4jnsgd1na2vs0mg"},{"bike_id":"300d0ab3-9907-4fcf-aeef-7590f26b352a","system_id":"levelo_inurba_marseille","lat":43.30646,"lon":5.40066,"is_reserved":false,"is_disabled":false,"rental_uris":{"android":"levelo://app?vid=300d0ab3-9907-4fcf-aeef-7590f26b352a","ios":"levelo://app?vid=300d0ab3-9907-4fcf-aeef-7590f26b352a"},"vehicle_type_id":"4","last_reported":1769084826,"current_range_meters":9200,"station_id":"ce4bh112rcd13ifvqda0","pricing_plan_id":"cebpf4jnsgd1na2vs0mg"},{"bike_id":"dcaca286-10d8-44fb-a8e8-d4128ccf9b29","system_id":"levelo_inurba_marseille","lat":43.23205,"lon":5.39995,"is_reserved":false,"is_disabled":false,"rental_uris":{"android":"levelo://app?vid=dcaca286-10d8-44fb-a8e8-d4128ccf9b29","ios":"levelo://app?vid=dcaca286-10d8-44fb-a8e8-d4128ccf9b29"},"vehicle_type_id":"4","last_reported":1769084826,"current_range_meters":9200,"station_id":"ce4bhn12rcd13ifvqgqg","pricing_plan_id":"cebpf4jnsgd1na2vs0mg"},{"bike_id":"9bcc74ff-bb21-459b-8c89-b1049e46743c","system_id":"levelo_inurba_marseille","lat":43.24634,"lon":5.43165,"is_reserved":false,"is_disabled":false,"rental_uris":{"android":"levelo://app?vid=9bcc74ff-bb21-459b-8c89-b1049e46743c","ios":"levelo://app?vid=9bcc74ff-bb21-459b-8c89-b1049e46743c"},"vehicle_type_id":"4","last_reported":1769084826,"current_range_meters":9200,"station_id":"st_d2m6c4gdas8pm72e190g","pricing_plan_id":"cebpf4jnsgd1na2vs0mg"},{"bike_id":"05d6e816-c599-4137-a30a-5127b06dbfc0","system_id":"levelo_inurba_marseille","lat":43.28152,"lon":5.42643,"is_reserved":false,"is_disabled":false,"rental_uris":{"android":"levelo://app?vid=05d6e816-c599-4137-a30a-5127b06dbfc0","ios":"levelo://app?vid=05d6e816-c599-4137-a30a-5127b06dbfc0"},"vehicle_type_id":"4","last_reported":1769084826,"current_range_meters":9200,"station_id":"ce4bhnh2rcd13ifvqgug","pricing_plan_id":"cebpf4jnsgd1na2vs0mg"},{"bike_id":"e5eb27b5-8cd8-4495-8ae8-cfcbea3b123a","system_id":"levelo_inurba_marseille","lat":43.25937,"lon":5.40898,"is_reserved":false,"is_disabled":false,"rental_uris":{"android":"levelo://app?vid=e5eb27b5-8cd8-4495-8ae8-cfcbea3b123a","ios":"levelo://app?vid=e5eb27b5-8cd8-4495-8ae8-cfcbea3b123a"},"vehicle_type_id":"4","last_reported":1769084826,"current_range_meters":9200,"station_id":"ce4bhm92rcd13ifvqglg","pricing_plan_id":"cebpf4jnsgd1na2vs0mg"},{"bike_id":"11e3415c-5f3b-4ead-a1ad-e801ec8c2563","system_id":"levelo_inurba_marseille","lat":43.29271,"lon":5.3761,"is_reserved":false,"is_disabled":false,"rental_uris":{"android":"levelo://app?vid=11e3415c-5f3b-4ead-a1ad-e801ec8c2563","ios":"levelo://app?vid=11e3415c-5f3b-4ead-a1ad-e801ec8c2563"},"vehicle_type_id":"4","last_reported":1769084826,"current_range_meters":9200,"station_id":"ce4bgi12rcd13ifvqb80","pricing_plan_id":"cebpf4jnsgd1na2vs0mg"},{"bike_id":"d189aaa1-706e-418b-babd-3d9c6b6ccf81","system_id":"levelo_inurba_marseille","lat":43.275492,"lon":5.409358,"is_reserved":false,"is_disabled":false,"rental_uris":{"android":"levelo://app?vid=d189aaa1-706e-418b-babd-3d9c6b6ccf81","ios":"levelo://app?vid=d189aaa1-706e-418b-babd-3d9c6b6ccf81"},"vehicle_type_id":"4","last_reported":1769084826,"current_range_meters":9200,"station_id":"","pricing_plan_id":"cebpf4jnsgd1na2vs0mg"},{"bike_id":"92295e8e-aa68-4e38-8fb7-fb93e0d44651","system_id":"levelo_inurba_marseille","lat":43.23194,"lon":5.35539,"is_reserved":false,"is_disabled":false,"rental_uris":{"android":"levelo://app?vid=92295e8e-aa68-4e38-8fb7-fb93e0d44651","ios":"levelo://app?vid=92295e8e-aa68-4e38-8fb7-fb93e0d44651"},"vehicle_type_id":"4","last_reported":1769084826,"current_range_meters":9200,"station_id":"ce4bhu92rcd13ifvqi70","pricing_plan_id":"cebpf4jnsgd1na2vs0mg"},{"bike_id":"9f9c4f85-7d9e-4e8a-9123-cbd1f8de03db","system_id":"levelo_inurba_marseille","lat":43.31842,"lon":5.38989,"is_reserved":false,"is_disabled":false,"rental_uris":{"android":"levelo://app?vid=9f9c4f85-7d9e-4e8a-9123-cbd1f8de03db","ios":"levelo://app?vid=9f9c4f85-7d9e-4e8a-9123-cbd1f8de03db"},"vehicle_type_id":"4","last_reported":1769084826,"current_range_meters":9200,"station_id":"","pricing_plan_id":"cebpf4jnsgd1na2vs0mg"},{"bike_id":"324cd82f-1083-4204-b317-811809b2300e","system_id":"levelo_inurba_marseille","lat":43.29189,"lon":5.37274,"is_reserved":false,"is_disabled":false,"rental_uris":{"android":"levelo://app?vid=324cd82f-1083-4204-b317-811809b2300e","ios":"levelo://app?vid=324cd82f-1083-4204-b317-811809b2300e"},"vehicle_type_id":"4","last_reported":1769084826,"current_range_meters":9200,"station_id":"","pricing_plan_id":"cebpf4jnsgd1na2vs0mg"},