{"last_updated":1733663857,"ttl":60,"version":"2.2","data":{"bikes":[{"bike_id":"315cda4d-54e6-44c6-9a3e-df4c6e9b61b0","system_id":"levelo_inurba_marseille","lat":43.337444,"lon":5.374475,"is_reserved":false,"is_disabled":false,"rental_uris":{"android":"levelo://app?vid=315cda4d-54e6-44c6-9a3e-df4c6e9b61b0","ios":"levelo://app?vid=315cda4d-54e6-44c6-9a3e-df4c6e9b61b0"},"vehicle_type_id":"4","last_reported":1733663857,"current_range_meters":16400,"station_id":"","pricing_plan_id":"cebpf4jnsgd1na2vs0mg"},{"bike_id":"13ae5cad-1e83-4992-8439-61536ce16b55","system_id":"levelo_inurba_marseille","lat":43.29564,"lon":5.3755,"is_reserved":false,"is_disabled":false,"rental_uris":{"android":"levelo://app?vid=13ae5cad-1e83-4992-8439-61536ce16b55","ios":"levelo://app?vid=13ae5cad-1e83-4992-8439-61536ce16b55"},"vehicle_type_id":"4","last_reported":1733663857,"current_range_meters":32800,"station_id":"ce4bgh92rcd13ifvqb50","pricing_plan_id":"cebpf4jnsgd1na2vs0mg"},{"bike_id":"55d7a831-40f8-4501-9bc4-264da11c1dd0","system_id":"levelo_inurba_marseille","lat":43.292633,"lon":5.401186,"is_reserved":false,"is_disabled":true,"rental_uris":{"android":"levelo://app?vid=55d7a831-40f8-4501-9bc4-264da11c1dd0","ios":"levelo://app?vid=55d7a831-40f8-4501-9bc4-264da11c1dd0"},"vehicle_type_id":"4","last_reported":1733663857,"current_range_meters":22800,"station_id":"ce4bh312rcd13ifvqdk0","pricing_plan_id":"cebpf4jnsgd1na2vs0mg"},{"bike_id":"8e029eaf-e104-4c5d-858d-6cd39de73d09","system_id":"levelo_inurba_marseille","lat":43.24167,"lon":5.36395,"is_reserved":false,"is_disabled":false,"rental_uris":{"android":"levelo://app?vid=8e029eaf-e104-4c5d-858d-6cd39de73d09","ios":"levelo://app?vid=8e029eaf-e104-4c5d-858d-6cd39de73d09"},"vehicle_type_id":"4","last_reported":1733663857,"current_range_meters":27200,"station_id":"cpo36qri1sfpv3e86is0","pricing_plan_id":"cebpf4jnsgd1na2vs0mg"},{"bike_id":"7dea0d96-70fa-4522-82a7-67f7fc092a81","system_id":"levelo_inurba_marseille","lat":43.29578,"lon":5.37519,"is_reserved":false,"is_disabled":true,"rental_uris":{"android":"levelo://app?vid=7dea0d96-70fa-4522-82a7-67f7fc092a81","ios":"levelo://app?vid=7dea0d96-70fa-4522-82a7-67f7fc092a81"},"vehicle_type_id":"4","last_reported":1733663857,"current_range_meters":0,"station_id":"ce4bgh92rcd13ifvqb50","pricing_plan_id":"cebpf4jnsgd1na2vs0mg"},{"bike_id":"57f9d204-854c-45fc-9046-daeeecec359e","system_id":"levelo_inurba_marseille","lat":43.28459,"lon":5.39108,"is_reserved":false,"is_disabled":false,"rental_uris":{"android":"levelo://app?vid=57f9d204-854c-45fc-9046-daeeecec359e","ios":"levelo://app?vid=57f9d204-854c-45fc-9046-daeeecec359e"},"vehicle_type_id":"4","last_reported":1733663857,"current_range_meters":23200,"station_id":"","pricing_plan_id":"cebpf4jnsgd1na2vs0mg"},{"bike_id":"e232d7ae-0864-4a70-8b5e-627ae37536a1","system_id":"levelo_inurba_marseille","lat":43.28097,"lon":5.37851,"is_reserved":false,"is_disabled":false,"rental_uris":{"android":"levelo://app?vid=e232d7ae-0864-4a70-8b5e-627ae37536a1","ios":"levelo://app?vid=e232d7ae-0864-4a70-8b5e-627ae37536a1"},"vehicle_type_id":"4","last_reported":1733663857,"current_range_meters":38800,"station_id":"ce4bha12rcd13ifvqee0","pricing_plan_id":"cebpf4jnsgd1na2vs0mg"},{"bike_id":"e37f0f48-ff13-4242-bca9-0687552cbad4","system_id":"levelo_inurba_marseille","lat":43.33023,"lon":5.39041,"is_reserved":false,"is_disabled":true,"rental_uris":{"android":"levelo://app?vid=e37f0f48-ff13-4242-bca9-0687552cbad4","ios":"levelo://app?vid=e37f0f48-ff13-4242-bca9-0687552cbad4"},"vehicle_type_id":"4","last_reported":1733663857,"current_range_meters":0,"station_id":"ce4bhr92rcd13ifvqhrg","pricing_plan_id":"cebpf4jnsgd1na2vs0mg"},{"bike_id":"f9e2e07a-1a1c-476a-b907-f71ab25c578d","system_id":"levelo_inurba_marseille","lat":43.31488,"lon":5.37299,"is_reserved":false,"is_disabled":false,"rental_uris":{"android":"levelo://app?vid=f9e2e07a-1a1c-476a-b907-f71ab25c578d","ios":"levelo://app?vid=f9e2e07a-1a1c-476a-b907-f71ab25c578d"},"vehicle_type_id":"4","last_reported":1733663857,"current_range_meters":37600,"station_id":"ce4bgt12rcd13ifvqcd0","pricing_plan_id":"cebpf4jnsgd1na2vs0mg"},{"bike_id":"ba5e9603-9efa-46a1-a491-af58be8cd5cb","system_id":"levelo_inurba_marseille","lat":43.32361,"lon":5.36755,"is_reserved":false,"is_disabled":false,"rental_uris":{"android":"levelo://app?vid=ba5e9603-9efa-46a1-a491-af58be8cd5cb","ios":"levelo://app?vid=ba5e9603-9efa-46a1-a491-af58be8cd5cb"},"vehicle_type_id":"4","last_reported":1733663857,"current_range_meters":38800,"station_id":"ce4bhsh2rcd13ifvqi2g","pricing_plan_id":"cebpf4jnsgd1na2vs0mg"},{"bike_id":"5fd8fda4-5ceb-4e39-b9f4-ea27acda2ce7","system_id":"levelo_inurba_marseille","lat":43.27168,"lon":5.41008,"is_reserved":false,"is_disabled":true,"rental_uris":{"android":"levelo://app?vid=5fd8fda4-5ceb-4e39-b9f4-ea27acda2ce7","ios":"levelo://app?vid=5fd8fda4-5ceb-4e39-b9f4-ea27acda2ce7"},"vehicle_type_id":"4","last_reported":1733663857,"current_range_meters":16400,"station_id":"ce4bhl12rcd13ifvqgf0","pricing_plan_id":"cebpf4jnsgd1na2vs0mg"},{"bike_id":"52edc105-c91c-4e7e-a222-25f8ae5974e3","system_id":"levelo_inurba_marseille","lat":43.24068,"lon":5.37768,"is_reserved":false,"is_disabled":false,"rental_uris":{"android":"levelo://app?vid=52edc105-c91c-4e7e-a222-25f8ae5974e3","ios":"levelo://app?vid=52edc105-c91c-4e7e-a222-25f8ae5974e3"},"vehicle_type_id":"4","last_reported":1733663857,"current_range_meters":37600,"station_id":"ce4bhnp2rcd13ifvqgvg","pricing_plan_id":"cebpf4jnsgd1na2vs0mg"},{"bike_id":"538805e0-e41a-499a-9f0c-524af8f25bac","system_id":"levelo_inurba_marseille","lat":43.29705,"lon":5.37696,"is_reserved":false,"is_disabled":false,"rental_uris":{"android":"levelo://app?vid=538805e0-e41a-499a-9f0c-524af8f25bac","ios":"levelo://app?vid=538805e0-e41a-499a-9f0c-524af8f25bac"},"vehicle_type_id":"4","last_reported":1733663857,"current_range_meters":22000,"station_id":"ce4bgkh2rcd13ifvqbl0","pricing_plan_id":"cebpf4jnsgd1na2vs0mg"},{"bike_id":"8bd642b2-0279-44c7-9ee2-fc3b57332c83","system_id":"levelo_inurba_marseille","lat":43.27455,"lon":5.40073,"is_reserved":false,"is_disabled":true,"rental_uris":{"android":"levelo://app?vid=8bd642b2-0279-44c7-9ee2-fc3b57332c83","ios":"levelo://app?vid=8bd642b2-0279-44c7-9ee2-fc3b57332c83"},"vehicle_type_id":"4","last_reported":1733663857,"current_range_meters":0,"station_id":"","pricing_plan_id":"cebpf4jnsgd1na2vs0mg"},{"bike_id":"e0498b29-2e4c-4b28-a66c-2d119e087c01","system_id":"levelo_inurba_marseille","lat":43.32286,"lon":5.38271,"is_reserved":false,"is_disabled":false,"rental_uris":{"android":"levelo://app?vid=e0498b29-2e4c-4b28-a66c-2d119e087c01","ios":"levelo://app?vid=e0498b29-2e4c-4b28-a66c-2d119e087c01"},"vehicle_type_id":"4","last_reported":1733663857,"current_range_meters":38800,"station_id":"ce4bhr12rcd13ifvqhqg","pricing_plan_id":"cebpf4jnsgd1na2vs0mg"},{"bike_id":"6493e3b1-962c-4d7a-b70f-d32701f8a207","system_id":"levelo_inurba_marseille","lat":43.29268,"lon":5.36849,"is_reserved":false,"is_disabled":false,"rental_uris":{"android":"levelo://app?vid=6493e3b1-962c-4d7a-b70f-d32701f8a207","ios":"levelo://app?vid=6493e3b1-962c-4d7a-b70f-d32701f8a207"},"vehicle_type_id":"4","last_reported":1733663857,"current_range_meters":36800,"station_id":"ce4bhbp2rcd13ifvqesg","pricing_plan_id":"cebpf4jnsgd1na2vs0mg"},{"bike_id":"30de661d-5371-4f89-90b5-618bec8cd41d","system_id":"levelo_inurba_marseille","lat":43.27973,"lon":5.38744,"is_reserved":false,"is_disabled":false,"rental_uris":{"android":"levelo://app?vid=30de661d-5371-4f89-90b5-618bec8cd41d","ios":"levelo://app?vid=30de661d-5371-4f89-90b5-618bec8cd41d"},"vehicle_type_id":"4","last_reported":1733663857,"current_range_meters":37600,"station_id":"ce4bhg12rcd13ifvqf80","pricing_plan_id":"cebpf4jnsgd1na2vs0mg"},{"bike_id":"8cc5bd9f-1481-4888-bc51-78094ec5f410","system_id":"levelo_inurba_marseille","lat":43.28998,"lon":5.3562,"is_reserved":false,"is_disabled":false,"rental_uris":{"android":"levelo://app?vid=8cc5bd9f-1481-4888-bc51-78094ec5f410","ios":"levelo://app?vid=8cc5bd9f-1481-4888-bc51-78094ec5f410"},"vehicle_type_id":"4","last_reported":1733663857,"current_range_meters":24000,"station_id":"ce4bhb92rcd13ifvqen0","pricing_plan_id":"cebpf4jnsgd1na2vs0mg"},{"bike_id":"893707df-4672-481f-be20-18cac10a1634","system_id":"levelo_inurba_marseille","lat":43.30781,"lon":5.37654,"is_reserved":false,"is_disabled":false,"rental_uris":{"android":"levelo://app?vid=893707df-4672-481f-be20-18cac10a1634","ios":"levelo://app?vid=893707df-4672-481f-be20-18cac10a1634"},"vehicle_type_id":"4","last_reported":1733663857,"current_range_meters":38800,"station_id":"ce4bgv92rcd13ifvqcq0","pricing_plan_id":"cebpf4jnsgd1na2vs0mg"},{"bike_id":"cb442d5a-cce0-41d7-9c51-b4c2e4d876d4","system_id":"levelo_inurba_marseille","lat":43.32643,"lon":5.3648,"is_reserved":false,"is_disabled":false,"rental_uris":{"android":"levelo://app?vid=cb442d5a-cce0-41d7-9c51-b4c2e4d876d4","ios":"levelo://app?vid=cb442d5a-cce0-41d7-9c51-b4c2e4d876d4"},"vehicle_type_id":"4","last_reported":1733663857,"current_range_meters":32400,"station_id":"","pricing_plan_id":"cebpf4jnsgd1na2vs0mg"},{"bike_id":"650aedbd-7fe9-41b2-ab79-4b8450652642","system_id":"levelo_inurba_marseille","lat":43.29193,"lon":5.3579,"is_reserved":false,"is_disabled":true,"rental_uris":{"android":"levelo://app?vid=650aedbd-7fe9-41b2-ab79-4b8450652642","ios":"levelo://app?vid=650aedbd-7fe9-41b2-ab79-4b8450652642"},"vehicle_type_id":"4","last_reported":1733663857,"current_range_meters":36800,"station_id":"ce4bhb12rcd13ifvqel0","pricing_plan_id":"cebpf4jnsgd1na2vs0mg"},{"bike_id":"479889bf-dbf3-4abb-926f-bf7556951acc","system_id":"levelo_inurba_marseille","lat":43.29894,"lon":5.43657,"is_reserved":false,"is_disabled":false,"rental_uris":{"android":"levelo://app?vid=479889bf-dbf3-4abb-926f-bf7556951acc","ios":"levelo://app?vid=479889bf-dbf3-4abb-926f-bf7556951acc"},"vehicle_type_id":"4","last_reported":1733663857,"current_range_meters":36800,"station_id":"ce4bhpp2rcd13ifvqhfg","pricing_plan_id":"cebpf4jnsgd1na2vs0mg"},{"bike_id":"3000a861-0903-41f2-bb5d-48554b17ed5a","system_id":"levelo_inurba_marseille","lat":43.337444,"lon":5.374475,"is_reserved":false,"is_disabled":false,"rental_uris":{"android":"levelo://app?vid=3000a861-0903-41f2-bb5d-48554b17ed5a","ios":"levelo://app?vid=3000a861-0903-41f2-bb5d-48554b17ed5a"},"vehicle_type_id":"4","last_reported":1733663857,"current_range_meters":28000,"station_id":"","pricing_plan_id":"cebpf4jnsgd1na2vs0mg"},{"bike_id":"e14ff483-f290-4a96-beab-fc577b54c818","system_id":"levelo_inurba_marseille","lat":43.284915,"lon":5.368155,"is_reserved":false,"is_disabled":false,"rental_uris":{"android":"levelo://app?vid=e14ff483-f290-4a96-beab-fc577b54c818","ios":"levelo://app?vid=e14ff483-f290-4a96-beab-fc577b54c818"},"vehicle_type_id":"4","last_reported":1733663857,"current_range_meters":11200,"station_id":"","pricing_plan_id":"cebpf4jnsgd1na2vs0mg"},{"bike_id":"c575e1d8-9f7d-4181-a83a-be8801879a63","system_id":"levelo_inurba_marseille","lat":43.23057,"lon":5.35492,"is_reserved":false,"is_disabled":false,"rental_uris":{"android":"levelo://app?vid=c575e1d8-9f7d-4181-a83a-be8801879a63","ios":"levelo://app?vid=c575e1d8-9f7d-4181-a83a-be8801879a63"},"vehicle_type_id":"4","last_reported":1733663857,"current_range_meters":20000,"station_id":"cpo3342slgdg3j2ifvpg","pricing_plan_id":"cebpf4jnsgd1na2vs0mg"},{"bike_id":"95cfddd6-1f3c-4fd2-9652-931f20cf06bd","system_id":"levelo_inurba_marseille","lat":43.25572,"lon":5.38242,"is_reserved":false,"is_disabled":false,"rental_uris":{"android":"levelo://app?vid=95cfddd6-1f3c-4fd2-9652-931f20cf06bd","ios":"levelo://app?vid=95cfddd6-1f3c-4fd2-9652-931f20cf06bd"},"vehicle_type_id":"4","last_reported":1733663857,"current_range_meters":24800,"station_id":"ce4bhih2rcd13ifvqfs0","pricing_plan_id":"cebpf4jnsgd1na2vs0mg"},{"bike_id":"4ceffe35-066f-444d-9a64-6ca0da5ba078","system_id":"levelo_inurba_marseille","lat":43.29054,"lon":5.35907,"is_reserved":false,"is_disabled":false,"rental_uris":{"android":"levelo://app?vid=4ceffe35-066f-444d-9a64-6ca0da5ba078","ios":"levelo://app?vid=4ceffe35-066f-444d-9a64-6ca0da5ba078"},"vehicle_type_id":"4","last_reported":1733663857,"current_range_meters":20400,"station_id":"ce4bha92rcd13ifvqeg0","pricing_plan_id":"cebpf4jnsgd1na2vs0mg"},{"bike_id":"004b42fd-f2b5-4c02-8283-9ad1986583be","system_id":"levelo_inurba_marseille","lat":43.29533,"lon":5.38546,"is_reserved":false,"is_disabled":true,"rental_uris":{"android":"levelo://app?vid=004b42fd-f2b5-4c02-8283-9ad1986583be","ios":"levelo://app?vid=004b42fd-f2b5-4c02-8283-9ad1986583be"},"vehicle_type_id":"4","last_reported":1733663857,"current_range_meters":37600,"station_id":"ce4bgih2rcd13ifvqba0","pricing_plan_id":"cebpf4jnsgd1na2vs0mg"},{"bike_id":"89ceac00-2c22-4cb1-b85d-583fccdb788b","system_id":"levelo_inurba_marseille","lat":43.32112,"lon":5.36776,"is_reserved":false,"is_disabled":false,"rental_uris":{"android":"levelo://app?vid=89ceac00-2c22-4cb1-b85d-583fccdb788b","ios":"levelo://app?vid=89ceac00-2c22-4cb1-b85d-583fccdb788b"},"vehicle_type_id":"4","last_reported":1733663857,"current_range_meters":12000,"station_id":"ce4bhrh2rcd13ifvqhug","pricing_plan_id":"cebpf4jnsgd1na2vs0mg"},{"bike_id":"2058edaa-4d7d-4849-be6b-23e794fcaa84","system_id":"levelo_inurba_marseille","lat":43.27936,"lon":5.41046,"is_reserved":false,"is_disabled":false,"rental_uris":{"android":"levelo://app?vid=2058edaa-4d7d-4849-be6b-23e794fcaa84","ios":"levelo://app?vid=2058edaa-4d7d-4849-be6b-23e794fcaa84"},"vehicle_type_id":"4","last_reported":1733663857,"current_range_meters":34000,"station_id":"ce4bhnp2rcd13ifvqh0g","pricing_plan_id":"cebpf4jnsgd1na2vs0mg"},{"bike_id":"40d6932b-e763-4aa8-a7f1-007bb68b35a7","system_id":"levelo_inurba_marseille","lat":43.34137,"lon":5.40907,"is_reserved":false,"is_disabled":false,"rental_uris":{"android":"levelo://app?vid=40d6932b-e763-4aa8-a7f1-007bb68b35a7","ios":"levelo://app?vid=40d6932b-e763-4aa8-a7f1-007bb68b35a7"},"vehicle_type_id":"4","last_reported":1733663857,"current_range_meters":38800,"station_id":"ce4bhqh2rcd13ifvqhlg","pricing_plan_id":"cebpf4jnsgd1na2vs0mg"},{"bike_id":"e6ef4c64-4c4c-48fa-a061-246db244ae4c","system_id":"levelo_inurba_marseille","lat":43.25576,"lon":5.38239,"is_reserved":false,"is_disabled":false,"rental_uris":{"android":"levelo://app?vid=e6ef4c64-4c4c-48fa-a061-246db244ae4c","ios":"levelo://app?vid=e6ef4c64-4c4c-48fa-a061-246db244ae4c"},"vehicle_type_id":"4","last_reported":1733663857,"current_range_meters":20000,"station_id":"ce4bhih2rcd13ifvqfs0","pricing_plan_id":"cebpf4jnsgd1na2vs0mg"},{"bike_id":"2b247ce2-f875-40e9-bf2a-461f41bc9f8c","system_id":"levelo_inurba_marseille","lat":43.24811,"lon":5.37456,"is_reserved":false,"is_disabled":true,"rental_uris":{"android":"levelo://app?vid=2b247ce2-f875-40e9-bf2a-461f41bc9f8c","ios":"levelo://app?vid=2b247ce2-f875-40e9-bf2a-461f41bc9f8c"},"vehicle_type_id":"4","last_reported":1733663857,"current_range_meters":38800,"station_id":"ce4bhgh2rcd13ifvqfb0","pricing_plan_id":"cebpf4jnsgd1na2vs0mg"},{"bike_id":"938640b4-f78c-4def-9b16-e6205edb88bc","system_id":"levelo_inurba_marseille","lat":43.28151,"lon":5.42641,"is_reserved":false,"is_disabled":true,"rental_uris":{"android":"levelo://app?vid=938640b4-f78c-4def-9b16-e6205edb88bc","ios":"levelo://app?vid=938640b4-f78c-4def-9b16-e6205edb88bc"},"vehicle_type_id":"4","last_reported":1733663857,"current_range_meters":38800,"station_id":"ce4bhnh2rcd13ifvqgug","pricing_plan_id":"cebpf4jnsgd1na2vs0mg"},{"bike_id":"8f8addf5-f86d-4bcd-aa96-6843c412ea98","system_id":"levelo_inurba_marseille","lat":43.25579,"lon":5.38236,"is_reserved":false,"is_disabled":false,"rental_uris":{"android":"levelo://app?vid=8f8addf5-f86d-4bcd-aa96-6843c412ea98","ios":"levelo://app?vid=8f8addf5-f86d-4bcd-aa96-6843c412ea98"},"vehicle_type_id":"4","last_reported":1733663857,"current_range_meters":9200,"station_id":"ce4bhih2rcd13ifvqfs0","pricing_plan_id":"cebpf4jnsgd1na2vs0mg"},{"bike_id":"3b3116bf-5eac-4825-80fd-c3d8a243a0a6","system_id":"levelo_inurba_marseille","lat":43.31682,"lon":5.4048,"is_reserved":false,"is_disabled":false,"rental_uris":{"android":"levelo://app?vid=3b3116bf-5eac-4825-80fd-c3d8a243a0a6","ios":"levelo://app?vid=3b3116bf-5eac-4825-80fd-c3d8a243a0a6"},"vehicle_type_id":"4","last_reported":1733663857,"current_range_meters":26800,"station_id":"ce4bh012rcd13ifvqd00","pricing_plan_id":"cebpf4jnsgd1na2vs0mg"},{"bike_id":"cf55b169-9388-4819-bfa4-c55a8fa03873","system_id":"levelo_inurba_marseille","lat":43.27614,"lon":5.36115,"is_reserved":false,"is_disabled":false,"rental_uris":{"android":"levelo://app?vid=cf55b169-9388-4819-bfa4-c55a8fa03873","ios":"levelo://app?vid=cf55b169-9388-4819-bfa4-c55a8fa03873"},"vehicle_type_id":"4","last_reported":1733663857,"current_range_meters":35600,"station_id":"ce4bgj92rcd13ifvqbe0","pricing_plan_id":"cebpf4jnsgd1na2vs0mg"},{"bike_id":"32d80771-6afa-481c-905b-bbdfdc2c61dd","system_id":"levelo_inurba_marseille","lat":43.32481,"lon":5.36581,"is_reserved":false,"is_disabled":true,"rental_uris":{"android":"levelo://app?vid=32d80771-6afa-481c-905b-bbdfdc2c61dd","ios":"levelo://app?vid=32d80771-6afa-481c-905b-bbdfdc2c61dd"},"vehicle_type_id":"4","last_reported":1733663857,"current_range_meters":22800,"station_id":"ce4bhs12rcd13ifvqhvg","pricing_plan_id":"cebpf4jnsgd1na2vs0mg"},{"bike_id":"2f3968e7-9336-4ee4-ba78-8e92c0a818cc","system_id":"levelo_inurba_marseille","lat":43.31322,"lon":5.36647,"is_reserved":false,"is_disabled":true,"rental_uris":{"android":"levelo://app?vid=2f3968e7-9336-4ee4-ba78-8e92c0a818cc","ios":"levelo://app?vid=2f3968e7-9336-4ee4-ba78-8e92c0a818cc"},"vehicle_type_id":"4","last_reported":1733663857,"current_range_meters":0,"station_id":"","pricing_plan_id":"cebpf4jnsgd1na2vs0mg"},{"bike_id":"0adf8527-59bf-42a8-acc2-e0c8604b1672","system_id":"levelo_inurba_marseille","lat":43.24176,"lon":5.39733,"is_reserved":false,"is_disabled":false,"rental_uris":{"android":"levelo://app?vid=0adf8527-59bf-42a8-acc2-e0c8604b1672","ios":"levelo://app?vid=0adf8527-59bf-42a8-acc2-e0c8604b1672"},"vehicle_type_id":"4","last_reported":1733663857,"current_range_meters":36400,"station_id":"ce4bhn12rcd13ifvqgpg","pricing_plan_id":"cebpf4jnsgd1na2vs0mg"},{"bike_id":"27832afb-1ffe-4a05-9fcf-a768f6911b0d","system_id":"levelo_inurba_marseille","lat":43.3136,"lon":5.38486,"is_reserved":false,"is_disabled":false,"rental_uris":{"android":"levelo://app?vid=27832afb-1ffe-4a05-9fcf-a768f6911b0d","ios":"levelo://app?vid=27832afb-1ffe-4a05-9fcf-a768f6911b0d"},"vehicle_type_id":"4","last_reported":1733663857,"current_range_meters":30800,"station_id":"ce4bgt92rcd13ifvqcf0","pricing_plan_id":"cebpf4jnsgd1na2vs0mg"},{"bike_id":"a40939b6-21f4-4028-a7de-4bc64e483a5a","system_id":"levelo_inurba_marseille","lat":43.25502,"lon":5.37652,"is_reserved":false,"is_disabled":false,"rental_uris":{"android":"levelo://app?vid=a40939b6-21f4-4028-a7de-4bc64e483a5a","ios":"levelo://app?vid=a40939b6-21f4-4028-a7de-4bc64e483a5a"},"vehicle_type_id":"4","last_reported":1733663857,"current_range_meters":9200,"station_id":"ce4bhh12rcd13ifvqff0","pricing_plan_id":"cebpf4jnsgd1na2vs0mg"},{"bike_id":"3ba2ee36-2b31-4bc9-b8c0-c8096e25c27c","system_id":"levelo_inurba_marseille","lat":43.29876,"lon":5.43674,"is_reserved":false,"is_disabled":false,"rental_uris":{"android":"levelo://app?vid=3ba2ee36-2b31-4bc9-b8c0-c8096e25c27c","ios":"levelo://app?vid=3ba2ee36-2b31-4bc9-b8c0-c8096e25c27c"},"vehicle_type_id":"4","last_reported":1733663857,"current_range_meters":24800,"station_id":"ce4bhpp2rcd13ifvqhfg","pricing_plan_id":"cebpf4jnsgd1na2vs0mg"},{"bike_id":"df3163dd-8e0b-4bd9-a826-5332456fb502","system_id":"levelo_inurba_marseille","lat":43.28268,"lon":5.35077,"is_reserved":false,"is_disabled":false,"rental_uris":{"android":"levelo://app?vid=df3163dd-8e0b-4bd9-a826-5332456fb502","ios":"levelo://app?vid=df3163dd-8e0b-4bd9-a826-5332456fb502"},"vehicle_type_id":"4","last_reported":1733663857,"current_range_meters":10800,"station_id":"ce4bhbp2rcd13ifvqerg","pricing_plan_id":"cebpf4jnsgd1na2vs0mg"},{"bike_id":"400f0ea8-6588-4f76-b369-fca13002ea1f","system_id":"levelo_inurba_marseille","lat":43.27612,"lon":5.36112,"is_reserved":false,"is_disabled":false,"rental_uris":{"android":"levelo://app?vid=400f0ea8-6588-4f76-b369-fca13002ea1f","ios":"levelo://app?vid=400f0ea8-6588-4f76-b369-fca13002ea1f"},"vehicle_type_id":"4","last_reported":1733663857,"current_range_meters":29600,"station_id":"ce4bgj92rcd13ifvqbe0","pricing_plan_id":"cebpf4jnsgd1na2vs0mg"},{"bike_id":"7736d0dc-1989-4505-a61b-7fdb0a6489c6","system_id":"levelo_inurba_marseille","lat":43.32367,"lon":5.38892,"is_reserved":false,"is_disabled":true,"rental_uris":{"android":"levelo://app?vid=7736d0dc-1989-4505-a61b-7fdb0a6489c6","ios":"levelo://app?vid=7736d0dc-1989-4505-a61b-7fdb0a6489c6"},"vehicle_type_id":"4","last_reported":1733663857,"current_range_meters":400,"station_id":"ce4bhqp2rcd13ifvqhog","pricing_plan_id":"cebpf4jnsgd1na2vs0mg"},{"bike_id":"1e8f9911-49f1-40e7-b2c6-a411a48272e0","system_id":"levelo_inurba_marseille","lat":43.2979,"lon":5.38127,"is_reserved":false,"is_disabled":true,"rental_uris":{"android":"levelo://app?vid=1e8f9911-49f1-40e7-b2c6-a411a48272e0","ios":"levelo://app?vid=1e8f9911-49f1-40e7-b2c6-a411a48272e0"},"vehicle_type_id":"4","last_reported":1733663857,"current_range_meters":19600,"station_id":"ce4bgip2rcd13ifvqbb0","pricing_plan_id":"cebpf4jnsgd1na2vs0mg"},{"bike_id":"6583aefc-6815-4bd5-8f5c-a9c5d794f47e","system_id":"levelo_inurba_marseille","lat":43.36498,"lon":5.34261,"is_reserved":false,"is_disabled":false,"rental_uris":{"android":"levelo://app?vid=6583aefc-6815-4bd5-8f5c-a9c5d794f47e","ios":"levelo://app?vid=6583aefc-6815-4bd5-8f5c-a9c5d794f47e"},"vehicle_type_id":"4","last_reported":1733663857,"current_range_meters":21600,"station_id":"","pricing_plan_id":"cebpf4jnsgd1na2vs0mg"},{"bike_id":"b111a005-487d-4998-af6a-c101a127cb1a","system_id":"levelo_inurba_marseille","lat":43.2693,"lon":5.40256,"is_reserved":false,"is_disabled":false,"rental_uris":{"android":"levelo://app?vid=b111a005-487d-4998-af6a-c101a127cb1a","ios":"levelo://app?vid=b111a005-487d-4998-af6a-c101a127cb1a"},"vehicle_type_id":"4","last_reported":1733663857,"current_range_meters":30000,"station_id":"cjm6bp8fraef2m0cb0m0","pricing_plan_id":"cebpf4jnsgd1na2vs0mg"},{"bike_id":"18c465ad-16a0-4d72-a337-11a15929aab8","system_id":"levelo_inurba_marseille","lat":43.23955,"lon":5.36641,"is_reserved":false,"is_disabled":true,"rental_uris":{"android":"levelo://app?vid=18c465ad-16a0-4d72-a337-11a15929aab8","ios":"levelo://app?vid=18c465ad-16a0-4d72-a337-11a15929aab8"},"vehicle_type_id":"4","last_reported":1733663857,"current_range_meters":36800,"station_id":"ce4bhi12rcd13ifvqfp0","pricing_plan_id":"cebpf4jnsgd1na2vs0mg"},{"bike_id":"cc9fc7b7-96ff-447b-8a1a-e45e2982c36e","system_id":"levelo_inurba_marseille","lat":43.33017,"lon":5.39042,"is_reserved":false,"is_disabled":false,"rental_uris":{"android":"levelo://app?vid=cc9fc7b7-96ff-447b-8a1a-e45e2982c36e","ios":"levelo://app?vid=cc9fc7b7-96ff-447b-8a1a-e45e2982c36e"},"vehicle_type_id":"4","last_reported":1733663857,"current_range_meters":29600,"station_id":"ce4bhr92rcd13ifvqhrg","pricing_plan_id":"cebpf4jnsgd1na2vs0mg"},{"bike_id":"f825a6e3-d202-4ddc-917b-5da49c4114c4","system_id":"levelo_inurba_marseille","lat":43.23192,"lon":5.35556,"is_reserved":false,"is_disabled":false,"rental_uris":{"android":"levelo://app?vid=f825a6e3-d202-4ddc-917b-5da49c4114c4","ios":"levelo://app?vid=f825a6e3-d202-4ddc-917b-5da49c4114c4"},"vehicle_type_id":"4","last_reported":1733663857,"current_range_meters":37600,"station_id":"ce4bhu92rcd13ifvqi70","pricing_plan_id":"cebpf4jnsgd1na2vs0mg"},{"bike_id":"468d023e-e483-49f2-92d7-7b95c7b3c650","system_id":"levelo_inurba_marseille","lat":43.29898,"lon":5.43673,"is_reserved":false,"is_disabled":false,"rental_uris":{"android":"levelo://app?vid=468d023e-e483-49f2-92d7-7b95c7b3c650","ios":"levelo://app?vid=468d023e-e483-49f2-92d7-7b95c7b3c650"},"vehicle_type_id":"4","last_reported":1733663857,"current_range_meters":8800,"station_id":"ce4bhpp2rcd13ifvqhfg","pricing_plan_id":"cebpf4jnsgd1na2vs0mg"},{"bike_id":"4b563064-6cb9-4f73-b9ae-568c6d87bcad","system_id":"levelo_inurba_marseille","lat":43.2407,"lon":5.37767,"is_reserved":false,"is_disabled":false,"rental_uris":{"android":"levelo://app?vid=4b563064-6cb9-4f73-b9ae-568c6d87bcad","ios":"levelo://app?vid=4b563064-6cb9-4f73-b9ae-568c6d87bcad"},"vehicle_type_id":"4","last_reported":1733663857,"current_range_meters":29600,"station_id":"ce4bhnp2rcd13ifvqgvg","pricing_plan_id":"cebpf4jnsgd1na2vs0mg"},{"bike_id":"1c27174c-f196-485f-a04a-9a3251f6b4d2","system_id":"levelo_inurba_marseille","lat":43.25929,"lon":5.40912,"is_reserved":false,"is_disabled":false,"rental_uris":{"android":"levelo://app?vid=1c27174c-f196-485f-a04a-9a3251f6b4d2","ios":"levelo://app?vid=1c27174c-f196-485f-a04a-9a3251f6b4d2"},"vehicle_type_id":"4","last_reported":1733663857,"current_range_meters":24400,"station_id":"ce4bhm92rcd13ifvqglg","pricing_plan_id":"cebpf4jnsgd1na2vs0mg"},{"bike_id":"325aa2f9-ee83-43c4-ba05-b650ab98515a","system_id":"levelo_inurba_marseille","lat":43.25076,"lon":5.39537,"is_reserved":false,"is_disabled":false,"rental_uris":{"android":"levelo://app?vid=325aa2f9-ee83-43c4-ba05-b650ab98515a","ios":"levelo://app?vid=325aa2f9-ee83-43c4-ba05-b650ab98515a"},"vehicle_type_id":"4","last_reported":1733663857,"current_range_meters":38800,"station_id":"ce4bhm12rcd13ifvqgkg","pricing_plan_id":"cebpf4jnsgd1na2vs0mg"},{"bike_id":"0ae91b1e-777d-4df5-a12e-1138de124b4a","system_id":"levelo_inurba_marseille","lat":43.2826,"lon":5.35076,"is_reserved":false,"is_disabled":false,"rental_uris":{"android":"levelo://app?vid=0ae91b1e-777d-4df5-a12e-1138de124b4a","ios":"levelo://app?vid=0ae91b1e-777d-4df5-a12e-1138de124b4a"},"vehicle_type_id":"4","last_reported":1733663857,"current_range_meters":23200,"station_id":"ce4bhbp2rcd13ifvqerg","pricing_plan_id":"cebpf4jnsgd1na2vs0mg"},{"bike_id":"f10c5e90-601b-4bd4-87e7-4cbb6a13a4fb","system_id":"levelo_inurba_marseille","lat":43.26123,"lon":5.39268,"is_reserved":false,"is_disabled":true,"rental_uris":{"android":"levelo://app?vid=f10c5e90-601b-4bd4-87e7-4cbb6a13a4fb","ios":"levelo://app?vid=f10c5e90-601b-4bd4-87e7-4cbb6a13a4fb"},"vehicle_type_id":"4","last_reported":1733663857,"current_range_meters":0,"station_id":"","pricing_plan_id":"cebpf4jnsgd1na2vs0mg"},{"bike_id":"a01eb9e0-5566-4d39-b1a3-d47e7808d193","system_id":"levelo_inurba_marseille","lat":43.29415,"lon":5.38611,"is_reserved":false,"is_disabled":true,"rental_uris":{"android":"levelo://app?vid=a01eb9e0-5566-4d39-b1a3-d47e7808d193","ios":"levelo://app?vid=a01eb9e0-5566-4d39-b1a3-d47e7808d193"},"vehicle_type_id":"4","last_reported":1733663857,"current_range_meters":1600,"station_id":"ce4bh2h2rcd13ifvqdh0","pricing_plan_id":"cebpf4jnsgd1na2vs0mg"},{"bike_id":"34574282-00e6-4091-bf54-f23676224834","system_id":"levelo_inurba_marseille","lat":43.30541,"lon":5.36561,"is_reserved":false,"is_disabled":false,"rental_uris":{"android":"levelo://app?vid=34574282-00e6-4091-bf54-f23676224834","ios":"levelo://app?vid=34574282-00e6-4091-bf54-f23676224834"},"vehicle_type_id":"4","last_reported":1733663857,"current_range_meters":30000,"station_id":"ce4bgs12rcd13ifvqcag","pricing_plan_id":"cebpf4jnsgd1na2vs0mg"},{"bike_id":"65be5a53-8676-4f22-84d3-7138999900ac","system_id":"levelo_inurba_marseille","lat":43.27493,"lon":5.42457,"is_reserved":false,"is_disabled":false,"rental_uris":{"android":"levelo://app?vid=65be5a53-8676-4f22-84d3-7138999900ac","ios":"levelo://app?vid=65be5a53-8676-4f22-84d3-7138999900ac"},"vehicle_type_id":"4","last_reported":1733663857,"current_range_meters":26000,"station_id":"ce4bhn92rcd13ifvqgrg","pricing_plan_id":"cebpf4jnsgd1na2vs0mg"},{"bike_id":"5d5e8e08-dd36-4331-9be8-d7717274c4bc","system_id":"levelo_inurba_marseille","lat":43.31262,"lon":5.40176,"is_reserved":false,"is_disabled":false,"rental_uris":{"android":"levelo://app?vid=5d5e8e08-dd36-4331-9be8-d7717274c4bc","ios":"levelo://app?vid=5d5e8e08-dd36-4331-9be8-d7717274c4bc"},"vehicle_type_id":"4","last_reported":1733663857,"current_range_meters":37600,"station_id":"ce4bh092rcd13ifvqd30","pricing_plan_id":"cebpf4jnsgd1na2vs0mg"},{"bike_id":"836e31b4-84ea-485a-9aef-0c295c7b4152","system_id":"levelo_inurba_marseille","lat":43.232,"lon":5.35554,"is_reserved":false,"is_disabled":false,"rental_uris":{"android":"levelo://app?vid=836e31b4-84ea-485a-9aef-0c295c7b4152","ios":"levelo://app?vid=836e31b4-84ea-485a-9aef-0c295c7b4152"},"vehicle_type_id":"4","last_reported":1733663857,"current_range_meters":38800,"station_id":"ce4bhu92rcd13ifvqi70","pricing_plan_id":"cebpf4jnsgd1na2vs0mg"},{"bike_id":"95414d5c-6629-4e8c-8b6c-ad295613082f","system_id":"levelo_inurba_marseille","lat":43.30539,"lon":5.36549,"is_reserved":false,"is_disabled":false,"rental_uris":{"android":"levelo://app?vid=95414d5c-6629-4e8c-8b6c-ad295613082f","ios":"levelo://app?vid=95414d5c-6629-4e8c-8b6c-ad295613082f"},"vehicle_type_id":"4","last_reported":1733663857,"current_range_meters":38800,"station_id":"ce4bgs12rcd13ifvqcag","pricing_plan_id":"cebpf4jnsgd1na2vs0mg"},{"bike_id":"d1c54e29-6abc-46ab-acdc-a92a33356190","system_id":"levelo_inurba_marseille","lat":43.33601,"lon":5.41026,"is_reserved":false,"is_disabled":false,"rental_uris":{"android":"levelo://app?vid=d1c54e29-6abc-46ab-acdc-a92a33356190","ios":"levelo://app?vid=d1c54e29-6abc-46ab-acdc-a92a33356190"},"vehicle_type_id":"4","last_reported":1733663857,"current_range_meters":27200,"station_id":"ce4bhqh2rcd13ifvqhmg","pricing_plan_id":"cebpf4jnsgd1na2vs0mg"},{"bike_id":"71512a7b-46c5-4d45-9ffe-dca1cfaf71f8","system_id":"levelo_inurba_marseille","lat":43.32539,"lon":5.41452,"is_reserved":false,"is_disabled":false,"rental_uris":{"android":"levelo://app?vid=71512a7b-46c5-4d45-9ffe-dca1cfaf71f8","ios":"levelo://app?vid=71512a7b-46c5-4d45-9ffe-dca1cfaf71f8"},"vehicle_type_id":"4","last_reported":1733663857,"current_range_meters":38000,"station_id":"ce4bhq12rcd13ifvqhhg","pricing_plan_id":"cebpf4jnsgd1na2vs0mg"},{"bike_id":"0b79a638-b03e-40c7-891e-9ee4e528ef7d","system_id":"levelo_inurba_marseille","lat":43.29973,"lon":5.37174,"is_reserved":false,"is_disabled":false,"rental_uris":{"android":"levelo://app?vid=0b79a638-b03e-40c7-891e-9ee4e528ef7d","ios":"levelo://app?vid=0b79a638-b03e-40c7-891e-9ee4e528ef7d"},"vehicle_type_id":"4","last_reported":1733663857,"current_range_meters":36400,"station_id":"ce4bgr92rcd13ifvqc7g","pricing_plan_id":"cebpf4jnsgd1na2vs0mg"},{"bike_id":"21835eb8-c8da-486b-9ba8-505880f36e12","system_id":"levelo_inurba_marseille","lat":43.31256,"lon":5.40194,"is_reserved":false,"is_disabled":false,"rental_uris":{"android":"levelo://app?vid=21835eb8-c8da-486b-9ba8-505880f36e12","ios":"levelo://app?vid=21835eb8-c8da-486b-9ba8-505880f36e12"},"vehicle_type_id":"4","last_reported":1733663857,"current_range_meters":32400,"station_id":"ce4bh092rcd13ifvqd30","pricing_plan_id":"cebpf4jnsgd1na2vs0mg"},{"bike_id":"3f758976-aa84-4ddf-8814-b3f6072dbd11","system_id":"levelo_inurba_marseille","lat":43.24179,"lon":5.39731,"is_reserved":false,"is_disabled":false,"rental_uris":{"android":"levelo://app?vid=3f758976-aa84-4ddf-8814-b3f6072dbd11","ios":"levelo://app?vid=3f758976-aa84-4ddf-8814-b3f6072dbd11"},"vehicle_type_id":"4","last_reported":1733663857,"current_range_meters":20800,"station_id":"ce4bhn12rcd13ifvqgpg","pricing_plan_id":"cebpf4jnsgd1na2vs0mg"},{"bike_id":"1dd564c7-7acd-4ac9-ba8e-2f4b7d6770ff","system_id":"levelo_inurba_marseille","lat":43.25576,"lon":5.38243,"is_reserved":false,"is_disabled":false,"rental_uris":{"android":"levelo://app?vid=1dd564c7-7acd-4ac9-ba8e-2f4b7d6770ff","ios":"levelo://app?vid=1dd564c7-7acd-4ac9-ba8e-2f4b7d6770ff"},"vehicle_type_id":"4","last_reported":1733663857,"current_range_meters":24800,"station_id":"ce4bhih2rcd13ifvqfs0","pricing_plan_id":"cebpf4jnsgd1na2vs0mg"},{"bike_id":"1a572d35-d484-45c0-8bc4-913107598312","system_id":"levelo_inurba_marseille","lat":43.27376,"lon":5.36243,"is_reserved":false,"is_disabled":false,"rental_uris":{"android":"levelo://app?vid=1a572d35-d484-45c0-8bc4-913107598312","ios":"levelo://app?vid=1a572d35-d484-45c0-8bc4-913107598312"},"vehicle_type_id":"4","last_reported":1733663857,"current_range_meters":35600,"station_id":"ce4bhbh2rcd13ifvqeo0","pricing_plan_id":"cebpf4jnsgd1na2vs0mg"},{"bike_id":"2d573562-74ae-44f3-b126-2d6258e9aaad","system_id":"levelo_inurba_marseille","lat":43.29439,"lon":5.38613,"is_reserved":false,"is_disabled":false,"rental_uris":{"android":"levelo://app?vid=2d573562-74ae-44f3-b126-2d6258e9aaad","ios":"levelo://app?vid=2d573562-74ae-44f3-b126-2d6258e9aaad"},"vehicle_type_id":"4","last_reported":1733663857,"current_range_meters":30400,"station_id":"ce4bh2h2rcd13ifvqdh0","pricing_plan_id":"cebpf4jnsgd1na2vs0mg"},{"bike_id":"2a022814-f741-4adf-a235-83d4941bf5e2","system_id":"levelo_inurba_marseille","lat":43.28419,"lon":5.34982,"is_reserved":false,"is_disabled":false,"rental_uris":{"android":"levelo://app?vid=2a022814-f741-4adf-a235-83d4941bf5e2","ios":"levelo://app?vid=2a022814-f741-4adf-a235-83d4941bf5e2"},"vehicle_type_id":"4","last_reported":1733663857,"current_range_meters":12000,"station_id":"ce4bhbh2rcd13ifvqepg","pricing_plan_id":"cebpf4jnsgd1na2vs0mg"},{"bike_id":"67378829-8746-46f4-aa10-ed9b35d85ab5","system_id":"levelo_inurba_marseille","lat":43.28933,"lon":5.36631,"is_reserved":false,"is_disabled":true,"rental_uris":{"android":"levelo://app?vid=67378829-8746-46f4-aa10-ed9b35d85ab5","ios":"levelo://app?vid=67378829-8746-46f4-aa10-ed9b35d85ab5"},"vehicle_type_id":"4","last_reported":1733663857,"current_range_meters":8000,"station_id":"ce4bhap2rcd13ifvqek0","pricing_plan_id":"cebpf4jnsgd1na2vs0mg"},{"bike_id":"74ddbdc3-b082-4f44-a075-38dfc2e6b2cd","system_id":"levelo_inurba_marseille","lat":43.24156,"lon":5.36392,"is_reserved":false,"is_disabled":false,"rental_uris":{"android":"levelo://app?vid=74ddbdc3-b082-4f44-a075-38dfc2e6b2cd","ios":"levelo://app?vid=74ddbdc3-b082-4f44-a075-38dfc2e6b2cd"},"vehicle_type_id":"4","last_reported":1733663857,"current_range_meters":32000,"station_id":"cpo36qri1sfpv3e86is0","pricing_plan_id":"cebpf4jnsgd1na2vs0mg"},{"bike_id":"01c7fa99-3e38-46c7-9522-b98166d97fb1","system_id":"levelo_inurba_marseille","lat":43.23178,"lon":5.39988,"is_reserved":false,"is_disabled":false,"rental_uris":{"android":"levelo://app?vid=01c7fa99-3e38-46c7-9522-b98166d97fb1","ios":"levelo://app?vid=01c7fa99-3e38-46c7-9522-b98166d97fb1"},"vehicle_type_id":"4","last_reported":1733663857,"current_range_meters":22400,"station_id":"ce4bhn12rcd13ifvqgqg","pricing_plan_id":"cebpf4jnsgd1na2vs0mg"},{"bike_id":"0f648a96-f2cf-48bb-a72b-212423b7af8d","system_id":"levelo_inurba_marseille","lat":43.25825,"lon":5.3943,"is_reserved":false,"is_disabled":false,"rental_uris":{"android":"levelo://app?vid=0f648a96-f2cf-48bb-a72b-212423b7af8d","ios":"levelo://app?vid=0f648a96-f2cf-48bb-a72b-212423b7af8d"},"vehicle_type_id":"4","last_reported":1733663857,"current_range_meters":39200,"station_id":"ce4bhip2rcd13ifvqft0","pricing_plan_id":"cebpf4jnsgd1na2vs0mg"},{"bike_id":"e8453398-478c-403d-b93f-63ab9b9bbfbf","system_id":"levelo_inurba_marseille","lat":43.27067,"lon":5.42281,"is_reserved":false,"is_disabled":false,"rental_uris":{"android":"levelo://app?vid=e8453398-478c-403d-b93f-63ab9b9bbfbf","ios":"levelo://app?vid=e8453398-478c-403d-b93f-63ab9b9bbfbf"},"vehicle_type_id":"4","last_reported":1733663857,"current_range_meters":9200,"station_id":"ce4bhk92rcd13ifvqgb0","pricing_plan_id":"cebpf4jnsgd1na2vs0mg"},{"bike_id":"f942e722-5039-4601-9971-0207b150598d","system_id":"levelo_inurba_marseille","lat":43.29848,"lon":5.36293,"is_reserved":false,"is_disabled":false,"rental_uris":{"android":"levelo://app?vid=f942e722-5039-4601-9971-0207b150598d","ios":"levelo://app?vid=f942e722-5039-4601-9971-0207b150598d"},"vehicle_type_id":"4","last_reported":1733663857,"current_range_meters":30800,"station_id":"ce4bgpp2rcd13ifvqc3g","pricing_plan_id":"cebpf4jnsgd1na2vs0mg"},{"bike_id":"987a5ab4-d60c-480c-94b6-7cab38975402","system_id":"levelo_inurba_marseille","lat":43.29748,"lon":5.37971,"is_reserved":false,"is_disabled":true,"rental_uris":{"android":"levelo://app?vid=987a5ab4-d60c-480c-94b6-7cab38975402","ios":"levelo://app?vid=987a5ab4-d60c-480c-94b6-7cab38975402"},"vehicle_type_id":"4","last_reported":1733663857,"current_range_meters":0,"station_id":"","pricing_plan_id":"cebpf4jnsgd1na2vs0mg"},{"bike_id":"9cd79aab-6f4c-4919-b570-803a9e8b35c5","system_id":"levelo_inurba_marseille","lat":43.30635,"lon":5.36581,"is_reserved":false,"is_disabled":true,"rental_uris":{"android":"levelo://app?vid=9cd79aab-6f4c-4919-b570-803a9e8b35c5","ios":"levelo://app?vid=9cd79aab-6f4c-4919-b570-803a9e8b35c5"},"vehicle_type_id":"4","last_reported":1733663857,"current_range_meters":33200,"station_id":"","pricing_plan_id":"cebpf4jnsgd1na2vs0mg"},{"bike_id":"9f956979-3aa4-4231-89a6-a620e036d0f0","system_id":"levelo_inurba_marseille","lat":43.28989,"lon":5.3782,"is_reserved":false,"is_disabled":false,"rental_uris":{"android":"levelo://app?vid=9f956979-3aa4-4231-89a6-a620e036d0f0","ios":"levelo://app?vid=9f956979-3aa4-4231-89a6-a620e036d0f0"},"vehicle_type_id":"4","last_reported":1733663857,"current_range_meters":4000,"station_id":"ce4bh9p2rcd13ifvqed0","pricing_plan_id":"cebpf4jnsgd1na2vs0mg"},{"bike_id":"165d3311-a977-4745-b689-5e6993d37f26","system_id":"levelo_inurba_marseille","lat":43.324836,"lon":5.365765,"is_reserved":false,"is_disabled":true,"rental_uris":{"android":"levelo://app?vid=165d3311-a977-4745-b689-5e6993d37f26","ios":"levelo://app?vid=165d3311-a977-4745-b689-5e6993d37f26"},"vehicle_type_id":"4","last_reported":1733663857,"current_range_meters":32000,"station_id":"ce4bhs12rcd13ifvqhvg","pricing_plan_id":"cebpf4jnsgd1na2vs0mg"},{"bike_id":"b6da6692-7e69-4e98-8ae5-84a8533f251e","system_id":"levelo_inurba_marseille","lat":43.30538,"lon":5.36547,"is_reserved":false,"is_disabled":false,"rental_uris":{"android":"levelo://app?vid=b6da6692-7e69-4e98-8ae5-84a8533f251e","ios":"levelo://app?vid=b6da6692-7e69-4e98-8ae5-84a8533f251e"},"vehicle_type_id":"4","last_reported":1733663857,"current_range_meters":38800,"station_id":"ce4bgs12rcd13ifvqcag","pricing_plan_id":"cebpf4jnsgd1na2vs0mg"},{"bike_id":"05f50a29-9b9d-41ae-8b43-3d69a9a4fb88","system_id":"levelo_inurba_marseille","lat":43.25579,"lon":5.38249,"is_reserved":false,"is_disabled":false,"rental_uris":{"android":"levelo://app?vid=05f50a29-9b9d-41ae-8b43-3d69a9a4fb88","ios":"levelo://app?vid=05f50a29-9b9d-41ae-8b43-3d69a9a4fb88"},"vehicle_type_id":"4","last_reported":1733663857,"current_range_meters":38800,"station_id":"ce4bhih2rcd13ifvqfs0","pricing_plan_id":"cebpf4jnsgd1na2vs0mg"},{"bike_id":"11e86528-eb6b-4391-86a5-9b1822d069a4","system_id":"levelo_inurba_marseille","lat":43.278805,"lon":5.388003,"is_reserved":false,"is_disabled":true,"rental_uris":{"android":"levelo://app?vid=11e86528-eb6b-4391-86a5-9b1822d069a4","ios":"levelo://app?vid=11e86528-eb6b-4391-86a5-9b1822d069a4"},"vehicle_type_id":"4","last_reported":1733663857,"current_range_meters":0,"station_id":"","pricing_plan_id":"cebpf4jnsgd1na2vs0mg"},{"bike_id":"6cc6805f-c0ca-4585-bdf1-b5a0339762b0","system_id":"levelo_inurba_marseille","lat":43.29027,"lon":5.42744,"is_reserved":false,"is_disabled":true,"rental_uris":{"android":"levelo://app?vid=6cc6805f-c0ca-4585-bdf1-b5a0339762b0","ios":"levelo://app?vid=6cc6805f-c0ca-4585-bdf1-b5a0339762b0"},"vehicle_type_id":"4","last_reported":1733663857,"current_range_meters":0,"station_id":"","pricing_plan_id":"cebpf4jnsgd1na2vs0mg"},{"bike_id":"fbab0e01-40cc-4eff-939a-d9a8fdd7ac42","system_id":"levelo_inurba_marseille","lat":43.25729,"lon":5.41108,"is_reserved":false,"is_disabled":false,"rental_uris":{"android":"levelo://app?vid=fbab0e01-40cc-4eff-939a-d9a8fdd7ac42","ios":"levelo://app?vid=fbab0e01-40cc-4eff-939a-d9a8fdd7ac42"},"vehicle_type_id":"4","last_reported":1733663857,"current_range_meters":38800,"station_id":"ce4bhkp2rcd13ifvqgd0","pricing_plan_id":"cebpf4jnsgd1na2vs0mg"},{"bike_id":"a478bcff-2af8-4db5-8351-cdbe6b849a6d","system_id":"levelo_inurba_marseille","lat":43.33387,"lon":5.36233,"is_reserved":false,"is_disabled":false,"rental_uris":{"android":"levelo://app?vid=a478bcff-2af8-4db5-8351-cdbe6b849a6d","ios":"levelo://app?vid=a478bcff-2af8-4db5-8351-cdbe6b849a6d"},"vehicle_type_id":"4","last_reported":1733663857,"current_range_meters":4400,"station_id":"","pricing_plan_id":"cebpf4jnsgd1na2vs0mg"},{"bike_id":"7ac264ef-6ce4-4df1-b426-6a7c545d3ef4","system_id":"levelo_inurba_marseille","lat":43.30356,"lon":5.36512,"is_reserved":false,"is_disabled":false,"rental_uris":{"android":"levelo://app?vid=7ac264ef-6ce4-4df1-b426-6a7c545d3ef4","ios":"levelo://app?vid=7ac264ef-6ce4-4df1-b426-6a7c545d3ef4"},"vehicle_type_id":"4","last_reported":1733663857,"current_range_meters":5600,"station_id":"","pricing_plan_id":"cebpf4jnsgd1na2vs0mg"},{"bike_id":"c930db70-43dd-4312-95ff-977a1b5b5dd8","system_id":"levelo_inurba_marseille","lat":43.28152,"lon":5.42647,"is_reserved":false,"is_disabled":false,"rental_uris":{"android":"levelo://app?vid=c930db70-43dd-4312-95ff-977a1b5b5dd8","ios":"levelo://app?vid=c930db70-43dd-4312-95ff-977a1b5b5dd8"},"vehicle_type_id":"4","last_reported":1733663857,"current_range_meters":17600,"station_id":"ce4bhnh2rcd13ifvqgug","pricing_plan_id":"cebpf4jnsgd1na2vs0mg"},{"bike_id":"ea9504d9-aff2-4542-b984-f952cc4ceb4b","system_id":"levelo_inurba_marseille","lat":43.25004,"lon":5.38912,"is_reserved":false,"is_disabled":false,"rental_uris":{"android":"levelo://app?vid=ea9504d9-aff2-4542-b984-f952cc4ceb4b","ios":"levelo://app?vid=ea9504d9-aff2-4542-b984-f952cc4ceb4b"},"vehicle_type_id":"4","last_reported":1733663857,"current_range_meters":10800,"station_id":"ce4bhgp2rcd13ifvqfd0","pricing_plan_id":"cebpf4jnsgd1na2vs0mg"},{"bike_id":"673910f3-88a4-4ad1-ac37-bdd4dde846d1","system_id":"levelo_inurba_marseille","lat":43.24994,"lon":5.38941,"is_reserved":false,"is_disabled":false,"rental_uris":{"android":"levelo://app?vid=673910f3-88a4-4ad1-ac37-bdd4dde846d1","ios":"levelo://app?vid=673910f3-88a4-4ad1-ac37-bdd4dde846d1"},"vehicle_type_id":"4","last_reported":1733663857,"current_range_meters":28800,"station_id":"ce4bhgp2rcd13ifvqfd0","pricing_plan_id":"cebpf4jnsgd1na2vs0mg"},{"bike_id":"ef026872-dac2-409a-96f4-049ac8350cf0","system_id":"levelo_inurba_marseille","lat":43.28465,"lon":5.35893,"is_reserved":false,"is_disabled":false,"rental_uris":{"android":"levelo://app?vid=ef026872-dac2-409a-96f4-049ac8350cf0","ios":"levelo://app?vid=ef026872-dac2-409a-96f4-049ac8350cf0"},"vehicle_type_id":"4","last_reported":1733663857,"current_range_meters":16000,"station_id":"ce4bhah2rcd13ifvqei0","pricing_plan_id":"cebpf4jnsgd1na2vs0mg"},{"bike_id":"25ceb993-03b3-4e40-9bc1-0775c278f266","system_id":"levelo_inurba_marseille","lat":43.33022,"lon":5.39045,"is_reserved":false,"is_disabled":false,"rental_uris":{"android":"levelo://app?vid=25ceb993-03b3-4e40-9bc1-0775c278f266","ios":"levelo://app?vid=25ceb993-03b3-4e40-9bc1-0775c278f266"},"vehicle_type_id":"4","last_reported":1733663857,"current_range_meters":28800,"station_id":"ce4bhr92rcd13ifvqhrg","pricing_plan_id":"cebpf4jnsgd1na2vs0mg"},{"bike_id":"b04b4f64-4677-4acc-9cf8-88c63ef2a0e8","system_id":"levelo_inurba_marseille","lat":43.2315,"lon":5.43704,"is_reserved":false,"is_disabled":false,"rental_uris":{"android":"levelo://app?vid=b04b4f64-4677-4acc-9cf8-88c63ef2a0e8","ios":"levelo://app?vid=b04b4f64-4677-4acc-9cf8-88c63ef2a0e8"},"vehicle_type_id":"4","last_reported":1733663857,"current_range_meters":38800,"station_id":"ce4bhmp2rcd13ifvqgog","pricing_plan_id":"cebpf4jnsgd1na2vs0mg"},{"bike_id":"3a1cabfd-7ea0-40e5-ba2a-bc16f7acb1fa","system_id":"levelo_inurba_marseille","lat":43.34322,"lon":5.35823,"is_reserved":false,"is_disabled":true,"rental_uris":{"android":"levelo://app?vid=3a1cabfd-7ea0-40e5-ba2a-bc16f7acb1fa","ios":"levelo://app?vid=3a1cabfd-7ea0-40e5-ba2a-bc16f7acb1fa"},"vehicle_type_id":"4","last_reported":1733663857,"current_range_meters":1200,"station_id":"","pricing_plan_id":"cebpf4jnsgd1na2vs0mg"},{"bike_id":"243c0fa9-fb27-4111-81f0-175e30eaaaed","system_id":"levelo_inurba_marseille","lat":43.2905,"lon":5.35912,"is_reserved":false,"is_disabled":true,"rental_uris":{"android":"levelo://app?vid=243c0fa9-fb27-4111-81f0-175e30eaaaed","ios":"levelo://app?vid=243c0fa9-fb27-4111-81f0-175e30eaaaed"},"vehicle_type_id":"4","last_reported":1733663857,"current_range_meters":27600,"station_id":"ce4bha92rcd13ifvqeg0","pricing_plan_id":"cebpf4jnsgd1na2vs0mg"},{"bike_id":"14726b6f-5ec7-4a0f-85ef-530d09932e2f","system_id":"levelo_inurba_marseille","lat":43.25718,"lon":5.41113,"is_reserved":false,"is_disabled":false,"rental_uris":{"android":"levelo://app?vid=14726b6f-5ec7-4a0f-85ef-530d09932e2f","ios":"levelo://app?vid=14726b6f-5ec7-4a0f-85ef-530d09932e2f"},"vehicle_type_id":"4","last_reported":1733663857,"current_range_meters":11600,"station_id":"ce4bhkp2rcd13ifvqgd0","pricing_plan_id":"cebpf4jnsgd1na2vs0mg"},{"bike_id":"397aa6a2-1387-48a8-a4ca-8e77067a438b","system_id":"levelo_inurba_marseille","lat":43.31118,"lon":5.37775,"is_reserved":false,"is_disabled":false,"rental_uris":{"android":"levelo://app?vid=397aa6a2-1387-48a8-a4ca-8e77067a438b","ios":"levelo://app?vid=397aa6a2-1387-48a8-a4ca-8e77067a438b"},"vehicle_type_id":"4","last_reported":1733663857,"current_range_meters":39200,"station_id":"ce4bgt92rcd13ifvqcg0","pricing_plan_id":"cebpf4jnsgd1na2vs0mg"},{"bike_id":"62b41a78-dcf6-42d9-a0fa-d019aed3bc36","system_id":"levelo_inurba_marseille","lat":43.32284,"lon":5.38276,"is_reserved":false,"is_disabled":false,"rental_uris":{"android":"levelo://app?vid=62b41a78-dcf6-42d9-a0fa-d019aed3bc36","ios":"levelo://app?vid=62b41a78-dcf6-42d9-a0fa-d019aed3bc36"},"vehicle_type_id":"4","last_reported":1733663857,"current_range_meters":16000,"station_id":"ce4bhr12rcd13ifvqhqg","pricing_plan_id":"cebpf4jnsgd1na2vs0mg"},{"bike_id":"95b68163-8c31-4ce4-989b-0d594a1f53e9","system_id":"levelo_inurba_marseille","lat":43.29683,"lon":5.37253,"is_reserved":false,"is_disabled":false,"rental_uris":{"android":"levelo://app?vid=95b68163-8c31-4ce4-989b-0d594a1f53e9","ios":"levelo://app?vid=95b68163-8c31-4ce4-989b-0d594a1f53e9"},"vehicle_type_id":"4","last_reported":1733663857,"current_range_meters":32000,"station_id":"ce4bgk12rcd13ifvqbj0","pricing_plan_id":"cebpf4jnsgd1na2vs0mg"},{"bike_id":"950047eb-6f74-45ad-ad88-a1d1ee786300","system_id":"levelo_inurba_marseille","lat":43.31326,"lon":5.39689,"is_reserved":false,"is_disabled":false,"rental_uris":{"android":"levelo://app?vid=950047eb-6f74-45ad-ad88-a1d1ee786300","ios":"levelo://app?vid=950047eb-6f74-45ad-ad88-a1d1ee786300"},"vehicle_type_id":"4","last_reported":1733663857,"current_range_meters":14400,"station_id":"ce4bgvp2rcd13ifvqcu0","pricing_plan_id":"cebpf4jnsgd1na2vs0mg"},{"bike_id":"fbcf886d-6d6c-4e87-9335-231f3937d367","system_id":"levelo_inurba_marseille","lat":43.31523,"lon":5.38042,"is_reserved":false,"is_disabled":false,"rental_uris":{"android":"levelo://app?vid=fbcf886d-6d6c-4e87-9335-231f3937d367","ios":"levelo://app?vid=fbcf886d-6d6c-4e87-9335-231f3937d367"},"vehicle_type_id":"4","last_reported":1733663857,"current_range_meters":33600,"station_id":"ce4bhsp2rcd13ifvqi50","pricing_plan_id":"cebpf4jnsgd1na2vs0mg"},{"bike_id":"9fad8584-a25a-433b-87dc-5728e0e1b6f4","system_id":"levelo_inurba_marseille","lat":43.33025,"lon":5.39034,"is_reserved":false,"is_disabled":false,"rental_uris":{"android":"levelo://app?vid=9fad8584-a25a-433b-87dc-5728e0e1b6f4","ios":"levelo://app?vid=9fad8584-a25a-433b-87dc-5728e0e1b6f4"},"vehicle_type_id":"4","last_reported":1733663857,"current_range_meters":28000,"station_id":"ce4bhr92rcd13ifvqhrg","pricing_plan_id":"cebpf4jnsgd1na2vs0mg"},{"bike_id":"cfdb42d7-c2fb-4a20-ad92-a9ac35037daf","system_id":"levelo_inurba_marseille","lat":43.28003,"lon":5.40002,"is_reserved":false,"is_disabled":false,"rental_uris":{"android":"levelo://app?vid=cfdb42d7-c2fb-4a20-ad92-a9ac35037daf","ios":"levelo://app?vid=cfdb42d7-c2fb-4a20-ad92-a9ac35037daf"},"vehicle_type_id":"4","last_reported":1733663857,"current_range_meters":32800,"station_id":"ce4bho92rcd13ifvqh4g","pricing_plan_id":"cebpf4jnsgd1na2vs0mg"},{"bike_id":"f8240494-345f-4e24-9eed-066119e728d5","system_id":"levelo_inurba_marseille","lat":43.23158,"lon":5.43704,"is_reserved":false,"is_disabled":false,"rental_uris":{"android":"levelo://app?vid=f8240494-345f-4e24-9eed-066119e728d5","ios":"levelo://app?vid=f8240494-345f-4e24-9eed-066119e728d5"},"vehicle_type_id":"4","last_reported":1733663857,"current_range_meters":36400,"station_id":"ce4bhmp2rcd13ifvqgog","pricing_plan_id":"cebpf4jnsgd1na2vs0mg"},{"bike_id":"ca8652b0-7db7-4c0e-a4bf-d7c0b91fa4d1","system_id":"levelo_inurba_marseille","lat":43.31997,"lon":5.38163,"is_reserved":false,"is_disabled":false,"rental_uris":{"android":"levelo://app?vid=ca8652b0-7db7-4c0e-a4bf-d7c0b91fa4d1","ios":"levelo://app?vid=ca8652b0-7db7-4c0e-a4bf-d7c0b91fa4d1"},"vehicle_type_id":"4","last_reported":1733663857,"current_range_meters":38800,"station_id":"ce4bhr12rcd13ifvqhpg","pricing_plan_id":"cebpf4jnsgd1na2vs0mg"},{"bike_id":"067d4f8e-eded-4040-9b89-eb14aebc4852","system_id":"levelo_inurba_marseille","lat":43.29897,"lon":5.43678,"is_reserved":false,"is_disabled":false,"rental_uris":{"android":"levelo://app?vid=067d4f8e-eded-4040-9b89-eb14aebc4852","ios":"levelo://app?vid=067d4f8e-eded-4040-9b89-eb14aebc4852"},"vehicle_type_id":"4","last_reported":1733663857,"current_range_meters":8000,"station_id":"ce4bhpp2rcd13ifvqhfg","pricing_plan_id":"cebpf4jnsgd1na2vs0mg"},{"bike_id":"f59a9104-cc7d-4c5e-b1eb-666670ca963d","system_id":"levelo_inurba_marseille","lat":43.30951,"lon":5.39039,"is_reserved":false,"is_disabled":false,"rental_uris":{"android":"levelo://app?vid=f59a9104-cc7d-4c5e-b1eb-666670ca963d","ios":"levelo://app?vid=f59a9104-cc7d-4c5e-b1eb-666670ca963d"},"vehicle_type_id":"4","last_reported":1733663857,"current_range_meters":22400,"station_id":"ce4bgup2rcd13ifvqco0","pricing_plan_id":"cebpf4jnsgd1na2vs0mg"},{"bike_id":"1b12f0f8-09af-4e28-aa47-8f40543cd751","system_id":"levelo_inurba_marseille","lat":43.29629,"lon":5.40594,"is_reserved":false,"is_disabled":false,"rental_uris":{"android":"levelo://app?vid=1b12f0f8-09af-4e28-aa47-8f40543cd751","ios":"levelo://app?vid=1b12f0f8-09af-4e28-aa47-8f40543cd751"},"vehicle_type_id":"4","last_reported":1733663857,"current_range_meters":25600,"station_id":"ce4bh0h2rcd13ifvqd60","pricing_plan_id":"cebpf4jnsgd1na2vs0mg"},{"bike_id":"83985555-c848-4b28-808f-8a7e7cf8519e","system_id":"levelo_inurba_marseille","lat":43.28115,"lon":5.43955,"is_reserved":false,"is_disabled":true,"rental_uris":{"android":"levelo://app?vid=83985555-c848-4b28-808f-8a7e7cf8519e","ios":"levelo://app?vid=83985555-c848-4b28-808f-8a7e7cf8519e"},"vehicle_type_id":"4","last_reported":1733663857,"current_range_meters":0,"station_id":"","pricing_plan_id":"cebpf4jnsgd1na2vs0mg"},{"bike_id":"eb2fa195-9380-4931-9626-89cb9947f32c","system_id":"levelo_inurba_marseille","lat":43.27994,"lon":5.40027,"is_reserved":false,"is_disabled":false,"rental_uris":{"android":"levelo://app?vid=eb2fa195-9380-4931-9626-89cb9947f32c","ios":"levelo://app?vid=eb2fa195-9380-4931-9626-89cb9947f32c"},"vehicle_type_id":"4","last_reported":1733663857,"current_range_meters":38800,"station_id":"ce4bho92rcd13ifvqh4g","pricing_plan_id":"cebpf4jnsgd1na2vs0mg"},{"bike_id":"84eddd35-4076-462c-b0e4-9c17c748aeff","system_id":"levelo_inurba_marseille","lat":43.33771,"lon":5.37491,"is_reserved":false,"is_disabled":false,"rental_uris":{"android":"levelo://app?vid=84eddd35-4076-462c-b0e4-9c17c748aeff","ios":"levelo://app?vid=84eddd35-4076-462c-b0e4-9c17c748aeff"},"vehicle_type_id":"4","last_reported":1733663857,"current_range_meters":14000,"station_id":"","pricing_plan_id":"cebpf4jnsgd1na2vs0mg"},{"bike_id":"66d0f71e-5d76-4274-a432-4dd216931dd0","system_id":"levelo_inurba_marseille","lat":43.28419,"lon":5.34984,"is_reserved":false,"is_disabled":false,"rental_uris":{"android":"levelo://app?vid=66d0f71e-5d76-4274-a432-4dd216931dd0","ios":"levelo://app?vid=66d0f71e-5d76-4274-a432-4dd216931dd0"},"vehicle_type_id":"4","last_reported":1733663857,"current_range_meters":37600,"station_id":"ce4bhbh2rcd13ifvqepg","pricing_plan_id":"cebpf4jnsgd1na2vs0mg"},{"bike_id":"0aae26c9-3935-40e6-b11e-7105db9eee9b","system_id":"levelo_inurba_marseille","lat":43.2721,"lon":5.3918,"is_reserved":false,"is_disabled":false,"rental_uris":{"android":"levelo://app?vid=0aae26c9-3935-40e6-b11e-7105db9eee9b","ios":"levelo://app?vid=0aae26c9-3935-40e6-b11e-7105db9eee9b"},"vehicle_type_id":"4","last_reported":1733663857,"current_range_meters":9200,"station_id":"ce4bhhp2rcd13ifvqfm0","pricing_plan_id":"cebpf4jnsgd1na2vs0mg"},{"bike_id":"97ac6443-d24f-4abe-a801-acce28103b41","system_id":"levelo_inurba_marseille","lat":43.29847,"lon":5.36281,"is_reserved":false,"is_disabled":false,"rental_uris":{"android":"levelo://app?vid=97ac6443-d24f-4abe-a801-acce28103b41","ios":"levelo://app?vid=97ac6443-d24f-4abe-a801-acce28103b41"},"vehicle_type_id":"4","last_reported":1733663857,"current_range_meters":38800,"station_id":"ce4bgpp2rcd13ifvqc3g","pricing_plan_id":"cebpf4jnsgd1na2vs0mg"},{"bike_id":"85bb25a5-6313-4f76-a5db-8e9d1481f707","system_id":"levelo_inurba_marseille","lat":43.31066,"lon":5.3835,"is_reserved":false,"is_disabled":false,"rental_uris":{"android":"levelo://app?vid=85bb25a5-6313-4f76-a5db-8e9d1481f707","ios":"levelo://app?vid=85bb25a5-6313-4f76-a5db-8e9d1481f707"},"vehicle_type_id":"4","last_reported":1733663857,"current_range_meters":38800,"station_id":"ce4bgv92rcd13ifvqcr0","pricing_plan_id":"cebpf4jnsgd1na2vs0mg"},{"bike_id":"ee00fb54-0027-4097-a993-87df9ba09658","system_id":"levelo_inurba_marseille","lat":43.32649,"lon":5.41,"is_reserved":false,"is_disabled":false,"rental_uris":{"android":"levelo://app?vid=ee00fb54-0027-4097-a993-87df9ba09658","ios":"levelo://app?vid=ee00fb54-0027-4097-a993-87df9ba09658"},"vehicle_type_id":"4","last_reported":1733663857,"current_range_meters":10000,"station_id":"ce4bhpp2rcd13ifvqhgg","pricing_plan_id":"cebpf4jnsgd1na2vs0mg"},{"bike_id":"e5f483a5-0172-4512-b711-00716f237777","system_id":"levelo_inurba_marseille","lat":43.24661,"lon":5.38169,"is_reserved":false,"is_disabled":false,"rental_uris":{"android":"levelo://app?vid=e5f483a5-0172-4512-b711-00716f237777","ios":"levelo://app?vid=e5f483a5-0172-4512-b711-00716f237777"},"vehicle_type_id":"4","last_reported":1733663857,"current_range_meters":38800,"station_id":"ce4bhih2rcd13ifvqfr0","pricing_plan_id":"cebpf4jnsgd1na2vs0mg"},{"bike_id":"34cd3179-a984-4984-ba39-77f55cba8dc9","system_id":"levelo_inurba_marseille","lat":43.32657,"lon":5.40992,"is_reserved":false,"is_disabled":true,"rental_uris":{"android":"levelo://app?vid=34cd3179-a984-4984-ba39-77f55cba8dc9","ios":"levelo://app?vid=34cd3179-a984-4984-ba39-77f55cba8dc9"},"vehicle_type_id":"4","last_reported":1733663857,"current_range_meters":31200,"station_id":"ce4bhpp2rcd13ifvqhgg","pricing_plan_id":"cebpf4jnsgd1na2vs0mg"},{"bike_id":"f2b7e6b8-c876-4bef-a34a-8c304712dd78","system_id":"levelo_inurba_marseille","lat":43.31759,"lon":5.39026,"is_reserved":false,"is_disabled":false,"rental_uris":{"android":"levelo://app?vid=f2b7e6b8-c876-4bef-a34a-8c304712dd78","ios":"levelo://app?vid=f2b7e6b8-c876-4bef-a34a-8c304712dd78"},"vehicle_type_id":"4","last_reported":1733663857,"current_range_meters":38000,"station_id":"ce4bhqp2rcd13ifvqhng","pricing_plan_id":"cebpf4jnsgd1na2vs0mg"},{"bike_id":"5edf82fa-e9d0-4d1f-98f1-37c98092771a","system_id":"levelo_inurba_marseille","lat":43.23198,"lon":5.35542,"is_reserved":false,"is_disabled":false,"rental_uris":{"android":"levelo://app?vid=5edf82fa-e9d0-4d1f-98f1-37c98092771a","ios":"levelo://app?vid=5edf82fa-e9d0-4d1f-98f1-37c98092771a"},"vehicle_type_id":"4","last_reported":1733663857,"current_range_meters":39200,"station_id":"ce4bhu92rcd13ifvqi70","pricing_plan_id":"cebpf4jnsgd1na2vs0mg"},{"bike_id":"c2fec4a2-7019-4722-9535-487b9ffdfbe8","system_id":"levelo_inurba_marseille","lat":43.26552,"lon":5.37291,"is_reserved":false,"is_disabled":false,"rental_uris":{"android":"levelo://app?vid=c2fec4a2-7019-4722-9535-487b9ffdfbe8","ios":"levelo://app?vid=c2fec4a2-7019-4722-9535-487b9ffdfbe8"},"vehicle_type_id":"4","last_reported":1733663857,"current_range_meters":38800,"station_id":"ce4bhg12rcd13ifvqf70","pricing_plan_id":"cebpf4jnsgd1na2vs0mg"},{"bike_id":"68feebb6-fec8-45a5-9e2d-70c530f4e011","system_id":"levelo_inurba_marseille","lat":43.2762,"lon":5.36116,"is_reserved":false,"is_disabled":false,"rental_uris":{"android":"levelo://app?vid=68feebb6-fec8-45a5-9e2d-70c530f4e011","ios":"levelo://app?vid=68feebb6-fec8-45a5-9e2d-70c530f4e011"},"vehicle_type_id":"4","last_reported":1733663857,"current_range_meters":14400,"station_id":"ce4bgj92rcd13ifvqbe0","pricing_plan_id":"cebpf4jnsgd1na2vs0mg"},{"bike_id":"3afcb54a-b8a5-40bb-8ae8-ddf1f47b8268","system_id":"levelo_inurba_marseille","lat":43.305394,"lon":5.384346,"is_reserved":false,"is_disabled":true,"rental_uris":{"android":"levelo://app?vid=3afcb54a-b8a5-40bb-8ae8-ddf1f47b8268","ios":"levelo://app?vid=3afcb54a-b8a5-40bb-8ae8-ddf1f47b8268"},"vehicle_type_id":"4","last_reported":1733663857,"current_range_meters":30800,"station_id":"ce4bgg92rcd13ifvqb30","pricing_plan_id":"cebpf4jnsgd1na2vs0mg"},{"bike_id":"77f66a6c-12e3-4d39-990d-5be7105606a5","system_id":"levelo_inurba_marseille","lat":43.28616,"lon":5.35114,"is_reserved":false,"is_disabled":false,"rental_uris":{"android":"levelo://app?vid=77f66a6c-12e3-4d39-990d-5be7105606a5","ios":"levelo://app?vid=77f66a6c-12e3-4d39-990d-5be7105606a5"},"vehicle_type_id":"4","last_reported":1733663857,"current_range_meters":33600,"station_id":"ce4bhch2rcd13ifvqeug","pricing_plan_id":"cebpf4jnsgd1na2vs0mg"},{"bike_id":"a76f0499-0af6-402b-8f9f-ddd78320a7b4","system_id":"levelo_inurba_marseille","lat":43.30452,"lon":5.37909,"is_reserved":false,"is_disabled":true,"rental_uris":{"android":"levelo://app?vid=a76f0499-0af6-402b-8f9f-ddd78320a7b4","ios":"levelo://app?vid=a76f0499-0af6-402b-8f9f-ddd78320a7b4"},"vehicle_type_id":"4","last_reported":1733663857,"current_range_meters":0,"station_id":"ce4bgup2rcd13ifvqcn0","pricing_plan_id":"cebpf4jnsgd1na2vs0mg"},{"bike_id":"83319820-ad4f-4208-bf65-c9fc431b1a4c","system_id":"levelo_inurba_marseille","lat":43.25828,"lon":5.39437,"is_reserved":false,"is_disabled":false,"rental_uris":{"android":"levelo://app?vid=83319820-ad4f-4208-bf65-c9fc431b1a4c","ios":"levelo://app?vid=83319820-ad4f-4208-bf65-c9fc431b1a4c"},"vehicle_type_id":"4","last_reported":1733663857,"current_range_meters":28000,"station_id":"ce4bhip2rcd13ifvqft0","pricing_plan_id":"cebpf4jnsgd1na2vs0mg"},{"bike_id":"5d093cf1-ed3d-447c-b21b-7e295f20efe5","system_id":"levelo_inurba_marseille","lat":43.26682,"lon":5.38273,"is_reserved":false,"is_disabled":false,"rental_uris":{"android":"levelo://app?vid=5d093cf1-ed3d-447c-b21b-7e295f20efe5","ios":"levelo://app?vid=5d093cf1-ed3d-447c-b21b-7e295f20efe5"},"vehicle_type_id":"4","last_reported":1733663857,"current_range_meters":12000,"station_id":"ce4bhg92rcd13ifvqf90","pricing_plan_id":"cebpf4jnsgd1na2vs0mg"},{"bike_id":"9c2d089d-e580-464c-a254-a84d0c5baff8","system_id":"levelo_inurba_marseille","lat":43.25864,"lon":5.3991,"is_reserved":false,"is_disabled":false,"rental_uris":{"android":"levelo://app?vid=9c2d089d-e580-464c-a254-a84d0c5baff8","ios":"levelo://app?vid=9c2d089d-e580-464c-a254-a84d0c5baff8"},"vehicle_type_id":"4","last_reported":1733663857,"current_range_meters":37600,"station_id":"ce4bhl92rcd13ifvqghg","pricing_plan_id":"cebpf4jnsgd1na2vs0mg"},{"bike_id":"b497ad4d-1643-419c-aba6-8e8a5474d77a","system_id":"levelo_inurba_marseille","lat":43.29895,"lon":5.43666,"is_reserved":false,"is_disabled":false,"rental_uris":{"android":"levelo://app?vid=b497ad4d-1643-419c-aba6-8e8a5474d77a","ios":"levelo://app?vid=b497ad4d-1643-419c-aba6-8e8a5474d77a"},"vehicle_type_id":"4","last_reported":1733663857,"current_range_meters":12400,"station_id":"ce4bhpp2rcd13ifvqhfg","pricing_plan_id":"cebpf4jnsgd1na2vs0mg"},{"bike_id":"c14dcf58-fc9f-42d0-9ea7-6a4f6d464bdb","system_id":"levelo_inurba_marseille","lat":43.28261,"lon":5.35077,"is_reserved":false,"is_disabled":false,"rental_uris":{"android":"levelo://app?vid=c14dcf58-fc9f-42d0-9ea7-6a4f6d464bdb","ios":"levelo://app?vid=c14dcf58-fc9f-42d0-9ea7-6a4f6d464bdb"},"vehicle_type_id":"4","last_reported":1733663857,"current_range_meters":18000,"station_id":"ce4bhbp2rcd13ifvqerg","pricing_plan_id":"cebpf4jnsgd1na2vs0mg"},{"bike_id":"1b0cf7b0-f1f1-420d-b39e-8993110a2cf3","system_id":"levelo_inurba_marseille","lat":43.29487,"lon":5.43845,"is_reserved":false,"is_disabled":false,"rental_uris":{"android":"levelo://app?vid=1b0cf7b0-f1f1-420d-b39e-8993110a2cf3","ios":"levelo://app?vid=1b0cf7b0-f1f1-420d-b39e-8993110a2cf3"},"vehicle_type_id":"4","last_reported":1733663857,"current_range_meters":20400,"station_id":"","pricing_plan_id":"cebpf4jnsgd1na2vs0mg"},{"bike_id":"872baac7-a790-472e-a4d5-8894eb9605e5","system_id":"levelo_inurba_marseille","lat":43.28778,"lon":5.36252,"is_reserved":false,"is_disabled":false,"rental_uris":{"android":"levelo://app?vid=872baac7-a790-472e-a4d5-8894eb9605e5","ios":"levelo://app?vid=872baac7-a790-472e-a4d5-8894eb9605e5"},"vehicle_type_id":"4","last_reported":1733663857,"current_range_meters":14400,"station_id":"","pricing_plan_id":"cebpf4jnsgd1na2vs0mg"},{"bike_id":"0deb7b46-3bee-4382-87b1-3984fb62457f","system_id":"levelo_inurba_marseille","lat":43.28742,"lon":5.38915,"is_reserved":false,"is_disabled":true,"rental_uris":{"android":"levelo://app?vid=0deb7b46-3bee-4382-87b1-3984fb62457f","ios":"levelo://app?vid=0deb7b46-3bee-4382-87b1-3984fb62457f"},"vehicle_type_id":"4","last_reported":1733663857,"current_range_meters":22400,"station_id":"","pricing_plan_id":"cebpf4jnsgd1na2vs0mg"},{"bike_id":"80dee36a-c3af-462d-839d-074f8f8d936f","system_id":"levelo_inurba_marseille","lat":43.30431,"lon":5.39753,"is_reserved":false,"is_disabled":true,"rental_uris":{"android":"levelo://app?vid=80dee36a-c3af-462d-839d-074f8f8d936f","ios":"levelo://app?vid=80dee36a-c3af-462d-839d-074f8f8d936f"},"vehicle_type_id":"4","last_reported":1733663857,"current_range_meters":0,"station_id":"ce4bh092rcd13ifvqd20","pricing_plan_id":"cebpf4jnsgd1na2vs0mg"},{"bike_id":"a06d0b86-caa6-4b7b-812b-e35b29784d25","system_id":"levelo_inurba_marseille","lat":43.32054,"lon":5.4155,"is_reserved":false,"is_disabled":false,"rental_uris":{"android":"levelo://app?vid=a06d0b86-caa6-4b7b-812b-e35b29784d25","ios":"levelo://app?vid=a06d0b86-caa6-4b7b-812b-e35b29784d25"},"vehicle_type_id":"4","last_reported":1733663857,"current_range_meters":20000,"station_id":"ce4bhq92rcd13ifvqhkg","pricing_plan_id":"cebpf4jnsgd1na2vs0mg"},{"bike_id":"99d798fc-c0e8-43d7-9e3a-746df89e479b","system_id":"levelo_inurba_marseille","lat":43.25577,"lon":5.38239,"is_reserved":false,"is_disabled":false,"rental_uris":{"android":"levelo://app?vid=99d798fc-c0e8-43d7-9e3a-746df89e479b","ios":"levelo://app?vid=99d798fc-c0e8-43d7-9e3a-746df89e479b"},"vehicle_type_id":"4","last_reported":1733663857,"current_range_meters":27200,"station_id":"ce4bhih2rcd13ifvqfs0","pricing_plan_id":"cebpf4jnsgd1na2vs0mg"},{"bike_id":"ddac596a-80f1-4c7d-9f52-e8e93969ff79","system_id":"levelo_inurba_marseille","lat":43.28148,"lon":5.42646,"is_reserved":false,"is_disabled":false,"rental_uris":{"android":"levelo://app?vid=ddac596a-80f1-4c7d-9f52-e8e93969ff79","ios":"levelo://app?vid=ddac596a-80f1-4c7d-9f52-e8e93969ff79"},"vehicle_type_id":"4","last_reported":1733663857,"current_range_meters":26800,"station_id":"","pricing_plan_id":"cebpf4jnsgd1na2vs0mg"},{"bike_id":"8ef6d266-26de-486a-a915-4f49d76c8d62","system_id":"levelo_inurba_marseille","lat":43.29051,"lon":5.35913,"is_reserved":false,"is_disabled":false,"rental_uris":{"android":"levelo://app?vid=8ef6d266-26de-486a-a915-4f49d76c8d62","ios":"levelo://app?vid=8ef6d266-26de-486a-a915-4f49d76c8d62"},"vehicle_type_id":"4","last_reported":1733663857,"current_range_meters":6400,"station_id":"ce4bha92rcd13ifvqeg0","pricing_plan_id":"cebpf4jnsgd1na2vs0mg"},{"bike_id":"e5d371d9-789d-4065-9a1d-234e47ae4477","system_id":"levelo_inurba_marseille","lat":43.2731,"lon":5.39107,"is_reserved":false,"is_disabled":false,"rental_uris":{"android":"levelo://app?vid=e5d371d9-789d-4065-9a1d-234e47ae4477","ios":"levelo://app?vid=e5d371d9-789d-4065-9a1d-234e47ae4477"},"vehicle_type_id":"4","last_reported":1733663857,"current_range_meters":38800,"station_id":"ce4bhgp2rcd13ifvqfe0","pricing_plan_id":"cebpf4jnsgd1na2vs0mg"},{"bike_id":"42d132c2-fc0d-48b6-b6b0-3c11cbcdbc4d","system_id":"levelo_inurba_marseille","lat":43.26063,"lon":5.39399,"is_reserved":false,"is_disabled":false,"rental_uris":{"android":"levelo://app?vid=42d132c2-fc0d-48b6-b6b0-3c11cbcdbc4d","ios":"levelo://app?vid=42d132c2-fc0d-48b6-b6b0-3c11cbcdbc4d"},"vehicle_type_id":"4","last_reported":1733663857,"current_range_meters":22000,"station_id":"ce4bhh92rcd13ifvqfj0","pricing_plan_id":"cebpf4jnsgd1na2vs0mg"},{"bike_id":"9f53acdf-b2be-4b69-b01b-87cbf7343be4","system_id":"levelo_inurba_marseille","lat":43.26491,"lon":5.3955,"is_reserved":false,"is_disabled":true,"rental_uris":{"android":"levelo://app?vid=9f53acdf-b2be-4b69-b01b-87cbf7343be4","ios":"levelo://app?vid=9f53acdf-b2be-4b69-b01b-87cbf7343be4"},"vehicle_type_id":"4","last_reported":1733663857,"current_range_meters":30400,"station_id":"ce4bhi12rcd13ifvqfq0","pricing_plan_id":"cebpf4jnsgd1na2vs0mg"},{"bike_id":"50f52497-54ca-47ea-a19e-1fc86f8c6045","system_id":"levelo_inurba_marseille","lat":43.28236,"lon":5.42425,"is_reserved":false,"is_disabled":true,"rental_uris":{"android":"levelo://app?vid=50f52497-54ca-47ea-a19e-1fc86f8c6045","ios":"levelo://app?vid=50f52497-54ca-47ea-a19e-1fc86f8c6045"},"vehicle_type_id":"4","last_reported":1733663857,"current_range_meters":13600,"station_id":"","pricing_plan_id":"cebpf4jnsgd1na2vs0mg"},{"bike_id":"a5f05a06-bff4-4f39-af01-91b3d19736b8","system_id":"levelo_inurba_marseille","lat":43.23201,"lon":5.35555,"is_reserved":false,"is_disabled":false,"rental_uris":{"android":"levelo://app?vid=a5f05a06-bff4-4f39-af01-91b3d19736b8","ios":"levelo://app?vid=a5f05a06-bff4-4f39-af01-91b3d19736b8"},"vehicle_type_id":"4","last_reported":1733663857,"current_range_meters":25600,"station_id":"ce4bhu92rcd13ifvqi70","pricing_plan_id":"cebpf4jnsgd1na2vs0mg"},{"bike_id":"02dee8a0-ea77-4903-9223-9269255a45ee","system_id":"levelo_inurba_marseille","lat":43.28936,"lon":5.36394,"is_reserved":false,"is_disabled":false,"rental_uris":{"android":"levelo://app?vid=02dee8a0-ea77-4903-9223-9269255a45ee","ios":"levelo://app?vid=02dee8a0-ea77-4903-9223-9269255a45ee"},"vehicle_type_id":"4","last_reported":1733663857,"current_range_meters":38800,"station_id":"ce4bhc92rcd13ifvqetg","pricing_plan_id":"cebpf4jnsgd1na2vs0mg"},{"bike_id":"33f1a526-a5a3-4261-b1e0-d90c46ff918d","system_id":"levelo_inurba_marseille","lat":43.2815,"lon":5.4264,"is_reserved":false,"is_disabled":true,"rental_uris":{"android":"levelo://app?vid=33f1a526-a5a3-4261-b1e0-d90c46ff918d","ios":"levelo://app?vid=33f1a526-a5a3-4261-b1e0-d90c46ff918d"},"vehicle_type_id":"4","last_reported":1733663857,"current_range_meters":26800,"station_id":"ce4bhnh2rcd13ifvqgug","pricing_plan_id":"cebpf4jnsgd1na2vs0mg"},{"bike_id":"fbe73133-f485-4aa9-9698-ee86772b743d","system_id":"levelo_inurba_marseille","lat":43.27492,"lon":5.42454,"is_reserved":false,"is_disabled":false,"rental_uris":{"android":"levelo://app?vid=fbe73133-f485-4aa9-9698-ee86772b743d","ios":"levelo://app?vid=fbe73133-f485-4aa9-9698-ee86772b743d"},"vehicle_type_id":"4","last_reported":1733663857,"current_range_meters":19200,"station_id":"ce4bhn92rcd13ifvqgrg","pricing_plan_id":"cebpf4jnsgd1na2vs0mg"},{"bike_id":"7d60acff-cb6c-4a92-aca6-d0de3845edf6","system_id":"levelo_inurba_marseille","lat":43.29545,"lon":5.38544,"is_reserved":false,"is_disabled":true,"rental_uris":{"android":"levelo://app?vid=7d60acff-cb6c-4a92-aca6-d0de3845edf6","ios":"levelo://app?vid=7d60acff-cb6c-4a92-aca6-d0de3845edf6"},"vehicle_type_id":"4","last_reported":1733663857,"current_range_meters":22000,"station_id":"ce4bgih2rcd13ifvqba0","pricing_plan_id":"cebpf4jnsgd1na2vs0mg"},{"bike_id":"987a1e27-c7ac-4001-a268-c7e2ad73c734","system_id":"levelo_inurba_marseille","lat":43.25729,"lon":5.41116,"is_reserved":false,"is_disabled":false,"rental_uris":{"android":"levelo://app?vid=987a1e27-c7ac-4001-a268-c7e2ad73c734","ios":"levelo://app?vid=987a1e27-c7ac-4001-a268-c7e2ad73c734"},"vehicle_type_id":"4","last_reported":1733663857,"current_range_meters":38800,"station_id":"ce4bhkp2rcd13ifvqgd0","pricing_plan_id":"cebpf4jnsgd1na2vs0mg"},{"bike_id":"98d870f7-7309-4514-bb5c-ca8aaa0e4cd6","system_id":"levelo_inurba_marseille","lat":43.29905,"lon":5.38153,"is_reserved":false,"is_disabled":false,"rental_uris":{"android":"levelo://app?vid=98d870f7-7309-4514-bb5c-ca8aaa0e4cd6","ios":"levelo://app?vid=98d870f7-7309-4514-bb5c-ca8aaa0e4cd6"},"vehicle_type_id":"4","last_reported":1733663857,"current_range_meters":38800,"station_id":"ce4bgj12rcd13ifvqbc0","pricing_plan_id":"cebpf4jnsgd1na2vs0mg"},{"bike_id":"8bb2d0ac-6c24-48e9-a362-4557cebd0f8d","system_id":"levelo_inurba_marseille","lat":43.29622,"lon":5.37152,"is_reserved":false,"is_disabled":false,"rental_uris":{"android":"levelo://app?vid=8bb2d0ac-6c24-48e9-a362-4557cebd0f8d","ios":"levelo://app?vid=8bb2d0ac-6c24-48e9-a362-4557cebd0f8d"},"vehicle_type_id":"4","last_reported":1733663857,"current_range_meters":38400,"station_id":"ce4bgnh2rcd13ifvqc0g","pricing_plan_id":"cebpf4jnsgd1na2vs0mg"},{"bike_id":"be2bf5d5-0827-4ad5-9f75-a43ca765fc98","system_id":"levelo_inurba_marseille","lat":43.28968,"lon":5.37842,"is_reserved":false,"is_disabled":true,"rental_uris":{"android":"levelo://app?vid=be2bf5d5-0827-4ad5-9f75-a43ca765fc98","ios":"levelo://app?vid=be2bf5d5-0827-4ad5-9f75-a43ca765fc98"},"vehicle_type_id":"4","last_reported":1733663857,"current_range_meters":30400,"station_id":"ce4bh9p2rcd13ifvqed0","pricing_plan_id":"cebpf4jnsgd1na2vs0mg"},{"bike_id":"aa598fe7-9d22-4853-a7aa-f13104024041","system_id":"levelo_inurba_marseille","lat":43.28455,"lon":5.35886,"is_reserved":false,"is_disabled":false,"rental_uris":{"android":"levelo://app?vid=aa598fe7-9d22-4853-a7aa-f13104024041","ios":"levelo://app?vid=aa598fe7-9d22-4853-a7aa-f13104024041"},"vehicle_type_id":"4","last_reported":1733663857,"current_range_meters":23200,"station_id":"ce4bhah2rcd13ifvqei0","pricing_plan_id":"cebpf4jnsgd1na2vs0mg"},{"bike_id":"bf76a888-bd85-4306-88c3-aa532cd407f7","system_id":"levelo_inurba_marseille","lat":43.29845,"lon":5.36288,"is_reserved":false,"is_disabled":false,"rental_uris":{"android":"levelo://app?vid=bf76a888-bd85-4306-88c3-aa532cd407f7","ios":"levelo://app?vid=bf76a888-bd85-4306-88c3-aa532cd407f7"},"vehicle_type_id":"4","last_reported":1733663857,"current_range_meters":26000,"station_id":"ce4bgpp2rcd13ifvqc3g","pricing_plan_id":"cebpf4jnsgd1na2vs0mg"},{"bike_id":"108e2137-b154-45b2-b42f-ff4b6bbead3d","system_id":"levelo_inurba_marseille","lat":43.2762,"lon":5.3611,"is_reserved":false,"is_disabled":false,"rental_uris":{"android":"levelo://app?vid=108e2137-b154-45b2-b42f-ff4b6bbead3d","ios":"levelo://app?vid=108e2137-b154-45b2-b42f-ff4b6bbead3d"},"vehicle_type_id":"4","last_reported":1733663857,"current_range_meters":30400,"station_id":"ce4bgj92rcd13ifvqbe0","pricing_plan_id":"cebpf4jnsgd1na2vs0mg"},{"bike_id":"b865b877-dc22-4c08-b951-30df1268edff","system_id":"levelo_inurba_marseille","lat":43.26806,"lon":5.40268,"is_reserved":false,"is_disabled":false,"rental_uris":{"android":"levelo://app?vid=b865b877-dc22-4c08-b951-30df1268edff","ios":"levelo://app?vid=b865b877-dc22-4c08-b951-30df1268edff"},"vehicle_type_id":"4","last_reported":1733663857,"current_range_meters":38800,"station_id":"ce501612rcd8frsf0b60","pricing_plan_id":"cebpf4jnsgd1na2vs0mg"},{"bike_id":"a3dd1984-4193-477f-b9a6-7f14c8f93b26","system_id":"levelo_inurba_marseille","lat":43.30095,"lon":5.39088,"is_reserved":false,"is_disabled":true,"rental_uris":{"android":"levelo://app?vid=a3dd1984-4193-477f-b9a6-7f14c8f93b26","ios":"levelo://app?vid=a3dd1984-4193-477f-b9a6-7f14c8f93b26"},"vehicle_type_id":"4","last_reported":1733663857,"current_range_meters":33600,"station_id":"ce4bh192rcd13ifvqdb0","pricing_plan_id":"cebpf4jnsgd1na2vs0mg"},{"bike_id":"31efb096-cf35-4841-8a8c-fcb0e0cddf70","system_id":"levelo_inurba_marseille","lat":43.28403,"lon":5.35007,"is_reserved":false,"is_disabled":false,"rental_uris":{"android":"levelo://app?vid=31efb096-cf35-4841-8a8c-fcb0e0cddf70","ios":"levelo://app?vid=31efb096-cf35-4841-8a8c-fcb0e0cddf70"},"vehicle_type_id":"4","last_reported":1733663857,"current_range_meters":37600,"station_id":"ce4bhbh2rcd13ifvqepg","pricing_plan_id":"cebpf4jnsgd1na2vs0mg"},{"bike_id":"4c729a4a-b6dc-4fd1-a3b4-fe3921c7572c","system_id":"levelo_inurba_marseille","lat":43.29847,"lon":5.36273,"is_reserved":false,"is_disabled":false,"rental_uris":{"android":"levelo://app?vid=4c729a4a-b6dc-4fd1-a3b4-fe3921c7572c","ios":"levelo://app?vid=4c729a4a-b6dc-4fd1-a3b4-fe3921c7572c"},"vehicle_type_id":"4","last_reported":1733663857,"current_range_meters":20000,"station_id":"ce4bgpp2rcd13ifvqc3g","pricing_plan_id":"cebpf4jnsgd1na2vs0mg"},{"bike_id":"6ad8fff5-6505-40fc-8922-2acdd3c82e7b","system_id":"levelo_inurba_marseille","lat":43.29778,"lon":5.38115,"is_reserved":false,"is_disabled":true,"rental_uris":{"android":"levelo://app?vid=6ad8fff5-6505-40fc-8922-2acdd3c82e7b","ios":"levelo://app?vid=6ad8fff5-6505-40fc-8922-2acdd3c82e7b"},"vehicle_type_id":"4","last_reported":1733663857,"current_range_meters":10800,"station_id":"ce4bgip2rcd13ifvqbb0","pricing_plan_id":"cebpf4jnsgd1na2vs0mg"},{"bike_id":"196979d7-d1d3-4cfd-94e5-6c500ecf15b9","system_id":"levelo_inurba_marseille","lat":43.27205,"lon":5.39184,"is_reserved":false,"is_disabled":false,"rental_uris":{"android":"levelo://app?vid=196979d7-d1d3-4cfd-94e5-6c500ecf15b9","ios":"levelo://app?vid=196979d7-d1d3-4cfd-94e5-6c500ecf15b9"},"vehicle_type_id":"4","last_reported":1733663857,"current_range_meters":38800,"station_id":"ce4bhhp2rcd13ifvqfm0","pricing_plan_id":"cebpf4jnsgd1na2vs0mg"},{"bike_id":"8adb385c-4540-45bd-bf84-7345f9c5670e","system_id":"levelo_inurba_marseille","lat":43.23205,"lon":5.35551,"is_reserved":false,"is_disabled":false,"rental_uris":{"android":"levelo://app?vid=8adb385c-4540-45bd-bf84-7345f9c5670e","ios":"levelo://app?vid=8adb385c-4540-45bd-bf84-7345f9c5670e"},"vehicle_type_id":"4","last_reported":1733663857,"current_range_meters":38800,"station_id":"ce4bhu92rcd13ifvqi70","pricing_plan_id":"cebpf4jnsgd1na2vs0mg"},{"bike_id":"06cbc9bc-31e7-4dc4-a15a-916676e349b8","system_id":"levelo_inurba_marseille","lat":43.27375,"lon":5.36256,"is_reserved":false,"is_disabled":true,"rental_uris":{"android":"levelo://app?vid=06cbc9bc-31e7-4dc4-a15a-916676e349b8","ios":"levelo://app?vid=06cbc9bc-31e7-4dc4-a15a-916676e349b8"},"vehicle_type_id":"4","last_reported":1733663857,"current_range_meters":38800,"station_id":"ce4bhbh2rcd13ifvqeo0","pricing_plan_id":"cebpf4jnsgd1na2vs0mg"},{"bike_id":"5d5f59b0-47ba-4e94-988c-a83cc55a8f91","system_id":"levelo_inurba_marseille","lat":43.27066,"lon":5.42284,"is_reserved":false,"is_disabled":false,"rental_uris":{"android":"levelo://app?vid=5d5f59b0-47ba-4e94-988c-a83cc55a8f91","ios":"levelo://app?vid=5d5f59b0-47ba-4e94-988c-a83cc55a8f91"},"vehicle_type_id":"4","last_reported":1733663857,"current_range_meters":37600,"station_id":"ce4bhk92rcd13ifvqgb0","pricing_plan_id":"cebpf4jnsgd1na2vs0mg"},{"bike_id":"91863486-6aca-4447-9b02-cd443a78c3cd","system_id":"levelo_inurba_marseille","lat":43.28414,"lon":5.34984,"is_reserved":false,"is_disabled":false,"rental_uris":{"android":"levelo://app?vid=91863486-6aca-4447-9b02-cd443a78c3cd","ios":"levelo://app?vid=91863486-6aca-4447-9b02-cd443a78c3cd"},"vehicle_type_id":"4","last_reported":1733663857,"current_range_meters":32800,"station_id":"ce4bhbh2rcd13ifvqepg","pricing_plan_id":"cebpf4jnsgd1na2vs0mg"},{"bike_id":"4527669e-b7bf-4bfd-ace2-19b92402cb9c","system_id":"levelo_inurba_marseille","lat":43.28093,"lon":5.37871,"is_reserved":false,"is_disabled":false,"rental_uris":{"android":"levelo://app?vid=4527669e-b7bf-4bfd-ace2-19b92402cb9c","ios":"levelo://app?vid=4527669e-b7bf-4bfd-ace2-19b92402cb9c"},"vehicle_type_id":"4","last_reported":1733663857,"current_range_meters":38800,"station_id":"ce4bha12rcd13ifvqee0","pricing_plan_id":"cebpf4jnsgd1na2vs0mg"},{"bike_id":"003a0423-dbbb-4892-9836-52426f6bb5a1","system_id":"levelo_inurba_marseille","lat":43.31481,"lon":5.37299,"is_reserved":false,"is_disabled":false,"rental_uris":{"android":"levelo://app?vid=003a0423-dbbb-4892-9836-52426f6bb5a1","ios":"levelo://app?vid=003a0423-dbbb-4892-9836-52426f6bb5a1"},"vehicle_type_id":"4","last_reported":1733663857,"current_range_meters":37600,"station_id":"ce4bgt12rcd13ifvqcd0","pricing_plan_id":"cebpf4jnsgd1na2vs0mg"},{"bike_id":"eb4e32cd-a02d-4e92-a013-1fdc0dd71ccb","system_id":"levelo_inurba_marseille","lat":43.324799,"lon":5.365716,"is_reserved":false,"is_disabled":true,"rental_uris":{"android":"levelo://app?vid=eb4e32cd-a02d-4e92-a013-1fdc0dd71ccb","ios":"levelo://app?vid=eb4e32cd-a02d-4e92-a013-1fdc0dd71ccb"},"vehicle_type_id":"4","last_reported":1733663857,"current_range_meters":800,"station_id":"","pricing_plan_id":"cebpf4jnsgd1na2vs0mg"},{"bike_id":"192296d8-1a28-4db3-bcb9-a46b512f3c5c","system_id":"levelo_inurba_marseille","lat":43.28713,"lon":5.37925,"is_reserved":false,"is_disabled":false,"rental_uris":{"android":"levelo://app?vid=192296d8-1a28-4db3-bcb9-a46b512f3c5c","ios":"levelo://app?vid=192296d8-1a28-4db3-bcb9-a46b512f3c5c"},"vehicle_type_id":"4","last_reported":1733663857,"current_range_meters":19600,"station_id":"ce4bh9p2rcd13ifvqec0","pricing_plan_id":"cebpf4jnsgd1na2vs0mg"},{"bike_id":"7e0373f0-85f3-4ccf-b084-e5358e7224cd","system_id":"levelo_inurba_marseille","lat":43.24661,"lon":5.38174,"is_reserved":false,"is_disabled":false,"rental_uris":{"android":"levelo://app?vid=7e0373f0-85f3-4ccf-b084-e5358e7224cd","ios":"levelo://app?vid=7e0373f0-85f3-4ccf-b084-e5358e7224cd"},"vehicle_type_id":"4","last_reported":1733663857,"current_range_meters":37600,"station_id":"ce4bhih2rcd13ifvqfr0","pricing_plan_id":"cebpf4jnsgd1na2vs0mg"},{"bike_id":"ab36643e-a272-410f-b334-23297b8e1088","system_id":"levelo_inurba_marseille","lat":43.26777,"lon":5.3942,"is_reserved":false,"is_disabled":false,"rental_uris":{"android":"levelo://app?vid=ab36643e-a272-410f-b334-23297b8e1088","ios":"levelo://app?vid=ab36643e-a272-410f-b334-23297b8e1088"},"vehicle_type_id":"4","last_reported":1733663857,"current_range_meters":22400,"station_id":"ce4bhh12rcd13ifvqfg0","pricing_plan_id":"cebpf4jnsgd1na2vs0mg"},{"bike_id":"bbf2a15a-7c34-4cdd-8f7d-611582aea846","system_id":"levelo_inurba_marseille","lat":43.27309,"lon":5.39078,"is_reserved":false,"is_disabled":false,"rental_uris":{"android":"levelo://app?vid=bbf2a15a-7c34-4cdd-8f7d-611582aea846","ios":"levelo://app?vid=bbf2a15a-7c34-4cdd-8f7d-611582aea846"},"vehicle_type_id":"4","last_reported":1733663857,"current_range_meters":12000,"station_id":"ce4bhgp2rcd13ifvqfe0","pricing_plan_id":"cebpf4jnsgd1na2vs0mg"},{"bike_id":"5189ae3f-c807-455c-b5a1-b437b3840d9d","system_id":"levelo_inurba_marseille","lat":43.29843,"lon":5.36272,"is_reserved":false,"is_disabled":false,"rental_uris":{"android":"levelo://app?vid=5189ae3f-c807-455c-b5a1-b437b3840d9d","ios":"levelo://app?vid=5189ae3f-c807-455c-b5a1-b437b3840d9d"},"vehicle_type_id":"4","last_reported":1733663857,"current_range_meters":38800,"station_id":"ce4bgpp2rcd13ifvqc3g","pricing_plan_id":"cebpf4jnsgd1na2vs0mg"},{"bike_id":"fd98eaa9-4d55-4e7b-aa90-0d14707466d9","system_id":"levelo_inurba_marseille","lat":43.337444,"lon":5.374475,"is_reserved":false,"is_disabled":true,"rental_uris":{"android":"levelo://app?vid=fd98eaa9-4d55-4e7b-aa90-0d14707466d9","ios":"levelo://app?vid=fd98eaa9-4d55-4e7b-aa90-0d14707466d9"},"vehicle_type_id":"4","last_reported":1733663857,"current_range_meters":0,"station_id":"","pricing_plan_id":"cebpf4jnsgd1na2vs0mg"},{"bike_id":"06f294bd-d283-4b87-866b-9173a9d88558","system_id":"levelo_inurba_marseille","lat":43.25859,"lon":5.39902,"is_reserved":false,"is_disabled":false,"rental_uris":{"android":"levelo://app?vid=06f294bd-d283-4b87-866b-9173a9d88558","ios":"levelo://app?vid=06f294bd-d283-4b87-866b-9173a9d88558"},"vehicle_type_id":"4","last_reported":1733663857,"current_range_meters":37600,"station_id":"ce4bhl92rcd13ifvqghg","pricing_plan_id":"cebpf4jnsgd1na2vs0mg"},{"bike_id":"4afc6679-f74d-4919-af4d-ff11f4e59409","system_id":"levelo_inurba_marseille","lat":43.27812,"lon":5.4072,"is_reserved":false,"is_disabled":false,"rental_uris":{"android":"levelo://app?vid=4afc6679-f74d-4919-af4d-ff11f4e59409","ios":"levelo://app?vid=4afc6679-f74d-4919-af4d-ff11f4e59409"},"vehicle_type_id":"4","last_reported":1733663857,"current_range_meters":38800,"station_id":"ce4bhnh2rcd13ifvqgtg","pricing_plan_id":"cebpf4jnsgd1na2vs0mg"},{"bike_id":"b3f5951b-05bc-4251-8d30-44c7edb429f4","system_id":"levelo_inurba_marseille","lat":43.23149,"lon":5.4372,"is_reserved":false,"is_disabled":false,"rental_uris":{"android":"levelo://app?vid=b3f5951b-05bc-4251-8d30-44c7edb429f4","ios":"levelo://app?vid=b3f5951b-05bc-4251-8d30-44c7edb429f4"},"vehicle_type_id":"4","last_reported":1733663857,"current_range_meters":11600,"station_id":"ce4bhmp2rcd13ifvqgog","pricing_plan_id":"cebpf4jnsgd1na2vs0mg"},{"bike_id":"2a47ca98-488a-4daf-bb1c-ef85a272ce59","system_id":"levelo_inurba_marseille","lat":43.26773,"lon":5.39436,"is_reserved":false,"is_disabled":false,"rental_uris":{"android":"levelo://app?vid=2a47ca98-488a-4daf-bb1c-ef85a272ce59","ios":"levelo://app?vid=2a47ca98-488a-4daf-bb1c-ef85a272ce59"},"vehicle_type_id":"4","last_reported":1733663857,"current_range_meters":31200,"station_id":"ce4bhh12rcd13ifvqfg0","pricing_plan_id":"cebpf4jnsgd1na2vs0mg"},{"bike_id":"4da1f21a-a94b-4e40-8119-4f95d0593822","system_id":"levelo_inurba_marseille","lat":43.32656,"lon":5.40996,"is_reserved":false,"is_disabled":false,"rental_uris":{"android":"levelo://app?vid=4da1f21a-a94b-4e40-8119-4f95d0593822","ios":"levelo://app?vid=4da1f21a-a94b-4e40-8119-4f95d0593822"},"vehicle_type_id":"4","last_reported":1733663857,"current_range_meters":36400,"station_id":"ce4bhpp2rcd13ifvqhgg","pricing_plan_id":"cebpf4jnsgd1na2vs0mg"},{"bike_id":"5af23270-2a35-4f60-8220-5828f6f14763","system_id":"levelo_inurba_marseille","lat":43.30178,"lon":5.37443,"is_reserved":false,"is_disabled":false,"rental_uris":{"android":"levelo://app?vid=5af23270-2a35-4f60-8220-5828f6f14763","ios":"levelo://app?vid=5af23270-2a35-4f60-8220-5828f6f14763"},"vehicle_type_id":"4","last_reported":1733663857,"current_range_meters":32400,"station_id":"ce4bgs92rcd13ifvqcc0","pricing_plan_id":"cebpf4jnsgd1na2vs0mg"},{"bike_id":"c2d8a1c2-d166-4a36-b32f-beec95c93bd5","system_id":"levelo_inurba_marseille","lat":43.33756,"lon":5.37459,"is_reserved":false,"is_disabled":true,"rental_uris":{"android":"levelo://app?vid=c2d8a1c2-d166-4a36-b32f-beec95c93bd5","ios":"levelo://app?vid=c2d8a1c2-d166-4a36-b32f-beec95c93bd5"},"vehicle_type_id":"4","last_reported":1733663857,"current_range_meters":0,"station_id":"","pricing_plan_id":"cebpf4jnsgd1na2vs0mg"},{"bike_id":"0e3451bb-7a71-49a1-b69e-200c6dd6b013","system_id":"levelo_inurba_marseille","lat":43.29043,"lon":5.40017,"is_reserved":false,"is_disabled":true,"rental_uris":{"android":"levelo://app?vid=0e3451bb-7a71-49a1-b69e-200c6dd6b013","ios":"levelo://app?vid=0e3451bb-7a71-49a1-b69e-200c6dd6b013"},"vehicle_type_id":"4","last_reported":1733663857,"current_range_meters":36400,"station_id":"ce4bh392rcd13ifvqdm0","pricing_plan_id":"cebpf4jnsgd1na2vs0mg"},{"bike_id":"32abb4fb-35bb-4908-b11d-f91ba7037459","system_id":"levelo_inurba_marseille","lat":43.29266,"lon":5.36849,"is_reserved":false,"is_disabled":false,"rental_uris":{"android":"levelo://app?vid=32abb4fb-35bb-4908-b11d-f91ba7037459","ios":"levelo://app?vid=32abb4fb-35bb-4908-b11d-f91ba7037459"},"vehicle_type_id":"4","last_reported":1733663857,"current_range_meters":26000,"station_id":"ce4bhbp2rcd13ifvqesg","pricing_plan_id":"cebpf4jnsgd1na2vs0mg"},{"bike_id":"7516b73a-b0c9-4ed5-9869-7be27b62298c","system_id":"levelo_inurba_marseille","lat":43.29794,"lon":5.38088,"is_reserved":false,"is_disabled":false,"rental_uris":{"android":"levelo://app?vid=7516b73a-b0c9-4ed5-9869-7be27b62298c","ios":"levelo://app?vid=7516b73a-b0c9-4ed5-9869-7be27b62298c"},"vehicle_type_id":"4","last_reported":1733663857,"current_range_meters":38800,"station_id":"ce4bgip2rcd13ifvqbb0","pricing_plan_id":"cebpf4jnsgd1na2vs0mg"},{"bike_id":"3e113a32-9551-4b74-b9a4-4dc0580cfe03","system_id":"levelo_inurba_marseille","lat":43.30521,"lon":5.38424,"is_reserved":false,"is_disabled":true,"rental_uris":{"android":"levelo://app?vid=3e113a32-9551-4b74-b9a4-4dc0580cfe03","ios":"levelo://app?vid=3e113a32-9551-4b74-b9a4-4dc0580cfe03"},"vehicle_type_id":"4","last_reported":1733663857,"current_range_meters":38400,"station_id":"ce4bgg92rcd13ifvqb30","pricing_plan_id":"cebpf4jnsgd1na2vs0mg"},{"bike_id":"1c116fee-2365-407f-b033-8ab53c14818b","system_id":"levelo_inurba_marseille","lat":43.337444,"lon":5.374475,"is_reserved":false,"is_disabled":false,"rental_uris":{"android":"levelo://app?vid=1c116fee-2365-407f-b033-8ab53c14818b","ios":"levelo://app?vid=1c116fee-2365-407f-b033-8ab53c14818b"},"vehicle_type_id":"4","last_reported":1733663857,"current_range_meters":24400,"station_id":"","pricing_plan_id":"cebpf4jnsgd1na2vs0mg"},{"bike_id":"730672ec-b02f-41ee-8556-9ff64a4a287d","system_id":"levelo_inurba_marseille","lat":43.25585,"lon":5.38238,"is_reserved":false,"is_disabled":false,"rental_uris":{"android":"levelo://app?vid=730672ec-b02f-41ee-8556-9ff64a4a287d","ios":"levelo://app?vid=730672ec-b02f-41ee-8556-9ff64a4a287d"},"vehicle_type_id":"4","last_reported":1733663857,"current_range_meters":8800,"station_id":"ce4bhih2rcd13ifvqfs0","pricing_plan_id":"cebpf4jnsgd1na2vs0mg"},{"bike_id":"6cbb4538-3e28-4b4b-abd0-22f3ba1603ab","system_id":"levelo_inurba_marseille","lat":43.23192,"lon":5.35559,"is_reserved":false,"is_disabled":false,"rental_uris":{"android":"levelo://app?vid=6cbb4538-3e28-4b4b-abd0-22f3ba1603ab","ios":"levelo://app?vid=6cbb4538-3e28-4b4b-abd0-22f3ba1603ab"},"vehicle_type_id":"4","last_reported":1733663857,"current_range_meters":31200,"station_id":"ce4bhu92rcd13ifvqi70","pricing_plan_id":"cebpf4jnsgd1na2vs0mg"},{"bike_id":"f5561434-0740-4a3c-abc2-013f37687b8d","system_id":"levelo_inurba_marseille","lat":43.24816,"lon":5.37458,"is_reserved":false,"is_disabled":true,"rental_uris":{"android":"levelo://app?vid=f5561434-0740-4a3c-abc2-013f37687b8d","ios":"levelo://app?vid=f5561434-0740-4a3c-abc2-013f37687b8d"},"vehicle_type_id":"4","last_reported":1733663857,"current_range_meters":32800,"station_id":"ce4bhgh2rcd13ifvqfb0","pricing_plan_id":"cebpf4jnsgd1na2vs0mg"},{"bike_id":"2be94bd7-8914-498e-b5a7-bd205150540b","system_id":"levelo_inurba_marseille","lat":43.27824,"lon":5.39222,"is_reserved":false,"is_disabled":false,"rental_uris":{"android":"levelo://app?vid=2be94bd7-8914-498e-b5a7-bd205150540b","ios":"levelo://app?vid=2be94bd7-8914-498e-b5a7-bd205150540b"},"vehicle_type_id":"4","last_reported":1733663857,"current_range_meters":38800,"station_id":"ce4bhjp2rcd13ifvqga0","pricing_plan_id":"cebpf4jnsgd1na2vs0mg"},{"bike_id":"1ff3733c-9a34-434f-8dc7-56d2663cdbbf","system_id":"levelo_inurba_marseille","lat":43.32043,"lon":5.415735,"is_reserved":false,"is_disabled":false,"rental_uris":{"android":"levelo://app?vid=1ff3733c-9a34-434f-8dc7-56d2663cdbbf","ios":"levelo://app?vid=1ff3733c-9a34-434f-8dc7-56d2663cdbbf"},"vehicle_type_id":"4","last_reported":1733663857,"current_range_meters":8000,"station_id":"ce4bhq92rcd13ifvqhkg","pricing_plan_id":"cebpf4jnsgd1na2vs0mg"},{"bike_id":"d554a76b-d294-42bf-9157-c9fe310f35e2","system_id":"levelo_inurba_marseille","lat":43.30949,"lon":5.39043,"is_reserved":false,"is_disabled":false,"rental_uris":{"android":"levelo://app?vid=d554a76b-d294-42bf-9157-c9fe310f35e2","ios":"levelo://app?vid=d554a76b-d294-42bf-9157-c9fe310f35e2"},"vehicle_type_id":"4","last_reported":1733663857,"current_range_meters":38800,"station_id":"ce4bgup2rcd13ifvqco0","pricing_plan_id":"cebpf4jnsgd1na2vs0mg"},{"bike_id":"fc3a5a81-0941-437b-a155-30ba9a8642b4","system_id":"levelo_inurba_marseille","lat":43.30879,"lon":5.372,"is_reserved":false,"is_disabled":false,"rental_uris":{"android":"levelo://app?vid=fc3a5a81-0941-437b-a155-30ba9a8642b4","ios":"levelo://app?vid=fc3a5a81-0941-437b-a155-30ba9a8642b4"},"vehicle_type_id":"4","last_reported":1733663857,"current_range_meters":20000,"station_id":"ce4bguh2rcd13ifvqckg","pricing_plan_id":"cebpf4jnsgd1na2vs0mg"},{"bike_id":"aedbf628-20ee-4eda-8b33-1cf044cd7fd0","system_id":"levelo_inurba_marseille","lat":43.24641,"lon":5.38899,"is_reserved":false,"is_disabled":false,"rental_uris":{"android":"levelo://app?vid=aedbf628-20ee-4eda-8b33-1cf044cd7fd0","ios":"levelo://app?vid=aedbf628-20ee-4eda-8b33-1cf044cd7fd0"},"vehicle_type_id":"4","last_reported":1733663857,"current_range_meters":22000,"station_id":"ce4bhg12rcd13ifvqf60","pricing_plan_id":"cebpf4jnsgd1na2vs0mg"},{"bike_id":"6c660714-bd36-4e1d-858f-095636bba76e","system_id":"levelo_inurba_marseille","lat":43.25939,"lon":5.40906,"is_reserved":false,"is_disabled":false,"rental_uris":{"android":"levelo://app?vid=6c660714-bd36-4e1d-858f-095636bba76e","ios":"levelo://app?vid=6c660714-bd36-4e1d-858f-095636bba76e"},"vehicle_type_id":"4","last_reported":1733663857,"current_range_meters":12400,"station_id":"ce4bhm92rcd13ifvqglg","pricing_plan_id":"cebpf4jnsgd1na2vs0mg"},{"bike_id":"66d09863-c6e5-42e8-9866-6a51ab3f2bba","system_id":"levelo_inurba_marseille","lat":43.31264,"lon":5.40183,"is_reserved":false,"is_disabled":false,"rental_uris":{"android":"levelo://app?vid=66d09863-c6e5-42e8-9866-6a51ab3f2bba","ios":"levelo://app?vid=66d09863-c6e5-42e8-9866-6a51ab3f2bba"},"vehicle_type_id":"4","last_reported":1733663857,"current_range_meters":37600,"station_id":"ce4bh092rcd13ifvqd30","pricing_plan_id":"cebpf4jnsgd1na2vs0mg"},{"bike_id":"4c3ec41e-a4f0-4b70-bb63-1a3efbfe785e","system_id":"levelo_inurba_marseille","lat":43.32105,"lon":5.36778,"is_reserved":false,"is_disabled":false,"rental_uris":{"android":"levelo://app?vid=4c3ec41e-a4f0-4b70-bb63-1a3efbfe785e","ios":"levelo://app?vid=4c3ec41e-a4f0-4b70-bb63-1a3efbfe785e"},"vehicle_type_id":"4","last_reported":1733663857,"current_range_meters":28000,"station_id":"ce4bhrh2rcd13ifvqhug","pricing_plan_id":"cebpf4jnsgd1na2vs0mg"},{"bike_id":"62f4975d-a9bd-4187-bb83-b6d3b29081b0","system_id":"levelo_inurba_marseille","lat":43.30881,"lon":5.3964,"is_reserved":false,"is_disabled":false,"rental_uris":{"android":"levelo://app?vid=62f4975d-a9bd-4187-bb83-b6d3b29081b0","ios":"levelo://app?vid=62f4975d-a9bd-4187-bb83-b6d3b29081b0"},"vehicle_type_id":"4","last_reported":1733663857,"current_range_meters":38800,"station_id":"ce4bh012rcd13ifvqcv0","pricing_plan_id":"cebpf4jnsgd1na2vs0mg"},{"bike_id":"bacc3450-9073-4434-a77d-41c29d8453a7","system_id":"levelo_inurba_marseille","lat":43.25726,"lon":5.41105,"is_reserved":false,"is_disabled":false,"rental_uris":{"android":"levelo://app?vid=bacc3450-9073-4434-a77d-41c29d8453a7","ios":"levelo://app?vid=bacc3450-9073-4434-a77d-41c29d8453a7"},"vehicle_type_id":"4","last_reported":1733663857,"current_range_meters":38800,"station_id":"ce4bhkp2rcd13ifvqgd0","pricing_plan_id":"cebpf4jnsgd1na2vs0mg"},{"bike_id":"16fdaed6-6b0f-4944-a1dd-a481190e8ade","system_id":"levelo_inurba_marseille","lat":43.26203,"lon":5.37931,"is_reserved":false,"is_disabled":false,"rental_uris":{"android":"levelo://app?vid=16fdaed6-6b0f-4944-a1dd-a481190e8ade","ios":"levelo://app?vid=16fdaed6-6b0f-4944-a1dd-a481190e8ade"},"vehicle_type_id":"4","last_reported":1733663857,"current_range_meters":38800,"station_id":"ce4bhjp2rcd13ifvqg90","pricing_plan_id":"cebpf4jnsgd1na2vs0mg"},{"bike_id":"18cdda37-c078-44c1-ae6c-8a7ab3a2d4e4","system_id":"levelo_inurba_marseille","lat":43.28728,"lon":5.36096,"is_reserved":false,"is_disabled":false,"rental_uris":{"android":"levelo://app?vid=18cdda37-c078-44c1-ae6c-8a7ab3a2d4e4","ios":"levelo://app?vid=18cdda37-c078-44c1-ae6c-8a7ab3a2d4e4"},"vehicle_type_id":"4","last_reported":1733663857,"current_range_meters":36800,"station_id":"cki0cbj6b192h4jlfktg","pricing_plan_id":"cebpf4jnsgd1na2vs0mg"},{"bike_id":"080fcb1c-52b8-42d7-b477-4dbab7fa601d","system_id":"levelo_inurba_marseille","lat":43.33025,"lon":5.39037,"is_reserved":false,"is_disabled":false,"rental_uris":{"android":"levelo://app?vid=080fcb1c-52b8-42d7-b477-4dbab7fa601d","ios":"levelo://app?vid=080fcb1c-52b8-42d7-b477-4dbab7fa601d"},"vehicle_type_id":"4","last_reported":1733663857,"current_range_meters":22400,"station_id":"ce4bhr92rcd13ifvqhrg","pricing_plan_id":"cebpf4jnsgd1na2vs0mg"},{"bike_id":"0f66b723-695e-4e4d-a4ec-981427f1e580","system_id":"levelo_inurba_marseille","lat":43.29256,"lon":5.40914,"is_reserved":false,"is_disabled":false,"rental_uris":{"android":"levelo://app?vid=0f66b723-695e-4e4d-a4ec-981427f1e580","ios":"levelo://app?vid=0f66b723-695e-4e4d-a4ec-981427f1e580"},"vehicle_type_id":"4","last_reported":1733663857,"current_range_meters":34000,"station_id":"ce4bh192rcd13ifvqdc0","pricing_plan_id":"cebpf4jnsgd1na2vs0mg"},{"bike_id":"e9ef961b-4726-435f-8aa5-570b37e73f94","system_id":"levelo_inurba_marseille","lat":43.27312,"lon":5.39102,"is_reserved":false,"is_disabled":false,"rental_uris":{"android":"levelo://app?vid=e9ef961b-4726-435f-8aa5-570b37e73f94","ios":"levelo://app?vid=e9ef961b-4726-435f-8aa5-570b37e73f94"},"vehicle_type_id":"4","last_reported":1733663857,"current_range_meters":34000,"station_id":"ce4bhgp2rcd13ifvqfe0","pricing_plan_id":"cebpf4jnsgd1na2vs0mg"},{"bike_id":"0a5ac30e-86e1-4275-bad9-9f07d41227f8","system_id":"levelo_inurba_marseille","lat":43.25866,"lon":5.39907,"is_reserved":false,"is_disabled":false,"rental_uris":{"android":"levelo://app?vid=0a5ac30e-86e1-4275-bad9-9f07d41227f8","ios":"levelo://app?vid=0a5ac30e-86e1-4275-bad9-9f07d41227f8"},"vehicle_type_id":"4","last_reported":1733663857,"current_range_meters":14000,"station_id":"ce4bhl92rcd13ifvqghg","pricing_plan_id":"cebpf4jnsgd1na2vs0mg"},{"bike_id":"28b16c12-530c-4918-8814-311ad3447400","system_id":"levelo_inurba_marseille","lat":43.33611,"lon":5.41006,"is_reserved":false,"is_disabled":false,"rental_uris":{"android":"levelo://app?vid=28b16c12-530c-4918-8814-311ad3447400","ios":"levelo://app?vid=28b16c12-530c-4918-8814-311ad3447400"},"vehicle_type_id":"4","last_reported":1733663857,"current_range_meters":28800,"station_id":"ce4bhqh2rcd13ifvqhmg","pricing_plan_id":"cebpf4jnsgd1na2vs0mg"},{"bike_id":"19c4f7c0-f17a-4c49-95c3-c94736b91630","system_id":"levelo_inurba_marseille","lat":43.28905,"lon":5.36682,"is_reserved":false,"is_disabled":false,"rental_uris":{"android":"levelo://app?vid=19c4f7c0-f17a-4c49-95c3-c94736b91630","ios":"levelo://app?vid=19c4f7c0-f17a-4c49-95c3-c94736b91630"},"vehicle_type_id":"4","last_reported":1733663857,"current_range_meters":32000,"station_id":"ce4bhbh2rcd13ifvqeo0","pricing_plan_id":"cebpf4jnsgd1na2vs0mg"},{"bike_id":"2f2a3ada-40df-4b54-ab89-4f6fd4db6789","system_id":"levelo_inurba_marseille","lat":43.33022,"lon":5.39047,"is_reserved":false,"is_disabled":false,"rental_uris":{"android":"levelo://app?vid=2f2a3ada-40df-4b54-ab89-4f6fd4db6789","ios":"levelo://app?vid=2f2a3ada-40df-4b54-ab89-4f6fd4db6789"},"vehicle_type_id":"4","last_reported":1733663857,"current_range_meters":38800,"station_id":"ce4bhr92rcd13ifvqhrg","pricing_plan_id":"cebpf4jnsgd1na2vs0mg"},{"bike_id":"4c8b77e0-44a3-4695-a664-ecb5da6a9925","system_id":"levelo_inurba_marseille","lat":43.29572,"lon":5.39703,"is_reserved":false,"is_disabled":true,"rental_uris":{"android":"levelo://app?vid=4c8b77e0-44a3-4695-a664-ecb5da6a9925","ios":"levelo://app?vid=4c8b77e0-44a3-4695-a664-ecb5da6a9925"},"vehicle_type_id":"4","last_reported":1733663857,"current_range_meters":0,"station_id":"","pricing_plan_id":"cebpf4jnsgd1na2vs0mg"},{"bike_id":"48dec7d9-5ce7-4518-a088-e27c03327630","system_id":"levelo_inurba_marseille","lat":43.30929,"lon":5.40154,"is_reserved":false,"is_disabled":false,"rental_uris":{"android":"levelo://app?vid=48dec7d9-5ce7-4518-a088-e27c03327630","ios":"levelo://app?vid=48dec7d9-5ce7-4518-a088-e27c03327630"},"vehicle_type_id":"4","last_reported":1733663857,"current_range_meters":22800,"station_id":"ce4bgvp2rcd13ifvqct0","pricing_plan_id":"cebpf4jnsgd1na2vs0mg"},{"bike_id":"b4dcc1f3-3f76-4db4-bf7a-4749a5f68b68","system_id":"levelo_inurba_marseille","lat":43.3022,"lon":5.41986,"is_reserved":false,"is_disabled":false,"rental_uris":{"android":"levelo://app?vid=b4dcc1f3-3f76-4db4-bf7a-4749a5f68b68","ios":"levelo://app?vid=b4dcc1f3-3f76-4db4-bf7a-4749a5f68b68"},"vehicle_type_id":"4","last_reported":1733663857,"current_range_meters":35600,"station_id":"","pricing_plan_id":"cebpf4jnsgd1na2vs0mg"},{"bike_id":"fd9feb22-d695-4c22-97ec-8ef1fa2b70f3","system_id":"levelo_inurba_marseille","lat":43.30659,"lon":5.40096,"is_reserved":false,"is_disabled":true,"rental_uris":{"android":"levelo://app?vid=fd9feb22-d695-4c22-97ec-8ef1fa2b70f3","ios":"levelo://app?vid=fd9feb22-d695-4c22-97ec-8ef1fa2b70f3"},"vehicle_type_id":"4","last_reported":1733663857,"current_range_meters":0,"station_id":"ce4bh112rcd13ifvqda0","pricing_plan_id":"cebpf4jnsgd1na2vs0mg"},{"bike_id":"438760ea-3299-4d10-84b0-7620b3e48bf1","system_id":"levelo_inurba_marseille","lat":43.30422,"lon":5.38899,"is_reserved":false,"is_disabled":false,"rental_uris":{"android":"levelo://app?vid=438760ea-3299-4d10-84b0-7620b3e48bf1","ios":"levelo://app?vid=438760ea-3299-4d10-84b0-7620b3e48bf1"},"vehicle_type_id":"4","last_reported":1733663857,"current_range_meters":16400,"station_id":"ce4bgk12rcd13ifvqbi0","pricing_plan_id":"cebpf4jnsgd1na2vs0mg"},{"bike_id":"35116aeb-0a76-4797-a5b2-a18534d3382f","system_id":"levelo_inurba_marseille","lat":43.337444,"lon":5.374475,"is_reserved":false,"is_disabled":false,"rental_uris":{"android":"levelo://app?vid=35116aeb-0a76-4797-a5b2-a18534d3382f","ios":"levelo://app?vid=35116aeb-0a76-4797-a5b2-a18534d3382f"},"vehicle_type_id":"4","last_reported":1733663857,"current_range_meters":24000,"station_id":"","pricing_plan_id":"cebpf4jnsgd1na2vs0mg"},{"bike_id":"4ae5fe7f-a755-40fe-9b35-59fbb2437146","system_id":"levelo_inurba_marseille","lat":43.24155,"lon":5.36413,"is_reserved":false,"is_disabled":false,"rental_uris":{"android":"levelo://app?vid=4ae5fe7f-a755-40fe-9b35-59fbb2437146","ios":"levelo://app?vid=4ae5fe7f-a755-40fe-9b35-59fbb2437146"},"vehicle_type_id":"4","last_reported":1733663857,"current_range_meters":27200,"station_id":"cpo36qri1sfpv3e86is0","pricing_plan_id":"cebpf4jnsgd1na2vs0mg"},{"bike_id":"d37e0be7-89bd-4af6-9121-2e09ca7bbc14","system_id":"levelo_inurba_marseille","lat":43.25565,"lon":5.38263,"is_reserved":false,"is_disabled":false,"rental_uris":{"android":"levelo://app?vid=d37e0be7-89bd-4af6-9121-2e09ca7bbc14","ios":"levelo://app?vid=d37e0be7-89bd-4af6-9121-2e09ca7bbc14"},"vehicle_type_id":"4","last_reported":1733663857,"current_range_meters":24400,"station_id":"ce4bhih2rcd13ifvqfs0","pricing_plan_id":"cebpf4jnsgd1na2vs0mg"},{"bike_id":"55cf1821-32dc-4755-bd32-571109b8640f","system_id":"levelo_inurba_marseille","lat":43.31481,"lon":5.37308,"is_reserved":false,"is_disabled":false,"rental_uris":{"android":"levelo://app?vid=55cf1821-32dc-4755-bd32-571109b8640f","ios":"levelo://app?vid=55cf1821-32dc-4755-bd32-571109b8640f"},"vehicle_type_id":"4","last_reported":1733663857,"current_range_meters":19200,"station_id":"ce4bgt12rcd13ifvqcd0","pricing_plan_id":"cebpf4jnsgd1na2vs0mg"},{"bike_id":"f9023e04-47f0-4c4f-b03e-aa7612a9a357","system_id":"levelo_inurba_marseille","lat":43.26205,"lon":5.37928,"is_reserved":false,"is_disabled":false,"rental_uris":{"android":"levelo://app?vid=f9023e04-47f0-4c4f-b03e-aa7612a9a357","ios":"levelo://app?vid=f9023e04-47f0-4c4f-b03e-aa7612a9a357"},"vehicle_type_id":"4","last_reported":1733663857,"current_range_meters":30000,"station_id":"ce4bhjp2rcd13ifvqg90","pricing_plan_id":"cebpf4jnsgd1na2vs0mg"},