{"last_updated":1715436377,"ttl":30,"version":"2.2","data":{"bikes":[{"bike_id":"ab6c92c0-f1af-43ee-9bcb-d9b67e7e13ee","system_id":"levelo_inurba_marseille","lat":43.31341,"lon":5.367098,"is_reserved":false,"is_disabled":false,"rental_uris":{"android":"levelo://app?vid=ab6c92c0-f1af-43ee-9bcb-d9b67e7e13ee","ios":"levelo://app?vid=ab6c92c0-f1af-43ee-9bcb-d9b67e7e13ee"},"vehicle_type_id":"4","last_reported":1715436377,"current_range_meters":26400,"station_id":"ce4bgr92rcd13ifvqc6g","pricing_plan_id":"cebpf4jnsgd1na2vs0mg"},{"bike_id":"b6d5adf7-e3cf-42dc-bd46-9e38f2887abe","system_id":"levelo_inurba_marseille","lat":43.312453,"lon":5.368502,"is_reserved":false,"is_disabled":false,"rental_uris":{"android":"levelo://app?vid=b6d5adf7-e3cf-42dc-bd46-9e38f2887abe","ios":"levelo://app?vid=b6d5adf7-e3cf-42dc-bd46-9e38f2887abe"},"vehicle_type_id":"4","last_reported":1715436377,"current_range_meters":6000,"station_id":"ce4bgl92rcd13ifvqbq0","pricing_plan_id":"cebpf4jnsgd1na2vs0mg"},{"bike_id":"f41223ad-e60f-4a2a-b3f5-354f1a399278","system_id":"levelo_inurba_marseille","lat":43.31229,"lon":5.36849,"is_reserved":false,"is_disabled":false,"rental_uris":{"android":"levelo://app?vid=f41223ad-e60f-4a2a-b3f5-354f1a399278","ios":"levelo://app?vid=f41223ad-e60f-4a2a-b3f5-354f1a399278"},"vehicle_type_id":"4","last_reported":1715436377,"current_range_meters":0,"station_id":"ce4bgl92rcd13ifvqbq0","pricing_plan_id":"cebpf4jnsgd1na2vs0mg"},{"bike_id":"68bc760d-c73b-4225-8a8e-fa5824405318","system_id":"levelo_inurba_marseille","lat":43.31225,"lon":5.36862,"is_reserved":false,"is_disabled":false,"rental_uris":{"android":"levelo://app?vid=68bc760d-c73b-4225-8a8e-fa5824405318","ios":"levelo://app?vid=68bc760d-c73b-4225-8a8e-fa5824405318"},"vehicle_type_id":"4","last_reported":1715436377,"current_range_meters":26400,"station_id":"ce4bgl92rcd13ifvqbq0","pricing_plan_id":"cebpf4jnsgd1na2vs0mg"},{"bike_id":"951ba2d0-4582-4924-b7ab-624285c2612b","system_id":"levelo_inurba_marseille","lat":43.309076,"lon":5.368465,"is_reserved":false,"is_disabled":false,"rental_uris":{"android":"levelo://app?vid=951ba2d0-4582-4924-b7ab-624285c2612b","ios":"levelo://app?vid=951ba2d0-4582-4924-b7ab-624285c2612b"},"vehicle_type_id":"4","last_reported":1715436377,"current_range_meters":31200,"station_id":"ce4bgn92rcd13ifvqbvg","pricing_plan_id":"cebpf4jnsgd1na2vs0mg"},{"bike_id":"51e0f1ce-dc1a-49a0-9144-aa3cc1b69c21","system_id":"levelo_inurba_marseille","lat":43.309039,"lon":5.371797,"is_reserved":false,"is_disabled":false,"rental_uris":{"android":"levelo://app?vid=51e0f1ce-dc1a-49a0-9144-aa3cc1b69c21","ios":"levelo://app?vid=51e0f1ce-dc1a-49a0-9144-aa3cc1b69c21"},"vehicle_type_id":"4","last_reported":1715436377,"current_range_meters":15200,"station_id":"ce4bguh2rcd13ifvqckg","pricing_plan_id":"cebpf4jnsgd1na2vs0mg"},{"bike_id":"916b226f-e842-4523-9696-624a752d047d","system_id":"levelo_inurba_marseille","lat":43.31561,"lon":5.37433,"is_reserved":false,"is_disabled":false,"rental_uris":{"android":"levelo://app?vid=916b226f-e842-4523-9696-624a752d047d","ios":"levelo://app?vid=916b226f-e842-4523-9696-624a752d047d"},"vehicle_type_id":"4","last_reported":1715436377,"current_range_meters":0,"station_id":"","pricing_plan_id":"cebpf4jnsgd1na2vs0mg"},{"bike_id":"6500031c-b544-4d04-90db-276f8a01e5d8","system_id":"levelo_inurba_marseille","lat":43.292749,"lon":5.368398,"is_reserved":false,"is_disabled":false,"rental_uris":{"android":"levelo://app?vid=6500031c-b544-4d04-90db-276f8a01e5d8","ios":"levelo://app?vid=6500031c-b544-4d04-90db-276f8a01e5d8"},"vehicle_type_id":"4","last_reported":1715436377,"current_range_meters":1600,"station_id":"ce4bhbp2rcd13ifvqesg","pricing_plan_id":"cebpf4jnsgd1na2vs0mg"},{"bike_id":"fd930422-84ce-4ce5-bc7e-1b21180df1e6","system_id":"levelo_inurba_marseille","lat":43.305714,"lon":5.365633,"is_reserved":false,"is_disabled":false,"rental_uris":{"android":"levelo://app?vid=fd930422-84ce-4ce5-bc7e-1b21180df1e6","ios":"levelo://app?vid=fd930422-84ce-4ce5-bc7e-1b21180df1e6"},"vehicle_type_id":"4","last_reported":1715436377,"current_range_meters":0,"station_id":"ce4bgs12rcd13ifvqcag","pricing_plan_id":"cebpf4jnsgd1na2vs0mg"},{"bike_id":"135d2108-e977-4d67-96ae-4470a86de75a","system_id":"levelo_inurba_marseille","lat":43.305714,"lon":5.365633,"is_reserved":false,"is_disabled":false,"rental_uris":{"android":"levelo://app?vid=135d2108-e977-4d67-96ae-4470a86de75a","ios":"levelo://app?vid=135d2108-e977-4d67-96ae-4470a86de75a"},"vehicle_type_id":"4","last_reported":1715436377,"current_range_meters":0,"station_id":"ce4bgs12rcd13ifvqcag","pricing_plan_id":"cebpf4jnsgd1na2vs0mg"},{"bike_id":"a8420d12-5ea1-4553-ba77-74153419b9a1","system_id":"levelo_inurba_marseille","lat":43.307945,"lon":5.376487,"is_reserved":false,"is_disabled":false,"rental_uris":{"android":"levelo://app?vid=a8420d12-5ea1-4553-ba77-74153419b9a1","ios":"levelo://app?vid=a8420d12-5ea1-4553-ba77-74153419b9a1"},"vehicle_type_id":"4","last_reported":1715436377,"current_range_meters":31200,"station_id":"ce4bgv92rcd13ifvqcq0","pricing_plan_id":"cebpf4jnsgd1na2vs0mg"},{"bike_id":"4077dd1a-2019-4b9f-a1da-36aa0c277eee","system_id":"levelo_inurba_marseille","lat":43.30304,"lon":5.368987,"is_reserved":false,"is_disabled":false,"rental_uris":{"android":"levelo://app?vid=4077dd1a-2019-4b9f-a1da-36aa0c277eee","ios":"levelo://app?vid=4077dd1a-2019-4b9f-a1da-36aa0c277eee"},"vehicle_type_id":"4","last_reported":1715436377,"current_range_meters":400,"station_id":"ce4bgqh2rcd13ifvqc5g","pricing_plan_id":"cebpf4jnsgd1na2vs0mg"},{"bike_id":"66a33c65-31aa-4ae6-ba53-323b71d02f4d","system_id":"levelo_inurba_marseille","lat":43.315289,"lon":5.380349,"is_reserved":false,"is_disabled":false,"rental_uris":{"android":"levelo://app?vid=66a33c65-31aa-4ae6-ba53-323b71d02f4d","ios":"levelo://app?vid=66a33c65-31aa-4ae6-ba53-323b71d02f4d"},"vehicle_type_id":"4","last_reported":1715436377,"current_range_meters":9600,"station_id":"ce4bhsp2rcd13ifvqi50","pricing_plan_id":"cebpf4jnsgd1na2vs0mg"},{"bike_id":"95298495-db93-4dba-b6cd-c2c69c84e6fe","system_id":"levelo_inurba_marseille","lat":43.313571,"lon":5.384829,"is_reserved":false,"is_disabled":false,"rental_uris":{"android":"levelo://app?vid=95298495-db93-4dba-b6cd-c2c69c84e6fe","ios":"levelo://app?vid=95298495-db93-4dba-b6cd-c2c69c84e6fe"},"vehicle_type_id":"4","last_reported":1715436377,"current_range_meters":21200,"station_id":"ce4bgt92rcd13ifvqcf0","pricing_plan_id":"cebpf4jnsgd1na2vs0mg"},{"bike_id":"df7f42d8-92e9-4abe-bed2-43f423483095","system_id":"levelo_inurba_marseille","lat":43.304606,"lon":5.379026,"is_reserved":false,"is_disabled":false,"rental_uris":{"android":"levelo://app?vid=df7f42d8-92e9-4abe-bed2-43f423483095","ios":"levelo://app?vid=df7f42d8-92e9-4abe-bed2-43f423483095"},"vehicle_type_id":"4","last_reported":1715436377,"current_range_meters":14800,"station_id":"ce4bgup2rcd13ifvqcn0","pricing_plan_id":"cebpf4jnsgd1na2vs0mg"},{"bike_id":"3269a82e-20fd-46cb-9087-cc49c8cec2db","system_id":"levelo_inurba_marseille","lat":43.324739,"lon":5.365592,"is_reserved":false,"is_disabled":false,"rental_uris":{"android":"levelo://app?vid=3269a82e-20fd-46cb-9087-cc49c8cec2db","ios":"levelo://app?vid=3269a82e-20fd-46cb-9087-cc49c8cec2db"},"vehicle_type_id":"4","last_reported":1715436377,"current_range_meters":7200,"station_id":"ce4bhs12rcd13ifvqhvg","pricing_plan_id":"cebpf4jnsgd1na2vs0mg"},{"bike_id":"4f292309-8e70-423f-8286-cbad3763fa2c","system_id":"levelo_inurba_marseille","lat":43.324771,"lon":5.36557,"is_reserved":false,"is_disabled":false,"rental_uris":{"android":"levelo://app?vid=4f292309-8e70-423f-8286-cbad3763fa2c","ios":"levelo://app?vid=4f292309-8e70-423f-8286-cbad3763fa2c"},"vehicle_type_id":"4","last_reported":1715436377,"current_range_meters":23600,"station_id":"ce4bhs12rcd13ifvqhvg","pricing_plan_id":"cebpf4jnsgd1na2vs0mg"},{"bike_id":"7d725402-757b-4cd9-84ff-6dd57d0cc79e","system_id":"levelo_inurba_marseille","lat":43.32476,"lon":5.3656,"is_reserved":false,"is_disabled":false,"rental_uris":{"android":"levelo://app?vid=7d725402-757b-4cd9-84ff-6dd57d0cc79e","ios":"levelo://app?vid=7d725402-757b-4cd9-84ff-6dd57d0cc79e"},"vehicle_type_id":"4","last_reported":1715436377,"current_range_meters":28800,"station_id":"ce4bhs12rcd13ifvqhvg","pricing_plan_id":"cebpf4jnsgd1na2vs0mg"},{"bike_id":"a7364010-c030-4dda-9787-1388278fadb5","system_id":"levelo_inurba_marseille","lat":43.324771,"lon":5.36557,"is_reserved":false,"is_disabled":false,"rental_uris":{"android":"levelo://app?vid=a7364010-c030-4dda-9787-1388278fadb5","ios":"levelo://app?vid=a7364010-c030-4dda-9787-1388278fadb5"},"vehicle_type_id":"4","last_reported":1715436377,"current_range_meters":0,"station_id":"ce4bhs12rcd13ifvqhvg","pricing_plan_id":"cebpf4jnsgd1na2vs0mg"},{"bike_id":"9edc1e5e-3cad-4349-9fc4-c2b9b41d3cd6","system_id":"levelo_inurba_marseille","lat":43.324771,"lon":5.36557,"is_reserved":false,"is_disabled":false,"rental_uris":{"android":"levelo://app?vid=9edc1e5e-3cad-4349-9fc4-c2b9b41d3cd6","ios":"levelo://app?vid=9edc1e5e-3cad-4349-9fc4-c2b9b41d3cd6"},"vehicle_type_id":"4","last_reported":1715436377,"current_range_meters":19600,"station_id":"ce4bhs12rcd13ifvqhvg","pricing_plan_id":"cebpf4jnsgd1na2vs0mg"},{"bike_id":"62a5870d-12d7-4609-b3af-286379531473","system_id":"levelo_inurba_marseille","lat":43.324771,"lon":5.36557,"is_reserved":false,"is_disabled":false,"rental_uris":{"android":"levelo://app?vid=62a5870d-12d7-4609-b3af-286379531473","ios":"levelo://app?vid=62a5870d-12d7-4609-b3af-286379531473"},"vehicle_type_id":"4","last_reported":1715436377,"current_range_meters":23600,"station_id":"ce4bhs12rcd13ifvqhvg","pricing_plan_id":"cebpf4jnsgd1na2vs0mg"},{"bike_id":"ff9d51bd-c40f-466c-ab3b-08e1c9923b63","system_id":"levelo_inurba_marseille","lat":43.324771,"lon":5.36557,"is_reserved":false,"is_disabled":false,"rental_uris":{"android":"levelo://app?vid=ff9d51bd-c40f-466c-ab3b-08e1c9923b63","ios":"levelo://app?vid=ff9d51bd-c40f-466c-ab3b-08e1c9923b63"},"vehicle_type_id":"4","last_reported":1715436377,"current_range_meters":14400,"station_id":"ce4bhs12rcd13ifvqhvg","pricing_plan_id":"cebpf4jnsgd1na2vs0mg"},{"bike_id":"43d74cbd-e3cd-451f-9c64-78bfb99aca35","system_id":"levelo_inurba_marseille","lat":43.324771,"lon":5.36557,"is_reserved":false,"is_disabled":false,"rental_uris":{"android":"levelo://app?vid=43d74cbd-e3cd-451f-9c64-78bfb99aca35","ios":"levelo://app?vid=43d74cbd-e3cd-451f-9c64-78bfb99aca35"},"vehicle_type_id":"4","last_reported":1715436377,"current_range_meters":10800,"station_id":"ce4bhs12rcd13ifvqhvg","pricing_plan_id":"cebpf4jnsgd1na2vs0mg"},{"bike_id":"eb520a0a-2da2-487a-ab21-6e5c03a92168","system_id":"levelo_inurba_marseille","lat":43.299724,"lon":5.371829,"is_reserved":false,"is_disabled":false,"rental_uris":{"android":"levelo://app?vid=eb520a0a-2da2-487a-ab21-6e5c03a92168","ios":"levelo://app?vid=eb520a0a-2da2-487a-ab21-6e5c03a92168"},"vehicle_type_id":"4","last_reported":1715436377,"current_range_meters":2800,"station_id":"ce4bgr92rcd13ifvqc7g","pricing_plan_id":"cebpf4jnsgd1na2vs0mg"},{"bike_id":"5805b66c-9ae1-47e6-92a1-f68d5bd21987","system_id":"levelo_inurba_marseille","lat":43.298433,"lon":5.362774,"is_reserved":false,"is_disabled":false,"rental_uris":{"android":"levelo://app?vid=5805b66c-9ae1-47e6-92a1-f68d5bd21987","ios":"levelo://app?vid=5805b66c-9ae1-47e6-92a1-f68d5bd21987"},"vehicle_type_id":"4","last_reported":1715436377,"current_range_meters":18000,"station_id":"ce4bgpp2rcd13ifvqc3g","pricing_plan_id":"cebpf4jnsgd1na2vs0mg"},{"bike_id":"2d5eb32b-9191-4d87-aff7-57ff369b43a1","system_id":"levelo_inurba_marseille","lat":43.29846,"lon":5.36276,"is_reserved":false,"is_disabled":false,"rental_uris":{"android":"levelo://app?vid=2d5eb32b-9191-4d87-aff7-57ff369b43a1","ios":"levelo://app?vid=2d5eb32b-9191-4d87-aff7-57ff369b43a1"},"vehicle_type_id":"4","last_reported":1715436377,"current_range_meters":10000,"station_id":"ce4bgpp2rcd13ifvqc3g","pricing_plan_id":"cebpf4jnsgd1na2vs0mg"},{"bike_id":"54e3f5e5-efc1-4844-897d-4d178dadba7c","system_id":"levelo_inurba_marseille","lat":43.299243,"lon":5.37481,"is_reserved":false,"is_disabled":false,"rental_uris":{"android":"levelo://app?vid=54e3f5e5-efc1-4844-897d-4d178dadba7c","ios":"levelo://app?vid=54e3f5e5-efc1-4844-897d-4d178dadba7c"},"vehicle_type_id":"4","last_reported":1715436377,"current_range_meters":0,"station_id":"ce4bgjh2rcd13ifvqbg0","pricing_plan_id":"cebpf4jnsgd1na2vs0mg"},{"bike_id":"a2240593-0120-4ccd-a449-dd59a2ee1392","system_id":"levelo_inurba_marseille","lat":43.298433,"lon":5.362774,"is_reserved":false,"is_disabled":false,"rental_uris":{"android":"levelo://app?vid=a2240593-0120-4ccd-a449-dd59a2ee1392","ios":"levelo://app?vid=a2240593-0120-4ccd-a449-dd59a2ee1392"},"vehicle_type_id":"4","last_reported":1715436377,"current_range_meters":0,"station_id":"ce4bgpp2rcd13ifvqc3g","pricing_plan_id":"cebpf4jnsgd1na2vs0mg"},{"bike_id":"bc01a87c-28d5-4eb4-87c8-8497b3f2b98a","system_id":"levelo_inurba_marseille","lat":43.299243,"lon":5.374807,"is_reserved":false,"is_disabled":false,"rental_uris":{"android":"levelo://app?vid=bc01a87c-28d5-4eb4-87c8-8497b3f2b98a","ios":"levelo://app?vid=bc01a87c-28d5-4eb4-87c8-8497b3f2b98a"},"vehicle_type_id":"4","last_reported":1715436377,"current_range_meters":11200,"station_id":"ce4bgjh2rcd13ifvqbg0","pricing_plan_id":"cebpf4jnsgd1na2vs0mg"},{"bike_id":"8d4c06b3-4626-444e-a849-29e815a69458","system_id":"levelo_inurba_marseille","lat":43.322872,"lon":5.382756,"is_reserved":false,"is_disabled":false,"rental_uris":{"android":"levelo://app?vid=8d4c06b3-4626-444e-a849-29e815a69458","ios":"levelo://app?vid=8d4c06b3-4626-444e-a849-29e815a69458"},"vehicle_type_id":"4","last_reported":1715436377,"current_range_meters":28800,"station_id":"ce4bhr12rcd13ifvqhqg","pricing_plan_id":"cebpf4jnsgd1na2vs0mg"},{"bike_id":"ee152921-7916-4aa1-9379-961f3ea8237a","system_id":"levelo_inurba_marseille","lat":43.297774,"lon":5.370875,"is_reserved":false,"is_disabled":false,"rental_uris":{"android":"levelo://app?vid=ee152921-7916-4aa1-9379-961f3ea8237a","ios":"levelo://app?vid=ee152921-7916-4aa1-9379-961f3ea8237a"},"vehicle_type_id":"4","last_reported":1715436377,"current_range_meters":28400,"station_id":"ce4bgop2rcd13ifvqc1g","pricing_plan_id":"cebpf4jnsgd1na2vs0mg"},{"bike_id":"f7921cc5-35a4-4a2a-9a9a-4d2243bbfa88","system_id":"levelo_inurba_marseille","lat":43.297774,"lon":5.370875,"is_reserved":false,"is_disabled":false,"rental_uris":{"android":"levelo://app?vid=f7921cc5-35a4-4a2a-9a9a-4d2243bbfa88","ios":"levelo://app?vid=f7921cc5-35a4-4a2a-9a9a-4d2243bbfa88"},"vehicle_type_id":"4","last_reported":1715436377,"current_range_meters":26800,"station_id":"ce4bgop2rcd13ifvqc1g","pricing_plan_id":"cebpf4jnsgd1na2vs0mg"},{"bike_id":"2bf6cfe9-1d4f-4eaa-92ae-d90258069e51","system_id":"levelo_inurba_marseille","lat":43.322872,"lon":5.382756,"is_reserved":false,"is_disabled":false,"rental_uris":{"android":"levelo://app?vid=2bf6cfe9-1d4f-4eaa-92ae-d90258069e51","ios":"levelo://app?vid=2bf6cfe9-1d4f-4eaa-92ae-d90258069e51"},"vehicle_type_id":"4","last_reported":1715436377,"current_range_meters":30400,"station_id":"ce4bhr12rcd13ifvqhqg","pricing_plan_id":"cebpf4jnsgd1na2vs0mg"},{"bike_id":"2e6b251f-b136-4a80-970c-9fd4e9c1c397","system_id":"levelo_inurba_marseille","lat":43.32706,"lon":5.37513,"is_reserved":false,"is_disabled":false,"rental_uris":{"android":"levelo://app?vid=2e6b251f-b136-4a80-970c-9fd4e9c1c397","ios":"levelo://app?vid=2e6b251f-b136-4a80-970c-9fd4e9c1c397"},"vehicle_type_id":"4","last_reported":1715436377,"current_range_meters":28800,"station_id":"","pricing_plan_id":"cebpf4jnsgd1na2vs0mg"},{"bike_id":"9f1828f8-d985-4d94-8ce4-2b22bdcc06c3","system_id":"levelo_inurba_marseille","lat":43.305706,"lon":5.365654,"is_reserved":false,"is_disabled":false,"rental_uris":{"android":"levelo://app?vid=9f1828f8-d985-4d94-8ce4-2b22bdcc06c3","ios":"levelo://app?vid=9f1828f8-d985-4d94-8ce4-2b22bdcc06c3"},"vehicle_type_id":"4","last_reported":1715436377,"current_range_meters":14800,"station_id":"ce4bgs12rcd13ifvqcag","pricing_plan_id":"cebpf4jnsgd1na2vs0mg"},{"bike_id":"1e99dc9f-397c-49d7-b8be-d3a9db693256","system_id":"levelo_inurba_marseille","lat":43.297163,"lon":5.365866,"is_reserved":false,"is_disabled":false,"rental_uris":{"android":"levelo://app?vid=1e99dc9f-397c-49d7-b8be-d3a9db693256","ios":"levelo://app?vid=1e99dc9f-397c-49d7-b8be-d3a9db693256"},"vehicle_type_id":"4","last_reported":1715436377,"current_range_meters":4800,"station_id":"ce4bgn12rcd13ifvqbt0","pricing_plan_id":"cebpf4jnsgd1na2vs0mg"},{"bike_id":"62d4ff0a-afa7-49fc-8807-5061976c5787","system_id":"levelo_inurba_marseille","lat":43.297163,"lon":5.365866,"is_reserved":false,"is_disabled":false,"rental_uris":{"android":"levelo://app?vid=62d4ff0a-afa7-49fc-8807-5061976c5787","ios":"levelo://app?vid=62d4ff0a-afa7-49fc-8807-5061976c5787"},"vehicle_type_id":"4","last_reported":1715436377,"current_range_meters":15200,"station_id":"ce4bgn12rcd13ifvqbt0","pricing_plan_id":"cebpf4jnsgd1na2vs0mg"},{"bike_id":"53fa9a29-34eb-49a4-8154-debce6ae1e26","system_id":"levelo_inurba_marseille","lat":43.296131,"lon":5.370791,"is_reserved":false,"is_disabled":false,"rental_uris":{"android":"levelo://app?vid=53fa9a29-34eb-49a4-8154-debce6ae1e26","ios":"levelo://app?vid=53fa9a29-34eb-49a4-8154-debce6ae1e26"},"vehicle_type_id":"4","last_reported":1715436377,"current_range_meters":21200,"station_id":"ce4bgnh2rcd13ifvqc0g","pricing_plan_id":"cebpf4jnsgd1na2vs0mg"},{"bike_id":"648c1e22-a76a-41c8-942d-c9ffde0e5ba5","system_id":"levelo_inurba_marseille","lat":43.296131,"lon":5.370791,"is_reserved":false,"is_disabled":false,"rental_uris":{"android":"levelo://app?vid=648c1e22-a76a-41c8-942d-c9ffde0e5ba5","ios":"levelo://app?vid=648c1e22-a76a-41c8-942d-c9ffde0e5ba5"},"vehicle_type_id":"4","last_reported":1715436377,"current_range_meters":19200,"station_id":"ce4bgnh2rcd13ifvqc0g","pricing_plan_id":"cebpf4jnsgd1na2vs0mg"},{"bike_id":"137fa961-9701-45e6-9f99-5e06c69f6e59","system_id":"levelo_inurba_marseille","lat":43.29621,"lon":5.37156,"is_reserved":false,"is_disabled":false,"rental_uris":{"android":"levelo://app?vid=137fa961-9701-45e6-9f99-5e06c69f6e59","ios":"levelo://app?vid=137fa961-9701-45e6-9f99-5e06c69f6e59"},"vehicle_type_id":"4","last_reported":1715436377,"current_range_meters":21600,"station_id":"ce4bgnh2rcd13ifvqc0g","pricing_plan_id":"cebpf4jnsgd1na2vs0mg"},{"bike_id":"876a085c-dca9-4675-a508-58c0997fa6a6","system_id":"levelo_inurba_marseille","lat":43.29619,"lon":5.37154,"is_reserved":false,"is_disabled":false,"rental_uris":{"android":"levelo://app?vid=876a085c-dca9-4675-a508-58c0997fa6a6","ios":"levelo://app?vid=876a085c-dca9-4675-a508-58c0997fa6a6"},"vehicle_type_id":"4","last_reported":1715436377,"current_range_meters":15600,"station_id":"ce4bgnh2rcd13ifvqc0g","pricing_plan_id":"cebpf4jnsgd1na2vs0mg"},{"bike_id":"f181aecc-9215-466b-8dad-994c6946454c","system_id":"levelo_inurba_marseille","lat":43.296131,"lon":5.370791,"is_reserved":false,"is_disabled":false,"rental_uris":{"android":"levelo://app?vid=f181aecc-9215-466b-8dad-994c6946454c","ios":"levelo://app?vid=f181aecc-9215-466b-8dad-994c6946454c"},"vehicle_type_id":"4","last_reported":1715436377,"current_range_meters":0,"station_id":"ce4bgnh2rcd13ifvqc0g","pricing_plan_id":"cebpf4jnsgd1na2vs0mg"},{"bike_id":"065bd77a-362f-4661-95eb-2d3a32068ab2","system_id":"levelo_inurba_marseille","lat":43.29573,"lon":5.367355,"is_reserved":false,"is_disabled":false,"rental_uris":{"android":"levelo://app?vid=065bd77a-362f-4661-95eb-2d3a32068ab2","ios":"levelo://app?vid=065bd77a-362f-4661-95eb-2d3a32068ab2"},"vehicle_type_id":"4","last_reported":1715436377,"current_range_meters":1200,"station_id":"ce4bgph2rcd13ifvqc2g","pricing_plan_id":"cebpf4jnsgd1na2vs0mg"},{"bike_id":"68bfc3b3-7726-4ad8-ac8f-30a4f13901cc","system_id":"levelo_inurba_marseille","lat":43.29573,"lon":5.367355,"is_reserved":false,"is_disabled":false,"rental_uris":{"android":"levelo://app?vid=68bfc3b3-7726-4ad8-ac8f-30a4f13901cc","ios":"levelo://app?vid=68bfc3b3-7726-4ad8-ac8f-30a4f13901cc"},"vehicle_type_id":"4","last_reported":1715436377,"current_range_meters":22000,"station_id":"ce4bgph2rcd13ifvqc2g","pricing_plan_id":"cebpf4jnsgd1na2vs0mg"},{"bike_id":"844fae6f-a9d4-4369-a408-48ed536b5cc6","system_id":"levelo_inurba_marseille","lat":43.32342,"lon":5.38509,"is_reserved":false,"is_disabled":false,"rental_uris":{"android":"levelo://app?vid=844fae6f-a9d4-4369-a408-48ed536b5cc6","ios":"levelo://app?vid=844fae6f-a9d4-4369-a408-48ed536b5cc6"},"vehicle_type_id":"4","last_reported":1715436377,"current_range_meters":14000,"station_id":"","pricing_plan_id":"cebpf4jnsgd1na2vs0mg"},{"bike_id":"8f4f4ca8-7784-4390-8058-8d5654e784c4","system_id":"levelo_inurba_marseille","lat":43.29573,"lon":5.367355,"is_reserved":false,"is_disabled":false,"rental_uris":{"android":"levelo://app?vid=8f4f4ca8-7784-4390-8058-8d5654e784c4","ios":"levelo://app?vid=8f4f4ca8-7784-4390-8058-8d5654e784c4"},"vehicle_type_id":"4","last_reported":1715436377,"current_range_meters":25200,"station_id":"ce4bgph2rcd13ifvqc2g","pricing_plan_id":"cebpf4jnsgd1na2vs0mg"},{"bike_id":"0e4984fc-e8a3-4f2f-83a6-b936665ef2be","system_id":"levelo_inurba_marseille","lat":43.29726,"lon":5.37691,"is_reserved":false,"is_disabled":false,"rental_uris":{"android":"levelo://app?vid=0e4984fc-e8a3-4f2f-83a6-b936665ef2be","ios":"levelo://app?vid=0e4984fc-e8a3-4f2f-83a6-b936665ef2be"},"vehicle_type_id":"4","last_reported":1715436377,"current_range_meters":8000,"station_id":"","pricing_plan_id":"cebpf4jnsgd1na2vs0mg"},{"bike_id":"f9abde23-220b-4c87-b847-6287831368b7","system_id":"levelo_inurba_marseille","lat":43.309589,"lon":5.390258,"is_reserved":false,"is_disabled":false,"rental_uris":{"android":"levelo://app?vid=f9abde23-220b-4c87-b847-6287831368b7","ios":"levelo://app?vid=f9abde23-220b-4c87-b847-6287831368b7"},"vehicle_type_id":"4","last_reported":1715436377,"current_range_meters":20400,"station_id":"ce4bgup2rcd13ifvqco0","pricing_plan_id":"cebpf4jnsgd1na2vs0mg"},{"bike_id":"19e8f28f-2297-4327-b9a2-480a918833bc","system_id":"levelo_inurba_marseille","lat":43.309589,"lon":5.390258,"is_reserved":false,"is_disabled":false,"rental_uris":{"android":"levelo://app?vid=19e8f28f-2297-4327-b9a2-480a918833bc","ios":"levelo://app?vid=19e8f28f-2297-4327-b9a2-480a918833bc"},"vehicle_type_id":"4","last_reported":1715436377,"current_range_meters":7600,"station_id":"ce4bgup2rcd13ifvqco0","pricing_plan_id":"cebpf4jnsgd1na2vs0mg"},{"bike_id":"dd7ef4f6-771a-4dec-a6e5-5c595217a321","system_id":"levelo_inurba_marseille","lat":43.309589,"lon":5.390258,"is_reserved":false,"is_disabled":false,"rental_uris":{"android":"levelo://app?vid=dd7ef4f6-771a-4dec-a6e5-5c595217a321","ios":"levelo://app?vid=dd7ef4f6-771a-4dec-a6e5-5c595217a321"},"vehicle_type_id":"4","last_reported":1715436377,"current_range_meters":7600,"station_id":"ce4bgup2rcd13ifvqco0","pricing_plan_id":"cebpf4jnsgd1na2vs0mg"},{"bike_id":"df76f894-8529-4594-9358-dc0529db8cf6","system_id":"levelo_inurba_marseille","lat":43.296935,"lon":5.376544,"is_reserved":false,"is_disabled":false,"rental_uris":{"android":"levelo://app?vid=df76f894-8529-4594-9358-dc0529db8cf6","ios":"levelo://app?vid=df76f894-8529-4594-9358-dc0529db8cf6"},"vehicle_type_id":"4","last_reported":1715436377,"current_range_meters":0,"station_id":"ce4bgkh2rcd13ifvqbl0","pricing_plan_id":"cebpf4jnsgd1na2vs0mg"},{"bike_id":"165689be-55f3-4a7f-9360-2a092e4b8333","system_id":"levelo_inurba_marseille","lat":43.309589,"lon":5.390258,"is_reserved":false,"is_disabled":false,"rental_uris":{"android":"levelo://app?vid=165689be-55f3-4a7f-9360-2a092e4b8333","ios":"levelo://app?vid=165689be-55f3-4a7f-9360-2a092e4b8333"},"vehicle_type_id":"4","last_reported":1715436377,"current_range_meters":15200,"station_id":"ce4bgup2rcd13ifvqco0","pricing_plan_id":"cebpf4jnsgd1na2vs0mg"},{"bike_id":"12376671-3dd7-4fa0-8130-6c5469ce6718","system_id":"levelo_inurba_marseille","lat":43.295748,"lon":5.37522,"is_reserved":false,"is_disabled":false,"rental_uris":{"android":"levelo://app?vid=12376671-3dd7-4fa0-8130-6c5469ce6718","ios":"levelo://app?vid=12376671-3dd7-4fa0-8130-6c5469ce6718"},"vehicle_type_id":"4","last_reported":1715436377,"current_range_meters":0,"station_id":"ce4bgh92rcd13ifvqb50","pricing_plan_id":"cebpf4jnsgd1na2vs0mg"},{"bike_id":"1392c007-4713-428d-80b3-20c97e214d63","system_id":"levelo_inurba_marseille","lat":43.295748,"lon":5.37522,"is_reserved":false,"is_disabled":false,"rental_uris":{"android":"levelo://app?vid=1392c007-4713-428d-80b3-20c97e214d63","ios":"levelo://app?vid=1392c007-4713-428d-80b3-20c97e214d63"},"vehicle_type_id":"4","last_reported":1715436377,"current_range_meters":23200,"station_id":"ce4bgh92rcd13ifvqb50","pricing_plan_id":"cebpf4jnsgd1na2vs0mg"},{"bike_id":"803b2424-92b8-444f-a920-72bad969cd67","system_id":"levelo_inurba_marseille","lat":43.304278,"lon":5.388868,"is_reserved":false,"is_disabled":false,"rental_uris":{"android":"levelo://app?vid=803b2424-92b8-444f-a920-72bad969cd67","ios":"levelo://app?vid=803b2424-92b8-444f-a920-72bad969cd67"},"vehicle_type_id":"4","last_reported":1715436377,"current_range_meters":22400,"station_id":"ce4bgk12rcd13ifvqbi0","pricing_plan_id":"cebpf4jnsgd1na2vs0mg"},{"bike_id":"a8c75862-f553-4ff2-897d-f50f90a15e27","system_id":"levelo_inurba_marseille","lat":43.295748,"lon":5.37522,"is_reserved":false,"is_disabled":false,"rental_uris":{"android":"levelo://app?vid=a8c75862-f553-4ff2-897d-f50f90a15e27","ios":"levelo://app?vid=a8c75862-f553-4ff2-897d-f50f90a15e27"},"vehicle_type_id":"4","last_reported":1715436377,"current_range_meters":0,"station_id":"ce4bgh92rcd13ifvqb50","pricing_plan_id":"cebpf4jnsgd1na2vs0mg"},{"bike_id":"09599449-1f6e-474d-a101-59dad69db6eb","system_id":"levelo_inurba_marseille","lat":43.296263,"lon":5.377094,"is_reserved":false,"is_disabled":false,"rental_uris":{"android":"levelo://app?vid=09599449-1f6e-474d-a101-59dad69db6eb","ios":"levelo://app?vid=09599449-1f6e-474d-a101-59dad69db6eb"},"vehicle_type_id":"4","last_reported":1715436377,"current_range_meters":5200,"station_id":"ce4bgi92rcd13ifvqb90","pricing_plan_id":"cebpf4jnsgd1na2vs0mg"},{"bike_id":"1084a4c2-1ad2-49a1-91e9-4dffaf195a74","system_id":"levelo_inurba_marseille","lat":43.304278,"lon":5.388868,"is_reserved":false,"is_disabled":false,"rental_uris":{"android":"levelo://app?vid=1084a4c2-1ad2-49a1-91e9-4dffaf195a74","ios":"levelo://app?vid=1084a4c2-1ad2-49a1-91e9-4dffaf195a74"},"vehicle_type_id":"4","last_reported":1715436377,"current_range_meters":28800,"station_id":"ce4bgk12rcd13ifvqbi0","pricing_plan_id":"cebpf4jnsgd1na2vs0mg"},{"bike_id":"7ec4b9f7-792b-4d00-a7f2-7dc2200aaf33","system_id":"levelo_inurba_marseille","lat":43.299707,"lon":5.384859,"is_reserved":false,"is_disabled":false,"rental_uris":{"android":"levelo://app?vid=7ec4b9f7-792b-4d00-a7f2-7dc2200aaf33","ios":"levelo://app?vid=7ec4b9f7-792b-4d00-a7f2-7dc2200aaf33"},"vehicle_type_id":"4","last_reported":1715436377,"current_range_meters":400,"station_id":"ce4bgj92rcd13ifvqbd0","pricing_plan_id":"cebpf4jnsgd1na2vs0mg"},{"bike_id":"1e0aec4d-0694-43be-b2c7-f47218dbe182","system_id":"levelo_inurba_marseille","lat":43.299717,"lon":5.384845,"is_reserved":false,"is_disabled":false,"rental_uris":{"android":"levelo://app?vid=1e0aec4d-0694-43be-b2c7-f47218dbe182","ios":"levelo://app?vid=1e0aec4d-0694-43be-b2c7-f47218dbe182"},"vehicle_type_id":"4","last_reported":1715436377,"current_range_meters":0,"station_id":"ce4bgj92rcd13ifvqbd0","pricing_plan_id":"cebpf4jnsgd1na2vs0mg"},{"bike_id":"7f4b735c-caa1-4e7c-b2e8-8e5e1bc6c045","system_id":"levelo_inurba_marseille","lat":43.299702,"lon":5.384848,"is_reserved":false,"is_disabled":false,"rental_uris":{"android":"levelo://app?vid=7f4b735c-caa1-4e7c-b2e8-8e5e1bc6c045","ios":"levelo://app?vid=7f4b735c-caa1-4e7c-b2e8-8e5e1bc6c045"},"vehicle_type_id":"4","last_reported":1715436377,"current_range_meters":0,"station_id":"ce4bgj92rcd13ifvqbd0","pricing_plan_id":"cebpf4jnsgd1na2vs0mg"},{"bike_id":"f5efb578-b54a-433b-aa72-9de4da923870","system_id":"levelo_inurba_marseille","lat":43.299707,"lon":5.384859,"is_reserved":false,"is_disabled":false,"rental_uris":{"android":"levelo://app?vid=f5efb578-b54a-433b-aa72-9de4da923870","ios":"levelo://app?vid=f5efb578-b54a-433b-aa72-9de4da923870"},"vehicle_type_id":"4","last_reported":1715436377,"current_range_meters":6000,"station_id":"ce4bgj92rcd13ifvqbd0","pricing_plan_id":"cebpf4jnsgd1na2vs0mg"},{"bike_id":"4493638a-361c-4901-88ba-ac9678b1dd78","system_id":"levelo_inurba_marseille","lat":43.299724,"lon":5.384848,"is_reserved":false,"is_disabled":false,"rental_uris":{"android":"levelo://app?vid=4493638a-361c-4901-88ba-ac9678b1dd78","ios":"levelo://app?vid=4493638a-361c-4901-88ba-ac9678b1dd78"},"vehicle_type_id":"4","last_reported":1715436377,"current_range_meters":0,"station_id":"ce4bgj92rcd13ifvqbd0","pricing_plan_id":"cebpf4jnsgd1na2vs0mg"},{"bike_id":"2059944d-5810-47fa-8f21-415938974002","system_id":"levelo_inurba_marseille","lat":43.295279,"lon":5.375048,"is_reserved":false,"is_disabled":false,"rental_uris":{"android":"levelo://app?vid=2059944d-5810-47fa-8f21-415938974002","ios":"levelo://app?vid=2059944d-5810-47fa-8f21-415938974002"},"vehicle_type_id":"4","last_reported":1715436377,"current_range_meters":26400,"station_id":"ce4bgkp2rcd13ifvqbmg","pricing_plan_id":"cebpf4jnsgd1na2vs0mg"},{"bike_id":"d4fb0560-74fc-4ce0-b2dd-14fc8496f6b3","system_id":"levelo_inurba_marseille","lat":43.29602,"lon":5.381084,"is_reserved":false,"is_disabled":false,"rental_uris":{"android":"levelo://app?vid=d4fb0560-74fc-4ce0-b2dd-14fc8496f6b3","ios":"levelo://app?vid=d4fb0560-74fc-4ce0-b2dd-14fc8496f6b3"},"vehicle_type_id":"4","last_reported":1715436377,"current_range_meters":400,"station_id":"ce4bgl12rcd13ifvqbo0","pricing_plan_id":"cebpf4jnsgd1na2vs0mg"},{"bike_id":"66b6d794-b3fd-4217-9f32-7373c7193b9a","system_id":"levelo_inurba_marseille","lat":43.29279,"lon":5.36839,"is_reserved":false,"is_disabled":false,"rental_uris":{"android":"levelo://app?vid=66b6d794-b3fd-4217-9f32-7373c7193b9a","ios":"levelo://app?vid=66b6d794-b3fd-4217-9f32-7373c7193b9a"},"vehicle_type_id":"4","last_reported":1715436377,"current_range_meters":0,"station_id":"ce4bhbp2rcd13ifvqesg","pricing_plan_id":"cebpf4jnsgd1na2vs0mg"},{"bike_id":"617d8318-999e-4a4a-9334-6c19be6c427e","system_id":"levelo_inurba_marseille","lat":43.292311,"lon":5.360731,"is_reserved":false,"is_disabled":false,"rental_uris":{"android":"levelo://app?vid=617d8318-999e-4a4a-9334-6c19be6c427e","ios":"levelo://app?vid=617d8318-999e-4a4a-9334-6c19be6c427e"},"vehicle_type_id":"4","last_reported":1715436377,"current_range_meters":800,"station_id":"ce4bhbh2rcd13ifvqeqg","pricing_plan_id":"cebpf4jnsgd1na2vs0mg"},{"bike_id":"1431a65b-29c2-495e-b235-dd0c03861e54","system_id":"levelo_inurba_marseille","lat":43.29275,"lon":5.36843,"is_reserved":false,"is_disabled":false,"rental_uris":{"android":"levelo://app?vid=1431a65b-29c2-495e-b235-dd0c03861e54","ios":"levelo://app?vid=1431a65b-29c2-495e-b235-dd0c03861e54"},"vehicle_type_id":"4","last_reported":1715436377,"current_range_meters":7200,"station_id":"ce4bhbp2rcd13ifvqesg","pricing_plan_id":"cebpf4jnsgd1na2vs0mg"},{"bike_id":"88e601a6-ba0b-4d09-9cb3-e363c6357c1c","system_id":"levelo_inurba_marseille","lat":43.292749,"lon":5.368402,"is_reserved":false,"is_disabled":false,"rental_uris":{"android":"levelo://app?vid=88e601a6-ba0b-4d09-9cb3-e363c6357c1c","ios":"levelo://app?vid=88e601a6-ba0b-4d09-9cb3-e363c6357c1c"},"vehicle_type_id":"4","last_reported":1715436377,"current_range_meters":20000,"station_id":"ce4bhbp2rcd13ifvqesg","pricing_plan_id":"cebpf4jnsgd1na2vs0mg"},{"bike_id":"b9ed4892-7bb7-46d4-85df-eedbb3fb96fb","system_id":"levelo_inurba_marseille","lat":43.303002,"lon":5.392142,"is_reserved":false,"is_disabled":false,"rental_uris":{"android":"levelo://app?vid=b9ed4892-7bb7-46d4-85df-eedbb3fb96fb","ios":"levelo://app?vid=b9ed4892-7bb7-46d4-85df-eedbb3fb96fb"},"vehicle_type_id":"4","last_reported":1715436377,"current_range_meters":25200,"station_id":"ce4bgkh2rcd13ifvqbk0","pricing_plan_id":"cebpf4jnsgd1na2vs0mg"},{"bike_id":"2058e9bb-8f11-4efc-8cb2-7aa53829359d","system_id":"levelo_inurba_marseille","lat":43.293009,"lon":5.374584,"is_reserved":false,"is_disabled":false,"rental_uris":{"android":"levelo://app?vid=2058e9bb-8f11-4efc-8cb2-7aa53829359d","ios":"levelo://app?vid=2058e9bb-8f11-4efc-8cb2-7aa53829359d"},"vehicle_type_id":"4","last_reported":1715436377,"current_range_meters":18400,"station_id":"ce4bgi12rcd13ifvqb70","pricing_plan_id":"cebpf4jnsgd1na2vs0mg"},{"bike_id":"d11bd55c-f762-4d6f-be23-756310a7343f","system_id":"levelo_inurba_marseille","lat":43.303002,"lon":5.392142,"is_reserved":false,"is_disabled":false,"rental_uris":{"android":"levelo://app?vid=d11bd55c-f762-4d6f-be23-756310a7343f","ios":"levelo://app?vid=d11bd55c-f762-4d6f-be23-756310a7343f"},"vehicle_type_id":"4","last_reported":1715436377,"current_range_meters":8000,"station_id":"ce4bgkh2rcd13ifvqbk0","pricing_plan_id":"cebpf4jnsgd1na2vs0mg"},{"bike_id":"bdfbb3a3-c3ad-48b7-9725-3792701176e5","system_id":"levelo_inurba_marseille","lat":43.293009,"lon":5.374584,"is_reserved":false,"is_disabled":false,"rental_uris":{"android":"levelo://app?vid=bdfbb3a3-c3ad-48b7-9725-3792701176e5","ios":"levelo://app?vid=bdfbb3a3-c3ad-48b7-9725-3792701176e5"},"vehicle_type_id":"4","last_reported":1715436377,"current_range_meters":1200,"station_id":"ce4bgi12rcd13ifvqb70","pricing_plan_id":"cebpf4jnsgd1na2vs0mg"},{"bike_id":"ed12941e-116b-4a0a-9e61-02b8fe02d4f3","system_id":"levelo_inurba_marseille","lat":43.309589,"lon":5.390258,"is_reserved":false,"is_disabled":false,"rental_uris":{"android":"levelo://app?vid=ed12941e-116b-4a0a-9e61-02b8fe02d4f3","ios":"levelo://app?vid=ed12941e-116b-4a0a-9e61-02b8fe02d4f3"},"vehicle_type_id":"4","last_reported":1715436377,"current_range_meters":6000,"station_id":"ce4bgup2rcd13ifvqco0","pricing_plan_id":"cebpf4jnsgd1na2vs0mg"},{"bike_id":"794919e7-dd7b-429d-9b07-1eb871c3dce4","system_id":"levelo_inurba_marseille","lat":43.2936,"lon":5.37835,"is_reserved":false,"is_disabled":false,"rental_uris":{"android":"levelo://app?vid=794919e7-dd7b-429d-9b07-1eb871c3dce4","ios":"levelo://app?vid=794919e7-dd7b-429d-9b07-1eb871c3dce4"},"vehicle_type_id":"4","last_reported":1715436377,"current_range_meters":1200,"station_id":"ce4bgjh2rcd13ifvqbf0","pricing_plan_id":"cebpf4jnsgd1na2vs0mg"},{"bike_id":"a6722fd2-ead3-466e-aa08-1676459ca29f","system_id":"levelo_inurba_marseille","lat":43.300852,"lon":5.390859,"is_reserved":false,"is_disabled":false,"rental_uris":{"android":"levelo://app?vid=a6722fd2-ead3-466e-aa08-1676459ca29f","ios":"levelo://app?vid=a6722fd2-ead3-466e-aa08-1676459ca29f"},"vehicle_type_id":"4","last_reported":1715436377,"current_range_meters":18800,"station_id":"ce4bh192rcd13ifvqdb0","pricing_plan_id":"cebpf4jnsgd1na2vs0mg"},{"bike_id":"8ed0ba4c-cf65-47fa-bcfb-1be91451b1c7","system_id":"levelo_inurba_marseille","lat":43.2936,"lon":5.37835,"is_reserved":false,"is_disabled":false,"rental_uris":{"android":"levelo://app?vid=8ed0ba4c-cf65-47fa-bcfb-1be91451b1c7","ios":"levelo://app?vid=8ed0ba4c-cf65-47fa-bcfb-1be91451b1c7"},"vehicle_type_id":"4","last_reported":1715436377,"current_range_meters":0,"station_id":"ce4bgjh2rcd13ifvqbf0","pricing_plan_id":"cebpf4jnsgd1na2vs0mg"},{"bike_id":"a6548a88-fd67-4175-b885-76461222fbf5","system_id":"levelo_inurba_marseille","lat":43.298764,"lon":5.388973,"is_reserved":false,"is_disabled":false,"rental_uris":{"android":"levelo://app?vid=a6548a88-fd67-4175-b885-76461222fbf5","ios":"levelo://app?vid=a6548a88-fd67-4175-b885-76461222fbf5"},"vehicle_type_id":"4","last_reported":1715436377,"current_range_meters":7200,"station_id":"ce4bh392rcd13ifvqdl0","pricing_plan_id":"cebpf4jnsgd1na2vs0mg"},{"bike_id":"c9d608c2-c8ab-4ba2-b5f5-aabb93d9ae46","system_id":"levelo_inurba_marseille","lat":43.298764,"lon":5.388973,"is_reserved":false,"is_disabled":false,"rental_uris":{"android":"levelo://app?vid=c9d608c2-c8ab-4ba2-b5f5-aabb93d9ae46","ios":"levelo://app?vid=c9d608c2-c8ab-4ba2-b5f5-aabb93d9ae46"},"vehicle_type_id":"4","last_reported":1715436377,"current_range_meters":8800,"station_id":"ce4bh392rcd13ifvqdl0","pricing_plan_id":"cebpf4jnsgd1na2vs0mg"},{"bike_id":"e625f177-3d48-431c-a03f-83aeaf3379d2","system_id":"levelo_inurba_marseille","lat":43.298764,"lon":5.388973,"is_reserved":false,"is_disabled":false,"rental_uris":{"android":"levelo://app?vid=e625f177-3d48-431c-a03f-83aeaf3379d2","ios":"levelo://app?vid=e625f177-3d48-431c-a03f-83aeaf3379d2"},"vehicle_type_id":"4","last_reported":1715436377,"current_range_meters":28000,"station_id":"ce4bh392rcd13ifvqdl0","pricing_plan_id":"cebpf4jnsgd1na2vs0mg"},{"bike_id":"265d07bc-01f6-4170-a2ea-5675cddc9ae3","system_id":"levelo_inurba_marseille","lat":43.291675,"lon":5.371583,"is_reserved":false,"is_disabled":false,"rental_uris":{"android":"levelo://app?vid=265d07bc-01f6-4170-a2ea-5675cddc9ae3","ios":"levelo://app?vid=265d07bc-01f6-4170-a2ea-5675cddc9ae3"},"vehicle_type_id":"4","last_reported":1715436377,"current_range_meters":24400,"station_id":"ce4bha92rcd13ifvqeh0","pricing_plan_id":"cebpf4jnsgd1na2vs0mg"},{"bike_id":"a0fc1605-c0bc-4a1c-8c6d-09c6ef6005e1","system_id":"levelo_inurba_marseille","lat":43.291994,"lon":5.357886,"is_reserved":false,"is_disabled":false,"rental_uris":{"android":"levelo://app?vid=a0fc1605-c0bc-4a1c-8c6d-09c6ef6005e1","ios":"levelo://app?vid=a0fc1605-c0bc-4a1c-8c6d-09c6ef6005e1"},"vehicle_type_id":"4","last_reported":1715436377,"current_range_meters":6000,"station_id":"ce4bhb12rcd13ifvqel0","pricing_plan_id":"cebpf4jnsgd1na2vs0mg"},{"bike_id":"725dd60d-1808-40d6-874f-ba8d04a6289e","system_id":"levelo_inurba_marseille","lat":43.291994,"lon":5.357886,"is_reserved":false,"is_disabled":false,"rental_uris":{"android":"levelo://app?vid=725dd60d-1808-40d6-874f-ba8d04a6289e","ios":"levelo://app?vid=725dd60d-1808-40d6-874f-ba8d04a6289e"},"vehicle_type_id":"4","last_reported":1715436377,"current_range_meters":19200,"station_id":"ce4bhb12rcd13ifvqel0","pricing_plan_id":"cebpf4jnsgd1na2vs0mg"},{"bike_id":"449ae965-60fe-4751-b483-845afd37f270","system_id":"levelo_inurba_marseille","lat":43.29191,"lon":5.35794,"is_reserved":false,"is_disabled":false,"rental_uris":{"android":"levelo://app?vid=449ae965-60fe-4751-b483-845afd37f270","ios":"levelo://app?vid=449ae965-60fe-4751-b483-845afd37f270"},"vehicle_type_id":"4","last_reported":1715436377,"current_range_meters":4000,"station_id":"ce4bhb12rcd13ifvqel0","pricing_plan_id":"cebpf4jnsgd1na2vs0mg"},{"bike_id":"f09baab0-386b-4288-9d45-6be2d9bb6d8f","system_id":"levelo_inurba_marseille","lat":43.313291,"lon":5.396838,"is_reserved":false,"is_disabled":false,"rental_uris":{"android":"levelo://app?vid=f09baab0-386b-4288-9d45-6be2d9bb6d8f","ios":"levelo://app?vid=f09baab0-386b-4288-9d45-6be2d9bb6d8f"},"vehicle_type_id":"4","last_reported":1715436377,"current_range_meters":22400,"station_id":"ce4bgvp2rcd13ifvqcu0","pricing_plan_id":"cebpf4jnsgd1na2vs0mg"},{"bike_id":"fdac8f5f-cf75-48bc-ad79-dd6b1974fec9","system_id":"levelo_inurba_marseille","lat":43.309047,"lon":5.396551,"is_reserved":false,"is_disabled":false,"rental_uris":{"android":"levelo://app?vid=fdac8f5f-cf75-48bc-ad79-dd6b1974fec9","ios":"levelo://app?vid=fdac8f5f-cf75-48bc-ad79-dd6b1974fec9"},"vehicle_type_id":"4","last_reported":1715436377,"current_range_meters":6000,"station_id":"ce4bh012rcd13ifvqcv0","pricing_plan_id":"cebpf4jnsgd1na2vs0mg"},{"bike_id":"ca776409-637e-48a4-b127-2e6480edea9b","system_id":"levelo_inurba_marseille","lat":43.29535,"lon":5.3854,"is_reserved":false,"is_disabled":false,"rental_uris":{"android":"levelo://app?vid=ca776409-637e-48a4-b127-2e6480edea9b","ios":"levelo://app?vid=ca776409-637e-48a4-b127-2e6480edea9b"},"vehicle_type_id":"4","last_reported":1715436377,"current_range_meters":0,"station_id":"ce4bgih2rcd13ifvqba0","pricing_plan_id":"cebpf4jnsgd1na2vs0mg"},{"bike_id":"5ec3a11b-8516-496f-9888-46035113e7ed","system_id":"levelo_inurba_marseille","lat":43.289184,"lon":5.366408,"is_reserved":false,"is_disabled":false,"rental_uris":{"android":"levelo://app?vid=5ec3a11b-8516-496f-9888-46035113e7ed","ios":"levelo://app?vid=5ec3a11b-8516-496f-9888-46035113e7ed"},"vehicle_type_id":"4","last_reported":1715436377,"current_range_meters":13600,"station_id":"ce4bhap2rcd13ifvqek0","pricing_plan_id":"cebpf4jnsgd1na2vs0mg"},{"bike_id":"7578ecab-a260-4fe7-8046-db6a0402a033","system_id":"levelo_inurba_marseille","lat":43.289444,"lon":5.366501,"is_reserved":false,"is_disabled":false,"rental_uris":{"android":"levelo://app?vid=7578ecab-a260-4fe7-8046-db6a0402a033","ios":"levelo://app?vid=7578ecab-a260-4fe7-8046-db6a0402a033"},"vehicle_type_id":"4","last_reported":1715436377,"current_range_meters":22000,"station_id":"","pricing_plan_id":"cebpf4jnsgd1na2vs0mg"},{"bike_id":"8e65ee52-c9e0-4067-b9eb-3564293f09af","system_id":"levelo_inurba_marseille","lat":43.289468,"lon":5.363719,"is_reserved":false,"is_disabled":false,"rental_uris":{"android":"levelo://app?vid=8e65ee52-c9e0-4067-b9eb-3564293f09af","ios":"levelo://app?vid=8e65ee52-c9e0-4067-b9eb-3564293f09af"},"vehicle_type_id":"4","last_reported":1715436377,"current_range_meters":5200,"station_id":"ce4bhc92rcd13ifvqetg","pricing_plan_id":"cebpf4jnsgd1na2vs0mg"},{"bike_id":"97aa64c9-768c-44e7-846e-b01cd50d61f0","system_id":"levelo_inurba_marseille","lat":43.289468,"lon":5.363719,"is_reserved":false,"is_disabled":false,"rental_uris":{"android":"levelo://app?vid=97aa64c9-768c-44e7-846e-b01cd50d61f0","ios":"levelo://app?vid=97aa64c9-768c-44e7-846e-b01cd50d61f0"},"vehicle_type_id":"4","last_reported":1715436377,"current_range_meters":0,"station_id":"ce4bhc92rcd13ifvqetg","pricing_plan_id":"cebpf4jnsgd1na2vs0mg"},{"bike_id":"9bc491a6-8d34-4eb3-b513-115be84c433d","system_id":"levelo_inurba_marseille","lat":43.289318,"lon":5.363745,"is_reserved":false,"is_disabled":false,"rental_uris":{"android":"levelo://app?vid=9bc491a6-8d34-4eb3-b513-115be84c433d","ios":"levelo://app?vid=9bc491a6-8d34-4eb3-b513-115be84c433d"},"vehicle_type_id":"4","last_reported":1715436377,"current_range_meters":4000,"station_id":"ce4bhc92rcd13ifvqetg","pricing_plan_id":"cebpf4jnsgd1na2vs0mg"},{"bike_id":"2aaceb2f-44e6-4783-bf64-deaa07cbf7a8","system_id":"levelo_inurba_marseille","lat":43.304296,"lon":5.397513,"is_reserved":false,"is_disabled":false,"rental_uris":{"android":"levelo://app?vid=2aaceb2f-44e6-4783-bf64-deaa07cbf7a8","ios":"levelo://app?vid=2aaceb2f-44e6-4783-bf64-deaa07cbf7a8"},"vehicle_type_id":"4","last_reported":1715436377,"current_range_meters":8000,"station_id":"ce4bh092rcd13ifvqd20","pricing_plan_id":"cebpf4jnsgd1na2vs0mg"},{"bike_id":"0168da4a-6caf-40a9-a2a0-97dbfa38c682","system_id":"levelo_inurba_marseille","lat":43.304274,"lon":5.397513,"is_reserved":false,"is_disabled":false,"rental_uris":{"android":"levelo://app?vid=0168da4a-6caf-40a9-a2a0-97dbfa38c682","ios":"levelo://app?vid=0168da4a-6caf-40a9-a2a0-97dbfa38c682"},"vehicle_type_id":"4","last_reported":1715436377,"current_range_meters":18000,"station_id":"ce4bh092rcd13ifvqd20","pricing_plan_id":"cebpf4jnsgd1na2vs0mg"},{"bike_id":"2a68e5a1-3fb5-420d-8e50-09162f39d2d1","system_id":"levelo_inurba_marseille","lat":43.292642,"lon":5.384254,"is_reserved":false,"is_disabled":false,"rental_uris":{"android":"levelo://app?vid=2a68e5a1-3fb5-420d-8e50-09162f39d2d1","ios":"levelo://app?vid=2a68e5a1-3fb5-420d-8e50-09162f39d2d1"},"vehicle_type_id":"4","last_reported":1715436377,"current_range_meters":31200,"station_id":"ce4bh692rcd13ifvqea0","pricing_plan_id":"cebpf4jnsgd1na2vs0mg"},{"bike_id":"afde3d8e-8565-46e5-98f9-bfdbf6c32660","system_id":"levelo_inurba_marseille","lat":43.304274,"lon":5.397513,"is_reserved":false,"is_disabled":false,"rental_uris":{"android":"levelo://app?vid=afde3d8e-8565-46e5-98f9-bfdbf6c32660","ios":"levelo://app?vid=afde3d8e-8565-46e5-98f9-bfdbf6c32660"},"vehicle_type_id":"4","last_reported":1715436377,"current_range_meters":30400,"station_id":"ce4bh092rcd13ifvqd20","pricing_plan_id":"cebpf4jnsgd1na2vs0mg"},{"bike_id":"c830b05a-27a9-49dd-9f8b-9a100900372d","system_id":"levelo_inurba_marseille","lat":43.290995,"lon":5.381361,"is_reserved":false,"is_disabled":false,"rental_uris":{"android":"levelo://app?vid=c830b05a-27a9-49dd-9f8b-9a100900372d","ios":"levelo://app?vid=c830b05a-27a9-49dd-9f8b-9a100900372d"},"vehicle_type_id":"4","last_reported":1715436377,"current_range_meters":400,"station_id":"ce4bh512rcd13ifvqe2g","pricing_plan_id":"cebpf4jnsgd1na2vs0mg"},{"bike_id":"30b3b38e-53fa-4684-9f74-31b1fd1655c6","system_id":"levelo_inurba_marseille","lat":43.29761,"lon":5.39327,"is_reserved":false,"is_disabled":false,"rental_uris":{"android":"levelo://app?vid=30b3b38e-53fa-4684-9f74-31b1fd1655c6","ios":"levelo://app?vid=30b3b38e-53fa-4684-9f74-31b1fd1655c6"},"vehicle_type_id":"4","last_reported":1715436377,"current_range_meters":8400,"station_id":"chh1huq6cuj3fo74tm60","pricing_plan_id":"cebpf4jnsgd1na2vs0mg"},{"bike_id":"4c8dc81e-ba12-42d7-bdb4-39141abe788d","system_id":"levelo_inurba_marseille","lat":43.330442,"lon":5.389148,"is_reserved":false,"is_disabled":false,"rental_uris":{"android":"levelo://app?vid=4c8dc81e-ba12-42d7-bdb4-39141abe788d","ios":"levelo://app?vid=4c8dc81e-ba12-42d7-bdb4-39141abe788d"},"vehicle_type_id":"4","last_reported":1715436377,"current_range_meters":22000,"station_id":"ce4bhr92rcd13ifvqhrg","pricing_plan_id":"cebpf4jnsgd1na2vs0mg"},{"bike_id":"16ac8c6b-634b-4dcd-b0b2-ce631742ab8b","system_id":"levelo_inurba_marseille","lat":43.2901,"lon":5.381269,"is_reserved":false,"is_disabled":false,"rental_uris":{"android":"levelo://app?vid=16ac8c6b-634b-4dcd-b0b2-ce631742ab8b","ios":"levelo://app?vid=16ac8c6b-634b-4dcd-b0b2-ce631742ab8b"},"vehicle_type_id":"4","last_reported":1715436377,"current_range_meters":20000,"station_id":"ce4bh4p2rcd13ifvqe1g","pricing_plan_id":"cebpf4jnsgd1na2vs0mg"},{"bike_id":"7b1a86dd-8023-41c7-9f19-0a498cd77e26","system_id":"levelo_inurba_marseille","lat":43.290094,"lon":5.381264,"is_reserved":false,"is_disabled":false,"rental_uris":{"android":"levelo://app?vid=7b1a86dd-8023-41c7-9f19-0a498cd77e26","ios":"levelo://app?vid=7b1a86dd-8023-41c7-9f19-0a498cd77e26"},"vehicle_type_id":"4","last_reported":1715436377,"current_range_meters":4400,"station_id":"ce4bh4p2rcd13ifvqe1g","pricing_plan_id":"cebpf4jnsgd1na2vs0mg"},{"bike_id":"a6fe3be9-2ae1-42ce-9d62-911bb3dea5fa","system_id":"levelo_inurba_marseille","lat":43.28856,"lon":5.358371,"is_reserved":false,"is_disabled":false,"rental_uris":{"android":"levelo://app?vid=a6fe3be9-2ae1-42ce-9d62-911bb3dea5fa","ios":"levelo://app?vid=a6fe3be9-2ae1-42ce-9d62-911bb3dea5fa"},"vehicle_type_id":"4","last_reported":1715436377,"current_range_meters":30800,"station_id":"ce4bhb12rcd13ifvqem0","pricing_plan_id":"cebpf4jnsgd1na2vs0mg"},{"bike_id":"7237e7b0-875a-44df-976b-8835cf3ac61c","system_id":"levelo_inurba_marseille","lat":43.309371,"lon":5.401449,"is_reserved":false,"is_disabled":false,"rental_uris":{"android":"levelo://app?vid=7237e7b0-875a-44df-976b-8835cf3ac61c","ios":"levelo://app?vid=7237e7b0-875a-44df-976b-8835cf3ac61c"},"vehicle_type_id":"4","last_reported":1715436377,"current_range_meters":22000,"station_id":"ce4bgvp2rcd13ifvqct0","pricing_plan_id":"cebpf4jnsgd1na2vs0mg"},{"bike_id":"2fafb277-af30-4893-b4a8-b5fcd7adbd90","system_id":"levelo_inurba_marseille","lat":43.309371,"lon":5.401449,"is_reserved":false,"is_disabled":false,"rental_uris":{"android":"levelo://app?vid=2fafb277-af30-4893-b4a8-b5fcd7adbd90","ios":"levelo://app?vid=2fafb277-af30-4893-b4a8-b5fcd7adbd90"},"vehicle_type_id":"4","last_reported":1715436377,"current_range_meters":3600,"station_id":"ce4bgvp2rcd13ifvqct0","pricing_plan_id":"cebpf4jnsgd1na2vs0mg"},{"bike_id":"72ff8468-8ccc-48af-909b-24b3dfb414bc","system_id":"levelo_inurba_marseille","lat":43.309371,"lon":5.401449,"is_reserved":false,"is_disabled":false,"rental_uris":{"android":"levelo://app?vid=72ff8468-8ccc-48af-909b-24b3dfb414bc","ios":"levelo://app?vid=72ff8468-8ccc-48af-909b-24b3dfb414bc"},"vehicle_type_id":"4","last_reported":1715436377,"current_range_meters":15200,"station_id":"ce4bgvp2rcd13ifvqct0","pricing_plan_id":"cebpf4jnsgd1na2vs0mg"},{"bike_id":"2c8ad259-3ed2-4212-98d9-4efe5df1c45d","system_id":"levelo_inurba_marseille","lat":43.309371,"lon":5.401449,"is_reserved":false,"is_disabled":false,"rental_uris":{"android":"levelo://app?vid=2c8ad259-3ed2-4212-98d9-4efe5df1c45d","ios":"levelo://app?vid=2c8ad259-3ed2-4212-98d9-4efe5df1c45d"},"vehicle_type_id":"4","last_reported":1715436377,"current_range_meters":18800,"station_id":"ce4bgvp2rcd13ifvqct0","pricing_plan_id":"cebpf4jnsgd1na2vs0mg"},{"bike_id":"f7932a42-aa5c-439b-b535-65dd8ccd41cf","system_id":"levelo_inurba_marseille","lat":43.33751,"lon":5.37493,"is_reserved":false,"is_disabled":false,"rental_uris":{"android":"levelo://app?vid=f7932a42-aa5c-439b-b535-65dd8ccd41cf","ios":"levelo://app?vid=f7932a42-aa5c-439b-b535-65dd8ccd41cf"},"vehicle_type_id":"4","last_reported":1715436377,"current_range_meters":29200,"station_id":"","pricing_plan_id":"cebpf4jnsgd1na2vs0mg"},{"bike_id":"91d9714b-b35f-47ce-8f34-022bf351236f","system_id":"levelo_inurba_marseille","lat":43.33762,"lon":5.37436,"is_reserved":false,"is_disabled":false,"rental_uris":{"android":"levelo://app?vid=91d9714b-b35f-47ce-8f34-022bf351236f","ios":"levelo://app?vid=91d9714b-b35f-47ce-8f34-022bf351236f"},"vehicle_type_id":"4","last_reported":1715436377,"current_range_meters":24800,"station_id":"","pricing_plan_id":"cebpf4jnsgd1na2vs0mg"},{"bike_id":"7872c7f9-aaff-42d1-9628-3f085abe6f56","system_id":"levelo_inurba_marseille","lat":43.306412,"lon":5.401035,"is_reserved":false,"is_disabled":false,"rental_uris":{"android":"levelo://app?vid=7872c7f9-aaff-42d1-9628-3f085abe6f56","ios":"levelo://app?vid=7872c7f9-aaff-42d1-9628-3f085abe6f56"},"vehicle_type_id":"4","last_reported":1715436377,"current_range_meters":17200,"station_id":"ce4bh112rcd13ifvqda0","pricing_plan_id":"cebpf4jnsgd1na2vs0mg"},{"bike_id":"0e303736-ad98-4ca0-ae7e-85d9a5c056b2","system_id":"levelo_inurba_marseille","lat":43.301117,"lon":5.398795,"is_reserved":false,"is_disabled":false,"rental_uris":{"android":"levelo://app?vid=0e303736-ad98-4ca0-ae7e-85d9a5c056b2","ios":"levelo://app?vid=0e303736-ad98-4ca0-ae7e-85d9a5c056b2"},"vehicle_type_id":"4","last_reported":1715436377,"current_range_meters":26800,"station_id":"ce4bh0h2rcd13ifvqd40","pricing_plan_id":"cebpf4jnsgd1na2vs0mg"},{"bike_id":"48da7bc0-0b4f-40a9-9250-57e3bd6ed3a7","system_id":"levelo_inurba_marseille","lat":43.301117,"lon":5.398795,"is_reserved":false,"is_disabled":false,"rental_uris":{"android":"levelo://app?vid=48da7bc0-0b4f-40a9-9250-57e3bd6ed3a7","ios":"levelo://app?vid=48da7bc0-0b4f-40a9-9250-57e3bd6ed3a7"},"vehicle_type_id":"4","last_reported":1715436377,"current_range_meters":4400,"station_id":"ce4bh0h2rcd13ifvqd40","pricing_plan_id":"cebpf4jnsgd1na2vs0mg"},{"bike_id":"ee5d62b5-ae70-4a05-a46f-46a3a9068ffa","system_id":"levelo_inurba_marseille","lat":43.301117,"lon":5.398795,"is_reserved":false,"is_disabled":false,"rental_uris":{"android":"levelo://app?vid=ee5d62b5-ae70-4a05-a46f-46a3a9068ffa","ios":"levelo://app?vid=ee5d62b5-ae70-4a05-a46f-46a3a9068ffa"},"vehicle_type_id":"4","last_reported":1715436377,"current_range_meters":24000,"station_id":"ce4bh0h2rcd13ifvqd40","pricing_plan_id":"cebpf4jnsgd1na2vs0mg"},{"bike_id":"91266183-f089-41f9-b680-9b6f42362c41","system_id":"levelo_inurba_marseille","lat":43.28714,"lon":5.360948,"is_reserved":false,"is_disabled":false,"rental_uris":{"android":"levelo://app?vid=91266183-f089-41f9-b680-9b6f42362c41","ios":"levelo://app?vid=91266183-f089-41f9-b680-9b6f42362c41"},"vehicle_type_id":"4","last_reported":1715436377,"current_range_meters":24400,"station_id":"","pricing_plan_id":"cebpf4jnsgd1na2vs0mg"},{"bike_id":"df6f7a72-592b-4fc4-86fd-48f2f4cff633","system_id":"levelo_inurba_marseille","lat":43.286593,"lon":5.363346,"is_reserved":false,"is_disabled":false,"rental_uris":{"android":"levelo://app?vid=df6f7a72-592b-4fc4-86fd-48f2f4cff633","ios":"levelo://app?vid=df6f7a72-592b-4fc4-86fd-48f2f4cff633"},"vehicle_type_id":"4","last_reported":1715436377,"current_range_meters":2000,"station_id":"ce4bhah2rcd13ifvqej0","pricing_plan_id":"cebpf4jnsgd1na2vs0mg"},{"bike_id":"037b7ec4-c441-4229-a291-e6d1c7d9ea56","system_id":"levelo_inurba_marseille","lat":43.286591,"lon":5.363346,"is_reserved":false,"is_disabled":false,"rental_uris":{"android":"levelo://app?vid=037b7ec4-c441-4229-a291-e6d1c7d9ea56","ios":"levelo://app?vid=037b7ec4-c441-4229-a291-e6d1c7d9ea56"},"vehicle_type_id":"4","last_reported":1715436377,"current_range_meters":15600,"station_id":"ce4bhah2rcd13ifvqej0","pricing_plan_id":"cebpf4jnsgd1na2vs0mg"},{"bike_id":"baf15fd0-1745-4cf3-abde-b92e62d75193","system_id":"levelo_inurba_marseille","lat":43.286593,"lon":5.363346,"is_reserved":false,"is_disabled":false,"rental_uris":{"android":"levelo://app?vid=baf15fd0-1745-4cf3-abde-b92e62d75193","ios":"levelo://app?vid=baf15fd0-1745-4cf3-abde-b92e62d75193"},"vehicle_type_id":"4","last_reported":1715436377,"current_range_meters":26000,"station_id":"ce4bhah2rcd13ifvqej0","pricing_plan_id":"cebpf4jnsgd1na2vs0mg"},{"bike_id":"4515da0e-7f2b-456d-b14b-d10877189dfa","system_id":"levelo_inurba_marseille","lat":43.286593,"lon":5.363346,"is_reserved":false,"is_disabled":false,"rental_uris":{"android":"levelo://app?vid=4515da0e-7f2b-456d-b14b-d10877189dfa","ios":"levelo://app?vid=4515da0e-7f2b-456d-b14b-d10877189dfa"},"vehicle_type_id":"4","last_reported":1715436377,"current_range_meters":27600,"station_id":"ce4bhah2rcd13ifvqej0","pricing_plan_id":"cebpf4jnsgd1na2vs0mg"},{"bike_id":"20cd4f1b-d320-4591-afae-1d5da0501422","system_id":"levelo_inurba_marseille","lat":43.286961,"lon":5.373785,"is_reserved":false,"is_disabled":false,"rental_uris":{"android":"levelo://app?vid=20cd4f1b-d320-4591-afae-1d5da0501422","ios":"levelo://app?vid=20cd4f1b-d320-4591-afae-1d5da0501422"},"vehicle_type_id":"4","last_reported":1715436377,"current_range_meters":12400,"station_id":"ce4bh3p2rcd13ifvqdq0","pricing_plan_id":"cebpf4jnsgd1na2vs0mg"},{"bike_id":"e68e9ade-7cc5-464c-8d97-35f477461d43","system_id":"levelo_inurba_marseille","lat":43.286585,"lon":5.363466,"is_reserved":false,"is_disabled":false,"rental_uris":{"android":"levelo://app?vid=e68e9ade-7cc5-464c-8d97-35f477461d43","ios":"levelo://app?vid=e68e9ade-7cc5-464c-8d97-35f477461d43"},"vehicle_type_id":"4","last_reported":1715436377,"current_range_meters":24800,"station_id":"ce4bhah2rcd13ifvqej0","pricing_plan_id":"cebpf4jnsgd1na2vs0mg"},{"bike_id":"7cbf672e-a0fd-4736-b389-889b96b7086c","system_id":"levelo_inurba_marseille","lat":43.295194,"lon":5.39397,"is_reserved":false,"is_disabled":false,"rental_uris":{"android":"levelo://app?vid=7cbf672e-a0fd-4736-b389-889b96b7086c","ios":"levelo://app?vid=7cbf672e-a0fd-4736-b389-889b96b7086c"},"vehicle_type_id":"4","last_reported":1715436377,"current_range_meters":0,"station_id":"ce4bh292rcd13ifvqdf0","pricing_plan_id":"cebpf4jnsgd1na2vs0mg"},{"bike_id":"04304fb2-bb9c-4cb8-869a-6338b8e79488","system_id":"levelo_inurba_marseille","lat":43.295194,"lon":5.39397,"is_reserved":false,"is_disabled":false,"rental_uris":{"android":"levelo://app?vid=04304fb2-bb9c-4cb8-869a-6338b8e79488","ios":"levelo://app?vid=04304fb2-bb9c-4cb8-869a-6338b8e79488"},"vehicle_type_id":"4","last_reported":1715436377,"current_range_meters":24800,"station_id":"ce4bh292rcd13ifvqdf0","pricing_plan_id":"cebpf4jnsgd1na2vs0mg"},{"bike_id":"16024eba-2f23-4dfa-ae5f-2fb2f63876d8","system_id":"levelo_inurba_marseille","lat":43.2903,"lon":5.38644,"is_reserved":false,"is_disabled":false,"rental_uris":{"android":"levelo://app?vid=16024eba-2f23-4dfa-ae5f-2fb2f63876d8","ios":"levelo://app?vid=16024eba-2f23-4dfa-ae5f-2fb2f63876d8"},"vehicle_type_id":"4","last_reported":1715436377,"current_range_meters":0,"station_id":"","pricing_plan_id":"cebpf4jnsgd1na2vs0mg"},{"bike_id":"f003c4d2-390e-42b2-a2c7-6ebadf09fae7","system_id":"levelo_inurba_marseille","lat":43.29029,"lon":5.38649,"is_reserved":false,"is_disabled":false,"rental_uris":{"android":"levelo://app?vid=f003c4d2-390e-42b2-a2c7-6ebadf09fae7","ios":"levelo://app?vid=f003c4d2-390e-42b2-a2c7-6ebadf09fae7"},"vehicle_type_id":"4","last_reported":1715436377,"current_range_meters":0,"station_id":"","pricing_plan_id":"cebpf4jnsgd1na2vs0mg"},{"bike_id":"6a4e92b3-24bd-4be8-8e35-14fd5ff9b2db","system_id":"levelo_inurba_marseille","lat":43.29027,"lon":5.38646,"is_reserved":false,"is_disabled":false,"rental_uris":{"android":"levelo://app?vid=6a4e92b3-24bd-4be8-8e35-14fd5ff9b2db","ios":"levelo://app?vid=6a4e92b3-24bd-4be8-8e35-14fd5ff9b2db"},"vehicle_type_id":"4","last_reported":1715436377,"current_range_meters":0,"station_id":"ce4bh4p2rcd13ifvqe0g","pricing_plan_id":"cebpf4jnsgd1na2vs0mg"},{"bike_id":"03b2e107-e574-4206-985b-c09b3c4b5d3f","system_id":"levelo_inurba_marseille","lat":43.302759,"lon":5.400793,"is_reserved":false,"is_disabled":false,"rental_uris":{"android":"levelo://app?vid=03b2e107-e574-4206-985b-c09b3c4b5d3f","ios":"levelo://app?vid=03b2e107-e574-4206-985b-c09b3c4b5d3f"},"vehicle_type_id":"4","last_reported":1715436377,"current_range_meters":22000,"station_id":"ce4bgvh2rcd13ifvqcs0","pricing_plan_id":"cebpf4jnsgd1na2vs0mg"},{"bike_id":"368affeb-e9d1-48b3-a773-721d666825f7","system_id":"levelo_inurba_marseille","lat":43.302759,"lon":5.400793,"is_reserved":false,"is_disabled":false,"rental_uris":{"android":"levelo://app?vid=368affeb-e9d1-48b3-a773-721d666825f7","ios":"levelo://app?vid=368affeb-e9d1-48b3-a773-721d666825f7"},"vehicle_type_id":"4","last_reported":1715436377,"current_range_meters":13200,"station_id":"ce4bgvh2rcd13ifvqcs0","pricing_plan_id":"cebpf4jnsgd1na2vs0mg"},{"bike_id":"2c193be0-b660-4ce3-852d-bfa112b3972d","system_id":"levelo_inurba_marseille","lat":43.286039,"lon":5.370679,"is_reserved":false,"is_disabled":false,"rental_uris":{"android":"levelo://app?vid=2c193be0-b660-4ce3-852d-bfa112b3972d","ios":"levelo://app?vid=2c193be0-b660-4ce3-852d-bfa112b3972d"},"vehicle_type_id":"4","last_reported":1715436377,"current_range_meters":8000,"station_id":"ce4bht12rcd13ifvqi60","pricing_plan_id":"cebpf4jnsgd1na2vs0mg"},{"bike_id":"66fe358f-f139-48a9-90b8-ba738bb553ad","system_id":"levelo_inurba_marseille","lat":43.286039,"lon":5.370681,"is_reserved":false,"is_disabled":false,"rental_uris":{"android":"levelo://app?vid=66fe358f-f139-48a9-90b8-ba738bb553ad","ios":"levelo://app?vid=66fe358f-f139-48a9-90b8-ba738bb553ad"},"vehicle_type_id":"4","last_reported":1715436377,"current_range_meters":0,"station_id":"ce4bht12rcd13ifvqi60","pricing_plan_id":"cebpf4jnsgd1na2vs0mg"},{"bike_id":"c188b277-7697-4679-95b0-5500e01f8ceb","system_id":"levelo_inurba_marseille","lat":43.287184,"lon":5.37937,"is_reserved":false,"is_disabled":false,"rental_uris":{"android":"levelo://app?vid=c188b277-7697-4679-95b0-5500e01f8ceb","ios":"levelo://app?vid=c188b277-7697-4679-95b0-5500e01f8ceb"},"vehicle_type_id":"4","last_reported":1715436377,"current_range_meters":29600,"station_id":"ce4bh9p2rcd13ifvqec0","pricing_plan_id":"cebpf4jnsgd1na2vs0mg"},{"bike_id":"cd207e12-da7d-4e20-820d-9503d3c2a96c","system_id":"levelo_inurba_marseille","lat":43.316828,"lon":5.404723,"is_reserved":false,"is_disabled":false,"rental_uris":{"android":"levelo://app?vid=cd207e12-da7d-4e20-820d-9503d3c2a96c","ios":"levelo://app?vid=cd207e12-da7d-4e20-820d-9503d3c2a96c"},"vehicle_type_id":"4","last_reported":1715436377,"current_range_meters":26400,"station_id":"ce4bh012rcd13ifvqd00","pricing_plan_id":"cebpf4jnsgd1na2vs0mg"},{"bike_id":"e58a377c-867e-425d-bb45-61d12cea9b90","system_id":"levelo_inurba_marseille","lat":43.31698,"lon":5.404689,"is_reserved":false,"is_disabled":false,"rental_uris":{"android":"levelo://app?vid=e58a377c-867e-425d-bb45-61d12cea9b90","ios":"levelo://app?vid=e58a377c-867e-425d-bb45-61d12cea9b90"},"vehicle_type_id":"4","last_reported":1715436377,"current_range_meters":28000,"station_id":"ce4bh012rcd13ifvqd00","pricing_plan_id":"cebpf4jnsgd1na2vs0mg"},{"bike_id":"737b8db4-4796-45c1-ab29-3f8812c8d8d7","system_id":"levelo_inurba_marseille","lat":43.291994,"lon":5.392907,"is_reserved":false,"is_disabled":false,"rental_uris":{"android":"levelo://app?vid=737b8db4-4796-45c1-ab29-3f8812c8d8d7","ios":"levelo://app?vid=737b8db4-4796-45c1-ab29-3f8812c8d8d7"},"vehicle_type_id":"4","last_reported":1715436377,"current_range_meters":6800,"station_id":"ce4bh192rcd13ifvqdd0","pricing_plan_id":"cebpf4jnsgd1na2vs0mg"},{"bike_id":"4f418ca4-d3b0-412f-bbdf-9663b003abfa","system_id":"levelo_inurba_marseille","lat":43.291994,"lon":5.392907,"is_reserved":false,"is_disabled":false,"rental_uris":{"android":"levelo://app?vid=4f418ca4-d3b0-412f-bbdf-9663b003abfa","ios":"levelo://app?vid=4f418ca4-d3b0-412f-bbdf-9663b003abfa"},"vehicle_type_id":"4","last_reported":1715436377,"current_range_meters":15600,"station_id":"ce4bh192rcd13ifvqdd0","pricing_plan_id":"cebpf4jnsgd1na2vs0mg"},{"bike_id":"407ce749-2a5d-4f9e-9ff3-5a394deca8f9","system_id":"levelo_inurba_marseille","lat":43.284534,"lon":5.358662,"is_reserved":false,"is_disabled":false,"rental_uris":{"android":"levelo://app?vid=407ce749-2a5d-4f9e-9ff3-5a394deca8f9","ios":"levelo://app?vid=407ce749-2a5d-4f9e-9ff3-5a394deca8f9"},"vehicle_type_id":"4","last_reported":1715436377,"current_range_meters":4400,"station_id":"ce4bhah2rcd13ifvqei0","pricing_plan_id":"cebpf4jnsgd1na2vs0mg"},{"bike_id":"2a3c4f74-6d29-4428-852e-82ed41d8ce21","system_id":"levelo_inurba_marseille","lat":43.284538,"lon":5.358657,"is_reserved":false,"is_disabled":false,"rental_uris":{"android":"levelo://app?vid=2a3c4f74-6d29-4428-852e-82ed41d8ce21","ios":"levelo://app?vid=2a3c4f74-6d29-4428-852e-82ed41d8ce21"},"vehicle_type_id":"4","last_reported":1715436377,"current_range_meters":23600,"station_id":"ce4bhah2rcd13ifvqei0","pricing_plan_id":"cebpf4jnsgd1na2vs0mg"},{"bike_id":"59ab49a6-dce2-4132-836c-901aa7dfeb78","system_id":"levelo_inurba_marseille","lat":43.284538,"lon":5.358657,"is_reserved":false,"is_disabled":false,"rental_uris":{"android":"levelo://app?vid=59ab49a6-dce2-4132-836c-901aa7dfeb78","ios":"levelo://app?vid=59ab49a6-dce2-4132-836c-901aa7dfeb78"},"vehicle_type_id":"4","last_reported":1715436377,"current_range_meters":26400,"station_id":"ce4bhah2rcd13ifvqei0","pricing_plan_id":"cebpf4jnsgd1na2vs0mg"},{"bike_id":"e4d3e0bb-fb7d-44bc-8420-3941e37da8b2","system_id":"levelo_inurba_marseille","lat":43.284534,"lon":5.358662,"is_reserved":false,"is_disabled":false,"rental_uris":{"android":"levelo://app?vid=e4d3e0bb-fb7d-44bc-8420-3941e37da8b2","ios":"levelo://app?vid=e4d3e0bb-fb7d-44bc-8420-3941e37da8b2"},"vehicle_type_id":"4","last_reported":1715436377,"current_range_meters":17200,"station_id":"ce4bhah2rcd13ifvqei0","pricing_plan_id":"cebpf4jnsgd1na2vs0mg"},{"bike_id":"eb76b5f7-c58b-4567-943a-387dffb69201","system_id":"levelo_inurba_marseille","lat":43.284534,"lon":5.358662,"is_reserved":false,"is_disabled":false,"rental_uris":{"android":"levelo://app?vid=eb76b5f7-c58b-4567-943a-387dffb69201","ios":"levelo://app?vid=eb76b5f7-c58b-4567-943a-387dffb69201"},"vehicle_type_id":"4","last_reported":1715436377,"current_range_meters":8800,"station_id":"ce4bhah2rcd13ifvqei0","pricing_plan_id":"cebpf4jnsgd1na2vs0mg"},{"bike_id":"4b32f47d-4ae6-4b4e-9e64-d5c97bd1ad56","system_id":"levelo_inurba_marseille","lat":43.284538,"lon":5.358657,"is_reserved":false,"is_disabled":false,"rental_uris":{"android":"levelo://app?vid=4b32f47d-4ae6-4b4e-9e64-d5c97bd1ad56","ios":"levelo://app?vid=4b32f47d-4ae6-4b4e-9e64-d5c97bd1ad56"},"vehicle_type_id":"4","last_reported":1715436377,"current_range_meters":17600,"station_id":"ce4bhah2rcd13ifvqei0","pricing_plan_id":"cebpf4jnsgd1na2vs0mg"},{"bike_id":"1a081abe-c256-4e9c-aac3-70bd4995c1cd","system_id":"levelo_inurba_marseille","lat":43.284534,"lon":5.358662,"is_reserved":false,"is_disabled":false,"rental_uris":{"android":"levelo://app?vid=1a081abe-c256-4e9c-aac3-70bd4995c1cd","ios":"levelo://app?vid=1a081abe-c256-4e9c-aac3-70bd4995c1cd"},"vehicle_type_id":"4","last_reported":1715436377,"current_range_meters":12000,"station_id":"ce4bhah2rcd13ifvqei0","pricing_plan_id":"cebpf4jnsgd1na2vs0mg"},{"bike_id":"c6206fd8-39b2-43d0-b010-dac108c6f511","system_id":"levelo_inurba_marseille","lat":43.284534,"lon":5.358662,"is_reserved":false,"is_disabled":false,"rental_uris":{"android":"levelo://app?vid=c6206fd8-39b2-43d0-b010-dac108c6f511","ios":"levelo://app?vid=c6206fd8-39b2-43d0-b010-dac108c6f511"},"vehicle_type_id":"4","last_reported":1715436377,"current_range_meters":12400,"station_id":"ce4bhah2rcd13ifvqei0","pricing_plan_id":"cebpf4jnsgd1na2vs0mg"},{"bike_id":"0591a47f-32ff-4e56-8d2b-3c34c4cf148f","system_id":"levelo_inurba_marseille","lat":43.284534,"lon":5.358662,"is_reserved":false,"is_disabled":false,"rental_uris":{"android":"levelo://app?vid=0591a47f-32ff-4e56-8d2b-3c34c4cf148f","ios":"levelo://app?vid=0591a47f-32ff-4e56-8d2b-3c34c4cf148f"},"vehicle_type_id":"4","last_reported":1715436377,"current_range_meters":17200,"station_id":"ce4bhah2rcd13ifvqei0","pricing_plan_id":"cebpf4jnsgd1na2vs0mg"},{"bike_id":"9c1e8c64-dd09-4c26-ae3a-3378b446ed12","system_id":"levelo_inurba_marseille","lat":43.284538,"lon":5.358657,"is_reserved":false,"is_disabled":false,"rental_uris":{"android":"levelo://app?vid=9c1e8c64-dd09-4c26-ae3a-3378b446ed12","ios":"levelo://app?vid=9c1e8c64-dd09-4c26-ae3a-3378b446ed12"},"vehicle_type_id":"4","last_reported":1715436377,"current_range_meters":12000,"station_id":"ce4bhah2rcd13ifvqei0","pricing_plan_id":"cebpf4jnsgd1na2vs0mg"},{"bike_id":"691fca45-d108-4942-9b41-58338ba21933","system_id":"levelo_inurba_marseille","lat":43.284534,"lon":5.358662,"is_reserved":false,"is_disabled":false,"rental_uris":{"android":"levelo://app?vid=691fca45-d108-4942-9b41-58338ba21933","ios":"levelo://app?vid=691fca45-d108-4942-9b41-58338ba21933"},"vehicle_type_id":"4","last_reported":1715436377,"current_range_meters":9600,"station_id":"ce4bhah2rcd13ifvqei0","pricing_plan_id":"cebpf4jnsgd1na2vs0mg"},{"bike_id":"61dc5502-476a-45f5-9cad-bde4550efc51","system_id":"levelo_inurba_marseille","lat":43.28632,"lon":5.35102,"is_reserved":false,"is_disabled":false,"rental_uris":{"android":"levelo://app?vid=61dc5502-476a-45f5-9cad-bde4550efc51","ios":"levelo://app?vid=61dc5502-476a-45f5-9cad-bde4550efc51"},"vehicle_type_id":"4","last_reported":1715436377,"current_range_meters":10400,"station_id":"ce4bhch2rcd13ifvqeug","pricing_plan_id":"cebpf4jnsgd1na2vs0mg"},{"bike_id":"5f0258aa-5191-4713-9599-237762f09c52","system_id":"levelo_inurba_marseille","lat":43.294314,"lon":5.397498,"is_reserved":false,"is_disabled":false,"rental_uris":{"android":"levelo://app?vid=5f0258aa-5191-4713-9599-237762f09c52","ios":"levelo://app?vid=5f0258aa-5191-4713-9599-237762f09c52"},"vehicle_type_id":"4","last_reported":1715436377,"current_range_meters":25200,"station_id":"ce4bh3h2rcd13ifvqdo0","pricing_plan_id":"cebpf4jnsgd1na2vs0mg"},{"bike_id":"bc4169d6-3b01-4601-a03d-e96cacdc2dc8","system_id":"levelo_inurba_marseille","lat":43.28625,"lon":5.35105,"is_reserved":false,"is_disabled":false,"rental_uris":{"android":"levelo://app?vid=bc4169d6-3b01-4601-a03d-e96cacdc2dc8","ios":"levelo://app?vid=bc4169d6-3b01-4601-a03d-e96cacdc2dc8"},"vehicle_type_id":"4","last_reported":1715436377,"current_range_meters":22800,"station_id":"ce4bhch2rcd13ifvqeug","pricing_plan_id":"cebpf4jnsgd1na2vs0mg"},{"bike_id":"1e0f26e7-fd9e-4bb6-af74-b036d1d17152","system_id":"levelo_inurba_marseille","lat":43.2862,"lon":5.35107,"is_reserved":false,"is_disabled":false,"rental_uris":{"android":"levelo://app?vid=1e0f26e7-fd9e-4bb6-af74-b036d1d17152","ios":"levelo://app?vid=1e0f26e7-fd9e-4bb6-af74-b036d1d17152"},"vehicle_type_id":"4","last_reported":1715436377,"current_range_meters":25200,"station_id":"ce4bhch2rcd13ifvqeug","pricing_plan_id":"cebpf4jnsgd1na2vs0mg"},{"bike_id":"2bc0bfc4-1108-4a00-af43-9c61e719f26b","system_id":"levelo_inurba_marseille","lat":43.28621,"lon":5.35102,"is_reserved":false,"is_disabled":false,"rental_uris":{"android":"levelo://app?vid=2bc0bfc4-1108-4a00-af43-9c61e719f26b","ios":"levelo://app?vid=2bc0bfc4-1108-4a00-af43-9c61e719f26b"},"vehicle_type_id":"4","last_reported":1715436377,"current_range_meters":23200,"station_id":"ce4bhch2rcd13ifvqeug","pricing_plan_id":"cebpf4jnsgd1na2vs0mg"},{"bike_id":"3297d838-134d-4747-b807-e2acafb3eb16","system_id":"levelo_inurba_marseille","lat":43.28618,"lon":5.35111,"is_reserved":false,"is_disabled":false,"rental_uris":{"android":"levelo://app?vid=3297d838-134d-4747-b807-e2acafb3eb16","ios":"levelo://app?vid=3297d838-134d-4747-b807-e2acafb3eb16"},"vehicle_type_id":"4","last_reported":1715436377,"current_range_meters":6400,"station_id":"ce4bhch2rcd13ifvqeug","pricing_plan_id":"cebpf4jnsgd1na2vs0mg"},{"bike_id":"a253dfaa-808d-4704-a8b7-777e1597ad17","system_id":"levelo_inurba_marseille","lat":43.28621,"lon":5.35098,"is_reserved":false,"is_disabled":false,"rental_uris":{"android":"levelo://app?vid=a253dfaa-808d-4704-a8b7-777e1597ad17","ios":"levelo://app?vid=a253dfaa-808d-4704-a8b7-777e1597ad17"},"vehicle_type_id":"4","last_reported":1715436377,"current_range_meters":16800,"station_id":"ce4bhch2rcd13ifvqeug","pricing_plan_id":"cebpf4jnsgd1na2vs0mg"},{"bike_id":"ef1e1ae6-f3a1-4070-b570-30196606a81c","system_id":"levelo_inurba_marseille","lat":43.28619,"lon":5.35102,"is_reserved":false,"is_disabled":false,"rental_uris":{"android":"levelo://app?vid=ef1e1ae6-f3a1-4070-b570-30196606a81c","ios":"levelo://app?vid=ef1e1ae6-f3a1-4070-b570-30196606a81c"},"vehicle_type_id":"4","last_reported":1715436377,"current_range_meters":0,"station_id":"","pricing_plan_id":"cebpf4jnsgd1na2vs0mg"},{"bike_id":"da26d8ce-0eb7-4c74-bcce-089fe2daa25c","system_id":"levelo_inurba_marseille","lat":43.286208,"lon":5.350961,"is_reserved":false,"is_disabled":false,"rental_uris":{"android":"levelo://app?vid=da26d8ce-0eb7-4c74-bcce-089fe2daa25c","ios":"levelo://app?vid=da26d8ce-0eb7-4c74-bcce-089fe2daa25c"},"vehicle_type_id":"4","last_reported":1715436377,"current_range_meters":22000,"station_id":"ce4bhch2rcd13ifvqeug","pricing_plan_id":"cebpf4jnsgd1na2vs0mg"},{"bike_id":"7424d2fd-60e4-47f0-939d-d1da71a93641","system_id":"levelo_inurba_marseille","lat":43.28618,"lon":5.35104,"is_reserved":false,"is_disabled":false,"rental_uris":{"android":"levelo://app?vid=7424d2fd-60e4-47f0-939d-d1da71a93641","ios":"levelo://app?vid=7424d2fd-60e4-47f0-939d-d1da71a93641"},"vehicle_type_id":"4","last_reported":1715436377,"current_range_meters":0,"station_id":"ce4bhch2rcd13ifvqeug","pricing_plan_id":"cebpf4jnsgd1na2vs0mg"},{"bike_id":"738fc6b2-ea06-43e0-a43a-7ab35a101935","system_id":"levelo_inurba_marseille","lat":43.285848,"lon":5.350787,"is_reserved":false,"is_disabled":false,"rental_uris":{"android":"levelo://app?vid=738fc6b2-ea06-43e0-a43a-7ab35a101935","ios":"levelo://app?vid=738fc6b2-ea06-43e0-a43a-7ab35a101935"},"vehicle_type_id":"4","last_reported":1715436377,"current_range_meters":24400,"station_id":"ce4bhch2rcd13ifvqeug","pricing_plan_id":"cebpf4jnsgd1na2vs0mg"},{"bike_id":"d5664e63-cd35-43e5-895a-06ed0d2292af","system_id":"levelo_inurba_marseille","lat":43.285856,"lon":5.350771,"is_reserved":false,"is_disabled":false,"rental_uris":{"android":"levelo://app?vid=d5664e63-cd35-43e5-895a-06ed0d2292af","ios":"levelo://app?vid=d5664e63-cd35-43e5-895a-06ed0d2292af"},"vehicle_type_id":"4","last_reported":1715436377,"current_range_meters":27600,"station_id":"ce4bhch2rcd13ifvqeug","pricing_plan_id":"cebpf4jnsgd1na2vs0mg"},{"bike_id":"ce9f4a3d-98c7-4f24-89e2-cd87e039f778","system_id":"levelo_inurba_marseille","lat":43.285848,"lon":5.350787,"is_reserved":false,"is_disabled":false,"rental_uris":{"android":"levelo://app?vid=ce9f4a3d-98c7-4f24-89e2-cd87e039f778","ios":"levelo://app?vid=ce9f4a3d-98c7-4f24-89e2-cd87e039f778"},"vehicle_type_id":"4","last_reported":1715436377,"current_range_meters":0,"station_id":"ce4bhch2rcd13ifvqeug","pricing_plan_id":"cebpf4jnsgd1na2vs0mg"},{"bike_id":"3fbfc888-65ac-4d39-935f-1cf28f4b54f7","system_id":"levelo_inurba_marseille","lat":43.28615,"lon":5.35108,"is_reserved":false,"is_disabled":false,"rental_uris":{"android":"levelo://app?vid=3fbfc888-65ac-4d39-935f-1cf28f4b54f7","ios":"levelo://app?vid=3fbfc888-65ac-4d39-935f-1cf28f4b54f7"},"vehicle_type_id":"4","last_reported":1715436377,"current_range_meters":800,"station_id":"ce4bhch2rcd13ifvqeug","pricing_plan_id":"cebpf4jnsgd1na2vs0mg"},{"bike_id":"9a828f98-e14d-4a9e-b335-723b0c05849b","system_id":"levelo_inurba_marseille","lat":43.28615,"lon":5.35107,"is_reserved":false,"is_disabled":false,"rental_uris":{"android":"levelo://app?vid=9a828f98-e14d-4a9e-b335-723b0c05849b","ios":"levelo://app?vid=9a828f98-e14d-4a9e-b335-723b0c05849b"},"vehicle_type_id":"4","last_reported":1715436377,"current_range_meters":21600,"station_id":"ce4bhch2rcd13ifvqeug","pricing_plan_id":"cebpf4jnsgd1na2vs0mg"},{"bike_id":"6aa937e8-8e99-4c32-97fb-3392e300783f","system_id":"levelo_inurba_marseille","lat":43.28617,"lon":5.351,"is_reserved":false,"is_disabled":false,"rental_uris":{"android":"levelo://app?vid=6aa937e8-8e99-4c32-97fb-3392e300783f","ios":"levelo://app?vid=6aa937e8-8e99-4c32-97fb-3392e300783f"},"vehicle_type_id":"4","last_reported":1715436377,"current_range_meters":23200,"station_id":"ce4bhch2rcd13ifvqeug","pricing_plan_id":"cebpf4jnsgd1na2vs0mg"},{"bike_id":"c8d16972-b334-40d8-bb39-c07ba87f7fda","system_id":"levelo_inurba_marseille","lat":43.28615,"lon":5.35102,"is_reserved":false,"is_disabled":false,"rental_uris":{"android":"levelo://app?vid=c8d16972-b334-40d8-bb39-c07ba87f7fda","ios":"levelo://app?vid=c8d16972-b334-40d8-bb39-c07ba87f7fda"},"vehicle_type_id":"4","last_reported":1715436377,"current_range_meters":9200,"station_id":"ce4bhch2rcd13ifvqeug","pricing_plan_id":"cebpf4jnsgd1na2vs0mg"},{"bike_id":"b4ec3164-17fb-4139-8b02-e02a4c6c5818","system_id":"levelo_inurba_marseille","lat":43.28615,"lon":5.35099,"is_reserved":false,"is_disabled":false,"rental_uris":{"android":"levelo://app?vid=b4ec3164-17fb-4139-8b02-e02a4c6c5818","ios":"levelo://app?vid=b4ec3164-17fb-4139-8b02-e02a4c6c5818"},"vehicle_type_id":"4","last_reported":1715436377,"current_range_meters":19200,"station_id":"ce4bhch2rcd13ifvqeug","pricing_plan_id":"cebpf4jnsgd1na2vs0mg"},{"bike_id":"b89e9e1a-e76e-46a2-aa4d-41661d97c2e1","system_id":"levelo_inurba_marseille","lat":43.285848,"lon":5.350787,"is_reserved":false,"is_disabled":false,"rental_uris":{"android":"levelo://app?vid=b89e9e1a-e76e-46a2-aa4d-41661d97c2e1","ios":"levelo://app?vid=b89e9e1a-e76e-46a2-aa4d-41661d97c2e1"},"vehicle_type_id":"4","last_reported":1715436377,"current_range_meters":20800,"station_id":"ce4bhch2rcd13ifvqeug","pricing_plan_id":"cebpf4jnsgd1na2vs0mg"},{"bike_id":"13fd0124-c79b-4fea-baa9-e0093292bee1","system_id":"levelo_inurba_marseille","lat":43.285848,"lon":5.350787,"is_reserved":false,"is_disabled":false,"rental_uris":{"android":"levelo://app?vid=13fd0124-c79b-4fea-baa9-e0093292bee1","ios":"levelo://app?vid=13fd0124-c79b-4fea-baa9-e0093292bee1"},"vehicle_type_id":"4","last_reported":1715436377,"current_range_meters":16000,"station_id":"ce4bhch2rcd13ifvqeug","pricing_plan_id":"cebpf4jnsgd1na2vs0mg"},{"bike_id":"3ba086b4-9559-42f7-86fc-12aca2369dff","system_id":"levelo_inurba_marseille","lat":43.295713,"lon":5.399639,"is_reserved":false,"is_disabled":false,"rental_uris":{"android":"levelo://app?vid=3ba086b4-9559-42f7-86fc-12aca2369dff","ios":"levelo://app?vid=3ba086b4-9559-42f7-86fc-12aca2369dff"},"vehicle_type_id":"4","last_reported":1715436377,"current_range_meters":400,"station_id":"ce4bh312rcd13ifvqdj0","pricing_plan_id":"cebpf4jnsgd1na2vs0mg"},{"bike_id":"117a7e5b-e8f8-4302-bda8-1cc6eeff9cb7","system_id":"levelo_inurba_marseille","lat":43.319179,"lon":5.407725,"is_reserved":false,"is_disabled":false,"rental_uris":{"android":"levelo://app?vid=117a7e5b-e8f8-4302-bda8-1cc6eeff9cb7","ios":"levelo://app?vid=117a7e5b-e8f8-4302-bda8-1cc6eeff9cb7"},"vehicle_type_id":"4","last_reported":1715436377,"current_range_meters":30400,"station_id":"ce4bhq12rcd13ifvqhig","pricing_plan_id":"cebpf4jnsgd1na2vs0mg"},{"bike_id":"98158bb5-973c-4b73-b254-7e0bcebe8531","system_id":"levelo_inurba_marseille","lat":43.319179,"lon":5.407725,"is_reserved":false,"is_disabled":false,"rental_uris":{"android":"levelo://app?vid=98158bb5-973c-4b73-b254-7e0bcebe8531","ios":"levelo://app?vid=98158bb5-973c-4b73-b254-7e0bcebe8531"},"vehicle_type_id":"4","last_reported":1715436377,"current_range_meters":26400,"station_id":"ce4bhq12rcd13ifvqhig","pricing_plan_id":"cebpf4jnsgd1na2vs0mg"},{"bike_id":"30ee191d-9e4a-4016-b3e5-c39b523b74d9","system_id":"levelo_inurba_marseille","lat":43.28523,"lon":5.38384,"is_reserved":false,"is_disabled":false,"rental_uris":{"android":"levelo://app?vid=30ee191d-9e4a-4016-b3e5-c39b523b74d9","ios":"levelo://app?vid=30ee191d-9e4a-4016-b3e5-c39b523b74d9"},"vehicle_type_id":"4","last_reported":1715436377,"current_range_meters":0,"station_id":"","pricing_plan_id":"cebpf4jnsgd1na2vs0mg"},{"bike_id":"9f33d57b-e32b-4fc1-90ae-4be03761260f","system_id":"levelo_inurba_marseille","lat":43.323464,"lon":5.406297,"is_reserved":false,"is_disabled":false,"rental_uris":{"android":"levelo://app?vid=9f33d57b-e32b-4fc1-90ae-4be03761260f","ios":"levelo://app?vid=9f33d57b-e32b-4fc1-90ae-4be03761260f"},"vehicle_type_id":"4","last_reported":1715436377,"current_range_meters":14400,"station_id":"ce4bhq92rcd13ifvqhjg","pricing_plan_id":"cebpf4jnsgd1na2vs0mg"},{"bike_id":"3abd7269-0153-4119-99eb-ae82a8e0cf45","system_id":"levelo_inurba_marseille","lat":43.323464,"lon":5.406297,"is_reserved":false,"is_disabled":false,"rental_uris":{"android":"levelo://app?vid=3abd7269-0153-4119-99eb-ae82a8e0cf45","ios":"levelo://app?vid=3abd7269-0153-4119-99eb-ae82a8e0cf45"},"vehicle_type_id":"4","last_reported":1715436377,"current_range_meters":12400,"station_id":"ce4bhq92rcd13ifvqhjg","pricing_plan_id":"cebpf4jnsgd1na2vs0mg"},{"bike_id":"aeabab34-2d43-4d3c-ad85-52ada8d617a4","system_id":"levelo_inurba_marseille","lat":43.284793,"lon":5.384113,"is_reserved":false,"is_disabled":false,"rental_uris":{"android":"levelo://app?vid=aeabab34-2d43-4d3c-ad85-52ada8d617a4","ios":"levelo://app?vid=aeabab34-2d43-4d3c-ad85-52ada8d617a4"},"vehicle_type_id":"4","last_reported":1715436377,"current_range_meters":27200,"station_id":"ce4bh512rcd13ifvqe3g","pricing_plan_id":"cebpf4jnsgd1na2vs0mg"},{"bike_id":"fd7e6514-23ce-4478-8b0f-fb9ba837df33","system_id":"levelo_inurba_marseille","lat":43.297946,"lon":5.404063,"is_reserved":false,"is_disabled":false,"rental_uris":{"android":"levelo://app?vid=fd7e6514-23ce-4478-8b0f-fb9ba837df33","ios":"levelo://app?vid=fd7e6514-23ce-4478-8b0f-fb9ba837df33"},"vehicle_type_id":"4","last_reported":1715436377,"current_range_meters":2400,"station_id":"ce4bh112rcd13ifvqd90","pricing_plan_id":"cebpf4jnsgd1na2vs0mg"},{"bike_id":"bf090e17-a344-47b4-8e97-cb9a5c86fb2c","system_id":"levelo_inurba_marseille","lat":43.32526,"lon":5.40568,"is_reserved":false,"is_disabled":false,"rental_uris":{"android":"levelo://app?vid=bf090e17-a344-47b4-8e97-cb9a5c86fb2c","ios":"levelo://app?vid=bf090e17-a344-47b4-8e97-cb9a5c86fb2c"},"vehicle_type_id":"4","last_reported":1715436377,"current_range_meters":24000,"station_id":"","pricing_plan_id":"cebpf4jnsgd1na2vs0mg"},{"bike_id":"bbda1752-dff9-421d-a33c-e846f5c99ffc","system_id":"levelo_inurba_marseille","lat":43.288446,"lon":5.393054,"is_reserved":false,"is_disabled":false,"rental_uris":{"android":"levelo://app?vid=bbda1752-dff9-421d-a33c-e846f5c99ffc","ios":"levelo://app?vid=bbda1752-dff9-421d-a33c-e846f5c99ffc"},"vehicle_type_id":"4","last_reported":1715436377,"current_range_meters":0,"station_id":"ce4bh2p2rcd13ifvqdi0","pricing_plan_id":"cebpf4jnsgd1na2vs0mg"},{"bike_id":"3133f490-ba1a-4082-9779-797c81ecc745","system_id":"levelo_inurba_marseille","lat":43.288497,"lon":5.393089,"is_reserved":false,"is_disabled":false,"rental_uris":{"android":"levelo://app?vid=3133f490-ba1a-4082-9779-797c81ecc745","ios":"levelo://app?vid=3133f490-ba1a-4082-9779-797c81ecc745"},"vehicle_type_id":"4","last_reported":1715436377,"current_range_meters":10800,"station_id":"ce4bh2p2rcd13ifvqdi0","pricing_plan_id":"cebpf4jnsgd1na2vs0mg"},{"bike_id":"d701c008-5bd5-44ba-a2cf-070a179d3585","system_id":"levelo_inurba_marseille","lat":43.32522,"lon":5.4058,"is_reserved":false,"is_disabled":false,"rental_uris":{"android":"levelo://app?vid=d701c008-5bd5-44ba-a2cf-070a179d3585","ios":"levelo://app?vid=d701c008-5bd5-44ba-a2cf-070a179d3585"},"vehicle_type_id":"4","last_reported":1715436377,"current_range_meters":2400,"station_id":"","pricing_plan_id":"cebpf4jnsgd1na2vs0mg"},{"bike_id":"c37bbd43-a8f8-40bb-ac66-56c431cad1e4","system_id":"levelo_inurba_marseille","lat":43.32525,"lon":5.405796,"is_reserved":false,"is_disabled":false,"rental_uris":{"android":"levelo://app?vid=c37bbd43-a8f8-40bb-ac66-56c431cad1e4","ios":"levelo://app?vid=c37bbd43-a8f8-40bb-ac66-56c431cad1e4"},"vehicle_type_id":"4","last_reported":1715436377,"current_range_meters":20400,"station_id":"","pricing_plan_id":"cebpf4jnsgd1na2vs0mg"},{"bike_id":"2284530e-40f3-4ad0-a218-eed7a1e64d3b","system_id":"levelo_inurba_marseille","lat":43.2843,"lon":5.34992,"is_reserved":false,"is_disabled":false,"rental_uris":{"android":"levelo://app?vid=2284530e-40f3-4ad0-a218-eed7a1e64d3b","ios":"levelo://app?vid=2284530e-40f3-4ad0-a218-eed7a1e64d3b"},"vehicle_type_id":"4","last_reported":1715436377,"current_range_meters":14400,"station_id":"ce4bhbh2rcd13ifvqepg","pricing_plan_id":"cebpf4jnsgd1na2vs0mg"},{"bike_id":"3708399d-786d-4c45-b17d-531330b92c59","system_id":"levelo_inurba_marseille","lat":43.28427,"lon":5.34992,"is_reserved":false,"is_disabled":false,"rental_uris":{"android":"levelo://app?vid=3708399d-786d-4c45-b17d-531330b92c59","ios":"levelo://app?vid=3708399d-786d-4c45-b17d-531330b92c59"},"vehicle_type_id":"4","last_reported":1715436377,"current_range_meters":23200,"station_id":"ce4bhbh2rcd13ifvqepg","pricing_plan_id":"cebpf4jnsgd1na2vs0mg"},{"bike_id":"7b67b7a7-43b0-4b6a-9e57-7dfc3df4dbef","system_id":"levelo_inurba_marseille","lat":43.28427,"lon":5.34991,"is_reserved":false,"is_disabled":false,"rental_uris":{"android":"levelo://app?vid=7b67b7a7-43b0-4b6a-9e57-7dfc3df4dbef","ios":"levelo://app?vid=7b67b7a7-43b0-4b6a-9e57-7dfc3df4dbef"},"vehicle_type_id":"4","last_reported":1715436377,"current_range_meters":6400,"station_id":"ce4bhbh2rcd13ifvqepg","pricing_plan_id":"cebpf4jnsgd1na2vs0mg"},{"bike_id":"fb21e6aa-7ace-41af-bdf7-25de0a05b7bf","system_id":"levelo_inurba_marseille","lat":43.28425,"lon":5.34993,"is_reserved":false,"is_disabled":false,"rental_uris":{"android":"levelo://app?vid=fb21e6aa-7ace-41af-bdf7-25de0a05b7bf","ios":"levelo://app?vid=fb21e6aa-7ace-41af-bdf7-25de0a05b7bf"},"vehicle_type_id":"4","last_reported":1715436377,"current_range_meters":0,"station_id":"ce4bhbh2rcd13ifvqepg","pricing_plan_id":"cebpf4jnsgd1na2vs0mg"},{"bike_id":"c940c6ec-e2ad-4a78-a14c-30b702e674ca","system_id":"levelo_inurba_marseille","lat":43.28424,"lon":5.34996,"is_reserved":false,"is_disabled":false,"rental_uris":{"android":"levelo://app?vid=c940c6ec-e2ad-4a78-a14c-30b702e674ca","ios":"levelo://app?vid=c940c6ec-e2ad-4a78-a14c-30b702e674ca"},"vehicle_type_id":"4","last_reported":1715436377,"current_range_meters":19600,"station_id":"ce4bhbh2rcd13ifvqepg","pricing_plan_id":"cebpf4jnsgd1na2vs0mg"},{"bike_id":"41b43ad1-f618-4c46-8ac7-f9eda8f1ae65","system_id":"levelo_inurba_marseille","lat":43.28424,"lon":5.34995,"is_reserved":false,"is_disabled":false,"rental_uris":{"android":"levelo://app?vid=41b43ad1-f618-4c46-8ac7-f9eda8f1ae65","ios":"levelo://app?vid=41b43ad1-f618-4c46-8ac7-f9eda8f1ae65"},"vehicle_type_id":"4","last_reported":1715436377,"current_range_meters":23200,"station_id":"ce4bhbh2rcd13ifvqepg","pricing_plan_id":"cebpf4jnsgd1na2vs0mg"},{"bike_id":"b99014ba-26ce-47bd-96e2-e7761148cf6d","system_id":"levelo_inurba_marseille","lat":43.28422,"lon":5.34995,"is_reserved":false,"is_disabled":false,"rental_uris":{"android":"levelo://app?vid=b99014ba-26ce-47bd-96e2-e7761148cf6d","ios":"levelo://app?vid=b99014ba-26ce-47bd-96e2-e7761148cf6d"},"vehicle_type_id":"4","last_reported":1715436377,"current_range_meters":24400,"station_id":"ce4bhbh2rcd13ifvqepg","pricing_plan_id":"cebpf4jnsgd1na2vs0mg"},{"bike_id":"33f66575-e51b-486e-b67e-7ad7e2dc1a19","system_id":"levelo_inurba_marseille","lat":43.284214,"lon":5.349706,"is_reserved":false,"is_disabled":false,"rental_uris":{"android":"levelo://app?vid=33f66575-e51b-486e-b67e-7ad7e2dc1a19","ios":"levelo://app?vid=33f66575-e51b-486e-b67e-7ad7e2dc1a19"},"vehicle_type_id":"4","last_reported":1715436377,"current_range_meters":31600,"station_id":"ce4bhbh2rcd13ifvqepg","pricing_plan_id":"cebpf4jnsgd1na2vs0mg"},{"bike_id":"6b141c6b-3997-44d7-846f-b9bc128b22f4","system_id":"levelo_inurba_marseille","lat":43.28426,"lon":5.34977,"is_reserved":false,"is_disabled":false,"rental_uris":{"android":"levelo://app?vid=6b141c6b-3997-44d7-846f-b9bc128b22f4","ios":"levelo://app?vid=6b141c6b-3997-44d7-846f-b9bc128b22f4"},"vehicle_type_id":"4","last_reported":1715436377,"current_range_meters":22400,"station_id":"ce4bhbh2rcd13ifvqepg","pricing_plan_id":"cebpf4jnsgd1na2vs0mg"},{"bike_id":"e251785f-f5c3-4c53-8775-a42949a1da18","system_id":"levelo_inurba_marseille","lat":43.2842,"lon":5.34994,"is_reserved":false,"is_disabled":false,"rental_uris":{"android":"levelo://app?vid=e251785f-f5c3-4c53-8775-a42949a1da18","ios":"levelo://app?vid=e251785f-f5c3-4c53-8775-a42949a1da18"},"vehicle_type_id":"4","last_reported":1715436377,"current_range_meters":30000,"station_id":"ce4bhbh2rcd13ifvqepg","pricing_plan_id":"cebpf4jnsgd1na2vs0mg"},{"bike_id":"dc7f55a0-feb9-4b08-88f1-3f103417dcf2","system_id":"levelo_inurba_marseille","lat":43.28419,"lon":5.3499,"is_reserved":false,"is_disabled":false,"rental_uris":{"android":"levelo://app?vid=dc7f55a0-feb9-4b08-88f1-3f103417dcf2","ios":"levelo://app?vid=dc7f55a0-feb9-4b08-88f1-3f103417dcf2"},"vehicle_type_id":"4","last_reported":1715436377,"current_range_meters":22000,"station_id":"ce4bhbh2rcd13ifvqepg","pricing_plan_id":"cebpf4jnsgd1na2vs0mg"},{"bike_id":"53f5f263-1053-40b9-8a75-6ff57ad53678","system_id":"levelo_inurba_marseille","lat":43.28418,"lon":5.34993,"is_reserved":false,"is_disabled":false,"rental_uris":{"android":"levelo://app?vid=53f5f263-1053-40b9-8a75-6ff57ad53678","ios":"levelo://app?vid=53f5f263-1053-40b9-8a75-6ff57ad53678"},"vehicle_type_id":"4","last_reported":1715436377,"current_range_meters":10800,"station_id":"ce4bhbh2rcd13ifvqepg","pricing_plan_id":"cebpf4jnsgd1na2vs0mg"},{"bike_id":"465fb229-37db-441b-b945-16711e9c8cf8","system_id":"levelo_inurba_marseille","lat":43.325383,"lon":5.406025,"is_reserved":false,"is_disabled":false,"rental_uris":{"android":"levelo://app?vid=465fb229-37db-441b-b945-16711e9c8cf8","ios":"levelo://app?vid=465fb229-37db-441b-b945-16711e9c8cf8"},"vehicle_type_id":"4","last_reported":1715436377,"current_range_meters":23600,"station_id":"","pricing_plan_id":"cebpf4jnsgd1na2vs0mg"},{"bike_id":"c7089460-6801-4120-9b56-91add87e01b5","system_id":"levelo_inurba_marseille","lat":43.284177,"lon":5.349913,"is_reserved":false,"is_disabled":false,"rental_uris":{"android":"levelo://app?vid=c7089460-6801-4120-9b56-91add87e01b5","ios":"levelo://app?vid=c7089460-6801-4120-9b56-91add87e01b5"},"vehicle_type_id":"4","last_reported":1715436377,"current_range_meters":31200,"station_id":"ce4bhbh2rcd13ifvqepg","pricing_plan_id":"cebpf4jnsgd1na2vs0mg"},{"bike_id":"0a136433-784a-4e2a-9921-d0365f30ea99","system_id":"levelo_inurba_marseille","lat":43.284181,"lon":5.349879,"is_reserved":false,"is_disabled":false,"rental_uris":{"android":"levelo://app?vid=0a136433-784a-4e2a-9921-d0365f30ea99","ios":"levelo://app?vid=0a136433-784a-4e2a-9921-d0365f30ea99"},"vehicle_type_id":"4","last_reported":1715436377,"current_range_meters":6400,"station_id":"ce4bhbh2rcd13ifvqepg","pricing_plan_id":"cebpf4jnsgd1na2vs0mg"},{"bike_id":"7a055989-6d6a-401f-a238-6000ccc581af","system_id":"levelo_inurba_marseille","lat":43.284179,"lon":5.349876,"is_reserved":false,"is_disabled":false,"rental_uris":{"android":"levelo://app?vid=7a055989-6d6a-401f-a238-6000ccc581af","ios":"levelo://app?vid=7a055989-6d6a-401f-a238-6000ccc581af"},"vehicle_type_id":"4","last_reported":1715436377,"current_range_meters":27600,"station_id":"ce4bhbh2rcd13ifvqepg","pricing_plan_id":"cebpf4jnsgd1na2vs0mg"},{"bike_id":"fa0aa8ff-7b8e-421a-bf1e-e19e52543cbe","system_id":"levelo_inurba_marseille","lat":43.28417,"lon":5.3499,"is_reserved":false,"is_disabled":false,"rental_uris":{"android":"levelo://app?vid=fa0aa8ff-7b8e-421a-bf1e-e19e52543cbe","ios":"levelo://app?vid=fa0aa8ff-7b8e-421a-bf1e-e19e52543cbe"},"vehicle_type_id":"4","last_reported":1715436377,"current_range_meters":20000,"station_id":"ce4bhbh2rcd13ifvqepg","pricing_plan_id":"cebpf4jnsgd1na2vs0mg"},{"bike_id":"aafeb596-4fbb-4a35-acb6-70aa4d3b1713","system_id":"levelo_inurba_marseille","lat":43.28417,"lon":5.34989,"is_reserved":false,"is_disabled":false,"rental_uris":{"android":"levelo://app?vid=aafeb596-4fbb-4a35-acb6-70aa4d3b1713","ios":"levelo://app?vid=aafeb596-4fbb-4a35-acb6-70aa4d3b1713"},"vehicle_type_id":"4","last_reported":1715436377,"current_range_meters":0,"station_id":"ce4bhbh2rcd13ifvqepg","pricing_plan_id":"cebpf4jnsgd1na2vs0mg"},{"bike_id":"a92c25b7-f87e-43dc-aeb3-67e06a1bec61","system_id":"levelo_inurba_marseille","lat":43.284168,"lon":5.349894,"is_reserved":false,"is_disabled":false,"rental_uris":{"android":"levelo://app?vid=a92c25b7-f87e-43dc-aeb3-67e06a1bec61","ios":"levelo://app?vid=a92c25b7-f87e-43dc-aeb3-67e06a1bec61"},"vehicle_type_id":"4","last_reported":1715436377,"current_range_meters":16000,"station_id":"ce4bhbh2rcd13ifvqepg","pricing_plan_id":"cebpf4jnsgd1na2vs0mg"},{"bike_id":"7bb7edde-ec63-46a2-abf9-54af1bf10dc4","system_id":"levelo_inurba_marseille","lat":43.284144,"lon":5.349949,"is_reserved":false,"is_disabled":false,"rental_uris":{"android":"levelo://app?vid=7bb7edde-ec63-46a2-abf9-54af1bf10dc4","ios":"levelo://app?vid=7bb7edde-ec63-46a2-abf9-54af1bf10dc4"},"vehicle_type_id":"4","last_reported":1715436377,"current_range_meters":20800,"station_id":"ce4bhbh2rcd13ifvqepg","pricing_plan_id":"cebpf4jnsgd1na2vs0mg"},{"bike_id":"6abdb77f-6a48-4191-9ae1-ea2ed2eed9f1","system_id":"levelo_inurba_marseille","lat":43.284141,"lon":5.349954,"is_reserved":false,"is_disabled":false,"rental_uris":{"android":"levelo://app?vid=6abdb77f-6a48-4191-9ae1-ea2ed2eed9f1","ios":"levelo://app?vid=6abdb77f-6a48-4191-9ae1-ea2ed2eed9f1"},"vehicle_type_id":"4","last_reported":1715436377,"current_range_meters":5200,"station_id":"ce4bhbh2rcd13ifvqepg","pricing_plan_id":"cebpf4jnsgd1na2vs0mg"},{"bike_id":"9a46652c-b062-491d-a7c6-2db6bf462f12","system_id":"levelo_inurba_marseille","lat":43.284214,"lon":5.349706,"is_reserved":false,"is_disabled":false,"rental_uris":{"android":"levelo://app?vid=9a46652c-b062-491d-a7c6-2db6bf462f12","ios":"levelo://app?vid=9a46652c-b062-491d-a7c6-2db6bf462f12"},"vehicle_type_id":"4","last_reported":1715436377,"current_range_meters":31600,"station_id":"ce4bhbh2rcd13ifvqepg","pricing_plan_id":"cebpf4jnsgd1na2vs0mg"},{"bike_id":"ffcb601b-8251-44a7-9eb8-facb0cbc0e58","system_id":"levelo_inurba_marseille","lat":43.28415,"lon":5.3499,"is_reserved":false,"is_disabled":false,"rental_uris":{"android":"levelo://app?vid=ffcb601b-8251-44a7-9eb8-facb0cbc0e58","ios":"levelo://app?vid=ffcb601b-8251-44a7-9eb8-facb0cbc0e58"},"vehicle_type_id":"4","last_reported":1715436377,"current_range_meters":12800,"station_id":"ce4bhbh2rcd13ifvqepg","pricing_plan_id":"cebpf4jnsgd1na2vs0mg"},{"bike_id":"da7e215d-ec72-4156-85b4-11eae1bdeac3","system_id":"levelo_inurba_marseille","lat":43.284162,"lon":5.349862,"is_reserved":false,"is_disabled":false,"rental_uris":{"android":"levelo://app?vid=da7e215d-ec72-4156-85b4-11eae1bdeac3","ios":"levelo://app?vid=da7e215d-ec72-4156-85b4-11eae1bdeac3"},"vehicle_type_id":"4","last_reported":1715436377,"current_range_meters":26000,"station_id":"ce4bhbh2rcd13ifvqepg","pricing_plan_id":"cebpf4jnsgd1na2vs0mg"},{"bike_id":"5b379034-9c1f-490b-a030-27980cb2361c","system_id":"levelo_inurba_marseille","lat":43.28415,"lon":5.34988,"is_reserved":false,"is_disabled":false,"rental_uris":{"android":"levelo://app?vid=5b379034-9c1f-490b-a030-27980cb2361c","ios":"levelo://app?vid=5b379034-9c1f-490b-a030-27980cb2361c"},"vehicle_type_id":"4","last_reported":1715436377,"current_range_meters":15200,"station_id":"ce4bhbh2rcd13ifvqepg","pricing_plan_id":"cebpf4jnsgd1na2vs0mg"},{"bike_id":"da88dac4-8ea3-408e-8311-c8f79536f767","system_id":"levelo_inurba_marseille","lat":43.28414,"lon":5.3499,"is_reserved":false,"is_disabled":false,"rental_uris":{"android":"levelo://app?vid=da88dac4-8ea3-408e-8311-c8f79536f767","ios":"levelo://app?vid=da88dac4-8ea3-408e-8311-c8f79536f767"},"vehicle_type_id":"4","last_reported":1715436377,"current_range_meters":14000,"station_id":"ce4bhbh2rcd13ifvqepg","pricing_plan_id":"cebpf4jnsgd1na2vs0mg"},{"bike_id":"09bcaa1a-cbc7-4af4-bd71-5a609eb1b00b","system_id":"levelo_inurba_marseille","lat":43.28413,"lon":5.34993,"is_reserved":false,"is_disabled":false,"rental_uris":{"android":"levelo://app?vid=09bcaa1a-cbc7-4af4-bd71-5a609eb1b00b","ios":"levelo://app?vid=09bcaa1a-cbc7-4af4-bd71-5a609eb1b00b"},"vehicle_type_id":"4","last_reported":1715436377,"current_range_meters":22800,"station_id":"ce4bhbh2rcd13ifvqepg","pricing_plan_id":"cebpf4jnsgd1na2vs0mg"},{"bike_id":"fffa11e6-6a0f-48ec-b360-aff3b9cef812","system_id":"levelo_inurba_marseille","lat":43.28418,"lon":5.34975,"is_reserved":false,"is_disabled":false,"rental_uris":{"android":"levelo://app?vid=fffa11e6-6a0f-48ec-b360-aff3b9cef812","ios":"levelo://app?vid=fffa11e6-6a0f-48ec-b360-aff3b9cef812"},"vehicle_type_id":"4","last_reported":1715436377,"current_range_meters":20800,"station_id":"ce4bhbh2rcd13ifvqepg","pricing_plan_id":"cebpf4jnsgd1na2vs0mg"},{"bike_id":"ce71b9cd-5d69-4913-ac4f-1ca6df5cedca","system_id":"levelo_inurba_marseille","lat":43.284217,"lon":5.349697,"is_reserved":false,"is_disabled":false,"rental_uris":{"android":"levelo://app?vid=ce71b9cd-5d69-4913-ac4f-1ca6df5cedca","ios":"levelo://app?vid=ce71b9cd-5d69-4913-ac4f-1ca6df5cedca"},"vehicle_type_id":"4","last_reported":1715436377,"current_range_meters":31200,"station_id":"ce4bhbh2rcd13ifvqepg","pricing_plan_id":"cebpf4jnsgd1na2vs0mg"},{"bike_id":"e8b78034-6adc-4517-a663-6bd2bffe4cb3","system_id":"levelo_inurba_marseille","lat":43.28413,"lon":5.34985,"is_reserved":false,"is_disabled":false,"rental_uris":{"android":"levelo://app?vid=e8b78034-6adc-4517-a663-6bd2bffe4cb3","ios":"levelo://app?vid=e8b78034-6adc-4517-a663-6bd2bffe4cb3"},"vehicle_type_id":"4","last_reported":1715436377,"current_range_meters":4400,"station_id":"ce4bhbh2rcd13ifvqepg","pricing_plan_id":"cebpf4jnsgd1na2vs0mg"},{"bike_id":"dc7f8a3d-743d-49be-ac84-aab7badd3650","system_id":"levelo_inurba_marseille","lat":43.284106,"lon":5.349909,"is_reserved":false,"is_disabled":false,"rental_uris":{"android":"levelo://app?vid=dc7f8a3d-743d-49be-ac84-aab7badd3650","ios":"levelo://app?vid=dc7f8a3d-743d-49be-ac84-aab7badd3650"},"vehicle_type_id":"4","last_reported":1715436377,"current_range_meters":29200,"station_id":"ce4bhbh2rcd13ifvqepg","pricing_plan_id":"cebpf4jnsgd1na2vs0mg"},{"bike_id":"ab81c99b-1393-4682-ba1c-02a5a1d9fe04","system_id":"levelo_inurba_marseille","lat":43.28414,"lon":5.34979,"is_reserved":false,"is_disabled":false,"rental_uris":{"android":"levelo://app?vid=ab81c99b-1393-4682-ba1c-02a5a1d9fe04","ios":"levelo://app?vid=ab81c99b-1393-4682-ba1c-02a5a1d9fe04"},"vehicle_type_id":"4","last_reported":1715436377,"current_range_meters":24400,"station_id":"ce4bhbh2rcd13ifvqepg","pricing_plan_id":"cebpf4jnsgd1na2vs0mg"},{"bike_id":"95330033-bc53-4115-9ad7-b03aa1d55929","system_id":"levelo_inurba_marseille","lat":43.284214,"lon":5.349706,"is_reserved":false,"is_disabled":false,"rental_uris":{"android":"levelo://app?vid=95330033-bc53-4115-9ad7-b03aa1d55929","ios":"levelo://app?vid=95330033-bc53-4115-9ad7-b03aa1d55929"},"vehicle_type_id":"4","last_reported":1715436377,"current_range_meters":24000,"station_id":"ce4bhbh2rcd13ifvqepg","pricing_plan_id":"cebpf4jnsgd1na2vs0mg"},{"bike_id":"d996eea2-a984-43f9-837d-2fd12b29a257","system_id":"levelo_inurba_marseille","lat":43.28412,"lon":5.34982,"is_reserved":false,"is_disabled":false,"rental_uris":{"android":"levelo://app?vid=d996eea2-a984-43f9-837d-2fd12b29a257","ios":"levelo://app?vid=d996eea2-a984-43f9-837d-2fd12b29a257"},"vehicle_type_id":"4","last_reported":1715436377,"current_range_meters":8400,"station_id":"ce4bhbh2rcd13ifvqepg","pricing_plan_id":"cebpf4jnsgd1na2vs0mg"},{"bike_id":"c883a063-2cb3-4630-a9c3-568ce4ea9f56","system_id":"levelo_inurba_marseille","lat":43.28414,"lon":5.34974,"is_reserved":false,"is_disabled":false,"rental_uris":{"android":"levelo://app?vid=c883a063-2cb3-4630-a9c3-568ce4ea9f56","ios":"levelo://app?vid=c883a063-2cb3-4630-a9c3-568ce4ea9f56"},"vehicle_type_id":"4","last_reported":1715436377,"current_range_meters":20800,"station_id":"ce4bhbh2rcd13ifvqepg","pricing_plan_id":"cebpf4jnsgd1na2vs0mg"},{"bike_id":"da13bdae-34df-492e-b816-8d465264515b","system_id":"levelo_inurba_marseille","lat":43.28413,"lon":5.34976,"is_reserved":false,"is_disabled":false,"rental_uris":{"android":"levelo://app?vid=da13bdae-34df-492e-b816-8d465264515b","ios":"levelo://app?vid=da13bdae-34df-492e-b816-8d465264515b"},"vehicle_type_id":"4","last_reported":1715436377,"current_range_meters":12000,"station_id":"ce4bhbh2rcd13ifvqepg","pricing_plan_id":"cebpf4jnsgd1na2vs0mg"},{"bike_id":"2646737a-a40a-4b28-9444-627304373457","system_id":"levelo_inurba_marseille","lat":43.28412,"lon":5.34975,"is_reserved":false,"is_disabled":false,"rental_uris":{"android":"levelo://app?vid=2646737a-a40a-4b28-9444-627304373457","ios":"levelo://app?vid=2646737a-a40a-4b28-9444-627304373457"},"vehicle_type_id":"4","last_reported":1715436377,"current_range_meters":0,"station_id":"","pricing_plan_id":"cebpf4jnsgd1na2vs0mg"},{"bike_id":"005918e1-8bd3-4fd9-9af9-5ecac815f1c3","system_id":"levelo_inurba_marseille","lat":43.2841,"lon":5.3498,"is_reserved":false,"is_disabled":false,"rental_uris":{"android":"levelo://app?vid=005918e1-8bd3-4fd9-9af9-5ecac815f1c3","ios":"levelo://app?vid=005918e1-8bd3-4fd9-9af9-5ecac815f1c3"},"vehicle_type_id":"4","last_reported":1715436377,"current_range_meters":24800,"station_id":"ce4bhbh2rcd13ifvqepg","pricing_plan_id":"cebpf4jnsgd1na2vs0mg"},{"bike_id":"867823cf-35a2-4d8f-9219-339f3c3e9364","system_id":"levelo_inurba_marseille","lat":43.28408,"lon":5.34986,"is_reserved":false,"is_disabled":false,"rental_uris":{"android":"levelo://app?vid=867823cf-35a2-4d8f-9219-339f3c3e9364","ios":"levelo://app?vid=867823cf-35a2-4d8f-9219-339f3c3e9364"},"vehicle_type_id":"4","last_reported":1715436377,"current_range_meters":2000,"station_id":"ce4bhbh2rcd13ifvqepg","pricing_plan_id":"cebpf4jnsgd1na2vs0mg"},{"bike_id":"a4f3b9cf-2585-4bbf-837d-81498f72bf2d","system_id":"levelo_inurba_marseille","lat":43.284214,"lon":5.349706,"is_reserved":false,"is_disabled":false,"rental_uris":{"android":"levelo://app?vid=a4f3b9cf-2585-4bbf-837d-81498f72bf2d","ios":"levelo://app?vid=a4f3b9cf-2585-4bbf-837d-81498f72bf2d"},"vehicle_type_id":"4","last_reported":1715436377,"current_range_meters":18000,"station_id":"ce4bhbh2rcd13ifvqepg","pricing_plan_id":"cebpf4jnsgd1na2vs0mg"},{"bike_id":"cf84150b-1f08-4d76-b9da-7f2b19f0ebff","system_id":"levelo_inurba_marseille","lat":43.284214,"lon":5.349706,"is_reserved":false,"is_disabled":false,"rental_uris":{"android":"levelo://app?vid=cf84150b-1f08-4d76-b9da-7f2b19f0ebff","ios":"levelo://app?vid=cf84150b-1f08-4d76-b9da-7f2b19f0ebff"},"vehicle_type_id":"4","last_reported":1715436377,"current_range_meters":10400,"station_id":"ce4bhbh2rcd13ifvqepg","pricing_plan_id":"cebpf4jnsgd1na2vs0mg"},{"bike_id":"698b7848-a03a-4d3b-9291-b7d4057c6b46","system_id":"levelo_inurba_marseille","lat":43.284214,"lon":5.349706,"is_reserved":false,"is_disabled":false,"rental_uris":{"android":"levelo://app?vid=698b7848-a03a-4d3b-9291-b7d4057c6b46","ios":"levelo://app?vid=698b7848-a03a-4d3b-9291-b7d4057c6b46"},"vehicle_type_id":"4","last_reported":1715436377,"current_range_meters":31600,"station_id":"ce4bhbh2rcd13ifvqepg","pricing_plan_id":"cebpf4jnsgd1na2vs0mg"},