{"last_updated":1728839214,"ttl":60,"version":"2.2","data":{"bikes":[{"bike_id":"d09d8fda-e2fe-4887-8f7e-499207657584","system_id":"levelo_inurba_marseille","lat":43.29268,"lon":5.40119,"is_reserved":false,"is_disabled":false,"rental_uris":{"android":"levelo://app?vid=d09d8fda-e2fe-4887-8f7e-499207657584","ios":"levelo://app?vid=d09d8fda-e2fe-4887-8f7e-499207657584"},"vehicle_type_id":"4","last_reported":1728839214,"current_range_meters":8000,"station_id":"ce4bh312rcd13ifvqdk0","pricing_plan_id":"cebpf4jnsgd1na2vs0mg"},{"bike_id":"480c36bc-dd66-41df-b09a-76735c76211b","system_id":"levelo_inurba_marseille","lat":43.27996,"lon":5.4165,"is_reserved":false,"is_disabled":false,"rental_uris":{"android":"levelo://app?vid=480c36bc-dd66-41df-b09a-76735c76211b","ios":"levelo://app?vid=480c36bc-dd66-41df-b09a-76735c76211b"},"vehicle_type_id":"4","last_reported":1728839214,"current_range_meters":35200,"station_id":"ce4bho12rcd13ifvqh1g","pricing_plan_id":"cebpf4jnsgd1na2vs0mg"},{"bike_id":"d9b629b0-e23d-4e1d-ab01-060732d693c4","system_id":"levelo_inurba_marseille","lat":43.29977,"lon":5.3742,"is_reserved":false,"is_disabled":false,"rental_uris":{"android":"levelo://app?vid=d9b629b0-e23d-4e1d-ab01-060732d693c4","ios":"levelo://app?vid=d9b629b0-e23d-4e1d-ab01-060732d693c4"},"vehicle_type_id":"4","last_reported":1728839214,"current_range_meters":9600,"station_id":"","pricing_plan_id":"cebpf4jnsgd1na2vs0mg"},{"bike_id":"b6ecae6b-c88f-4e15-9f47-befc8dd4f1fc","system_id":"levelo_inurba_marseille","lat":43.26556,"lon":5.37285,"is_reserved":false,"is_disabled":false,"rental_uris":{"android":"levelo://app?vid=b6ecae6b-c88f-4e15-9f47-befc8dd4f1fc","ios":"levelo://app?vid=b6ecae6b-c88f-4e15-9f47-befc8dd4f1fc"},"vehicle_type_id":"4","last_reported":1728839214,"current_range_meters":16400,"station_id":"ce4bhg12rcd13ifvqf70","pricing_plan_id":"cebpf4jnsgd1na2vs0mg"},{"bike_id":"fa0235ee-47f4-4c71-ae24-96640729e2ab","system_id":"levelo_inurba_marseille","lat":43.31711,"lon":5.43709,"is_reserved":false,"is_disabled":false,"rental_uris":{"android":"levelo://app?vid=fa0235ee-47f4-4c71-ae24-96640729e2ab","ios":"levelo://app?vid=fa0235ee-47f4-4c71-ae24-96640729e2ab"},"vehicle_type_id":"4","last_reported":1728839214,"current_range_meters":21600,"station_id":"ce4bhp92rcd13ifvqhcg","pricing_plan_id":"cebpf4jnsgd1na2vs0mg"},{"bike_id":"931d1f9c-4cb2-40a2-a856-914a1c55fcf3","system_id":"levelo_inurba_marseille","lat":43.2457,"lon":5.41661,"is_reserved":false,"is_disabled":false,"rental_uris":{"android":"levelo://app?vid=931d1f9c-4cb2-40a2-a856-914a1c55fcf3","ios":"levelo://app?vid=931d1f9c-4cb2-40a2-a856-914a1c55fcf3"},"vehicle_type_id":"4","last_reported":1728839214,"current_range_meters":6400,"station_id":"","pricing_plan_id":"cebpf4jnsgd1na2vs0mg"},{"bike_id":"520408ea-2df0-43fa-a65c-8491eb0baa83","system_id":"levelo_inurba_marseille","lat":43.27492,"lon":5.4246,"is_reserved":false,"is_disabled":false,"rental_uris":{"android":"levelo://app?vid=520408ea-2df0-43fa-a65c-8491eb0baa83","ios":"levelo://app?vid=520408ea-2df0-43fa-a65c-8491eb0baa83"},"vehicle_type_id":"4","last_reported":1728839214,"current_range_meters":25600,"station_id":"ce4bhn92rcd13ifvqgrg","pricing_plan_id":"cebpf4jnsgd1na2vs0mg"},{"bike_id":"c1526f14-0f53-47fd-bc6e-2dc8711b4bf6","system_id":"levelo_inurba_marseille","lat":43.29898,"lon":5.43663,"is_reserved":false,"is_disabled":false,"rental_uris":{"android":"levelo://app?vid=c1526f14-0f53-47fd-bc6e-2dc8711b4bf6","ios":"levelo://app?vid=c1526f14-0f53-47fd-bc6e-2dc8711b4bf6"},"vehicle_type_id":"4","last_reported":1728839214,"current_range_meters":28800,"station_id":"ce4bhpp2rcd13ifvqhfg","pricing_plan_id":"cebpf4jnsgd1na2vs0mg"},{"bike_id":"4614aa90-ddb6-4c78-b56c-eefe98e1b010","system_id":"levelo_inurba_marseille","lat":43.31753,"lon":5.39026,"is_reserved":false,"is_disabled":false,"rental_uris":{"android":"levelo://app?vid=4614aa90-ddb6-4c78-b56c-eefe98e1b010","ios":"levelo://app?vid=4614aa90-ddb6-4c78-b56c-eefe98e1b010"},"vehicle_type_id":"4","last_reported":1728839214,"current_range_meters":4000,"station_id":"ce4bhqp2rcd13ifvqhng","pricing_plan_id":"cebpf4jnsgd1na2vs0mg"},{"bike_id":"603784c0-b172-459c-9063-d3eb38d4c070","system_id":"levelo_inurba_marseille","lat":43.29036,"lon":5.35922,"is_reserved":false,"is_disabled":false,"rental_uris":{"android":"levelo://app?vid=603784c0-b172-459c-9063-d3eb38d4c070","ios":"levelo://app?vid=603784c0-b172-459c-9063-d3eb38d4c070"},"vehicle_type_id":"4","last_reported":1728839214,"current_range_meters":38800,"station_id":"ce4bha92rcd13ifvqeg0","pricing_plan_id":"cebpf4jnsgd1na2vs0mg"},{"bike_id":"e4bc1ce3-6f8d-4f2d-8e74-f2f9a2a8653c","system_id":"levelo_inurba_marseille","lat":43.29169,"lon":5.3716,"is_reserved":false,"is_disabled":false,"rental_uris":{"android":"levelo://app?vid=e4bc1ce3-6f8d-4f2d-8e74-f2f9a2a8653c","ios":"levelo://app?vid=e4bc1ce3-6f8d-4f2d-8e74-f2f9a2a8653c"},"vehicle_type_id":"4","last_reported":1728839214,"current_range_meters":38800,"station_id":"ce4bha92rcd13ifvqeh0","pricing_plan_id":"cebpf4jnsgd1na2vs0mg"},{"bike_id":"e7a098e3-383d-4b22-8768-a8c112a0930b","system_id":"levelo_inurba_marseille","lat":43.28349,"lon":5.3812,"is_reserved":false,"is_disabled":false,"rental_uris":{"android":"levelo://app?vid=e7a098e3-383d-4b22-8768-a8c112a0930b","ios":"levelo://app?vid=e7a098e3-383d-4b22-8768-a8c112a0930b"},"vehicle_type_id":"4","last_reported":1728839214,"current_range_meters":36400,"station_id":"ce4bh412rcd13ifvqdr0","pricing_plan_id":"cebpf4jnsgd1na2vs0mg"},{"bike_id":"6b2daff3-9851-4dff-9081-e0ec010599e4","system_id":"levelo_inurba_marseille","lat":43.314515,"lon":5.37384,"is_reserved":false,"is_disabled":false,"rental_uris":{"android":"levelo://app?vid=6b2daff3-9851-4dff-9081-e0ec010599e4","ios":"levelo://app?vid=6b2daff3-9851-4dff-9081-e0ec010599e4"},"vehicle_type_id":"4","last_reported":1728839214,"current_range_meters":32000,"station_id":"","pricing_plan_id":"cebpf4jnsgd1na2vs0mg"},{"bike_id":"67e48798-506e-4ddc-81db-ec93bf2c3b72","system_id":"levelo_inurba_marseille","lat":43.32158,"lon":5.38652,"is_reserved":false,"is_disabled":false,"rental_uris":{"android":"levelo://app?vid=67e48798-506e-4ddc-81db-ec93bf2c3b72","ios":"levelo://app?vid=67e48798-506e-4ddc-81db-ec93bf2c3b72"},"vehicle_type_id":"4","last_reported":1728839214,"current_range_meters":38000,"station_id":"","pricing_plan_id":"cebpf4jnsgd1na2vs0mg"},{"bike_id":"19e34fc2-3928-4531-86b1-c4bd78fd431f","system_id":"levelo_inurba_marseille","lat":43.30134,"lon":5.38788,"is_reserved":false,"is_disabled":false,"rental_uris":{"android":"levelo://app?vid=19e34fc2-3928-4531-86b1-c4bd78fd431f","ios":"levelo://app?vid=19e34fc2-3928-4531-86b1-c4bd78fd431f"},"vehicle_type_id":"4","last_reported":1728839214,"current_range_meters":38800,"station_id":"ce4bghh2rcd13ifvqb60","pricing_plan_id":"cebpf4jnsgd1na2vs0mg"},{"bike_id":"fa08456f-0316-46ca-b497-6c7d63a7f841","system_id":"levelo_inurba_marseille","lat":43.23195,"lon":5.35548,"is_reserved":false,"is_disabled":false,"rental_uris":{"android":"levelo://app?vid=fa08456f-0316-46ca-b497-6c7d63a7f841","ios":"levelo://app?vid=fa08456f-0316-46ca-b497-6c7d63a7f841"},"vehicle_type_id":"4","last_reported":1728839214,"current_range_meters":33600,"station_id":"ce4bhu92rcd13ifvqi70","pricing_plan_id":"cebpf4jnsgd1na2vs0mg"},{"bike_id":"9da2ea85-c2fa-403a-95b2-86d6f9c6f085","system_id":"levelo_inurba_marseille","lat":43.31324,"lon":5.39705,"is_reserved":false,"is_disabled":false,"rental_uris":{"android":"levelo://app?vid=9da2ea85-c2fa-403a-95b2-86d6f9c6f085","ios":"levelo://app?vid=9da2ea85-c2fa-403a-95b2-86d6f9c6f085"},"vehicle_type_id":"4","last_reported":1728839214,"current_range_meters":5600,"station_id":"ce4bgvp2rcd13ifvqcu0","pricing_plan_id":"cebpf4jnsgd1na2vs0mg"},{"bike_id":"900d410e-a263-4441-80a1-af67345a66d2","system_id":"levelo_inurba_marseille","lat":43.24391,"lon":5.37062,"is_reserved":false,"is_disabled":false,"rental_uris":{"android":"levelo://app?vid=900d410e-a263-4441-80a1-af67345a66d2","ios":"levelo://app?vid=900d410e-a263-4441-80a1-af67345a66d2"},"vehicle_type_id":"4","last_reported":1728839214,"current_range_meters":9600,"station_id":"ce4bhhh2rcd13ifvqfk0","pricing_plan_id":"cebpf4jnsgd1na2vs0mg"},{"bike_id":"7bfca5b2-1ddd-4e5d-b9fc-19e6379d40a0","system_id":"levelo_inurba_marseille","lat":43.2806,"lon":5.40989,"is_reserved":false,"is_disabled":false,"rental_uris":{"android":"levelo://app?vid=7bfca5b2-1ddd-4e5d-b9fc-19e6379d40a0","ios":"levelo://app?vid=7bfca5b2-1ddd-4e5d-b9fc-19e6379d40a0"},"vehicle_type_id":"4","last_reported":1728839214,"current_range_meters":30800,"station_id":"","pricing_plan_id":"cebpf4jnsgd1na2vs0mg"},{"bike_id":"00db62e5-d00d-4f48-b9ba-5a6910ba95f4","system_id":"levelo_inurba_marseille","lat":43.2927,"lon":5.40119,"is_reserved":false,"is_disabled":false,"rental_uris":{"android":"levelo://app?vid=00db62e5-d00d-4f48-b9ba-5a6910ba95f4","ios":"levelo://app?vid=00db62e5-d00d-4f48-b9ba-5a6910ba95f4"},"vehicle_type_id":"4","last_reported":1728839214,"current_range_meters":28000,"station_id":"ce4bh312rcd13ifvqdk0","pricing_plan_id":"cebpf4jnsgd1na2vs0mg"},{"bike_id":"459beff5-c900-477f-917e-99d4928b745c","system_id":"levelo_inurba_marseille","lat":43.27071,"lon":5.4228,"is_reserved":false,"is_disabled":false,"rental_uris":{"android":"levelo://app?vid=459beff5-c900-477f-917e-99d4928b745c","ios":"levelo://app?vid=459beff5-c900-477f-917e-99d4928b745c"},"vehicle_type_id":"4","last_reported":1728839214,"current_range_meters":36800,"station_id":"ce4bhk92rcd13ifvqgb0","pricing_plan_id":"cebpf4jnsgd1na2vs0mg"},{"bike_id":"82e36617-8e09-45b9-9035-2ad39e61c3b5","system_id":"levelo_inurba_marseille","lat":43.29367,"lon":5.37857,"is_reserved":false,"is_disabled":false,"rental_uris":{"android":"levelo://app?vid=82e36617-8e09-45b9-9035-2ad39e61c3b5","ios":"levelo://app?vid=82e36617-8e09-45b9-9035-2ad39e61c3b5"},"vehicle_type_id":"4","last_reported":1728839214,"current_range_meters":36000,"station_id":"ce4bgjh2rcd13ifvqbf0","pricing_plan_id":"cebpf4jnsgd1na2vs0mg"},{"bike_id":"3e4f306a-0193-49a5-ae54-ea2787574907","system_id":"levelo_inurba_marseille","lat":43.2439,"lon":5.37064,"is_reserved":false,"is_disabled":false,"rental_uris":{"android":"levelo://app?vid=3e4f306a-0193-49a5-ae54-ea2787574907","ios":"levelo://app?vid=3e4f306a-0193-49a5-ae54-ea2787574907"},"vehicle_type_id":"4","last_reported":1728839214,"current_range_meters":35600,"station_id":"ce4bhhh2rcd13ifvqfk0","pricing_plan_id":"cebpf4jnsgd1na2vs0mg"},{"bike_id":"cb0fa5b9-00ee-48fc-9ffa-599816c760e3","system_id":"levelo_inurba_marseille","lat":43.28103,"lon":5.37845,"is_reserved":false,"is_disabled":false,"rental_uris":{"android":"levelo://app?vid=cb0fa5b9-00ee-48fc-9ffa-599816c760e3","ios":"levelo://app?vid=cb0fa5b9-00ee-48fc-9ffa-599816c760e3"},"vehicle_type_id":"4","last_reported":1728839214,"current_range_meters":33200,"station_id":"ce4bha12rcd13ifvqee0","pricing_plan_id":"cebpf4jnsgd1na2vs0mg"},{"bike_id":"c8ea766d-bff8-4e1a-8eb8-299056533285","system_id":"levelo_inurba_marseille","lat":43.28466,"lon":5.38422,"is_reserved":false,"is_disabled":false,"rental_uris":{"android":"levelo://app?vid=c8ea766d-bff8-4e1a-8eb8-299056533285","ios":"levelo://app?vid=c8ea766d-bff8-4e1a-8eb8-299056533285"},"vehicle_type_id":"4","last_reported":1728839214,"current_range_meters":14400,"station_id":"ce4bh512rcd13ifvqe3g","pricing_plan_id":"cebpf4jnsgd1na2vs0mg"},{"bike_id":"df186c1f-92e0-4cdf-9f42-95aa2ec0cdc5","system_id":"levelo_inurba_marseille","lat":43.29621,"lon":5.37732,"is_reserved":false,"is_disabled":false,"rental_uris":{"android":"levelo://app?vid=df186c1f-92e0-4cdf-9f42-95aa2ec0cdc5","ios":"levelo://app?vid=df186c1f-92e0-4cdf-9f42-95aa2ec0cdc5"},"vehicle_type_id":"4","last_reported":1728839214,"current_range_meters":38800,"station_id":"ce4bgi92rcd13ifvqb90","pricing_plan_id":"cebpf4jnsgd1na2vs0mg"},{"bike_id":"7fa88824-3c26-4719-9d5f-f2334f0986b5","system_id":"levelo_inurba_marseille","lat":43.31685,"lon":5.40478,"is_reserved":false,"is_disabled":false,"rental_uris":{"android":"levelo://app?vid=7fa88824-3c26-4719-9d5f-f2334f0986b5","ios":"levelo://app?vid=7fa88824-3c26-4719-9d5f-f2334f0986b5"},"vehicle_type_id":"4","last_reported":1728839214,"current_range_meters":8400,"station_id":"ce4bh012rcd13ifvqd00","pricing_plan_id":"cebpf4jnsgd1na2vs0mg"},{"bike_id":"df6a6888-2989-42e5-a7db-b75d07261a8e","system_id":"levelo_inurba_marseille","lat":43.27811,"lon":5.40715,"is_reserved":false,"is_disabled":false,"rental_uris":{"android":"levelo://app?vid=df6a6888-2989-42e5-a7db-b75d07261a8e","ios":"levelo://app?vid=df6a6888-2989-42e5-a7db-b75d07261a8e"},"vehicle_type_id":"4","last_reported":1728839214,"current_range_meters":24800,"station_id":"ce4bhnh2rcd13ifvqgtg","pricing_plan_id":"cebpf4jnsgd1na2vs0mg"},{"bike_id":"26ef0f82-778d-44d7-ad89-5daefc08a1a4","system_id":"levelo_inurba_marseille","lat":43.31458,"lon":5.3739,"is_reserved":false,"is_disabled":false,"rental_uris":{"android":"levelo://app?vid=26ef0f82-778d-44d7-ad89-5daefc08a1a4","ios":"levelo://app?vid=26ef0f82-778d-44d7-ad89-5daefc08a1a4"},"vehicle_type_id":"4","last_reported":1728839214,"current_range_meters":20000,"station_id":"","pricing_plan_id":"cebpf4jnsgd1na2vs0mg"},{"bike_id":"2e75e0e2-ac21-4ccb-87fd-f1ae41467fbc","system_id":"levelo_inurba_marseille","lat":43.32542,"lon":5.41444,"is_reserved":false,"is_disabled":false,"rental_uris":{"android":"levelo://app?vid=2e75e0e2-ac21-4ccb-87fd-f1ae41467fbc","ios":"levelo://app?vid=2e75e0e2-ac21-4ccb-87fd-f1ae41467fbc"},"vehicle_type_id":"4","last_reported":1728839214,"current_range_meters":8000,"station_id":"ce4bhq12rcd13ifvqhhg","pricing_plan_id":"cebpf4jnsgd1na2vs0mg"},{"bike_id":"2ca7bc0d-ab04-45a3-ab6e-9f54e00deb74","system_id":"levelo_inurba_marseille","lat":43.29505,"lon":5.37513,"is_reserved":false,"is_disabled":false,"rental_uris":{"android":"levelo://app?vid=2ca7bc0d-ab04-45a3-ab6e-9f54e00deb74","ios":"levelo://app?vid=2ca7bc0d-ab04-45a3-ab6e-9f54e00deb74"},"vehicle_type_id":"4","last_reported":1728839214,"current_range_meters":19200,"station_id":"ce4bgkp2rcd13ifvqbmg","pricing_plan_id":"cebpf4jnsgd1na2vs0mg"},{"bike_id":"25ed2710-8c35-44e6-81fd-8fc7cf6b54a8","system_id":"levelo_inurba_marseille","lat":43.274948,"lon":5.424466,"is_reserved":false,"is_disabled":false,"rental_uris":{"android":"levelo://app?vid=25ed2710-8c35-44e6-81fd-8fc7cf6b54a8","ios":"levelo://app?vid=25ed2710-8c35-44e6-81fd-8fc7cf6b54a8"},"vehicle_type_id":"4","last_reported":1728839214,"current_range_meters":20400,"station_id":"ce4bhn92rcd13ifvqgrg","pricing_plan_id":"cebpf4jnsgd1na2vs0mg"},{"bike_id":"12c906f2-4faa-4907-859e-6c2b2f16aa82","system_id":"levelo_inurba_marseille","lat":43.27909,"lon":5.4053,"is_reserved":false,"is_disabled":false,"rental_uris":{"android":"levelo://app?vid=12c906f2-4faa-4907-859e-6c2b2f16aa82","ios":"levelo://app?vid=12c906f2-4faa-4907-859e-6c2b2f16aa82"},"vehicle_type_id":"4","last_reported":1728839214,"current_range_meters":27600,"station_id":"ce4bhnh2rcd13ifvqgtg","pricing_plan_id":"cebpf4jnsgd1na2vs0mg"},{"bike_id":"b002de11-f52e-4470-a54c-2cdb3fd59b0a","system_id":"levelo_inurba_marseille","lat":43.28717,"lon":5.37383,"is_reserved":false,"is_disabled":false,"rental_uris":{"android":"levelo://app?vid=b002de11-f52e-4470-a54c-2cdb3fd59b0a","ios":"levelo://app?vid=b002de11-f52e-4470-a54c-2cdb3fd59b0a"},"vehicle_type_id":"4","last_reported":1728839214,"current_range_meters":9600,"station_id":"ce4bh3p2rcd13ifvqdq0","pricing_plan_id":"cebpf4jnsgd1na2vs0mg"},{"bike_id":"109d18b6-bfcf-4cff-85dc-bd512ce6fb2f","system_id":"levelo_inurba_marseille","lat":43.23192,"lon":5.35553,"is_reserved":false,"is_disabled":false,"rental_uris":{"android":"levelo://app?vid=109d18b6-bfcf-4cff-85dc-bd512ce6fb2f","ios":"levelo://app?vid=109d18b6-bfcf-4cff-85dc-bd512ce6fb2f"},"vehicle_type_id":"4","last_reported":1728839214,"current_range_meters":6400,"station_id":"ce4bhu92rcd13ifvqi70","pricing_plan_id":"cebpf4jnsgd1na2vs0mg"},{"bike_id":"6a4f0322-48ab-4d1c-a66e-08c0ab74af5a","system_id":"levelo_inurba_marseille","lat":43.29072,"lon":5.35939,"is_reserved":false,"is_disabled":false,"rental_uris":{"android":"levelo://app?vid=6a4f0322-48ab-4d1c-a66e-08c0ab74af5a","ios":"levelo://app?vid=6a4f0322-48ab-4d1c-a66e-08c0ab74af5a"},"vehicle_type_id":"4","last_reported":1728839214,"current_range_meters":2000,"station_id":"ce4bha92rcd13ifvqeg0","pricing_plan_id":"cebpf4jnsgd1na2vs0mg"},{"bike_id":"744d7d46-a030-452d-827a-600610e2a098","system_id":"levelo_inurba_marseille","lat":43.23182,"lon":5.39994,"is_reserved":false,"is_disabled":false,"rental_uris":{"android":"levelo://app?vid=744d7d46-a030-452d-827a-600610e2a098","ios":"levelo://app?vid=744d7d46-a030-452d-827a-600610e2a098"},"vehicle_type_id":"4","last_reported":1728839214,"current_range_meters":33200,"station_id":"ce4bhn12rcd13ifvqgqg","pricing_plan_id":"cebpf4jnsgd1na2vs0mg"},{"bike_id":"60398a41-5228-49f6-b6a8-4aaf08a27292","system_id":"levelo_inurba_marseille","lat":43.25871,"lon":5.39899,"is_reserved":false,"is_disabled":false,"rental_uris":{"android":"levelo://app?vid=60398a41-5228-49f6-b6a8-4aaf08a27292","ios":"levelo://app?vid=60398a41-5228-49f6-b6a8-4aaf08a27292"},"vehicle_type_id":"4","last_reported":1728839214,"current_range_meters":6000,"station_id":"ce4bhl92rcd13ifvqghg","pricing_plan_id":"cebpf4jnsgd1na2vs0mg"},{"bike_id":"e6a8aec1-d448-48fb-b2d3-480453e7edf3","system_id":"levelo_inurba_marseille","lat":43.317,"lon":5.39858,"is_reserved":false,"is_disabled":false,"rental_uris":{"android":"levelo://app?vid=e6a8aec1-d448-48fb-b2d3-480453e7edf3","ios":"levelo://app?vid=e6a8aec1-d448-48fb-b2d3-480453e7edf3"},"vehicle_type_id":"4","last_reported":1728839214,"current_range_meters":3200,"station_id":"","pricing_plan_id":"cebpf4jnsgd1na2vs0mg"},{"bike_id":"6cb5b02c-2401-484a-8b7d-b4d2106d6b08","system_id":"levelo_inurba_marseille","lat":43.23194,"lon":5.35557,"is_reserved":false,"is_disabled":false,"rental_uris":{"android":"levelo://app?vid=6cb5b02c-2401-484a-8b7d-b4d2106d6b08","ios":"levelo://app?vid=6cb5b02c-2401-484a-8b7d-b4d2106d6b08"},"vehicle_type_id":"4","last_reported":1728839214,"current_range_meters":24800,"station_id":"ce4bhu92rcd13ifvqi70","pricing_plan_id":"cebpf4jnsgd1na2vs0mg"},{"bike_id":"5fb9b6cd-cbe3-486a-a047-2f6d84690dfe","system_id":"levelo_inurba_marseille","lat":43.31708,"lon":5.37745,"is_reserved":false,"is_disabled":false,"rental_uris":{"android":"levelo://app?vid=5fb9b6cd-cbe3-486a-a047-2f6d84690dfe","ios":"levelo://app?vid=5fb9b6cd-cbe3-486a-a047-2f6d84690dfe"},"vehicle_type_id":"4","last_reported":1728839214,"current_range_meters":20800,"station_id":"ce4bgth2rcd13ifvqch0","pricing_plan_id":"cebpf4jnsgd1na2vs0mg"},{"bike_id":"fb5e9134-90cd-4847-813a-95500e3b8147","system_id":"levelo_inurba_marseille","lat":43.29055,"lon":5.35919,"is_reserved":false,"is_disabled":false,"rental_uris":{"android":"levelo://app?vid=fb5e9134-90cd-4847-813a-95500e3b8147","ios":"levelo://app?vid=fb5e9134-90cd-4847-813a-95500e3b8147"},"vehicle_type_id":"4","last_reported":1728839214,"current_range_meters":14400,"station_id":"ce4bha92rcd13ifvqeg0","pricing_plan_id":"cebpf4jnsgd1na2vs0mg"},{"bike_id":"d3712a19-3394-43fc-8028-1f5e5f9111f2","system_id":"levelo_inurba_marseille","lat":43.29618,"lon":5.37155,"is_reserved":false,"is_disabled":false,"rental_uris":{"android":"levelo://app?vid=d3712a19-3394-43fc-8028-1f5e5f9111f2","ios":"levelo://app?vid=d3712a19-3394-43fc-8028-1f5e5f9111f2"},"vehicle_type_id":"4","last_reported":1728839214,"current_range_meters":6000,"station_id":"ce4bgnh2rcd13ifvqc0g","pricing_plan_id":"cebpf4jnsgd1na2vs0mg"},{"bike_id":"17e011e1-fc53-48e5-a0e9-e51677a831fd","system_id":"levelo_inurba_marseille","lat":43.26192,"lon":5.37451,"is_reserved":false,"is_disabled":false,"rental_uris":{"android":"levelo://app?vid=17e011e1-fc53-48e5-a0e9-e51677a831fd","ios":"levelo://app?vid=17e011e1-fc53-48e5-a0e9-e51677a831fd"},"vehicle_type_id":"4","last_reported":1728839214,"current_range_meters":37600,"station_id":"ce4bhgp2rcd13ifvqfc0","pricing_plan_id":"cebpf4jnsgd1na2vs0mg"},{"bike_id":"b8244338-45d4-436b-a6af-e09d735681ca","system_id":"levelo_inurba_marseille","lat":43.26193,"lon":5.37455,"is_reserved":false,"is_disabled":false,"rental_uris":{"android":"levelo://app?vid=b8244338-45d4-436b-a6af-e09d735681ca","ios":"levelo://app?vid=b8244338-45d4-436b-a6af-e09d735681ca"},"vehicle_type_id":"4","last_reported":1728839214,"current_range_meters":30800,"station_id":"ce4bhgp2rcd13ifvqfc0","pricing_plan_id":"cebpf4jnsgd1na2vs0mg"},{"bike_id":"94d5dfc4-5bc4-485a-9503-7e9bed480fdb","system_id":"levelo_inurba_marseille","lat":43.25579,"lon":5.38249,"is_reserved":false,"is_disabled":false,"rental_uris":{"android":"levelo://app?vid=94d5dfc4-5bc4-485a-9503-7e9bed480fdb","ios":"levelo://app?vid=94d5dfc4-5bc4-485a-9503-7e9bed480fdb"},"vehicle_type_id":"4","last_reported":1728839214,"current_range_meters":16400,"station_id":"ce4bhih2rcd13ifvqfs0","pricing_plan_id":"cebpf4jnsgd1na2vs0mg"},{"bike_id":"fcf17895-7828-49f9-af52-3590d42ca9f6","system_id":"levelo_inurba_marseille","lat":43.26932,"lon":5.38919,"is_reserved":false,"is_disabled":false,"rental_uris":{"android":"levelo://app?vid=fcf17895-7828-49f9-af52-3590d42ca9f6","ios":"levelo://app?vid=fcf17895-7828-49f9-af52-3590d42ca9f6"},"vehicle_type_id":"4","last_reported":1728839214,"current_range_meters":4400,"station_id":"ce4bhhh2rcd13ifvqfl0","pricing_plan_id":"cebpf4jnsgd1na2vs0mg"},{"bike_id":"bfe74358-2962-4dc4-b0cf-d695af6014e3","system_id":"levelo_inurba_marseille","lat":43.28399,"lon":5.37527,"is_reserved":false,"is_disabled":false,"rental_uris":{"android":"levelo://app?vid=bfe74358-2962-4dc4-b0cf-d695af6014e3","ios":"levelo://app?vid=bfe74358-2962-4dc4-b0cf-d695af6014e3"},"vehicle_type_id":"4","last_reported":1728839214,"current_range_meters":2800,"station_id":"ce4bh412rcd13ifvqds0","pricing_plan_id":"cebpf4jnsgd1na2vs0mg"},{"bike_id":"48d54818-8c67-43dd-82f4-e3474eda976e","system_id":"levelo_inurba_marseille","lat":43.25856,"lon":5.3991,"is_reserved":false,"is_disabled":false,"rental_uris":{"android":"levelo://app?vid=48d54818-8c67-43dd-82f4-e3474eda976e","ios":"levelo://app?vid=48d54818-8c67-43dd-82f4-e3474eda976e"},"vehicle_type_id":"4","last_reported":1728839214,"current_range_meters":32000,"station_id":"ce4bhl92rcd13ifvqghg","pricing_plan_id":"cebpf4jnsgd1na2vs0mg"},{"bike_id":"9d671549-67ad-4eb0-ace0-50f59d8a0c79","system_id":"levelo_inurba_marseille","lat":43.31109,"lon":5.38064,"is_reserved":false,"is_disabled":false,"rental_uris":{"android":"levelo://app?vid=9d671549-67ad-4eb0-ace0-50f59d8a0c79","ios":"levelo://app?vid=9d671549-67ad-4eb0-ace0-50f59d8a0c79"},"vehicle_type_id":"4","last_reported":1728839214,"current_range_meters":23200,"station_id":"ce4bgt92rcd13ifvqcf0","pricing_plan_id":"cebpf4jnsgd1na2vs0mg"},{"bike_id":"aeff27c2-3422-41aa-bcc1-362180db348a","system_id":"levelo_inurba_marseille","lat":43.292769,"lon":5.401136,"is_reserved":false,"is_disabled":false,"rental_uris":{"android":"levelo://app?vid=aeff27c2-3422-41aa-bcc1-362180db348a","ios":"levelo://app?vid=aeff27c2-3422-41aa-bcc1-362180db348a"},"vehicle_type_id":"4","last_reported":1728839214,"current_range_meters":3200,"station_id":"ce4bh312rcd13ifvqdk0","pricing_plan_id":"cebpf4jnsgd1na2vs0mg"},{"bike_id":"4e2c54a4-a683-43f0-8e20-2a32d46916ea","system_id":"levelo_inurba_marseille","lat":43.25083,"lon":5.39524,"is_reserved":false,"is_disabled":false,"rental_uris":{"android":"levelo://app?vid=4e2c54a4-a683-43f0-8e20-2a32d46916ea","ios":"levelo://app?vid=4e2c54a4-a683-43f0-8e20-2a32d46916ea"},"vehicle_type_id":"4","last_reported":1728839214,"current_range_meters":33600,"station_id":"ce4bhm12rcd13ifvqgkg","pricing_plan_id":"cebpf4jnsgd1na2vs0mg"},{"bike_id":"34c1103d-226f-41b3-be84-9436eed01895","system_id":"levelo_inurba_marseille","lat":43.25939,"lon":5.40904,"is_reserved":false,"is_disabled":false,"rental_uris":{"android":"levelo://app?vid=34c1103d-226f-41b3-be84-9436eed01895","ios":"levelo://app?vid=34c1103d-226f-41b3-be84-9436eed01895"},"vehicle_type_id":"4","last_reported":1728839214,"current_range_meters":28400,"station_id":"ce4bhm92rcd13ifvqglg","pricing_plan_id":"cebpf4jnsgd1na2vs0mg"},{"bike_id":"881644d1-28f9-46bc-bd73-08fd19e5a658","system_id":"levelo_inurba_marseille","lat":43.283515,"lon":5.381065,"is_reserved":false,"is_disabled":false,"rental_uris":{"android":"levelo://app?vid=881644d1-28f9-46bc-bd73-08fd19e5a658","ios":"levelo://app?vid=881644d1-28f9-46bc-bd73-08fd19e5a658"},"vehicle_type_id":"4","last_reported":1728839214,"current_range_meters":4000,"station_id":"ce4bh412rcd13ifvqdr0","pricing_plan_id":"cebpf4jnsgd1na2vs0mg"},{"bike_id":"8e595d25-5330-4f11-8402-2ad006ed20a6","system_id":"levelo_inurba_marseille","lat":43.24391,"lon":5.37066,"is_reserved":false,"is_disabled":false,"rental_uris":{"android":"levelo://app?vid=8e595d25-5330-4f11-8402-2ad006ed20a6","ios":"levelo://app?vid=8e595d25-5330-4f11-8402-2ad006ed20a6"},"vehicle_type_id":"4","last_reported":1728839214,"current_range_meters":9200,"station_id":"ce4bhhh2rcd13ifvqfk0","pricing_plan_id":"cebpf4jnsgd1na2vs0mg"},{"bike_id":"b933402b-d1ca-49a8-bbf7-fb19281d941c","system_id":"levelo_inurba_marseille","lat":43.23195,"lon":5.35559,"is_reserved":false,"is_disabled":false,"rental_uris":{"android":"levelo://app?vid=b933402b-d1ca-49a8-bbf7-fb19281d941c","ios":"levelo://app?vid=b933402b-d1ca-49a8-bbf7-fb19281d941c"},"vehicle_type_id":"4","last_reported":1728839214,"current_range_meters":14000,"station_id":"ce4bhu92rcd13ifvqi70","pricing_plan_id":"cebpf4jnsgd1na2vs0mg"},{"bike_id":"0f00114d-7158-48fd-8439-ae710ba48aa0","system_id":"levelo_inurba_marseille","lat":43.28571,"lon":5.39493,"is_reserved":false,"is_disabled":false,"rental_uris":{"android":"levelo://app?vid=0f00114d-7158-48fd-8439-ae710ba48aa0","ios":"levelo://app?vid=0f00114d-7158-48fd-8439-ae710ba48aa0"},"vehicle_type_id":"4","last_reported":1728839214,"current_range_meters":19600,"station_id":"ce4bh292rcd13ifvqdg0","pricing_plan_id":"cebpf4jnsgd1na2vs0mg"},{"bike_id":"016981cb-2344-427f-a0cf-76de0b7949b2","system_id":"levelo_inurba_marseille","lat":43.29034,"lon":5.35601,"is_reserved":false,"is_disabled":false,"rental_uris":{"android":"levelo://app?vid=016981cb-2344-427f-a0cf-76de0b7949b2","ios":"levelo://app?vid=016981cb-2344-427f-a0cf-76de0b7949b2"},"vehicle_type_id":"4","last_reported":1728839214,"current_range_meters":35200,"station_id":"ce4bhb92rcd13ifvqen0","pricing_plan_id":"cebpf4jnsgd1na2vs0mg"},{"bike_id":"a2564abb-553d-43b5-988d-c4ebad034ace","system_id":"levelo_inurba_marseille","lat":43.28104,"lon":5.37831,"is_reserved":false,"is_disabled":false,"rental_uris":{"android":"levelo://app?vid=a2564abb-553d-43b5-988d-c4ebad034ace","ios":"levelo://app?vid=a2564abb-553d-43b5-988d-c4ebad034ace"},"vehicle_type_id":"4","last_reported":1728839214,"current_range_meters":6800,"station_id":"ce4bha12rcd13ifvqee0","pricing_plan_id":"cebpf4jnsgd1na2vs0mg"},{"bike_id":"549d6d74-2989-4262-84f7-d0467c6c02f7","system_id":"levelo_inurba_marseille","lat":43.29897,"lon":5.43668,"is_reserved":false,"is_disabled":false,"rental_uris":{"android":"levelo://app?vid=549d6d74-2989-4262-84f7-d0467c6c02f7","ios":"levelo://app?vid=549d6d74-2989-4262-84f7-d0467c6c02f7"},"vehicle_type_id":"4","last_reported":1728839214,"current_range_meters":17600,"station_id":"ce4bhpp2rcd13ifvqhfg","pricing_plan_id":"cebpf4jnsgd1na2vs0mg"},{"bike_id":"5e6411fd-eb69-429d-ab18-4d74ec2f4c3b","system_id":"levelo_inurba_marseille","lat":43.298877,"lon":5.391241,"is_reserved":false,"is_disabled":false,"rental_uris":{"android":"levelo://app?vid=5e6411fd-eb69-429d-ab18-4d74ec2f4c3b","ios":"levelo://app?vid=5e6411fd-eb69-429d-ab18-4d74ec2f4c3b"},"vehicle_type_id":"4","last_reported":1728839214,"current_range_meters":29600,"station_id":"ce4bhqp2rcd13ifvqhng","pricing_plan_id":"cebpf4jnsgd1na2vs0mg"},{"bike_id":"e7dcffe1-3541-4d8c-81b2-88c97dadf2b1","system_id":"levelo_inurba_marseille","lat":43.317742,"lon":5.403912,"is_reserved":false,"is_disabled":false,"rental_uris":{"android":"levelo://app?vid=e7dcffe1-3541-4d8c-81b2-88c97dadf2b1","ios":"levelo://app?vid=e7dcffe1-3541-4d8c-81b2-88c97dadf2b1"},"vehicle_type_id":"4","last_reported":1728839214,"current_range_meters":28800,"station_id":"","pricing_plan_id":"cebpf4jnsgd1na2vs0mg"},{"bike_id":"a67f23f1-2406-4bec-a317-481508723efa","system_id":"levelo_inurba_marseille","lat":43.26791,"lon":5.39419,"is_reserved":false,"is_disabled":false,"rental_uris":{"android":"levelo://app?vid=a67f23f1-2406-4bec-a317-481508723efa","ios":"levelo://app?vid=a67f23f1-2406-4bec-a317-481508723efa"},"vehicle_type_id":"4","last_reported":1728839214,"current_range_meters":36000,"station_id":"ce4bhh12rcd13ifvqfg0","pricing_plan_id":"cebpf4jnsgd1na2vs0mg"},{"bike_id":"7563807c-d27a-4161-8a5f-4b0cb3141228","system_id":"levelo_inurba_marseille","lat":43.33711,"lon":5.39194,"is_reserved":false,"is_disabled":false,"rental_uris":{"android":"levelo://app?vid=7563807c-d27a-4161-8a5f-4b0cb3141228","ios":"levelo://app?vid=7563807c-d27a-4161-8a5f-4b0cb3141228"},"vehicle_type_id":"4","last_reported":1728839214,"current_range_meters":3600,"station_id":"ce4bhr92rcd13ifvqhsg","pricing_plan_id":"cebpf4jnsgd1na2vs0mg"},{"bike_id":"5bc9b78b-9615-45c0-a888-79c429dfa74a","system_id":"levelo_inurba_marseille","lat":43.337288,"lon":5.391918,"is_reserved":false,"is_disabled":false,"rental_uris":{"android":"levelo://app?vid=5bc9b78b-9615-45c0-a888-79c429dfa74a","ios":"levelo://app?vid=5bc9b78b-9615-45c0-a888-79c429dfa74a"},"vehicle_type_id":"4","last_reported":1728839214,"current_range_meters":16400,"station_id":"ce4bhr92rcd13ifvqhsg","pricing_plan_id":"cebpf4jnsgd1na2vs0mg"},{"bike_id":"159202df-804e-4962-9666-0fc4c1b50e86","system_id":"levelo_inurba_marseille","lat":43.26942,"lon":5.40257,"is_reserved":false,"is_disabled":false,"rental_uris":{"android":"levelo://app?vid=159202df-804e-4962-9666-0fc4c1b50e86","ios":"levelo://app?vid=159202df-804e-4962-9666-0fc4c1b50e86"},"vehicle_type_id":"4","last_reported":1728839214,"current_range_meters":38000,"station_id":"cjm6bp8fraef2m0cb0m0","pricing_plan_id":"cebpf4jnsgd1na2vs0mg"},{"bike_id":"e1f9486c-3843-42a6-aacd-4c828c67520a","system_id":"levelo_inurba_marseille","lat":43.23053,"lon":5.3549,"is_reserved":false,"is_disabled":false,"rental_uris":{"android":"levelo://app?vid=e1f9486c-3843-42a6-aacd-4c828c67520a","ios":"levelo://app?vid=e1f9486c-3843-42a6-aacd-4c828c67520a"},"vehicle_type_id":"4","last_reported":1728839214,"current_range_meters":29600,"station_id":"cpo3342slgdg3j2ifvpg","pricing_plan_id":"cebpf4jnsgd1na2vs0mg"},{"bike_id":"f0d3d863-63f7-42dd-92f6-751f883d4bbe","system_id":"levelo_inurba_marseille","lat":43.30587,"lon":5.39353,"is_reserved":false,"is_disabled":false,"rental_uris":{"android":"levelo://app?vid=f0d3d863-63f7-42dd-92f6-751f883d4bbe","ios":"levelo://app?vid=f0d3d863-63f7-42dd-92f6-751f883d4bbe"},"vehicle_type_id":"4","last_reported":1728839214,"current_range_meters":12800,"station_id":"ce4bh0p2rcd13ifvqd80","pricing_plan_id":"cebpf4jnsgd1na2vs0mg"},{"bike_id":"1858b486-e334-41de-8664-46928d8089c9","system_id":"levelo_inurba_marseille","lat":43.31721,"lon":5.42396,"is_reserved":false,"is_disabled":false,"rental_uris":{"android":"levelo://app?vid=1858b486-e334-41de-8664-46928d8089c9","ios":"levelo://app?vid=1858b486-e334-41de-8664-46928d8089c9"},"vehicle_type_id":"4","last_reported":1728839214,"current_range_meters":12000,"station_id":"ce4bhp92rcd13ifvqhbg","pricing_plan_id":"cebpf4jnsgd1na2vs0mg"},{"bike_id":"1c7a428c-6296-4410-9532-40047961eb3b","system_id":"levelo_inurba_marseille","lat":43.292,"lon":5.39306,"is_reserved":false,"is_disabled":false,"rental_uris":{"android":"levelo://app?vid=1c7a428c-6296-4410-9532-40047961eb3b","ios":"levelo://app?vid=1c7a428c-6296-4410-9532-40047961eb3b"},"vehicle_type_id":"4","last_reported":1728839214,"current_range_meters":18000,"station_id":"ce4bh192rcd13ifvqdd0","pricing_plan_id":"cebpf4jnsgd1na2vs0mg"},{"bike_id":"729b5747-2745-44f4-8e45-767e543cac8a","system_id":"levelo_inurba_marseille","lat":43.33034,"lon":5.38936,"is_reserved":false,"is_disabled":false,"rental_uris":{"android":"levelo://app?vid=729b5747-2745-44f4-8e45-767e543cac8a","ios":"levelo://app?vid=729b5747-2745-44f4-8e45-767e543cac8a"},"vehicle_type_id":"4","last_reported":1728839214,"current_range_meters":37600,"station_id":"","pricing_plan_id":"cebpf4jnsgd1na2vs0mg"},{"bike_id":"7c386a16-e8d8-404f-97dd-00e959a0e756","system_id":"levelo_inurba_marseille","lat":43.2861,"lon":5.3706,"is_reserved":false,"is_disabled":false,"rental_uris":{"android":"levelo://app?vid=7c386a16-e8d8-404f-97dd-00e959a0e756","ios":"levelo://app?vid=7c386a16-e8d8-404f-97dd-00e959a0e756"},"vehicle_type_id":"4","last_reported":1728839214,"current_range_meters":18000,"station_id":"ce4bht12rcd13ifvqi60","pricing_plan_id":"cebpf4jnsgd1na2vs0mg"},{"bike_id":"6a98afc1-6dae-40c7-a24c-079a1265e2b9","system_id":"levelo_inurba_marseille","lat":43.2681,"lon":5.40273,"is_reserved":false,"is_disabled":false,"rental_uris":{"android":"levelo://app?vid=6a98afc1-6dae-40c7-a24c-079a1265e2b9","ios":"levelo://app?vid=6a98afc1-6dae-40c7-a24c-079a1265e2b9"},"vehicle_type_id":"4","last_reported":1728839214,"current_range_meters":25600,"station_id":"ce501612rcd8frsf0b60","pricing_plan_id":"cebpf4jnsgd1na2vs0mg"},{"bike_id":"8fb2b431-bcb9-46ba-80fb-e26e84592fc5","system_id":"levelo_inurba_marseille","lat":43.23194,"lon":5.35564,"is_reserved":false,"is_disabled":false,"rental_uris":{"android":"levelo://app?vid=8fb2b431-bcb9-46ba-80fb-e26e84592fc5","ios":"levelo://app?vid=8fb2b431-bcb9-46ba-80fb-e26e84592fc5"},"vehicle_type_id":"4","last_reported":1728839214,"current_range_meters":26800,"station_id":"ce4bhu92rcd13ifvqi70","pricing_plan_id":"cebpf4jnsgd1na2vs0mg"},{"bike_id":"56645a9f-6294-400e-86ad-166281097e0e","system_id":"levelo_inurba_marseille","lat":43.28402,"lon":5.37526,"is_reserved":false,"is_disabled":false,"rental_uris":{"android":"levelo://app?vid=56645a9f-6294-400e-86ad-166281097e0e","ios":"levelo://app?vid=56645a9f-6294-400e-86ad-166281097e0e"},"vehicle_type_id":"4","last_reported":1728839214,"current_range_meters":24000,"station_id":"ce4bh412rcd13ifvqds0","pricing_plan_id":"cebpf4jnsgd1na2vs0mg"},{"bike_id":"46df8e5c-5581-48d5-b2c5-3a629fb54d21","system_id":"levelo_inurba_marseille","lat":43.31755,"lon":5.39015,"is_reserved":false,"is_disabled":false,"rental_uris":{"android":"levelo://app?vid=46df8e5c-5581-48d5-b2c5-3a629fb54d21","ios":"levelo://app?vid=46df8e5c-5581-48d5-b2c5-3a629fb54d21"},"vehicle_type_id":"4","last_reported":1728839214,"current_range_meters":23200,"station_id":"ce4bhqp2rcd13ifvqhng","pricing_plan_id":"cebpf4jnsgd1na2vs0mg"},{"bike_id":"62b35810-2788-484a-8c4e-b06cc56a6d95","system_id":"levelo_inurba_marseille","lat":43.28464,"lon":5.35893,"is_reserved":false,"is_disabled":false,"rental_uris":{"android":"levelo://app?vid=62b35810-2788-484a-8c4e-b06cc56a6d95","ios":"levelo://app?vid=62b35810-2788-484a-8c4e-b06cc56a6d95"},"vehicle_type_id":"4","last_reported":1728839214,"current_range_meters":6400,"station_id":"ce4bhah2rcd13ifvqei0","pricing_plan_id":"cebpf4jnsgd1na2vs0mg"},{"bike_id":"9b78946e-876e-4f62-b695-aaef979339e5","system_id":"levelo_inurba_marseille","lat":43.27964,"lon":5.38748,"is_reserved":false,"is_disabled":false,"rental_uris":{"android":"levelo://app?vid=9b78946e-876e-4f62-b695-aaef979339e5","ios":"levelo://app?vid=9b78946e-876e-4f62-b695-aaef979339e5"},"vehicle_type_id":"4","last_reported":1728839214,"current_range_meters":38000,"station_id":"ce4bhg12rcd13ifvqf80","pricing_plan_id":"cebpf4jnsgd1na2vs0mg"},{"bike_id":"2ab423a0-58a0-4125-b3de-29c6611f5114","system_id":"levelo_inurba_marseille","lat":43.25086,"lon":5.39531,"is_reserved":false,"is_disabled":false,"rental_uris":{"android":"levelo://app?vid=2ab423a0-58a0-4125-b3de-29c6611f5114","ios":"levelo://app?vid=2ab423a0-58a0-4125-b3de-29c6611f5114"},"vehicle_type_id":"4","last_reported":1728839214,"current_range_meters":39200,"station_id":"ce4bhm12rcd13ifvqgkg","pricing_plan_id":"cebpf4jnsgd1na2vs0mg"},{"bike_id":"9104df3a-8fc7-4cee-801e-7b3e1fc19bcf","system_id":"levelo_inurba_marseille","lat":43.30153,"lon":5.38106,"is_reserved":false,"is_disabled":false,"rental_uris":{"android":"levelo://app?vid=9104df3a-8fc7-4cee-801e-7b3e1fc19bcf","ios":"levelo://app?vid=9104df3a-8fc7-4cee-801e-7b3e1fc19bcf"},"vehicle_type_id":"4","last_reported":1728839214,"current_range_meters":30000,"station_id":"ce4bgjp2rcd13ifvqbh0","pricing_plan_id":"cebpf4jnsgd1na2vs0mg"},{"bike_id":"7f5b7acd-724b-41d5-9fd2-11460a9f2776","system_id":"levelo_inurba_marseille","lat":43.28356,"lon":5.38117,"is_reserved":false,"is_disabled":false,"rental_uris":{"android":"levelo://app?vid=7f5b7acd-724b-41d5-9fd2-11460a9f2776","ios":"levelo://app?vid=7f5b7acd-724b-41d5-9fd2-11460a9f2776"},"vehicle_type_id":"4","last_reported":1728839214,"current_range_meters":16400,"station_id":"ce4bh412rcd13ifvqdr0","pricing_plan_id":"cebpf4jnsgd1na2vs0mg"},{"bike_id":"af3c4edc-e6b6-4fd9-bbde-c8313c36ee8b","system_id":"levelo_inurba_marseille","lat":43.29038,"lon":5.39951,"is_reserved":false,"is_disabled":false,"rental_uris":{"android":"levelo://app?vid=af3c4edc-e6b6-4fd9-bbde-c8313c36ee8b","ios":"levelo://app?vid=af3c4edc-e6b6-4fd9-bbde-c8313c36ee8b"},"vehicle_type_id":"4","last_reported":1728839214,"current_range_meters":24800,"station_id":"ce4bh392rcd13ifvqdm0","pricing_plan_id":"cebpf4jnsgd1na2vs0mg"},{"bike_id":"45985275-f186-45d0-a954-75a0a25627cb","system_id":"levelo_inurba_marseille","lat":43.3176,"lon":5.39017,"is_reserved":false,"is_disabled":false,"rental_uris":{"android":"levelo://app?vid=45985275-f186-45d0-a954-75a0a25627cb","ios":"levelo://app?vid=45985275-f186-45d0-a954-75a0a25627cb"},"vehicle_type_id":"4","last_reported":1728839214,"current_range_meters":22000,"station_id":"ce4bhqp2rcd13ifvqhng","pricing_plan_id":"cebpf4jnsgd1na2vs0mg"},{"bike_id":"d7ed9a21-0e85-466b-84e2-bc5a3810ccb9","system_id":"levelo_inurba_marseille","lat":43.284033,"lon":5.375227,"is_reserved":false,"is_disabled":false,"rental_uris":{"android":"levelo://app?vid=d7ed9a21-0e85-466b-84e2-bc5a3810ccb9","ios":"levelo://app?vid=d7ed9a21-0e85-466b-84e2-bc5a3810ccb9"},"vehicle_type_id":"4","last_reported":1728839214,"current_range_meters":8400,"station_id":"ce4bh412rcd13ifvqds0","pricing_plan_id":"cebpf4jnsgd1na2vs0mg"},{"bike_id":"aa94dfd2-1ed1-43df-a438-34e39f771f63","system_id":"levelo_inurba_marseille","lat":43.24389,"lon":5.37062,"is_reserved":false,"is_disabled":false,"rental_uris":{"android":"levelo://app?vid=aa94dfd2-1ed1-43df-a438-34e39f771f63","ios":"levelo://app?vid=aa94dfd2-1ed1-43df-a438-34e39f771f63"},"vehicle_type_id":"4","last_reported":1728839214,"current_range_meters":9600,"station_id":"ce4bhhh2rcd13ifvqfk0","pricing_plan_id":"cebpf4jnsgd1na2vs0mg"},{"bike_id":"d2d0da9f-d77a-4d11-a08e-9ba0f499babf","system_id":"levelo_inurba_marseille","lat":43.30303,"lon":5.3688,"is_reserved":false,"is_disabled":false,"rental_uris":{"android":"levelo://app?vid=d2d0da9f-d77a-4d11-a08e-9ba0f499babf","ios":"levelo://app?vid=d2d0da9f-d77a-4d11-a08e-9ba0f499babf"},"vehicle_type_id":"4","last_reported":1728839214,"current_range_meters":9200,"station_id":"ce4bgqh2rcd13ifvqc5g","pricing_plan_id":"cebpf4jnsgd1na2vs0mg"},{"bike_id":"c5e1c5f0-4d0d-43b4-a5ce-bda7a5679e5e","system_id":"levelo_inurba_marseille","lat":43.30978,"lon":5.40106,"is_reserved":false,"is_disabled":false,"rental_uris":{"android":"levelo://app?vid=c5e1c5f0-4d0d-43b4-a5ce-bda7a5679e5e","ios":"levelo://app?vid=c5e1c5f0-4d0d-43b4-a5ce-bda7a5679e5e"},"vehicle_type_id":"4","last_reported":1728839214,"current_range_meters":11600,"station_id":"ce4bgvp2rcd13ifvqct0","pricing_plan_id":"cebpf4jnsgd1na2vs0mg"},{"bike_id":"7c095d3c-604a-4602-b927-64e3a8b70e01","system_id":"levelo_inurba_marseille","lat":43.29032,"lon":5.37567,"is_reserved":false,"is_disabled":false,"rental_uris":{"android":"levelo://app?vid=7c095d3c-604a-4602-b927-64e3a8b70e01","ios":"levelo://app?vid=7c095d3c-604a-4602-b927-64e3a8b70e01"},"vehicle_type_id":"4","last_reported":1728839214,"current_range_meters":34800,"station_id":"ce4bh692rcd13ifvqe90","pricing_plan_id":"cebpf4jnsgd1na2vs0mg"},{"bike_id":"cdde71fa-933f-47ef-8a23-39142a076aea","system_id":"levelo_inurba_marseille","lat":43.29548,"lon":5.42296,"is_reserved":false,"is_disabled":false,"rental_uris":{"android":"levelo://app?vid=cdde71fa-933f-47ef-8a23-39142a076aea","ios":"levelo://app?vid=cdde71fa-933f-47ef-8a23-39142a076aea"},"vehicle_type_id":"4","last_reported":1728839214,"current_range_meters":38800,"station_id":"ce4bhph2rcd13ifvqhdg","pricing_plan_id":"cebpf4jnsgd1na2vs0mg"},{"bike_id":"95699663-86af-4c6a-9088-0023daf2c9fe","system_id":"levelo_inurba_marseille","lat":43.28614,"lon":5.35109,"is_reserved":false,"is_disabled":false,"rental_uris":{"android":"levelo://app?vid=95699663-86af-4c6a-9088-0023daf2c9fe","ios":"levelo://app?vid=95699663-86af-4c6a-9088-0023daf2c9fe"},"vehicle_type_id":"4","last_reported":1728839214,"current_range_meters":17200,"station_id":"ce4bhch2rcd13ifvqeug","pricing_plan_id":"cebpf4jnsgd1na2vs0mg"},{"bike_id":"49316722-f5ca-469e-b328-cdeaebfb0c7f","system_id":"levelo_inurba_marseille","lat":43.23959,"lon":5.36633,"is_reserved":false,"is_disabled":false,"rental_uris":{"android":"levelo://app?vid=49316722-f5ca-469e-b328-cdeaebfb0c7f","ios":"levelo://app?vid=49316722-f5ca-469e-b328-cdeaebfb0c7f"},"vehicle_type_id":"4","last_reported":1728839214,"current_range_meters":39200,"station_id":"ce4bhi12rcd13ifvqfp0","pricing_plan_id":"cebpf4jnsgd1na2vs0mg"},{"bike_id":"7ec3da59-c521-44f4-9825-34e4c989ad4a","system_id":"levelo_inurba_marseille","lat":43.28609,"lon":5.37068,"is_reserved":false,"is_disabled":false,"rental_uris":{"android":"levelo://app?vid=7ec3da59-c521-44f4-9825-34e4c989ad4a","ios":"levelo://app?vid=7ec3da59-c521-44f4-9825-34e4c989ad4a"},"vehicle_type_id":"4","last_reported":1728839214,"current_range_meters":6000,"station_id":"ce4bht12rcd13ifvqi60","pricing_plan_id":"cebpf4jnsgd1na2vs0mg"},{"bike_id":"7b20509d-3e68-45a9-908c-1764325c91a4","system_id":"levelo_inurba_marseille","lat":43.23187,"lon":5.35557,"is_reserved":false,"is_disabled":false,"rental_uris":{"android":"levelo://app?vid=7b20509d-3e68-45a9-908c-1764325c91a4","ios":"levelo://app?vid=7b20509d-3e68-45a9-908c-1764325c91a4"},"vehicle_type_id":"4","last_reported":1728839214,"current_range_meters":3600,"station_id":"ce4bhu92rcd13ifvqi70","pricing_plan_id":"cebpf4jnsgd1na2vs0mg"},{"bike_id":"aad69708-28ac-43e6-945e-619f5a7c6bfd","system_id":"levelo_inurba_marseille","lat":43.33781,"lon":5.37443,"is_reserved":false,"is_disabled":false,"rental_uris":{"android":"levelo://app?vid=aad69708-28ac-43e6-945e-619f5a7c6bfd","ios":"levelo://app?vid=aad69708-28ac-43e6-945e-619f5a7c6bfd"},"vehicle_type_id":"4","last_reported":1728839214,"current_range_meters":32800,"station_id":"","pricing_plan_id":"cebpf4jnsgd1na2vs0mg"},{"bike_id":"1434b983-f7f2-4952-9578-3b4de6cb87c7","system_id":"levelo_inurba_marseille","lat":43.28403,"lon":5.37525,"is_reserved":false,"is_disabled":false,"rental_uris":{"android":"levelo://app?vid=1434b983-f7f2-4952-9578-3b4de6cb87c7","ios":"levelo://app?vid=1434b983-f7f2-4952-9578-3b4de6cb87c7"},"vehicle_type_id":"4","last_reported":1728839214,"current_range_meters":26000,"station_id":"ce4bh412rcd13ifvqds0","pricing_plan_id":"cebpf4jnsgd1na2vs0mg"},{"bike_id":"648d0463-d534-4768-a3c4-0b1b1a2812d8","system_id":"levelo_inurba_marseille","lat":43.318848,"lon":5.407474,"is_reserved":false,"is_disabled":false,"rental_uris":{"android":"levelo://app?vid=648d0463-d534-4768-a3c4-0b1b1a2812d8","ios":"levelo://app?vid=648d0463-d534-4768-a3c4-0b1b1a2812d8"},"vehicle_type_id":"4","last_reported":1728839214,"current_range_meters":26800,"station_id":"ce4bhq92rcd13ifvqhkg","pricing_plan_id":"cebpf4jnsgd1na2vs0mg"},{"bike_id":"71338155-8a9b-44bc-a013-9f4cf0fc0f33","system_id":"levelo_inurba_marseille","lat":43.29004,"lon":5.35613,"is_reserved":false,"is_disabled":false,"rental_uris":{"android":"levelo://app?vid=71338155-8a9b-44bc-a013-9f4cf0fc0f33","ios":"levelo://app?vid=71338155-8a9b-44bc-a013-9f4cf0fc0f33"},"vehicle_type_id":"4","last_reported":1728839214,"current_range_meters":2800,"station_id":"ce4bhb92rcd13ifvqen0","pricing_plan_id":"cebpf4jnsgd1na2vs0mg"},{"bike_id":"c3f2aa61-16a6-4d28-ac6f-18017895ab28","system_id":"levelo_inurba_marseille","lat":43.2319,"lon":5.35555,"is_reserved":false,"is_disabled":false,"rental_uris":{"android":"levelo://app?vid=c3f2aa61-16a6-4d28-ac6f-18017895ab28","ios":"levelo://app?vid=c3f2aa61-16a6-4d28-ac6f-18017895ab28"},"vehicle_type_id":"4","last_reported":1728839214,"current_range_meters":1600,"station_id":"ce4bhu92rcd13ifvqi70","pricing_plan_id":"cebpf4jnsgd1na2vs0mg"},{"bike_id":"8509fa5d-c6d9-4cb2-b4b1-4f2065b2666e","system_id":"levelo_inurba_marseille","lat":43.28344,"lon":5.41016,"is_reserved":false,"is_disabled":false,"rental_uris":{"android":"levelo://app?vid=8509fa5d-c6d9-4cb2-b4b1-4f2065b2666e","ios":"levelo://app?vid=8509fa5d-c6d9-4cb2-b4b1-4f2065b2666e"},"vehicle_type_id":"4","last_reported":1728839214,"current_range_meters":2800,"station_id":"","pricing_plan_id":"cebpf4jnsgd1na2vs0mg"},{"bike_id":"0ad03afa-7672-4923-8e5d-b7df3c7bcacb","system_id":"levelo_inurba_marseille","lat":43.24389,"lon":5.37058,"is_reserved":false,"is_disabled":false,"rental_uris":{"android":"levelo://app?vid=0ad03afa-7672-4923-8e5d-b7df3c7bcacb","ios":"levelo://app?vid=0ad03afa-7672-4923-8e5d-b7df3c7bcacb"},"vehicle_type_id":"4","last_reported":1728839214,"current_range_meters":32400,"station_id":"ce4bhhh2rcd13ifvqfk0","pricing_plan_id":"cebpf4jnsgd1na2vs0mg"},{"bike_id":"aa9ac43d-4417-43e9-868f-0121e86275f2","system_id":"levelo_inurba_marseille","lat":43.29416,"lon":5.386197,"is_reserved":false,"is_disabled":false,"rental_uris":{"android":"levelo://app?vid=aa9ac43d-4417-43e9-868f-0121e86275f2","ios":"levelo://app?vid=aa9ac43d-4417-43e9-868f-0121e86275f2"},"vehicle_type_id":"4","last_reported":1728839214,"current_range_meters":18800,"station_id":"ce4bh4p2rcd13ifvqe0g","pricing_plan_id":"cebpf4jnsgd1na2vs0mg"},{"bike_id":"27311a75-ebb6-43d6-9fb5-f3ba72a10e0e","system_id":"levelo_inurba_marseille","lat":43.299,"lon":5.4367,"is_reserved":false,"is_disabled":false,"rental_uris":{"android":"levelo://app?vid=27311a75-ebb6-43d6-9fb5-f3ba72a10e0e","ios":"levelo://app?vid=27311a75-ebb6-43d6-9fb5-f3ba72a10e0e"},"vehicle_type_id":"4","last_reported":1728839214,"current_range_meters":17200,"station_id":"ce4bhpp2rcd13ifvqhfg","pricing_plan_id":"cebpf4jnsgd1na2vs0mg"},{"bike_id":"1c1cb6ef-a0f4-4ffb-9489-f20667fb7b6e","system_id":"levelo_inurba_marseille","lat":43.316859,"lon":5.404715,"is_reserved":false,"is_disabled":false,"rental_uris":{"android":"levelo://app?vid=1c1cb6ef-a0f4-4ffb-9489-f20667fb7b6e","ios":"levelo://app?vid=1c1cb6ef-a0f4-4ffb-9489-f20667fb7b6e"},"vehicle_type_id":"4","last_reported":1728839214,"current_range_meters":13600,"station_id":"ce4bh012rcd13ifvqd00","pricing_plan_id":"cebpf4jnsgd1na2vs0mg"},{"bike_id":"e098e08c-0a79-4c51-b560-85c705cd2561","system_id":"levelo_inurba_marseille","lat":43.29948,"lon":5.37453,"is_reserved":false,"is_disabled":false,"rental_uris":{"android":"levelo://app?vid=e098e08c-0a79-4c51-b560-85c705cd2561","ios":"levelo://app?vid=e098e08c-0a79-4c51-b560-85c705cd2561"},"vehicle_type_id":"4","last_reported":1728839214,"current_range_meters":8400,"station_id":"ce4bgjh2rcd13ifvqbg0","pricing_plan_id":"cebpf4jnsgd1na2vs0mg"},{"bike_id":"800a7747-9705-44cd-b64b-1685aaf7e653","system_id":"levelo_inurba_marseille","lat":43.28643,"lon":5.38579,"is_reserved":false,"is_disabled":false,"rental_uris":{"android":"levelo://app?vid=800a7747-9705-44cd-b64b-1685aaf7e653","ios":"levelo://app?vid=800a7747-9705-44cd-b64b-1685aaf7e653"},"vehicle_type_id":"4","last_reported":1728839214,"current_range_meters":18800,"station_id":"","pricing_plan_id":"cebpf4jnsgd1na2vs0mg"},{"bike_id":"a3a84477-5d10-49c6-9fb2-19ecf72eca2a","system_id":"levelo_inurba_marseille","lat":43.23054,"lon":5.35495,"is_reserved":false,"is_disabled":false,"rental_uris":{"android":"levelo://app?vid=a3a84477-5d10-49c6-9fb2-19ecf72eca2a","ios":"levelo://app?vid=a3a84477-5d10-49c6-9fb2-19ecf72eca2a"},"vehicle_type_id":"4","last_reported":1728839214,"current_range_meters":7200,"station_id":"cpo3342slgdg3j2ifvpg","pricing_plan_id":"cebpf4jnsgd1na2vs0mg"},{"bike_id":"7456dac3-d687-43cd-9d8b-e22d909234e7","system_id":"levelo_inurba_marseille","lat":43.32178,"lon":5.4137,"is_reserved":false,"is_disabled":false,"rental_uris":{"android":"levelo://app?vid=7456dac3-d687-43cd-9d8b-e22d909234e7","ios":"levelo://app?vid=7456dac3-d687-43cd-9d8b-e22d909234e7"},"vehicle_type_id":"4","last_reported":1728839214,"current_range_meters":6800,"station_id":"","pricing_plan_id":"cebpf4jnsgd1na2vs0mg"},{"bike_id":"13d5639e-0ade-4e9c-bf1a-35eeb55c26e8","system_id":"levelo_inurba_marseille","lat":43.275535,"lon":5.360339,"is_reserved":false,"is_disabled":false,"rental_uris":{"android":"levelo://app?vid=13d5639e-0ade-4e9c-bf1a-35eeb55c26e8","ios":"levelo://app?vid=13d5639e-0ade-4e9c-bf1a-35eeb55c26e8"},"vehicle_type_id":"4","last_reported":1728839214,"current_range_meters":14400,"station_id":"ce4bgj92rcd13ifvqbe0","pricing_plan_id":"cebpf4jnsgd1na2vs0mg"},{"bike_id":"cba59919-95e6-42ff-83c9-6bcf45674d60","system_id":"levelo_inurba_marseille","lat":43.32336,"lon":5.38328,"is_reserved":false,"is_disabled":false,"rental_uris":{"android":"levelo://app?vid=cba59919-95e6-42ff-83c9-6bcf45674d60","ios":"levelo://app?vid=cba59919-95e6-42ff-83c9-6bcf45674d60"},"vehicle_type_id":"4","last_reported":1728839214,"current_range_meters":38800,"station_id":"","pricing_plan_id":"cebpf4jnsgd1na2vs0mg"},{"bike_id":"fcadd1ed-50c7-47e7-aa19-05b3aa30f5fc","system_id":"levelo_inurba_marseille","lat":43.33025,"lon":5.39047,"is_reserved":false,"is_disabled":false,"rental_uris":{"android":"levelo://app?vid=fcadd1ed-50c7-47e7-aa19-05b3aa30f5fc","ios":"levelo://app?vid=fcadd1ed-50c7-47e7-aa19-05b3aa30f5fc"},"vehicle_type_id":"4","last_reported":1728839214,"current_range_meters":35200,"station_id":"ce4bhr92rcd13ifvqhrg","pricing_plan_id":"cebpf4jnsgd1na2vs0mg"},{"bike_id":"610bfb8b-3e91-4e90-b1f9-7f3d953e2cb4","system_id":"levelo_inurba_marseille","lat":43.24388,"lon":5.37072,"is_reserved":false,"is_disabled":false,"rental_uris":{"android":"levelo://app?vid=610bfb8b-3e91-4e90-b1f9-7f3d953e2cb4","ios":"levelo://app?vid=610bfb8b-3e91-4e90-b1f9-7f3d953e2cb4"},"vehicle_type_id":"4","last_reported":1728839214,"current_range_meters":20400,"station_id":"ce4bhhh2rcd13ifvqfk0","pricing_plan_id":"cebpf4jnsgd1na2vs0mg"},{"bike_id":"555e5659-0e16-41e4-b7df-62030b03e6ca","system_id":"levelo_inurba_marseille","lat":43.32287,"lon":5.38679,"is_reserved":false,"is_disabled":false,"rental_uris":{"android":"levelo://app?vid=555e5659-0e16-41e4-b7df-62030b03e6ca","ios":"levelo://app?vid=555e5659-0e16-41e4-b7df-62030b03e6ca"},"vehicle_type_id":"4","last_reported":1728839214,"current_range_meters":26000,"station_id":"","pricing_plan_id":"cebpf4jnsgd1na2vs0mg"},{"bike_id":"7ba35a55-9fe7-43b1-90c0-6196b9892bc7","system_id":"levelo_inurba_marseille","lat":43.298004,"lon":5.397585,"is_reserved":false,"is_disabled":false,"rental_uris":{"android":"levelo://app?vid=7ba35a55-9fe7-43b1-90c0-6196b9892bc7","ios":"levelo://app?vid=7ba35a55-9fe7-43b1-90c0-6196b9892bc7"},"vehicle_type_id":"4","last_reported":1728839214,"current_range_meters":3200,"station_id":"ce4bh0h2rcd13ifvqd50","pricing_plan_id":"cebpf4jnsgd1na2vs0mg"},{"bike_id":"eddddcae-ec5d-43de-a9af-6e31c4347144","system_id":"levelo_inurba_marseille","lat":43.23878,"lon":5.37108,"is_reserved":false,"is_disabled":false,"rental_uris":{"android":"levelo://app?vid=eddddcae-ec5d-43de-a9af-6e31c4347144","ios":"levelo://app?vid=eddddcae-ec5d-43de-a9af-6e31c4347144"},"vehicle_type_id":"4","last_reported":1728839214,"current_range_meters":27600,"station_id":"","pricing_plan_id":"cebpf4jnsgd1na2vs0mg"},{"bike_id":"60b5543d-1a05-461f-b8de-e22995173343","system_id":"levelo_inurba_marseille","lat":43.24549,"lon":5.39522,"is_reserved":false,"is_disabled":false,"rental_uris":{"android":"levelo://app?vid=60b5543d-1a05-461f-b8de-e22995173343","ios":"levelo://app?vid=60b5543d-1a05-461f-b8de-e22995173343"},"vehicle_type_id":"4","last_reported":1728839214,"current_range_meters":38800,"station_id":"ce4bhlp2rcd13ifvqgjg","pricing_plan_id":"cebpf4jnsgd1na2vs0mg"},{"bike_id":"93b27a53-ca87-42cc-a558-985f0164192b","system_id":"levelo_inurba_marseille","lat":43.29656,"lon":5.40009,"is_reserved":false,"is_disabled":false,"rental_uris":{"android":"levelo://app?vid=93b27a53-ca87-42cc-a558-985f0164192b","ios":"levelo://app?vid=93b27a53-ca87-42cc-a558-985f0164192b"},"vehicle_type_id":"4","last_reported":1728839214,"current_range_meters":8400,"station_id":"","pricing_plan_id":"cebpf4jnsgd1na2vs0mg"},{"bike_id":"8af7e769-e279-4759-955d-1a37ade3e732","system_id":"levelo_inurba_marseille","lat":43.29296,"lon":5.37463,"is_reserved":false,"is_disabled":false,"rental_uris":{"android":"levelo://app?vid=8af7e769-e279-4759-955d-1a37ade3e732","ios":"levelo://app?vid=8af7e769-e279-4759-955d-1a37ade3e732"},"vehicle_type_id":"4","last_reported":1728839214,"current_range_meters":34000,"station_id":"ce4bgi12rcd13ifvqb70","pricing_plan_id":"cebpf4jnsgd1na2vs0mg"},{"bike_id":"d1d7f339-25ff-4c54-8fc8-51f9ff85fb15","system_id":"levelo_inurba_marseille","lat":43.24388,"lon":5.37058,"is_reserved":false,"is_disabled":false,"rental_uris":{"android":"levelo://app?vid=d1d7f339-25ff-4c54-8fc8-51f9ff85fb15","ios":"levelo://app?vid=d1d7f339-25ff-4c54-8fc8-51f9ff85fb15"},"vehicle_type_id":"4","last_reported":1728839214,"current_range_meters":8000,"station_id":"ce4bhhh2rcd13ifvqfk0","pricing_plan_id":"cebpf4jnsgd1na2vs0mg"},{"bike_id":"3cffb5a4-c2a0-4e38-9c7c-10987ad20fcd","system_id":"levelo_inurba_marseille","lat":43.31336,"lon":5.36726,"is_reserved":false,"is_disabled":false,"rental_uris":{"android":"levelo://app?vid=3cffb5a4-c2a0-4e38-9c7c-10987ad20fcd","ios":"levelo://app?vid=3cffb5a4-c2a0-4e38-9c7c-10987ad20fcd"},"vehicle_type_id":"4","last_reported":1728839214,"current_range_meters":18800,"station_id":"ce4bgr92rcd13ifvqc6g","pricing_plan_id":"cebpf4jnsgd1na2vs0mg"},{"bike_id":"4dd27e66-d16c-4de8-8fcc-103d2c052e59","system_id":"levelo_inurba_marseille","lat":43.262,"lon":5.37934,"is_reserved":false,"is_disabled":false,"rental_uris":{"android":"levelo://app?vid=4dd27e66-d16c-4de8-8fcc-103d2c052e59","ios":"levelo://app?vid=4dd27e66-d16c-4de8-8fcc-103d2c052e59"},"vehicle_type_id":"4","last_reported":1728839214,"current_range_meters":13600,"station_id":"ce4bhjp2rcd13ifvqg90","pricing_plan_id":"cebpf4jnsgd1na2vs0mg"},{"bike_id":"adf7f252-dbc1-459a-8043-ad1f1eca0157","system_id":"levelo_inurba_marseille","lat":43.33722,"lon":5.39184,"is_reserved":false,"is_disabled":false,"rental_uris":{"android":"levelo://app?vid=adf7f252-dbc1-459a-8043-ad1f1eca0157","ios":"levelo://app?vid=adf7f252-dbc1-459a-8043-ad1f1eca0157"},"vehicle_type_id":"4","last_reported":1728839214,"current_range_meters":33200,"station_id":"ce4bhr92rcd13ifvqhsg","pricing_plan_id":"cebpf4jnsgd1na2vs0mg"},{"bike_id":"144a35c8-b046-4c70-aa0a-7998d09012a8","system_id":"levelo_inurba_marseille","lat":43.29782,"lon":5.37121,"is_reserved":false,"is_disabled":false,"rental_uris":{"android":"levelo://app?vid=144a35c8-b046-4c70-aa0a-7998d09012a8","ios":"levelo://app?vid=144a35c8-b046-4c70-aa0a-7998d09012a8"},"vehicle_type_id":"4","last_reported":1728839214,"current_range_meters":38800,"station_id":"ce4bgop2rcd13ifvqc1g","pricing_plan_id":"cebpf4jnsgd1na2vs0mg"},{"bike_id":"c93d7d4f-ff93-4a7d-8327-973313d309f3","system_id":"levelo_inurba_marseille","lat":43.26192,"lon":5.37925,"is_reserved":false,"is_disabled":false,"rental_uris":{"android":"levelo://app?vid=c93d7d4f-ff93-4a7d-8327-973313d309f3","ios":"levelo://app?vid=c93d7d4f-ff93-4a7d-8327-973313d309f3"},"vehicle_type_id":"4","last_reported":1728839214,"current_range_meters":38800,"station_id":"ce4bhjp2rcd13ifvqg90","pricing_plan_id":"cebpf4jnsgd1na2vs0mg"},{"bike_id":"abac9152-2ae7-41fc-aeac-831eaf636b83","system_id":"levelo_inurba_marseille","lat":43.29248,"lon":5.409,"is_reserved":false,"is_disabled":false,"rental_uris":{"android":"levelo://app?vid=abac9152-2ae7-41fc-aeac-831eaf636b83","ios":"levelo://app?vid=abac9152-2ae7-41fc-aeac-831eaf636b83"},"vehicle_type_id":"4","last_reported":1728839214,"current_range_meters":6400,"station_id":"ce4bh192rcd13ifvqdc0","pricing_plan_id":"cebpf4jnsgd1na2vs0mg"},{"bike_id":"40901a86-2974-4c75-aae3-ce8eff8cc156","system_id":"levelo_inurba_marseille","lat":43.28616,"lon":5.37056,"is_reserved":false,"is_disabled":false,"rental_uris":{"android":"levelo://app?vid=40901a86-2974-4c75-aae3-ce8eff8cc156","ios":"levelo://app?vid=40901a86-2974-4c75-aae3-ce8eff8cc156"},"vehicle_type_id":"4","last_reported":1728839214,"current_range_meters":17600,"station_id":"ce4bht12rcd13ifvqi60","pricing_plan_id":"cebpf4jnsgd1na2vs0mg"},{"bike_id":"ec031f50-ce5a-46ad-b5da-2ee6a711c629","system_id":"levelo_inurba_marseille","lat":43.28936,"lon":5.39634,"is_reserved":false,"is_disabled":false,"rental_uris":{"android":"levelo://app?vid=ec031f50-ce5a-46ad-b5da-2ee6a711c629","ios":"levelo://app?vid=ec031f50-ce5a-46ad-b5da-2ee6a711c629"},"vehicle_type_id":"4","last_reported":1728839214,"current_range_meters":3200,"station_id":"ce4bh3h2rcd13ifvqdn0","pricing_plan_id":"cebpf4jnsgd1na2vs0mg"},{"bike_id":"d6b1d22d-a691-41de-91db-446773bc00ad","system_id":"levelo_inurba_marseille","lat":43.29299,"lon":5.37462,"is_reserved":false,"is_disabled":false,"rental_uris":{"android":"levelo://app?vid=d6b1d22d-a691-41de-91db-446773bc00ad","ios":"levelo://app?vid=d6b1d22d-a691-41de-91db-446773bc00ad"},"vehicle_type_id":"4","last_reported":1728839214,"current_range_meters":35200,"station_id":"ce4bgi12rcd13ifvqb70","pricing_plan_id":"cebpf4jnsgd1na2vs0mg"},{"bike_id":"0fe37e89-fefc-4545-8187-5b1fdd7e5f70","system_id":"levelo_inurba_marseille","lat":43.323605,"lon":5.388495,"is_reserved":false,"is_disabled":false,"rental_uris":{"android":"levelo://app?vid=0fe37e89-fefc-4545-8187-5b1fdd7e5f70","ios":"levelo://app?vid=0fe37e89-fefc-4545-8187-5b1fdd7e5f70"},"vehicle_type_id":"4","last_reported":1728839214,"current_range_meters":8000,"station_id":"ce4bhqp2rcd13ifvqhog","pricing_plan_id":"cebpf4jnsgd1na2vs0mg"},{"bike_id":"9d960984-c801-496e-bb50-c485ac295345","system_id":"levelo_inurba_marseille","lat":43.303528,"lon":5.4189,"is_reserved":false,"is_disabled":false,"rental_uris":{"android":"levelo://app?vid=9d960984-c801-496e-bb50-c485ac295345","ios":"levelo://app?vid=9d960984-c801-496e-bb50-c485ac295345"},"vehicle_type_id":"4","last_reported":1728839214,"current_range_meters":26000,"station_id":"ce4bhop2rcd13ifvqh7g","pricing_plan_id":"cebpf4jnsgd1na2vs0mg"},{"bike_id":"b9f92d39-3f2c-4d1f-9f68-068dc4baf221","system_id":"levelo_inurba_marseille","lat":43.289734,"lon":5.378394,"is_reserved":false,"is_disabled":false,"rental_uris":{"android":"levelo://app?vid=b9f92d39-3f2c-4d1f-9f68-068dc4baf221","ios":"levelo://app?vid=b9f92d39-3f2c-4d1f-9f68-068dc4baf221"},"vehicle_type_id":"4","last_reported":1728839214,"current_range_meters":38800,"station_id":"ce4bh9p2rcd13ifvqed0","pricing_plan_id":"cebpf4jnsgd1na2vs0mg"},{"bike_id":"2f19d9b2-60a0-45bf-bf48-04c9ce231242","system_id":"levelo_inurba_marseille","lat":43.25576,"lon":5.38246,"is_reserved":false,"is_disabled":false,"rental_uris":{"android":"levelo://app?vid=2f19d9b2-60a0-45bf-bf48-04c9ce231242","ios":"levelo://app?vid=2f19d9b2-60a0-45bf-bf48-04c9ce231242"},"vehicle_type_id":"4","last_reported":1728839214,"current_range_meters":7200,"station_id":"ce4bhih2rcd13ifvqfs0","pricing_plan_id":"cebpf4jnsgd1na2vs0mg"},{"bike_id":"198ce697-5342-44a7-9b12-6a353b3d3d97","system_id":"levelo_inurba_marseille","lat":43.260162,"lon":5.394184,"is_reserved":false,"is_disabled":false,"rental_uris":{"android":"levelo://app?vid=198ce697-5342-44a7-9b12-6a353b3d3d97","ios":"levelo://app?vid=198ce697-5342-44a7-9b12-6a353b3d3d97"},"vehicle_type_id":"4","last_reported":1728839214,"current_range_meters":24400,"station_id":"","pricing_plan_id":"cebpf4jnsgd1na2vs0mg"},{"bike_id":"c1bbfdac-e5be-4d32-8dee-fcec9c9bfc09","system_id":"levelo_inurba_marseille","lat":43.28414,"lon":5.37512,"is_reserved":false,"is_disabled":false,"rental_uris":{"android":"levelo://app?vid=c1bbfdac-e5be-4d32-8dee-fcec9c9bfc09","ios":"levelo://app?vid=c1bbfdac-e5be-4d32-8dee-fcec9c9bfc09"},"vehicle_type_id":"4","last_reported":1728839214,"current_range_meters":8800,"station_id":"ce4bh412rcd13ifvqds0","pricing_plan_id":"cebpf4jnsgd1na2vs0mg"},{"bike_id":"99222104-04be-4636-8222-4586012a9f49","system_id":"levelo_inurba_marseille","lat":43.33721,"lon":5.39188,"is_reserved":false,"is_disabled":false,"rental_uris":{"android":"levelo://app?vid=99222104-04be-4636-8222-4586012a9f49","ios":"levelo://app?vid=99222104-04be-4636-8222-4586012a9f49"},"vehicle_type_id":"4","last_reported":1728839214,"current_range_meters":9200,"station_id":"ce4bhr92rcd13ifvqhsg","pricing_plan_id":"cebpf4jnsgd1na2vs0mg"},{"bike_id":"9817715c-5c44-4f6b-a16d-7800214c7c56","system_id":"levelo_inurba_marseille","lat":43.28928,"lon":5.36398,"is_reserved":false,"is_disabled":false,"rental_uris":{"android":"levelo://app?vid=9817715c-5c44-4f6b-a16d-7800214c7c56","ios":"levelo://app?vid=9817715c-5c44-4f6b-a16d-7800214c7c56"},"vehicle_type_id":"4","last_reported":1728839214,"current_range_meters":2800,"station_id":"ce4bhc92rcd13ifvqetg","pricing_plan_id":"cebpf4jnsgd1na2vs0mg"},{"bike_id":"9ffd8216-2034-4d05-810f-5ffd9afa23c6","system_id":"levelo_inurba_marseille","lat":43.29898,"lon":5.38138,"is_reserved":false,"is_disabled":false,"rental_uris":{"android":"levelo://app?vid=9ffd8216-2034-4d05-810f-5ffd9afa23c6","ios":"levelo://app?vid=9ffd8216-2034-4d05-810f-5ffd9afa23c6"},"vehicle_type_id":"4","last_reported":1728839214,"current_range_meters":38800,"station_id":"ce4bgj12rcd13ifvqbc0","pricing_plan_id":"cebpf4jnsgd1na2vs0mg"},{"bike_id":"600a6ea5-5c70-4f25-9b57-c621b8210681","system_id":"levelo_inurba_marseille","lat":43.32666,"lon":5.40983,"is_reserved":false,"is_disabled":false,"rental_uris":{"android":"levelo://app?vid=600a6ea5-5c70-4f25-9b57-c621b8210681","ios":"levelo://app?vid=600a6ea5-5c70-4f25-9b57-c621b8210681"},"vehicle_type_id":"4","last_reported":1728839214,"current_range_meters":27600,"station_id":"ce4bhpp2rcd13ifvqhgg","pricing_plan_id":"cebpf4jnsgd1na2vs0mg"},{"bike_id":"bf8a119f-d03d-4d45-9c38-8b50ea7b594b","system_id":"levelo_inurba_marseille","lat":43.2978,"lon":5.37114,"is_reserved":false,"is_disabled":false,"rental_uris":{"android":"levelo://app?vid=bf8a119f-d03d-4d45-9c38-8b50ea7b594b","ios":"levelo://app?vid=bf8a119f-d03d-4d45-9c38-8b50ea7b594b"},"vehicle_type_id":"4","last_reported":1728839214,"current_range_meters":38000,"station_id":"ce4bgop2rcd13ifvqc1g","pricing_plan_id":"cebpf4jnsgd1na2vs0mg"},{"bike_id":"3c25dded-f8d5-4193-a336-9fad641c4aac","system_id":"levelo_inurba_marseille","lat":43.33752,"lon":5.3748,"is_reserved":false,"is_disabled":false,"rental_uris":{"android":"levelo://app?vid=3c25dded-f8d5-4193-a336-9fad641c4aac","ios":"levelo://app?vid=3c25dded-f8d5-4193-a336-9fad641c4aac"},"vehicle_type_id":"4","last_reported":1728839214,"current_range_meters":28800,"station_id":"","pricing_plan_id":"cebpf4jnsgd1na2vs0mg"},{"bike_id":"d09ed498-99a8-493b-ac3c-4454244dde9c","system_id":"levelo_inurba_marseille","lat":43.23177,"lon":5.39986,"is_reserved":false,"is_disabled":false,"rental_uris":{"android":"levelo://app?vid=d09ed498-99a8-493b-ac3c-4454244dde9c","ios":"levelo://app?vid=d09ed498-99a8-493b-ac3c-4454244dde9c"},"vehicle_type_id":"4","last_reported":1728839214,"current_range_meters":34000,"station_id":"ce4bhn12rcd13ifvqgqg","pricing_plan_id":"cebpf4jnsgd1na2vs0mg"},{"bike_id":"15c9a6c6-1acf-489f-87cc-327eea868f59","system_id":"levelo_inurba_marseille","lat":43.279938,"lon":5.41662,"is_reserved":false,"is_disabled":false,"rental_uris":{"android":"levelo://app?vid=15c9a6c6-1acf-489f-87cc-327eea868f59","ios":"levelo://app?vid=15c9a6c6-1acf-489f-87cc-327eea868f59"},"vehicle_type_id":"4","last_reported":1728839214,"current_range_meters":24800,"station_id":"","pricing_plan_id":"cebpf4jnsgd1na2vs0mg"},{"bike_id":"bee83a7d-7b1b-4d6a-9d5f-5f9d3788fd05","system_id":"levelo_inurba_marseille","lat":43.288483,"lon":5.392944,"is_reserved":false,"is_disabled":false,"rental_uris":{"android":"levelo://app?vid=bee83a7d-7b1b-4d6a-9d5f-5f9d3788fd05","ios":"levelo://app?vid=bee83a7d-7b1b-4d6a-9d5f-5f9d3788fd05"},"vehicle_type_id":"4","last_reported":1728839214,"current_range_meters":8800,"station_id":"ce4bh2p2rcd13ifvqdi0","pricing_plan_id":"cebpf4jnsgd1na2vs0mg"},{"bike_id":"8ce73dd8-1ada-43d3-a357-e7d88cdeeccc","system_id":"levelo_inurba_marseille","lat":43.28396,"lon":5.37525,"is_reserved":false,"is_disabled":false,"rental_uris":{"android":"levelo://app?vid=8ce73dd8-1ada-43d3-a357-e7d88cdeeccc","ios":"levelo://app?vid=8ce73dd8-1ada-43d3-a357-e7d88cdeeccc"},"vehicle_type_id":"4","last_reported":1728839214,"current_range_meters":30400,"station_id":"ce4bh412rcd13ifvqds0","pricing_plan_id":"cebpf4jnsgd1na2vs0mg"},{"bike_id":"43c8c4a0-6972-457c-90b1-b8a8b08e2f7c","system_id":"levelo_inurba_marseille","lat":43.29031,"lon":5.39968,"is_reserved":false,"is_disabled":false,"rental_uris":{"android":"levelo://app?vid=43c8c4a0-6972-457c-90b1-b8a8b08e2f7c","ios":"levelo://app?vid=43c8c4a0-6972-457c-90b1-b8a8b08e2f7c"},"vehicle_type_id":"4","last_reported":1728839214,"current_range_meters":8800,"station_id":"ce4bh392rcd13ifvqdm0","pricing_plan_id":"cebpf4jnsgd1na2vs0mg"},{"bike_id":"2823dd31-81b3-4192-9640-af97a45ae76f","system_id":"levelo_inurba_marseille","lat":43.298,"lon":5.38103,"is_reserved":false,"is_disabled":false,"rental_uris":{"android":"levelo://app?vid=2823dd31-81b3-4192-9640-af97a45ae76f","ios":"levelo://app?vid=2823dd31-81b3-4192-9640-af97a45ae76f"},"vehicle_type_id":"4","last_reported":1728839214,"current_range_meters":38800,"station_id":"ce4bgip2rcd13ifvqbb0","pricing_plan_id":"cebpf4jnsgd1na2vs0mg"},{"bike_id":"c54bceb6-59e4-484a-bf52-14e58836e1b3","system_id":"levelo_inurba_marseille","lat":43.29281,"lon":5.40129,"is_reserved":false,"is_disabled":false,"rental_uris":{"android":"levelo://app?vid=c54bceb6-59e4-484a-bf52-14e58836e1b3","ios":"levelo://app?vid=c54bceb6-59e4-484a-bf52-14e58836e1b3"},"vehicle_type_id":"4","last_reported":1728839214,"current_range_meters":5600,"station_id":"ce4bh312rcd13ifvqdk0","pricing_plan_id":"cebpf4jnsgd1na2vs0mg"},{"bike_id":"8fc54e32-2dad-4cfe-867b-a52e651d7f0f","system_id":"levelo_inurba_marseille","lat":43.25558,"lon":5.40385,"is_reserved":false,"is_disabled":false,"rental_uris":{"android":"levelo://app?vid=8fc54e32-2dad-4cfe-867b-a52e651d7f0f","ios":"levelo://app?vid=8fc54e32-2dad-4cfe-867b-a52e651d7f0f"},"vehicle_type_id":"4","last_reported":1728839214,"current_range_meters":13600,"station_id":"","pricing_plan_id":"cebpf4jnsgd1na2vs0mg"},{"bike_id":"86186f32-9539-45ee-a7a6-fdf087155fa2","system_id":"levelo_inurba_marseille","lat":43.311554,"lon":5.377524,"is_reserved":false,"is_disabled":false,"rental_uris":{"android":"levelo://app?vid=86186f32-9539-45ee-a7a6-fdf087155fa2","ios":"levelo://app?vid=86186f32-9539-45ee-a7a6-fdf087155fa2"},"vehicle_type_id":"4","last_reported":1728839214,"current_range_meters":8000,"station_id":"ce4bgt92rcd13ifvqcg0","pricing_plan_id":"cebpf4jnsgd1na2vs0mg"},{"bike_id":"5b7c7875-1d91-4ce1-8c6a-18c2464c67f1","system_id":"levelo_inurba_marseille","lat":43.32191,"lon":5.38737,"is_reserved":false,"is_disabled":false,"rental_uris":{"android":"levelo://app?vid=5b7c7875-1d91-4ce1-8c6a-18c2464c67f1","ios":"levelo://app?vid=5b7c7875-1d91-4ce1-8c6a-18c2464c67f1"},"vehicle_type_id":"4","last_reported":1728839214,"current_range_meters":9600,"station_id":"","pricing_plan_id":"cebpf4jnsgd1na2vs0mg"},{"bike_id":"c1227e82-9fc0-49c7-8e61-27586c34c01c","system_id":"levelo_inurba_marseille","lat":43.298925,"lon":5.401644,"is_reserved":false,"is_disabled":false,"rental_uris":{"android":"levelo://app?vid=c1227e82-9fc0-49c7-8e61-27586c34c01c","ios":"levelo://app?vid=c1227e82-9fc0-49c7-8e61-27586c34c01c"},"vehicle_type_id":"4","last_reported":1728839214,"current_range_meters":6400,"station_id":"ce4bh0h2rcd13ifvqd60","pricing_plan_id":"cebpf4jnsgd1na2vs0mg"},{"bike_id":"725c0318-f42a-455c-b540-b81cdbed32a0","system_id":"levelo_inurba_marseille","lat":43.27812,"lon":5.39227,"is_reserved":false,"is_disabled":false,"rental_uris":{"android":"levelo://app?vid=725c0318-f42a-455c-b540-b81cdbed32a0","ios":"levelo://app?vid=725c0318-f42a-455c-b540-b81cdbed32a0"},"vehicle_type_id":"4","last_reported":1728839214,"current_range_meters":31200,"station_id":"ce4bhjp2rcd13ifvqga0","pricing_plan_id":"cebpf4jnsgd1na2vs0mg"},{"bike_id":"00ca1086-011a-4e65-b7f7-9155d72420fa","system_id":"levelo_inurba_marseille","lat":43.299408,"lon":5.374646,"is_reserved":false,"is_disabled":false,"rental_uris":{"android":"levelo://app?vid=00ca1086-011a-4e65-b7f7-9155d72420fa","ios":"levelo://app?vid=00ca1086-011a-4e65-b7f7-9155d72420fa"},"vehicle_type_id":"4","last_reported":1728839214,"current_range_meters":38800,"station_id":"ce4bgjh2rcd13ifvqbg0","pricing_plan_id":"cebpf4jnsgd1na2vs0mg"},{"bike_id":"7e9b73b9-aeac-4c8b-9947-52611624cdf5","system_id":"levelo_inurba_marseille","lat":43.284027,"lon":5.375062,"is_reserved":false,"is_disabled":false,"rental_uris":{"android":"levelo://app?vid=7e9b73b9-aeac-4c8b-9947-52611624cdf5","ios":"levelo://app?vid=7e9b73b9-aeac-4c8b-9947-52611624cdf5"},"vehicle_type_id":"4","last_reported":1728839214,"current_range_meters":30000,"station_id":"ce4bh412rcd13ifvqds0","pricing_plan_id":"cebpf4jnsgd1na2vs0mg"},{"bike_id":"8af4aa04-71c6-48e0-b118-119c9302970d","system_id":"levelo_inurba_marseille","lat":43.23197,"lon":5.35546,"is_reserved":false,"is_disabled":false,"rental_uris":{"android":"levelo://app?vid=8af4aa04-71c6-48e0-b118-119c9302970d","ios":"levelo://app?vid=8af4aa04-71c6-48e0-b118-119c9302970d"},"vehicle_type_id":"4","last_reported":1728839214,"current_range_meters":26800,"station_id":"ce4bhu92rcd13ifvqi70","pricing_plan_id":"cebpf4jnsgd1na2vs0mg"},{"bike_id":"afb14197-0e99-4f49-9a4f-07cfb8a08176","system_id":"levelo_inurba_marseille","lat":43.284121,"lon":5.392932,"is_reserved":false,"is_disabled":false,"rental_uris":{"android":"levelo://app?vid=afb14197-0e99-4f49-9a4f-07cfb8a08176","ios":"levelo://app?vid=afb14197-0e99-4f49-9a4f-07cfb8a08176"},"vehicle_type_id":"4","last_reported":1728839214,"current_range_meters":10800,"station_id":"ce4bhoh2rcd13ifvqh5g","pricing_plan_id":"cebpf4jnsgd1na2vs0mg"},{"bike_id":"82364d97-9f7e-481a-be71-e706ab7ff751","system_id":"levelo_inurba_marseille","lat":43.30279,"lon":5.37705,"is_reserved":false,"is_disabled":false,"rental_uris":{"android":"levelo://app?vid=82364d97-9f7e-481a-be71-e706ab7ff751","ios":"levelo://app?vid=82364d97-9f7e-481a-be71-e706ab7ff751"},"vehicle_type_id":"4","last_reported":1728839214,"current_range_meters":25200,"station_id":"ce4bguh2rcd13ifvqcj0","pricing_plan_id":"cebpf4jnsgd1na2vs0mg"},{"bike_id":"1fae3049-330f-4fe7-83df-28cd6552c7bb","system_id":"levelo_inurba_marseille","lat":43.2318,"lon":5.39987,"is_reserved":false,"is_disabled":false,"rental_uris":{"android":"levelo://app?vid=1fae3049-330f-4fe7-83df-28cd6552c7bb","ios":"levelo://app?vid=1fae3049-330f-4fe7-83df-28cd6552c7bb"},"vehicle_type_id":"4","last_reported":1728839214,"current_range_meters":32000,"station_id":"ce4bhn12rcd13ifvqgqg","pricing_plan_id":"cebpf4jnsgd1na2vs0mg"},{"bike_id":"439c19c5-2a39-4500-a49d-d16b6237f3a1","system_id":"levelo_inurba_marseille","lat":43.30914,"lon":5.36857,"is_reserved":false,"is_disabled":false,"rental_uris":{"android":"levelo://app?vid=439c19c5-2a39-4500-a49d-d16b6237f3a1","ios":"levelo://app?vid=439c19c5-2a39-4500-a49d-d16b6237f3a1"},"vehicle_type_id":"4","last_reported":1728839214,"current_range_meters":7200,"station_id":"ce4bgn92rcd13ifvqbvg","pricing_plan_id":"cebpf4jnsgd1na2vs0mg"},{"bike_id":"4948468f-596e-4b88-b5f3-90e6417e5ae1","system_id":"levelo_inurba_marseille","lat":43.24663,"lon":5.38164,"is_reserved":false,"is_disabled":false,"rental_uris":{"android":"levelo://app?vid=4948468f-596e-4b88-b5f3-90e6417e5ae1","ios":"levelo://app?vid=4948468f-596e-4b88-b5f3-90e6417e5ae1"},"vehicle_type_id":"4","last_reported":1728839214,"current_range_meters":24000,"station_id":"ce4bhih2rcd13ifvqfr0","pricing_plan_id":"cebpf4jnsgd1na2vs0mg"},{"bike_id":"02d79aec-031a-476e-acef-da9c34364fd6","system_id":"levelo_inurba_marseille","lat":43.27497,"lon":5.42447,"is_reserved":false,"is_disabled":false,"rental_uris":{"android":"levelo://app?vid=02d79aec-031a-476e-acef-da9c34364fd6","ios":"levelo://app?vid=02d79aec-031a-476e-acef-da9c34364fd6"},"vehicle_type_id":"4","last_reported":1728839214,"current_range_meters":34800,"station_id":"ce4bhn92rcd13ifvqgrg","pricing_plan_id":"cebpf4jnsgd1na2vs0mg"},{"bike_id":"d9da2d0b-6018-4002-a21f-6a277cdf5370","system_id":"levelo_inurba_marseille","lat":43.26192,"lon":5.37454,"is_reserved":false,"is_disabled":false,"rental_uris":{"android":"levelo://app?vid=d9da2d0b-6018-4002-a21f-6a277cdf5370","ios":"levelo://app?vid=d9da2d0b-6018-4002-a21f-6a277cdf5370"},"vehicle_type_id":"4","last_reported":1728839214,"current_range_meters":1600,"station_id":"ce4bgs12rcd13ifvqcag","pricing_plan_id":"cebpf4jnsgd1na2vs0mg"},{"bike_id":"11cd9247-d511-4a76-ace0-74c0a8d7bc52","system_id":"levelo_inurba_marseille","lat":43.28697,"lon":5.37392,"is_reserved":false,"is_disabled":false,"rental_uris":{"android":"levelo://app?vid=11cd9247-d511-4a76-ace0-74c0a8d7bc52","ios":"levelo://app?vid=11cd9247-d511-4a76-ace0-74c0a8d7bc52"},"vehicle_type_id":"4","last_reported":1728839214,"current_range_meters":4400,"station_id":"ce4bh3p2rcd13ifvqdq0","pricing_plan_id":"cebpf4jnsgd1na2vs0mg"},{"bike_id":"34d75904-04a7-428e-b364-41610b243e6f","system_id":"levelo_inurba_marseille","lat":43.2979,"lon":5.3811,"is_reserved":false,"is_disabled":false,"rental_uris":{"android":"levelo://app?vid=34d75904-04a7-428e-b364-41610b243e6f","ios":"levelo://app?vid=34d75904-04a7-428e-b364-41610b243e6f"},"vehicle_type_id":"4","last_reported":1728839214,"current_range_meters":38800,"station_id":"ce4bgip2rcd13ifvqbb0","pricing_plan_id":"cebpf4jnsgd1na2vs0mg"},{"bike_id":"6d6261ad-43ad-47ca-a616-12926281a5e7","system_id":"levelo_inurba_marseille","lat":43.28152,"lon":5.42646,"is_reserved":false,"is_disabled":false,"rental_uris":{"android":"levelo://app?vid=6d6261ad-43ad-47ca-a616-12926281a5e7","ios":"levelo://app?vid=6d6261ad-43ad-47ca-a616-12926281a5e7"},"vehicle_type_id":"4","last_reported":1728839214,"current_range_meters":3600,"station_id":"","pricing_plan_id":"cebpf4jnsgd1na2vs0mg"},{"bike_id":"359fc57d-a7cf-4261-9227-eb8022a42e99","system_id":"levelo_inurba_marseille","lat":43.29004,"lon":5.35616,"is_reserved":false,"is_disabled":false,"rental_uris":{"android":"levelo://app?vid=359fc57d-a7cf-4261-9227-eb8022a42e99","ios":"levelo://app?vid=359fc57d-a7cf-4261-9227-eb8022a42e99"},"vehicle_type_id":"4","last_reported":1728839214,"current_range_meters":39200,"station_id":"ce4bhb92rcd13ifvqen0","pricing_plan_id":"cebpf4jnsgd1na2vs0mg"},{"bike_id":"f1af36da-def5-43e1-b70b-9f7f875a40ee","system_id":"levelo_inurba_marseille","lat":43.27071,"lon":5.42279,"is_reserved":false,"is_disabled":false,"rental_uris":{"android":"levelo://app?vid=f1af36da-def5-43e1-b70b-9f7f875a40ee","ios":"levelo://app?vid=f1af36da-def5-43e1-b70b-9f7f875a40ee"},"vehicle_type_id":"4","last_reported":1728839214,"current_range_meters":16000,"station_id":"ce4bhk92rcd13ifvqgb0","pricing_plan_id":"cebpf4jnsgd1na2vs0mg"},{"bike_id":"94fa3b90-a1e3-433f-bb14-2e282b5eb262","system_id":"levelo_inurba_marseille","lat":43.29326,"lon":5.41163,"is_reserved":false,"is_disabled":false,"rental_uris":{"android":"levelo://app?vid=94fa3b90-a1e3-433f-bb14-2e282b5eb262","ios":"levelo://app?vid=94fa3b90-a1e3-433f-bb14-2e282b5eb262"},"vehicle_type_id":"4","last_reported":1728839214,"current_range_meters":22400,"station_id":"","pricing_plan_id":"cebpf4jnsgd1na2vs0mg"},{"bike_id":"321aa6c4-16d5-4b82-889f-8dd2f130cc60","system_id":"levelo_inurba_marseille","lat":43.2861,"lon":5.37064,"is_reserved":false,"is_disabled":false,"rental_uris":{"android":"levelo://app?vid=321aa6c4-16d5-4b82-889f-8dd2f130cc60","ios":"levelo://app?vid=321aa6c4-16d5-4b82-889f-8dd2f130cc60"},"vehicle_type_id":"4","last_reported":1728839214,"current_range_meters":33600,"station_id":"ce4bht12rcd13ifvqi60","pricing_plan_id":"cebpf4jnsgd1na2vs0mg"},{"bike_id":"9b3d51ed-c9d6-4405-8c25-5860c10ad560","system_id":"levelo_inurba_marseille","lat":43.25821,"lon":5.39435,"is_reserved":false,"is_disabled":false,"rental_uris":{"android":"levelo://app?vid=9b3d51ed-c9d6-4405-8c25-5860c10ad560","ios":"levelo://app?vid=9b3d51ed-c9d6-4405-8c25-5860c10ad560"},"vehicle_type_id":"4","last_reported":1728839214,"current_range_meters":18000,"station_id":"ce4bhip2rcd13ifvqft0","pricing_plan_id":"cebpf4jnsgd1na2vs0mg"},{"bike_id":"994eebdf-02ca-40ed-bba5-36a21b70eee5","system_id":"levelo_inurba_marseille","lat":43.29552,"lon":5.42296,"is_reserved":false,"is_disabled":false,"rental_uris":{"android":"levelo://app?vid=994eebdf-02ca-40ed-bba5-36a21b70eee5","ios":"levelo://app?vid=994eebdf-02ca-40ed-bba5-36a21b70eee5"},"vehicle_type_id":"4","last_reported":1728839214,"current_range_meters":32800,"station_id":"ce4bhph2rcd13ifvqhdg","pricing_plan_id":"cebpf4jnsgd1na2vs0mg"},{"bike_id":"4e5a5518-9f9b-429c-996a-3af6d4d3d94d","system_id":"levelo_inurba_marseille","lat":43.28437,"lon":5.3921,"is_reserved":false,"is_disabled":false,"rental_uris":{"android":"levelo://app?vid=4e5a5518-9f9b-429c-996a-3af6d4d3d94d","ios":"levelo://app?vid=4e5a5518-9f9b-429c-996a-3af6d4d3d94d"},"vehicle_type_id":"4","last_reported":1728839214,"current_range_meters":19600,"station_id":"ce4bhoh2rcd13ifvqh5g","pricing_plan_id":"cebpf4jnsgd1na2vs0mg"},{"bike_id":"7a8d692b-8f87-43f2-bdf7-c6de0eba6f75","system_id":"levelo_inurba_marseille","lat":43.29033,"lon":5.39962,"is_reserved":false,"is_disabled":false,"rental_uris":{"android":"levelo://app?vid=7a8d692b-8f87-43f2-bdf7-c6de0eba6f75","ios":"levelo://app?vid=7a8d692b-8f87-43f2-bdf7-c6de0eba6f75"},"vehicle_type_id":"4","last_reported":1728839214,"current_range_meters":17200,"station_id":"ce4bh392rcd13ifvqdm0","pricing_plan_id":"cebpf4jnsgd1na2vs0mg"},{"bike_id":"9294bdd6-c99f-49a9-8d69-931f92b73f6c","system_id":"levelo_inurba_marseille","lat":43.29417,"lon":5.38628,"is_reserved":false,"is_disabled":false,"rental_uris":{"android":"levelo://app?vid=9294bdd6-c99f-49a9-8d69-931f92b73f6c","ios":"levelo://app?vid=9294bdd6-c99f-49a9-8d69-931f92b73f6c"},"vehicle_type_id":"4","last_reported":1728839214,"current_range_meters":20800,"station_id":"ce4bh2h2rcd13ifvqdh0","pricing_plan_id":"cebpf4jnsgd1na2vs0mg"},{"bike_id":"aa39c7ff-b6f3-4211-8a48-26ec68172e41","system_id":"levelo_inurba_marseille","lat":43.231951,"lon":5.355502,"is_reserved":false,"is_disabled":false,"rental_uris":{"android":"levelo://app?vid=aa39c7ff-b6f3-4211-8a48-26ec68172e41","ios":"levelo://app?vid=aa39c7ff-b6f3-4211-8a48-26ec68172e41"},"vehicle_type_id":"4","last_reported":1728839214,"current_range_meters":24800,"station_id":"ce4bhu92rcd13ifvqi70","pricing_plan_id":"cebpf4jnsgd1na2vs0mg"},{"bike_id":"5e387a9c-5c16-4428-9f88-6bcd3780c012","system_id":"levelo_inurba_marseille","lat":43.32031,"lon":5.4156,"is_reserved":false,"is_disabled":false,"rental_uris":{"android":"levelo://app?vid=5e387a9c-5c16-4428-9f88-6bcd3780c012","ios":"levelo://app?vid=5e387a9c-5c16-4428-9f88-6bcd3780c012"},"vehicle_type_id":"4","last_reported":1728839214,"current_range_meters":16000,"station_id":"ce4bhq92rcd13ifvqhkg","pricing_plan_id":"cebpf4jnsgd1na2vs0mg"},{"bike_id":"54d8198c-2280-42d1-a02d-dafc7e5a2616","system_id":"levelo_inurba_marseille","lat":43.29817,"lon":5.42011,"is_reserved":false,"is_disabled":false,"rental_uris":{"android":"levelo://app?vid=54d8198c-2280-42d1-a02d-dafc7e5a2616","ios":"levelo://app?vid=54d8198c-2280-42d1-a02d-dafc7e5a2616"},"vehicle_type_id":"4","last_reported":1728839214,"current_range_meters":22800,"station_id":"","pricing_plan_id":"cebpf4jnsgd1na2vs0mg"},{"bike_id":"d191e2d5-d0f0-4e0b-89ef-e919da926c00","system_id":"levelo_inurba_marseille","lat":43.29928,"lon":5.36543,"is_reserved":false,"is_disabled":false,"rental_uris":{"android":"levelo://app?vid=d191e2d5-d0f0-4e0b-89ef-e919da926c00","ios":"levelo://app?vid=d191e2d5-d0f0-4e0b-89ef-e919da926c00"},"vehicle_type_id":"4","last_reported":1728839214,"current_range_meters":2000,"station_id":"ce4bgm92rcd13ifvqbr0","pricing_plan_id":"cebpf4jnsgd1na2vs0mg"},{"bike_id":"0e665600-beb7-4d23-bf0f-3ae3aaada6e9","system_id":"levelo_inurba_marseille","lat":43.29709,"lon":5.40059,"is_reserved":false,"is_disabled":false,"rental_uris":{"android":"levelo://app?vid=0e665600-beb7-4d23-bf0f-3ae3aaada6e9","ios":"levelo://app?vid=0e665600-beb7-4d23-bf0f-3ae3aaada6e9"},"vehicle_type_id":"4","last_reported":1728839214,"current_range_meters":19600,"station_id":"","pricing_plan_id":"cebpf4jnsgd1na2vs0mg"},{"bike_id":"e1bc4a9d-4ff2-496b-8b84-be131e2d862e","system_id":"levelo_inurba_marseille","lat":43.30927,"lon":5.40152,"is_reserved":false,"is_disabled":false,"rental_uris":{"android":"levelo://app?vid=e1bc4a9d-4ff2-496b-8b84-be131e2d862e","ios":"levelo://app?vid=e1bc4a9d-4ff2-496b-8b84-be131e2d862e"},"vehicle_type_id":"4","last_reported":1728839214,"current_range_meters":8400,"station_id":"ce4bgvp2rcd13ifvqct0","pricing_plan_id":"cebpf4jnsgd1na2vs0mg"},{"bike_id":"8cbcd36d-beea-4162-ac45-29fb8276a8fb","system_id":"levelo_inurba_marseille","lat":43.30143,"lon":5.37422,"is_reserved":false,"is_disabled":false,"rental_uris":{"android":"levelo://app?vid=8cbcd36d-beea-4162-ac45-29fb8276a8fb","ios":"levelo://app?vid=8cbcd36d-beea-4162-ac45-29fb8276a8fb"},"vehicle_type_id":"4","last_reported":1728839214,"current_range_meters":37600,"station_id":"ce4bgs92rcd13ifvqcc0","pricing_plan_id":"cebpf4jnsgd1na2vs0mg"},{"bike_id":"6932efd0-7ffc-4001-8a25-fd6ad1b0183b","system_id":"levelo_inurba_marseille","lat":43.29042,"lon":5.35913,"is_reserved":false,"is_disabled":false,"rental_uris":{"android":"levelo://app?vid=6932efd0-7ffc-4001-8a25-fd6ad1b0183b","ios":"levelo://app?vid=6932efd0-7ffc-4001-8a25-fd6ad1b0183b"},"vehicle_type_id":"4","last_reported":1728839214,"current_range_meters":4400,"station_id":"","pricing_plan_id":"cebpf4jnsgd1na2vs0mg"},{"bike_id":"334e5152-bd51-4b5a-8a88-5f014da7b84b","system_id":"levelo_inurba_marseille","lat":43.31723,"lon":5.42396,"is_reserved":false,"is_disabled":false,"rental_uris":{"android":"levelo://app?vid=334e5152-bd51-4b5a-8a88-5f014da7b84b","ios":"levelo://app?vid=334e5152-bd51-4b5a-8a88-5f014da7b84b"},"vehicle_type_id":"4","last_reported":1728839214,"current_range_meters":20000,"station_id":"ce4bhp92rcd13ifvqhbg","pricing_plan_id":"cebpf4jnsgd1na2vs0mg"},{"bike_id":"b085791c-3a74-4f2b-8ef5-ef85cfb5b702","system_id":"levelo_inurba_marseille","lat":43.27947,"lon":5.41052,"is_reserved":false,"is_disabled":false,"rental_uris":{"android":"levelo://app?vid=b085791c-3a74-4f2b-8ef5-ef85cfb5b702","ios":"levelo://app?vid=b085791c-3a74-4f2b-8ef5-ef85cfb5b702"},"vehicle_type_id":"4","last_reported":1728839214,"current_range_meters":12000,"station_id":"ce4bhnp2rcd13ifvqh0g","pricing_plan_id":"cebpf4jnsgd1na2vs0mg"},{"bike_id":"64022217-6f17-42f8-8dc1-50503c9eac8e","system_id":"levelo_inurba_marseille","lat":43.32485,"lon":5.36567,"is_reserved":false,"is_disabled":false,"rental_uris":{"android":"levelo://app?vid=64022217-6f17-42f8-8dc1-50503c9eac8e","ios":"levelo://app?vid=64022217-6f17-42f8-8dc1-50503c9eac8e"},"vehicle_type_id":"4","last_reported":1728839214,"current_range_meters":36800,"station_id":"ce4bhs12rcd13ifvqhvg","pricing_plan_id":"cebpf4jnsgd1na2vs0mg"},{"bike_id":"38ad9d4b-00fe-40fe-8af0-26a063647d96","system_id":"levelo_inurba_marseille","lat":43.33765,"lon":5.37449,"is_reserved":false,"is_disabled":false,"rental_uris":{"android":"levelo://app?vid=38ad9d4b-00fe-40fe-8af0-26a063647d96","ios":"levelo://app?vid=38ad9d4b-00fe-40fe-8af0-26a063647d96"},"vehicle_type_id":"4","last_reported":1728839214,"current_range_meters":32400,"station_id":"","pricing_plan_id":"cebpf4jnsgd1na2vs0mg"},{"bike_id":"4edce656-0a51-4c2a-864e-e04e68e72589","system_id":"levelo_inurba_marseille","lat":43.28151,"lon":5.42654,"is_reserved":false,"is_disabled":false,"rental_uris":{"android":"levelo://app?vid=4edce656-0a51-4c2a-864e-e04e68e72589","ios":"levelo://app?vid=4edce656-0a51-4c2a-864e-e04e68e72589"},"vehicle_type_id":"4","last_reported":1728839214,"current_range_meters":17200,"station_id":"ce4bhnh2rcd13ifvqgug","pricing_plan_id":"cebpf4jnsgd1na2vs0mg"},{"bike_id":"6d889ebb-c8b2-4ff6-98ad-d1c529bfa57b","system_id":"levelo_inurba_marseille","lat":43.23962,"lon":5.36635,"is_reserved":false,"is_disabled":false,"rental_uris":{"android":"levelo://app?vid=6d889ebb-c8b2-4ff6-98ad-d1c529bfa57b","ios":"levelo://app?vid=6d889ebb-c8b2-4ff6-98ad-d1c529bfa57b"},"vehicle_type_id":"4","last_reported":1728839214,"current_range_meters":38800,"station_id":"ce4bhi12rcd13ifvqfp0","pricing_plan_id":"cebpf4jnsgd1na2vs0mg"},{"bike_id":"2fe13f2e-7887-47ff-9b3b-3c94a27c931b","system_id":"levelo_inurba_marseille","lat":43.30328,"lon":5.40432,"is_reserved":false,"is_disabled":false,"rental_uris":{"android":"levelo://app?vid=2fe13f2e-7887-47ff-9b3b-3c94a27c931b","ios":"levelo://app?vid=2fe13f2e-7887-47ff-9b3b-3c94a27c931b"},"vehicle_type_id":"4","last_reported":1728839214,"current_range_meters":7200,"station_id":"ce4bh012rcd13ifvqd10","pricing_plan_id":"cebpf4jnsgd1na2vs0mg"},{"bike_id":"ff549c51-af0a-424b-8e0c-2b932f9efa00","system_id":"levelo_inurba_marseille","lat":43.28603,"lon":5.35657,"is_reserved":false,"is_disabled":false,"rental_uris":{"android":"levelo://app?vid=ff549c51-af0a-424b-8e0c-2b932f9efa00","ios":"levelo://app?vid=ff549c51-af0a-424b-8e0c-2b932f9efa00"},"vehicle_type_id":"4","last_reported":1728839214,"current_range_meters":8400,"station_id":"","pricing_plan_id":"cebpf4jnsgd1na2vs0mg"},{"bike_id":"654f68f4-62ff-45a8-858d-856a351b60dd","system_id":"levelo_inurba_marseille","lat":43.28465,"lon":5.35888,"is_reserved":false,"is_disabled":false,"rental_uris":{"android":"levelo://app?vid=654f68f4-62ff-45a8-858d-856a351b60dd","ios":"levelo://app?vid=654f68f4-62ff-45a8-858d-856a351b60dd"},"vehicle_type_id":"4","last_reported":1728839214,"current_range_meters":38800,"station_id":"ce4bhah2rcd13ifvqei0","pricing_plan_id":"cebpf4jnsgd1na2vs0mg"},{"bike_id":"232ba208-0d35-4ac0-ab83-05478cd15bfb","system_id":"levelo_inurba_marseille","lat":43.24392,"lon":5.37068,"is_reserved":false,"is_disabled":false,"rental_uris":{"android":"levelo://app?vid=232ba208-0d35-4ac0-ab83-05478cd15bfb","ios":"levelo://app?vid=232ba208-0d35-4ac0-ab83-05478cd15bfb"},"vehicle_type_id":"4","last_reported":1728839214,"current_range_meters":26800,"station_id":"ce4bhhh2rcd13ifvqfk0","pricing_plan_id":"cebpf4jnsgd1na2vs0mg"},{"bike_id":"c5a9e570-1661-48d9-94c7-14ade040a4b2","system_id":"levelo_inurba_marseille","lat":43.28612,"lon":5.37061,"is_reserved":false,"is_disabled":false,"rental_uris":{"android":"levelo://app?vid=c5a9e570-1661-48d9-94c7-14ade040a4b2","ios":"levelo://app?vid=c5a9e570-1661-48d9-94c7-14ade040a4b2"},"vehicle_type_id":"4","last_reported":1728839214,"current_range_meters":38800,"station_id":"ce4bht12rcd13ifvqi60","pricing_plan_id":"cebpf4jnsgd1na2vs0mg"},{"bike_id":"4166b254-8021-4c6b-8a69-c6055e20d191","system_id":"levelo_inurba_marseille","lat":43.2893,"lon":5.36397,"is_reserved":false,"is_disabled":false,"rental_uris":{"android":"levelo://app?vid=4166b254-8021-4c6b-8a69-c6055e20d191","ios":"levelo://app?vid=4166b254-8021-4c6b-8a69-c6055e20d191"},"vehicle_type_id":"4","last_reported":1728839214,"current_range_meters":28800,"station_id":"ce4bhc92rcd13ifvqetg","pricing_plan_id":"cebpf4jnsgd1na2vs0mg"},{"bike_id":"d787f6e4-06a8-4fbb-8f11-cc13e40333c0","system_id":"levelo_inurba_marseille","lat":43.30927,"lon":5.40149,"is_reserved":false,"is_disabled":false,"rental_uris":{"android":"levelo://app?vid=d787f6e4-06a8-4fbb-8f11-cc13e40333c0","ios":"levelo://app?vid=d787f6e4-06a8-4fbb-8f11-cc13e40333c0"},"vehicle_type_id":"4","last_reported":1728839214,"current_range_meters":8000,"station_id":"ce4bgvp2rcd13ifvqct0","pricing_plan_id":"cebpf4jnsgd1na2vs0mg"},{"bike_id":"11fd36d7-fca7-4cae-bf5d-e73b234c55e5","system_id":"levelo_inurba_marseille","lat":43.26562,"lon":5.39012,"is_reserved":false,"is_disabled":false,"rental_uris":{"android":"levelo://app?vid=11fd36d7-fca7-4cae-bf5d-e73b234c55e5","ios":"levelo://app?vid=11fd36d7-fca7-4cae-bf5d-e73b234c55e5"},"vehicle_type_id":"4","last_reported":1728839214,"current_range_meters":2800,"station_id":"ce4bhe12rcd13ifvqf30","pricing_plan_id":"cebpf4jnsgd1na2vs0mg"},{"bike_id":"ed024f04-459d-4348-9f33-2e140ff8aec1","system_id":"levelo_inurba_marseille","lat":43.28163,"lon":5.37715,"is_reserved":false,"is_disabled":false,"rental_uris":{"android":"levelo://app?vid=ed024f04-459d-4348-9f33-2e140ff8aec1","ios":"levelo://app?vid=ed024f04-459d-4348-9f33-2e140ff8aec1"},"vehicle_type_id":"4","last_reported":1728839214,"current_range_meters":30400,"station_id":"ce4bh412rcd13ifvqds0","pricing_plan_id":"cebpf4jnsgd1na2vs0mg"},{"bike_id":"610cb297-4d19-49fd-a164-08dc266b56f7","system_id":"levelo_inurba_marseille","lat":43.28607,"lon":5.37066,"is_reserved":false,"is_disabled":false,"rental_uris":{"android":"levelo://app?vid=610cb297-4d19-49fd-a164-08dc266b56f7","ios":"levelo://app?vid=610cb297-4d19-49fd-a164-08dc266b56f7"},"vehicle_type_id":"4","last_reported":1728839214,"current_range_meters":35600,"station_id":"ce4bht12rcd13ifvqi60","pricing_plan_id":"cebpf4jnsgd1na2vs0mg"},{"bike_id":"396405b2-6670-4bd6-aea1-1e38f83c8af1","system_id":"levelo_inurba_marseille","lat":43.31719,"lon":5.42398,"is_reserved":false,"is_disabled":false,"rental_uris":{"android":"levelo://app?vid=396405b2-6670-4bd6-aea1-1e38f83c8af1","ios":"levelo://app?vid=396405b2-6670-4bd6-aea1-1e38f83c8af1"},"vehicle_type_id":"4","last_reported":1728839214,"current_range_meters":32400,"station_id":"ce4bhp92rcd13ifvqhbg","pricing_plan_id":"cebpf4jnsgd1na2vs0mg"},{"bike_id":"862775e0-82ca-4f3e-8933-a8b4da4c7508","system_id":"levelo_inurba_marseille","lat":43.25724,"lon":5.41109,"is_reserved":false,"is_disabled":false,"rental_uris":{"android":"levelo://app?vid=862775e0-82ca-4f3e-8933-a8b4da4c7508","ios":"levelo://app?vid=862775e0-82ca-4f3e-8933-a8b4da4c7508"},"vehicle_type_id":"4","last_reported":1728839214,"current_range_meters":8800,"station_id":"ce4bhkp2rcd13ifvqgd0","pricing_plan_id":"cebpf4jnsgd1na2vs0mg"},{"bike_id":"c5e23241-0452-4d54-907a-d32e432545b7","system_id":"levelo_inurba_marseille","lat":43.29579,"lon":5.37504,"is_reserved":false,"is_disabled":false,"rental_uris":{"android":"levelo://app?vid=c5e23241-0452-4d54-907a-d32e432545b7","ios":"levelo://app?vid=c5e23241-0452-4d54-907a-d32e432545b7"},"vehicle_type_id":"4","last_reported":1728839214,"current_range_meters":38800,"station_id":"ce4bgh92rcd13ifvqb50","pricing_plan_id":"cebpf4jnsgd1na2vs0mg"},{"bike_id":"6ed67135-4d8d-42cc-a5ff-67b36766a46c","system_id":"levelo_inurba_marseille","lat":43.30815,"lon":5.38146,"is_reserved":false,"is_disabled":false,"rental_uris":{"android":"levelo://app?vid=6ed67135-4d8d-42cc-a5ff-67b36766a46c","ios":"levelo://app?vid=6ed67135-4d8d-42cc-a5ff-67b36766a46c"},"vehicle_type_id":"4","last_reported":1728839214,"current_range_meters":4000,"station_id":"ce4bgt12rcd13ifvqce0","pricing_plan_id":"cebpf4jnsgd1na2vs0mg"},{"bike_id":"d1ee0b26-71bf-4e62-a0da-f8adaab525a7","system_id":"levelo_inurba_marseille","lat":43.29273,"lon":5.36855,"is_reserved":false,"is_disabled":false,"rental_uris":{"android":"levelo://app?vid=d1ee0b26-71bf-4e62-a0da-f8adaab525a7","ios":"levelo://app?vid=d1ee0b26-71bf-4e62-a0da-f8adaab525a7"},"vehicle_type_id":"4","last_reported":1728839214,"current_range_meters":32800,"station_id":"ce4bhbp2rcd13ifvqesg","pricing_plan_id":"cebpf4jnsgd1na2vs0mg"},{"bike_id":"f4bc6023-3b78-47fc-8e15-a5411fb363e1","system_id":"levelo_inurba_marseille","lat":43.25087,"lon":5.39524,"is_reserved":false,"is_disabled":false,"rental_uris":{"android":"levelo://app?vid=f4bc6023-3b78-47fc-8e15-a5411fb363e1","ios":"levelo://app?vid=f4bc6023-3b78-47fc-8e15-a5411fb363e1"},"vehicle_type_id":"4","last_reported":1728839214,"current_range_meters":17200,"station_id":"ce4bhm12rcd13ifvqgkg","pricing_plan_id":"cebpf4jnsgd1na2vs0mg"},{"bike_id":"066c7f45-b694-4e32-99e3-0f6964e63380","system_id":"levelo_inurba_marseille","lat":43.279024,"lon":5.395917,"is_reserved":false,"is_disabled":false,"rental_uris":{"android":"levelo://app?vid=066c7f45-b694-4e32-99e3-0f6964e63380","ios":"levelo://app?vid=066c7f45-b694-4e32-99e3-0f6964e63380"},"vehicle_type_id":"4","last_reported":1728839214,"current_range_meters":7200,"station_id":"ce4bhf92rcd13ifvqf40","pricing_plan_id":"cebpf4jnsgd1na2vs0mg"},{"bike_id":"d6f211b8-db93-4210-afdf-5e92aad655b6","system_id":"levelo_inurba_marseille","lat":43.29518,"lon":5.39043,"is_reserved":false,"is_disabled":false,"rental_uris":{"android":"levelo://app?vid=d6f211b8-db93-4210-afdf-5e92aad655b6","ios":"levelo://app?vid=d6f211b8-db93-4210-afdf-5e92aad655b6"},"vehicle_type_id":"4","last_reported":1728839214,"current_range_meters":6800,"station_id":"ce4bh3p2rcd13ifvqdp0","pricing_plan_id":"cebpf4jnsgd1na2vs0mg"},{"bike_id":"e12f23f7-1855-4b5f-982a-6095c8d3842c","system_id":"levelo_inurba_marseille","lat":43.299777,"lon":5.384804,"is_reserved":false,"is_disabled":false,"rental_uris":{"android":"levelo://app?vid=e12f23f7-1855-4b5f-982a-6095c8d3842c","ios":"levelo://app?vid=e12f23f7-1855-4b5f-982a-6095c8d3842c"},"vehicle_type_id":"4","last_reported":1728839214,"current_range_meters":4000,"station_id":"ce4bgj92rcd13ifvqbd0","pricing_plan_id":"cebpf4jnsgd1na2vs0mg"},{"bike_id":"27fcf265-900f-454c-a3d9-344ce3626283","system_id":"levelo_inurba_marseille","lat":43.28465,"lon":5.35883,"is_reserved":false,"is_disabled":false,"rental_uris":{"android":"levelo://app?vid=27fcf265-900f-454c-a3d9-344ce3626283","ios":"levelo://app?vid=27fcf265-900f-454c-a3d9-344ce3626283"},"vehicle_type_id":"4","last_reported":1728839214,"current_range_meters":26800,"station_id":"ce4bhah2rcd13ifvqei0","pricing_plan_id":"cebpf4jnsgd1na2vs0mg"},{"bike_id":"ed0f4b1c-4c0d-4af8-a63f-c72abae83cd2","system_id":"levelo_inurba_marseille","lat":43.24389,"lon":5.37051,"is_reserved":false,"is_disabled":false,"rental_uris":{"android":"levelo://app?vid=ed0f4b1c-4c0d-4af8-a63f-c72abae83cd2","ios":"levelo://app?vid=ed0f4b1c-4c0d-4af8-a63f-c72abae83cd2"},"vehicle_type_id":"4","last_reported":1728839214,"current_range_meters":38800,"station_id":"ce4bhhh2rcd13ifvqfk0","pricing_plan_id":"cebpf4jnsgd1na2vs0mg"},{"bike_id":"138a7939-43b1-443a-9bd8-4ceba00d7d47","system_id":"levelo_inurba_marseille","lat":43.30552,"lon":5.36787,"is_reserved":false,"is_disabled":false,"rental_uris":{"android":"levelo://app?vid=138a7939-43b1-443a-9bd8-4ceba00d7d47","ios":"levelo://app?vid=138a7939-43b1-443a-9bd8-4ceba00d7d47"},"vehicle_type_id":"4","last_reported":1728839214,"current_range_meters":12800,"station_id":"ce4bgrp2rcd13ifvqc9g","pricing_plan_id":"cebpf4jnsgd1na2vs0mg"},{"bike_id":"525f60a0-7704-496f-819b-567804c5d464","system_id":"levelo_inurba_marseille","lat":43.26488,"lon":5.39553,"is_reserved":false,"is_disabled":false,"rental_uris":{"android":"levelo://app?vid=525f60a0-7704-496f-819b-567804c5d464","ios":"levelo://app?vid=525f60a0-7704-496f-819b-567804c5d464"},"vehicle_type_id":"4","last_reported":1728839214,"current_range_meters":36800,"station_id":"ce4bhi12rcd13ifvqfq0","pricing_plan_id":"cebpf4jnsgd1na2vs0mg"},{"bike_id":"5ee8372b-4cde-4f9f-9ccc-a13d449dd157","system_id":"levelo_inurba_marseille","lat":43.2963,"lon":5.40596,"is_reserved":false,"is_disabled":false,"rental_uris":{"android":"levelo://app?vid=5ee8372b-4cde-4f9f-9ccc-a13d449dd157","ios":"levelo://app?vid=5ee8372b-4cde-4f9f-9ccc-a13d449dd157"},"vehicle_type_id":"4","last_reported":1728839214,"current_range_meters":14000,"station_id":"ce4bh0h2rcd13ifvqd60","pricing_plan_id":"cebpf4jnsgd1na2vs0mg"},{"bike_id":"889c99b5-9401-4c6f-a949-5419c2108390","system_id":"levelo_inurba_marseille","lat":43.30683,"lon":5.400712,"is_reserved":false,"is_disabled":false,"rental_uris":{"android":"levelo://app?vid=889c99b5-9401-4c6f-a949-5419c2108390","ios":"levelo://app?vid=889c99b5-9401-4c6f-a949-5419c2108390"},"vehicle_type_id":"4","last_reported":1728839214,"current_range_meters":17600,"station_id":"ce4bh112rcd13ifvqda0","pricing_plan_id":"cebpf4jnsgd1na2vs0mg"},{"bike_id":"05673a35-6ae8-4cca-95b6-7fadc4efea43","system_id":"levelo_inurba_marseille","lat":43.29003,"lon":5.35613,"is_reserved":false,"is_disabled":false,"rental_uris":{"android":"levelo://app?vid=05673a35-6ae8-4cca-95b6-7fadc4efea43","ios":"levelo://app?vid=05673a35-6ae8-4cca-95b6-7fadc4efea43"},"vehicle_type_id":"4","last_reported":1728839214,"current_range_meters":16800,"station_id":"ce4bhb92rcd13ifvqen0","pricing_plan_id":"cebpf4jnsgd1na2vs0mg"},{"bike_id":"dd7649d1-06b5-40b0-be70-719c09942e11","system_id":"levelo_inurba_marseille","lat":43.2761,"lon":5.36124,"is_reserved":false,"is_disabled":false,"rental_uris":{"android":"levelo://app?vid=dd7649d1-06b5-40b0-be70-719c09942e11","ios":"levelo://app?vid=dd7649d1-06b5-40b0-be70-719c09942e11"},"vehicle_type_id":"4","last_reported":1728839214,"current_range_meters":38800,"station_id":"ce4bgj92rcd13ifvqbe0","pricing_plan_id":"cebpf4jnsgd1na2vs0mg"},{"bike_id":"f786d51c-6a89-4c4b-b8c6-b4110e2eae16","system_id":"levelo_inurba_marseille","lat":43.23191,"lon":5.35545,"is_reserved":false,"is_disabled":false,"rental_uris":{"android":"levelo://app?vid=f786d51c-6a89-4c4b-b8c6-b4110e2eae16","ios":"levelo://app?vid=f786d51c-6a89-4c4b-b8c6-b4110e2eae16"},"vehicle_type_id":"4","last_reported":1728839214,"current_range_meters":19200,"station_id":"ce4bhu92rcd13ifvqi70","pricing_plan_id":"cebpf4jnsgd1na2vs0mg"},{"bike_id":"5bfd2788-c175-4a34-8a25-104f9ae10132","system_id":"levelo_inurba_marseille","lat":43.33712,"lon":5.39187,"is_reserved":false,"is_disabled":false,"rental_uris":{"android":"levelo://app?vid=5bfd2788-c175-4a34-8a25-104f9ae10132","ios":"levelo://app?vid=5bfd2788-c175-4a34-8a25-104f9ae10132"},"vehicle_type_id":"4","last_reported":1728839214,"current_range_meters":11200,"station_id":"ce4bhr92rcd13ifvqhsg","pricing_plan_id":"cebpf4jnsgd1na2vs0mg"},{"bike_id":"ca581163-6f99-461b-acb2-1e254b8cc0b4","system_id":"levelo_inurba_marseille","lat":43.292181,"lon":5.360466,"is_reserved":false,"is_disabled":false,"rental_uris":{"android":"levelo://app?vid=ca581163-6f99-461b-acb2-1e254b8cc0b4","ios":"levelo://app?vid=ca581163-6f99-461b-acb2-1e254b8cc0b4"},"vehicle_type_id":"4","last_reported":1728839214,"current_range_meters":15200,"station_id":"","pricing_plan_id":"cebpf4jnsgd1na2vs0mg"},{"bike_id":"578de95b-5055-417d-8c77-c7ca9489ca79","system_id":"levelo_inurba_marseille","lat":43.30601,"lon":5.37226,"is_reserved":false,"is_disabled":false,"rental_uris":{"android":"levelo://app?vid=578de95b-5055-417d-8c77-c7ca9489ca79","ios":"levelo://app?vid=578de95b-5055-417d-8c77-c7ca9489ca79"},"vehicle_type_id":"4","last_reported":1728839214,"current_range_meters":12400,"station_id":"ce4bgqh2rcd13ifvqc4g","pricing_plan_id":"cebpf4jnsgd1na2vs0mg"},{"bike_id":"d8cab9f9-77a2-49d1-9fbf-96a1a7de1c83","system_id":"levelo_inurba_marseille","lat":43.2866,"lon":5.36345,"is_reserved":false,"is_disabled":false,"rental_uris":{"android":"levelo://app?vid=d8cab9f9-77a2-49d1-9fbf-96a1a7de1c83","ios":"levelo://app?vid=d8cab9f9-77a2-49d1-9fbf-96a1a7de1c83"},"vehicle_type_id":"4","last_reported":1728839214,"current_range_meters":24800,"station_id":"ce4bhah2rcd13ifvqej0","pricing_plan_id":"cebpf4jnsgd1na2vs0mg"},{"bike_id":"38a97394-fadf-4727-b03b-c7adcfacd56f","system_id":"levelo_inurba_marseille","lat":43.29551,"lon":5.42284,"is_reserved":false,"is_disabled":false,"rental_uris":{"android":"levelo://app?vid=38a97394-fadf-4727-b03b-c7adcfacd56f","ios":"levelo://app?vid=38a97394-fadf-4727-b03b-c7adcfacd56f"},"vehicle_type_id":"4","last_reported":1728839214,"current_range_meters":27600,"station_id":"ce4bhph2rcd13ifvqhdg","pricing_plan_id":"cebpf4jnsgd1na2vs0mg"},