{"last_updated":1722449481,"ttl":30,"version":"2.2","data":{"bikes":[{"bike_id":"659ee94f-c474-4c84-8e02-98441e9ff742","system_id":"levelo_inurba_marseille","lat":43.31341,"lon":5.367098,"is_reserved":false,"is_disabled":false,"rental_uris":{"android":"levelo://app?vid=659ee94f-c474-4c84-8e02-98441e9ff742","ios":"levelo://app?vid=659ee94f-c474-4c84-8e02-98441e9ff742"},"vehicle_type_id":"4","last_reported":1722449481,"current_range_meters":1600,"station_id":"ce4bgr92rcd13ifvqc6g","pricing_plan_id":"cebpf4jnsgd1na2vs0mg"},{"bike_id":"f4271d70-6666-414c-933b-c89c78260198","system_id":"levelo_inurba_marseille","lat":43.31341,"lon":5.367098,"is_reserved":false,"is_disabled":false,"rental_uris":{"android":"levelo://app?vid=f4271d70-6666-414c-933b-c89c78260198","ios":"levelo://app?vid=f4271d70-6666-414c-933b-c89c78260198"},"vehicle_type_id":"4","last_reported":1722449481,"current_range_meters":17600,"station_id":"ce4bgr92rcd13ifvqc6g","pricing_plan_id":"cebpf4jnsgd1na2vs0mg"},{"bike_id":"0c204385-009b-48a3-99b5-0e0e0d91b30f","system_id":"levelo_inurba_marseille","lat":43.31234,"lon":5.36819,"is_reserved":false,"is_disabled":false,"rental_uris":{"android":"levelo://app?vid=0c204385-009b-48a3-99b5-0e0e0d91b30f","ios":"levelo://app?vid=0c204385-009b-48a3-99b5-0e0e0d91b30f"},"vehicle_type_id":"4","last_reported":1722449481,"current_range_meters":2000,"station_id":"ce4bgl92rcd13ifvqbq0","pricing_plan_id":"cebpf4jnsgd1na2vs0mg"},{"bike_id":"90b8a0df-11f3-4f7d-a83e-4c9f438bd20c","system_id":"levelo_inurba_marseille","lat":43.309076,"lon":5.368465,"is_reserved":false,"is_disabled":false,"rental_uris":{"android":"levelo://app?vid=90b8a0df-11f3-4f7d-a83e-4c9f438bd20c","ios":"levelo://app?vid=90b8a0df-11f3-4f7d-a83e-4c9f438bd20c"},"vehicle_type_id":"4","last_reported":1722449481,"current_range_meters":1200,"station_id":"ce4bgn92rcd13ifvqbvg","pricing_plan_id":"cebpf4jnsgd1na2vs0mg"},{"bike_id":"d7dd6eac-46cf-45ae-a872-23e70e0275e1","system_id":"levelo_inurba_marseille","lat":43.314811,"lon":5.373103,"is_reserved":false,"is_disabled":false,"rental_uris":{"android":"levelo://app?vid=d7dd6eac-46cf-45ae-a872-23e70e0275e1","ios":"levelo://app?vid=d7dd6eac-46cf-45ae-a872-23e70e0275e1"},"vehicle_type_id":"4","last_reported":1722449481,"current_range_meters":2400,"station_id":"ce4bgt12rcd13ifvqcd0","pricing_plan_id":"cebpf4jnsgd1na2vs0mg"},{"bike_id":"6a4ce218-63b6-4061-bb8d-591ab1606c66","system_id":"levelo_inurba_marseille","lat":43.314811,"lon":5.373103,"is_reserved":false,"is_disabled":false,"rental_uris":{"android":"levelo://app?vid=6a4ce218-63b6-4061-bb8d-591ab1606c66","ios":"levelo://app?vid=6a4ce218-63b6-4061-bb8d-591ab1606c66"},"vehicle_type_id":"4","last_reported":1722449481,"current_range_meters":10400,"station_id":"ce4bgt12rcd13ifvqcd0","pricing_plan_id":"cebpf4jnsgd1na2vs0mg"},{"bike_id":"b2f7a0b6-6017-487d-8ae3-afe4b8d578c6","system_id":"levelo_inurba_marseille","lat":43.309039,"lon":5.371797,"is_reserved":false,"is_disabled":false,"rental_uris":{"android":"levelo://app?vid=b2f7a0b6-6017-487d-8ae3-afe4b8d578c6","ios":"levelo://app?vid=b2f7a0b6-6017-487d-8ae3-afe4b8d578c6"},"vehicle_type_id":"4","last_reported":1722449481,"current_range_meters":5200,"station_id":"ce4bguh2rcd13ifvqckg","pricing_plan_id":"cebpf4jnsgd1na2vs0mg"},{"bike_id":"e9cece26-5e3c-438b-a74f-a4cdfec5899f","system_id":"levelo_inurba_marseille","lat":43.305712,"lon":5.365641,"is_reserved":false,"is_disabled":false,"rental_uris":{"android":"levelo://app?vid=e9cece26-5e3c-438b-a74f-a4cdfec5899f","ios":"levelo://app?vid=e9cece26-5e3c-438b-a74f-a4cdfec5899f"},"vehicle_type_id":"4","last_reported":1722449481,"current_range_meters":12400,"station_id":"ce4bgs12rcd13ifvqcag","pricing_plan_id":"cebpf4jnsgd1na2vs0mg"},{"bike_id":"f40045c2-2cfc-423c-b8a0-c64716b6b6dd","system_id":"levelo_inurba_marseille","lat":43.30554,"lon":5.36533,"is_reserved":false,"is_disabled":false,"rental_uris":{"android":"levelo://app?vid=f40045c2-2cfc-423c-b8a0-c64716b6b6dd","ios":"levelo://app?vid=f40045c2-2cfc-423c-b8a0-c64716b6b6dd"},"vehicle_type_id":"4","last_reported":1722449481,"current_range_meters":11600,"station_id":"","pricing_plan_id":"cebpf4jnsgd1na2vs0mg"},{"bike_id":"a4bec19a-99a0-4e52-b3bc-85194f36f020","system_id":"levelo_inurba_marseille","lat":43.305706,"lon":5.365654,"is_reserved":false,"is_disabled":false,"rental_uris":{"android":"levelo://app?vid=a4bec19a-99a0-4e52-b3bc-85194f36f020","ios":"levelo://app?vid=a4bec19a-99a0-4e52-b3bc-85194f36f020"},"vehicle_type_id":"4","last_reported":1722449481,"current_range_meters":2400,"station_id":"ce4bgs12rcd13ifvqcag","pricing_plan_id":"cebpf4jnsgd1na2vs0mg"},{"bike_id":"85608a44-acb6-4d27-84b0-4a0d203a73ce","system_id":"levelo_inurba_marseille","lat":43.311131,"lon":5.377651,"is_reserved":false,"is_disabled":false,"rental_uris":{"android":"levelo://app?vid=85608a44-acb6-4d27-84b0-4a0d203a73ce","ios":"levelo://app?vid=85608a44-acb6-4d27-84b0-4a0d203a73ce"},"vehicle_type_id":"4","last_reported":1722449481,"current_range_meters":1600,"station_id":"ce4bgt92rcd13ifvqcg0","pricing_plan_id":"cebpf4jnsgd1na2vs0mg"},{"bike_id":"63ecba90-b6e8-4aea-979a-fb08624d4b89","system_id":"levelo_inurba_marseille","lat":43.307945,"lon":5.376487,"is_reserved":false,"is_disabled":false,"rental_uris":{"android":"levelo://app?vid=63ecba90-b6e8-4aea-979a-fb08624d4b89","ios":"levelo://app?vid=63ecba90-b6e8-4aea-979a-fb08624d4b89"},"vehicle_type_id":"4","last_reported":1722449481,"current_range_meters":1200,"station_id":"ce4bgv92rcd13ifvqcq0","pricing_plan_id":"cebpf4jnsgd1na2vs0mg"},{"bike_id":"0c4651a2-4eaa-477b-b1aa-686c9e5483de","system_id":"levelo_inurba_marseille","lat":43.32042,"lon":5.37184,"is_reserved":false,"is_disabled":false,"rental_uris":{"android":"levelo://app?vid=0c4651a2-4eaa-477b-b1aa-686c9e5483de","ios":"levelo://app?vid=0c4651a2-4eaa-477b-b1aa-686c9e5483de"},"vehicle_type_id":"4","last_reported":1722449481,"current_range_meters":23600,"station_id":"","pricing_plan_id":"cebpf4jnsgd1na2vs0mg"},{"bike_id":"578d6841-44b0-43fc-9723-25fe5ee5ec01","system_id":"levelo_inurba_marseille","lat":43.311546,"lon":5.379956,"is_reserved":false,"is_disabled":false,"rental_uris":{"android":"levelo://app?vid=578d6841-44b0-43fc-9723-25fe5ee5ec01","ios":"levelo://app?vid=578d6841-44b0-43fc-9723-25fe5ee5ec01"},"vehicle_type_id":"4","last_reported":1722449481,"current_range_meters":2000,"station_id":"","pricing_plan_id":"cebpf4jnsgd1na2vs0mg"},{"bike_id":"187322d9-2bdb-46cf-9453-1a7a020309b6","system_id":"levelo_inurba_marseille","lat":43.31528,"lon":5.38031,"is_reserved":false,"is_disabled":false,"rental_uris":{"android":"levelo://app?vid=187322d9-2bdb-46cf-9453-1a7a020309b6","ios":"levelo://app?vid=187322d9-2bdb-46cf-9453-1a7a020309b6"},"vehicle_type_id":"4","last_reported":1722449481,"current_range_meters":15600,"station_id":"ce4bhsp2rcd13ifvqi50","pricing_plan_id":"cebpf4jnsgd1na2vs0mg"},{"bike_id":"6a927bff-dbf2-47b6-9ea7-f4208becf630","system_id":"levelo_inurba_marseille","lat":43.310804,"lon":5.38359,"is_reserved":false,"is_disabled":false,"rental_uris":{"android":"levelo://app?vid=6a927bff-dbf2-47b6-9ea7-f4208becf630","ios":"levelo://app?vid=6a927bff-dbf2-47b6-9ea7-f4208becf630"},"vehicle_type_id":"4","last_reported":1722449481,"current_range_meters":2000,"station_id":"ce4bgv92rcd13ifvqcr0","pricing_plan_id":"cebpf4jnsgd1na2vs0mg"},{"bike_id":"c7d7c901-2c55-428d-84b4-35fa1476000d","system_id":"levelo_inurba_marseille","lat":43.3108,"lon":5.38361,"is_reserved":false,"is_disabled":false,"rental_uris":{"android":"levelo://app?vid=c7d7c901-2c55-428d-84b4-35fa1476000d","ios":"levelo://app?vid=c7d7c901-2c55-428d-84b4-35fa1476000d"},"vehicle_type_id":"4","last_reported":1722449481,"current_range_meters":0,"station_id":"ce4bgv92rcd13ifvqcr0","pricing_plan_id":"cebpf4jnsgd1na2vs0mg"},{"bike_id":"89f067c9-a3af-46a8-8e11-e236695d62b3","system_id":"levelo_inurba_marseille","lat":43.312734,"lon":5.38411,"is_reserved":false,"is_disabled":false,"rental_uris":{"android":"levelo://app?vid=89f067c9-a3af-46a8-8e11-e236695d62b3","ios":"levelo://app?vid=89f067c9-a3af-46a8-8e11-e236695d62b3"},"vehicle_type_id":"4","last_reported":1722449481,"current_range_meters":0,"station_id":"","pricing_plan_id":"cebpf4jnsgd1na2vs0mg"},{"bike_id":"14af2c64-4517-45a7-be6e-193d37277f9d","system_id":"levelo_inurba_marseille","lat":43.319935,"lon":5.381699,"is_reserved":false,"is_disabled":false,"rental_uris":{"android":"levelo://app?vid=14af2c64-4517-45a7-be6e-193d37277f9d","ios":"levelo://app?vid=14af2c64-4517-45a7-be6e-193d37277f9d"},"vehicle_type_id":"4","last_reported":1722449481,"current_range_meters":1600,"station_id":"ce4bhr12rcd13ifvqhpg","pricing_plan_id":"cebpf4jnsgd1na2vs0mg"},{"bike_id":"a59a25c4-dd04-41e5-905b-06c0f5dda4e3","system_id":"levelo_inurba_marseille","lat":43.313571,"lon":5.384829,"is_reserved":false,"is_disabled":false,"rental_uris":{"android":"levelo://app?vid=a59a25c4-dd04-41e5-905b-06c0f5dda4e3","ios":"levelo://app?vid=a59a25c4-dd04-41e5-905b-06c0f5dda4e3"},"vehicle_type_id":"4","last_reported":1722449481,"current_range_meters":31200,"station_id":"ce4bgt92rcd13ifvqcf0","pricing_plan_id":"cebpf4jnsgd1na2vs0mg"},{"bike_id":"9815802e-614a-4544-9be7-bacd4d7fe1c8","system_id":"levelo_inurba_marseille","lat":43.313571,"lon":5.384829,"is_reserved":false,"is_disabled":false,"rental_uris":{"android":"levelo://app?vid=9815802e-614a-4544-9be7-bacd4d7fe1c8","ios":"levelo://app?vid=9815802e-614a-4544-9be7-bacd4d7fe1c8"},"vehicle_type_id":"4","last_reported":1722449481,"current_range_meters":1600,"station_id":"ce4bgt92rcd13ifvqcf0","pricing_plan_id":"cebpf4jnsgd1na2vs0mg"},{"bike_id":"1dd287fc-04f8-4b54-ac9b-a695b475f466","system_id":"levelo_inurba_marseille","lat":43.313668,"lon":5.384932,"is_reserved":false,"is_disabled":false,"rental_uris":{"android":"levelo://app?vid=1dd287fc-04f8-4b54-ac9b-a695b475f466","ios":"levelo://app?vid=1dd287fc-04f8-4b54-ac9b-a695b475f466"},"vehicle_type_id":"4","last_reported":1722449481,"current_range_meters":0,"station_id":"ce4bgt92rcd13ifvqcf0","pricing_plan_id":"cebpf4jnsgd1na2vs0mg"},{"bike_id":"abc93ddc-0269-419e-abd4-d8851a095fa2","system_id":"levelo_inurba_marseille","lat":43.31359,"lon":5.38497,"is_reserved":false,"is_disabled":false,"rental_uris":{"android":"levelo://app?vid=abc93ddc-0269-419e-abd4-d8851a095fa2","ios":"levelo://app?vid=abc93ddc-0269-419e-abd4-d8851a095fa2"},"vehicle_type_id":"4","last_reported":1722449481,"current_range_meters":0,"station_id":"ce4bgt92rcd13ifvqcf0","pricing_plan_id":"cebpf4jnsgd1na2vs0mg"},{"bike_id":"8748ff94-a2a6-41e6-9b1c-73ada131d19b","system_id":"levelo_inurba_marseille","lat":43.299222,"lon":5.365554,"is_reserved":false,"is_disabled":false,"rental_uris":{"android":"levelo://app?vid=8748ff94-a2a6-41e6-9b1c-73ada131d19b","ios":"levelo://app?vid=8748ff94-a2a6-41e6-9b1c-73ada131d19b"},"vehicle_type_id":"4","last_reported":1722449481,"current_range_meters":3200,"station_id":"ce4bgm92rcd13ifvqbr0","pricing_plan_id":"cebpf4jnsgd1na2vs0mg"},{"bike_id":"ba080e64-8bcf-436e-9591-1ea4b71ec84f","system_id":"levelo_inurba_marseille","lat":43.299359,"lon":5.365343,"is_reserved":false,"is_disabled":false,"rental_uris":{"android":"levelo://app?vid=ba080e64-8bcf-436e-9591-1ea4b71ec84f","ios":"levelo://app?vid=ba080e64-8bcf-436e-9591-1ea4b71ec84f"},"vehicle_type_id":"4","last_reported":1722449481,"current_range_meters":28400,"station_id":"","pricing_plan_id":"cebpf4jnsgd1na2vs0mg"},{"bike_id":"f320e7d9-bff9-4633-b372-bf1385cb39f5","system_id":"levelo_inurba_marseille","lat":43.299222,"lon":5.365554,"is_reserved":false,"is_disabled":false,"rental_uris":{"android":"levelo://app?vid=f320e7d9-bff9-4633-b372-bf1385cb39f5","ios":"levelo://app?vid=f320e7d9-bff9-4633-b372-bf1385cb39f5"},"vehicle_type_id":"4","last_reported":1722449481,"current_range_meters":800,"station_id":"ce4bgm92rcd13ifvqbr0","pricing_plan_id":"cebpf4jnsgd1na2vs0mg"},{"bike_id":"c13518c0-b897-4832-8532-272f8cb41e91","system_id":"levelo_inurba_marseille","lat":43.30493,"lon":5.38234,"is_reserved":false,"is_disabled":false,"rental_uris":{"android":"levelo://app?vid=c13518c0-b897-4832-8532-272f8cb41e91","ios":"levelo://app?vid=c13518c0-b897-4832-8532-272f8cb41e91"},"vehicle_type_id":"4","last_reported":1722449481,"current_range_meters":24400,"station_id":"","pricing_plan_id":"cebpf4jnsgd1na2vs0mg"},{"bike_id":"0d56f14b-0a0f-4075-ac41-43b3cf6afc01","system_id":"levelo_inurba_marseille","lat":43.298433,"lon":5.362774,"is_reserved":false,"is_disabled":false,"rental_uris":{"android":"levelo://app?vid=0d56f14b-0a0f-4075-ac41-43b3cf6afc01","ios":"levelo://app?vid=0d56f14b-0a0f-4075-ac41-43b3cf6afc01"},"vehicle_type_id":"4","last_reported":1722449481,"current_range_meters":9600,"station_id":"ce4bgpp2rcd13ifvqc3g","pricing_plan_id":"cebpf4jnsgd1na2vs0mg"},{"bike_id":"f6ef0639-2767-4ea7-b568-dd7b0109f158","system_id":"levelo_inurba_marseille","lat":43.298433,"lon":5.362774,"is_reserved":false,"is_disabled":false,"rental_uris":{"android":"levelo://app?vid=f6ef0639-2767-4ea7-b568-dd7b0109f158","ios":"levelo://app?vid=f6ef0639-2767-4ea7-b568-dd7b0109f158"},"vehicle_type_id":"4","last_reported":1722449481,"current_range_meters":2400,"station_id":"ce4bgpp2rcd13ifvqc3g","pricing_plan_id":"cebpf4jnsgd1na2vs0mg"},{"bike_id":"9f2b33e8-12da-4237-aabf-1f5c1e367ba3","system_id":"levelo_inurba_marseille","lat":43.298433,"lon":5.362774,"is_reserved":false,"is_disabled":false,"rental_uris":{"android":"levelo://app?vid=9f2b33e8-12da-4237-aabf-1f5c1e367ba3","ios":"levelo://app?vid=9f2b33e8-12da-4237-aabf-1f5c1e367ba3"},"vehicle_type_id":"4","last_reported":1722449481,"current_range_meters":30400,"station_id":"ce4bgpp2rcd13ifvqc3g","pricing_plan_id":"cebpf4jnsgd1na2vs0mg"},{"bike_id":"7b7c3a37-532a-4170-80b1-fd682a454bc7","system_id":"levelo_inurba_marseille","lat":43.298433,"lon":5.362774,"is_reserved":false,"is_disabled":false,"rental_uris":{"android":"levelo://app?vid=7b7c3a37-532a-4170-80b1-fd682a454bc7","ios":"levelo://app?vid=7b7c3a37-532a-4170-80b1-fd682a454bc7"},"vehicle_type_id":"4","last_reported":1722449481,"current_range_meters":11200,"station_id":"ce4bgpp2rcd13ifvqc3g","pricing_plan_id":"cebpf4jnsgd1na2vs0mg"},{"bike_id":"b9635b58-693b-415c-ac7f-8a7cf18ac990","system_id":"levelo_inurba_marseille","lat":43.298433,"lon":5.362774,"is_reserved":false,"is_disabled":false,"rental_uris":{"android":"levelo://app?vid=b9635b58-693b-415c-ac7f-8a7cf18ac990","ios":"levelo://app?vid=b9635b58-693b-415c-ac7f-8a7cf18ac990"},"vehicle_type_id":"4","last_reported":1722449481,"current_range_meters":27200,"station_id":"ce4bgpp2rcd13ifvqc3g","pricing_plan_id":"cebpf4jnsgd1na2vs0mg"},{"bike_id":"f40d8105-1c87-4c6d-b285-0dce5b592472","system_id":"levelo_inurba_marseille","lat":43.298433,"lon":5.362774,"is_reserved":false,"is_disabled":false,"rental_uris":{"android":"levelo://app?vid=f40d8105-1c87-4c6d-b285-0dce5b592472","ios":"levelo://app?vid=f40d8105-1c87-4c6d-b285-0dce5b592472"},"vehicle_type_id":"4","last_reported":1722449481,"current_range_meters":0,"station_id":"ce4bgpp2rcd13ifvqc3g","pricing_plan_id":"cebpf4jnsgd1na2vs0mg"},{"bike_id":"f3306b93-23bf-48f4-9519-b070279de329","system_id":"levelo_inurba_marseille","lat":43.311722,"lon":5.387247,"is_reserved":false,"is_disabled":false,"rental_uris":{"android":"levelo://app?vid=f3306b93-23bf-48f4-9519-b070279de329","ios":"levelo://app?vid=f3306b93-23bf-48f4-9519-b070279de329"},"vehicle_type_id":"4","last_reported":1722449481,"current_range_meters":8400,"station_id":"ce4bgv12rcd13ifvqcp0","pricing_plan_id":"cebpf4jnsgd1na2vs0mg"},{"bike_id":"24590efc-6f02-4b92-add9-e127c528826f","system_id":"levelo_inurba_marseille","lat":43.31174,"lon":5.3871,"is_reserved":false,"is_disabled":false,"rental_uris":{"android":"levelo://app?vid=24590efc-6f02-4b92-add9-e127c528826f","ios":"levelo://app?vid=24590efc-6f02-4b92-add9-e127c528826f"},"vehicle_type_id":"4","last_reported":1722449481,"current_range_meters":13600,"station_id":"ce4bgv12rcd13ifvqcp0","pricing_plan_id":"cebpf4jnsgd1na2vs0mg"},{"bike_id":"99b0e66e-85f3-4aae-98f5-8b1049d5dd48","system_id":"levelo_inurba_marseille","lat":43.311777,"lon":5.387147,"is_reserved":false,"is_disabled":false,"rental_uris":{"android":"levelo://app?vid=99b0e66e-85f3-4aae-98f5-8b1049d5dd48","ios":"levelo://app?vid=99b0e66e-85f3-4aae-98f5-8b1049d5dd48"},"vehicle_type_id":"4","last_reported":1722449481,"current_range_meters":2400,"station_id":"ce4bgv12rcd13ifvqcp0","pricing_plan_id":"cebpf4jnsgd1na2vs0mg"},{"bike_id":"3a7c4aa9-c400-416d-a118-7cfdd7bf1d73","system_id":"levelo_inurba_marseille","lat":43.311722,"lon":5.387247,"is_reserved":false,"is_disabled":false,"rental_uris":{"android":"levelo://app?vid=3a7c4aa9-c400-416d-a118-7cfdd7bf1d73","ios":"levelo://app?vid=3a7c4aa9-c400-416d-a118-7cfdd7bf1d73"},"vehicle_type_id":"4","last_reported":1722449481,"current_range_meters":16000,"station_id":"ce4bgv12rcd13ifvqcp0","pricing_plan_id":"cebpf4jnsgd1na2vs0mg"},{"bike_id":"13609aa7-1822-449a-9c42-e77da23bc110","system_id":"levelo_inurba_marseille","lat":43.311722,"lon":5.387247,"is_reserved":false,"is_disabled":false,"rental_uris":{"android":"levelo://app?vid=13609aa7-1822-449a-9c42-e77da23bc110","ios":"levelo://app?vid=13609aa7-1822-449a-9c42-e77da23bc110"},"vehicle_type_id":"4","last_reported":1722449481,"current_range_meters":0,"station_id":"ce4bgv12rcd13ifvqcp0","pricing_plan_id":"cebpf4jnsgd1na2vs0mg"},{"bike_id":"d22a0837-d82b-4c4c-89ae-56cf3059f083","system_id":"levelo_inurba_marseille","lat":43.311722,"lon":5.387247,"is_reserved":false,"is_disabled":false,"rental_uris":{"android":"levelo://app?vid=d22a0837-d82b-4c4c-89ae-56cf3059f083","ios":"levelo://app?vid=d22a0837-d82b-4c4c-89ae-56cf3059f083"},"vehicle_type_id":"4","last_reported":1722449481,"current_range_meters":2000,"station_id":"ce4bgv12rcd13ifvqcp0","pricing_plan_id":"cebpf4jnsgd1na2vs0mg"},{"bike_id":"1065d241-10f7-4eb2-b05b-20bc336d2e43","system_id":"levelo_inurba_marseille","lat":43.297774,"lon":5.370875,"is_reserved":false,"is_disabled":false,"rental_uris":{"android":"levelo://app?vid=1065d241-10f7-4eb2-b05b-20bc336d2e43","ios":"levelo://app?vid=1065d241-10f7-4eb2-b05b-20bc336d2e43"},"vehicle_type_id":"4","last_reported":1722449481,"current_range_meters":1200,"station_id":"ce4bgop2rcd13ifvqc1g","pricing_plan_id":"cebpf4jnsgd1na2vs0mg"},{"bike_id":"0a9432da-e141-4bff-8cc1-c1da187655bd","system_id":"levelo_inurba_marseille","lat":43.32288,"lon":5.38271,"is_reserved":false,"is_disabled":false,"rental_uris":{"android":"levelo://app?vid=0a9432da-e141-4bff-8cc1-c1da187655bd","ios":"levelo://app?vid=0a9432da-e141-4bff-8cc1-c1da187655bd"},"vehicle_type_id":"4","last_reported":1722449481,"current_range_meters":28000,"station_id":"ce4bhr12rcd13ifvqhqg","pricing_plan_id":"cebpf4jnsgd1na2vs0mg"},{"bike_id":"db103336-6d34-4f77-bade-9c2f93ab31fd","system_id":"levelo_inurba_marseille","lat":43.322872,"lon":5.382756,"is_reserved":false,"is_disabled":false,"rental_uris":{"android":"levelo://app?vid=db103336-6d34-4f77-bade-9c2f93ab31fd","ios":"levelo://app?vid=db103336-6d34-4f77-bade-9c2f93ab31fd"},"vehicle_type_id":"4","last_reported":1722449481,"current_range_meters":22400,"station_id":"ce4bhr12rcd13ifvqhqg","pricing_plan_id":"cebpf4jnsgd1na2vs0mg"},{"bike_id":"e8b2dc29-770e-4e00-b140-8f88ab2177ae","system_id":"levelo_inurba_marseille","lat":43.322872,"lon":5.382756,"is_reserved":false,"is_disabled":false,"rental_uris":{"android":"levelo://app?vid=e8b2dc29-770e-4e00-b140-8f88ab2177ae","ios":"levelo://app?vid=e8b2dc29-770e-4e00-b140-8f88ab2177ae"},"vehicle_type_id":"4","last_reported":1722449481,"current_range_meters":8000,"station_id":"ce4bhr12rcd13ifvqhqg","pricing_plan_id":"cebpf4jnsgd1na2vs0mg"},{"bike_id":"0f56ab6a-b297-42ab-bddd-9e74da90601e","system_id":"levelo_inurba_marseille","lat":43.297163,"lon":5.365866,"is_reserved":false,"is_disabled":false,"rental_uris":{"android":"levelo://app?vid=0f56ab6a-b297-42ab-bddd-9e74da90601e","ios":"levelo://app?vid=0f56ab6a-b297-42ab-bddd-9e74da90601e"},"vehicle_type_id":"4","last_reported":1722449481,"current_range_meters":28000,"station_id":"ce4bgn12rcd13ifvqbt0","pricing_plan_id":"cebpf4jnsgd1na2vs0mg"},{"bike_id":"bd2fd315-5547-4515-8233-f9735dce7520","system_id":"levelo_inurba_marseille","lat":43.297163,"lon":5.365866,"is_reserved":false,"is_disabled":false,"rental_uris":{"android":"levelo://app?vid=bd2fd315-5547-4515-8233-f9735dce7520","ios":"levelo://app?vid=bd2fd315-5547-4515-8233-f9735dce7520"},"vehicle_type_id":"4","last_reported":1722449481,"current_range_meters":4800,"station_id":"ce4bgn12rcd13ifvqbt0","pricing_plan_id":"cebpf4jnsgd1na2vs0mg"},{"bike_id":"ed6ae0ff-1558-4cec-a1c9-dfd1db4e7885","system_id":"levelo_inurba_marseille","lat":43.297163,"lon":5.365866,"is_reserved":false,"is_disabled":false,"rental_uris":{"android":"levelo://app?vid=ed6ae0ff-1558-4cec-a1c9-dfd1db4e7885","ios":"levelo://app?vid=ed6ae0ff-1558-4cec-a1c9-dfd1db4e7885"},"vehicle_type_id":"4","last_reported":1722449481,"current_range_meters":7600,"station_id":"ce4bgn12rcd13ifvqbt0","pricing_plan_id":"cebpf4jnsgd1na2vs0mg"},{"bike_id":"9266143a-9546-4c26-9e06-b1ecc4abae8a","system_id":"levelo_inurba_marseille","lat":43.300265,"lon":5.382035,"is_reserved":false,"is_disabled":false,"rental_uris":{"android":"levelo://app?vid=9266143a-9546-4c26-9e06-b1ecc4abae8a","ios":"levelo://app?vid=9266143a-9546-4c26-9e06-b1ecc4abae8a"},"vehicle_type_id":"4","last_reported":1722449481,"current_range_meters":1200,"station_id":"","pricing_plan_id":"cebpf4jnsgd1na2vs0mg"},{"bike_id":"601ea41a-d258-4288-b808-accb2117a5df","system_id":"levelo_inurba_marseille","lat":43.3163,"lon":5.38933,"is_reserved":false,"is_disabled":false,"rental_uris":{"android":"levelo://app?vid=601ea41a-d258-4288-b808-accb2117a5df","ios":"levelo://app?vid=601ea41a-d258-4288-b808-accb2117a5df"},"vehicle_type_id":"4","last_reported":1722449481,"current_range_meters":800,"station_id":"","pricing_plan_id":"cebpf4jnsgd1na2vs0mg"},{"bike_id":"c74d8927-0568-47f1-a6da-ff1d834fee1b","system_id":"levelo_inurba_marseille","lat":43.29584,"lon":5.36746,"is_reserved":false,"is_disabled":false,"rental_uris":{"android":"levelo://app?vid=c74d8927-0568-47f1-a6da-ff1d834fee1b","ios":"levelo://app?vid=c74d8927-0568-47f1-a6da-ff1d834fee1b"},"vehicle_type_id":"4","last_reported":1722449481,"current_range_meters":29600,"station_id":"ce4bgph2rcd13ifvqc2g","pricing_plan_id":"cebpf4jnsgd1na2vs0mg"},{"bike_id":"b36d266d-4dac-4ac8-9725-418f24fb1d14","system_id":"levelo_inurba_marseille","lat":43.29573,"lon":5.367355,"is_reserved":false,"is_disabled":false,"rental_uris":{"android":"levelo://app?vid=b36d266d-4dac-4ac8-9725-418f24fb1d14","ios":"levelo://app?vid=b36d266d-4dac-4ac8-9725-418f24fb1d14"},"vehicle_type_id":"4","last_reported":1722449481,"current_range_meters":31200,"station_id":"ce4bgph2rcd13ifvqc2g","pricing_plan_id":"cebpf4jnsgd1na2vs0mg"},{"bike_id":"8c4eff73-0cd9-4d5e-b546-1e29b60875b2","system_id":"levelo_inurba_marseille","lat":43.29573,"lon":5.367355,"is_reserved":false,"is_disabled":false,"rental_uris":{"android":"levelo://app?vid=8c4eff73-0cd9-4d5e-b546-1e29b60875b2","ios":"levelo://app?vid=8c4eff73-0cd9-4d5e-b546-1e29b60875b2"},"vehicle_type_id":"4","last_reported":1722449481,"current_range_meters":31200,"station_id":"ce4bgph2rcd13ifvqc2g","pricing_plan_id":"cebpf4jnsgd1na2vs0mg"},{"bike_id":"fee3a6e0-e71c-465a-86f1-10b2f8f618aa","system_id":"levelo_inurba_marseille","lat":43.299028,"lon":5.381509,"is_reserved":false,"is_disabled":false,"rental_uris":{"android":"levelo://app?vid=fee3a6e0-e71c-465a-86f1-10b2f8f618aa","ios":"levelo://app?vid=fee3a6e0-e71c-465a-86f1-10b2f8f618aa"},"vehicle_type_id":"4","last_reported":1722449481,"current_range_meters":7600,"station_id":"ce4bgj12rcd13ifvqbc0","pricing_plan_id":"cebpf4jnsgd1na2vs0mg"},{"bike_id":"52c4e767-6832-4aa6-9b4b-5c6e2aa9ebae","system_id":"levelo_inurba_marseille","lat":43.299028,"lon":5.381509,"is_reserved":false,"is_disabled":false,"rental_uris":{"android":"levelo://app?vid=52c4e767-6832-4aa6-9b4b-5c6e2aa9ebae","ios":"levelo://app?vid=52c4e767-6832-4aa6-9b4b-5c6e2aa9ebae"},"vehicle_type_id":"4","last_reported":1722449481,"current_range_meters":26800,"station_id":"ce4bgj12rcd13ifvqbc0","pricing_plan_id":"cebpf4jnsgd1na2vs0mg"},{"bike_id":"d22cc9a0-3f48-47ce-a7c5-121ade9a91f8","system_id":"levelo_inurba_marseille","lat":43.296921,"lon":5.376579,"is_reserved":false,"is_disabled":false,"rental_uris":{"android":"levelo://app?vid=d22cc9a0-3f48-47ce-a7c5-121ade9a91f8","ios":"levelo://app?vid=d22cc9a0-3f48-47ce-a7c5-121ade9a91f8"},"vehicle_type_id":"4","last_reported":1722449481,"current_range_meters":0,"station_id":"ce4bgkh2rcd13ifvqbl0","pricing_plan_id":"cebpf4jnsgd1na2vs0mg"},{"bike_id":"d868400a-8877-450a-b0d7-72a2d4f38fc4","system_id":"levelo_inurba_marseille","lat":43.3096,"lon":5.39033,"is_reserved":false,"is_disabled":false,"rental_uris":{"android":"levelo://app?vid=d868400a-8877-450a-b0d7-72a2d4f38fc4","ios":"levelo://app?vid=d868400a-8877-450a-b0d7-72a2d4f38fc4"},"vehicle_type_id":"4","last_reported":1722449481,"current_range_meters":22000,"station_id":"ce4bgup2rcd13ifvqco0","pricing_plan_id":"cebpf4jnsgd1na2vs0mg"},{"bike_id":"c7172da7-234e-4ac5-bfa7-e0df26e7ff12","system_id":"levelo_inurba_marseille","lat":43.30955,"lon":5.39032,"is_reserved":false,"is_disabled":false,"rental_uris":{"android":"levelo://app?vid=c7172da7-234e-4ac5-bfa7-e0df26e7ff12","ios":"levelo://app?vid=c7172da7-234e-4ac5-bfa7-e0df26e7ff12"},"vehicle_type_id":"4","last_reported":1722449481,"current_range_meters":31200,"station_id":"ce4bgup2rcd13ifvqco0","pricing_plan_id":"cebpf4jnsgd1na2vs0mg"},{"bike_id":"f47a1278-eb1c-4ce9-9ac0-aabc6e04f36d","system_id":"levelo_inurba_marseille","lat":43.309501,"lon":5.390341,"is_reserved":false,"is_disabled":false,"rental_uris":{"android":"levelo://app?vid=f47a1278-eb1c-4ce9-9ac0-aabc6e04f36d","ios":"levelo://app?vid=f47a1278-eb1c-4ce9-9ac0-aabc6e04f36d"},"vehicle_type_id":"4","last_reported":1722449481,"current_range_meters":31200,"station_id":"ce4bgup2rcd13ifvqco0","pricing_plan_id":"cebpf4jnsgd1na2vs0mg"},{"bike_id":"9aa5d789-d35a-4c05-b50c-9887df974b35","system_id":"levelo_inurba_marseille","lat":43.30959,"lon":5.39038,"is_reserved":false,"is_disabled":false,"rental_uris":{"android":"levelo://app?vid=9aa5d789-d35a-4c05-b50c-9887df974b35","ios":"levelo://app?vid=9aa5d789-d35a-4c05-b50c-9887df974b35"},"vehicle_type_id":"4","last_reported":1722449481,"current_range_meters":31200,"station_id":"ce4bgup2rcd13ifvqco0","pricing_plan_id":"cebpf4jnsgd1na2vs0mg"},{"bike_id":"594ca3b9-ac25-48e4-8f43-6e641ce77f34","system_id":"levelo_inurba_marseille","lat":43.30951,"lon":5.39036,"is_reserved":false,"is_disabled":false,"rental_uris":{"android":"levelo://app?vid=594ca3b9-ac25-48e4-8f43-6e641ce77f34","ios":"levelo://app?vid=594ca3b9-ac25-48e4-8f43-6e641ce77f34"},"vehicle_type_id":"4","last_reported":1722449481,"current_range_meters":31200,"station_id":"ce4bgup2rcd13ifvqco0","pricing_plan_id":"cebpf4jnsgd1na2vs0mg"},{"bike_id":"68697847-af6a-4cd6-a5f3-8123c37d8100","system_id":"levelo_inurba_marseille","lat":43.317557,"lon":5.390173,"is_reserved":false,"is_disabled":false,"rental_uris":{"android":"levelo://app?vid=68697847-af6a-4cd6-a5f3-8123c37d8100","ios":"levelo://app?vid=68697847-af6a-4cd6-a5f3-8123c37d8100"},"vehicle_type_id":"4","last_reported":1722449481,"current_range_meters":14400,"station_id":"ce4bhqp2rcd13ifvqhng","pricing_plan_id":"cebpf4jnsgd1na2vs0mg"},{"bike_id":"4c5ff1d1-4293-4db6-8769-60441504a4ef","system_id":"levelo_inurba_marseille","lat":43.298037,"lon":5.381066,"is_reserved":false,"is_disabled":false,"rental_uris":{"android":"levelo://app?vid=4c5ff1d1-4293-4db6-8769-60441504a4ef","ios":"levelo://app?vid=4c5ff1d1-4293-4db6-8769-60441504a4ef"},"vehicle_type_id":"4","last_reported":1722449481,"current_range_meters":2000,"station_id":"ce4bgip2rcd13ifvqbb0","pricing_plan_id":"cebpf4jnsgd1na2vs0mg"},{"bike_id":"c756dd70-3716-497c-b780-e0b9f2dddb44","system_id":"levelo_inurba_marseille","lat":43.298037,"lon":5.381066,"is_reserved":false,"is_disabled":false,"rental_uris":{"android":"levelo://app?vid=c756dd70-3716-497c-b780-e0b9f2dddb44","ios":"levelo://app?vid=c756dd70-3716-497c-b780-e0b9f2dddb44"},"vehicle_type_id":"4","last_reported":1722449481,"current_range_meters":23200,"station_id":"ce4bgip2rcd13ifvqbb0","pricing_plan_id":"cebpf4jnsgd1na2vs0mg"},{"bike_id":"ceaa768c-d336-40d6-a46b-49a589af40ba","system_id":"levelo_inurba_marseille","lat":43.296263,"lon":5.377094,"is_reserved":false,"is_disabled":false,"rental_uris":{"android":"levelo://app?vid=ceaa768c-d336-40d6-a46b-49a589af40ba","ios":"levelo://app?vid=ceaa768c-d336-40d6-a46b-49a589af40ba"},"vehicle_type_id":"4","last_reported":1722449481,"current_range_meters":0,"station_id":"ce4bgi92rcd13ifvqb90","pricing_plan_id":"cebpf4jnsgd1na2vs0mg"},{"bike_id":"5b6c3e2c-9274-441f-8c66-2f58584dded7","system_id":"levelo_inurba_marseille","lat":43.309589,"lon":5.390258,"is_reserved":false,"is_disabled":false,"rental_uris":{"android":"levelo://app?vid=5b6c3e2c-9274-441f-8c66-2f58584dded7","ios":"levelo://app?vid=5b6c3e2c-9274-441f-8c66-2f58584dded7"},"vehicle_type_id":"4","last_reported":1722449481,"current_range_meters":24400,"station_id":"ce4bgup2rcd13ifvqco0","pricing_plan_id":"cebpf4jnsgd1na2vs0mg"},{"bike_id":"019dd141-7f2b-4810-98ae-f04bae6a90f2","system_id":"levelo_inurba_marseille","lat":43.29525,"lon":5.37501,"is_reserved":false,"is_disabled":false,"rental_uris":{"android":"levelo://app?vid=019dd141-7f2b-4810-98ae-f04bae6a90f2","ios":"levelo://app?vid=019dd141-7f2b-4810-98ae-f04bae6a90f2"},"vehicle_type_id":"4","last_reported":1722449481,"current_range_meters":0,"station_id":"ce4bgkp2rcd13ifvqbmg","pricing_plan_id":"cebpf4jnsgd1na2vs0mg"},{"bike_id":"04a8bd8b-dcda-4a65-8558-e385d284753e","system_id":"levelo_inurba_marseille","lat":43.299717,"lon":5.384845,"is_reserved":false,"is_disabled":false,"rental_uris":{"android":"levelo://app?vid=04a8bd8b-dcda-4a65-8558-e385d284753e","ios":"levelo://app?vid=04a8bd8b-dcda-4a65-8558-e385d284753e"},"vehicle_type_id":"4","last_reported":1722449481,"current_range_meters":9200,"station_id":"ce4bgj92rcd13ifvqbd0","pricing_plan_id":"cebpf4jnsgd1na2vs0mg"},{"bike_id":"f701baf1-1150-4c0a-a969-7f6e7d72777e","system_id":"levelo_inurba_marseille","lat":43.299717,"lon":5.384845,"is_reserved":false,"is_disabled":false,"rental_uris":{"android":"levelo://app?vid=f701baf1-1150-4c0a-a969-7f6e7d72777e","ios":"levelo://app?vid=f701baf1-1150-4c0a-a969-7f6e7d72777e"},"vehicle_type_id":"4","last_reported":1722449481,"current_range_meters":0,"station_id":"ce4bgj92rcd13ifvqbd0","pricing_plan_id":"cebpf4jnsgd1na2vs0mg"},{"bike_id":"cc3394b0-6111-4a83-842d-489eeb9f4554","system_id":"levelo_inurba_marseille","lat":43.295279,"lon":5.375048,"is_reserved":false,"is_disabled":false,"rental_uris":{"android":"levelo://app?vid=cc3394b0-6111-4a83-842d-489eeb9f4554","ios":"levelo://app?vid=cc3394b0-6111-4a83-842d-489eeb9f4554"},"vehicle_type_id":"4","last_reported":1722449481,"current_range_meters":22400,"station_id":"ce4bgkp2rcd13ifvqbmg","pricing_plan_id":"cebpf4jnsgd1na2vs0mg"},{"bike_id":"424fa7dd-ac8f-465b-b9d4-b9ef9ec8f7b3","system_id":"levelo_inurba_marseille","lat":43.32367,"lon":5.388836,"is_reserved":false,"is_disabled":false,"rental_uris":{"android":"levelo://app?vid=424fa7dd-ac8f-465b-b9d4-b9ef9ec8f7b3","ios":"levelo://app?vid=424fa7dd-ac8f-465b-b9d4-b9ef9ec8f7b3"},"vehicle_type_id":"4","last_reported":1722449481,"current_range_meters":15200,"station_id":"ce4bhqp2rcd13ifvqhog","pricing_plan_id":"cebpf4jnsgd1na2vs0mg"},{"bike_id":"3edaa0e2-363e-4c54-b64d-ce06d77af642","system_id":"levelo_inurba_marseille","lat":43.32367,"lon":5.388836,"is_reserved":false,"is_disabled":false,"rental_uris":{"android":"levelo://app?vid=3edaa0e2-363e-4c54-b64d-ce06d77af642","ios":"levelo://app?vid=3edaa0e2-363e-4c54-b64d-ce06d77af642"},"vehicle_type_id":"4","last_reported":1722449481,"current_range_meters":8000,"station_id":"ce4bhqp2rcd13ifvqhog","pricing_plan_id":"cebpf4jnsgd1na2vs0mg"},{"bike_id":"060f282f-e053-426e-96a8-f78d109abbf1","system_id":"levelo_inurba_marseille","lat":43.32367,"lon":5.388836,"is_reserved":false,"is_disabled":false,"rental_uris":{"android":"levelo://app?vid=060f282f-e053-426e-96a8-f78d109abbf1","ios":"levelo://app?vid=060f282f-e053-426e-96a8-f78d109abbf1"},"vehicle_type_id":"4","last_reported":1722449481,"current_range_meters":0,"station_id":"ce4bhqp2rcd13ifvqhog","pricing_plan_id":"cebpf4jnsgd1na2vs0mg"},{"bike_id":"9a40ce40-a189-42f2-96b1-586d5c177f9e","system_id":"levelo_inurba_marseille","lat":43.295983,"lon":5.380927,"is_reserved":false,"is_disabled":false,"rental_uris":{"android":"levelo://app?vid=9a40ce40-a189-42f2-96b1-586d5c177f9e","ios":"levelo://app?vid=9a40ce40-a189-42f2-96b1-586d5c177f9e"},"vehicle_type_id":"4","last_reported":1722449481,"current_range_meters":0,"station_id":"ce4bgl12rcd13ifvqbo0","pricing_plan_id":"cebpf4jnsgd1na2vs0mg"},{"bike_id":"5f0d951a-5389-40d2-92f2-635f99958b7d","system_id":"levelo_inurba_marseille","lat":43.29595,"lon":5.38093,"is_reserved":false,"is_disabled":false,"rental_uris":{"android":"levelo://app?vid=5f0d951a-5389-40d2-92f2-635f99958b7d","ios":"levelo://app?vid=5f0d951a-5389-40d2-92f2-635f99958b7d"},"vehicle_type_id":"4","last_reported":1722449481,"current_range_meters":0,"station_id":"ce4bgl12rcd13ifvqbo0","pricing_plan_id":"cebpf4jnsgd1na2vs0mg"},{"bike_id":"8b8e517d-c697-4172-a108-93e27df3e58f","system_id":"levelo_inurba_marseille","lat":43.29821,"lon":5.38538,"is_reserved":false,"is_disabled":false,"rental_uris":{"android":"levelo://app?vid=8b8e517d-c697-4172-a108-93e27df3e58f","ios":"levelo://app?vid=8b8e517d-c697-4172-a108-93e27df3e58f"},"vehicle_type_id":"4","last_reported":1722449481,"current_range_meters":0,"station_id":"","pricing_plan_id":"cebpf4jnsgd1na2vs0mg"},{"bike_id":"a4c27077-bcc6-4a78-b1dd-223d7b948cd2","system_id":"levelo_inurba_marseille","lat":43.293249,"lon":5.371578,"is_reserved":false,"is_disabled":false,"rental_uris":{"android":"levelo://app?vid=a4c27077-bcc6-4a78-b1dd-223d7b948cd2","ios":"levelo://app?vid=a4c27077-bcc6-4a78-b1dd-223d7b948cd2"},"vehicle_type_id":"4","last_reported":1722449481,"current_range_meters":14000,"station_id":"ce4bgh92rcd13ifvqb40","pricing_plan_id":"cebpf4jnsgd1na2vs0mg"},{"bike_id":"2f914f83-a9b1-4273-a2eb-93495ad18bca","system_id":"levelo_inurba_marseille","lat":43.292749,"lon":5.368402,"is_reserved":false,"is_disabled":false,"rental_uris":{"android":"levelo://app?vid=2f914f83-a9b1-4273-a2eb-93495ad18bca","ios":"levelo://app?vid=2f914f83-a9b1-4273-a2eb-93495ad18bca"},"vehicle_type_id":"4","last_reported":1722449481,"current_range_meters":0,"station_id":"ce4bhbp2rcd13ifvqesg","pricing_plan_id":"cebpf4jnsgd1na2vs0mg"},{"bike_id":"06aa5918-3027-4906-a3b1-2c8680fa58e5","system_id":"levelo_inurba_marseille","lat":43.292749,"lon":5.368402,"is_reserved":false,"is_disabled":false,"rental_uris":{"android":"levelo://app?vid=06aa5918-3027-4906-a3b1-2c8680fa58e5","ios":"levelo://app?vid=06aa5918-3027-4906-a3b1-2c8680fa58e5"},"vehicle_type_id":"4","last_reported":1722449481,"current_range_meters":0,"station_id":"ce4bhbp2rcd13ifvqesg","pricing_plan_id":"cebpf4jnsgd1na2vs0mg"},{"bike_id":"a5186939-ed4f-4dd2-ac67-76ea96a94cee","system_id":"levelo_inurba_marseille","lat":43.292749,"lon":5.368402,"is_reserved":false,"is_disabled":false,"rental_uris":{"android":"levelo://app?vid=a5186939-ed4f-4dd2-ac67-76ea96a94cee","ios":"levelo://app?vid=a5186939-ed4f-4dd2-ac67-76ea96a94cee"},"vehicle_type_id":"4","last_reported":1722449481,"current_range_meters":0,"station_id":"ce4bhbp2rcd13ifvqesg","pricing_plan_id":"cebpf4jnsgd1na2vs0mg"},{"bike_id":"b6278748-ddbe-4784-af6c-e04451f90eb9","system_id":"levelo_inurba_marseille","lat":43.29266,"lon":5.36845,"is_reserved":false,"is_disabled":false,"rental_uris":{"android":"levelo://app?vid=b6278748-ddbe-4784-af6c-e04451f90eb9","ios":"levelo://app?vid=b6278748-ddbe-4784-af6c-e04451f90eb9"},"vehicle_type_id":"4","last_reported":1722449481,"current_range_meters":30800,"station_id":"ce4bhbp2rcd13ifvqesg","pricing_plan_id":"cebpf4jnsgd1na2vs0mg"},{"bike_id":"2a34a897-830b-4b1b-9a04-ddff7a6eeade","system_id":"levelo_inurba_marseille","lat":43.29304,"lon":5.37454,"is_reserved":false,"is_disabled":false,"rental_uris":{"android":"levelo://app?vid=2a34a897-830b-4b1b-9a04-ddff7a6eeade","ios":"levelo://app?vid=2a34a897-830b-4b1b-9a04-ddff7a6eeade"},"vehicle_type_id":"4","last_reported":1722449481,"current_range_meters":2400,"station_id":"ce4bgi12rcd13ifvqb70","pricing_plan_id":"cebpf4jnsgd1na2vs0mg"},{"bike_id":"d1e3141e-e92e-4307-8aa6-2147583b078a","system_id":"levelo_inurba_marseille","lat":43.293,"lon":5.37451,"is_reserved":false,"is_disabled":false,"rental_uris":{"android":"levelo://app?vid=d1e3141e-e92e-4307-8aa6-2147583b078a","ios":"levelo://app?vid=d1e3141e-e92e-4307-8aa6-2147583b078a"},"vehicle_type_id":"4","last_reported":1722449481,"current_range_meters":0,"station_id":"ce4bgi12rcd13ifvqb70","pricing_plan_id":"cebpf4jnsgd1na2vs0mg"},{"bike_id":"2b2e0607-1ba6-4f4f-ada9-f4dce096f714","system_id":"levelo_inurba_marseille","lat":43.292987,"lon":5.37454,"is_reserved":false,"is_disabled":false,"rental_uris":{"android":"levelo://app?vid=2b2e0607-1ba6-4f4f-ada9-f4dce096f714","ios":"levelo://app?vid=2b2e0607-1ba6-4f4f-ada9-f4dce096f714"},"vehicle_type_id":"4","last_reported":1722449481,"current_range_meters":0,"station_id":"ce4bgi12rcd13ifvqb70","pricing_plan_id":"cebpf4jnsgd1na2vs0mg"},{"bike_id":"65f70012-5dee-472f-8729-63811ece3710","system_id":"levelo_inurba_marseille","lat":43.305994,"lon":5.393687,"is_reserved":false,"is_disabled":false,"rental_uris":{"android":"levelo://app?vid=65f70012-5dee-472f-8729-63811ece3710","ios":"levelo://app?vid=65f70012-5dee-472f-8729-63811ece3710"},"vehicle_type_id":"4","last_reported":1722449481,"current_range_meters":0,"station_id":"ce4bh0p2rcd13ifvqd80","pricing_plan_id":"cebpf4jnsgd1na2vs0mg"},{"bike_id":"7311ad2d-8225-4d60-8197-e85f4f82e23f","system_id":"levelo_inurba_marseille","lat":43.305994,"lon":5.393687,"is_reserved":false,"is_disabled":false,"rental_uris":{"android":"levelo://app?vid=7311ad2d-8225-4d60-8197-e85f4f82e23f","ios":"levelo://app?vid=7311ad2d-8225-4d60-8197-e85f4f82e23f"},"vehicle_type_id":"4","last_reported":1722449481,"current_range_meters":800,"station_id":"ce4bh0p2rcd13ifvqd80","pricing_plan_id":"cebpf4jnsgd1na2vs0mg"},{"bike_id":"2ef7c4b2-430c-4b06-9050-9344d395099d","system_id":"levelo_inurba_marseille","lat":43.29382,"lon":5.3785,"is_reserved":false,"is_disabled":false,"rental_uris":{"android":"levelo://app?vid=2ef7c4b2-430c-4b06-9050-9344d395099d","ios":"levelo://app?vid=2ef7c4b2-430c-4b06-9050-9344d395099d"},"vehicle_type_id":"4","last_reported":1722449481,"current_range_meters":6000,"station_id":"ce4bgjh2rcd13ifvqbf0","pricing_plan_id":"cebpf4jnsgd1na2vs0mg"},{"bike_id":"65bd2043-1556-4f94-97fc-4462342083a4","system_id":"levelo_inurba_marseille","lat":43.303002,"lon":5.392142,"is_reserved":false,"is_disabled":false,"rental_uris":{"android":"levelo://app?vid=65bd2043-1556-4f94-97fc-4462342083a4","ios":"levelo://app?vid=65bd2043-1556-4f94-97fc-4462342083a4"},"vehicle_type_id":"4","last_reported":1722449481,"current_range_meters":0,"station_id":"ce4bgkh2rcd13ifvqbk0","pricing_plan_id":"cebpf4jnsgd1na2vs0mg"},{"bike_id":"2f147bd0-2ac1-4db3-ac72-a57d42fa0b69","system_id":"levelo_inurba_marseille","lat":43.30297,"lon":5.3921,"is_reserved":false,"is_disabled":false,"rental_uris":{"android":"levelo://app?vid=2f147bd0-2ac1-4db3-ac72-a57d42fa0b69","ios":"levelo://app?vid=2f147bd0-2ac1-4db3-ac72-a57d42fa0b69"},"vehicle_type_id":"4","last_reported":1722449481,"current_range_meters":0,"station_id":"ce4bgkh2rcd13ifvqbk0","pricing_plan_id":"cebpf4jnsgd1na2vs0mg"},{"bike_id":"cd50c2a0-b209-4d68-9f1e-1052e74413e7","system_id":"levelo_inurba_marseille","lat":43.2936,"lon":5.37835,"is_reserved":false,"is_disabled":false,"rental_uris":{"android":"levelo://app?vid=cd50c2a0-b209-4d68-9f1e-1052e74413e7","ios":"levelo://app?vid=cd50c2a0-b209-4d68-9f1e-1052e74413e7"},"vehicle_type_id":"4","last_reported":1722449481,"current_range_meters":800,"station_id":"ce4bgjh2rcd13ifvqbf0","pricing_plan_id":"cebpf4jnsgd1na2vs0mg"},{"bike_id":"f9b6f8b9-1bf2-43b3-b36c-b2743a9fdc38","system_id":"levelo_inurba_marseille","lat":43.2936,"lon":5.37835,"is_reserved":false,"is_disabled":false,"rental_uris":{"android":"levelo://app?vid=f9b6f8b9-1bf2-43b3-b36c-b2743a9fdc38","ios":"levelo://app?vid=f9b6f8b9-1bf2-43b3-b36c-b2743a9fdc38"},"vehicle_type_id":"4","last_reported":1722449481,"current_range_meters":0,"station_id":"ce4bgjh2rcd13ifvqbf0","pricing_plan_id":"cebpf4jnsgd1na2vs0mg"},{"bike_id":"c139d62e-889f-4f40-8475-4e59b4cc34c1","system_id":"levelo_inurba_marseille","lat":43.29368,"lon":5.3786,"is_reserved":false,"is_disabled":false,"rental_uris":{"android":"levelo://app?vid=c139d62e-889f-4f40-8475-4e59b4cc34c1","ios":"levelo://app?vid=c139d62e-889f-4f40-8475-4e59b4cc34c1"},"vehicle_type_id":"4","last_reported":1722449481,"current_range_meters":0,"station_id":"ce4bgjh2rcd13ifvqbf0","pricing_plan_id":"cebpf4jnsgd1na2vs0mg"},{"bike_id":"c0903cb2-d65a-4b4c-9195-4bc9943b8e82","system_id":"levelo_inurba_marseille","lat":43.300852,"lon":5.390859,"is_reserved":false,"is_disabled":false,"rental_uris":{"android":"levelo://app?vid=c0903cb2-d65a-4b4c-9195-4bc9943b8e82","ios":"levelo://app?vid=c0903cb2-d65a-4b4c-9195-4bc9943b8e82"},"vehicle_type_id":"4","last_reported":1722449481,"current_range_meters":31200,"station_id":"ce4bh192rcd13ifvqdb0","pricing_plan_id":"cebpf4jnsgd1na2vs0mg"},{"bike_id":"091d4ef6-3ec7-4bbe-8232-e25d0e4dada3","system_id":"levelo_inurba_marseille","lat":43.30085,"lon":5.390856,"is_reserved":false,"is_disabled":false,"rental_uris":{"android":"levelo://app?vid=091d4ef6-3ec7-4bbe-8232-e25d0e4dada3","ios":"levelo://app?vid=091d4ef6-3ec7-4bbe-8232-e25d0e4dada3"},"vehicle_type_id":"4","last_reported":1722449481,"current_range_meters":31200,"station_id":"ce4bh192rcd13ifvqdb0","pricing_plan_id":"cebpf4jnsgd1na2vs0mg"},{"bike_id":"98dedec6-a102-4f07-a34f-6d71ca70af2a","system_id":"levelo_inurba_marseille","lat":43.310804,"lon":5.38359,"is_reserved":false,"is_disabled":false,"rental_uris":{"android":"levelo://app?vid=98dedec6-a102-4f07-a34f-6d71ca70af2a","ios":"levelo://app?vid=98dedec6-a102-4f07-a34f-6d71ca70af2a"},"vehicle_type_id":"4","last_reported":1722449481,"current_range_meters":7600,"station_id":"ce4bgv92rcd13ifvqcr0","pricing_plan_id":"cebpf4jnsgd1na2vs0mg"},{"bike_id":"e63535db-8aab-487f-bcdd-4d1e5f92aa61","system_id":"levelo_inurba_marseille","lat":43.29886,"lon":5.388963,"is_reserved":false,"is_disabled":false,"rental_uris":{"android":"levelo://app?vid=e63535db-8aab-487f-bcdd-4d1e5f92aa61","ios":"levelo://app?vid=e63535db-8aab-487f-bcdd-4d1e5f92aa61"},"vehicle_type_id":"4","last_reported":1722449481,"current_range_meters":18000,"station_id":"ce4bh392rcd13ifvqdl0","pricing_plan_id":"cebpf4jnsgd1na2vs0mg"},{"bike_id":"572baf1d-69e1-4c96-95e3-717dc4634ccb","system_id":"levelo_inurba_marseille","lat":43.292007,"lon":5.357927,"is_reserved":false,"is_disabled":false,"rental_uris":{"android":"levelo://app?vid=572baf1d-69e1-4c96-95e3-717dc4634ccb","ios":"levelo://app?vid=572baf1d-69e1-4c96-95e3-717dc4634ccb"},"vehicle_type_id":"4","last_reported":1722449481,"current_range_meters":0,"station_id":"ce4bhb12rcd13ifvqel0","pricing_plan_id":"cebpf4jnsgd1na2vs0mg"},{"bike_id":"fea2eb11-95e2-45fc-a45c-d2887c871bab","system_id":"levelo_inurba_marseille","lat":43.291994,"lon":5.357886,"is_reserved":false,"is_disabled":false,"rental_uris":{"android":"levelo://app?vid=fea2eb11-95e2-45fc-a45c-d2887c871bab","ios":"levelo://app?vid=fea2eb11-95e2-45fc-a45c-d2887c871bab"},"vehicle_type_id":"4","last_reported":1722449481,"current_range_meters":0,"station_id":"ce4bhb12rcd13ifvqel0","pricing_plan_id":"cebpf4jnsgd1na2vs0mg"},{"bike_id":"a9fc3a4a-24af-46f9-93a2-12894464f91c","system_id":"levelo_inurba_marseille","lat":43.309047,"lon":5.396551,"is_reserved":false,"is_disabled":false,"rental_uris":{"android":"levelo://app?vid=a9fc3a4a-24af-46f9-93a2-12894464f91c","ios":"levelo://app?vid=a9fc3a4a-24af-46f9-93a2-12894464f91c"},"vehicle_type_id":"4","last_reported":1722449481,"current_range_meters":0,"station_id":"ce4bh012rcd13ifvqcv0","pricing_plan_id":"cebpf4jnsgd1na2vs0mg"},{"bike_id":"c5e2ebf1-f04e-4d92-ae44-35a53d44eb3c","system_id":"levelo_inurba_marseille","lat":43.29529,"lon":5.385581,"is_reserved":false,"is_disabled":false,"rental_uris":{"android":"levelo://app?vid=c5e2ebf1-f04e-4d92-ae44-35a53d44eb3c","ios":"levelo://app?vid=c5e2ebf1-f04e-4d92-ae44-35a53d44eb3c"},"vehicle_type_id":"4","last_reported":1722449481,"current_range_meters":9600,"station_id":"ce4bgih2rcd13ifvqba0","pricing_plan_id":"cebpf4jnsgd1na2vs0mg"},{"bike_id":"38e19fa9-dd1a-4eb6-9423-d91766dcd7cf","system_id":"levelo_inurba_marseille","lat":43.29529,"lon":5.385581,"is_reserved":false,"is_disabled":false,"rental_uris":{"android":"levelo://app?vid=38e19fa9-dd1a-4eb6-9423-d91766dcd7cf","ios":"levelo://app?vid=38e19fa9-dd1a-4eb6-9423-d91766dcd7cf"},"vehicle_type_id":"4","last_reported":1722449481,"current_range_meters":28400,"station_id":"ce4bgih2rcd13ifvqba0","pricing_plan_id":"cebpf4jnsgd1na2vs0mg"},{"bike_id":"f3d3c24f-9cee-4493-bda3-33e94bcc4d1c","system_id":"levelo_inurba_marseille","lat":43.29529,"lon":5.385581,"is_reserved":false,"is_disabled":false,"rental_uris":{"android":"levelo://app?vid=f3d3c24f-9cee-4493-bda3-33e94bcc4d1c","ios":"levelo://app?vid=f3d3c24f-9cee-4493-bda3-33e94bcc4d1c"},"vehicle_type_id":"4","last_reported":1722449481,"current_range_meters":8000,"station_id":"ce4bgih2rcd13ifvqba0","pricing_plan_id":"cebpf4jnsgd1na2vs0mg"},{"bike_id":"d8d2f659-0314-43c5-ad3e-d8587b886054","system_id":"levelo_inurba_marseille","lat":43.29529,"lon":5.385581,"is_reserved":false,"is_disabled":false,"rental_uris":{"android":"levelo://app?vid=d8d2f659-0314-43c5-ad3e-d8587b886054","ios":"levelo://app?vid=d8d2f659-0314-43c5-ad3e-d8587b886054"},"vehicle_type_id":"4","last_reported":1722449481,"current_range_meters":15600,"station_id":"ce4bgih2rcd13ifvqba0","pricing_plan_id":"cebpf4jnsgd1na2vs0mg"},{"bike_id":"3bc0f167-3d75-4849-bec0-c4c530c9db3c","system_id":"levelo_inurba_marseille","lat":43.29529,"lon":5.385581,"is_reserved":false,"is_disabled":false,"rental_uris":{"android":"levelo://app?vid=3bc0f167-3d75-4849-bec0-c4c530c9db3c","ios":"levelo://app?vid=3bc0f167-3d75-4849-bec0-c4c530c9db3c"},"vehicle_type_id":"4","last_reported":1722449481,"current_range_meters":24800,"station_id":"ce4bgih2rcd13ifvqba0","pricing_plan_id":"cebpf4jnsgd1na2vs0mg"},{"bike_id":"864d5cb3-e340-4164-a4ef-489e7577e8da","system_id":"levelo_inurba_marseille","lat":43.290779,"lon":5.371482,"is_reserved":false,"is_disabled":false,"rental_uris":{"android":"levelo://app?vid=864d5cb3-e340-4164-a4ef-489e7577e8da","ios":"levelo://app?vid=864d5cb3-e340-4164-a4ef-489e7577e8da"},"vehicle_type_id":"4","last_reported":1722449481,"current_range_meters":24800,"station_id":"ce4bh5p2rcd13ifvqe4g","pricing_plan_id":"cebpf4jnsgd1na2vs0mg"},{"bike_id":"ecd826b1-5dc6-4be3-a24e-10a7fdceedb1","system_id":"levelo_inurba_marseille","lat":43.290779,"lon":5.371482,"is_reserved":false,"is_disabled":false,"rental_uris":{"android":"levelo://app?vid=ecd826b1-5dc6-4be3-a24e-10a7fdceedb1","ios":"levelo://app?vid=ecd826b1-5dc6-4be3-a24e-10a7fdceedb1"},"vehicle_type_id":"4","last_reported":1722449481,"current_range_meters":0,"station_id":"ce4bh5p2rcd13ifvqe4g","pricing_plan_id":"cebpf4jnsgd1na2vs0mg"},{"bike_id":"758f4baa-389b-4a8d-9898-c06ca8969b50","system_id":"levelo_inurba_marseille","lat":43.302008,"lon":5.394694,"is_reserved":false,"is_disabled":false,"rental_uris":{"android":"levelo://app?vid=758f4baa-389b-4a8d-9898-c06ca8969b50","ios":"levelo://app?vid=758f4baa-389b-4a8d-9898-c06ca8969b50"},"vehicle_type_id":"4","last_reported":1722449481,"current_range_meters":14000,"station_id":"ce4bh0p2rcd13ifvqd70","pricing_plan_id":"cebpf4jnsgd1na2vs0mg"},{"bike_id":"202f176b-2bf9-4c27-8cd0-e8104bad8b04","system_id":"levelo_inurba_marseille","lat":43.302008,"lon":5.394694,"is_reserved":false,"is_disabled":false,"rental_uris":{"android":"levelo://app?vid=202f176b-2bf9-4c27-8cd0-e8104bad8b04","ios":"levelo://app?vid=202f176b-2bf9-4c27-8cd0-e8104bad8b04"},"vehicle_type_id":"4","last_reported":1722449481,"current_range_meters":0,"station_id":"ce4bh0p2rcd13ifvqd70","pricing_plan_id":"cebpf4jnsgd1na2vs0mg"},{"bike_id":"4f1bbbf8-b2c0-47b8-b254-60022c43356e","system_id":"levelo_inurba_marseille","lat":43.290631,"lon":5.359244,"is_reserved":false,"is_disabled":false,"rental_uris":{"android":"levelo://app?vid=4f1bbbf8-b2c0-47b8-b254-60022c43356e","ios":"levelo://app?vid=4f1bbbf8-b2c0-47b8-b254-60022c43356e"},"vehicle_type_id":"4","last_reported":1722449481,"current_range_meters":6000,"station_id":"ce4bha92rcd13ifvqeg0","pricing_plan_id":"cebpf4jnsgd1na2vs0mg"},{"bike_id":"85496a0e-5342-41a8-9286-9c9e096b8d68","system_id":"levelo_inurba_marseille","lat":43.290631,"lon":5.359244,"is_reserved":false,"is_disabled":false,"rental_uris":{"android":"levelo://app?vid=85496a0e-5342-41a8-9286-9c9e096b8d68","ios":"levelo://app?vid=85496a0e-5342-41a8-9286-9c9e096b8d68"},"vehicle_type_id":"4","last_reported":1722449481,"current_range_meters":0,"station_id":"ce4bha92rcd13ifvqeg0","pricing_plan_id":"cebpf4jnsgd1na2vs0mg"},{"bike_id":"44eb1286-c4b5-42a6-be62-319ad16939f7","system_id":"levelo_inurba_marseille","lat":43.2942,"lon":5.38624,"is_reserved":false,"is_disabled":false,"rental_uris":{"android":"levelo://app?vid=44eb1286-c4b5-42a6-be62-319ad16939f7","ios":"levelo://app?vid=44eb1286-c4b5-42a6-be62-319ad16939f7"},"vehicle_type_id":"4","last_reported":1722449481,"current_range_meters":1200,"station_id":"ce4bh2h2rcd13ifvqdh0","pricing_plan_id":"cebpf4jnsgd1na2vs0mg"},{"bike_id":"a05f57c0-0f13-4b4e-a855-cdeeee42956f","system_id":"levelo_inurba_marseille","lat":43.294167,"lon":5.386193,"is_reserved":false,"is_disabled":false,"rental_uris":{"android":"levelo://app?vid=a05f57c0-0f13-4b4e-a855-cdeeee42956f","ios":"levelo://app?vid=a05f57c0-0f13-4b4e-a855-cdeeee42956f"},"vehicle_type_id":"4","last_reported":1722449481,"current_range_meters":0,"station_id":"ce4bh2h2rcd13ifvqdh0","pricing_plan_id":"cebpf4jnsgd1na2vs0mg"},{"bike_id":"33149c2c-7511-4477-8660-088b4d3a9d94","system_id":"levelo_inurba_marseille","lat":43.29418,"lon":5.38623,"is_reserved":false,"is_disabled":false,"rental_uris":{"android":"levelo://app?vid=33149c2c-7511-4477-8660-088b4d3a9d94","ios":"levelo://app?vid=33149c2c-7511-4477-8660-088b4d3a9d94"},"vehicle_type_id":"4","last_reported":1722449481,"current_range_meters":0,"station_id":"ce4bh2h2rcd13ifvqdh0","pricing_plan_id":"cebpf4jnsgd1na2vs0mg"},{"bike_id":"5134a59f-b719-4d80-ae4a-2108e35f5e52","system_id":"levelo_inurba_marseille","lat":43.29417,"lon":5.38624,"is_reserved":false,"is_disabled":false,"rental_uris":{"android":"levelo://app?vid=5134a59f-b719-4d80-ae4a-2108e35f5e52","ios":"levelo://app?vid=5134a59f-b719-4d80-ae4a-2108e35f5e52"},"vehicle_type_id":"4","last_reported":1722449481,"current_range_meters":0,"station_id":"ce4bh2h2rcd13ifvqdh0","pricing_plan_id":"cebpf4jnsgd1na2vs0mg"},{"bike_id":"e3e3153d-47c5-4d91-9909-de57e63c1a57","system_id":"levelo_inurba_marseille","lat":43.294153,"lon":5.386305,"is_reserved":false,"is_disabled":false,"rental_uris":{"android":"levelo://app?vid=e3e3153d-47c5-4d91-9909-de57e63c1a57","ios":"levelo://app?vid=e3e3153d-47c5-4d91-9909-de57e63c1a57"},"vehicle_type_id":"4","last_reported":1722449481,"current_range_meters":0,"station_id":"ce4bh2h2rcd13ifvqdh0","pricing_plan_id":"cebpf4jnsgd1na2vs0mg"},{"bike_id":"d9e966a3-a9eb-4ac0-b4ba-44d90aaebaf4","system_id":"levelo_inurba_marseille","lat":43.29416,"lon":5.38623,"is_reserved":false,"is_disabled":false,"rental_uris":{"android":"levelo://app?vid=d9e966a3-a9eb-4ac0-b4ba-44d90aaebaf4","ios":"levelo://app?vid=d9e966a3-a9eb-4ac0-b4ba-44d90aaebaf4"},"vehicle_type_id":"4","last_reported":1722449481,"current_range_meters":0,"station_id":"ce4bh2h2rcd13ifvqdh0","pricing_plan_id":"cebpf4jnsgd1na2vs0mg"},{"bike_id":"4086def6-42cc-41ca-8780-e948e60f8c4d","system_id":"levelo_inurba_marseille","lat":43.28945,"lon":5.36633,"is_reserved":false,"is_disabled":false,"rental_uris":{"android":"levelo://app?vid=4086def6-42cc-41ca-8780-e948e60f8c4d","ios":"levelo://app?vid=4086def6-42cc-41ca-8780-e948e60f8c4d"},"vehicle_type_id":"4","last_reported":1722449481,"current_range_meters":0,"station_id":"ce4bhap2rcd13ifvqek0","pricing_plan_id":"cebpf4jnsgd1na2vs0mg"},{"bike_id":"4ba2d27a-2c93-40a4-9053-e389c2698de4","system_id":"levelo_inurba_marseille","lat":43.289468,"lon":5.363719,"is_reserved":false,"is_disabled":false,"rental_uris":{"android":"levelo://app?vid=4ba2d27a-2c93-40a4-9053-e389c2698de4","ios":"levelo://app?vid=4ba2d27a-2c93-40a4-9053-e389c2698de4"},"vehicle_type_id":"4","last_reported":1722449481,"current_range_meters":0,"station_id":"ce4bhc92rcd13ifvqetg","pricing_plan_id":"cebpf4jnsgd1na2vs0mg"},{"bike_id":"73046d80-5594-4b15-96a5-d7aab0b72faa","system_id":"levelo_inurba_marseille","lat":43.289468,"lon":5.363719,"is_reserved":false,"is_disabled":false,"rental_uris":{"android":"levelo://app?vid=73046d80-5594-4b15-96a5-d7aab0b72faa","ios":"levelo://app?vid=73046d80-5594-4b15-96a5-d7aab0b72faa"},"vehicle_type_id":"4","last_reported":1722449481,"current_range_meters":4000,"station_id":"ce4bhc92rcd13ifvqetg","pricing_plan_id":"cebpf4jnsgd1na2vs0mg"},{"bike_id":"eab50b6f-44b1-4f88-ba3f-10ec3b60dd03","system_id":"levelo_inurba_marseille","lat":43.289184,"lon":5.366408,"is_reserved":false,"is_disabled":false,"rental_uris":{"android":"levelo://app?vid=eab50b6f-44b1-4f88-ba3f-10ec3b60dd03","ios":"levelo://app?vid=eab50b6f-44b1-4f88-ba3f-10ec3b60dd03"},"vehicle_type_id":"4","last_reported":1722449481,"current_range_meters":0,"station_id":"ce4bhap2rcd13ifvqek0","pricing_plan_id":"cebpf4jnsgd1na2vs0mg"},{"bike_id":"18f7e23a-bbb1-4ff3-bc6e-2e70a5ed8a58","system_id":"levelo_inurba_marseille","lat":43.289184,"lon":5.366408,"is_reserved":false,"is_disabled":false,"rental_uris":{"android":"levelo://app?vid=18f7e23a-bbb1-4ff3-bc6e-2e70a5ed8a58","ios":"levelo://app?vid=18f7e23a-bbb1-4ff3-bc6e-2e70a5ed8a58"},"vehicle_type_id":"4","last_reported":1722449481,"current_range_meters":20800,"station_id":"ce4bhap2rcd13ifvqek0","pricing_plan_id":"cebpf4jnsgd1na2vs0mg"},{"bike_id":"573019d8-78b6-4d92-9db6-e56e9cc91e9a","system_id":"levelo_inurba_marseille","lat":43.289468,"lon":5.363719,"is_reserved":false,"is_disabled":false,"rental_uris":{"android":"levelo://app?vid=573019d8-78b6-4d92-9db6-e56e9cc91e9a","ios":"levelo://app?vid=573019d8-78b6-4d92-9db6-e56e9cc91e9a"},"vehicle_type_id":"4","last_reported":1722449481,"current_range_meters":800,"station_id":"ce4bhc92rcd13ifvqetg","pricing_plan_id":"cebpf4jnsgd1na2vs0mg"},{"bike_id":"c2e0d4e6-8981-46bd-81d6-489f12679f8c","system_id":"levelo_inurba_marseille","lat":43.289468,"lon":5.363719,"is_reserved":false,"is_disabled":false,"rental_uris":{"android":"levelo://app?vid=c2e0d4e6-8981-46bd-81d6-489f12679f8c","ios":"levelo://app?vid=c2e0d4e6-8981-46bd-81d6-489f12679f8c"},"vehicle_type_id":"4","last_reported":1722449481,"current_range_meters":7200,"station_id":"ce4bhc92rcd13ifvqetg","pricing_plan_id":"cebpf4jnsgd1na2vs0mg"},{"bike_id":"1be5435a-548f-461b-a40b-18481bca45a0","system_id":"levelo_inurba_marseille","lat":43.292642,"lon":5.384254,"is_reserved":false,"is_disabled":false,"rental_uris":{"android":"levelo://app?vid=1be5435a-548f-461b-a40b-18481bca45a0","ios":"levelo://app?vid=1be5435a-548f-461b-a40b-18481bca45a0"},"vehicle_type_id":"4","last_reported":1722449481,"current_range_meters":0,"station_id":"ce4bh692rcd13ifvqea0","pricing_plan_id":"cebpf4jnsgd1na2vs0mg"},{"bike_id":"f82fc110-7a4e-4d90-9b87-49362aee9608","system_id":"levelo_inurba_marseille","lat":43.292644,"lon":5.384257,"is_reserved":false,"is_disabled":false,"rental_uris":{"android":"levelo://app?vid=f82fc110-7a4e-4d90-9b87-49362aee9608","ios":"levelo://app?vid=f82fc110-7a4e-4d90-9b87-49362aee9608"},"vehicle_type_id":"4","last_reported":1722449481,"current_range_meters":0,"station_id":"ce4bh692rcd13ifvqea0","pricing_plan_id":"cebpf4jnsgd1na2vs0mg"},{"bike_id":"7713ea03-f0d2-4d76-b9fb-ce3cfb896fd9","system_id":"levelo_inurba_marseille","lat":43.30426,"lon":5.39747,"is_reserved":false,"is_disabled":false,"rental_uris":{"android":"levelo://app?vid=7713ea03-f0d2-4d76-b9fb-ce3cfb896fd9","ios":"levelo://app?vid=7713ea03-f0d2-4d76-b9fb-ce3cfb896fd9"},"vehicle_type_id":"4","last_reported":1722449481,"current_range_meters":0,"station_id":"ce4bh092rcd13ifvqd20","pricing_plan_id":"cebpf4jnsgd1na2vs0mg"},{"bike_id":"c73c5a3a-5098-490e-8848-8f4c22b2d873","system_id":"levelo_inurba_marseille","lat":43.29261,"lon":5.38444,"is_reserved":false,"is_disabled":false,"rental_uris":{"android":"levelo://app?vid=c73c5a3a-5098-490e-8848-8f4c22b2d873","ios":"levelo://app?vid=c73c5a3a-5098-490e-8848-8f4c22b2d873"},"vehicle_type_id":"4","last_reported":1722449481,"current_range_meters":0,"station_id":"ce4bh692rcd13ifvqea0","pricing_plan_id":"cebpf4jnsgd1na2vs0mg"},{"bike_id":"724adae5-8101-4374-b0b4-d447997cf7e5","system_id":"levelo_inurba_marseille","lat":43.29259,"lon":5.38447,"is_reserved":false,"is_disabled":false,"rental_uris":{"android":"levelo://app?vid=724adae5-8101-4374-b0b4-d447997cf7e5","ios":"levelo://app?vid=724adae5-8101-4374-b0b4-d447997cf7e5"},"vehicle_type_id":"4","last_reported":1722449481,"current_range_meters":1600,"station_id":"ce4bh692rcd13ifvqea0","pricing_plan_id":"cebpf4jnsgd1na2vs0mg"},{"bike_id":"0467bea7-366b-48a2-ad04-36fe05914c9a","system_id":"levelo_inurba_marseille","lat":43.29258,"lon":5.38451,"is_reserved":false,"is_disabled":false,"rental_uris":{"android":"levelo://app?vid=0467bea7-366b-48a2-ad04-36fe05914c9a","ios":"levelo://app?vid=0467bea7-366b-48a2-ad04-36fe05914c9a"},"vehicle_type_id":"4","last_reported":1722449481,"current_range_meters":0,"station_id":"ce4bh692rcd13ifvqea0","pricing_plan_id":"cebpf4jnsgd1na2vs0mg"},{"bike_id":"f247b815-ffc8-4d18-a520-fdb2a2056a03","system_id":"levelo_inurba_marseille","lat":43.290104,"lon":5.356111,"is_reserved":false,"is_disabled":false,"rental_uris":{"android":"levelo://app?vid=f247b815-ffc8-4d18-a520-fdb2a2056a03","ios":"levelo://app?vid=f247b815-ffc8-4d18-a520-fdb2a2056a03"},"vehicle_type_id":"4","last_reported":1722449481,"current_range_meters":4800,"station_id":"ce4bhb92rcd13ifvqen0","pricing_plan_id":"cebpf4jnsgd1na2vs0mg"},{"bike_id":"7f7fd88a-3ee9-4c5b-8565-3cb578bf641c","system_id":"levelo_inurba_marseille","lat":43.290104,"lon":5.356111,"is_reserved":false,"is_disabled":false,"rental_uris":{"android":"levelo://app?vid=7f7fd88a-3ee9-4c5b-8565-3cb578bf641c","ios":"levelo://app?vid=7f7fd88a-3ee9-4c5b-8565-3cb578bf641c"},"vehicle_type_id":"4","last_reported":1722449481,"current_range_meters":6000,"station_id":"ce4bhb92rcd13ifvqen0","pricing_plan_id":"cebpf4jnsgd1na2vs0mg"},{"bike_id":"3521503b-c5c6-484f-9fe4-d26866d7eafc","system_id":"levelo_inurba_marseille","lat":43.290104,"lon":5.356111,"is_reserved":false,"is_disabled":false,"rental_uris":{"android":"levelo://app?vid=3521503b-c5c6-484f-9fe4-d26866d7eafc","ios":"levelo://app?vid=3521503b-c5c6-484f-9fe4-d26866d7eafc"},"vehicle_type_id":"4","last_reported":1722449481,"current_range_meters":800,"station_id":"ce4bhb92rcd13ifvqen0","pricing_plan_id":"cebpf4jnsgd1na2vs0mg"},{"bike_id":"7bca2459-7f1b-4882-8ae9-93578ff545f4","system_id":"levelo_inurba_marseille","lat":43.290104,"lon":5.356111,"is_reserved":false,"is_disabled":false,"rental_uris":{"android":"levelo://app?vid=7bca2459-7f1b-4882-8ae9-93578ff545f4","ios":"levelo://app?vid=7bca2459-7f1b-4882-8ae9-93578ff545f4"},"vehicle_type_id":"4","last_reported":1722449481,"current_range_meters":400,"station_id":"ce4bhb92rcd13ifvqen0","pricing_plan_id":"cebpf4jnsgd1na2vs0mg"},{"bike_id":"a31d5da5-24ec-4420-a678-03907f7a2408","system_id":"levelo_inurba_marseille","lat":43.290995,"lon":5.381361,"is_reserved":false,"is_disabled":false,"rental_uris":{"android":"levelo://app?vid=a31d5da5-24ec-4420-a678-03907f7a2408","ios":"levelo://app?vid=a31d5da5-24ec-4420-a678-03907f7a2408"},"vehicle_type_id":"4","last_reported":1722449481,"current_range_meters":800,"station_id":"ce4bh512rcd13ifvqe2g","pricing_plan_id":"cebpf4jnsgd1na2vs0mg"},{"bike_id":"1a14303e-83c5-4db1-ba65-90f6c0718883","system_id":"levelo_inurba_marseille","lat":43.290104,"lon":5.356111,"is_reserved":false,"is_disabled":false,"rental_uris":{"android":"levelo://app?vid=1a14303e-83c5-4db1-ba65-90f6c0718883","ios":"levelo://app?vid=1a14303e-83c5-4db1-ba65-90f6c0718883"},"vehicle_type_id":"4","last_reported":1722449481,"current_range_meters":18400,"station_id":"ce4bhb92rcd13ifvqen0","pricing_plan_id":"cebpf4jnsgd1na2vs0mg"},{"bike_id":"e0f94ffa-f234-4cb6-a015-2ef5d4e72788","system_id":"levelo_inurba_marseille","lat":43.290995,"lon":5.381361,"is_reserved":false,"is_disabled":false,"rental_uris":{"android":"levelo://app?vid=e0f94ffa-f234-4cb6-a015-2ef5d4e72788","ios":"levelo://app?vid=e0f94ffa-f234-4cb6-a015-2ef5d4e72788"},"vehicle_type_id":"4","last_reported":1722449481,"current_range_meters":6400,"station_id":"ce4bh512rcd13ifvqe2g","pricing_plan_id":"cebpf4jnsgd1na2vs0mg"},{"bike_id":"f56ef569-e6ae-4f90-b9a8-5401ae52e314","system_id":"levelo_inurba_marseille","lat":43.289743,"lon":5.378304,"is_reserved":false,"is_disabled":false,"rental_uris":{"android":"levelo://app?vid=f56ef569-e6ae-4f90-b9a8-5401ae52e314","ios":"levelo://app?vid=f56ef569-e6ae-4f90-b9a8-5401ae52e314"},"vehicle_type_id":"4","last_reported":1722449481,"current_range_meters":29600,"station_id":"ce4bh9p2rcd13ifvqed0","pricing_plan_id":"cebpf4jnsgd1na2vs0mg"},{"bike_id":"748b540b-fd25-4e9d-a4a0-cfecc11ce9d7","system_id":"levelo_inurba_marseille","lat":43.33588,"lon":5.3787,"is_reserved":false,"is_disabled":false,"rental_uris":{"android":"levelo://app?vid=748b540b-fd25-4e9d-a4a0-cfecc11ce9d7","ios":"levelo://app?vid=748b540b-fd25-4e9d-a4a0-cfecc11ce9d7"},"vehicle_type_id":"4","last_reported":1722449481,"current_range_meters":28400,"station_id":"","pricing_plan_id":"cebpf4jnsgd1na2vs0mg"},{"bike_id":"f4cdf6f8-59cc-4926-bbd3-bf830cd7e7b6","system_id":"levelo_inurba_marseille","lat":43.29031,"lon":5.38136,"is_reserved":false,"is_disabled":false,"rental_uris":{"android":"levelo://app?vid=f4cdf6f8-59cc-4926-bbd3-bf830cd7e7b6","ios":"levelo://app?vid=f4cdf6f8-59cc-4926-bbd3-bf830cd7e7b6"},"vehicle_type_id":"4","last_reported":1722449481,"current_range_meters":28800,"station_id":"ce4bh4p2rcd13ifvqe1g","pricing_plan_id":"cebpf4jnsgd1na2vs0mg"},{"bike_id":"de3b6b55-853d-4514-96f2-c1f82d9e4ea0","system_id":"levelo_inurba_marseille","lat":43.29022,"lon":5.38129,"is_reserved":false,"is_disabled":false,"rental_uris":{"android":"levelo://app?vid=de3b6b55-853d-4514-96f2-c1f82d9e4ea0","ios":"levelo://app?vid=de3b6b55-853d-4514-96f2-c1f82d9e4ea0"},"vehicle_type_id":"4","last_reported":1722449481,"current_range_meters":0,"station_id":"ce4bh4p2rcd13ifvqe1g","pricing_plan_id":"cebpf4jnsgd1na2vs0mg"},{"bike_id":"7e09ab31-9d51-45ae-9962-ec753f779d92","system_id":"levelo_inurba_marseille","lat":43.288487,"lon":5.358419,"is_reserved":false,"is_disabled":false,"rental_uris":{"android":"levelo://app?vid=7e09ab31-9d51-45ae-9962-ec753f779d92","ios":"levelo://app?vid=7e09ab31-9d51-45ae-9962-ec753f779d92"},"vehicle_type_id":"4","last_reported":1722449481,"current_range_meters":0,"station_id":"ce4bhb12rcd13ifvqem0","pricing_plan_id":"cebpf4jnsgd1na2vs0mg"},{"bike_id":"99ba9f5d-98fd-4289-8c2c-ea47e8c968ce","system_id":"levelo_inurba_marseille","lat":43.288473,"lon":5.35843,"is_reserved":false,"is_disabled":false,"rental_uris":{"android":"levelo://app?vid=99ba9f5d-98fd-4289-8c2c-ea47e8c968ce","ios":"levelo://app?vid=99ba9f5d-98fd-4289-8c2c-ea47e8c968ce"},"vehicle_type_id":"4","last_reported":1722449481,"current_range_meters":0,"station_id":"ce4bhb12rcd13ifvqem0","pricing_plan_id":"cebpf4jnsgd1na2vs0mg"},{"bike_id":"0f6976bd-8e26-4c21-ab31-b7f33eac17ee","system_id":"levelo_inurba_marseille","lat":43.337321,"lon":5.374509,"is_reserved":false,"is_disabled":false,"rental_uris":{"android":"levelo://app?vid=0f6976bd-8e26-4c21-ab31-b7f33eac17ee","ios":"levelo://app?vid=0f6976bd-8e26-4c21-ab31-b7f33eac17ee"},"vehicle_type_id":"4","last_reported":1722449481,"current_range_meters":30400,"station_id":"","pricing_plan_id":"cebpf4jnsgd1na2vs0mg"},{"bike_id":"6f044633-3688-4e83-af67-cf3db97c1cc7","system_id":"levelo_inurba_marseille","lat":43.337444,"lon":5.374475,"is_reserved":false,"is_disabled":false,"rental_uris":{"android":"levelo://app?vid=6f044633-3688-4e83-af67-cf3db97c1cc7","ios":"levelo://app?vid=6f044633-3688-4e83-af67-cf3db97c1cc7"},"vehicle_type_id":"3","last_reported":1722449481,"current_range_meters":24800,"station_id":"","pricing_plan_id":"cebpf4jnsgd1na2vs0mg"},{"bike_id":"8a058c7b-856c-452b-8d6f-d54fabac7e59","system_id":"levelo_inurba_marseille","lat":43.309371,"lon":5.401449,"is_reserved":false,"is_disabled":false,"rental_uris":{"android":"levelo://app?vid=8a058c7b-856c-452b-8d6f-d54fabac7e59","ios":"levelo://app?vid=8a058c7b-856c-452b-8d6f-d54fabac7e59"},"vehicle_type_id":"4","last_reported":1722449481,"current_range_meters":2000,"station_id":"ce4bgvp2rcd13ifvqct0","pricing_plan_id":"cebpf4jnsgd1na2vs0mg"},{"bike_id":"a79cbe82-a457-44da-9ddd-c2bc28536f80","system_id":"levelo_inurba_marseille","lat":43.30642,"lon":5.401031,"is_reserved":false,"is_disabled":false,"rental_uris":{"android":"levelo://app?vid=a79cbe82-a457-44da-9ddd-c2bc28536f80","ios":"levelo://app?vid=a79cbe82-a457-44da-9ddd-c2bc28536f80"},"vehicle_type_id":"4","last_reported":1722449481,"current_range_meters":4800,"station_id":"ce4bh112rcd13ifvqda0","pricing_plan_id":"cebpf4jnsgd1na2vs0mg"},{"bike_id":"420e807a-e148-486f-9154-391d8ec7addf","system_id":"levelo_inurba_marseille","lat":43.33773,"lon":5.37469,"is_reserved":false,"is_disabled":false,"rental_uris":{"android":"levelo://app?vid=420e807a-e148-486f-9154-391d8ec7addf","ios":"levelo://app?vid=420e807a-e148-486f-9154-391d8ec7addf"},"vehicle_type_id":"4","last_reported":1722449481,"current_range_meters":27600,"station_id":"","pricing_plan_id":"cebpf4jnsgd1na2vs0mg"},{"bike_id":"fa41e651-7ebe-4aa6-ad7e-a1aa50302cd5","system_id":"levelo_inurba_marseille","lat":43.30973,"lon":5.40196,"is_reserved":false,"is_disabled":false,"rental_uris":{"android":"levelo://app?vid=fa41e651-7ebe-4aa6-ad7e-a1aa50302cd5","ios":"levelo://app?vid=fa41e651-7ebe-4aa6-ad7e-a1aa50302cd5"},"vehicle_type_id":"4","last_reported":1722449481,"current_range_meters":14000,"station_id":"","pricing_plan_id":"cebpf4jnsgd1na2vs0mg"},{"bike_id":"61d5bc3a-d920-4573-887e-287d55a07fbd","system_id":"levelo_inurba_marseille","lat":43.30133,"lon":5.39858,"is_reserved":false,"is_disabled":false,"rental_uris":{"android":"levelo://app?vid=61d5bc3a-d920-4573-887e-287d55a07fbd","ios":"levelo://app?vid=61d5bc3a-d920-4573-887e-287d55a07fbd"},"vehicle_type_id":"4","last_reported":1722449481,"current_range_meters":0,"station_id":"ce4bh0h2rcd13ifvqd40","pricing_plan_id":"cebpf4jnsgd1na2vs0mg"},{"bike_id":"5e92c537-3e6e-4b5c-a2a7-333eeff96664","system_id":"levelo_inurba_marseille","lat":43.30122,"lon":5.39851,"is_reserved":false,"is_disabled":false,"rental_uris":{"android":"levelo://app?vid=5e92c537-3e6e-4b5c-a2a7-333eeff96664","ios":"levelo://app?vid=5e92c537-3e6e-4b5c-a2a7-333eeff96664"},"vehicle_type_id":"4","last_reported":1722449481,"current_range_meters":0,"station_id":"ce4bh0h2rcd13ifvqd40","pricing_plan_id":"cebpf4jnsgd1na2vs0mg"},{"bike_id":"87e0dace-ee20-476c-bbbe-525c47ef4252","system_id":"levelo_inurba_marseille","lat":43.301117,"lon":5.398795,"is_reserved":false,"is_disabled":false,"rental_uris":{"android":"levelo://app?vid=87e0dace-ee20-476c-bbbe-525c47ef4252","ios":"levelo://app?vid=87e0dace-ee20-476c-bbbe-525c47ef4252"},"vehicle_type_id":"4","last_reported":1722449481,"current_range_meters":0,"station_id":"ce4bh0h2rcd13ifvqd40","pricing_plan_id":"cebpf4jnsgd1na2vs0mg"},{"bike_id":"e2fba803-053d-478c-8ef5-b536964179a8","system_id":"levelo_inurba_marseille","lat":43.28727,"lon":5.36078,"is_reserved":false,"is_disabled":false,"rental_uris":{"android":"levelo://app?vid=e2fba803-053d-478c-8ef5-b536964179a8","ios":"levelo://app?vid=e2fba803-053d-478c-8ef5-b536964179a8"},"vehicle_type_id":"4","last_reported":1722449481,"current_range_meters":22000,"station_id":"cki0cbj6b192h4jlfktg","pricing_plan_id":"cebpf4jnsgd1na2vs0mg"},{"bike_id":"d3946402-07dc-4d66-ab11-4e21984d7178","system_id":"levelo_inurba_marseille","lat":43.28727,"lon":5.36078,"is_reserved":false,"is_disabled":false,"rental_uris":{"android":"levelo://app?vid=d3946402-07dc-4d66-ab11-4e21984d7178","ios":"levelo://app?vid=d3946402-07dc-4d66-ab11-4e21984d7178"},"vehicle_type_id":"4","last_reported":1722449481,"current_range_meters":14000,"station_id":"cki0cbj6b192h4jlfktg","pricing_plan_id":"cebpf4jnsgd1na2vs0mg"},{"bike_id":"f95ad6a0-40cb-4a5a-b006-00f139129bd0","system_id":"levelo_inurba_marseille","lat":43.286593,"lon":5.363346,"is_reserved":false,"is_disabled":false,"rental_uris":{"android":"levelo://app?vid=f95ad6a0-40cb-4a5a-b006-00f139129bd0","ios":"levelo://app?vid=f95ad6a0-40cb-4a5a-b006-00f139129bd0"},"vehicle_type_id":"4","last_reported":1722449481,"current_range_meters":8800,"station_id":"ce4bhah2rcd13ifvqej0","pricing_plan_id":"cebpf4jnsgd1na2vs0mg"},{"bike_id":"a641e968-1ac5-4e65-a964-9230898866b7","system_id":"levelo_inurba_marseille","lat":43.29062,"lon":5.38615,"is_reserved":false,"is_disabled":false,"rental_uris":{"android":"levelo://app?vid=a641e968-1ac5-4e65-a964-9230898866b7","ios":"levelo://app?vid=a641e968-1ac5-4e65-a964-9230898866b7"},"vehicle_type_id":"4","last_reported":1722449481,"current_range_meters":0,"station_id":"ce4bh4p2rcd13ifvqe0g","pricing_plan_id":"cebpf4jnsgd1na2vs0mg"},{"bike_id":"4f2b8ac3-1be4-4971-88b0-418b3ede9a51","system_id":"levelo_inurba_marseille","lat":43.298682,"lon":5.397279,"is_reserved":false,"is_disabled":false,"rental_uris":{"android":"levelo://app?vid=4f2b8ac3-1be4-4971-88b0-418b3ede9a51","ios":"levelo://app?vid=4f2b8ac3-1be4-4971-88b0-418b3ede9a51"},"vehicle_type_id":"4","last_reported":1722449481,"current_range_meters":0,"station_id":"","pricing_plan_id":"cebpf4jnsgd1na2vs0mg"},{"bike_id":"f4863533-fc6b-4422-bfc1-91466516ff44","system_id":"levelo_inurba_marseille","lat":43.2987,"lon":5.3973,"is_reserved":false,"is_disabled":false,"rental_uris":{"android":"levelo://app?vid=f4863533-fc6b-4422-bfc1-91466516ff44","ios":"levelo://app?vid=f4863533-fc6b-4422-bfc1-91466516ff44"},"vehicle_type_id":"4","last_reported":1722449481,"current_range_meters":0,"station_id":"ce4bh0h2rcd13ifvqd50","pricing_plan_id":"cebpf4jnsgd1na2vs0mg"},{"bike_id":"d58a5d68-df31-4c1b-bb34-8b34fca131d3","system_id":"levelo_inurba_marseille","lat":43.28666,"lon":5.36348,"is_reserved":false,"is_disabled":false,"rental_uris":{"android":"levelo://app?vid=d58a5d68-df31-4c1b-bb34-8b34fca131d3","ios":"levelo://app?vid=d58a5d68-df31-4c1b-bb34-8b34fca131d3"},"vehicle_type_id":"4","last_reported":1722449481,"current_range_meters":0,"station_id":"ce4bhah2rcd13ifvqej0","pricing_plan_id":"cebpf4jnsgd1na2vs0mg"},{"bike_id":"afa70446-1d3e-4ef3-825c-1ea290df80e4","system_id":"levelo_inurba_marseille","lat":43.286593,"lon":5.363346,"is_reserved":false,"is_disabled":false,"rental_uris":{"android":"levelo://app?vid=afa70446-1d3e-4ef3-825c-1ea290df80e4","ios":"levelo://app?vid=afa70446-1d3e-4ef3-825c-1ea290df80e4"},"vehicle_type_id":"4","last_reported":1722449481,"current_range_meters":0,"station_id":"ce4bhah2rcd13ifvqej0","pricing_plan_id":"cebpf4jnsgd1na2vs0mg"},{"bike_id":"4da17700-1eb4-46a5-916d-02c3239d7015","system_id":"levelo_inurba_marseille","lat":43.286961,"lon":5.373785,"is_reserved":false,"is_disabled":false,"rental_uris":{"android":"levelo://app?vid=4da17700-1eb4-46a5-916d-02c3239d7015","ios":"levelo://app?vid=4da17700-1eb4-46a5-916d-02c3239d7015"},"vehicle_type_id":"4","last_reported":1722449481,"current_range_meters":0,"station_id":"ce4bh3p2rcd13ifvqdq0","pricing_plan_id":"cebpf4jnsgd1na2vs0mg"},{"bike_id":"08601481-c76d-4fce-b5e1-6a7520bf3d7e","system_id":"levelo_inurba_marseille","lat":43.287007,"lon":5.373947,"is_reserved":false,"is_disabled":false,"rental_uris":{"android":"levelo://app?vid=08601481-c76d-4fce-b5e1-6a7520bf3d7e","ios":"levelo://app?vid=08601481-c76d-4fce-b5e1-6a7520bf3d7e"},"vehicle_type_id":"4","last_reported":1722449481,"current_range_meters":0,"station_id":"ce4bh3p2rcd13ifvqdq0","pricing_plan_id":"cebpf4jnsgd1na2vs0mg"},{"bike_id":"471d5b24-3acb-4084-98d5-51e33e1bbfd4","system_id":"levelo_inurba_marseille","lat":43.302759,"lon":5.400793,"is_reserved":false,"is_disabled":false,"rental_uris":{"android":"levelo://app?vid=471d5b24-3acb-4084-98d5-51e33e1bbfd4","ios":"levelo://app?vid=471d5b24-3acb-4084-98d5-51e33e1bbfd4"},"vehicle_type_id":"4","last_reported":1722449481,"current_range_meters":0,"station_id":"ce4bgvh2rcd13ifvqcs0","pricing_plan_id":"cebpf4jnsgd1na2vs0mg"},{"bike_id":"4e22a23a-3406-4f53-bb89-013bc5dde57b","system_id":"levelo_inurba_marseille","lat":43.302759,"lon":5.400793,"is_reserved":false,"is_disabled":false,"rental_uris":{"android":"levelo://app?vid=4e22a23a-3406-4f53-bb89-013bc5dde57b","ios":"levelo://app?vid=4e22a23a-3406-4f53-bb89-013bc5dde57b"},"vehicle_type_id":"4","last_reported":1722449481,"current_range_meters":0,"station_id":"ce4bgvh2rcd13ifvqcs0","pricing_plan_id":"cebpf4jnsgd1na2vs0mg"},{"bike_id":"02452edf-1ee9-4fd7-b353-9d6fdd1b5cc4","system_id":"levelo_inurba_marseille","lat":43.29028,"lon":5.38645,"is_reserved":false,"is_disabled":false,"rental_uris":{"android":"levelo://app?vid=02452edf-1ee9-4fd7-b353-9d6fdd1b5cc4","ios":"levelo://app?vid=02452edf-1ee9-4fd7-b353-9d6fdd1b5cc4"},"vehicle_type_id":"4","last_reported":1722449481,"current_range_meters":0,"station_id":"ce4bh4p2rcd13ifvqe0g","pricing_plan_id":"cebpf4jnsgd1na2vs0mg"},{"bike_id":"26df8076-9263-4261-9348-8486aa80f764","system_id":"levelo_inurba_marseille","lat":43.302759,"lon":5.400793,"is_reserved":false,"is_disabled":false,"rental_uris":{"android":"levelo://app?vid=26df8076-9263-4261-9348-8486aa80f764","ios":"levelo://app?vid=26df8076-9263-4261-9348-8486aa80f764"},"vehicle_type_id":"4","last_reported":1722449481,"current_range_meters":0,"station_id":"ce4bgvh2rcd13ifvqcs0","pricing_plan_id":"cebpf4jnsgd1na2vs0mg"},{"bike_id":"3131d69a-5c75-4607-a0fb-fc951254aa82","system_id":"levelo_inurba_marseille","lat":43.28922,"lon":5.384025,"is_reserved":false,"is_disabled":false,"rental_uris":{"android":"levelo://app?vid=3131d69a-5c75-4607-a0fb-fc951254aa82","ios":"levelo://app?vid=3131d69a-5c75-4607-a0fb-fc951254aa82"},"vehicle_type_id":"4","last_reported":1722449481,"current_range_meters":0,"station_id":"ce4bh612rcd13ifvqe6g","pricing_plan_id":"cebpf4jnsgd1na2vs0mg"},{"bike_id":"821ea3e6-704b-4290-a04c-1fdc0181c4e0","system_id":"levelo_inurba_marseille","lat":43.290336,"lon":5.386425,"is_reserved":false,"is_disabled":false,"rental_uris":{"android":"levelo://app?vid=821ea3e6-704b-4290-a04c-1fdc0181c4e0","ios":"levelo://app?vid=821ea3e6-704b-4290-a04c-1fdc0181c4e0"},"vehicle_type_id":"4","last_reported":1722449481,"current_range_meters":11600,"station_id":"ce4bh4p2rcd13ifvqe0g","pricing_plan_id":"cebpf4jnsgd1na2vs0mg"},{"bike_id":"8adb2223-1609-418d-a325-5033403bf3eb","system_id":"levelo_inurba_marseille","lat":43.302759,"lon":5.400793,"is_reserved":false,"is_disabled":false,"rental_uris":{"android":"levelo://app?vid=8adb2223-1609-418d-a325-5033403bf3eb","ios":"levelo://app?vid=8adb2223-1609-418d-a325-5033403bf3eb"},"vehicle_type_id":"4","last_reported":1722449481,"current_range_meters":18000,"station_id":"ce4bgvh2rcd13ifvqcs0","pricing_plan_id":"cebpf4jnsgd1na2vs0mg"},{"bike_id":"1a91a567-c0ab-4516-b639-88192e360457","system_id":"levelo_inurba_marseille","lat":43.289307,"lon":5.38406,"is_reserved":false,"is_disabled":false,"rental_uris":{"android":"levelo://app?vid=1a91a567-c0ab-4516-b639-88192e360457","ios":"levelo://app?vid=1a91a567-c0ab-4516-b639-88192e360457"},"vehicle_type_id":"4","last_reported":1722449481,"current_range_meters":31200,"station_id":"ce4bh612rcd13ifvqe6g","pricing_plan_id":"cebpf4jnsgd1na2vs0mg"},{"bike_id":"9fed7cb4-989f-4234-934e-35b5ec1029a5","system_id":"levelo_inurba_marseille","lat":43.302759,"lon":5.400793,"is_reserved":false,"is_disabled":false,"rental_uris":{"android":"levelo://app?vid=9fed7cb4-989f-4234-934e-35b5ec1029a5","ios":"levelo://app?vid=9fed7cb4-989f-4234-934e-35b5ec1029a5"},"vehicle_type_id":"4","last_reported":1722449481,"current_range_meters":29200,"station_id":"ce4bgvh2rcd13ifvqcs0","pricing_plan_id":"cebpf4jnsgd1na2vs0mg"},{"bike_id":"89cf486d-b733-4887-b5ff-c2ce7a531b11","system_id":"levelo_inurba_marseille","lat":43.28831,"lon":5.38232,"is_reserved":false,"is_disabled":false,"rental_uris":{"android":"levelo://app?vid=89cf486d-b733-4887-b5ff-c2ce7a531b11","ios":"levelo://app?vid=89cf486d-b733-4887-b5ff-c2ce7a531b11"},"vehicle_type_id":"4","last_reported":1722449481,"current_range_meters":5600,"station_id":"","pricing_plan_id":"cebpf4jnsgd1na2vs0mg"},{"bike_id":"06cba52f-6e58-40f4-bd8d-6ff94d88ebd6","system_id":"levelo_inurba_marseille","lat":43.287184,"lon":5.37937,"is_reserved":false,"is_disabled":false,"rental_uris":{"android":"levelo://app?vid=06cba52f-6e58-40f4-bd8d-6ff94d88ebd6","ios":"levelo://app?vid=06cba52f-6e58-40f4-bd8d-6ff94d88ebd6"},"vehicle_type_id":"4","last_reported":1722449481,"current_range_meters":8400,"station_id":"ce4bh9p2rcd13ifvqec0","pricing_plan_id":"cebpf4jnsgd1na2vs0mg"},{"bike_id":"867c0a78-657c-4d25-acf2-51e4e39fbd19","system_id":"levelo_inurba_marseille","lat":43.316828,"lon":5.404723,"is_reserved":false,"is_disabled":false,"rental_uris":{"android":"levelo://app?vid=867c0a78-657c-4d25-acf2-51e4e39fbd19","ios":"levelo://app?vid=867c0a78-657c-4d25-acf2-51e4e39fbd19"},"vehicle_type_id":"4","last_reported":1722449481,"current_range_meters":20000,"station_id":"ce4bh012rcd13ifvqd00","pricing_plan_id":"cebpf4jnsgd1na2vs0mg"},{"bike_id":"d774d16a-95eb-4c6e-95c9-d3ced7f9dee0","system_id":"levelo_inurba_marseille","lat":43.29209,"lon":5.39313,"is_reserved":false,"is_disabled":false,"rental_uris":{"android":"levelo://app?vid=d774d16a-95eb-4c6e-95c9-d3ced7f9dee0","ios":"levelo://app?vid=d774d16a-95eb-4c6e-95c9-d3ced7f9dee0"},"vehicle_type_id":"4","last_reported":1722449481,"current_range_meters":28400,"station_id":"ce4bh192rcd13ifvqdd0","pricing_plan_id":"cebpf4jnsgd1na2vs0mg"},{"bike_id":"3a785bde-508e-46c0-be0f-1b3ebdd0b175","system_id":"levelo_inurba_marseille","lat":43.28469,"lon":5.3589,"is_reserved":false,"is_disabled":false,"rental_uris":{"android":"levelo://app?vid=3a785bde-508e-46c0-be0f-1b3ebdd0b175","ios":"levelo://app?vid=3a785bde-508e-46c0-be0f-1b3ebdd0b175"},"vehicle_type_id":"4","last_reported":1722449481,"current_range_meters":0,"station_id":"ce4bhah2rcd13ifvqei0","pricing_plan_id":"cebpf4jnsgd1na2vs0mg"},{"bike_id":"497e4b64-4805-4044-9e3d-98327d320ae8","system_id":"levelo_inurba_marseille","lat":43.28467,"lon":5.35894,"is_reserved":false,"is_disabled":false,"rental_uris":{"android":"levelo://app?vid=497e4b64-4805-4044-9e3d-98327d320ae8","ios":"levelo://app?vid=497e4b64-4805-4044-9e3d-98327d320ae8"},"vehicle_type_id":"4","last_reported":1722449481,"current_range_meters":0,"station_id":"ce4bhah2rcd13ifvqei0","pricing_plan_id":"cebpf4jnsgd1na2vs0mg"},{"bike_id":"1b217d88-83b2-4b84-9588-1c8e6d9b6051","system_id":"levelo_inurba_marseille","lat":43.28626,"lon":5.351,"is_reserved":false,"is_disabled":false,"rental_uris":{"android":"levelo://app?vid=1b217d88-83b2-4b84-9588-1c8e6d9b6051","ios":"levelo://app?vid=1b217d88-83b2-4b84-9588-1c8e6d9b6051"},"vehicle_type_id":"4","last_reported":1722449481,"current_range_meters":31200,"station_id":"ce4bhch2rcd13ifvqeug","pricing_plan_id":"cebpf4jnsgd1na2vs0mg"},{"bike_id":"356e3c4f-4cb5-4d54-8d3d-e856b0cf5121","system_id":"levelo_inurba_marseille","lat":43.28622,"lon":5.35108,"is_reserved":false,"is_disabled":false,"rental_uris":{"android":"levelo://app?vid=356e3c4f-4cb5-4d54-8d3d-e856b0cf5121","ios":"levelo://app?vid=356e3c4f-4cb5-4d54-8d3d-e856b0cf5121"},"vehicle_type_id":"4","last_reported":1722449481,"current_range_meters":2400,"station_id":"ce4bhch2rcd13ifvqeug","pricing_plan_id":"cebpf4jnsgd1na2vs0mg"},{"bike_id":"1ef67643-08d8-44ab-9073-554004269f75","system_id":"levelo_inurba_marseille","lat":43.2862,"lon":5.35108,"is_reserved":false,"is_disabled":false,"rental_uris":{"android":"levelo://app?vid=1ef67643-08d8-44ab-9073-554004269f75","ios":"levelo://app?vid=1ef67643-08d8-44ab-9073-554004269f75"},"vehicle_type_id":"4","last_reported":1722449481,"current_range_meters":31200,"station_id":"ce4bhch2rcd13ifvqeug","pricing_plan_id":"cebpf4jnsgd1na2vs0mg"},{"bike_id":"f2549926-5729-4f63-8608-9d8bca370411","system_id":"levelo_inurba_marseille","lat":43.28621,"lon":5.35102,"is_reserved":false,"is_disabled":false,"rental_uris":{"android":"levelo://app?vid=f2549926-5729-4f63-8608-9d8bca370411","ios":"levelo://app?vid=f2549926-5729-4f63-8608-9d8bca370411"},"vehicle_type_id":"4","last_reported":1722449481,"current_range_meters":2800,"station_id":"ce4bhch2rcd13ifvqeug","pricing_plan_id":"cebpf4jnsgd1na2vs0mg"},{"bike_id":"a37116db-1c9c-4df7-a008-09a07c0777e6","system_id":"levelo_inurba_marseille","lat":43.28619,"lon":5.35104,"is_reserved":false,"is_disabled":false,"rental_uris":{"android":"levelo://app?vid=a37116db-1c9c-4df7-a008-09a07c0777e6","ios":"levelo://app?vid=a37116db-1c9c-4df7-a008-09a07c0777e6"},"vehicle_type_id":"4","last_reported":1722449481,"current_range_meters":19600,"station_id":"ce4bhch2rcd13ifvqeug","pricing_plan_id":"cebpf4jnsgd1na2vs0mg"},{"bike_id":"4f9032ba-84d6-433a-a2c4-98a9ee3d422a","system_id":"levelo_inurba_marseille","lat":43.286187,"lon":5.35105,"is_reserved":false,"is_disabled":false,"rental_uris":{"android":"levelo://app?vid=4f9032ba-84d6-433a-a2c4-98a9ee3d422a","ios":"levelo://app?vid=4f9032ba-84d6-433a-a2c4-98a9ee3d422a"},"vehicle_type_id":"4","last_reported":1722449481,"current_range_meters":28800,"station_id":"ce4bhch2rcd13ifvqeug","pricing_plan_id":"cebpf4jnsgd1na2vs0mg"},{"bike_id":"a0d1b669-67bd-4fc3-be36-c45fb8fdae00","system_id":"levelo_inurba_marseille","lat":43.28618,"lon":5.35106,"is_reserved":false,"is_disabled":false,"rental_uris":{"android":"levelo://app?vid=a0d1b669-67bd-4fc3-be36-c45fb8fdae00","ios":"levelo://app?vid=a0d1b669-67bd-4fc3-be36-c45fb8fdae00"},"vehicle_type_id":"4","last_reported":1722449481,"current_range_meters":31200,"station_id":"ce4bhch2rcd13ifvqeug","pricing_plan_id":"cebpf4jnsgd1na2vs0mg"},{"bike_id":"9f61c430-7eb0-48b4-8b15-515a21846df6","system_id":"levelo_inurba_marseille","lat":43.285856,"lon":5.350771,"is_reserved":false,"is_disabled":false,"rental_uris":{"android":"levelo://app?vid=9f61c430-7eb0-48b4-8b15-515a21846df6","ios":"levelo://app?vid=9f61c430-7eb0-48b4-8b15-515a21846df6"},"vehicle_type_id":"4","last_reported":1722449481,"current_range_meters":0,"station_id":"ce4bhch2rcd13ifvqeug","pricing_plan_id":"cebpf4jnsgd1na2vs0mg"},{"bike_id":"d9597fa4-e32a-4cf8-ae45-e5b3078adad7","system_id":"levelo_inurba_marseille","lat":43.286182,"lon":5.35103,"is_reserved":false,"is_disabled":false,"rental_uris":{"android":"levelo://app?vid=d9597fa4-e32a-4cf8-ae45-e5b3078adad7","ios":"levelo://app?vid=d9597fa4-e32a-4cf8-ae45-e5b3078adad7"},"vehicle_type_id":"4","last_reported":1722449481,"current_range_meters":6800,"station_id":"ce4bhch2rcd13ifvqeug","pricing_plan_id":"cebpf4jnsgd1na2vs0mg"},{"bike_id":"c6eb141a-42a4-4230-93e9-7bc41c4a7932","system_id":"levelo_inurba_marseille","lat":43.28619,"lon":5.351,"is_reserved":false,"is_disabled":false,"rental_uris":{"android":"levelo://app?vid=c6eb141a-42a4-4230-93e9-7bc41c4a7932","ios":"levelo://app?vid=c6eb141a-42a4-4230-93e9-7bc41c4a7932"},"vehicle_type_id":"4","last_reported":1722449481,"current_range_meters":31200,"station_id":"ce4bhch2rcd13ifvqeug","pricing_plan_id":"cebpf4jnsgd1na2vs0mg"},{"bike_id":"922ca32a-117b-4ea1-a9ea-5b11f5d9b0bd","system_id":"levelo_inurba_marseille","lat":43.28616,"lon":5.35108,"is_reserved":false,"is_disabled":false,"rental_uris":{"android":"levelo://app?vid=922ca32a-117b-4ea1-a9ea-5b11f5d9b0bd","ios":"levelo://app?vid=922ca32a-117b-4ea1-a9ea-5b11f5d9b0bd"},"vehicle_type_id":"4","last_reported":1722449481,"current_range_meters":26800,"station_id":"ce4bhch2rcd13ifvqeug","pricing_plan_id":"cebpf4jnsgd1na2vs0mg"},{"bike_id":"075f2b05-d946-46fd-a4ec-624d668aa8c7","system_id":"levelo_inurba_marseille","lat":43.28616,"lon":5.35104,"is_reserved":false,"is_disabled":false,"rental_uris":{"android":"levelo://app?vid=075f2b05-d946-46fd-a4ec-624d668aa8c7","ios":"levelo://app?vid=075f2b05-d946-46fd-a4ec-624d668aa8c7"},"vehicle_type_id":"4","last_reported":1722449481,"current_range_meters":30800,"station_id":"ce4bhch2rcd13ifvqeug","pricing_plan_id":"cebpf4jnsgd1na2vs0mg"},{"bike_id":"ef7edd9b-fe82-462e-b1b2-7d575409c5a1","system_id":"levelo_inurba_marseille","lat":43.285856,"lon":5.350771,"is_reserved":false,"is_disabled":false,"rental_uris":{"android":"levelo://app?vid=ef7edd9b-fe82-462e-b1b2-7d575409c5a1","ios":"levelo://app?vid=ef7edd9b-fe82-462e-b1b2-7d575409c5a1"},"vehicle_type_id":"4","last_reported":1722449481,"current_range_meters":26800,"station_id":"ce4bhch2rcd13ifvqeug","pricing_plan_id":"cebpf4jnsgd1na2vs0mg"},{"bike_id":"4766f575-dbbf-4597-8594-cde312a4e996","system_id":"levelo_inurba_marseille","lat":43.285856,"lon":5.350771,"is_reserved":false,"is_disabled":false,"rental_uris":{"android":"levelo://app?vid=4766f575-dbbf-4597-8594-cde312a4e996","ios":"levelo://app?vid=4766f575-dbbf-4597-8594-cde312a4e996"},"vehicle_type_id":"4","last_reported":1722449481,"current_range_meters":7200,"station_id":"ce4bhch2rcd13ifvqeug","pricing_plan_id":"cebpf4jnsgd1na2vs0mg"},{"bike_id":"18312fbc-6cc1-4d7b-bb35-f4645815d3b3","system_id":"levelo_inurba_marseille","lat":43.28613,"lon":5.35106,"is_reserved":false,"is_disabled":false,"rental_uris":{"android":"levelo://app?vid=18312fbc-6cc1-4d7b-bb35-f4645815d3b3","ios":"levelo://app?vid=18312fbc-6cc1-4d7b-bb35-f4645815d3b3"},"vehicle_type_id":"4","last_reported":1722449481,"current_range_meters":27200,"station_id":"ce4bhch2rcd13ifvqeug","pricing_plan_id":"cebpf4jnsgd1na2vs0mg"},{"bike_id":"97f3ce3c-9081-4905-939e-1e87c1514e99","system_id":"levelo_inurba_marseille","lat":43.28613,"lon":5.35105,"is_reserved":false,"is_disabled":false,"rental_uris":{"android":"levelo://app?vid=97f3ce3c-9081-4905-939e-1e87c1514e99","ios":"levelo://app?vid=97f3ce3c-9081-4905-939e-1e87c1514e99"},"vehicle_type_id":"4","last_reported":1722449481,"current_range_meters":30400,"station_id":"ce4bhch2rcd13ifvqeug","pricing_plan_id":"cebpf4jnsgd1na2vs0mg"},{"bike_id":"dead266a-edd6-47da-8066-6738a7056adc","system_id":"levelo_inurba_marseille","lat":43.285848,"lon":5.350787,"is_reserved":false,"is_disabled":false,"rental_uris":{"android":"levelo://app?vid=dead266a-edd6-47da-8066-6738a7056adc","ios":"levelo://app?vid=dead266a-edd6-47da-8066-6738a7056adc"},"vehicle_type_id":"4","last_reported":1722449481,"current_range_meters":10400,"station_id":"ce4bhch2rcd13ifvqeug","pricing_plan_id":"cebpf4jnsgd1na2vs0mg"},{"bike_id":"04e5e263-e997-4440-8a0b-cae2c7368d15","system_id":"levelo_inurba_marseille","lat":43.285856,"lon":5.350771,"is_reserved":false,"is_disabled":false,"rental_uris":{"android":"levelo://app?vid=04e5e263-e997-4440-8a0b-cae2c7368d15","ios":"levelo://app?vid=04e5e263-e997-4440-8a0b-cae2c7368d15"},"vehicle_type_id":"4","last_reported":1722449481,"current_range_meters":30000,"station_id":"ce4bhch2rcd13ifvqeug","pricing_plan_id":"cebpf4jnsgd1na2vs0mg"},{"bike_id":"571882d5-3d29-4253-9ee6-ffb67ec709c5","system_id":"levelo_inurba_marseille","lat":43.283998,"lon":5.375062,"is_reserved":false,"is_disabled":false,"rental_uris":{"android":"levelo://app?vid=571882d5-3d29-4253-9ee6-ffb67ec709c5","ios":"levelo://app?vid=571882d5-3d29-4253-9ee6-ffb67ec709c5"},"vehicle_type_id":"4","last_reported":1722449481,"current_range_meters":0,"station_id":"ce4bh412rcd13ifvqds0","pricing_plan_id":"cebpf4jnsgd1na2vs0mg"},{"bike_id":"1733276f-2072-4632-b7f2-d3dd6e82abca","system_id":"levelo_inurba_marseille","lat":43.29574,"lon":5.399531,"is_reserved":false,"is_disabled":false,"rental_uris":{"android":"levelo://app?vid=1733276f-2072-4632-b7f2-d3dd6e82abca","ios":"levelo://app?vid=1733276f-2072-4632-b7f2-d3dd6e82abca"},"vehicle_type_id":"4","last_reported":1722449481,"current_range_meters":0,"station_id":"","pricing_plan_id":"cebpf4jnsgd1na2vs0mg"},{"bike_id":"cb4972c0-bced-49c2-9b30-2e954679d2d4","system_id":"levelo_inurba_marseille","lat":43.286703,"lon":5.386604,"is_reserved":false,"is_disabled":false,"rental_uris":{"android":"levelo://app?vid=cb4972c0-bced-49c2-9b30-2e954679d2d4","ios":"levelo://app?vid=cb4972c0-bced-49c2-9b30-2e954679d2d4"},"vehicle_type_id":"4","last_reported":1722449481,"current_range_meters":0,"station_id":"ce4bh492rcd13ifvqdug","pricing_plan_id":"cebpf4jnsgd1na2vs0mg"},{"bike_id":"9234daf9-94a8-4ca1-8f1a-42a75ed8b986","system_id":"levelo_inurba_marseille","lat":43.286595,"lon":5.386795,"is_reserved":false,"is_disabled":false,"rental_uris":{"android":"levelo://app?vid=9234daf9-94a8-4ca1-8f1a-42a75ed8b986","ios":"levelo://app?vid=9234daf9-94a8-4ca1-8f1a-42a75ed8b986"},"vehicle_type_id":"4","last_reported":1722449481,"current_range_meters":3600,"station_id":"ce4bh492rcd13ifvqdug","pricing_plan_id":"cebpf4jnsgd1na2vs0mg"},{"bike_id":"1e25cbc0-b1d1-4f0a-a05d-137f4bbddfe0","system_id":"levelo_inurba_marseille","lat":43.33717,"lon":5.391857,"is_reserved":false,"is_disabled":false,"rental_uris":{"android":"levelo://app?vid=1e25cbc0-b1d1-4f0a-a05d-137f4bbddfe0","ios":"levelo://app?vid=1e25cbc0-b1d1-4f0a-a05d-137f4bbddfe0"},"vehicle_type_id":"4","last_reported":1722449481,"current_range_meters":31200,"station_id":"ce4bhr92rcd13ifvqhsg","pricing_plan_id":"cebpf4jnsgd1na2vs0mg"},{"bike_id":"4e8c9a7f-1292-42f9-9e42-0cc3dac80cc3","system_id":"levelo_inurba_marseille","lat":43.33722,"lon":5.3918,"is_reserved":false,"is_disabled":false,"rental_uris":{"android":"levelo://app?vid=4e8c9a7f-1292-42f9-9e42-0cc3dac80cc3","ios":"levelo://app?vid=4e8c9a7f-1292-42f9-9e42-0cc3dac80cc3"},"vehicle_type_id":"4","last_reported":1722449481,"current_range_meters":3600,"station_id":"ce4bhr92rcd13ifvqhsg","pricing_plan_id":"cebpf4jnsgd1na2vs0mg"},{"bike_id":"53469620-1e5a-4056-9bb1-b0ee59cf34fe","system_id":"levelo_inurba_marseille","lat":43.337168,"lon":5.391825,"is_reserved":false,"is_disabled":false,"rental_uris":{"android":"levelo://app?vid=53469620-1e5a-4056-9bb1-b0ee59cf34fe","ios":"levelo://app?vid=53469620-1e5a-4056-9bb1-b0ee59cf34fe"},"vehicle_type_id":"4","last_reported":1722449481,"current_range_meters":5600,"station_id":"ce4bhr92rcd13ifvqhsg","pricing_plan_id":"cebpf4jnsgd1na2vs0mg"},{"bike_id":"cdd0e847-61c8-4b05-be98-4f9b04020e4e","system_id":"levelo_inurba_marseille","lat":43.33727,"lon":5.39181,"is_reserved":false,"is_disabled":false,"rental_uris":{"android":"levelo://app?vid=cdd0e847-61c8-4b05-be98-4f9b04020e4e","ios":"levelo://app?vid=cdd0e847-61c8-4b05-be98-4f9b04020e4e"},"vehicle_type_id":"4","last_reported":1722449481,"current_range_meters":6400,"station_id":"ce4bhr92rcd13ifvqhsg","pricing_plan_id":"cebpf4jnsgd1na2vs0mg"},{"bike_id":"4d0d74d4-a57a-4a19-84d5-33c07b0777cd","system_id":"levelo_inurba_marseille","lat":43.337299,"lon":5.3918,"is_reserved":false,"is_disabled":false,"rental_uris":{"android":"levelo://app?vid=4d0d74d4-a57a-4a19-84d5-33c07b0777cd","ios":"levelo://app?vid=4d0d74d4-a57a-4a19-84d5-33c07b0777cd"},"vehicle_type_id":"4","last_reported":1722449481,"current_range_meters":8400,"station_id":"ce4bhr92rcd13ifvqhsg","pricing_plan_id":"cebpf4jnsgd1na2vs0mg"},{"bike_id":"7a673e49-a141-4705-b917-2105a99796cf","system_id":"levelo_inurba_marseille","lat":43.33717,"lon":5.391857,"is_reserved":false,"is_disabled":false,"rental_uris":{"android":"levelo://app?vid=7a673e49-a141-4705-b917-2105a99796cf","ios":"levelo://app?vid=7a673e49-a141-4705-b917-2105a99796cf"},"vehicle_type_id":"4","last_reported":1722449481,"current_range_meters":22400,"station_id":"ce4bhr92rcd13ifvqhsg","pricing_plan_id":"cebpf4jnsgd1na2vs0mg"},{"bike_id":"6abac139-d68e-44ea-a71e-ca4e68e866f1","system_id":"levelo_inurba_marseille","lat":43.28792,"lon":5.39175,"is_reserved":false,"is_disabled":false,"rental_uris":{"android":"levelo://app?vid=6abac139-d68e-44ea-a71e-ca4e68e866f1","ios":"levelo://app?vid=6abac139-d68e-44ea-a71e-ca4e68e866f1"},"vehicle_type_id":"4","last_reported":1722449481,"current_range_meters":8800,"station_id":"","pricing_plan_id":"cebpf4jnsgd1na2vs0mg"},{"bike_id":"e2f268d7-5082-41f7-96d7-521abe5dc971","system_id":"levelo_inurba_marseille","lat":43.29795,"lon":5.404086,"is_reserved":false,"is_disabled":false,"rental_uris":{"android":"levelo://app?vid=e2f268d7-5082-41f7-96d7-521abe5dc971","ios":"levelo://app?vid=e2f268d7-5082-41f7-96d7-521abe5dc971"},"vehicle_type_id":"4","last_reported":1722449481,"current_range_meters":5200,"station_id":"ce4bh112rcd13ifvqd90","pricing_plan_id":"cebpf4jnsgd1na2vs0mg"},{"bike_id":"05e49103-1c61-484f-9025-2c96d85a22db","system_id":"levelo_inurba_marseille","lat":43.288497,"lon":5.393089,"is_reserved":false,"is_disabled":false,"rental_uris":{"android":"levelo://app?vid=05e49103-1c61-484f-9025-2c96d85a22db","ios":"levelo://app?vid=05e49103-1c61-484f-9025-2c96d85a22db"},"vehicle_type_id":"4","last_reported":1722449481,"current_range_meters":0,"station_id":"ce4bh2p2rcd13ifvqdi0","pricing_plan_id":"cebpf4jnsgd1na2vs0mg"},{"bike_id":"f73b94ec-bb2e-4fab-9656-48f0c44453f8","system_id":"levelo_inurba_marseille","lat":43.28851,"lon":5.39324,"is_reserved":false,"is_disabled":false,"rental_uris":{"android":"levelo://app?vid=f73b94ec-bb2e-4fab-9656-48f0c44453f8","ios":"levelo://app?vid=f73b94ec-bb2e-4fab-9656-48f0c44453f8"},"vehicle_type_id":"4","last_reported":1722449481,"current_range_meters":0,"station_id":"ce4bh2p2rcd13ifvqdi0","pricing_plan_id":"cebpf4jnsgd1na2vs0mg"},{"bike_id":"229a7db1-1e1e-4b2f-ae76-1d8826e59b1a","system_id":"levelo_inurba_marseille","lat":43.284776,"lon":5.385603,"is_reserved":false,"is_disabled":false,"rental_uris":{"android":"levelo://app?vid=229a7db1-1e1e-4b2f-ae76-1d8826e59b1a","ios":"levelo://app?vid=229a7db1-1e1e-4b2f-ae76-1d8826e59b1a"},"vehicle_type_id":"4","last_reported":1722449481,"current_range_meters":0,"station_id":"ce4bh8p2rcd13ifvqeb0","pricing_plan_id":"cebpf4jnsgd1na2vs0mg"},{"bike_id":"c9f53b56-1cf5-44cf-b41c-79c095ce8c7a","system_id":"levelo_inurba_marseille","lat":43.283498,"lon":5.380948,"is_reserved":false,"is_disabled":false,"rental_uris":{"android":"levelo://app?vid=c9f53b56-1cf5-44cf-b41c-79c095ce8c7a","ios":"levelo://app?vid=c9f53b56-1cf5-44cf-b41c-79c095ce8c7a"},"vehicle_type_id":"4","last_reported":1722449481,"current_range_meters":14000,"station_id":"ce4bh412rcd13ifvqdr0","pricing_plan_id":"cebpf4jnsgd1na2vs0mg"},{"bike_id":"c22e7292-be39-423b-81eb-9f156475097e","system_id":"levelo_inurba_marseille","lat":43.284776,"lon":5.385603,"is_reserved":false,"is_disabled":false,"rental_uris":{"android":"levelo://app?vid=c22e7292-be39-423b-81eb-9f156475097e","ios":"levelo://app?vid=c22e7292-be39-423b-81eb-9f156475097e"},"vehicle_type_id":"4","last_reported":1722449481,"current_range_meters":0,"station_id":"ce4bh8p2rcd13ifvqeb0","pricing_plan_id":"cebpf4jnsgd1na2vs0mg"},{"bike_id":"a8a95fdd-8ac7-4453-8a71-ffd4017c46de","system_id":"levelo_inurba_marseille","lat":43.284219,"lon":5.3497,"is_reserved":false,"is_disabled":false,"rental_uris":{"android":"levelo://app?vid=a8a95fdd-8ac7-4453-8a71-ffd4017c46de","ios":"levelo://app?vid=a8a95fdd-8ac7-4453-8a71-ffd4017c46de"},"vehicle_type_id":"4","last_reported":1722449481,"current_range_meters":28000,"station_id":"ce4bhbh2rcd13ifvqepg","pricing_plan_id":"cebpf4jnsgd1na2vs0mg"},{"bike_id":"f9440991-f65c-4e03-b8c2-c27fd85117b9","system_id":"levelo_inurba_marseille","lat":43.28427,"lon":5.34985,"is_reserved":false,"is_disabled":false,"rental_uris":{"android":"levelo://app?vid=f9440991-f65c-4e03-b8c2-c27fd85117b9","ios":"levelo://app?vid=f9440991-f65c-4e03-b8c2-c27fd85117b9"},"vehicle_type_id":"4","last_reported":1722449481,"current_range_meters":26400,"station_id":"ce4bhbh2rcd13ifvqepg","pricing_plan_id":"cebpf4jnsgd1na2vs0mg"},{"bike_id":"caf42205-5e75-4a0a-93c6-ba293f05111c","system_id":"levelo_inurba_marseille","lat":43.28426,"lon":5.34985,"is_reserved":false,"is_disabled":false,"rental_uris":{"android":"levelo://app?vid=caf42205-5e75-4a0a-93c6-ba293f05111c","ios":"levelo://app?vid=caf42205-5e75-4a0a-93c6-ba293f05111c"},"vehicle_type_id":"4","last_reported":1722449481,"current_range_meters":31200,"station_id":"ce4bhbh2rcd13ifvqepg","pricing_plan_id":"cebpf4jnsgd1na2vs0mg"},{"bike_id":"9cd368c7-d6f4-416f-b8e7-ea0a6a8d0419","system_id":"levelo_inurba_marseille","lat":43.28425,"lon":5.34988,"is_reserved":false,"is_disabled":false,"rental_uris":{"android":"levelo://app?vid=9cd368c7-d6f4-416f-b8e7-ea0a6a8d0419","ios":"levelo://app?vid=9cd368c7-d6f4-416f-b8e7-ea0a6a8d0419"},"vehicle_type_id":"4","last_reported":1722449481,"current_range_meters":31200,"station_id":"ce4bhbh2rcd13ifvqepg","pricing_plan_id":"cebpf4jnsgd1na2vs0mg"},{"bike_id":"e50b8adf-1ad2-43b1-b0c6-28212a36151f","system_id":"levelo_inurba_marseille","lat":43.284776,"lon":5.385603,"is_reserved":false,"is_disabled":false,"rental_uris":{"android":"levelo://app?vid=e50b8adf-1ad2-43b1-b0c6-28212a36151f","ios":"levelo://app?vid=e50b8adf-1ad2-43b1-b0c6-28212a36151f"},"vehicle_type_id":"4","last_reported":1722449481,"current_range_meters":0,"station_id":"ce4bh8p2rcd13ifvqeb0","pricing_plan_id":"cebpf4jnsgd1na2vs0mg"},{"bike_id":"a4c52b13-ff52-4013-81b2-ae937ba96564","system_id":"levelo_inurba_marseille","lat":43.28422,"lon":5.3499,"is_reserved":false,"is_disabled":false,"rental_uris":{"android":"levelo://app?vid=a4c52b13-ff52-4013-81b2-ae937ba96564","ios":"levelo://app?vid=a4c52b13-ff52-4013-81b2-ae937ba96564"},"vehicle_type_id":"4","last_reported":1722449481,"current_range_meters":0,"station_id":"ce4bhbh2rcd13ifvqepg","pricing_plan_id":"cebpf4jnsgd1na2vs0mg"},{"bike_id":"b6d61088-4d65-4c93-956a-481bdbb772d5","system_id":"levelo_inurba_marseille","lat":43.28422,"lon":5.349891,"is_reserved":false,"is_disabled":false,"rental_uris":{"android":"levelo://app?vid=b6d61088-4d65-4c93-956a-481bdbb772d5","ios":"levelo://app?vid=b6d61088-4d65-4c93-956a-481bdbb772d5"},"vehicle_type_id":"4","last_reported":1722449481,"current_range_meters":7200,"station_id":"ce4bhbh2rcd13ifvqepg","pricing_plan_id":"cebpf4jnsgd1na2vs0mg"},{"bike_id":"938fd696-2633-45e9-9f6a-49c74330ed14","system_id":"levelo_inurba_marseille","lat":43.284217,"lon":5.349697,"is_reserved":false,"is_disabled":false,"rental_uris":{"android":"levelo://app?vid=938fd696-2633-45e9-9f6a-49c74330ed14","ios":"levelo://app?vid=938fd696-2633-45e9-9f6a-49c74330ed14"},"vehicle_type_id":"4","last_reported":1722449481,"current_range_meters":30000,"station_id":"ce4bhbh2rcd13ifvqepg","pricing_plan_id":"cebpf4jnsgd1na2vs0mg"},{"bike_id":"3ccc7532-4b96-4c9a-b8ef-35025366c1ef","system_id":"levelo_inurba_marseille","lat":43.284219,"lon":5.3497,"is_reserved":false,"is_disabled":false,"rental_uris":{"android":"levelo://app?vid=3ccc7532-4b96-4c9a-b8ef-35025366c1ef","ios":"levelo://app?vid=3ccc7532-4b96-4c9a-b8ef-35025366c1ef"},"vehicle_type_id":"4","last_reported":1722449481,"current_range_meters":30800,"station_id":"ce4bhbh2rcd13ifvqepg","pricing_plan_id":"cebpf4jnsgd1na2vs0mg"},{"bike_id":"b37fd85a-10b6-4541-9571-128a56dd3f11","system_id":"levelo_inurba_marseille","lat":43.284187,"lon":5.34987,"is_reserved":false,"is_disabled":false,"rental_uris":{"android":"levelo://app?vid=b37fd85a-10b6-4541-9571-128a56dd3f11","ios":"levelo://app?vid=b37fd85a-10b6-4541-9571-128a56dd3f11"},"vehicle_type_id":"4","last_reported":1722449481,"current_range_meters":31200,"station_id":"ce4bhbh2rcd13ifvqepg","pricing_plan_id":"cebpf4jnsgd1na2vs0mg"},{"bike_id":"24aedba2-2ba6-4e32-ac79-a0e54cc81b07","system_id":"levelo_inurba_marseille","lat":43.284219,"lon":5.3497,"is_reserved":false,"is_disabled":false,"rental_uris":{"android":"levelo://app?vid=24aedba2-2ba6-4e32-ac79-a0e54cc81b07","ios":"levelo://app?vid=24aedba2-2ba6-4e32-ac79-a0e54cc81b07"},