{"last_updated":1768929604,"ttl":60,"version":"2.2","data":{"bikes":[{"bike_id":"315015d0-17df-4485-8e75-6aaab798229e","system_id":"levelo_inurba_marseille","lat":43.282108,"lon":5.390553,"is_reserved":false,"is_disabled":false,"rental_uris":{"android":"levelo://app?vid=315015d0-17df-4485-8e75-6aaab798229e","ios":"levelo://app?vid=315015d0-17df-4485-8e75-6aaab798229e"},"vehicle_type_id":"4","last_reported":1768929605,"current_range_meters":2800,"station_id":"","pricing_plan_id":"cebpf4jnsgd1na2vs0mg"},{"bike_id":"65fa859c-fd52-4fc1-bf24-0348f651f61b","system_id":"levelo_inurba_marseille","lat":43.27983,"lon":5.4001,"is_reserved":false,"is_disabled":false,"rental_uris":{"android":"levelo://app?vid=65fa859c-fd52-4fc1-bf24-0348f651f61b","ios":"levelo://app?vid=65fa859c-fd52-4fc1-bf24-0348f651f61b"},"vehicle_type_id":"4","last_reported":1768929605,"current_range_meters":2800,"station_id":"ce4bho92rcd13ifvqh4g","pricing_plan_id":"cebpf4jnsgd1na2vs0mg"},{"bike_id":"425ae759-4c6d-4238-8b22-bd8b4c917247","system_id":"levelo_inurba_marseille","lat":43.312297,"lon":5.368776,"is_reserved":false,"is_disabled":false,"rental_uris":{"android":"levelo://app?vid=425ae759-4c6d-4238-8b22-bd8b4c917247","ios":"levelo://app?vid=425ae759-4c6d-4238-8b22-bd8b4c917247"},"vehicle_type_id":"4","last_reported":1768929605,"current_range_meters":2800,"station_id":"ce4bgl92rcd13ifvqbq0","pricing_plan_id":"cebpf4jnsgd1na2vs0mg"},{"bike_id":"70275b1b-74d9-491e-a40d-c1cac2bd0f6a","system_id":"levelo_inurba_marseille","lat":43.26213,"lon":5.37924,"is_reserved":false,"is_disabled":false,"rental_uris":{"android":"levelo://app?vid=70275b1b-74d9-491e-a40d-c1cac2bd0f6a","ios":"levelo://app?vid=70275b1b-74d9-491e-a40d-c1cac2bd0f6a"},"vehicle_type_id":"4","last_reported":1768929605,"current_range_meters":2800,"station_id":"ce4bhjp2rcd13ifvqg90","pricing_plan_id":"cebpf4jnsgd1na2vs0mg"},{"bike_id":"8db2cc2b-320e-4ca5-b857-a653f94f5f07","system_id":"levelo_inurba_marseille","lat":43.3033,"lon":5.40436,"is_reserved":false,"is_disabled":false,"rental_uris":{"android":"levelo://app?vid=8db2cc2b-320e-4ca5-b857-a653f94f5f07","ios":"levelo://app?vid=8db2cc2b-320e-4ca5-b857-a653f94f5f07"},"vehicle_type_id":"4","last_reported":1768929605,"current_range_meters":2800,"station_id":"ce4bh012rcd13ifvqd10","pricing_plan_id":"cebpf4jnsgd1na2vs0mg"},{"bike_id":"2bdec164-4745-4101-b6c2-5a1f2a44448f","system_id":"levelo_inurba_marseille","lat":43.29402,"lon":5.37809,"is_reserved":false,"is_disabled":false,"rental_uris":{"android":"levelo://app?vid=2bdec164-4745-4101-b6c2-5a1f2a44448f","ios":"levelo://app?vid=2bdec164-4745-4101-b6c2-5a1f2a44448f"},"vehicle_type_id":"4","last_reported":1768929605,"current_range_meters":2800,"station_id":"ce4bgjh2rcd13ifvqbf0","pricing_plan_id":"cebpf4jnsgd1na2vs0mg"},{"bike_id":"ff88ade7-4c46-4ec9-8a51-1dab604c8c00","system_id":"levelo_inurba_marseille","lat":43.27908,"lon":5.395814,"is_reserved":false,"is_disabled":false,"rental_uris":{"android":"levelo://app?vid=ff88ade7-4c46-4ec9-8a51-1dab604c8c00","ios":"levelo://app?vid=ff88ade7-4c46-4ec9-8a51-1dab604c8c00"},"vehicle_type_id":"4","last_reported":1768929605,"current_range_meters":2800,"station_id":"ce4bhf92rcd13ifvqf40","pricing_plan_id":"cebpf4jnsgd1na2vs0mg"},{"bike_id":"4f82ceb5-08a6-4278-b53b-d9357d06b9cf","system_id":"levelo_inurba_marseille","lat":43.27937,"lon":5.41052,"is_reserved":false,"is_disabled":false,"rental_uris":{"android":"levelo://app?vid=4f82ceb5-08a6-4278-b53b-d9357d06b9cf","ios":"levelo://app?vid=4f82ceb5-08a6-4278-b53b-d9357d06b9cf"},"vehicle_type_id":"4","last_reported":1768929605,"current_range_meters":2800,"station_id":"ce4bhnp2rcd13ifvqh0g","pricing_plan_id":"cebpf4jnsgd1na2vs0mg"},{"bike_id":"2fe1392e-3b1e-4da2-9198-4d9ec6d1f5c6","system_id":"levelo_inurba_marseille","lat":43.28425,"lon":5.39198,"is_reserved":false,"is_disabled":false,"rental_uris":{"android":"levelo://app?vid=2fe1392e-3b1e-4da2-9198-4d9ec6d1f5c6","ios":"levelo://app?vid=2fe1392e-3b1e-4da2-9198-4d9ec6d1f5c6"},"vehicle_type_id":"4","last_reported":1768929605,"current_range_meters":2800,"station_id":"ce4bhoh2rcd13ifvqh5g","pricing_plan_id":"cebpf4jnsgd1na2vs0mg"},{"bike_id":"d58d1d7f-ae37-418b-87fb-0776ea7034b8","system_id":"levelo_inurba_marseille","lat":43.23194,"lon":5.39979,"is_reserved":false,"is_disabled":false,"rental_uris":{"android":"levelo://app?vid=d58d1d7f-ae37-418b-87fb-0776ea7034b8","ios":"levelo://app?vid=d58d1d7f-ae37-418b-87fb-0776ea7034b8"},"vehicle_type_id":"4","last_reported":1768929605,"current_range_meters":2800,"station_id":"ce4bhn12rcd13ifvqgqg","pricing_plan_id":"cebpf4jnsgd1na2vs0mg"},{"bike_id":"5ad760e8-a1d6-434c-92af-05387a384ed9","system_id":"levelo_inurba_marseille","lat":43.24958,"lon":5.40495,"is_reserved":false,"is_disabled":false,"rental_uris":{"android":"levelo://app?vid=5ad760e8-a1d6-434c-92af-05387a384ed9","ios":"levelo://app?vid=5ad760e8-a1d6-434c-92af-05387a384ed9"},"vehicle_type_id":"4","last_reported":1768929605,"current_range_meters":2800,"station_id":"st_d2ngiaodas8pm72gd1h0","pricing_plan_id":"cebpf4jnsgd1na2vs0mg"},{"bike_id":"2b665257-da1a-41a4-96cc-8a96637e47e1","system_id":"levelo_inurba_marseille","lat":43.31109,"lon":5.37772,"is_reserved":false,"is_disabled":false,"rental_uris":{"android":"levelo://app?vid=2b665257-da1a-41a4-96cc-8a96637e47e1","ios":"levelo://app?vid=2b665257-da1a-41a4-96cc-8a96637e47e1"},"vehicle_type_id":"4","last_reported":1768929605,"current_range_meters":2800,"station_id":"ce4bgt92rcd13ifvqcg0","pricing_plan_id":"cebpf4jnsgd1na2vs0mg"},{"bike_id":"ef77f32d-024c-4b02-b9ff-fc70a5acd4b6","system_id":"levelo_inurba_marseille","lat":43.24643,"lon":5.4314,"is_reserved":false,"is_disabled":false,"rental_uris":{"android":"levelo://app?vid=ef77f32d-024c-4b02-b9ff-fc70a5acd4b6","ios":"levelo://app?vid=ef77f32d-024c-4b02-b9ff-fc70a5acd4b6"},"vehicle_type_id":"4","last_reported":1768929605,"current_range_meters":2800,"station_id":"st_d2m6c4gdas8pm72e190g","pricing_plan_id":"cebpf4jnsgd1na2vs0mg"},{"bike_id":"e5afdae1-8536-48ae-affe-93a7f04d1b80","system_id":"levelo_inurba_marseille","lat":43.283644,"lon":5.394217,"is_reserved":false,"is_disabled":false,"rental_uris":{"android":"levelo://app?vid=e5afdae1-8536-48ae-affe-93a7f04d1b80","ios":"levelo://app?vid=e5afdae1-8536-48ae-affe-93a7f04d1b80"},"vehicle_type_id":"4","last_reported":1768929605,"current_range_meters":2800,"station_id":"","pricing_plan_id":"cebpf4jnsgd1na2vs0mg"},{"bike_id":"fa4e2abf-a152-401d-9310-c652aa11dadc","system_id":"levelo_inurba_marseille","lat":43.2448,"lon":5.42543,"is_reserved":false,"is_disabled":false,"rental_uris":{"android":"levelo://app?vid=fa4e2abf-a152-401d-9310-c652aa11dadc","ios":"levelo://app?vid=fa4e2abf-a152-401d-9310-c652aa11dadc"},"vehicle_type_id":"4","last_reported":1768929605,"current_range_meters":2800,"station_id":"st_d4a3vfp97mjs738cd8kg","pricing_plan_id":"cebpf4jnsgd1na2vs0mg"},{"bike_id":"0e389139-6e75-4c33-8e5c-dc013a81879a","system_id":"levelo_inurba_marseille","lat":43.28349,"lon":5.38113,"is_reserved":false,"is_disabled":false,"rental_uris":{"android":"levelo://app?vid=0e389139-6e75-4c33-8e5c-dc013a81879a","ios":"levelo://app?vid=0e389139-6e75-4c33-8e5c-dc013a81879a"},"vehicle_type_id":"4","last_reported":1768929605,"current_range_meters":2800,"station_id":"ce4bh412rcd13ifvqdr0","pricing_plan_id":"cebpf4jnsgd1na2vs0mg"},{"bike_id":"e06565ab-e9a6-4dd0-8b84-1fcb423d61af","system_id":"levelo_inurba_marseille","lat":43.26063,"lon":5.393876,"is_reserved":false,"is_disabled":false,"rental_uris":{"android":"levelo://app?vid=e06565ab-e9a6-4dd0-8b84-1fcb423d61af","ios":"levelo://app?vid=e06565ab-e9a6-4dd0-8b84-1fcb423d61af"},"vehicle_type_id":"4","last_reported":1768929605,"current_range_meters":2800,"station_id":"ce4bhh92rcd13ifvqfj0","pricing_plan_id":"cebpf4jnsgd1na2vs0mg"},{"bike_id":"526b8503-7faf-448a-b0f6-00cc94ab5971","system_id":"levelo_inurba_marseille","lat":43.24474,"lon":5.42576,"is_reserved":false,"is_disabled":false,"rental_uris":{"android":"levelo://app?vid=526b8503-7faf-448a-b0f6-00cc94ab5971","ios":"levelo://app?vid=526b8503-7faf-448a-b0f6-00cc94ab5971"},"vehicle_type_id":"4","last_reported":1768929605,"current_range_meters":3200,"station_id":"st_d4a3vfp97mjs738cd8kg","pricing_plan_id":"cebpf4jnsgd1na2vs0mg"},{"bike_id":"06bc447b-16e0-4732-afcc-36d4f751f25b","system_id":"levelo_inurba_marseille","lat":43.23153,"lon":5.43708,"is_reserved":false,"is_disabled":false,"rental_uris":{"android":"levelo://app?vid=06bc447b-16e0-4732-afcc-36d4f751f25b","ios":"levelo://app?vid=06bc447b-16e0-4732-afcc-36d4f751f25b"},"vehicle_type_id":"4","last_reported":1768929605,"current_range_meters":3200,"station_id":"ce4bhmp2rcd13ifvqgog","pricing_plan_id":"cebpf4jnsgd1na2vs0mg"},{"bike_id":"dc8c1109-459c-4368-859d-186168c2462d","system_id":"levelo_inurba_marseille","lat":43.24166,"lon":5.36433,"is_reserved":false,"is_disabled":false,"rental_uris":{"android":"levelo://app?vid=dc8c1109-459c-4368-859d-186168c2462d","ios":"levelo://app?vid=dc8c1109-459c-4368-859d-186168c2462d"},"vehicle_type_id":"4","last_reported":1768929605,"current_range_meters":3200,"station_id":"cpo36qri1sfpv3e86is0","pricing_plan_id":"cebpf4jnsgd1na2vs0mg"},{"bike_id":"4f2dd164-7013-43b2-a24e-bc13e5296f6a","system_id":"levelo_inurba_marseille","lat":43.241732,"lon":5.397258,"is_reserved":false,"is_disabled":false,"rental_uris":{"android":"levelo://app?vid=4f2dd164-7013-43b2-a24e-bc13e5296f6a","ios":"levelo://app?vid=4f2dd164-7013-43b2-a24e-bc13e5296f6a"},"vehicle_type_id":"4","last_reported":1768929605,"current_range_meters":3200,"station_id":"ce4bhn12rcd13ifvqgpg","pricing_plan_id":"cebpf4jnsgd1na2vs0mg"},{"bike_id":"e778d2ef-25f3-4b17-9c4e-dca95ee878e6","system_id":"levelo_inurba_marseille","lat":43.32011,"lon":5.38169,"is_reserved":false,"is_disabled":false,"rental_uris":{"android":"levelo://app?vid=e778d2ef-25f3-4b17-9c4e-dca95ee878e6","ios":"levelo://app?vid=e778d2ef-25f3-4b17-9c4e-dca95ee878e6"},"vehicle_type_id":"4","last_reported":1768929605,"current_range_meters":3200,"station_id":"ce4bhr12rcd13ifvqhpg","pricing_plan_id":"cebpf4jnsgd1na2vs0mg"},{"bike_id":"e30883dd-96d3-4b00-8b5d-c5c36c37f796","system_id":"levelo_inurba_marseille","lat":43.25571,"lon":5.38237,"is_reserved":false,"is_disabled":false,"rental_uris":{"android":"levelo://app?vid=e30883dd-96d3-4b00-8b5d-c5c36c37f796","ios":"levelo://app?vid=e30883dd-96d3-4b00-8b5d-c5c36c37f796"},"vehicle_type_id":"4","last_reported":1768929605,"current_range_meters":3200,"station_id":"ce4bhih2rcd13ifvqfs0","pricing_plan_id":"cebpf4jnsgd1na2vs0mg"},{"bike_id":"3299dc67-7236-4443-ae9d-83bdb1d9d6d3","system_id":"levelo_inurba_marseille","lat":43.26499,"lon":5.39564,"is_reserved":false,"is_disabled":false,"rental_uris":{"android":"levelo://app?vid=3299dc67-7236-4443-ae9d-83bdb1d9d6d3","ios":"levelo://app?vid=3299dc67-7236-4443-ae9d-83bdb1d9d6d3"},"vehicle_type_id":"4","last_reported":1768929605,"current_range_meters":3200,"station_id":"ce4bhi12rcd13ifvqfq0","pricing_plan_id":"cebpf4jnsgd1na2vs0mg"},{"bike_id":"71f428f0-7078-4b8c-ac98-cf141cac017d","system_id":"levelo_inurba_marseille","lat":43.24998,"lon":5.38944,"is_reserved":false,"is_disabled":false,"rental_uris":{"android":"levelo://app?vid=71f428f0-7078-4b8c-ac98-cf141cac017d","ios":"levelo://app?vid=71f428f0-7078-4b8c-ac98-cf141cac017d"},"vehicle_type_id":"4","last_reported":1768929605,"current_range_meters":3200,"station_id":"ce4bhgp2rcd13ifvqfd0","pricing_plan_id":"cebpf4jnsgd1na2vs0mg"},{"bike_id":"b129582d-2c63-48d7-8138-529469f94ac5","system_id":"levelo_inurba_marseille","lat":43.26153,"lon":5.40349,"is_reserved":false,"is_disabled":false,"rental_uris":{"android":"levelo://app?vid=b129582d-2c63-48d7-8138-529469f94ac5","ios":"levelo://app?vid=b129582d-2c63-48d7-8138-529469f94ac5"},"vehicle_type_id":"4","last_reported":1768929605,"current_range_meters":3200,"station_id":"","pricing_plan_id":"cebpf4jnsgd1na2vs0mg"},{"bike_id":"01a9dfdc-fec3-4957-aa4e-69893e0976c5","system_id":"levelo_inurba_marseille","lat":43.30571,"lon":5.36719,"is_reserved":false,"is_disabled":false,"rental_uris":{"android":"levelo://app?vid=01a9dfdc-fec3-4957-aa4e-69893e0976c5","ios":"levelo://app?vid=01a9dfdc-fec3-4957-aa4e-69893e0976c5"},"vehicle_type_id":"4","last_reported":1768929605,"current_range_meters":3200,"station_id":"ce4bgrp2rcd13ifvqc9g","pricing_plan_id":"cebpf4jnsgd1na2vs0mg"},{"bike_id":"3ba9fcd3-7fe8-4163-8418-6237248a1b96","system_id":"levelo_inurba_marseille","lat":43.29258,"lon":5.40896,"is_reserved":false,"is_disabled":false,"rental_uris":{"android":"levelo://app?vid=3ba9fcd3-7fe8-4163-8418-6237248a1b96","ios":"levelo://app?vid=3ba9fcd3-7fe8-4163-8418-6237248a1b96"},"vehicle_type_id":"4","last_reported":1768929605,"current_range_meters":3200,"station_id":"ce4bh192rcd13ifvqdc0","pricing_plan_id":"cebpf4jnsgd1na2vs0mg"},{"bike_id":"88bc5141-8076-44d2-b20c-f87d5c7f0183","system_id":"levelo_inurba_marseille","lat":43.249141,"lon":5.390234,"is_reserved":false,"is_disabled":false,"rental_uris":{"android":"levelo://app?vid=88bc5141-8076-44d2-b20c-f87d5c7f0183","ios":"levelo://app?vid=88bc5141-8076-44d2-b20c-f87d5c7f0183"},"vehicle_type_id":"4","last_reported":1768929605,"current_range_meters":3200,"station_id":"ce4bhgp2rcd13ifvqfd0","pricing_plan_id":"cebpf4jnsgd1na2vs0mg"},{"bike_id":"11d8cd21-71bb-4ae7-83c7-4545d2d2be96","system_id":"levelo_inurba_marseille","lat":43.29922,"lon":5.36515,"is_reserved":false,"is_disabled":false,"rental_uris":{"android":"levelo://app?vid=11d8cd21-71bb-4ae7-83c7-4545d2d2be96","ios":"levelo://app?vid=11d8cd21-71bb-4ae7-83c7-4545d2d2be96"},"vehicle_type_id":"4","last_reported":1768929605,"current_range_meters":3200,"station_id":"ce4bgm92rcd13ifvqbr0","pricing_plan_id":"cebpf4jnsgd1na2vs0mg"},{"bike_id":"22fd6ab4-b659-46a2-bbd7-44b15a781297","system_id":"levelo_inurba_marseille","lat":43.289705,"lon":5.378276,"is_reserved":false,"is_disabled":false,"rental_uris":{"android":"levelo://app?vid=22fd6ab4-b659-46a2-bbd7-44b15a781297","ios":"levelo://app?vid=22fd6ab4-b659-46a2-bbd7-44b15a781297"},"vehicle_type_id":"4","last_reported":1768929605,"current_range_meters":3200,"station_id":"","pricing_plan_id":"cebpf4jnsgd1na2vs0mg"},{"bike_id":"d398bbee-580e-4669-a6c1-1a6f4f542e54","system_id":"levelo_inurba_marseille","lat":43.29617,"lon":5.37146,"is_reserved":false,"is_disabled":false,"rental_uris":{"android":"levelo://app?vid=d398bbee-580e-4669-a6c1-1a6f4f542e54","ios":"levelo://app?vid=d398bbee-580e-4669-a6c1-1a6f4f542e54"},"vehicle_type_id":"4","last_reported":1768929605,"current_range_meters":3200,"station_id":"ce4bgnh2rcd13ifvqc0g","pricing_plan_id":"cebpf4jnsgd1na2vs0mg"},{"bike_id":"d96e6531-35ac-4ebe-9b8b-b582175cbeea","system_id":"levelo_inurba_marseille","lat":43.26681,"lon":5.38267,"is_reserved":false,"is_disabled":false,"rental_uris":{"android":"levelo://app?vid=d96e6531-35ac-4ebe-9b8b-b582175cbeea","ios":"levelo://app?vid=d96e6531-35ac-4ebe-9b8b-b582175cbeea"},"vehicle_type_id":"4","last_reported":1768929605,"current_range_meters":3600,"station_id":"ce4bhg92rcd13ifvqf90","pricing_plan_id":"cebpf4jnsgd1na2vs0mg"},{"bike_id":"8cf86c1b-c6ef-435e-bf57-634419ab6cf0","system_id":"levelo_inurba_marseille","lat":43.28714,"lon":5.37939,"is_reserved":false,"is_disabled":false,"rental_uris":{"android":"levelo://app?vid=8cf86c1b-c6ef-435e-bf57-634419ab6cf0","ios":"levelo://app?vid=8cf86c1b-c6ef-435e-bf57-634419ab6cf0"},"vehicle_type_id":"4","last_reported":1768929605,"current_range_meters":3600,"station_id":"ce4bh9p2rcd13ifvqec0","pricing_plan_id":"cebpf4jnsgd1na2vs0mg"},{"bike_id":"12f660b3-e992-4ce3-b3ba-85618ff33431","system_id":"levelo_inurba_marseille","lat":43.25497,"lon":5.37657,"is_reserved":false,"is_disabled":false,"rental_uris":{"android":"levelo://app?vid=12f660b3-e992-4ce3-b3ba-85618ff33431","ios":"levelo://app?vid=12f660b3-e992-4ce3-b3ba-85618ff33431"},"vehicle_type_id":"4","last_reported":1768929605,"current_range_meters":3600,"station_id":"ce4bhh12rcd13ifvqff0","pricing_plan_id":"cebpf4jnsgd1na2vs0mg"},{"bike_id":"47dd0b1b-65d8-40e0-9f8f-bc1df203592f","system_id":"levelo_inurba_marseille","lat":43.2847,"lon":5.38421,"is_reserved":false,"is_disabled":false,"rental_uris":{"android":"levelo://app?vid=47dd0b1b-65d8-40e0-9f8f-bc1df203592f","ios":"levelo://app?vid=47dd0b1b-65d8-40e0-9f8f-bc1df203592f"},"vehicle_type_id":"4","last_reported":1768929605,"current_range_meters":3600,"station_id":"ce4bh512rcd13ifvqe3g","pricing_plan_id":"cebpf4jnsgd1na2vs0mg"},{"bike_id":"26fa87a8-64e8-4574-88ad-3ef617745c36","system_id":"levelo_inurba_marseille","lat":43.27814,"lon":5.40722,"is_reserved":false,"is_disabled":false,"rental_uris":{"android":"levelo://app?vid=26fa87a8-64e8-4574-88ad-3ef617745c36","ios":"levelo://app?vid=26fa87a8-64e8-4574-88ad-3ef617745c36"},"vehicle_type_id":"4","last_reported":1768929605,"current_range_meters":3600,"station_id":"ce4bhnh2rcd13ifvqgtg","pricing_plan_id":"cebpf4jnsgd1na2vs0mg"},{"bike_id":"f81b4958-bd01-4894-bedc-34f641c66970","system_id":"levelo_inurba_marseille","lat":43.29817,"lon":5.40449,"is_reserved":false,"is_disabled":false,"rental_uris":{"android":"levelo://app?vid=f81b4958-bd01-4894-bedc-34f641c66970","ios":"levelo://app?vid=f81b4958-bd01-4894-bedc-34f641c66970"},"vehicle_type_id":"4","last_reported":1768929605,"current_range_meters":3600,"station_id":"ce4bh112rcd13ifvqd90","pricing_plan_id":"cebpf4jnsgd1na2vs0mg"},{"bike_id":"f949b1a8-0099-4897-af1c-b4c1c497f28f","system_id":"levelo_inurba_marseille","lat":43.258165,"lon":5.394316,"is_reserved":false,"is_disabled":false,"rental_uris":{"android":"levelo://app?vid=f949b1a8-0099-4897-af1c-b4c1c497f28f","ios":"levelo://app?vid=f949b1a8-0099-4897-af1c-b4c1c497f28f"},"vehicle_type_id":"4","last_reported":1768929605,"current_range_meters":3600,"station_id":"ce4bhip2rcd13ifvqft0","pricing_plan_id":"cebpf4jnsgd1na2vs0mg"},{"bike_id":"d0a70439-b068-41ba-bc8d-4fbe10ec4141","system_id":"levelo_inurba_marseille","lat":43.281488,"lon":5.426316,"is_reserved":false,"is_disabled":false,"rental_uris":{"android":"levelo://app?vid=d0a70439-b068-41ba-bc8d-4fbe10ec4141","ios":"levelo://app?vid=d0a70439-b068-41ba-bc8d-4fbe10ec4141"},"vehicle_type_id":"4","last_reported":1768929605,"current_range_meters":3600,"station_id":"ce4bhnh2rcd13ifvqgug","pricing_plan_id":"cebpf4jnsgd1na2vs0mg"},{"bike_id":"366928e1-14aa-4af8-958f-ce4fff8c9fb6","system_id":"levelo_inurba_marseille","lat":43.27173,"lon":5.40999,"is_reserved":false,"is_disabled":false,"rental_uris":{"android":"levelo://app?vid=366928e1-14aa-4af8-958f-ce4fff8c9fb6","ios":"levelo://app?vid=366928e1-14aa-4af8-958f-ce4fff8c9fb6"},"vehicle_type_id":"4","last_reported":1768929605,"current_range_meters":3600,"station_id":"ce4bhl12rcd13ifvqgf0","pricing_plan_id":"cebpf4jnsgd1na2vs0mg"},{"bike_id":"865ba639-56ff-42a3-a685-13988c13be04","system_id":"levelo_inurba_marseille","lat":43.28671,"lon":5.38666,"is_reserved":false,"is_disabled":false,"rental_uris":{"android":"levelo://app?vid=865ba639-56ff-42a3-a685-13988c13be04","ios":"levelo://app?vid=865ba639-56ff-42a3-a685-13988c13be04"},"vehicle_type_id":"4","last_reported":1768929605,"current_range_meters":3600,"station_id":"ce4bh492rcd13ifvqdug","pricing_plan_id":"cebpf4jnsgd1na2vs0mg"},{"bike_id":"de72698a-ddf0-4332-a191-a743440f0ee3","system_id":"levelo_inurba_marseille","lat":43.25575,"lon":5.38239,"is_reserved":false,"is_disabled":false,"rental_uris":{"android":"levelo://app?vid=de72698a-ddf0-4332-a191-a743440f0ee3","ios":"levelo://app?vid=de72698a-ddf0-4332-a191-a743440f0ee3"},"vehicle_type_id":"4","last_reported":1768929605,"current_range_meters":3600,"station_id":"ce4bhih2rcd13ifvqfs0","pricing_plan_id":"cebpf4jnsgd1na2vs0mg"},{"bike_id":"6e37c46d-c0b0-4f9b-a752-4c99885a0985","system_id":"levelo_inurba_marseille","lat":43.288591,"lon":5.425241,"is_reserved":false,"is_disabled":false,"rental_uris":{"android":"levelo://app?vid=6e37c46d-c0b0-4f9b-a752-4c99885a0985","ios":"levelo://app?vid=6e37c46d-c0b0-4f9b-a752-4c99885a0985"},"vehicle_type_id":"4","last_reported":1768929605,"current_range_meters":3600,"station_id":"st_d3b462108ojc7389ooeg","pricing_plan_id":"cebpf4jnsgd1na2vs0mg"},{"bike_id":"9cde565e-751f-4d1c-94ae-7977c2021c32","system_id":"levelo_inurba_marseille","lat":43.32488,"lon":5.36589,"is_reserved":false,"is_disabled":false,"rental_uris":{"android":"levelo://app?vid=9cde565e-751f-4d1c-94ae-7977c2021c32","ios":"levelo://app?vid=9cde565e-751f-4d1c-94ae-7977c2021c32"},"vehicle_type_id":"4","last_reported":1768929605,"current_range_meters":3600,"station_id":"ce4bhs12rcd13ifvqhvg","pricing_plan_id":"cebpf4jnsgd1na2vs0mg"},{"bike_id":"5b8a3451-587a-4eac-891d-7443c16d5756","system_id":"levelo_inurba_marseille","lat":43.29032,"lon":5.38654,"is_reserved":false,"is_disabled":false,"rental_uris":{"android":"levelo://app?vid=5b8a3451-587a-4eac-891d-7443c16d5756","ios":"levelo://app?vid=5b8a3451-587a-4eac-891d-7443c16d5756"},"vehicle_type_id":"4","last_reported":1768929605,"current_range_meters":3600,"station_id":"ce4bh4p2rcd13ifvqe0g","pricing_plan_id":"cebpf4jnsgd1na2vs0mg"},{"bike_id":"c1d1ed82-047e-4070-8e18-5d90a2fc93be","system_id":"levelo_inurba_marseille","lat":43.29532,"lon":5.38544,"is_reserved":false,"is_disabled":false,"rental_uris":{"android":"levelo://app?vid=c1d1ed82-047e-4070-8e18-5d90a2fc93be","ios":"levelo://app?vid=c1d1ed82-047e-4070-8e18-5d90a2fc93be"},"vehicle_type_id":"4","last_reported":1768929605,"current_range_meters":4000,"station_id":"ce4bgih2rcd13ifvqba0","pricing_plan_id":"cebpf4jnsgd1na2vs0mg"},{"bike_id":"6482802e-8566-4e45-a0b9-a9f7b437c303","system_id":"levelo_inurba_marseille","lat":43.2481,"lon":5.37453,"is_reserved":false,"is_disabled":false,"rental_uris":{"android":"levelo://app?vid=6482802e-8566-4e45-a0b9-a9f7b437c303","ios":"levelo://app?vid=6482802e-8566-4e45-a0b9-a9f7b437c303"},"vehicle_type_id":"4","last_reported":1768929605,"current_range_meters":4000,"station_id":"ce4bhgh2rcd13ifvqfb0","pricing_plan_id":"cebpf4jnsgd1na2vs0mg"},{"bike_id":"a63584d5-4ecd-4fed-b1d0-e50986b06ba6","system_id":"levelo_inurba_marseille","lat":43.26068,"lon":5.39372,"is_reserved":false,"is_disabled":false,"rental_uris":{"android":"levelo://app?vid=a63584d5-4ecd-4fed-b1d0-e50986b06ba6","ios":"levelo://app?vid=a63584d5-4ecd-4fed-b1d0-e50986b06ba6"},"vehicle_type_id":"4","last_reported":1768929605,"current_range_meters":4000,"station_id":"ce4bhh92rcd13ifvqfj0","pricing_plan_id":"cebpf4jnsgd1na2vs0mg"},{"bike_id":"f12065d6-9f7b-4ae6-b1a2-1d68fb4a174a","system_id":"levelo_inurba_marseille","lat":43.26218,"lon":5.37441,"is_reserved":false,"is_disabled":false,"rental_uris":{"android":"levelo://app?vid=f12065d6-9f7b-4ae6-b1a2-1d68fb4a174a","ios":"levelo://app?vid=f12065d6-9f7b-4ae6-b1a2-1d68fb4a174a"},"vehicle_type_id":"4","last_reported":1768929605,"current_range_meters":4000,"station_id":"ce4bhgp2rcd13ifvqfc0","pricing_plan_id":"cebpf4jnsgd1na2vs0mg"},{"bike_id":"fc17e8b9-2adb-4e96-bbab-76941e2577c9","system_id":"levelo_inurba_marseille","lat":43.25748,"lon":5.38952,"is_reserved":false,"is_disabled":false,"rental_uris":{"android":"levelo://app?vid=fc17e8b9-2adb-4e96-bbab-76941e2577c9","ios":"levelo://app?vid=fc17e8b9-2adb-4e96-bbab-76941e2577c9"},"vehicle_type_id":"4","last_reported":1768929605,"current_range_meters":4000,"station_id":"","pricing_plan_id":"cebpf4jnsgd1na2vs0mg"},{"bike_id":"b51cce8e-e9b5-4b97-978d-1099a003ae3f","system_id":"levelo_inurba_marseille","lat":43.29182,"lon":5.37179,"is_reserved":false,"is_disabled":false,"rental_uris":{"android":"levelo://app?vid=b51cce8e-e9b5-4b97-978d-1099a003ae3f","ios":"levelo://app?vid=b51cce8e-e9b5-4b97-978d-1099a003ae3f"},"vehicle_type_id":"4","last_reported":1768929605,"current_range_meters":4000,"station_id":"ce4bha92rcd13ifvqeh0","pricing_plan_id":"cebpf4jnsgd1na2vs0mg"},{"bike_id":"1d96bc89-a55a-4036-8519-21c71a49b3da","system_id":"levelo_inurba_marseille","lat":43.31145,"lon":5.38014,"is_reserved":false,"is_disabled":false,"rental_uris":{"android":"levelo://app?vid=1d96bc89-a55a-4036-8519-21c71a49b3da","ios":"levelo://app?vid=1d96bc89-a55a-4036-8519-21c71a49b3da"},"vehicle_type_id":"4","last_reported":1768929605,"current_range_meters":4000,"station_id":"","pricing_plan_id":"cebpf4jnsgd1na2vs0mg"},{"bike_id":"75941293-638c-4b6d-9567-a3d6e31017ca","system_id":"levelo_inurba_marseille","lat":43.28002,"lon":5.4001,"is_reserved":false,"is_disabled":false,"rental_uris":{"android":"levelo://app?vid=75941293-638c-4b6d-9567-a3d6e31017ca","ios":"levelo://app?vid=75941293-638c-4b6d-9567-a3d6e31017ca"},"vehicle_type_id":"4","last_reported":1768929605,"current_range_meters":4000,"station_id":"ce4bho92rcd13ifvqh4g","pricing_plan_id":"cebpf4jnsgd1na2vs0mg"},{"bike_id":"979a3e32-db30-466f-af65-fd99b5a11250","system_id":"levelo_inurba_marseille","lat":43.286661,"lon":5.386636,"is_reserved":false,"is_disabled":false,"rental_uris":{"android":"levelo://app?vid=979a3e32-db30-466f-af65-fd99b5a11250","ios":"levelo://app?vid=979a3e32-db30-466f-af65-fd99b5a11250"},"vehicle_type_id":"4","last_reported":1768929605,"current_range_meters":4000,"station_id":"ce4bh492rcd13ifvqdug","pricing_plan_id":"cebpf4jnsgd1na2vs0mg"},{"bike_id":"7f38c8df-efe4-4d07-accc-47e67087b4a0","system_id":"levelo_inurba_marseille","lat":43.27999,"lon":5.4001,"is_reserved":false,"is_disabled":false,"rental_uris":{"android":"levelo://app?vid=7f38c8df-efe4-4d07-accc-47e67087b4a0","ios":"levelo://app?vid=7f38c8df-efe4-4d07-accc-47e67087b4a0"},"vehicle_type_id":"4","last_reported":1768929605,"current_range_meters":4000,"station_id":"ce4bho92rcd13ifvqh4g","pricing_plan_id":"cebpf4jnsgd1na2vs0mg"},{"bike_id":"d98680e2-8519-4eb7-88a9-6aba4c293400","system_id":"levelo_inurba_marseille","lat":43.27997,"lon":5.40013,"is_reserved":false,"is_disabled":false,"rental_uris":{"android":"levelo://app?vid=d98680e2-8519-4eb7-88a9-6aba4c293400","ios":"levelo://app?vid=d98680e2-8519-4eb7-88a9-6aba4c293400"},"vehicle_type_id":"4","last_reported":1768929605,"current_range_meters":4400,"station_id":"ce4bho92rcd13ifvqh4g","pricing_plan_id":"cebpf4jnsgd1na2vs0mg"},{"bike_id":"9401f880-51b1-4640-ba21-df34d72c60af","system_id":"levelo_inurba_marseille","lat":43.27425,"lon":5.39421,"is_reserved":false,"is_disabled":false,"rental_uris":{"android":"levelo://app?vid=9401f880-51b1-4640-ba21-df34d72c60af","ios":"levelo://app?vid=9401f880-51b1-4640-ba21-df34d72c60af"},"vehicle_type_id":"4","last_reported":1768929605,"current_range_meters":4400,"station_id":"ce4bhdp2rcd13ifvqf20","pricing_plan_id":"cebpf4jnsgd1na2vs0mg"},{"bike_id":"f5390ef6-f6cd-49bb-926e-4e7e11289da5","system_id":"levelo_inurba_marseille","lat":43.28615,"lon":5.35099,"is_reserved":false,"is_disabled":false,"rental_uris":{"android":"levelo://app?vid=f5390ef6-f6cd-49bb-926e-4e7e11289da5","ios":"levelo://app?vid=f5390ef6-f6cd-49bb-926e-4e7e11289da5"},"vehicle_type_id":"4","last_reported":1768929605,"current_range_meters":4400,"station_id":"ce4bhch2rcd13ifvqeug","pricing_plan_id":"cebpf4jnsgd1na2vs0mg"},{"bike_id":"02b19501-ae2b-4d21-ae93-ce26586838ae","system_id":"levelo_inurba_marseille","lat":43.2955,"lon":5.42288,"is_reserved":false,"is_disabled":false,"rental_uris":{"android":"levelo://app?vid=02b19501-ae2b-4d21-ae93-ce26586838ae","ios":"levelo://app?vid=02b19501-ae2b-4d21-ae93-ce26586838ae"},"vehicle_type_id":"4","last_reported":1768929605,"current_range_meters":4400,"station_id":"ce4bhph2rcd13ifvqhdg","pricing_plan_id":"cebpf4jnsgd1na2vs0mg"},{"bike_id":"fb16e469-5eda-4825-86f2-0fc1217a2094","system_id":"levelo_inurba_marseille","lat":43.28412,"lon":5.37523,"is_reserved":false,"is_disabled":false,"rental_uris":{"android":"levelo://app?vid=fb16e469-5eda-4825-86f2-0fc1217a2094","ios":"levelo://app?vid=fb16e469-5eda-4825-86f2-0fc1217a2094"},"vehicle_type_id":"4","last_reported":1768929605,"current_range_meters":4400,"station_id":"ce4bh412rcd13ifvqds0","pricing_plan_id":"cebpf4jnsgd1na2vs0mg"},{"bike_id":"42b5ad2d-acd8-454f-95e3-acdb00543462","system_id":"levelo_inurba_marseille","lat":43.260631,"lon":5.393969,"is_reserved":false,"is_disabled":false,"rental_uris":{"android":"levelo://app?vid=42b5ad2d-acd8-454f-95e3-acdb00543462","ios":"levelo://app?vid=42b5ad2d-acd8-454f-95e3-acdb00543462"},"vehicle_type_id":"4","last_reported":1768929605,"current_range_meters":4400,"station_id":"ce4bhh92rcd13ifvqfj0","pricing_plan_id":"cebpf4jnsgd1na2vs0mg"},{"bike_id":"6dd047f2-a91a-4e21-aaba-02725dff3f64","system_id":"levelo_inurba_marseille","lat":43.22566,"lon":5.41648,"is_reserved":false,"is_disabled":false,"rental_uris":{"android":"levelo://app?vid=6dd047f2-a91a-4e21-aaba-02725dff3f64","ios":"levelo://app?vid=6dd047f2-a91a-4e21-aaba-02725dff3f64"},"vehicle_type_id":"4","last_reported":1768929605,"current_range_meters":4400,"station_id":"st_d2o4gvlbi1j2169b742g","pricing_plan_id":"cebpf4jnsgd1na2vs0mg"},{"bike_id":"ae14426c-d055-48d5-a4ff-6e0b03ad465f","system_id":"levelo_inurba_marseille","lat":43.258194,"lon":5.394332,"is_reserved":false,"is_disabled":false,"rental_uris":{"android":"levelo://app?vid=ae14426c-d055-48d5-a4ff-6e0b03ad465f","ios":"levelo://app?vid=ae14426c-d055-48d5-a4ff-6e0b03ad465f"},"vehicle_type_id":"4","last_reported":1768929605,"current_range_meters":4400,"station_id":"ce4bhip2rcd13ifvqft0","pricing_plan_id":"cebpf4jnsgd1na2vs0mg"},{"bike_id":"e81b2e85-cd77-468a-aca0-c51c4329d1e8","system_id":"levelo_inurba_marseille","lat":43.29051,"lon":5.35933,"is_reserved":false,"is_disabled":false,"rental_uris":{"android":"levelo://app?vid=e81b2e85-cd77-468a-aca0-c51c4329d1e8","ios":"levelo://app?vid=e81b2e85-cd77-468a-aca0-c51c4329d1e8"},"vehicle_type_id":"4","last_reported":1768929605,"current_range_meters":4400,"station_id":"ce4bha92rcd13ifvqeg0","pricing_plan_id":"cebpf4jnsgd1na2vs0mg"},{"bike_id":"87b664e8-261a-4af6-bc15-0938553dae10","system_id":"levelo_inurba_marseille","lat":43.29748,"lon":5.37676,"is_reserved":false,"is_disabled":false,"rental_uris":{"android":"levelo://app?vid=87b664e8-261a-4af6-bc15-0938553dae10","ios":"levelo://app?vid=87b664e8-261a-4af6-bc15-0938553dae10"},"vehicle_type_id":"4","last_reported":1768929605,"current_range_meters":4400,"station_id":"ce4bgkh2rcd13ifvqbl0","pricing_plan_id":"cebpf4jnsgd1na2vs0mg"},{"bike_id":"8867da30-6b52-46a6-b030-aa432c377651","system_id":"levelo_inurba_marseille","lat":43.26062,"lon":5.39391,"is_reserved":false,"is_disabled":false,"rental_uris":{"android":"levelo://app?vid=8867da30-6b52-46a6-b030-aa432c377651","ios":"levelo://app?vid=8867da30-6b52-46a6-b030-aa432c377651"},"vehicle_type_id":"4","last_reported":1768929605,"current_range_meters":4400,"station_id":"ce4bhh92rcd13ifvqfj0","pricing_plan_id":"cebpf4jnsgd1na2vs0mg"},{"bike_id":"be62e594-ab11-4940-821f-47ec2a30c34b","system_id":"levelo_inurba_marseille","lat":43.324881,"lon":5.365561,"is_reserved":false,"is_disabled":false,"rental_uris":{"android":"levelo://app?vid=be62e594-ab11-4940-821f-47ec2a30c34b","ios":"levelo://app?vid=be62e594-ab11-4940-821f-47ec2a30c34b"},"vehicle_type_id":"4","last_reported":1768929605,"current_range_meters":4400,"station_id":"ce4bhs12rcd13ifvqhvg","pricing_plan_id":"cebpf4jnsgd1na2vs0mg"},{"bike_id":"1acc6ca2-5e73-4dcf-8c65-c17ce4eb20d8","system_id":"levelo_inurba_marseille","lat":43.29613,"lon":5.37718,"is_reserved":false,"is_disabled":false,"rental_uris":{"android":"levelo://app?vid=1acc6ca2-5e73-4dcf-8c65-c17ce4eb20d8","ios":"levelo://app?vid=1acc6ca2-5e73-4dcf-8c65-c17ce4eb20d8"},"vehicle_type_id":"4","last_reported":1768929605,"current_range_meters":4400,"station_id":"ce4bgi92rcd13ifvqb90","pricing_plan_id":"cebpf4jnsgd1na2vs0mg"},{"bike_id":"688531bd-e67c-4e35-a5e0-2f3ebf9590b9","system_id":"levelo_inurba_marseille","lat":43.30172,"lon":5.36689,"is_reserved":false,"is_disabled":false,"rental_uris":{"android":"levelo://app?vid=688531bd-e67c-4e35-a5e0-2f3ebf9590b9","ios":"levelo://app?vid=688531bd-e67c-4e35-a5e0-2f3ebf9590b9"},"vehicle_type_id":"4","last_reported":1768929605,"current_range_meters":4400,"station_id":"ce4bgrh2rcd13ifvqc8g","pricing_plan_id":"cebpf4jnsgd1na2vs0mg"},{"bike_id":"0a1373c2-4db2-4e97-a0ae-205fcf783599","system_id":"levelo_inurba_marseille","lat":43.286828,"lon":5.386627,"is_reserved":false,"is_disabled":false,"rental_uris":{"android":"levelo://app?vid=0a1373c2-4db2-4e97-a0ae-205fcf783599","ios":"levelo://app?vid=0a1373c2-4db2-4e97-a0ae-205fcf783599"},"vehicle_type_id":"4","last_reported":1768929605,"current_range_meters":4400,"station_id":"ce4bh492rcd13ifvqdug","pricing_plan_id":"cebpf4jnsgd1na2vs0mg"},{"bike_id":"a8d2063b-b136-4ccb-ad44-f4ea411c2cb1","system_id":"levelo_inurba_marseille","lat":43.24651,"lon":5.43175,"is_reserved":false,"is_disabled":false,"rental_uris":{"android":"levelo://app?vid=a8d2063b-b136-4ccb-ad44-f4ea411c2cb1","ios":"levelo://app?vid=a8d2063b-b136-4ccb-ad44-f4ea411c2cb1"},"vehicle_type_id":"4","last_reported":1768929605,"current_range_meters":4800,"station_id":"st_d2m6c4gdas8pm72e190g","pricing_plan_id":"cebpf4jnsgd1na2vs0mg"},{"bike_id":"9a6fa9d6-bd85-41a0-a1be-8f3bc0337c0a","system_id":"levelo_inurba_marseille","lat":43.24474,"lon":5.42547,"is_reserved":false,"is_disabled":false,"rental_uris":{"android":"levelo://app?vid=9a6fa9d6-bd85-41a0-a1be-8f3bc0337c0a","ios":"levelo://app?vid=9a6fa9d6-bd85-41a0-a1be-8f3bc0337c0a"},"vehicle_type_id":"4","last_reported":1768929605,"current_range_meters":4800,"station_id":"st_d4a3vfp97mjs738cd8kg","pricing_plan_id":"cebpf4jnsgd1na2vs0mg"},{"bike_id":"ed51369f-e016-4e31-8df8-1ff95a0bbc85","system_id":"levelo_inurba_marseille","lat":43.299194,"lon":5.374776,"is_reserved":false,"is_disabled":false,"rental_uris":{"android":"levelo://app?vid=ed51369f-e016-4e31-8df8-1ff95a0bbc85","ios":"levelo://app?vid=ed51369f-e016-4e31-8df8-1ff95a0bbc85"},"vehicle_type_id":"4","last_reported":1768929605,"current_range_meters":4800,"station_id":"ce4bgjh2rcd13ifvqbg0","pricing_plan_id":"cebpf4jnsgd1na2vs0mg"},{"bike_id":"b4d4d78b-c7ae-46d1-84aa-0c58c638c8ea","system_id":"levelo_inurba_marseille","lat":43.27998,"lon":5.41653,"is_reserved":false,"is_disabled":false,"rental_uris":{"android":"levelo://app?vid=b4d4d78b-c7ae-46d1-84aa-0c58c638c8ea","ios":"levelo://app?vid=b4d4d78b-c7ae-46d1-84aa-0c58c638c8ea"},"vehicle_type_id":"4","last_reported":1768929605,"current_range_meters":4800,"station_id":"ce4bho12rcd13ifvqh1g","pricing_plan_id":"cebpf4jnsgd1na2vs0mg"},{"bike_id":"6e7007a4-50a4-410a-b7bd-d0ebb7830797","system_id":"levelo_inurba_marseille","lat":43.24148,"lon":5.39693,"is_reserved":false,"is_disabled":false,"rental_uris":{"android":"levelo://app?vid=6e7007a4-50a4-410a-b7bd-d0ebb7830797","ios":"levelo://app?vid=6e7007a4-50a4-410a-b7bd-d0ebb7830797"},"vehicle_type_id":"4","last_reported":1768929605,"current_range_meters":4800,"station_id":"ce4bhn12rcd13ifvqgpg","pricing_plan_id":"cebpf4jnsgd1na2vs0mg"},{"bike_id":"a7572f73-98f2-44ea-a6f5-f75305cef497","system_id":"levelo_inurba_marseille","lat":43.28467,"lon":5.35901,"is_reserved":false,"is_disabled":false,"rental_uris":{"android":"levelo://app?vid=a7572f73-98f2-44ea-a6f5-f75305cef497","ios":"levelo://app?vid=a7572f73-98f2-44ea-a6f5-f75305cef497"},"vehicle_type_id":"4","last_reported":1768929605,"current_range_meters":4800,"station_id":"ce4bhah2rcd13ifvqei0","pricing_plan_id":"cebpf4jnsgd1na2vs0mg"},{"bike_id":"a7de2d8d-8758-43bb-af71-c2755cd1b6a8","system_id":"levelo_inurba_marseille","lat":43.28083,"lon":5.39668,"is_reserved":false,"is_disabled":false,"rental_uris":{"android":"levelo://app?vid=a7de2d8d-8758-43bb-af71-c2755cd1b6a8","ios":"levelo://app?vid=a7de2d8d-8758-43bb-af71-c2755cd1b6a8"},"vehicle_type_id":"4","last_reported":1768929605,"current_range_meters":4800,"station_id":"ce4bho12rcd13ifvqh2g","pricing_plan_id":"cebpf4jnsgd1na2vs0mg"},{"bike_id":"cebc97eb-4a76-48a5-8e19-b42529055587","system_id":"levelo_inurba_marseille","lat":43.29288,"lon":5.40122,"is_reserved":false,"is_disabled":false,"rental_uris":{"android":"levelo://app?vid=cebc97eb-4a76-48a5-8e19-b42529055587","ios":"levelo://app?vid=cebc97eb-4a76-48a5-8e19-b42529055587"},"vehicle_type_id":"4","last_reported":1768929605,"current_range_meters":4800,"station_id":"ce4bh312rcd13ifvqdk0","pricing_plan_id":"cebpf4jnsgd1na2vs0mg"},{"bike_id":"f650aff8-e742-48ca-8e77-f4fd3b3eebb9","system_id":"levelo_inurba_marseille","lat":43.26871,"lon":5.39602,"is_reserved":false,"is_disabled":false,"rental_uris":{"android":"levelo://app?vid=f650aff8-e742-48ca-8e77-f4fd3b3eebb9","ios":"levelo://app?vid=f650aff8-e742-48ca-8e77-f4fd3b3eebb9"},"vehicle_type_id":"4","last_reported":1768929605,"current_range_meters":4800,"station_id":"","pricing_plan_id":"cebpf4jnsgd1na2vs0mg"},{"bike_id":"97096676-429c-4f07-9652-1523f48f5442","system_id":"levelo_inurba_marseille","lat":43.30266,"lon":5.43429,"is_reserved":false,"is_disabled":false,"rental_uris":{"android":"levelo://app?vid=97096676-429c-4f07-9652-1523f48f5442","ios":"levelo://app?vid=97096676-429c-4f07-9652-1523f48f5442"},"vehicle_type_id":"4","last_reported":1768929605,"current_range_meters":4800,"station_id":"","pricing_plan_id":"cebpf4jnsgd1na2vs0mg"},{"bike_id":"73c56242-da35-42c7-acd1-b6dc43632f64","system_id":"levelo_inurba_marseille","lat":43.25104,"lon":5.40327,"is_reserved":false,"is_disabled":false,"rental_uris":{"android":"levelo://app?vid=73c56242-da35-42c7-acd1-b6dc43632f64","ios":"levelo://app?vid=73c56242-da35-42c7-acd1-b6dc43632f64"},"vehicle_type_id":"4","last_reported":1768929605,"current_range_meters":4800,"station_id":"ce4bhlh2rcd13ifvqgig","pricing_plan_id":"cebpf4jnsgd1na2vs0mg"},{"bike_id":"aaff8d94-1fa8-4cba-bdbc-2775e2b840f4","system_id":"levelo_inurba_marseille","lat":43.30945,"lon":5.38044,"is_reserved":false,"is_disabled":false,"rental_uris":{"android":"levelo://app?vid=aaff8d94-1fa8-4cba-bdbc-2775e2b840f4","ios":"levelo://app?vid=aaff8d94-1fa8-4cba-bdbc-2775e2b840f4"},"vehicle_type_id":"4","last_reported":1768929605,"current_range_meters":4800,"station_id":"","pricing_plan_id":"cebpf4jnsgd1na2vs0mg"},{"bike_id":"2cb68a33-061c-4540-9550-486705dea3bc","system_id":"levelo_inurba_marseille","lat":43.27895,"lon":5.38024,"is_reserved":false,"is_disabled":false,"rental_uris":{"android":"levelo://app?vid=2cb68a33-061c-4540-9550-486705dea3bc","ios":"levelo://app?vid=2cb68a33-061c-4540-9550-486705dea3bc"},"vehicle_type_id":"4","last_reported":1768929605,"current_range_meters":4800,"station_id":"ce4bhf92rcd13ifvqf50","pricing_plan_id":"cebpf4jnsgd1na2vs0mg"},{"bike_id":"d1656b93-1b71-4e85-bf98-22a1e92bb468","system_id":"levelo_inurba_marseille","lat":43.28868,"lon":5.42499,"is_reserved":false,"is_disabled":false,"rental_uris":{"android":"levelo://app?vid=d1656b93-1b71-4e85-bf98-22a1e92bb468","ios":"levelo://app?vid=d1656b93-1b71-4e85-bf98-22a1e92bb468"},"vehicle_type_id":"4","last_reported":1768929605,"current_range_meters":4800,"station_id":"st_d3b462108ojc7389ooeg","pricing_plan_id":"cebpf4jnsgd1na2vs0mg"},{"bike_id":"c269ec81-9208-44c8-ac4b-73c7bfd9ac58","system_id":"levelo_inurba_marseille","lat":43.310506,"lon":5.37157,"is_reserved":false,"is_disabled":false,"rental_uris":{"android":"levelo://app?vid=c269ec81-9208-44c8-ac4b-73c7bfd9ac58","ios":"levelo://app?vid=c269ec81-9208-44c8-ac4b-73c7bfd9ac58"},"vehicle_type_id":"4","last_reported":1768929605,"current_range_meters":5600,"station_id":"st_d4kl2rp97mjs73e7tdfg","pricing_plan_id":"cebpf4jnsgd1na2vs0mg"},{"bike_id":"b2060408-c261-4a37-95e3-0850fd949c23","system_id":"levelo_inurba_marseille","lat":43.29046,"lon":5.35913,"is_reserved":false,"is_disabled":false,"rental_uris":{"android":"levelo://app?vid=b2060408-c261-4a37-95e3-0850fd949c23","ios":"levelo://app?vid=b2060408-c261-4a37-95e3-0850fd949c23"},"vehicle_type_id":"4","last_reported":1768929605,"current_range_meters":5600,"station_id":"ce4bha92rcd13ifvqeg0","pricing_plan_id":"cebpf4jnsgd1na2vs0mg"},{"bike_id":"716e7277-44ed-4ef1-85aa-40576d490fc4","system_id":"levelo_inurba_marseille","lat":43.315672,"lon":5.373186,"is_reserved":false,"is_disabled":false,"rental_uris":{"android":"levelo://app?vid=716e7277-44ed-4ef1-85aa-40576d490fc4","ios":"levelo://app?vid=716e7277-44ed-4ef1-85aa-40576d490fc4"},"vehicle_type_id":"4","last_reported":1768929605,"current_range_meters":5600,"station_id":"","pricing_plan_id":"cebpf4jnsgd1na2vs0mg"},{"bike_id":"e78b97f2-d725-4116-8ab4-d859199317f5","system_id":"levelo_inurba_marseille","lat":43.28682,"lon":5.3866,"is_reserved":false,"is_disabled":false,"rental_uris":{"android":"levelo://app?vid=e78b97f2-d725-4116-8ab4-d859199317f5","ios":"levelo://app?vid=e78b97f2-d725-4116-8ab4-d859199317f5"},"vehicle_type_id":"4","last_reported":1768929605,"current_range_meters":5600,"station_id":"ce4bh492rcd13ifvqdug","pricing_plan_id":"cebpf4jnsgd1na2vs0mg"},{"bike_id":"efa38cb7-a84d-49d1-a1ea-367fe8bf17b7","system_id":"levelo_inurba_marseille","lat":43.30306,"lon":5.3691,"is_reserved":false,"is_disabled":false,"rental_uris":{"android":"levelo://app?vid=efa38cb7-a84d-49d1-a1ea-367fe8bf17b7","ios":"levelo://app?vid=efa38cb7-a84d-49d1-a1ea-367fe8bf17b7"},"vehicle_type_id":"4","last_reported":1768929605,"current_range_meters":5600,"station_id":"ce4bgqh2rcd13ifvqc5g","pricing_plan_id":"cebpf4jnsgd1na2vs0mg"},{"bike_id":"dc7f2cde-f394-4ae1-b0e4-a51d66aa1255","system_id":"levelo_inurba_marseille","lat":43.28149,"lon":5.43148,"is_reserved":false,"is_disabled":false,"rental_uris":{"android":"levelo://app?vid=dc7f2cde-f394-4ae1-b0e4-a51d66aa1255","ios":"levelo://app?vid=dc7f2cde-f394-4ae1-b0e4-a51d66aa1255"},"vehicle_type_id":"4","last_reported":1768929605,"current_range_meters":5600,"station_id":"","pricing_plan_id":"cebpf4jnsgd1na2vs0mg"},{"bike_id":"4b010055-a371-499e-9413-98103a6d14f7","system_id":"levelo_inurba_marseille","lat":43.289388,"lon":5.396261,"is_reserved":false,"is_disabled":false,"rental_uris":{"android":"levelo://app?vid=4b010055-a371-499e-9413-98103a6d14f7","ios":"levelo://app?vid=4b010055-a371-499e-9413-98103a6d14f7"},"vehicle_type_id":"4","last_reported":1768929605,"current_range_meters":5600,"station_id":"ce4bh3h2rcd13ifvqdn0","pricing_plan_id":"cebpf4jnsgd1na2vs0mg"},{"bike_id":"cc08d2b6-69fb-4c32-9f0f-91f88c556b74","system_id":"levelo_inurba_marseille","lat":43.22934,"lon":5.35369,"is_reserved":false,"is_disabled":false,"rental_uris":{"android":"levelo://app?vid=cc08d2b6-69fb-4c32-9f0f-91f88c556b74","ios":"levelo://app?vid=cc08d2b6-69fb-4c32-9f0f-91f88c556b74"},"vehicle_type_id":"4","last_reported":1768929605,"current_range_meters":5600,"station_id":"cpo3532slgdg3j2ikp40","pricing_plan_id":"cebpf4jnsgd1na2vs0mg"},{"bike_id":"f5a713a1-9f88-48cb-8c32-15ae3e5536c2","system_id":"levelo_inurba_marseille","lat":43.301307,"lon":5.398653,"is_reserved":false,"is_disabled":true,"rental_uris":{"android":"levelo://app?vid=f5a713a1-9f88-48cb-8c32-15ae3e5536c2","ios":"levelo://app?vid=f5a713a1-9f88-48cb-8c32-15ae3e5536c2"},"vehicle_type_id":"4","last_reported":1768929605,"current_range_meters":6000,"station_id":"ce4bh0h2rcd13ifvqd40","pricing_plan_id":"cebpf4jnsgd1na2vs0mg"},{"bike_id":"2351e1c9-97c0-42ed-8ba7-93d168c64106","system_id":"levelo_inurba_marseille","lat":43.297609,"lon":5.427863,"is_reserved":false,"is_disabled":false,"rental_uris":{"android":"levelo://app?vid=2351e1c9-97c0-42ed-8ba7-93d168c64106","ios":"levelo://app?vid=2351e1c9-97c0-42ed-8ba7-93d168c64106"},"vehicle_type_id":"4","last_reported":1768929605,"current_range_meters":6000,"station_id":"st_d3md5207bmas73dh9klg","pricing_plan_id":"cebpf4jnsgd1na2vs0mg"},{"bike_id":"826aeb2d-9384-4062-9da4-ff770f5b59dd","system_id":"levelo_inurba_marseille","lat":43.26068,"lon":5.3941,"is_reserved":false,"is_disabled":false,"rental_uris":{"android":"levelo://app?vid=826aeb2d-9384-4062-9da4-ff770f5b59dd","ios":"levelo://app?vid=826aeb2d-9384-4062-9da4-ff770f5b59dd"},"vehicle_type_id":"4","last_reported":1768929605,"current_range_meters":6000,"station_id":"ce4bhh92rcd13ifvqfj0","pricing_plan_id":"cebpf4jnsgd1na2vs0mg"},{"bike_id":"9cff5037-b95f-4160-aed4-0c6a74c5919b","system_id":"levelo_inurba_marseille","lat":43.28485,"lon":5.48394,"is_reserved":false,"is_disabled":false,"rental_uris":{"android":"levelo://app?vid=9cff5037-b95f-4160-aed4-0c6a74c5919b","ios":"levelo://app?vid=9cff5037-b95f-4160-aed4-0c6a74c5919b"},"vehicle_type_id":"4","last_reported":1768929605,"current_range_meters":6000,"station_id":"","pricing_plan_id":"cebpf4jnsgd1na2vs0mg"},{"bike_id":"f7f45999-b135-4f47-bda3-1f1e9b994c9d","system_id":"levelo_inurba_marseille","lat":43.30215,"lon":5.39469,"is_reserved":false,"is_disabled":false,"rental_uris":{"android":"levelo://app?vid=f7f45999-b135-4f47-bda3-1f1e9b994c9d","ios":"levelo://app?vid=f7f45999-b135-4f47-bda3-1f1e9b994c9d"},"vehicle_type_id":"4","last_reported":1768929605,"current_range_meters":6000,"station_id":"ce4bh0p2rcd13ifvqd70","pricing_plan_id":"cebpf4jnsgd1na2vs0mg"},{"bike_id":"ab62c2c7-778e-423c-8864-1a3f3a3a4fe7","system_id":"levelo_inurba_marseille","lat":43.27697,"lon":5.40806,"is_reserved":false,"is_disabled":false,"rental_uris":{"android":"levelo://app?vid=ab62c2c7-778e-423c-8864-1a3f3a3a4fe7","ios":"levelo://app?vid=ab62c2c7-778e-423c-8864-1a3f3a3a4fe7"},"vehicle_type_id":"4","last_reported":1768929605,"current_range_meters":6000,"station_id":"","pricing_plan_id":"cebpf4jnsgd1na2vs0mg"},{"bike_id":"e1a94992-82c5-4a6f-b35e-2ede9fbc9a60","system_id":"levelo_inurba_marseille","lat":43.29513,"lon":5.39415,"is_reserved":false,"is_disabled":false,"rental_uris":{"android":"levelo://app?vid=e1a94992-82c5-4a6f-b35e-2ede9fbc9a60","ios":"levelo://app?vid=e1a94992-82c5-4a6f-b35e-2ede9fbc9a60"},"vehicle_type_id":"4","last_reported":1768929605,"current_range_meters":6000,"station_id":"ce4bh292rcd13ifvqdf0","pricing_plan_id":"cebpf4jnsgd1na2vs0mg"},{"bike_id":"34a30352-96ed-457f-b41c-465008360e7e","system_id":"levelo_inurba_marseille","lat":43.29761,"lon":5.42769,"is_reserved":false,"is_disabled":false,"rental_uris":{"android":"levelo://app?vid=34a30352-96ed-457f-b41c-465008360e7e","ios":"levelo://app?vid=34a30352-96ed-457f-b41c-465008360e7e"},"vehicle_type_id":"4","last_reported":1768929605,"current_range_meters":6000,"station_id":"st_d3md5207bmas73dh9klg","pricing_plan_id":"cebpf4jnsgd1na2vs0mg"},{"bike_id":"bfefadc6-07cf-411e-940b-0834793f2e43","system_id":"levelo_inurba_marseille","lat":43.29264,"lon":5.40901,"is_reserved":false,"is_disabled":false,"rental_uris":{"android":"levelo://app?vid=bfefadc6-07cf-411e-940b-0834793f2e43","ios":"levelo://app?vid=bfefadc6-07cf-411e-940b-0834793f2e43"},"vehicle_type_id":"4","last_reported":1768929605,"current_range_meters":6000,"station_id":"ce4bh192rcd13ifvqdc0","pricing_plan_id":"cebpf4jnsgd1na2vs0mg"},{"bike_id":"8add765e-954f-4de3-9fe3-6a6d6c852996","system_id":"levelo_inurba_marseille","lat":43.28351,"lon":5.38098,"is_reserved":false,"is_disabled":false,"rental_uris":{"android":"levelo://app?vid=8add765e-954f-4de3-9fe3-6a6d6c852996","ios":"levelo://app?vid=8add765e-954f-4de3-9fe3-6a6d6c852996"},"vehicle_type_id":"4","last_reported":1768929605,"current_range_meters":6000,"station_id":"ce4bh412rcd13ifvqdr0","pricing_plan_id":"cebpf4jnsgd1na2vs0mg"},{"bike_id":"e3caaaee-f8d9-44b6-b3d8-e04b5e8c88ba","system_id":"levelo_inurba_marseille","lat":43.27831,"lon":5.4073,"is_reserved":false,"is_disabled":false,"rental_uris":{"android":"levelo://app?vid=e3caaaee-f8d9-44b6-b3d8-e04b5e8c88ba","ios":"levelo://app?vid=e3caaaee-f8d9-44b6-b3d8-e04b5e8c88ba"},"vehicle_type_id":"4","last_reported":1768929605,"current_range_meters":6000,"station_id":"ce4bhnh2rcd13ifvqgtg","pricing_plan_id":"cebpf4jnsgd1na2vs0mg"},{"bike_id":"b005335c-6b18-438b-8b3c-63321309c058","system_id":"levelo_inurba_marseille","lat":43.313475,"lon":5.367243,"is_reserved":false,"is_disabled":false,"rental_uris":{"android":"levelo://app?vid=b005335c-6b18-438b-8b3c-63321309c058","ios":"levelo://app?vid=b005335c-6b18-438b-8b3c-63321309c058"},"vehicle_type_id":"4","last_reported":1768929605,"current_range_meters":6000,"station_id":"ce4bgr92rcd13ifvqc6g","pricing_plan_id":"cebpf4jnsgd1na2vs0mg"},{"bike_id":"ea1b6251-046e-45fa-99ed-c6d51993189a","system_id":"levelo_inurba_marseille","lat":43.23963,"lon":5.36629,"is_reserved":false,"is_disabled":false,"rental_uris":{"android":"levelo://app?vid=ea1b6251-046e-45fa-99ed-c6d51993189a","ios":"levelo://app?vid=ea1b6251-046e-45fa-99ed-c6d51993189a"},"vehicle_type_id":"4","last_reported":1768929605,"current_range_meters":6000,"station_id":"ce4bhi12rcd13ifvqfp0","pricing_plan_id":"cebpf4jnsgd1na2vs0mg"},{"bike_id":"08f8a550-b746-43ee-b55b-c6564ff8b1a6","system_id":"levelo_inurba_marseille","lat":43.30328,"lon":5.40431,"is_reserved":false,"is_disabled":false,"rental_uris":{"android":"levelo://app?vid=08f8a550-b746-43ee-b55b-c6564ff8b1a6","ios":"levelo://app?vid=08f8a550-b746-43ee-b55b-c6564ff8b1a6"},"vehicle_type_id":"4","last_reported":1768929605,"current_range_meters":6000,"station_id":"ce4bh012rcd13ifvqd10","pricing_plan_id":"cebpf4jnsgd1na2vs0mg"},{"bike_id":"02d7f545-f36b-46fc-83e5-21e152063426","system_id":"levelo_inurba_marseille","lat":43.28134,"lon":5.42612,"is_reserved":false,"is_disabled":false,"rental_uris":{"android":"levelo://app?vid=02d7f545-f36b-46fc-83e5-21e152063426","ios":"levelo://app?vid=02d7f545-f36b-46fc-83e5-21e152063426"},"vehicle_type_id":"4","last_reported":1768929605,"current_range_meters":6000,"station_id":"ce4bhnh2rcd13ifvqgug","pricing_plan_id":"cebpf4jnsgd1na2vs0mg"},{"bike_id":"cecafd9f-cdde-42a8-88a2-69a280e88941","system_id":"levelo_inurba_marseille","lat":43.2953,"lon":5.39406,"is_reserved":false,"is_disabled":false,"rental_uris":{"android":"levelo://app?vid=cecafd9f-cdde-42a8-88a2-69a280e88941","ios":"levelo://app?vid=cecafd9f-cdde-42a8-88a2-69a280e88941"},"vehicle_type_id":"4","last_reported":1768929605,"current_range_meters":6400,"station_id":"ce4bh292rcd13ifvqdf0","pricing_plan_id":"cebpf4jnsgd1na2vs0mg"},{"bike_id":"e4a2de43-41bc-4e41-82c7-8754fb182ac0","system_id":"levelo_inurba_marseille","lat":43.304153,"lon":5.41285,"is_reserved":false,"is_disabled":false,"rental_uris":{"android":"levelo://app?vid=e4a2de43-41bc-4e41-82c7-8754fb182ac0","ios":"levelo://app?vid=e4a2de43-41bc-4e41-82c7-8754fb182ac0"},"vehicle_type_id":"4","last_reported":1768929605,"current_range_meters":6400,"station_id":"ce4bhop2rcd13ifvqh8g","pricing_plan_id":"cebpf4jnsgd1na2vs0mg"},{"bike_id":"24f5fe6a-3d3b-4a43-ae27-ab9a1fce5319","system_id":"levelo_inurba_marseille","lat":43.269461,"lon":5.389741,"is_reserved":false,"is_disabled":false,"rental_uris":{"android":"levelo://app?vid=24f5fe6a-3d3b-4a43-ae27-ab9a1fce5319","ios":"levelo://app?vid=24f5fe6a-3d3b-4a43-ae27-ab9a1fce5319"},"vehicle_type_id":"4","last_reported":1768929605,"current_range_meters":6400,"station_id":"ce4bhhh2rcd13ifvqfl0","pricing_plan_id":"cebpf4jnsgd1na2vs0mg"},{"bike_id":"f7b5bc56-ff2a-44ff-9f7d-439c8c6c6893","system_id":"levelo_inurba_marseille","lat":43.29009,"lon":5.35615,"is_reserved":false,"is_disabled":false,"rental_uris":{"android":"levelo://app?vid=f7b5bc56-ff2a-44ff-9f7d-439c8c6c6893","ios":"levelo://app?vid=f7b5bc56-ff2a-44ff-9f7d-439c8c6c6893"},"vehicle_type_id":"4","last_reported":1768929605,"current_range_meters":6400,"station_id":"ce4bhb92rcd13ifvqen0","pricing_plan_id":"cebpf4jnsgd1na2vs0mg"},{"bike_id":"a27994f3-c388-4372-a8e3-14dffa5f3b65","system_id":"levelo_inurba_marseille","lat":43.24811,"lon":5.37457,"is_reserved":false,"is_disabled":false,"rental_uris":{"android":"levelo://app?vid=a27994f3-c388-4372-a8e3-14dffa5f3b65","ios":"levelo://app?vid=a27994f3-c388-4372-a8e3-14dffa5f3b65"},"vehicle_type_id":"4","last_reported":1768929605,"current_range_meters":6400,"station_id":"ce4bhgh2rcd13ifvqfb0","pricing_plan_id":"cebpf4jnsgd1na2vs0mg"},{"bike_id":"d1b1cf6a-870f-4034-b895-5100ce4a3332","system_id":"levelo_inurba_marseille","lat":43.29557,"lon":5.42262,"is_reserved":false,"is_disabled":false,"rental_uris":{"android":"levelo://app?vid=d1b1cf6a-870f-4034-b895-5100ce4a3332","ios":"levelo://app?vid=d1b1cf6a-870f-4034-b895-5100ce4a3332"},"vehicle_type_id":"4","last_reported":1768929605,"current_range_meters":6400,"station_id":"ce4bhph2rcd13ifvqhdg","pricing_plan_id":"cebpf4jnsgd1na2vs0mg"},{"bike_id":"b3435d56-921f-456e-8b93-87fd6f6a762a","system_id":"levelo_inurba_marseille","lat":43.25091,"lon":5.39523,"is_reserved":false,"is_disabled":false,"rental_uris":{"android":"levelo://app?vid=b3435d56-921f-456e-8b93-87fd6f6a762a","ios":"levelo://app?vid=b3435d56-921f-456e-8b93-87fd6f6a762a"},"vehicle_type_id":"4","last_reported":1768929605,"current_range_meters":6400,"station_id":"ce4bhm12rcd13ifvqgkg","pricing_plan_id":"cebpf4jnsgd1na2vs0mg"},{"bike_id":"1cd68235-0dd0-4a18-b47e-f8a039dc8288","system_id":"levelo_inurba_marseille","lat":43.26338,"lon":5.4106,"is_reserved":false,"is_disabled":false,"rental_uris":{"android":"levelo://app?vid=1cd68235-0dd0-4a18-b47e-f8a039dc8288","ios":"levelo://app?vid=1cd68235-0dd0-4a18-b47e-f8a039dc8288"},"vehicle_type_id":"4","last_reported":1768929605,"current_range_meters":6400,"station_id":"st_d4e5ca6na9uc73bfl5fg","pricing_plan_id":"cebpf4jnsgd1na2vs0mg"},{"bike_id":"76b02a6d-37fb-48e0-b009-26e790b2f2f7","system_id":"levelo_inurba_marseille","lat":43.295282,"lon":5.385433,"is_reserved":false,"is_disabled":false,"rental_uris":{"android":"levelo://app?vid=76b02a6d-37fb-48e0-b009-26e790b2f2f7","ios":"levelo://app?vid=76b02a6d-37fb-48e0-b009-26e790b2f2f7"},"vehicle_type_id":"4","last_reported":1768929605,"current_range_meters":6400,"station_id":"ce4bgih2rcd13ifvqba0","pricing_plan_id":"cebpf4jnsgd1na2vs0mg"},{"bike_id":"6c3a5c15-7423-4a25-87ba-05f3c8d2d87e","system_id":"levelo_inurba_marseille","lat":43.3235,"lon":5.36734,"is_reserved":false,"is_disabled":false,"rental_uris":{"android":"levelo://app?vid=6c3a5c15-7423-4a25-87ba-05f3c8d2d87e","ios":"levelo://app?vid=6c3a5c15-7423-4a25-87ba-05f3c8d2d87e"},"vehicle_type_id":"4","last_reported":1768929605,"current_range_meters":6400,"station_id":"ce4bhsh2rcd13ifvqi2g","pricing_plan_id":"cebpf4jnsgd1na2vs0mg"},{"bike_id":"3fa89d2b-2504-4fca-990a-fb6d7aa6042a","system_id":"levelo_inurba_marseille","lat":43.281527,"lon":5.426463,"is_reserved":false,"is_disabled":false,"rental_uris":{"android":"levelo://app?vid=3fa89d2b-2504-4fca-990a-fb6d7aa6042a","ios":"levelo://app?vid=3fa89d2b-2504-4fca-990a-fb6d7aa6042a"},"vehicle_type_id":"4","last_reported":1768929605,"current_range_meters":6800,"station_id":"","pricing_plan_id":"cebpf4jnsgd1na2vs0mg"},{"bike_id":"c90f8d49-c464-4abb-b50f-a6f2833250ba","system_id":"levelo_inurba_marseille","lat":43.26059,"lon":5.39404,"is_reserved":false,"is_disabled":false,"rental_uris":{"android":"levelo://app?vid=c90f8d49-c464-4abb-b50f-a6f2833250ba","ios":"levelo://app?vid=c90f8d49-c464-4abb-b50f-a6f2833250ba"},"vehicle_type_id":"4","last_reported":1768929605,"current_range_meters":6800,"station_id":"ce4bhh92rcd13ifvqfj0","pricing_plan_id":"cebpf4jnsgd1na2vs0mg"},{"bike_id":"8c47a2e4-cd48-414b-b270-e7d950988f47","system_id":"levelo_inurba_marseille","lat":43.29534,"lon":5.38546,"is_reserved":false,"is_disabled":false,"rental_uris":{"android":"levelo://app?vid=8c47a2e4-cd48-414b-b270-e7d950988f47","ios":"levelo://app?vid=8c47a2e4-cd48-414b-b270-e7d950988f47"},"vehicle_type_id":"4","last_reported":1768929605,"current_range_meters":6800,"station_id":"ce4bgih2rcd13ifvqba0","pricing_plan_id":"cebpf4jnsgd1na2vs0mg"},{"bike_id":"d63ab266-1572-4b0c-b738-31fc0c352af7","system_id":"levelo_inurba_marseille","lat":43.297975,"lon":5.404026,"is_reserved":false,"is_disabled":false,"rental_uris":{"android":"levelo://app?vid=d63ab266-1572-4b0c-b738-31fc0c352af7","ios":"levelo://app?vid=d63ab266-1572-4b0c-b738-31fc0c352af7"},"vehicle_type_id":"4","last_reported":1768929605,"current_range_meters":6800,"station_id":"ce4bh112rcd13ifvqd90","pricing_plan_id":"cebpf4jnsgd1na2vs0mg"},{"bike_id":"50cb78d8-dc9b-4c98-93d4-03479a7d8b09","system_id":"levelo_inurba_marseille","lat":43.2904,"lon":5.38683,"is_reserved":false,"is_disabled":false,"rental_uris":{"android":"levelo://app?vid=50cb78d8-dc9b-4c98-93d4-03479a7d8b09","ios":"levelo://app?vid=50cb78d8-dc9b-4c98-93d4-03479a7d8b09"},"vehicle_type_id":"4","last_reported":1768929605,"current_range_meters":6800,"station_id":"ce4bh4p2rcd13ifvqe0g","pricing_plan_id":"cebpf4jnsgd1na2vs0mg"},{"bike_id":"fbbedfeb-5767-4a40-9eeb-fb558ba05242","system_id":"levelo_inurba_marseille","lat":43.25031,"lon":5.38961,"is_reserved":false,"is_disabled":false,"rental_uris":{"android":"levelo://app?vid=fbbedfeb-5767-4a40-9eeb-fb558ba05242","ios":"levelo://app?vid=fbbedfeb-5767-4a40-9eeb-fb558ba05242"},"vehicle_type_id":"4","last_reported":1768929605,"current_range_meters":6800,"station_id":"ce4bhgp2rcd13ifvqfd0","pricing_plan_id":"cebpf4jnsgd1na2vs0mg"},{"bike_id":"40e2667e-f23a-4ded-8ddb-fef4d5eb0dfe","system_id":"levelo_inurba_marseille","lat":43.2551,"lon":5.37681,"is_reserved":false,"is_disabled":false,"rental_uris":{"android":"levelo://app?vid=40e2667e-f23a-4ded-8ddb-fef4d5eb0dfe","ios":"levelo://app?vid=40e2667e-f23a-4ded-8ddb-fef4d5eb0dfe"},"vehicle_type_id":"4","last_reported":1768929605,"current_range_meters":6800,"station_id":"ce4bhh12rcd13ifvqff0","pricing_plan_id":"cebpf4jnsgd1na2vs0mg"},{"bike_id":"4d9fb050-4361-4bab-ba3c-960b4264587c","system_id":"levelo_inurba_marseille","lat":43.330572,"lon":5.3906,"is_reserved":false,"is_disabled":false,"rental_uris":{"android":"levelo://app?vid=4d9fb050-4361-4bab-ba3c-960b4264587c","ios":"levelo://app?vid=4d9fb050-4361-4bab-ba3c-960b4264587c"},"vehicle_type_id":"4","last_reported":1768929605,"current_range_meters":6800,"station_id":"","pricing_plan_id":"cebpf4jnsgd1na2vs0mg"},{"bike_id":"3aadbf49-975b-4a37-bdb5-9c26bfd2868c","system_id":"levelo_inurba_marseille","lat":43.293,"lon":5.37471,"is_reserved":false,"is_disabled":false,"rental_uris":{"android":"levelo://app?vid=3aadbf49-975b-4a37-bdb5-9c26bfd2868c","ios":"levelo://app?vid=3aadbf49-975b-4a37-bdb5-9c26bfd2868c"},"vehicle_type_id":"4","last_reported":1768929605,"current_range_meters":6800,"station_id":"ce4bgi12rcd13ifvqb70","pricing_plan_id":"cebpf4jnsgd1na2vs0mg"},{"bike_id":"9af1d4fe-4636-4caa-9cbd-bbff193f53c9","system_id":"levelo_inurba_marseille","lat":43.28156,"lon":5.42634,"is_reserved":false,"is_disabled":false,"rental_uris":{"android":"levelo://app?vid=9af1d4fe-4636-4caa-9cbd-bbff193f53c9","ios":"levelo://app?vid=9af1d4fe-4636-4caa-9cbd-bbff193f53c9"},"vehicle_type_id":"4","last_reported":1768929605,"current_range_meters":6800,"station_id":"ce4bhnh2rcd13ifvqgug","pricing_plan_id":"cebpf4jnsgd1na2vs0mg"},{"bike_id":"99ab6052-a6e8-4c7a-a7e6-fd65dca40c8f","system_id":"levelo_inurba_marseille","lat":43.28273,"lon":5.35079,"is_reserved":false,"is_disabled":false,"rental_uris":{"android":"levelo://app?vid=99ab6052-a6e8-4c7a-a7e6-fd65dca40c8f","ios":"levelo://app?vid=99ab6052-a6e8-4c7a-a7e6-fd65dca40c8f"},"vehicle_type_id":"4","last_reported":1768929605,"current_range_meters":6800,"station_id":"ce4bhbp2rcd13ifvqerg","pricing_plan_id":"cebpf4jnsgd1na2vs0mg"},{"bike_id":"caf72315-1bf7-48e7-9fee-d3520fab568f","system_id":"levelo_inurba_marseille","lat":43.305385,"lon":5.372834,"is_reserved":false,"is_disabled":false,"rental_uris":{"android":"levelo://app?vid=caf72315-1bf7-48e7-9fee-d3520fab568f","ios":"levelo://app?vid=caf72315-1bf7-48e7-9fee-d3520fab568f"},"vehicle_type_id":"4","last_reported":1768929605,"current_range_meters":6800,"station_id":"ce4bgqh2rcd13ifvqc4g","pricing_plan_id":"cebpf4jnsgd1na2vs0mg"},{"bike_id":"550e9371-99f9-467d-a1f7-c26e52cfb4b9","system_id":"levelo_inurba_marseille","lat":43.265681,"lon":5.390083,"is_reserved":false,"is_disabled":false,"rental_uris":{"android":"levelo://app?vid=550e9371-99f9-467d-a1f7-c26e52cfb4b9","ios":"levelo://app?vid=550e9371-99f9-467d-a1f7-c26e52cfb4b9"},"vehicle_type_id":"4","last_reported":1768929605,"current_range_meters":6800,"station_id":"ce4bhe12rcd13ifvqf30","pricing_plan_id":"cebpf4jnsgd1na2vs0mg"},{"bike_id":"ce65da15-5103-4c08-86e5-b4783ea2b238","system_id":"levelo_inurba_marseille","lat":43.29313,"lon":5.37181,"is_reserved":false,"is_disabled":false,"rental_uris":{"android":"levelo://app?vid=ce65da15-5103-4c08-86e5-b4783ea2b238","ios":"levelo://app?vid=ce65da15-5103-4c08-86e5-b4783ea2b238"},"vehicle_type_id":"4","last_reported":1768929605,"current_range_meters":6800,"station_id":"ce4bgh92rcd13ifvqb40","pricing_plan_id":"cebpf4jnsgd1na2vs0mg"},{"bike_id":"a323a204-8e90-4461-9540-8c5a6e2b130e","system_id":"levelo_inurba_marseille","lat":43.282331,"lon":5.390662,"is_reserved":false,"is_disabled":false,"rental_uris":{"android":"levelo://app?vid=a323a204-8e90-4461-9540-8c5a6e2b130e","ios":"levelo://app?vid=a323a204-8e90-4461-9540-8c5a6e2b130e"},"vehicle_type_id":"4","last_reported":1768929605,"current_range_meters":6800,"station_id":"ce4bhn92rcd13ifvqgsg","pricing_plan_id":"cebpf4jnsgd1na2vs0mg"},{"bike_id":"3f155f0c-a1bd-400f-8289-4fd480af1e73","system_id":"levelo_inurba_marseille","lat":43.29121,"lon":5.38273,"is_reserved":false,"is_disabled":false,"rental_uris":{"android":"levelo://app?vid=3f155f0c-a1bd-400f-8289-4fd480af1e73","ios":"levelo://app?vid=3f155f0c-a1bd-400f-8289-4fd480af1e73"},"vehicle_type_id":"4","last_reported":1768929605,"current_range_meters":6800,"station_id":"","pricing_plan_id":"cebpf4jnsgd1na2vs0mg"},{"bike_id":"544ad0c6-321a-4014-a5c3-ffb32ae71cca","system_id":"levelo_inurba_marseille","lat":43.28484,"lon":5.48395,"is_reserved":false,"is_disabled":false,"rental_uris":{"android":"levelo://app?vid=544ad0c6-321a-4014-a5c3-ffb32ae71cca","ios":"levelo://app?vid=544ad0c6-321a-4014-a5c3-ffb32ae71cca"},"vehicle_type_id":"4","last_reported":1768929605,"current_range_meters":6800,"station_id":"","pricing_plan_id":"cebpf4jnsgd1na2vs0mg"},{"bike_id":"03ef40f8-daad-451a-8b37-068585940455","system_id":"levelo_inurba_marseille","lat":43.2737,"lon":5.36248,"is_reserved":false,"is_disabled":false,"rental_uris":{"android":"levelo://app?vid=03ef40f8-daad-451a-8b37-068585940455","ios":"levelo://app?vid=03ef40f8-daad-451a-8b37-068585940455"},"vehicle_type_id":"4","last_reported":1768929605,"current_range_meters":6800,"station_id":"ce4bhbh2rcd13ifvqeo0","pricing_plan_id":"cebpf4jnsgd1na2vs0mg"},{"bike_id":"5d6ec190-4e3f-4728-8145-239caf53150f","system_id":"levelo_inurba_marseille","lat":43.30682,"lon":5.402939,"is_reserved":false,"is_disabled":false,"rental_uris":{"android":"levelo://app?vid=5d6ec190-4e3f-4728-8145-239caf53150f","ios":"levelo://app?vid=5d6ec190-4e3f-4728-8145-239caf53150f"},"vehicle_type_id":"4","last_reported":1768929605,"current_range_meters":6800,"station_id":"","pricing_plan_id":"cebpf4jnsgd1na2vs0mg"},{"bike_id":"65f2e28d-b6c3-4183-a528-4abf22dd5335","system_id":"levelo_inurba_marseille","lat":43.239579,"lon":5.366377,"is_reserved":false,"is_disabled":false,"rental_uris":{"android":"levelo://app?vid=65f2e28d-b6c3-4183-a528-4abf22dd5335","ios":"levelo://app?vid=65f2e28d-b6c3-4183-a528-4abf22dd5335"},"vehicle_type_id":"4","last_reported":1768929605,"current_range_meters":7200,"station_id":"ce4bhi12rcd13ifvqfp0","pricing_plan_id":"cebpf4jnsgd1na2vs0mg"},{"bike_id":"4f64c259-7ce5-4526-aee3-891cc5b8f8d0","system_id":"levelo_inurba_marseille","lat":43.26935,"lon":5.40257,"is_reserved":false,"is_disabled":false,"rental_uris":{"android":"levelo://app?vid=4f64c259-7ce5-4526-aee3-891cc5b8f8d0","ios":"levelo://app?vid=4f64c259-7ce5-4526-aee3-891cc5b8f8d0"},"vehicle_type_id":"4","last_reported":1768929605,"current_range_meters":7200,"station_id":"cjm6bp8fraef2m0cb0m0","pricing_plan_id":"cebpf4jnsgd1na2vs0mg"},{"bike_id":"36dc61e8-b517-4c14-bf5c-bafbe79cf9e7","system_id":"levelo_inurba_marseille","lat":43.28271,"lon":5.35062,"is_reserved":false,"is_disabled":false,"rental_uris":{"android":"levelo://app?vid=36dc61e8-b517-4c14-bf5c-bafbe79cf9e7","ios":"levelo://app?vid=36dc61e8-b517-4c14-bf5c-bafbe79cf9e7"},"vehicle_type_id":"4","last_reported":1768929605,"current_range_meters":7200,"station_id":"ce4bhbp2rcd13ifvqerg","pricing_plan_id":"cebpf4jnsgd1na2vs0mg"},{"bike_id":"e665749b-eeca-4c67-b597-55f512de17bd","system_id":"levelo_inurba_marseille","lat":43.284096,"lon":5.375105,"is_reserved":false,"is_disabled":false,"rental_uris":{"android":"levelo://app?vid=e665749b-eeca-4c67-b597-55f512de17bd","ios":"levelo://app?vid=e665749b-eeca-4c67-b597-55f512de17bd"},"vehicle_type_id":"4","last_reported":1768929605,"current_range_meters":7200,"station_id":"ce4bh412rcd13ifvqds0","pricing_plan_id":"cebpf4jnsgd1na2vs0mg"},{"bike_id":"de773d31-c0ae-4fe9-90d5-b0353b585a1e","system_id":"levelo_inurba_marseille","lat":43.264532,"lon":5.395897,"is_reserved":false,"is_disabled":false,"rental_uris":{"android":"levelo://app?vid=de773d31-c0ae-4fe9-90d5-b0353b585a1e","ios":"levelo://app?vid=de773d31-c0ae-4fe9-90d5-b0353b585a1e"},"vehicle_type_id":"4","last_reported":1768929605,"current_range_meters":7200,"station_id":"ce4bhi12rcd13ifvqfq0","pricing_plan_id":"cebpf4jnsgd1na2vs0mg"},{"bike_id":"19da54de-4602-49e5-a196-11068ea61238","system_id":"levelo_inurba_marseille","lat":43.30687,"lon":5.36559,"is_reserved":false,"is_disabled":false,"rental_uris":{"android":"levelo://app?vid=19da54de-4602-49e5-a196-11068ea61238","ios":"levelo://app?vid=19da54de-4602-49e5-a196-11068ea61238"},"vehicle_type_id":"4","last_reported":1768929605,"current_range_meters":7200,"station_id":"","pricing_plan_id":"cebpf4jnsgd1na2vs0mg"},{"bike_id":"4ca32394-f8f1-4623-8df9-31249aca63fc","system_id":"levelo_inurba_marseille","lat":43.23188,"lon":5.39998,"is_reserved":false,"is_disabled":false,"rental_uris":{"android":"levelo://app?vid=4ca32394-f8f1-4623-8df9-31249aca63fc","ios":"levelo://app?vid=4ca32394-f8f1-4623-8df9-31249aca63fc"},"vehicle_type_id":"4","last_reported":1768929605,"current_range_meters":7200,"station_id":"ce4bhn12rcd13ifvqgqg","pricing_plan_id":"cebpf4jnsgd1na2vs0mg"},{"bike_id":"a5d378d7-463c-4ce3-92a6-80cfb961739b","system_id":"levelo_inurba_marseille","lat":43.29278,"lon":5.36853,"is_reserved":false,"is_disabled":false,"rental_uris":{"android":"levelo://app?vid=a5d378d7-463c-4ce3-92a6-80cfb961739b","ios":"levelo://app?vid=a5d378d7-463c-4ce3-92a6-80cfb961739b"},"vehicle_type_id":"4","last_reported":1768929605,"current_range_meters":7200,"station_id":"ce4bhbp2rcd13ifvqesg","pricing_plan_id":"cebpf4jnsgd1na2vs0mg"},{"bike_id":"350a79a1-2120-443a-849c-814a0e198d1b","system_id":"levelo_inurba_marseille","lat":43.25525,"lon":5.37667,"is_reserved":false,"is_disabled":false,"rental_uris":{"android":"levelo://app?vid=350a79a1-2120-443a-849c-814a0e198d1b","ios":"levelo://app?vid=350a79a1-2120-443a-849c-814a0e198d1b"},"vehicle_type_id":"4","last_reported":1768929605,"current_range_meters":7200,"station_id":"ce4bhh12rcd13ifvqff0","pricing_plan_id":"cebpf4jnsgd1na2vs0mg"},{"bike_id":"c766203c-fe51-459b-bf74-dd6b3df74629","system_id":"levelo_inurba_marseille","lat":43.23195,"lon":5.40021,"is_reserved":false,"is_disabled":false,"rental_uris":{"android":"levelo://app?vid=c766203c-fe51-459b-bf74-dd6b3df74629","ios":"levelo://app?vid=c766203c-fe51-459b-bf74-dd6b3df74629"},"vehicle_type_id":"4","last_reported":1768929605,"current_range_meters":7200,"station_id":"ce4bhn12rcd13ifvqgqg","pricing_plan_id":"cebpf4jnsgd1na2vs0mg"},{"bike_id":"f58dc067-4dd9-4635-8ae5-365aced9c977","system_id":"levelo_inurba_marseille","lat":43.262171,"lon":5.404392,"is_reserved":false,"is_disabled":false,"rental_uris":{"android":"levelo://app?vid=f58dc067-4dd9-4635-8ae5-365aced9c977","ios":"levelo://app?vid=f58dc067-4dd9-4635-8ae5-365aced9c977"},"vehicle_type_id":"4","last_reported":1768929605,"current_range_meters":7200,"station_id":"ce4bhmh2rcd13ifvqgmg","pricing_plan_id":"cebpf4jnsgd1na2vs0mg"},{"bike_id":"470d11ff-6533-496b-9b42-604d9a3c30ea","system_id":"levelo_inurba_marseille","lat":43.3158,"lon":5.36869,"is_reserved":false,"is_disabled":false,"rental_uris":{"android":"levelo://app?vid=470d11ff-6533-496b-9b42-604d9a3c30ea","ios":"levelo://app?vid=470d11ff-6533-496b-9b42-604d9a3c30ea"},"vehicle_type_id":"4","last_reported":1768929605,"current_range_meters":7200,"station_id":"","pricing_plan_id":"cebpf4jnsgd1na2vs0mg"},{"bike_id":"9a38c837-15b7-4988-80cf-f1058a78cda9","system_id":"levelo_inurba_marseille","lat":43.280087,"lon":5.400161,"is_reserved":false,"is_disabled":false,"rental_uris":{"android":"levelo://app?vid=9a38c837-15b7-4988-80cf-f1058a78cda9","ios":"levelo://app?vid=9a38c837-15b7-4988-80cf-f1058a78cda9"},"vehicle_type_id":"4","last_reported":1768929605,"current_range_meters":7200,"station_id":"ce4bho92rcd13ifvqh4g","pricing_plan_id":"cebpf4jnsgd1na2vs0mg"},{"bike_id":"10483c0a-1726-407f-8492-2530493c0d67","system_id":"levelo_inurba_marseille","lat":43.24997,"lon":5.38922,"is_reserved":false,"is_disabled":false,"rental_uris":{"android":"levelo://app?vid=10483c0a-1726-407f-8492-2530493c0d67","ios":"levelo://app?vid=10483c0a-1726-407f-8492-2530493c0d67"},"vehicle_type_id":"4","last_reported":1768929605,"current_range_meters":7200,"station_id":"ce4bhgp2rcd13ifvqfd0","pricing_plan_id":"cebpf4jnsgd1na2vs0mg"},{"bike_id":"f80b5dd1-d193-47a3-ad89-243623b17e96","system_id":"levelo_inurba_marseille","lat":43.267864,"lon":5.394067,"is_reserved":false,"is_disabled":false,"rental_uris":{"android":"levelo://app?vid=f80b5dd1-d193-47a3-ad89-243623b17e96","ios":"levelo://app?vid=f80b5dd1-d193-47a3-ad89-243623b17e96"},"vehicle_type_id":"4","last_reported":1768929605,"current_range_meters":7200,"station_id":"ce4bgk12rcd13ifvqbi0","pricing_plan_id":"cebpf4jnsgd1na2vs0mg"},{"bike_id":"6f3d009d-3e07-45d5-92ff-35cea0432c5c","system_id":"levelo_inurba_marseille","lat":43.29009,"lon":5.3812,"is_reserved":false,"is_disabled":false,"rental_uris":{"android":"levelo://app?vid=6f3d009d-3e07-45d5-92ff-35cea0432c5c","ios":"levelo://app?vid=6f3d009d-3e07-45d5-92ff-35cea0432c5c"},"vehicle_type_id":"4","last_reported":1768929605,"current_range_meters":7200,"station_id":"ce4bh4p2rcd13ifvqe1g","pricing_plan_id":"cebpf4jnsgd1na2vs0mg"},{"bike_id":"dc8657d8-aec1-4f85-930d-116f24a77422","system_id":"levelo_inurba_marseille","lat":43.28002,"lon":5.40022,"is_reserved":false,"is_disabled":false,"rental_uris":{"android":"levelo://app?vid=dc8657d8-aec1-4f85-930d-116f24a77422","ios":"levelo://app?vid=dc8657d8-aec1-4f85-930d-116f24a77422"},"vehicle_type_id":"4","last_reported":1768929605,"current_range_meters":7200,"station_id":"ce4bho92rcd13ifvqh4g","pricing_plan_id":"cebpf4jnsgd1na2vs0mg"},{"bike_id":"ac243ded-aeb9-48ab-9c29-417002e21ab3","system_id":"levelo_inurba_marseille","lat":43.30793,"lon":5.38152,"is_reserved":false,"is_disabled":false,"rental_uris":{"android":"levelo://app?vid=ac243ded-aeb9-48ab-9c29-417002e21ab3","ios":"levelo://app?vid=ac243ded-aeb9-48ab-9c29-417002e21ab3"},"vehicle_type_id":"4","last_reported":1768929605,"current_range_meters":7200,"station_id":"ce4bgt12rcd13ifvqce0","pricing_plan_id":"cebpf4jnsgd1na2vs0mg"},{"bike_id":"35bd55e9-52d7-41f9-86a8-6ca96c65fb2d","system_id":"levelo_inurba_marseille","lat":43.23183,"lon":5.39996,"is_reserved":false,"is_disabled":false,"rental_uris":{"android":"levelo://app?vid=35bd55e9-52d7-41f9-86a8-6ca96c65fb2d","ios":"levelo://app?vid=35bd55e9-52d7-41f9-86a8-6ca96c65fb2d"},"vehicle_type_id":"4","last_reported":1768929605,"current_range_meters":7200,"station_id":"ce4bhn12rcd13ifvqgqg","pricing_plan_id":"cebpf4jnsgd1na2vs0mg"},{"bike_id":"1cd770bf-fcb8-4ad2-8c4f-070b0b0b7270","system_id":"levelo_inurba_marseille","lat":43.26206,"lon":5.37932,"is_reserved":false,"is_disabled":false,"rental_uris":{"android":"levelo://app?vid=1cd770bf-fcb8-4ad2-8c4f-070b0b0b7270","ios":"levelo://app?vid=1cd770bf-fcb8-4ad2-8c4f-070b0b0b7270"},"vehicle_type_id":"4","last_reported":1768929605,"current_range_meters":7200,"station_id":"ce4bhjp2rcd13ifvqg90","pricing_plan_id":"cebpf4jnsgd1na2vs0mg"},{"bike_id":"c9632c24-d4ba-453f-a643-952c5a012a8a","system_id":"levelo_inurba_marseille","lat":43.22565,"lon":5.41644,"is_reserved":false,"is_disabled":false,"rental_uris":{"android":"levelo://app?vid=c9632c24-d4ba-453f-a643-952c5a012a8a","ios":"levelo://app?vid=c9632c24-d4ba-453f-a643-952c5a012a8a"},"vehicle_type_id":"4","last_reported":1768929605,"current_range_meters":8000,"station_id":"st_d2o4gvlbi1j2169b742g","pricing_plan_id":"cebpf4jnsgd1na2vs0mg"},{"bike_id":"00926366-40d2-4692-a7fe-1fb3b69e53b6","system_id":"levelo_inurba_marseille","lat":43.32493,"lon":5.36559,"is_reserved":false,"is_disabled":false,"rental_uris":{"android":"levelo://app?vid=00926366-40d2-4692-a7fe-1fb3b69e53b6","ios":"levelo://app?vid=00926366-40d2-4692-a7fe-1fb3b69e53b6"},"vehicle_type_id":"4","last_reported":1768929605,"current_range_meters":8000,"station_id":"ce4bhs12rcd13ifvqhvg","pricing_plan_id":"cebpf4jnsgd1na2vs0mg"},{"bike_id":"a5f349fe-2e30-4d5c-8f49-43550ab153d5","system_id":"levelo_inurba_marseille","lat":43.24654,"lon":5.38916,"is_reserved":false,"is_disabled":false,"rental_uris":{"android":"levelo://app?vid=a5f349fe-2e30-4d5c-8f49-43550ab153d5","ios":"levelo://app?vid=a5f349fe-2e30-4d5c-8f49-43550ab153d5"},"vehicle_type_id":"4","last_reported":1768929605,"current_range_meters":8000,"station_id":"ce4bhg12rcd13ifvqf60","pricing_plan_id":"cebpf4jnsgd1na2vs0mg"},{"bike_id":"d466e173-51b3-4260-bdba-320b58be2104","system_id":"levelo_inurba_marseille","lat":43.26564,"lon":5.37293,"is_reserved":false,"is_disabled":false,"rental_uris":{"android":"levelo://app?vid=d466e173-51b3-4260-bdba-320b58be2104","ios":"levelo://app?vid=d466e173-51b3-4260-bdba-320b58be2104"},"vehicle_type_id":"4","last_reported":1768929605,"current_range_meters":8000,"station_id":"ce4bhg12rcd13ifvqf70","pricing_plan_id":"cebpf4jnsgd1na2vs0mg"},{"bike_id":"0c80884c-9c03-40f4-a5db-26696ff4abea","system_id":"levelo_inurba_marseille","lat":43.30582,"lon":5.36542,"is_reserved":false,"is_disabled":false,"rental_uris":{"android":"levelo://app?vid=0c80884c-9c03-40f4-a5db-26696ff4abea","ios":"levelo://app?vid=0c80884c-9c03-40f4-a5db-26696ff4abea"},"vehicle_type_id":"4","last_reported":1768929605,"current_range_meters":8000,"station_id":"ce4bgs12rcd13ifvqcag","pricing_plan_id":"cebpf4jnsgd1na2vs0mg"},{"bike_id":"7d2f250a-191b-441d-876b-7325dd6245a6","system_id":"levelo_inurba_marseille","lat":43.24991,"lon":5.38944,"is_reserved":false,"is_disabled":false,"rental_uris":{"android":"levelo://app?vid=7d2f250a-191b-441d-876b-7325dd6245a6","ios":"levelo://app?vid=7d2f250a-191b-441d-876b-7325dd6245a6"},"vehicle_type_id":"4","last_reported":1768929605,"current_range_meters":8000,"station_id":"ce4bhgp2rcd13ifvqfd0","pricing_plan_id":"cebpf4jnsgd1na2vs0mg"},{"bike_id":"8a83b555-456d-4d0f-9f0b-46c4fec20bd5","system_id":"levelo_inurba_marseille","lat":43.25336,"lon":5.42173,"is_reserved":false,"is_disabled":false,"rental_uris":{"android":"levelo://app?vid=8a83b555-456d-4d0f-9f0b-46c4fec20bd5","ios":"levelo://app?vid=8a83b555-456d-4d0f-9f0b-46c4fec20bd5"},"vehicle_type_id":"4","last_reported":1768929605,"current_range_meters":8000,"station_id":"st_d2m65c5bi1j21697t3ng","pricing_plan_id":"cebpf4jnsgd1na2vs0mg"},{"bike_id":"c103ce9c-0aaa-4a53-b373-a704be8ed706","system_id":"levelo_inurba_marseille","lat":43.25337,"lon":5.42175,"is_reserved":false,"is_disabled":false,"rental_uris":{"android":"levelo://app?vid=c103ce9c-0aaa-4a53-b373-a704be8ed706","ios":"levelo://app?vid=c103ce9c-0aaa-4a53-b373-a704be8ed706"},"vehicle_type_id":"4","last_reported":1768929605,"current_range_meters":8000,"station_id":"st_d2m65c5bi1j21697t3ng","pricing_plan_id":"cebpf4jnsgd1na2vs0mg"},{"bike_id":"bd47c088-7a9b-44ec-a68f-65b726393761","system_id":"levelo_inurba_marseille","lat":43.27981,"lon":5.40567,"is_reserved":false,"is_disabled":false,"rental_uris":{"android":"levelo://app?vid=bd47c088-7a9b-44ec-a68f-65b726393761","ios":"levelo://app?vid=bd47c088-7a9b-44ec-a68f-65b726393761"},"vehicle_type_id":"4","last_reported":1768929605,"current_range_meters":8000,"station_id":"","pricing_plan_id":"cebpf4jnsgd1na2vs0mg"},{"bike_id":"a8ab6672-85cf-4cfb-bb9b-ad7e83620920","system_id":"levelo_inurba_marseille","lat":43.30599,"lon":5.393369,"is_reserved":false,"is_disabled":false,"rental_uris":{"android":"levelo://app?vid=a8ab6672-85cf-4cfb-bb9b-ad7e83620920","ios":"levelo://app?vid=a8ab6672-85cf-4cfb-bb9b-ad7e83620920"},"vehicle_type_id":"4","last_reported":1768929605,"current_range_meters":8000,"station_id":"ce4bh0p2rcd13ifvqd80","pricing_plan_id":"cebpf4jnsgd1na2vs0mg"},{"bike_id":"95e17ee8-00ca-4e35-8b44-4f1975ef3f6b","system_id":"levelo_inurba_marseille","lat":43.286472,"lon":5.385357,"is_reserved":false,"is_disabled":false,"rental_uris":{"android":"levelo://app?vid=95e17ee8-00ca-4e35-8b44-4f1975ef3f6b","ios":"levelo://app?vid=95e17ee8-00ca-4e35-8b44-4f1975ef3f6b"},"vehicle_type_id":"4","last_reported":1768929605,"current_range_meters":8000,"station_id":"ce4bh492rcd13ifvqdug","pricing_plan_id":"cebpf4jnsgd1na2vs0mg"},{"bike_id":"f1d4233d-2911-4edf-a268-ad1589486129","system_id":"levelo_inurba_marseille","lat":43.24208,"lon":5.39705,"is_reserved":false,"is_disabled":false,"rental_uris":{"android":"levelo://app?vid=f1d4233d-2911-4edf-a268-ad1589486129","ios":"levelo://app?vid=f1d4233d-2911-4edf-a268-ad1589486129"},"vehicle_type_id":"4","last_reported":1768929605,"current_range_meters":8000,"station_id":"ce4bhn12rcd13ifvqgpg","pricing_plan_id":"cebpf4jnsgd1na2vs0mg"},{"bike_id":"82083f02-67d3-46a9-beaf-bc86cb863617","system_id":"levelo_inurba_marseille","lat":43.30512,"lon":5.36501,"is_reserved":false,"is_disabled":false,"rental_uris":{"android":"levelo://app?vid=82083f02-67d3-46a9-beaf-bc86cb863617","ios":"levelo://app?vid=82083f02-67d3-46a9-beaf-bc86cb863617"},"vehicle_type_id":"4","last_reported":1768929605,"current_range_meters":8000,"station_id":"ce4bgs12rcd13ifvqcag","pricing_plan_id":"cebpf4jnsgd1na2vs0mg"},{"bike_id":"da1775b4-f964-4c31-a42d-2a7370b74fae","system_id":"levelo_inurba_marseille","lat":43.28158,"lon":5.42632,"is_reserved":false,"is_disabled":false,"rental_uris":{"android":"levelo://app?vid=da1775b4-f964-4c31-a42d-2a7370b74fae","ios":"levelo://app?vid=da1775b4-f964-4c31-a42d-2a7370b74fae"},"vehicle_type_id":"4","last_reported":1768929605,"current_range_meters":8000,"station_id":"ce4bhnh2rcd13ifvqgug","pricing_plan_id":"cebpf4jnsgd1na2vs0mg"},{"bike_id":"29b3fe27-3155-4bb1-9d12-be92f522d733","system_id":"levelo_inurba_marseille","lat":43.29764,"lon":5.42781,"is_reserved":false,"is_disabled":false,"rental_uris":{"android":"levelo://app?vid=29b3fe27-3155-4bb1-9d12-be92f522d733","ios":"levelo://app?vid=29b3fe27-3155-4bb1-9d12-be92f522d733"},"vehicle_type_id":"4","last_reported":1768929605,"current_range_meters":8000,"station_id":"st_d3md5207bmas73dh9klg","pricing_plan_id":"cebpf4jnsgd1na2vs0mg"},{"bike_id":"52c85b02-607c-4226-bd7b-fd246dd2dae8","system_id":"levelo_inurba_marseille","lat":43.22559,"lon":5.4163,"is_reserved":false,"is_disabled":false,"rental_uris":{"android":"levelo://app?vid=52c85b02-607c-4226-bd7b-fd246dd2dae8","ios":"levelo://app?vid=52c85b02-607c-4226-bd7b-fd246dd2dae8"},"vehicle_type_id":"4","last_reported":1768929605,"current_range_meters":8000,"station_id":"st_d2o4gvlbi1j2169b742g","pricing_plan_id":"cebpf4jnsgd1na2vs0mg"},{"bike_id":"0e84440f-1425-4251-a28c-38177f781258","system_id":"levelo_inurba_marseille","lat":43.2848,"lon":5.484,"is_reserved":false,"is_disabled":false,"rental_uris":{"android":"levelo://app?vid=0e84440f-1425-4251-a28c-38177f781258","ios":"levelo://app?vid=0e84440f-1425-4251-a28c-38177f781258"},"vehicle_type_id":"4","last_reported":1768929605,"current_range_meters":8000,"station_id":"","pricing_plan_id":"cebpf4jnsgd1na2vs0mg"},{"bike_id":"35eb0f0f-42a8-4fd5-956e-bec6aa3f7ee3","system_id":"levelo_inurba_marseille","lat":43.23203,"lon":5.39982,"is_reserved":false,"is_disabled":false,"rental_uris":{"android":"levelo://app?vid=35eb0f0f-42a8-4fd5-956e-bec6aa3f7ee3","ios":"levelo://app?vid=35eb0f0f-42a8-4fd5-956e-bec6aa3f7ee3"},"vehicle_type_id":"4","last_reported":1768929605,"current_range_meters":8000,"station_id":"ce4bhn12rcd13ifvqgqg","pricing_plan_id":"cebpf4jnsgd1na2vs0mg"},{"bike_id":"3e57c784-076f-487c-b622-a075cc851190","system_id":"levelo_inurba_marseille","lat":43.263507,"lon":5.378074,"is_reserved":false,"is_disabled":false,"rental_uris":{"android":"levelo://app?vid=3e57c784-076f-487c-b622-a075cc851190","ios":"levelo://app?vid=3e57c784-076f-487c-b622-a075cc851190"},"vehicle_type_id":"4","last_reported":1768929605,"current_range_meters":8000,"station_id":"ce4bhjp2rcd13ifvqg90","pricing_plan_id":"cebpf4jnsgd1na2vs0mg"},{"bike_id":"b306c302-7cc6-44a4-8f2e-80622636ed08","system_id":"levelo_inurba_marseille","lat":43.29736,"lon":5.37697,"is_reserved":false,"is_disabled":false,"rental_uris":{"android":"levelo://app?vid=b306c302-7cc6-44a4-8f2e-80622636ed08","ios":"levelo://app?vid=b306c302-7cc6-44a4-8f2e-80622636ed08"},"vehicle_type_id":"4","last_reported":1768929605,"current_range_meters":8000,"station_id":"ce4bgkh2rcd13ifvqbl0","pricing_plan_id":"cebpf4jnsgd1na2vs0mg"},{"bike_id":"e775e37a-88b9-408c-8364-888bc63e91d3","system_id":"levelo_inurba_marseille","lat":43.2442,"lon":5.37095,"is_reserved":false,"is_disabled":false,"rental_uris":{"android":"levelo://app?vid=e775e37a-88b9-408c-8364-888bc63e91d3","ios":"levelo://app?vid=e775e37a-88b9-408c-8364-888bc63e91d3"},"vehicle_type_id":"4","last_reported":1768929605,"current_range_meters":8000,"station_id":"ce4bhhh2rcd13ifvqfk0","pricing_plan_id":"cebpf4jnsgd1na2vs0mg"},{"bike_id":"fbc33a72-4745-4524-a282-41ff07403603","system_id":"levelo_inurba_marseille","lat":43.2534,"lon":5.42172,"is_reserved":false,"is_disabled":false,"rental_uris":{"android":"levelo://app?vid=fbc33a72-4745-4524-a282-41ff07403603","ios":"levelo://app?vid=fbc33a72-4745-4524-a282-41ff07403603"},"vehicle_type_id":"4","last_reported":1768929605,"current_range_meters":8000,"station_id":"st_d2m65c5bi1j21697t3ng","pricing_plan_id":"cebpf4jnsgd1na2vs0mg"},{"bike_id":"9dff9bae-d519-49ab-850f-a6b93762d1fc","system_id":"levelo_inurba_marseille","lat":43.253334,"lon":5.421623,"is_reserved":false,"is_disabled":false,"rental_uris":{"android":"levelo://app?vid=9dff9bae-d519-49ab-850f-a6b93762d1fc","ios":"levelo://app?vid=9dff9bae-d519-49ab-850f-a6b93762d1fc"},"vehicle_type_id":"4","last_reported":1768929605,"current_range_meters":8000,"station_id":"st_d2m65c5bi1j21697t3ng","pricing_plan_id":"cebpf4jnsgd1na2vs0mg"},{"bike_id":"207d88dd-0727-4f72-87b4-5a385833ae04","system_id":"levelo_inurba_marseille","lat":43.29263,"lon":5.40898,"is_reserved":false,"is_disabled":false,"rental_uris":{"android":"levelo://app?vid=207d88dd-0727-4f72-87b4-5a385833ae04","ios":"levelo://app?vid=207d88dd-0727-4f72-87b4-5a385833ae04"},"vehicle_type_id":"4","last_reported":1768929605,"current_range_meters":8400,"station_id":"ce4bh192rcd13ifvqdc0","pricing_plan_id":"cebpf4jnsgd1na2vs0mg"},{"bike_id":"a347af28-da2b-4eb3-ba68-46d7fd30594b","system_id":"levelo_inurba_marseille","lat":43.26459,"lon":5.39797,"is_reserved":false,"is_disabled":false,"rental_uris":{"android":"levelo://app?vid=a347af28-da2b-4eb3-ba68-46d7fd30594b","ios":"levelo://app?vid=a347af28-da2b-4eb3-ba68-46d7fd30594b"},"vehicle_type_id":"4","last_reported":1768929605,"current_range_meters":8400,"station_id":"","pricing_plan_id":"cebpf4jnsgd1na2vs0mg"},{"bike_id":"04d1fa74-7078-4e54-86c0-c9d3f7b08c45","system_id":"levelo_inurba_marseille","lat":43.255799,"lon":5.382227,"is_reserved":false,"is_disabled":false,"rental_uris":{"android":"levelo://app?vid=04d1fa74-7078-4e54-86c0-c9d3f7b08c45","ios":"levelo://app?vid=04d1fa74-7078-4e54-86c0-c9d3f7b08c45"},"vehicle_type_id":"4","last_reported":1768929605,"current_range_meters":8400,"station_id":"ce4bhih2rcd13ifvqfs0","pricing_plan_id":"cebpf4jnsgd1na2vs0mg"},{"bike_id":"8be23c8f-0ff3-47cf-81b2-0793bab5bb1f","system_id":"levelo_inurba_marseille","lat":43.24162,"lon":5.39702,"is_reserved":false,"is_disabled":false,"rental_uris":{"android":"levelo://app?vid=8be23c8f-0ff3-47cf-81b2-0793bab5bb1f","ios":"levelo://app?vid=8be23c8f-0ff3-47cf-81b2-0793bab5bb1f"},"vehicle_type_id":"4","last_reported":1768929605,"current_range_meters":8400,"station_id":"ce4bhn12rcd13ifvqgpg","pricing_plan_id":"cebpf4jnsgd1na2vs0mg"},{"bike_id":"9a2ad800-0a03-43fa-8c40-1fdb282b6422","system_id":"levelo_inurba_marseille","lat":43.32476,"lon":5.36553,"is_reserved":false,"is_disabled":false,"rental_uris":{"android":"levelo://app?vid=9a2ad800-0a03-43fa-8c40-1fdb282b6422","ios":"levelo://app?vid=9a2ad800-0a03-43fa-8c40-1fdb282b6422"},"vehicle_type_id":"4","last_reported":1768929605,"current_range_meters":8400,"station_id":"ce4bhs12rcd13ifvqhvg","pricing_plan_id":"cebpf4jnsgd1na2vs0mg"},{"bike_id":"03c8b8f6-26d6-43f0-b06e-1c354011d6d4","system_id":"levelo_inurba_marseille","lat":43.30522,"lon":5.36538,"is_reserved":false,"is_disabled":false,"rental_uris":{"android":"levelo://app?vid=03c8b8f6-26d6-43f0-b06e-1c354011d6d4","ios":"levelo://app?vid=03c8b8f6-26d6-43f0-b06e-1c354011d6d4"},"vehicle_type_id":"4","last_reported":1768929605,"current_range_meters":8400,"station_id":"ce4bgs12rcd13ifvqcag","pricing_plan_id":"cebpf4jnsgd1na2vs0mg"},{"bike_id":"b3b51a6b-2421-4b77-9215-4368c6501a43","system_id":"levelo_inurba_marseille","lat":43.29932,"lon":5.36529,"is_reserved":false,"is_disabled":false,"rental_uris":{"android":"levelo://app?vid=b3b51a6b-2421-4b77-9215-4368c6501a43","ios":"levelo://app?vid=b3b51a6b-2421-4b77-9215-4368c6501a43"},"vehicle_type_id":"4","last_reported":1768929605,"current_range_meters":8400,"station_id":"ce4bgm92rcd13ifvqbr0","pricing_plan_id":"cebpf4jnsgd1na2vs0mg"},{"bike_id":"aabcc47c-cca3-4623-8d42-d57447ae9016","system_id":"levelo_inurba_marseille","lat":43.2957,"lon":5.37517,"is_reserved":false,"is_disabled":false,"rental_uris":{"android":"levelo://app?vid=aabcc47c-cca3-4623-8d42-d57447ae9016","ios":"levelo://app?vid=aabcc47c-cca3-4623-8d42-d57447ae9016"},"vehicle_type_id":"4","last_reported":1768929605,"current_range_meters":8400,"station_id":"ce4bgh92rcd13ifvqb50","pricing_plan_id":"cebpf4jnsgd1na2vs0mg"},{"bike_id":"6ed8c7ae-caef-4abd-a9d4-aaf7d0882a8a","system_id":"levelo_inurba_marseille","lat":43.29641,"lon":5.37697,"is_reserved":false,"is_disabled":true,"rental_uris":{"android":"levelo://app?vid=6ed8c7ae-caef-4abd-a9d4-aaf7d0882a8a","ios":"levelo://app?vid=6ed8c7ae-caef-4abd-a9d4-aaf7d0882a8a"},"vehicle_type_id":"4","last_reported":1768929605,"current_range_meters":8400,"station_id":"ce4bgi92rcd13ifvqb90","pricing_plan_id":"cebpf4jnsgd1na2vs0mg"},{"bike_id":"ba1a4609-795c-4220-8926-bfdd65f5d3a2","system_id":"levelo_inurba_marseille","lat":43.26544,"lon":5.37287,"is_reserved":false,"is_disabled":false,"rental_uris":{"android":"levelo://app?vid=ba1a4609-795c-4220-8926-bfdd65f5d3a2","ios":"levelo://app?vid=ba1a4609-795c-4220-8926-bfdd65f5d3a2"},"vehicle_type_id":"4","last_reported":1768929605,"current_range_meters":8400,"station_id":"ce4bhg12rcd13ifvqf70","pricing_plan_id":"cebpf4jnsgd1na2vs0mg"},{"bike_id":"73e66c8f-f538-45fc-aa6f-7c9a567c6d98","system_id":"levelo_inurba_marseille","lat":43.27688,"lon":5.38864,"is_reserved":false,"is_disabled":false,"rental_uris":{"android":"levelo://app?vid=73e66c8f-f538-45fc-aa6f-7c9a567c6d98","ios":"levelo://app?vid=73e66c8f-f538-45fc-aa6f-7c9a567c6d98"},"vehicle_type_id":"4","last_reported":1768929605,"current_range_meters":8400,"station_id":"ce4bhi12rcd13ifvqfo0","pricing_plan_id":"cebpf4jnsgd1na2vs0mg"},{"bike_id":"37210c50-6b36-4c3e-b1a4-b377f900c7da","system_id":"levelo_inurba_marseille","lat":43.297,"lon":5.37653,"is_reserved":false,"is_disabled":false,"rental_uris":{"android":"levelo://app?vid=37210c50-6b36-4c3e-b1a4-b377f900c7da","ios":"levelo://app?vid=37210c50-6b36-4c3e-b1a4-b377f900c7da"},"vehicle_type_id":"4","last_reported":1768929605,"current_range_meters":8400,"station_id":"ce4bgkh2rcd13ifvqbl0","pricing_plan_id":"cebpf4jnsgd1na2vs0mg"},{"bike_id":"2cf1ea64-26bb-4964-939a-03465aee6659","system_id":"levelo_inurba_marseille","lat":43.22559,"lon":5.41626,"is_reserved":false,"is_disabled":false,"rental_uris":{"android":"levelo://app?vid=2cf1ea64-26bb-4964-939a-03465aee6659","ios":"levelo://app?vid=2cf1ea64-26bb-4964-939a-03465aee6659"},"vehicle_type_id":"4","last_reported":1768929605,"current_range_meters":8400,"station_id":"st_d2o4gvlbi1j2169b742g","pricing_plan_id":"cebpf4jnsgd1na2vs0mg"},{"bike_id":"7f33cc79-edc7-45c2-a677-8360f0eb6d72","system_id":"levelo_inurba_marseille","lat":43.3235,"lon":5.36734,"is_reserved":false,"is_disabled":false,"rental_uris":{"android":"levelo://app?vid=7f33cc79-edc7-45c2-a677-8360f0eb6d72","ios":"levelo://app?vid=7f33cc79-edc7-45c2-a677-8360f0eb6d72"},"vehicle_type_id":"4","last_reported":1768929605,"current_range_meters":8400,"station_id":"ce4bhsh2rcd13ifvqi2g","pricing_plan_id":"cebpf4jnsgd1na2vs0mg"},{"bike_id":"a566653a-1966-48ba-9491-28fc928789a5","system_id":"levelo_inurba_marseille","lat":43.278367,"lon":5.392059,"is_reserved":false,"is_disabled":false,"rental_uris":{"android":"levelo://app?vid=a566653a-1966-48ba-9491-28fc928789a5","ios":"levelo://app?vid=a566653a-1966-48ba-9491-28fc928789a5"},"vehicle_type_id":"4","last_reported":1768929605,"current_range_meters":8400,"station_id":"ce4bhjp2rcd13ifvqga0","pricing_plan_id":"cebpf4jnsgd1na2vs0mg"},{"bike_id":"438a21c9-90d2-421d-b1b4-ce12dbc788d4","system_id":"levelo_inurba_marseille","lat":43.26206,"lon":5.37452,"is_reserved":false,"is_disabled":false,"rental_uris":{"android":"levelo://app?vid=438a21c9-90d2-421d-b1b4-ce12dbc788d4","ios":"levelo://app?vid=438a21c9-90d2-421d-b1b4-ce12dbc788d4"},"vehicle_type_id":"4","last_reported":1768929605,"current_range_meters":8400,"station_id":"ce4bhgp2rcd13ifvqfc0","pricing_plan_id":"cebpf4jnsgd1na2vs0mg"},{"bike_id":"4b016080-89c7-439a-a27d-d6c1b5759c1b","system_id":"levelo_inurba_marseille","lat":43.297974,"lon":5.380856,"is_reserved":false,"is_disabled":false,"rental_uris":{"android":"levelo://app?vid=4b016080-89c7-439a-a27d-d6c1b5759c1b","ios":"levelo://app?vid=4b016080-89c7-439a-a27d-d6c1b5759c1b"},"vehicle_type_id":"4","last_reported":1768929605,"current_range_meters":8400,"station_id":"ce4bgip2rcd13ifvqbb0","pricing_plan_id":"cebpf4jnsgd1na2vs0mg"},{"bike_id":"7f57e4b7-adcc-40f6-a2f9-1294ef7abba0","system_id":"levelo_inurba_marseille","lat":43.30911,"lon":5.36857,"is_reserved":false,"is_disabled":false,"rental_uris":{"android":"levelo://app?vid=7f57e4b7-adcc-40f6-a2f9-1294ef7abba0","ios":"levelo://app?vid=7f57e4b7-adcc-40f6-a2f9-1294ef7abba0"},"vehicle_type_id":"4","last_reported":1768929605,"current_range_meters":8800,"station_id":"ce4bgn92rcd13ifvqbvg","pricing_plan_id":"cebpf4jnsgd1na2vs0mg"},{"bike_id":"993f1288-6929-4206-b35f-06e772769526","system_id":"levelo_inurba_marseille","lat":43.30739,"lon":5.42444,"is_reserved":false,"is_disabled":false,"rental_uris":{"android":"levelo://app?vid=993f1288-6929-4206-b35f-06e772769526","ios":"levelo://app?vid=993f1288-6929-4206-b35f-06e772769526"},"vehicle_type_id":"4","last_reported":1768929605,"current_range_meters":8800,"station_id":"st_cvj6ca6bvosntc0bfgr0","pricing_plan_id":"cebpf4jnsgd1na2vs0mg"},{"bike_id":"734e4b7d-dacb-4443-969d-46b3d8901719","system_id":"levelo_inurba_marseille","lat":43.26581,"lon":5.37329,"is_reserved":false,"is_disabled":false,"rental_uris":{"android":"levelo://app?vid=734e4b7d-dacb-4443-969d-46b3d8901719","ios":"levelo://app?vid=734e4b7d-dacb-4443-969d-46b3d8901719"},"vehicle_type_id":"4","last_reported":1768929605,"current_range_meters":8800,"station_id":"ce4bhg12rcd13ifvqf70","pricing_plan_id":"cebpf4jnsgd1na2vs0mg"},{"bike_id":"c45cb3b4-886c-4993-a251-e9429280306e","system_id":"levelo_inurba_marseille","lat":43.26567,"lon":5.39021,"is_reserved":false,"is_disabled":false,"rental_uris":{"android":"levelo://app?vid=c45cb3b4-886c-4993-a251-e9429280306e","ios":"levelo://app?vid=c45cb3b4-886c-4993-a251-e9429280306e"},"vehicle_type_id":"4","last_reported":1768929605,"current_range_meters":8800,"station_id":"ce4bhe12rcd13ifvqf30","pricing_plan_id":"cebpf4jnsgd1na2vs0mg"},{"bike_id":"57b50878-6c0b-4d1e-930a-36f0b6a5b0d1","system_id":"levelo_inurba_marseille","lat":43.26069,"lon":5.39409,"is_reserved":false,"is_disabled":false,"rental_uris":{"android":"levelo://app?vid=57b50878-6c0b-4d1e-930a-36f0b6a5b0d1","ios":"levelo://app?vid=57b50878-6c0b-4d1e-930a-36f0b6a5b0d1"},"vehicle_type_id":"4","last_reported":1768929605,"current_range_meters":8800,"station_id":"ce4bhh92rcd13ifvqfj0","pricing_plan_id":"cebpf4jnsgd1na2vs0mg"},{"bike_id":"fe4b8d92-6b74-4f7f-be90-48717fca1ec3","system_id":"levelo_inurba_marseille","lat":43.307292,"lon":5.424482,"is_reserved":false,"is_disabled":false,"rental_uris":{"android":"levelo://app?vid=fe4b8d92-6b74-4f7f-be90-48717fca1ec3","ios":"levelo://app?vid=fe4b8d92-6b74-4f7f-be90-48717fca1ec3"},"vehicle_type_id":"4","last_reported":1768929605,"current_range_meters":8800,"station_id":"st_cvj6ca6bvosntc0bfgr0","pricing_plan_id":"cebpf4jnsgd1na2vs0mg"},{"bike_id":"c8b36723-7039-4b4e-b709-3c4707457d93","system_id":"levelo_inurba_marseille","lat":43.23968,"lon":5.3662,"is_reserved":false,"is_disabled":false,"rental_uris":{"android":"levelo://app?vid=c8b36723-7039-4b4e-b709-3c4707457d93","ios":"levelo://app?vid=c8b36723-7039-4b4e-b709-3c4707457d93"},"vehicle_type_id":"4","last_reported":1768929605,"current_range_meters":8800,"station_id":"ce4bhi12rcd13ifvqfp0","pricing_plan_id":"cebpf4jnsgd1na2vs0mg"},{"bike_id":"333ea429-f6d2-47c2-bdb4-9f58f03e1972","system_id":"levelo_inurba_marseille","lat":43.30767,"lon":5.38169,"is_reserved":false,"is_disabled":false,"rental_uris":{"android":"levelo://app?vid=333ea429-f6d2-47c2-bdb4-9f58f03e1972","ios":"levelo://app?vid=333ea429-f6d2-47c2-bdb4-9f58f03e1972"},"vehicle_type_id":"4","last_reported":1768929605,"current_range_meters":8800,"station_id":"ce4bgt12rcd13ifvqce0","pricing_plan_id":"cebpf4jnsgd1na2vs0mg"},{"bike_id":"c648ce05-faa1-4b25-b283-bb371b3c83ac","system_id":"levelo_inurba_marseille","lat":43.28906,"lon":5.38235,"is_reserved":false,"is_disabled":false,"rental_uris":{"android":"levelo://app?vid=c648ce05-faa1-4b25-b283-bb371b3c83ac","ios":"levelo://app?vid=c648ce05-faa1-4b25-b283-bb371b3c83ac"},"vehicle_type_id":"4","last_reported":1768929605,"current_range_meters":8800,"station_id":"","pricing_plan_id":"cebpf4jnsgd1na2vs0mg"},{"bike_id":"48e00f2f-328e-4c20-be72-9d75804997b3","system_id":"levelo_inurba_marseille","lat":43.297252,"lon":5.376952,"is_reserved":false,"is_disabled":false,"rental_uris":{"android":"levelo://app?vid=48e00f2f-328e-4c20-be72-9d75804997b3","ios":"levelo://app?vid=48e00f2f-328e-4c20-be72-9d75804997b3"},"vehicle_type_id":"4","last_reported":1768929605,"current_range_meters":8800,"station_id":"ce4bgkh2rcd13ifvqbl0","pricing_plan_id":"cebpf4jnsgd1na2vs0mg"},{"bike_id":"17504108-cc8f-492b-826e-be9781115c71","system_id":"levelo_inurba_marseille","lat":43.28699,"lon":5.37516,"is_reserved":false,"is_disabled":false,"rental_uris":{"android":"levelo://app?vid=17504108-cc8f-492b-826e-be9781115c71","ios":"levelo://app?vid=17504108-cc8f-492b-826e-be9781115c71"},"vehicle_type_id":"4","last_reported":1768929605,"current_range_meters":8800,"station_id":"","pricing_plan_id":"cebpf4jnsgd1na2vs0mg"},{"bike_id":"dc99e887-99d3-438b-b7ee-d27d4781096e","system_id":"levelo_inurba_marseille","lat":43.301249,"lon":5.431137,"is_reserved":false,"is_disabled":false,"rental_uris":{"android":"levelo://app?vid=dc99e887-99d3-438b-b7ee-d27d4781096e","ios":"levelo://app?vid=dc99e887-99d3-438b-b7ee-d27d4781096e"},"vehicle_type_id":"4","last_reported":1768929605,"current_range_meters":8800,"station_id":"st_d3js3co5814s73ftftug","pricing_plan_id":"cebpf4jnsgd1na2vs0mg"},{"bike_id":"694e220f-e88b-4d87-90eb-4eb455e54716","system_id":"levelo_inurba_marseille","lat":43.24649,"lon":5.38892,"is_reserved":false,"is_disabled":false,"rental_uris":{"android":"levelo://app?vid=694e220f-e88b-4d87-90eb-4eb455e54716","ios":"levelo://app?vid=694e220f-e88b-4d87-90eb-4eb455e54716"},"vehicle_type_id":"4","last_reported":1768929605,"current_range_meters":8800,"station_id":"ce4bhg12rcd13ifvqf60","pricing_plan_id":"cebpf4jnsgd1na2vs0mg"},{"bike_id":"995b32fb-662c-4206-b8f0-4a2806e6f249","system_id":"levelo_inurba_marseille","lat":43.29631,"lon":5.37723,"is_reserved":false,"is_disabled":false,"rental_uris":{"android":"levelo://app?vid=995b32fb-662c-4206-b8f0-4a2806e6f249","ios":"levelo://app?vid=995b32fb-662c-4206-b8f0-4a2806e6f249"},"vehicle_type_id":"4","last_reported":1768929605,"current_range_meters":8800,"station_id":"ce4bgi92rcd13ifvqb90","pricing_plan_id":"cebpf4jnsgd1na2vs0mg"},{"bike_id":"5dbfcf3f-7cec-4c29-8168-14f9c37f7762","system_id":"levelo_inurba_marseille","lat":43.22561,"lon":5.41641,"is_reserved":false,"is_disabled":false,"rental_uris":{"android":"levelo://app?vid=5dbfcf3f-7cec-4c29-8168-14f9c37f7762","ios":"levelo://app?vid=5dbfcf3f-7cec-4c29-8168-14f9c37f7762"},"vehicle_type_id":"4","last_reported":1768929605,"current_range_meters":8800,"station_id":"st_d2o4gvlbi1j2169b742g","pricing_plan_id":"cebpf4jnsgd1na2vs0mg"},{"bike_id":"3b354a2e-ec16-4128-9f6e-f06cb1073091","system_id":"levelo_inurba_marseille","lat":43.24471,"lon":5.42536,"is_reserved":false,"is_disabled":false,"rental_uris":{"android":"levelo://app?vid=3b354a2e-ec16-4128-9f6e-f06cb1073091","ios":"levelo://app?vid=3b354a2e-ec16-4128-9f6e-f06cb1073091"},"vehicle_type_id":"4","last_reported":1768929605,"current_range_meters":8800,"station_id":"st_d4a3vfp97mjs738cd8kg","pricing_plan_id":"cebpf4jnsgd1na2vs0mg"},{"bike_id":"8155f86b-6d64-4287-9ed7-7fbe9d103dde","system_id":"levelo_inurba_marseille","lat":43.2257,"lon":5.41634,"is_reserved":false,"is_disabled":false,"rental_uris":{"android":"levelo://app?vid=8155f86b-6d64-4287-9ed7-7fbe9d103dde","ios":"levelo://app?vid=8155f86b-6d64-4287-9ed7-7fbe9d103dde"},"vehicle_type_id":"4","last_reported":1768929605,"current_range_meters":8800,"station_id":"st_d2o4gvlbi1j2169b742g","pricing_plan_id":"cebpf4jnsgd1na2vs0mg"},{"bike_id":"48927f83-025e-4686-b370-8af05d7d4feb","system_id":"levelo_inurba_marseille","lat":43.29973,"lon":5.384903,"is_reserved":false,"is_disabled":false,"rental_uris":{"android":"levelo://app?vid=48927f83-025e-4686-b370-8af05d7d4feb","ios":"levelo://app?vid=48927f83-025e-4686-b370-8af05d7d4feb"},"vehicle_type_id":"4","last_reported":1768929605,"current_range_meters":9200,"station_id":"ce4bgj92rcd13ifvqbd0","pricing_plan_id":"cebpf4jnsgd1na2vs0mg"},{"bike_id":"67ff9a75-4fe8-45e7-914d-fc416a457597","system_id":"levelo_inurba_marseille","lat":43.32117,"lon":5.368,"is_reserved":false,"is_disabled":false,"rental_uris":{"android":"levelo://app?vid=67ff9a75-4fe8-45e7-914d-fc416a457597","ios":"levelo://app?vid=67ff9a75-4fe8-45e7-914d-fc416a457597"},"vehicle_type_id":"4","last_reported":1768929605,"current_range_meters":9200,"station_id":"ce4bhrh2rcd13ifvqhug","pricing_plan_id":"cebpf4jnsgd1na2vs0mg"},{"bike_id":"99d65f09-c0e6-4f0f-b72f-6e110c0f1bd4","system_id":"levelo_inurba_marseille","lat":43.29012,"lon":5.37606,"is_reserved":false,"is_disabled":false,"rental_uris":{"android":"levelo://app?vid=99d65f09-c0e6-4f0f-b72f-6e110c0f1bd4","ios":"levelo://app?vid=99d65f09-c0e6-4f0f-b72f-6e110c0f1bd4"},"vehicle_type_id":"4","last_reported":1768929605,"current_range_meters":9200,"station_id":"ce4bh692rcd13ifvqe90","pricing_plan_id":"cebpf4jnsgd1na2vs0mg"},{"bike_id":"9fe9b7fa-bf5e-456b-b148-d56a572e2392","system_id":"levelo_inurba_marseille","lat":43.22566,"lon":5.41635,"is_reserved":false,"is_disabled":false,"rental_uris":{"android":"levelo://app?vid=9fe9b7fa-bf5e-456b-b148-d56a572e2392","ios":"levelo://app?vid=9fe9b7fa-bf5e-456b-b148-d56a572e2392"},"vehicle_type_id":"4","last_reported":1768929605,"current_range_meters":9200,"station_id":"st_d2o4gvlbi1j2169b742g","pricing_plan_id":"cebpf4jnsgd1na2vs0mg"},{"bike_id":"56496f15-285b-4dff-92b3-54ffdff3e399","system_id":"levelo_inurba_marseille","lat":43.26836,"lon":5.39652,"is_reserved":false,"is_disabled":false,"rental_uris":{"android":"levelo://app?vid=56496f15-285b-4dff-92b3-54ffdff3e399","ios":"levelo://app?vid=56496f15-285b-4dff-92b3-54ffdff3e399"},"vehicle_type_id":"4","last_reported":1768929605,"current_range_meters":9200,"station_id":"","pricing_plan_id":"cebpf4jnsgd1na2vs0mg"},{"bike_id":"4eba8ab0-a760-4c8f-be2e-adcd88a4d0b1","system_id":"levelo_inurba_marseille","lat":43.26489,"lon":5.39518,"is_reserved":false,"is_disabled":false,"rental_uris":{"android":"levelo://app?vid=4eba8ab0-a760-4c8f-be2e-adcd88a4d0b1","ios":"levelo://app?vid=4eba8ab0-a760-4c8f-be2e-adcd88a4d0b1"},