{"last_updated":1725901673,"ttl":30,"version":"2.2","data":{"bikes":[{"bike_id":"35d9168f-8b8e-4af6-8e92-3a5d183fc85e","system_id":"levelo_inurba_marseille","lat":43.312239,"lon":5.368562,"is_reserved":false,"is_disabled":false,"rental_uris":{"android":"levelo://app?vid=35d9168f-8b8e-4af6-8e92-3a5d183fc85e","ios":"levelo://app?vid=35d9168f-8b8e-4af6-8e92-3a5d183fc85e"},"vehicle_type_id":"4","last_reported":1725901673,"current_range_meters":0,"station_id":"ce4bgl92rcd13ifvqbq0","pricing_plan_id":"cebpf4jnsgd1na2vs0mg"},{"bike_id":"a86898d0-c933-4951-9ddf-af171ec9191d","system_id":"levelo_inurba_marseille","lat":43.30903,"lon":5.36848,"is_reserved":false,"is_disabled":false,"rental_uris":{"android":"levelo://app?vid=a86898d0-c933-4951-9ddf-af171ec9191d","ios":"levelo://app?vid=a86898d0-c933-4951-9ddf-af171ec9191d"},"vehicle_type_id":"4","last_reported":1725901673,"current_range_meters":0,"station_id":"ce4bgn92rcd13ifvqbvg","pricing_plan_id":"cebpf4jnsgd1na2vs0mg"},{"bike_id":"fdf4664e-eeff-4102-b549-c0b6b9e6e2fa","system_id":"levelo_inurba_marseille","lat":43.315,"lon":5.37302,"is_reserved":false,"is_disabled":false,"rental_uris":{"android":"levelo://app?vid=fdf4664e-eeff-4102-b549-c0b6b9e6e2fa","ios":"levelo://app?vid=fdf4664e-eeff-4102-b549-c0b6b9e6e2fa"},"vehicle_type_id":"4","last_reported":1725901673,"current_range_meters":0,"station_id":"ce4bgt12rcd13ifvqcd0","pricing_plan_id":"cebpf4jnsgd1na2vs0mg"},{"bike_id":"c1aa5f63-c01e-4ee4-b512-71326ed1aee7","system_id":"levelo_inurba_marseille","lat":43.314811,"lon":5.373103,"is_reserved":false,"is_disabled":false,"rental_uris":{"android":"levelo://app?vid=c1aa5f63-c01e-4ee4-b512-71326ed1aee7","ios":"levelo://app?vid=c1aa5f63-c01e-4ee4-b512-71326ed1aee7"},"vehicle_type_id":"4","last_reported":1725901673,"current_range_meters":5200,"station_id":"ce4bgt12rcd13ifvqcd0","pricing_plan_id":"cebpf4jnsgd1na2vs0mg"},{"bike_id":"ce19edd5-a730-430d-9852-484dec2947ff","system_id":"levelo_inurba_marseille","lat":43.314811,"lon":5.373104,"is_reserved":false,"is_disabled":false,"rental_uris":{"android":"levelo://app?vid=ce19edd5-a730-430d-9852-484dec2947ff","ios":"levelo://app?vid=ce19edd5-a730-430d-9852-484dec2947ff"},"vehicle_type_id":"4","last_reported":1725901673,"current_range_meters":0,"station_id":"ce4bgt12rcd13ifvqcd0","pricing_plan_id":"cebpf4jnsgd1na2vs0mg"},{"bike_id":"f63ae704-fe9c-4b83-a6e3-fc7aab669391","system_id":"levelo_inurba_marseille","lat":43.305989,"lon":5.37225,"is_reserved":false,"is_disabled":false,"rental_uris":{"android":"levelo://app?vid=f63ae704-fe9c-4b83-a6e3-fc7aab669391","ios":"levelo://app?vid=f63ae704-fe9c-4b83-a6e3-fc7aab669391"},"vehicle_type_id":"4","last_reported":1725901673,"current_range_meters":0,"station_id":"ce4bgqh2rcd13ifvqc4g","pricing_plan_id":"cebpf4jnsgd1na2vs0mg"},{"bike_id":"e60f8e02-d628-4b0e-8c04-f7643c061c95","system_id":"levelo_inurba_marseille","lat":43.305989,"lon":5.37225,"is_reserved":false,"is_disabled":false,"rental_uris":{"android":"levelo://app?vid=e60f8e02-d628-4b0e-8c04-f7643c061c95","ios":"levelo://app?vid=e60f8e02-d628-4b0e-8c04-f7643c061c95"},"vehicle_type_id":"4","last_reported":1725901673,"current_range_meters":24800,"station_id":"ce4bgqh2rcd13ifvqc4g","pricing_plan_id":"cebpf4jnsgd1na2vs0mg"},{"bike_id":"0bdc36da-7a04-4229-9557-afbf08e10168","system_id":"levelo_inurba_marseille","lat":43.305989,"lon":5.37225,"is_reserved":false,"is_disabled":false,"rental_uris":{"android":"levelo://app?vid=0bdc36da-7a04-4229-9557-afbf08e10168","ios":"levelo://app?vid=0bdc36da-7a04-4229-9557-afbf08e10168"},"vehicle_type_id":"4","last_reported":1725901673,"current_range_meters":1600,"station_id":"ce4bgqh2rcd13ifvqc4g","pricing_plan_id":"cebpf4jnsgd1na2vs0mg"},{"bike_id":"c6463d16-c769-4e98-a075-def95aa6849a","system_id":"levelo_inurba_marseille","lat":43.311125,"lon":5.377624,"is_reserved":false,"is_disabled":false,"rental_uris":{"android":"levelo://app?vid=c6463d16-c769-4e98-a075-def95aa6849a","ios":"levelo://app?vid=c6463d16-c769-4e98-a075-def95aa6849a"},"vehicle_type_id":"4","last_reported":1725901673,"current_range_meters":25600,"station_id":"ce4bgt92rcd13ifvqcg0","pricing_plan_id":"cebpf4jnsgd1na2vs0mg"},{"bike_id":"9496c518-02ab-4b27-8c05-99c5531e08cb","system_id":"levelo_inurba_marseille","lat":43.311125,"lon":5.377624,"is_reserved":false,"is_disabled":false,"rental_uris":{"android":"levelo://app?vid=9496c518-02ab-4b27-8c05-99c5531e08cb","ios":"levelo://app?vid=9496c518-02ab-4b27-8c05-99c5531e08cb"},"vehicle_type_id":"4","last_reported":1725901673,"current_range_meters":16400,"station_id":"ce4bgt92rcd13ifvqcg0","pricing_plan_id":"cebpf4jnsgd1na2vs0mg"},{"bike_id":"73d13a1d-9a0f-4a24-b34a-330213a73115","system_id":"levelo_inurba_marseille","lat":43.31114,"lon":5.3778,"is_reserved":false,"is_disabled":false,"rental_uris":{"android":"levelo://app?vid=73d13a1d-9a0f-4a24-b34a-330213a73115","ios":"levelo://app?vid=73d13a1d-9a0f-4a24-b34a-330213a73115"},"vehicle_type_id":"4","last_reported":1725901673,"current_range_meters":0,"station_id":"ce4bgt92rcd13ifvqcg0","pricing_plan_id":"cebpf4jnsgd1na2vs0mg"},{"bike_id":"86c5b5cd-3f3b-4d0d-8a11-20ab17328492","system_id":"levelo_inurba_marseille","lat":43.32138,"lon":5.36742,"is_reserved":false,"is_disabled":false,"rental_uris":{"android":"levelo://app?vid=86c5b5cd-3f3b-4d0d-8a11-20ab17328492","ios":"levelo://app?vid=86c5b5cd-3f3b-4d0d-8a11-20ab17328492"},"vehicle_type_id":"4","last_reported":1725901673,"current_range_meters":400,"station_id":"","pricing_plan_id":"cebpf4jnsgd1na2vs0mg"},{"bike_id":"24747ee9-22d4-4d57-b39e-981eddecef30","system_id":"levelo_inurba_marseille","lat":43.30317,"lon":5.36913,"is_reserved":false,"is_disabled":false,"rental_uris":{"android":"levelo://app?vid=24747ee9-22d4-4d57-b39e-981eddecef30","ios":"levelo://app?vid=24747ee9-22d4-4d57-b39e-981eddecef30"},"vehicle_type_id":"4","last_reported":1725901673,"current_range_meters":0,"station_id":"ce4bgqh2rcd13ifvqc5g","pricing_plan_id":"cebpf4jnsgd1na2vs0mg"},{"bike_id":"d0b286be-f6f1-4497-a8e6-e562d9eea5e5","system_id":"levelo_inurba_marseille","lat":43.315289,"lon":5.380349,"is_reserved":false,"is_disabled":false,"rental_uris":{"android":"levelo://app?vid=d0b286be-f6f1-4497-a8e6-e562d9eea5e5","ios":"levelo://app?vid=d0b286be-f6f1-4497-a8e6-e562d9eea5e5"},"vehicle_type_id":"4","last_reported":1725901673,"current_range_meters":25600,"station_id":"ce4bhsp2rcd13ifvqi50","pricing_plan_id":"cebpf4jnsgd1na2vs0mg"},{"bike_id":"67b9ce41-3300-4131-ba7f-6d555c9a790f","system_id":"levelo_inurba_marseille","lat":43.269319,"lon":5.389397,"is_reserved":false,"is_disabled":false,"rental_uris":{"android":"levelo://app?vid=67b9ce41-3300-4131-ba7f-6d555c9a790f","ios":"levelo://app?vid=67b9ce41-3300-4131-ba7f-6d555c9a790f"},"vehicle_type_id":"4","last_reported":1725901673,"current_range_meters":1200,"station_id":"ce4bhhh2rcd13ifvqfl0","pricing_plan_id":"cebpf4jnsgd1na2vs0mg"},{"bike_id":"32822bbc-54eb-46e1-9c21-b487064a0e33","system_id":"levelo_inurba_marseille","lat":43.30816,"lon":5.38153,"is_reserved":false,"is_disabled":false,"rental_uris":{"android":"levelo://app?vid=32822bbc-54eb-46e1-9c21-b487064a0e33","ios":"levelo://app?vid=32822bbc-54eb-46e1-9c21-b487064a0e33"},"vehicle_type_id":"4","last_reported":1725901673,"current_range_meters":0,"station_id":"ce4bgt12rcd13ifvqce0","pricing_plan_id":"cebpf4jnsgd1na2vs0mg"},{"bike_id":"0df32469-e289-4a89-8b08-44e9571c472d","system_id":"levelo_inurba_marseille","lat":43.30804,"lon":5.38151,"is_reserved":false,"is_disabled":false,"rental_uris":{"android":"levelo://app?vid=0df32469-e289-4a89-8b08-44e9571c472d","ios":"levelo://app?vid=0df32469-e289-4a89-8b08-44e9571c472d"},"vehicle_type_id":"4","last_reported":1725901673,"current_range_meters":28400,"station_id":"ce4bgt12rcd13ifvqce0","pricing_plan_id":"cebpf4jnsgd1na2vs0mg"},{"bike_id":"0a7e71e9-9c62-45e7-a563-21f4c392f29b","system_id":"levelo_inurba_marseille","lat":43.308012,"lon":5.381511,"is_reserved":false,"is_disabled":false,"rental_uris":{"android":"levelo://app?vid=0a7e71e9-9c62-45e7-a563-21f4c392f29b","ios":"levelo://app?vid=0a7e71e9-9c62-45e7-a563-21f4c392f29b"},"vehicle_type_id":"4","last_reported":1725901673,"current_range_meters":10000,"station_id":"ce4bgt12rcd13ifvqce0","pricing_plan_id":"cebpf4jnsgd1na2vs0mg"},{"bike_id":"6169a100-d463-404e-ae4f-5b7f51100960","system_id":"levelo_inurba_marseille","lat":43.324771,"lon":5.36557,"is_reserved":false,"is_disabled":false,"rental_uris":{"android":"levelo://app?vid=6169a100-d463-404e-ae4f-5b7f51100960","ios":"levelo://app?vid=6169a100-d463-404e-ae4f-5b7f51100960"},"vehicle_type_id":"4","last_reported":1725901673,"current_range_meters":29200,"station_id":"ce4bhs12rcd13ifvqhvg","pricing_plan_id":"cebpf4jnsgd1na2vs0mg"},{"bike_id":"9d1697e9-705d-4c51-aa71-0ed94f0d2635","system_id":"levelo_inurba_marseille","lat":43.324771,"lon":5.36557,"is_reserved":false,"is_disabled":false,"rental_uris":{"android":"levelo://app?vid=9d1697e9-705d-4c51-aa71-0ed94f0d2635","ios":"levelo://app?vid=9d1697e9-705d-4c51-aa71-0ed94f0d2635"},"vehicle_type_id":"4","last_reported":1725901673,"current_range_meters":0,"station_id":"ce4bhs12rcd13ifvqhvg","pricing_plan_id":"cebpf4jnsgd1na2vs0mg"},{"bike_id":"34c0043f-93b6-4af5-a154-e2888f48d08c","system_id":"levelo_inurba_marseille","lat":43.2936,"lon":5.37835,"is_reserved":false,"is_disabled":false,"rental_uris":{"android":"levelo://app?vid=34c0043f-93b6-4af5-a154-e2888f48d08c","ios":"levelo://app?vid=34c0043f-93b6-4af5-a154-e2888f48d08c"},"vehicle_type_id":"4","last_reported":1725901673,"current_range_meters":0,"station_id":"ce4bgjh2rcd13ifvqbf0","pricing_plan_id":"cebpf4jnsgd1na2vs0mg"},{"bike_id":"9e9e7b1b-64ff-4924-9935-53086eddaa14","system_id":"levelo_inurba_marseille","lat":43.31638,"lon":5.38336,"is_reserved":false,"is_disabled":false,"rental_uris":{"android":"levelo://app?vid=9e9e7b1b-64ff-4924-9935-53086eddaa14","ios":"levelo://app?vid=9e9e7b1b-64ff-4924-9935-53086eddaa14"},"vehicle_type_id":"4","last_reported":1725901673,"current_range_meters":30000,"station_id":"","pricing_plan_id":"cebpf4jnsgd1na2vs0mg"},{"bike_id":"2028638a-f472-4f11-b2f1-2ba9a3399d18","system_id":"levelo_inurba_marseille","lat":43.319935,"lon":5.381699,"is_reserved":false,"is_disabled":false,"rental_uris":{"android":"levelo://app?vid=2028638a-f472-4f11-b2f1-2ba9a3399d18","ios":"levelo://app?vid=2028638a-f472-4f11-b2f1-2ba9a3399d18"},"vehicle_type_id":"4","last_reported":1725901673,"current_range_meters":5600,"station_id":"ce4bhr12rcd13ifvqhpg","pricing_plan_id":"cebpf4jnsgd1na2vs0mg"},{"bike_id":"93ed4e8d-03a8-4da1-abb3-d78af1c7a2be","system_id":"levelo_inurba_marseille","lat":43.313571,"lon":5.384829,"is_reserved":false,"is_disabled":false,"rental_uris":{"android":"levelo://app?vid=93ed4e8d-03a8-4da1-abb3-d78af1c7a2be","ios":"levelo://app?vid=93ed4e8d-03a8-4da1-abb3-d78af1c7a2be"},"vehicle_type_id":"4","last_reported":1725901673,"current_range_meters":2000,"station_id":"ce4bgt92rcd13ifvqcf0","pricing_plan_id":"cebpf4jnsgd1na2vs0mg"},{"bike_id":"12843035-abea-4c00-9570-2cbc7ca6dfcb","system_id":"levelo_inurba_marseille","lat":43.299724,"lon":5.371829,"is_reserved":false,"is_disabled":false,"rental_uris":{"android":"levelo://app?vid=12843035-abea-4c00-9570-2cbc7ca6dfcb","ios":"levelo://app?vid=12843035-abea-4c00-9570-2cbc7ca6dfcb"},"vehicle_type_id":"4","last_reported":1725901673,"current_range_meters":0,"station_id":"ce4bgr92rcd13ifvqc7g","pricing_plan_id":"cebpf4jnsgd1na2vs0mg"},{"bike_id":"56e2b761-d471-4148-a7e7-bafa7910a147","system_id":"levelo_inurba_marseille","lat":43.299243,"lon":5.37481,"is_reserved":false,"is_disabled":false,"rental_uris":{"android":"levelo://app?vid=56e2b761-d471-4148-a7e7-bafa7910a147","ios":"levelo://app?vid=56e2b761-d471-4148-a7e7-bafa7910a147"},"vehicle_type_id":"4","last_reported":1725901673,"current_range_meters":12400,"station_id":"ce4bgjh2rcd13ifvqbg0","pricing_plan_id":"cebpf4jnsgd1na2vs0mg"},{"bike_id":"3a003140-51c2-49ca-83db-2a320b035b99","system_id":"levelo_inurba_marseille","lat":43.311722,"lon":5.387247,"is_reserved":false,"is_disabled":false,"rental_uris":{"android":"levelo://app?vid=3a003140-51c2-49ca-83db-2a320b035b99","ios":"levelo://app?vid=3a003140-51c2-49ca-83db-2a320b035b99"},"vehicle_type_id":"4","last_reported":1725901673,"current_range_meters":3600,"station_id":"ce4bgv12rcd13ifvqcp0","pricing_plan_id":"cebpf4jnsgd1na2vs0mg"},{"bike_id":"db3a17d1-d8fb-414e-a1c5-b3b4f4ccb84d","system_id":"levelo_inurba_marseille","lat":43.2991,"lon":5.37469,"is_reserved":false,"is_disabled":false,"rental_uris":{"android":"levelo://app?vid=db3a17d1-d8fb-414e-a1c5-b3b4f4ccb84d","ios":"levelo://app?vid=db3a17d1-d8fb-414e-a1c5-b3b4f4ccb84d"},"vehicle_type_id":"4","last_reported":1725901673,"current_range_meters":1200,"station_id":"ce4bgjh2rcd13ifvqbg0","pricing_plan_id":"cebpf4jnsgd1na2vs0mg"},{"bike_id":"efd376f5-04e2-4a7f-8de4-b57957a4dc8e","system_id":"levelo_inurba_marseille","lat":43.301473,"lon":5.380857,"is_reserved":false,"is_disabled":false,"rental_uris":{"android":"levelo://app?vid=efd376f5-04e2-4a7f-8de4-b57957a4dc8e","ios":"levelo://app?vid=efd376f5-04e2-4a7f-8de4-b57957a4dc8e"},"vehicle_type_id":"4","last_reported":1725901673,"current_range_meters":0,"station_id":"ce4bgjp2rcd13ifvqbh0","pricing_plan_id":"cebpf4jnsgd1na2vs0mg"},{"bike_id":"bc7d9694-6beb-4661-9598-ebb278f83b4b","system_id":"levelo_inurba_marseille","lat":43.32285,"lon":5.38258,"is_reserved":false,"is_disabled":false,"rental_uris":{"android":"levelo://app?vid=bc7d9694-6beb-4661-9598-ebb278f83b4b","ios":"levelo://app?vid=bc7d9694-6beb-4661-9598-ebb278f83b4b"},"vehicle_type_id":"4","last_reported":1725901673,"current_range_meters":30800,"station_id":"ce4bhr12rcd13ifvqhqg","pricing_plan_id":"cebpf4jnsgd1na2vs0mg"},{"bike_id":"cce2cbc3-b0de-444c-b3af-a67a62d9c011","system_id":"levelo_inurba_marseille","lat":43.322853,"lon":5.382577,"is_reserved":false,"is_disabled":false,"rental_uris":{"android":"levelo://app?vid=cce2cbc3-b0de-444c-b3af-a67a62d9c011","ios":"levelo://app?vid=cce2cbc3-b0de-444c-b3af-a67a62d9c011"},"vehicle_type_id":"4","last_reported":1725901673,"current_range_meters":29600,"station_id":"ce4bhr12rcd13ifvqhqg","pricing_plan_id":"cebpf4jnsgd1na2vs0mg"},{"bike_id":"784f9e60-db27-48be-a7aa-92a1c5ea5993","system_id":"levelo_inurba_marseille","lat":43.29783,"lon":5.37125,"is_reserved":false,"is_disabled":false,"rental_uris":{"android":"levelo://app?vid=784f9e60-db27-48be-a7aa-92a1c5ea5993","ios":"levelo://app?vid=784f9e60-db27-48be-a7aa-92a1c5ea5993"},"vehicle_type_id":"4","last_reported":1725901673,"current_range_meters":25200,"station_id":"ce4bgop2rcd13ifvqc1g","pricing_plan_id":"cebpf4jnsgd1na2vs0mg"},{"bike_id":"e92128e1-9c4e-4b5e-8475-f4834ef1ca90","system_id":"levelo_inurba_marseille","lat":43.322904,"lon":5.382629,"is_reserved":false,"is_disabled":false,"rental_uris":{"android":"levelo://app?vid=e92128e1-9c4e-4b5e-8475-f4834ef1ca90","ios":"levelo://app?vid=e92128e1-9c4e-4b5e-8475-f4834ef1ca90"},"vehicle_type_id":"4","last_reported":1725901673,"current_range_meters":24800,"station_id":"ce4bhr12rcd13ifvqhqg","pricing_plan_id":"cebpf4jnsgd1na2vs0mg"},{"bike_id":"3d96f58d-148a-4dae-ac34-ed96f64bee81","system_id":"levelo_inurba_marseille","lat":43.32293,"lon":5.38262,"is_reserved":false,"is_disabled":false,"rental_uris":{"android":"levelo://app?vid=3d96f58d-148a-4dae-ac34-ed96f64bee81","ios":"levelo://app?vid=3d96f58d-148a-4dae-ac34-ed96f64bee81"},"vehicle_type_id":"4","last_reported":1725901673,"current_range_meters":8000,"station_id":"ce4bhr12rcd13ifvqhqg","pricing_plan_id":"cebpf4jnsgd1na2vs0mg"},{"bike_id":"e57c6050-55dd-4a7b-a30f-05f7abef2f6b","system_id":"levelo_inurba_marseille","lat":43.322872,"lon":5.382756,"is_reserved":false,"is_disabled":false,"rental_uris":{"android":"levelo://app?vid=e57c6050-55dd-4a7b-a30f-05f7abef2f6b","ios":"levelo://app?vid=e57c6050-55dd-4a7b-a30f-05f7abef2f6b"},"vehicle_type_id":"4","last_reported":1725901673,"current_range_meters":6000,"station_id":"ce4bhr12rcd13ifvqhqg","pricing_plan_id":"cebpf4jnsgd1na2vs0mg"},{"bike_id":"8b687780-5eac-4eb7-8bb1-25dd5834fe3d","system_id":"levelo_inurba_marseille","lat":43.322872,"lon":5.382756,"is_reserved":false,"is_disabled":false,"rental_uris":{"android":"levelo://app?vid=8b687780-5eac-4eb7-8bb1-25dd5834fe3d","ios":"levelo://app?vid=8b687780-5eac-4eb7-8bb1-25dd5834fe3d"},"vehicle_type_id":"4","last_reported":1725901673,"current_range_meters":400,"station_id":"ce4bhr12rcd13ifvqhqg","pricing_plan_id":"cebpf4jnsgd1na2vs0mg"},{"bike_id":"c883b54a-09a8-4c3b-ad3f-9dbdd1429f8c","system_id":"levelo_inurba_marseille","lat":43.322872,"lon":5.382756,"is_reserved":false,"is_disabled":false,"rental_uris":{"android":"levelo://app?vid=c883b54a-09a8-4c3b-ad3f-9dbdd1429f8c","ios":"levelo://app?vid=c883b54a-09a8-4c3b-ad3f-9dbdd1429f8c"},"vehicle_type_id":"4","last_reported":1725901673,"current_range_meters":10000,"station_id":"ce4bhr12rcd13ifvqhqg","pricing_plan_id":"cebpf4jnsgd1na2vs0mg"},{"bike_id":"83a17ab0-8e75-4386-be72-e04fb515cf54","system_id":"levelo_inurba_marseille","lat":43.322872,"lon":5.382756,"is_reserved":false,"is_disabled":false,"rental_uris":{"android":"levelo://app?vid=83a17ab0-8e75-4386-be72-e04fb515cf54","ios":"levelo://app?vid=83a17ab0-8e75-4386-be72-e04fb515cf54"},"vehicle_type_id":"4","last_reported":1725901673,"current_range_meters":15600,"station_id":"ce4bhr12rcd13ifvqhqg","pricing_plan_id":"cebpf4jnsgd1na2vs0mg"},{"bike_id":"e8dbf825-2423-4190-abfa-7d8cec3f4a72","system_id":"levelo_inurba_marseille","lat":43.322872,"lon":5.382756,"is_reserved":false,"is_disabled":false,"rental_uris":{"android":"levelo://app?vid=e8dbf825-2423-4190-abfa-7d8cec3f4a72","ios":"levelo://app?vid=e8dbf825-2423-4190-abfa-7d8cec3f4a72"},"vehicle_type_id":"4","last_reported":1725901673,"current_range_meters":29200,"station_id":"ce4bhr12rcd13ifvqhqg","pricing_plan_id":"cebpf4jnsgd1na2vs0mg"},{"bike_id":"e58c3fa6-f4fa-40c5-8f12-6cc165172cc5","system_id":"levelo_inurba_marseille","lat":43.322872,"lon":5.382756,"is_reserved":false,"is_disabled":false,"rental_uris":{"android":"levelo://app?vid=e58c3fa6-f4fa-40c5-8f12-6cc165172cc5","ios":"levelo://app?vid=e58c3fa6-f4fa-40c5-8f12-6cc165172cc5"},"vehicle_type_id":"4","last_reported":1725901673,"current_range_meters":16000,"station_id":"ce4bhr12rcd13ifvqhqg","pricing_plan_id":"cebpf4jnsgd1na2vs0mg"},{"bike_id":"fedb6f27-1de1-4f22-89cc-18a3690d200b","system_id":"levelo_inurba_marseille","lat":43.322872,"lon":5.382756,"is_reserved":false,"is_disabled":false,"rental_uris":{"android":"levelo://app?vid=fedb6f27-1de1-4f22-89cc-18a3690d200b","ios":"levelo://app?vid=fedb6f27-1de1-4f22-89cc-18a3690d200b"},"vehicle_type_id":"4","last_reported":1725901673,"current_range_meters":31200,"station_id":"ce4bhr12rcd13ifvqhqg","pricing_plan_id":"cebpf4jnsgd1na2vs0mg"},{"bike_id":"bd5ae5e0-5564-4541-94fc-ca0a05fd7fbd","system_id":"levelo_inurba_marseille","lat":43.322872,"lon":5.382756,"is_reserved":false,"is_disabled":false,"rental_uris":{"android":"levelo://app?vid=bd5ae5e0-5564-4541-94fc-ca0a05fd7fbd","ios":"levelo://app?vid=bd5ae5e0-5564-4541-94fc-ca0a05fd7fbd"},"vehicle_type_id":"4","last_reported":1725901673,"current_range_meters":32000,"station_id":"ce4bhr12rcd13ifvqhqg","pricing_plan_id":"cebpf4jnsgd1na2vs0mg"},{"bike_id":"c5c92829-e90b-4b0f-9022-d6015dfd2ef3","system_id":"levelo_inurba_marseille","lat":43.322872,"lon":5.382756,"is_reserved":false,"is_disabled":false,"rental_uris":{"android":"levelo://app?vid=c5c92829-e90b-4b0f-9022-d6015dfd2ef3","ios":"levelo://app?vid=c5c92829-e90b-4b0f-9022-d6015dfd2ef3"},"vehicle_type_id":"4","last_reported":1725901673,"current_range_meters":400,"station_id":"ce4bhr12rcd13ifvqhqg","pricing_plan_id":"cebpf4jnsgd1na2vs0mg"},{"bike_id":"34813d65-4aaa-40d7-9ccb-c4aa0b5d199f","system_id":"levelo_inurba_marseille","lat":43.322872,"lon":5.382756,"is_reserved":false,"is_disabled":false,"rental_uris":{"android":"levelo://app?vid=34813d65-4aaa-40d7-9ccb-c4aa0b5d199f","ios":"levelo://app?vid=34813d65-4aaa-40d7-9ccb-c4aa0b5d199f"},"vehicle_type_id":"4","last_reported":1725901673,"current_range_meters":28400,"station_id":"ce4bhr12rcd13ifvqhqg","pricing_plan_id":"cebpf4jnsgd1na2vs0mg"},{"bike_id":"ced1c178-c7c1-426d-8b5b-3dbd0cb9db6e","system_id":"levelo_inurba_marseille","lat":43.297794,"lon":5.370888,"is_reserved":false,"is_disabled":false,"rental_uris":{"android":"levelo://app?vid=ced1c178-c7c1-426d-8b5b-3dbd0cb9db6e","ios":"levelo://app?vid=ced1c178-c7c1-426d-8b5b-3dbd0cb9db6e"},"vehicle_type_id":"4","last_reported":1725901673,"current_range_meters":800,"station_id":"ce4bgop2rcd13ifvqc1g","pricing_plan_id":"cebpf4jnsgd1na2vs0mg"},{"bike_id":"08136902-8bbb-4e7f-bd15-ce0843a5bf0d","system_id":"levelo_inurba_marseille","lat":43.297163,"lon":5.365866,"is_reserved":false,"is_disabled":false,"rental_uris":{"android":"levelo://app?vid=08136902-8bbb-4e7f-bd15-ce0843a5bf0d","ios":"levelo://app?vid=08136902-8bbb-4e7f-bd15-ce0843a5bf0d"},"vehicle_type_id":"4","last_reported":1725901673,"current_range_meters":21600,"station_id":"ce4bgn12rcd13ifvqbt0","pricing_plan_id":"cebpf4jnsgd1na2vs0mg"},{"bike_id":"bc838d5b-cd5d-4283-8a33-be5a6e4c4a56","system_id":"levelo_inurba_marseille","lat":43.2968,"lon":5.37291,"is_reserved":false,"is_disabled":false,"rental_uris":{"android":"levelo://app?vid=bc838d5b-cd5d-4283-8a33-be5a6e4c4a56","ios":"levelo://app?vid=bc838d5b-cd5d-4283-8a33-be5a6e4c4a56"},"vehicle_type_id":"4","last_reported":1725901673,"current_range_meters":30000,"station_id":"ce4bgk12rcd13ifvqbj0","pricing_plan_id":"cebpf4jnsgd1na2vs0mg"},{"bike_id":"4af3ae6f-69a0-47b9-92ce-ef8bbc672d29","system_id":"levelo_inurba_marseille","lat":43.296935,"lon":5.376544,"is_reserved":false,"is_disabled":false,"rental_uris":{"android":"levelo://app?vid=4af3ae6f-69a0-47b9-92ce-ef8bbc672d29","ios":"levelo://app?vid=4af3ae6f-69a0-47b9-92ce-ef8bbc672d29"},"vehicle_type_id":"4","last_reported":1725901673,"current_range_meters":2000,"station_id":"ce4bgkh2rcd13ifvqbl0","pricing_plan_id":"cebpf4jnsgd1na2vs0mg"},{"bike_id":"7ce84e2d-3799-4d08-a74b-0cbf0b320436","system_id":"levelo_inurba_marseille","lat":43.296921,"lon":5.376579,"is_reserved":false,"is_disabled":false,"rental_uris":{"android":"levelo://app?vid=7ce84e2d-3799-4d08-a74b-0cbf0b320436","ios":"levelo://app?vid=7ce84e2d-3799-4d08-a74b-0cbf0b320436"},"vehicle_type_id":"4","last_reported":1725901673,"current_range_meters":400,"station_id":"ce4bgkh2rcd13ifvqbl0","pricing_plan_id":"cebpf4jnsgd1na2vs0mg"},{"bike_id":"438f1ead-40ba-40d2-b160-59727e56e8a9","system_id":"levelo_inurba_marseille","lat":43.296935,"lon":5.376544,"is_reserved":false,"is_disabled":false,"rental_uris":{"android":"levelo://app?vid=438f1ead-40ba-40d2-b160-59727e56e8a9","ios":"levelo://app?vid=438f1ead-40ba-40d2-b160-59727e56e8a9"},"vehicle_type_id":"4","last_reported":1725901673,"current_range_meters":5200,"station_id":"ce4bgkh2rcd13ifvqbl0","pricing_plan_id":"cebpf4jnsgd1na2vs0mg"},{"bike_id":"8279a338-456f-456c-8f4a-3403ba0399e0","system_id":"levelo_inurba_marseille","lat":43.296921,"lon":5.376579,"is_reserved":false,"is_disabled":false,"rental_uris":{"android":"levelo://app?vid=8279a338-456f-456c-8f4a-3403ba0399e0","ios":"levelo://app?vid=8279a338-456f-456c-8f4a-3403ba0399e0"},"vehicle_type_id":"4","last_reported":1725901673,"current_range_meters":12000,"station_id":"ce4bgkh2rcd13ifvqbl0","pricing_plan_id":"cebpf4jnsgd1na2vs0mg"},{"bike_id":"818458a4-c53b-4818-98a5-004d96d2623b","system_id":"levelo_inurba_marseille","lat":43.29715,"lon":5.37701,"is_reserved":false,"is_disabled":false,"rental_uris":{"android":"levelo://app?vid=818458a4-c53b-4818-98a5-004d96d2623b","ios":"levelo://app?vid=818458a4-c53b-4818-98a5-004d96d2623b"},"vehicle_type_id":"4","last_reported":1725901673,"current_range_meters":1600,"station_id":"ce4bgkh2rcd13ifvqbl0","pricing_plan_id":"cebpf4jnsgd1na2vs0mg"},{"bike_id":"51ca00e1-694c-4b81-9d44-368dd12a73e1","system_id":"levelo_inurba_marseille","lat":43.309589,"lon":5.390258,"is_reserved":false,"is_disabled":false,"rental_uris":{"android":"levelo://app?vid=51ca00e1-694c-4b81-9d44-368dd12a73e1","ios":"levelo://app?vid=51ca00e1-694c-4b81-9d44-368dd12a73e1"},"vehicle_type_id":"4","last_reported":1725901673,"current_range_meters":21600,"station_id":"ce4bgup2rcd13ifvqco0","pricing_plan_id":"cebpf4jnsgd1na2vs0mg"},{"bike_id":"ba462647-5963-40c6-b000-f4744218dade","system_id":"levelo_inurba_marseille","lat":43.309589,"lon":5.390258,"is_reserved":false,"is_disabled":false,"rental_uris":{"android":"levelo://app?vid=ba462647-5963-40c6-b000-f4744218dade","ios":"levelo://app?vid=ba462647-5963-40c6-b000-f4744218dade"},"vehicle_type_id":"4","last_reported":1725901673,"current_range_meters":0,"station_id":"ce4bgup2rcd13ifvqco0","pricing_plan_id":"cebpf4jnsgd1na2vs0mg"},{"bike_id":"4a2c3289-e5b4-43b2-8c5f-9f527d9603de","system_id":"levelo_inurba_marseille","lat":43.29698,"lon":5.37691,"is_reserved":false,"is_disabled":false,"rental_uris":{"android":"levelo://app?vid=4a2c3289-e5b4-43b2-8c5f-9f527d9603de","ios":"levelo://app?vid=4a2c3289-e5b4-43b2-8c5f-9f527d9603de"},"vehicle_type_id":"4","last_reported":1725901673,"current_range_meters":6400,"station_id":"ce4bgkh2rcd13ifvqbl0","pricing_plan_id":"cebpf4jnsgd1na2vs0mg"},{"bike_id":"7da48e77-1a22-4c7e-a9dc-6f60aefa4f34","system_id":"levelo_inurba_marseille","lat":43.317557,"lon":5.390173,"is_reserved":false,"is_disabled":false,"rental_uris":{"android":"levelo://app?vid=7da48e77-1a22-4c7e-a9dc-6f60aefa4f34","ios":"levelo://app?vid=7da48e77-1a22-4c7e-a9dc-6f60aefa4f34"},"vehicle_type_id":"4","last_reported":1725901673,"current_range_meters":29600,"station_id":"ce4bhqp2rcd13ifvqhng","pricing_plan_id":"cebpf4jnsgd1na2vs0mg"},{"bike_id":"de7caba6-db14-41d8-9d63-3331144e9d95","system_id":"levelo_inurba_marseille","lat":43.317613,"lon":5.39011,"is_reserved":false,"is_disabled":false,"rental_uris":{"android":"levelo://app?vid=de7caba6-db14-41d8-9d63-3331144e9d95","ios":"levelo://app?vid=de7caba6-db14-41d8-9d63-3331144e9d95"},"vehicle_type_id":"4","last_reported":1725901673,"current_range_meters":31200,"station_id":"ce4bhqp2rcd13ifvqhng","pricing_plan_id":"cebpf4jnsgd1na2vs0mg"},{"bike_id":"d375e37d-3e89-4ad0-95f6-7a312d90695f","system_id":"levelo_inurba_marseille","lat":43.31758,"lon":5.39016,"is_reserved":false,"is_disabled":false,"rental_uris":{"android":"levelo://app?vid=d375e37d-3e89-4ad0-95f6-7a312d90695f","ios":"levelo://app?vid=d375e37d-3e89-4ad0-95f6-7a312d90695f"},"vehicle_type_id":"4","last_reported":1725901673,"current_range_meters":12000,"station_id":"ce4bhqp2rcd13ifvqhng","pricing_plan_id":"cebpf4jnsgd1na2vs0mg"},{"bike_id":"4d43ce63-2f86-4521-b911-0b32c647877d","system_id":"levelo_inurba_marseille","lat":43.317557,"lon":5.390173,"is_reserved":false,"is_disabled":false,"rental_uris":{"android":"levelo://app?vid=4d43ce63-2f86-4521-b911-0b32c647877d","ios":"levelo://app?vid=4d43ce63-2f86-4521-b911-0b32c647877d"},"vehicle_type_id":"4","last_reported":1725901673,"current_range_meters":12800,"station_id":"ce4bhqp2rcd13ifvqhng","pricing_plan_id":"cebpf4jnsgd1na2vs0mg"},{"bike_id":"57f8c3a3-ed0e-4aa4-a5aa-1a6e6c4dff27","system_id":"levelo_inurba_marseille","lat":43.3176,"lon":5.39018,"is_reserved":false,"is_disabled":false,"rental_uris":{"android":"levelo://app?vid=57f8c3a3-ed0e-4aa4-a5aa-1a6e6c4dff27","ios":"levelo://app?vid=57f8c3a3-ed0e-4aa4-a5aa-1a6e6c4dff27"},"vehicle_type_id":"4","last_reported":1725901673,"current_range_meters":31200,"station_id":"ce4bhqp2rcd13ifvqhng","pricing_plan_id":"cebpf4jnsgd1na2vs0mg"},{"bike_id":"42d96c00-ab41-452c-9d59-ceb10b89984c","system_id":"levelo_inurba_marseille","lat":43.317557,"lon":5.390173,"is_reserved":false,"is_disabled":false,"rental_uris":{"android":"levelo://app?vid=42d96c00-ab41-452c-9d59-ceb10b89984c","ios":"levelo://app?vid=42d96c00-ab41-452c-9d59-ceb10b89984c"},"vehicle_type_id":"4","last_reported":1725901673,"current_range_meters":30400,"station_id":"ce4bhqp2rcd13ifvqhng","pricing_plan_id":"cebpf4jnsgd1na2vs0mg"},{"bike_id":"2c36af66-f204-4c71-835c-de63fe218d1b","system_id":"levelo_inurba_marseille","lat":43.317557,"lon":5.390173,"is_reserved":false,"is_disabled":false,"rental_uris":{"android":"levelo://app?vid=2c36af66-f204-4c71-835c-de63fe218d1b","ios":"levelo://app?vid=2c36af66-f204-4c71-835c-de63fe218d1b"},"vehicle_type_id":"4","last_reported":1725901673,"current_range_meters":0,"station_id":"ce4bhqp2rcd13ifvqhng","pricing_plan_id":"cebpf4jnsgd1na2vs0mg"},{"bike_id":"071d5887-132e-4401-8ffb-8567f8b67c31","system_id":"levelo_inurba_marseille","lat":43.317557,"lon":5.390173,"is_reserved":false,"is_disabled":false,"rental_uris":{"android":"levelo://app?vid=071d5887-132e-4401-8ffb-8567f8b67c31","ios":"levelo://app?vid=071d5887-132e-4401-8ffb-8567f8b67c31"},"vehicle_type_id":"4","last_reported":1725901673,"current_range_meters":9600,"station_id":"ce4bhqp2rcd13ifvqhng","pricing_plan_id":"cebpf4jnsgd1na2vs0mg"},{"bike_id":"01cc83f9-9650-4e9d-8a3b-a55632f27eca","system_id":"levelo_inurba_marseille","lat":43.317557,"lon":5.390173,"is_reserved":false,"is_disabled":false,"rental_uris":{"android":"levelo://app?vid=01cc83f9-9650-4e9d-8a3b-a55632f27eca","ios":"levelo://app?vid=01cc83f9-9650-4e9d-8a3b-a55632f27eca"},"vehicle_type_id":"4","last_reported":1725901673,"current_range_meters":15200,"station_id":"ce4bhqp2rcd13ifvqhng","pricing_plan_id":"cebpf4jnsgd1na2vs0mg"},{"bike_id":"937120f5-4258-4f7b-bfbe-9841590ad4c8","system_id":"levelo_inurba_marseille","lat":43.317557,"lon":5.390173,"is_reserved":false,"is_disabled":false,"rental_uris":{"android":"levelo://app?vid=937120f5-4258-4f7b-bfbe-9841590ad4c8","ios":"levelo://app?vid=937120f5-4258-4f7b-bfbe-9841590ad4c8"},"vehicle_type_id":"4","last_reported":1725901673,"current_range_meters":14800,"station_id":"ce4bhqp2rcd13ifvqhng","pricing_plan_id":"cebpf4jnsgd1na2vs0mg"},{"bike_id":"92d69d96-fa4d-4b55-a35d-e09681b23e5a","system_id":"levelo_inurba_marseille","lat":43.29694,"lon":5.37768,"is_reserved":false,"is_disabled":false,"rental_uris":{"android":"levelo://app?vid=92d69d96-fa4d-4b55-a35d-e09681b23e5a","ios":"levelo://app?vid=92d69d96-fa4d-4b55-a35d-e09681b23e5a"},"vehicle_type_id":"4","last_reported":1725901673,"current_range_meters":8800,"station_id":"","pricing_plan_id":"cebpf4jnsgd1na2vs0mg"},{"bike_id":"9bfc7f83-9a3b-48db-89bc-7ba54061be6c","system_id":"levelo_inurba_marseille","lat":43.31751,"lon":5.3903,"is_reserved":false,"is_disabled":false,"rental_uris":{"android":"levelo://app?vid=9bfc7f83-9a3b-48db-89bc-7ba54061be6c","ios":"levelo://app?vid=9bfc7f83-9a3b-48db-89bc-7ba54061be6c"},"vehicle_type_id":"4","last_reported":1725901673,"current_range_meters":31200,"station_id":"ce4bhqp2rcd13ifvqhng","pricing_plan_id":"cebpf4jnsgd1na2vs0mg"},{"bike_id":"ead5f9a1-6103-497f-9a01-53fd7a31b350","system_id":"levelo_inurba_marseille","lat":43.298037,"lon":5.381066,"is_reserved":false,"is_disabled":false,"rental_uris":{"android":"levelo://app?vid=ead5f9a1-6103-497f-9a01-53fd7a31b350","ios":"levelo://app?vid=ead5f9a1-6103-497f-9a01-53fd7a31b350"},"vehicle_type_id":"4","last_reported":1725901673,"current_range_meters":30800,"station_id":"ce4bgip2rcd13ifvqbb0","pricing_plan_id":"cebpf4jnsgd1na2vs0mg"},{"bike_id":"60854a54-5865-4b91-874f-26d1c3a99862","system_id":"levelo_inurba_marseille","lat":43.298037,"lon":5.381066,"is_reserved":false,"is_disabled":false,"rental_uris":{"android":"levelo://app?vid=60854a54-5865-4b91-874f-26d1c3a99862","ios":"levelo://app?vid=60854a54-5865-4b91-874f-26d1c3a99862"},"vehicle_type_id":"4","last_reported":1725901673,"current_range_meters":800,"station_id":"ce4bgip2rcd13ifvqbb0","pricing_plan_id":"cebpf4jnsgd1na2vs0mg"},{"bike_id":"06d3a0a2-98d7-4400-bbe9-5b4679f2b3e1","system_id":"levelo_inurba_marseille","lat":43.298037,"lon":5.381066,"is_reserved":false,"is_disabled":false,"rental_uris":{"android":"levelo://app?vid=06d3a0a2-98d7-4400-bbe9-5b4679f2b3e1","ios":"levelo://app?vid=06d3a0a2-98d7-4400-bbe9-5b4679f2b3e1"},"vehicle_type_id":"4","last_reported":1725901673,"current_range_meters":0,"station_id":"ce4bgip2rcd13ifvqbb0","pricing_plan_id":"cebpf4jnsgd1na2vs0mg"},{"bike_id":"ee013ba1-2bc8-4012-8f30-a6f506b66f5d","system_id":"levelo_inurba_marseille","lat":43.29577,"lon":5.37516,"is_reserved":false,"is_disabled":false,"rental_uris":{"android":"levelo://app?vid=ee013ba1-2bc8-4012-8f30-a6f506b66f5d","ios":"levelo://app?vid=ee013ba1-2bc8-4012-8f30-a6f506b66f5d"},"vehicle_type_id":"4","last_reported":1725901673,"current_range_meters":2000,"station_id":"ce4bgh92rcd13ifvqb50","pricing_plan_id":"cebpf4jnsgd1na2vs0mg"},{"bike_id":"25fd5c9a-4552-45e4-a1f7-a80ba8e41473","system_id":"levelo_inurba_marseille","lat":43.30427,"lon":5.38886,"is_reserved":false,"is_disabled":false,"rental_uris":{"android":"levelo://app?vid=25fd5c9a-4552-45e4-a1f7-a80ba8e41473","ios":"levelo://app?vid=25fd5c9a-4552-45e4-a1f7-a80ba8e41473"},"vehicle_type_id":"4","last_reported":1725901673,"current_range_meters":0,"station_id":"ce4bgk12rcd13ifvqbi0","pricing_plan_id":"cebpf4jnsgd1na2vs0mg"},{"bike_id":"4998c1b4-a1e1-49c5-8d81-6b7e92a058e3","system_id":"levelo_inurba_marseille","lat":43.30435,"lon":5.388943,"is_reserved":false,"is_disabled":false,"rental_uris":{"android":"levelo://app?vid=4998c1b4-a1e1-49c5-8d81-6b7e92a058e3","ios":"levelo://app?vid=4998c1b4-a1e1-49c5-8d81-6b7e92a058e3"},"vehicle_type_id":"4","last_reported":1725901673,"current_range_meters":0,"station_id":"ce4bgk12rcd13ifvqbi0","pricing_plan_id":"cebpf4jnsgd1na2vs0mg"},{"bike_id":"a5b00f43-bfab-4a52-85fa-799b03cd9200","system_id":"levelo_inurba_marseille","lat":43.296263,"lon":5.377094,"is_reserved":false,"is_disabled":false,"rental_uris":{"android":"levelo://app?vid=a5b00f43-bfab-4a52-85fa-799b03cd9200","ios":"levelo://app?vid=a5b00f43-bfab-4a52-85fa-799b03cd9200"},"vehicle_type_id":"4","last_reported":1725901673,"current_range_meters":4000,"station_id":"ce4bgi92rcd13ifvqb90","pricing_plan_id":"cebpf4jnsgd1na2vs0mg"},{"bike_id":"e9c92d10-c169-4ede-abde-8d00036a8acf","system_id":"levelo_inurba_marseille","lat":43.299707,"lon":5.384859,"is_reserved":false,"is_disabled":false,"rental_uris":{"android":"levelo://app?vid=e9c92d10-c169-4ede-abde-8d00036a8acf","ios":"levelo://app?vid=e9c92d10-c169-4ede-abde-8d00036a8acf"},"vehicle_type_id":"4","last_reported":1725901673,"current_range_meters":20000,"station_id":"ce4bgj92rcd13ifvqbd0","pricing_plan_id":"cebpf4jnsgd1na2vs0mg"},{"bike_id":"21161741-4dbb-4050-967d-29a81edec718","system_id":"levelo_inurba_marseille","lat":43.299724,"lon":5.384848,"is_reserved":false,"is_disabled":false,"rental_uris":{"android":"levelo://app?vid=21161741-4dbb-4050-967d-29a81edec718","ios":"levelo://app?vid=21161741-4dbb-4050-967d-29a81edec718"},"vehicle_type_id":"4","last_reported":1725901673,"current_range_meters":0,"station_id":"ce4bgj92rcd13ifvqbd0","pricing_plan_id":"cebpf4jnsgd1na2vs0mg"},{"bike_id":"d8064a84-dc6a-4ba6-8adf-61b3a9cfc7ad","system_id":"levelo_inurba_marseille","lat":43.299717,"lon":5.384845,"is_reserved":false,"is_disabled":false,"rental_uris":{"android":"levelo://app?vid=d8064a84-dc6a-4ba6-8adf-61b3a9cfc7ad","ios":"levelo://app?vid=d8064a84-dc6a-4ba6-8adf-61b3a9cfc7ad"},"vehicle_type_id":"4","last_reported":1725901673,"current_range_meters":24800,"station_id":"ce4bgj92rcd13ifvqbd0","pricing_plan_id":"cebpf4jnsgd1na2vs0mg"},{"bike_id":"16504ab7-28b2-407e-b8be-ef802e326945","system_id":"levelo_inurba_marseille","lat":43.299724,"lon":5.384848,"is_reserved":false,"is_disabled":false,"rental_uris":{"android":"levelo://app?vid=16504ab7-28b2-407e-b8be-ef802e326945","ios":"levelo://app?vid=16504ab7-28b2-407e-b8be-ef802e326945"},"vehicle_type_id":"4","last_reported":1725901673,"current_range_meters":0,"station_id":"ce4bgj92rcd13ifvqbd0","pricing_plan_id":"cebpf4jnsgd1na2vs0mg"},{"bike_id":"c87fd948-c754-43ef-9ea7-ca8ec0a706f1","system_id":"levelo_inurba_marseille","lat":43.299717,"lon":5.384845,"is_reserved":false,"is_disabled":false,"rental_uris":{"android":"levelo://app?vid=c87fd948-c754-43ef-9ea7-ca8ec0a706f1","ios":"levelo://app?vid=c87fd948-c754-43ef-9ea7-ca8ec0a706f1"},"vehicle_type_id":"4","last_reported":1725901673,"current_range_meters":0,"station_id":"ce4bgj92rcd13ifvqbd0","pricing_plan_id":"cebpf4jnsgd1na2vs0mg"},{"bike_id":"7b3be378-99cc-485f-beb1-ad89c32e25ab","system_id":"levelo_inurba_marseille","lat":43.32365,"lon":5.38882,"is_reserved":false,"is_disabled":false,"rental_uris":{"android":"levelo://app?vid=7b3be378-99cc-485f-beb1-ad89c32e25ab","ios":"levelo://app?vid=7b3be378-99cc-485f-beb1-ad89c32e25ab"},"vehicle_type_id":"4","last_reported":1725901673,"current_range_meters":9200,"station_id":"ce4bhqp2rcd13ifvqhog","pricing_plan_id":"cebpf4jnsgd1na2vs0mg"},{"bike_id":"41a40d7a-734e-4da1-84c3-5ed717ec6424","system_id":"levelo_inurba_marseille","lat":43.323627,"lon":5.38888,"is_reserved":false,"is_disabled":false,"rental_uris":{"android":"levelo://app?vid=41a40d7a-734e-4da1-84c3-5ed717ec6424","ios":"levelo://app?vid=41a40d7a-734e-4da1-84c3-5ed717ec6424"},"vehicle_type_id":"4","last_reported":1725901673,"current_range_meters":30800,"station_id":"ce4bhqp2rcd13ifvqhog","pricing_plan_id":"cebpf4jnsgd1na2vs0mg"},{"bike_id":"e70ee1bb-a26e-4052-9540-28721896adb2","system_id":"levelo_inurba_marseille","lat":43.32366,"lon":5.38885,"is_reserved":false,"is_disabled":false,"rental_uris":{"android":"levelo://app?vid=e70ee1bb-a26e-4052-9540-28721896adb2","ios":"levelo://app?vid=e70ee1bb-a26e-4052-9540-28721896adb2"},"vehicle_type_id":"4","last_reported":1725901673,"current_range_meters":4800,"station_id":"ce4bhqp2rcd13ifvqhog","pricing_plan_id":"cebpf4jnsgd1na2vs0mg"},{"bike_id":"35edce4e-d766-46a4-8225-dbd1585f3b66","system_id":"levelo_inurba_marseille","lat":43.32367,"lon":5.388836,"is_reserved":false,"is_disabled":false,"rental_uris":{"android":"levelo://app?vid=35edce4e-d766-46a4-8225-dbd1585f3b66","ios":"levelo://app?vid=35edce4e-d766-46a4-8225-dbd1585f3b66"},"vehicle_type_id":"4","last_reported":1725901673,"current_range_meters":16400,"station_id":"ce4bhqp2rcd13ifvqhog","pricing_plan_id":"cebpf4jnsgd1na2vs0mg"},{"bike_id":"2c86e902-eca6-4fe5-88cf-41ff27469b4d","system_id":"levelo_inurba_marseille","lat":43.32367,"lon":5.388836,"is_reserved":false,"is_disabled":false,"rental_uris":{"android":"levelo://app?vid=2c86e902-eca6-4fe5-88cf-41ff27469b4d","ios":"levelo://app?vid=2c86e902-eca6-4fe5-88cf-41ff27469b4d"},"vehicle_type_id":"4","last_reported":1725901673,"current_range_meters":28400,"station_id":"ce4bhqp2rcd13ifvqhog","pricing_plan_id":"cebpf4jnsgd1na2vs0mg"},{"bike_id":"67a2ded3-7337-46a4-bdf8-e125936dbc15","system_id":"levelo_inurba_marseille","lat":43.32366,"lon":5.38887,"is_reserved":false,"is_disabled":false,"rental_uris":{"android":"levelo://app?vid=67a2ded3-7337-46a4-bdf8-e125936dbc15","ios":"levelo://app?vid=67a2ded3-7337-46a4-bdf8-e125936dbc15"},"vehicle_type_id":"4","last_reported":1725901673,"current_range_meters":22400,"station_id":"ce4bhqp2rcd13ifvqhog","pricing_plan_id":"cebpf4jnsgd1na2vs0mg"},{"bike_id":"e7b804c7-d076-4700-9465-7caa3f339af2","system_id":"levelo_inurba_marseille","lat":43.32367,"lon":5.388836,"is_reserved":false,"is_disabled":false,"rental_uris":{"android":"levelo://app?vid=e7b804c7-d076-4700-9465-7caa3f339af2","ios":"levelo://app?vid=e7b804c7-d076-4700-9465-7caa3f339af2"},"vehicle_type_id":"4","last_reported":1725901673,"current_range_meters":12000,"station_id":"ce4bhqp2rcd13ifvqhog","pricing_plan_id":"cebpf4jnsgd1na2vs0mg"},{"bike_id":"19925d1e-e182-41c6-b5c7-a118e779ff7b","system_id":"levelo_inurba_marseille","lat":43.32367,"lon":5.388836,"is_reserved":false,"is_disabled":false,"rental_uris":{"android":"levelo://app?vid=19925d1e-e182-41c6-b5c7-a118e779ff7b","ios":"levelo://app?vid=19925d1e-e182-41c6-b5c7-a118e779ff7b"},"vehicle_type_id":"4","last_reported":1725901673,"current_range_meters":23600,"station_id":"ce4bhqp2rcd13ifvqhog","pricing_plan_id":"cebpf4jnsgd1na2vs0mg"},{"bike_id":"393a23e2-a248-4a81-8d18-99f86620f075","system_id":"levelo_inurba_marseille","lat":43.32367,"lon":5.388836,"is_reserved":false,"is_disabled":false,"rental_uris":{"android":"levelo://app?vid=393a23e2-a248-4a81-8d18-99f86620f075","ios":"levelo://app?vid=393a23e2-a248-4a81-8d18-99f86620f075"},"vehicle_type_id":"4","last_reported":1725901673,"current_range_meters":31200,"station_id":"ce4bhqp2rcd13ifvqhog","pricing_plan_id":"cebpf4jnsgd1na2vs0mg"},{"bike_id":"b97d0d4e-a470-44e9-835f-65cd3c38d1b1","system_id":"levelo_inurba_marseille","lat":43.29605,"lon":5.38101,"is_reserved":false,"is_disabled":false,"rental_uris":{"android":"levelo://app?vid=b97d0d4e-a470-44e9-835f-65cd3c38d1b1","ios":"levelo://app?vid=b97d0d4e-a470-44e9-835f-65cd3c38d1b1"},"vehicle_type_id":"4","last_reported":1725901673,"current_range_meters":18400,"station_id":"ce4bgl12rcd13ifvqbo0","pricing_plan_id":"cebpf4jnsgd1na2vs0mg"},{"bike_id":"5ad86fd0-de56-4da1-8eff-844e8c9eeb22","system_id":"levelo_inurba_marseille","lat":43.3237,"lon":5.38926,"is_reserved":false,"is_disabled":false,"rental_uris":{"android":"levelo://app?vid=5ad86fd0-de56-4da1-8eff-844e8c9eeb22","ios":"levelo://app?vid=5ad86fd0-de56-4da1-8eff-844e8c9eeb22"},"vehicle_type_id":"4","last_reported":1725901673,"current_range_meters":16800,"station_id":"","pricing_plan_id":"cebpf4jnsgd1na2vs0mg"},{"bike_id":"325b4ec6-69c0-4127-8f6f-bbebd95f719c","system_id":"levelo_inurba_marseille","lat":43.293259,"lon":5.371586,"is_reserved":false,"is_disabled":false,"rental_uris":{"android":"levelo://app?vid=325b4ec6-69c0-4127-8f6f-bbebd95f719c","ios":"levelo://app?vid=325b4ec6-69c0-4127-8f6f-bbebd95f719c"},"vehicle_type_id":"4","last_reported":1725901673,"current_range_meters":2000,"station_id":"ce4bgh92rcd13ifvqb40","pricing_plan_id":"cebpf4jnsgd1na2vs0mg"},{"bike_id":"fd25a9d0-a5d3-4279-9580-e3d9bde7296c","system_id":"levelo_inurba_marseille","lat":43.293249,"lon":5.371578,"is_reserved":false,"is_disabled":false,"rental_uris":{"android":"levelo://app?vid=fd25a9d0-a5d3-4279-9580-e3d9bde7296c","ios":"levelo://app?vid=fd25a9d0-a5d3-4279-9580-e3d9bde7296c"},"vehicle_type_id":"4","last_reported":1725901673,"current_range_meters":13200,"station_id":"ce4bgh92rcd13ifvqb40","pricing_plan_id":"cebpf4jnsgd1na2vs0mg"},{"bike_id":"ffff66ec-f79a-47dd-bcc6-4a9ddc485302","system_id":"levelo_inurba_marseille","lat":43.293249,"lon":5.371578,"is_reserved":false,"is_disabled":false,"rental_uris":{"android":"levelo://app?vid=ffff66ec-f79a-47dd-bcc6-4a9ddc485302","ios":"levelo://app?vid=ffff66ec-f79a-47dd-bcc6-4a9ddc485302"},"vehicle_type_id":"4","last_reported":1725901673,"current_range_meters":8000,"station_id":"ce4bgh92rcd13ifvqb40","pricing_plan_id":"cebpf4jnsgd1na2vs0mg"},{"bike_id":"596b48da-393e-4396-bc03-e29faad3b7e5","system_id":"levelo_inurba_marseille","lat":43.293,"lon":5.37179,"is_reserved":false,"is_disabled":false,"rental_uris":{"android":"levelo://app?vid=596b48da-393e-4396-bc03-e29faad3b7e5","ios":"levelo://app?vid=596b48da-393e-4396-bc03-e29faad3b7e5"},"vehicle_type_id":"4","last_reported":1725901673,"current_range_meters":0,"station_id":"ce4bgh92rcd13ifvqb40","pricing_plan_id":"cebpf4jnsgd1na2vs0mg"},{"bike_id":"e0cc44cc-d1c1-464d-bd04-c839748ada35","system_id":"levelo_inurba_marseille","lat":43.292749,"lon":5.368402,"is_reserved":false,"is_disabled":false,"rental_uris":{"android":"levelo://app?vid=e0cc44cc-d1c1-464d-bd04-c839748ada35","ios":"levelo://app?vid=e0cc44cc-d1c1-464d-bd04-c839748ada35"},"vehicle_type_id":"4","last_reported":1725901673,"current_range_meters":0,"station_id":"ce4bhbp2rcd13ifvqesg","pricing_plan_id":"cebpf4jnsgd1na2vs0mg"},{"bike_id":"99092455-38ab-486e-88a6-a2a4cd86472a","system_id":"levelo_inurba_marseille","lat":43.29588,"lon":5.38196,"is_reserved":false,"is_disabled":false,"rental_uris":{"android":"levelo://app?vid=99092455-38ab-486e-88a6-a2a4cd86472a","ios":"levelo://app?vid=99092455-38ab-486e-88a6-a2a4cd86472a"},"vehicle_type_id":"4","last_reported":1725901673,"current_range_meters":28400,"station_id":"","pricing_plan_id":"cebpf4jnsgd1na2vs0mg"},{"bike_id":"8ab4ab87-0c5f-44ff-9455-cf055bd49e60","system_id":"levelo_inurba_marseille","lat":43.293009,"lon":5.374584,"is_reserved":false,"is_disabled":false,"rental_uris":{"android":"levelo://app?vid=8ab4ab87-0c5f-44ff-9455-cf055bd49e60","ios":"levelo://app?vid=8ab4ab87-0c5f-44ff-9455-cf055bd49e60"},"vehicle_type_id":"4","last_reported":1725901673,"current_range_meters":8400,"station_id":"ce4bgi12rcd13ifvqb70","pricing_plan_id":"cebpf4jnsgd1na2vs0mg"},{"bike_id":"786f1583-90a8-4dbd-938b-0cd2aac64901","system_id":"levelo_inurba_marseille","lat":43.30598,"lon":5.39364,"is_reserved":false,"is_disabled":false,"rental_uris":{"android":"levelo://app?vid=786f1583-90a8-4dbd-938b-0cd2aac64901","ios":"levelo://app?vid=786f1583-90a8-4dbd-938b-0cd2aac64901"},"vehicle_type_id":"4","last_reported":1725901673,"current_range_meters":400,"station_id":"ce4bh0p2rcd13ifvqd80","pricing_plan_id":"cebpf4jnsgd1na2vs0mg"},{"bike_id":"e64f66bf-b8d3-487e-bdd1-06e348741800","system_id":"levelo_inurba_marseille","lat":43.2936,"lon":5.37835,"is_reserved":false,"is_disabled":false,"rental_uris":{"android":"levelo://app?vid=e64f66bf-b8d3-487e-bdd1-06e348741800","ios":"levelo://app?vid=e64f66bf-b8d3-487e-bdd1-06e348741800"},"vehicle_type_id":"4","last_reported":1725901673,"current_range_meters":0,"station_id":"ce4bgjh2rcd13ifvqbf0","pricing_plan_id":"cebpf4jnsgd1na2vs0mg"},{"bike_id":"efc37842-de95-41dd-aa8b-c1ac70dc4112","system_id":"levelo_inurba_marseille","lat":43.2936,"lon":5.37835,"is_reserved":false,"is_disabled":false,"rental_uris":{"android":"levelo://app?vid=efc37842-de95-41dd-aa8b-c1ac70dc4112","ios":"levelo://app?vid=efc37842-de95-41dd-aa8b-c1ac70dc4112"},"vehicle_type_id":"4","last_reported":1725901673,"current_range_meters":0,"station_id":"ce4bgjh2rcd13ifvqbf0","pricing_plan_id":"cebpf4jnsgd1na2vs0mg"},{"bike_id":"d6f95fd2-4772-4af5-8bd6-8acd123d800c","system_id":"levelo_inurba_marseille","lat":43.30085,"lon":5.390856,"is_reserved":false,"is_disabled":false,"rental_uris":{"android":"levelo://app?vid=d6f95fd2-4772-4af5-8bd6-8acd123d800c","ios":"levelo://app?vid=d6f95fd2-4772-4af5-8bd6-8acd123d800c"},"vehicle_type_id":"4","last_reported":1725901673,"current_range_meters":31200,"station_id":"ce4bh192rcd13ifvqdb0","pricing_plan_id":"cebpf4jnsgd1na2vs0mg"},{"bike_id":"f5256052-efd1-4ce1-9b90-3e59aec24479","system_id":"levelo_inurba_marseille","lat":43.292311,"lon":5.360731,"is_reserved":false,"is_disabled":false,"rental_uris":{"android":"levelo://app?vid=f5256052-efd1-4ce1-9b90-3e59aec24479","ios":"levelo://app?vid=f5256052-efd1-4ce1-9b90-3e59aec24479"},"vehicle_type_id":"4","last_reported":1725901673,"current_range_meters":3600,"station_id":"ce4bhbh2rcd13ifvqeqg","pricing_plan_id":"cebpf4jnsgd1na2vs0mg"},{"bike_id":"dbd923d9-0739-41fb-8b8b-e2bf60e3b663","system_id":"levelo_inurba_marseille","lat":43.292311,"lon":5.360731,"is_reserved":false,"is_disabled":false,"rental_uris":{"android":"levelo://app?vid=dbd923d9-0739-41fb-8b8b-e2bf60e3b663","ios":"levelo://app?vid=dbd923d9-0739-41fb-8b8b-e2bf60e3b663"},"vehicle_type_id":"4","last_reported":1725901673,"current_range_meters":2400,"station_id":"ce4bhbh2rcd13ifvqeqg","pricing_plan_id":"cebpf4jnsgd1na2vs0mg"},{"bike_id":"80025bb9-0e4d-4e0e-b69d-73546dc7036e","system_id":"levelo_inurba_marseille","lat":43.29217,"lon":5.36051,"is_reserved":false,"is_disabled":false,"rental_uris":{"android":"levelo://app?vid=80025bb9-0e4d-4e0e-b69d-73546dc7036e","ios":"levelo://app?vid=80025bb9-0e4d-4e0e-b69d-73546dc7036e"},"vehicle_type_id":"4","last_reported":1725901673,"current_range_meters":30800,"station_id":"ce4bhbh2rcd13ifvqeqg","pricing_plan_id":"cebpf4jnsgd1na2vs0mg"},{"bike_id":"132d1d5d-5cdb-49b2-94d1-b6616831c540","system_id":"levelo_inurba_marseille","lat":43.29213,"lon":5.36051,"is_reserved":false,"is_disabled":false,"rental_uris":{"android":"levelo://app?vid=132d1d5d-5cdb-49b2-94d1-b6616831c540","ios":"levelo://app?vid=132d1d5d-5cdb-49b2-94d1-b6616831c540"},"vehicle_type_id":"4","last_reported":1725901673,"current_range_meters":18400,"station_id":"ce4bhbh2rcd13ifvqeqg","pricing_plan_id":"cebpf4jnsgd1na2vs0mg"},{"bike_id":"a21bd4b6-c727-441e-ba32-5b341ed3d851","system_id":"levelo_inurba_marseille","lat":43.298764,"lon":5.388973,"is_reserved":false,"is_disabled":false,"rental_uris":{"android":"levelo://app?vid=a21bd4b6-c727-441e-ba32-5b341ed3d851","ios":"levelo://app?vid=a21bd4b6-c727-441e-ba32-5b341ed3d851"},"vehicle_type_id":"4","last_reported":1725901673,"current_range_meters":0,"station_id":"ce4bh392rcd13ifvqdl0","pricing_plan_id":"cebpf4jnsgd1na2vs0mg"},{"bike_id":"45155b7b-8ccf-4f63-9089-887267b040ce","system_id":"levelo_inurba_marseille","lat":43.298764,"lon":5.388973,"is_reserved":false,"is_disabled":false,"rental_uris":{"android":"levelo://app?vid=45155b7b-8ccf-4f63-9089-887267b040ce","ios":"levelo://app?vid=45155b7b-8ccf-4f63-9089-887267b040ce"},"vehicle_type_id":"4","last_reported":1725901673,"current_range_meters":4400,"station_id":"ce4bh392rcd13ifvqdl0","pricing_plan_id":"cebpf4jnsgd1na2vs0mg"},{"bike_id":"1f010690-0b0b-4ecb-ac5d-3412a3d7cc18","system_id":"levelo_inurba_marseille","lat":43.291671,"lon":5.371575,"is_reserved":false,"is_disabled":false,"rental_uris":{"android":"levelo://app?vid=1f010690-0b0b-4ecb-ac5d-3412a3d7cc18","ios":"levelo://app?vid=1f010690-0b0b-4ecb-ac5d-3412a3d7cc18"},"vehicle_type_id":"4","last_reported":1725901673,"current_range_meters":400,"station_id":"ce4bha92rcd13ifvqeh0","pricing_plan_id":"cebpf4jnsgd1na2vs0mg"},{"bike_id":"35d6b304-0d4c-4409-9271-3dee4e91d049","system_id":"levelo_inurba_marseille","lat":43.291675,"lon":5.371583,"is_reserved":false,"is_disabled":false,"rental_uris":{"android":"levelo://app?vid=35d6b304-0d4c-4409-9271-3dee4e91d049","ios":"levelo://app?vid=35d6b304-0d4c-4409-9271-3dee4e91d049"},"vehicle_type_id":"4","last_reported":1725901673,"current_range_meters":7200,"station_id":"ce4bha92rcd13ifvqeh0","pricing_plan_id":"cebpf4jnsgd1na2vs0mg"},{"bike_id":"1c0e0470-95d3-4a46-8db7-43fc86376d7c","system_id":"levelo_inurba_marseille","lat":43.291675,"lon":5.371583,"is_reserved":false,"is_disabled":false,"rental_uris":{"android":"levelo://app?vid=1c0e0470-95d3-4a46-8db7-43fc86376d7c","ios":"levelo://app?vid=1c0e0470-95d3-4a46-8db7-43fc86376d7c"},"vehicle_type_id":"4","last_reported":1725901673,"current_range_meters":0,"station_id":"ce4bha92rcd13ifvqeh0","pricing_plan_id":"cebpf4jnsgd1na2vs0mg"},{"bike_id":"8b01c417-6535-4b8a-b655-57015ae8b981","system_id":"levelo_inurba_marseille","lat":43.298764,"lon":5.388973,"is_reserved":false,"is_disabled":false,"rental_uris":{"android":"levelo://app?vid=8b01c417-6535-4b8a-b655-57015ae8b981","ios":"levelo://app?vid=8b01c417-6535-4b8a-b655-57015ae8b981"},"vehicle_type_id":"4","last_reported":1725901673,"current_range_meters":1200,"station_id":"ce4bh392rcd13ifvqdl0","pricing_plan_id":"cebpf4jnsgd1na2vs0mg"},{"bike_id":"21f6cb3c-01fd-436d-88ba-802488b93b50","system_id":"levelo_inurba_marseille","lat":43.29282,"lon":5.35566,"is_reserved":false,"is_disabled":false,"rental_uris":{"android":"levelo://app?vid=21f6cb3c-01fd-436d-88ba-802488b93b50","ios":"levelo://app?vid=21f6cb3c-01fd-436d-88ba-802488b93b50"},"vehicle_type_id":"4","last_reported":1725901673,"current_range_meters":19600,"station_id":"","pricing_plan_id":"cebpf4jnsgd1na2vs0mg"},{"bike_id":"0e7cd164-4cd5-4ee5-a84d-9f68e1d68912","system_id":"levelo_inurba_marseille","lat":43.29202,"lon":5.35803,"is_reserved":false,"is_disabled":false,"rental_uris":{"android":"levelo://app?vid=0e7cd164-4cd5-4ee5-a84d-9f68e1d68912","ios":"levelo://app?vid=0e7cd164-4cd5-4ee5-a84d-9f68e1d68912"},"vehicle_type_id":"4","last_reported":1725901673,"current_range_meters":9200,"station_id":"ce4bhb12rcd13ifvqel0","pricing_plan_id":"cebpf4jnsgd1na2vs0mg"},{"bike_id":"1c3872e1-490d-494d-a161-3347fcd4adfe","system_id":"levelo_inurba_marseille","lat":43.29197,"lon":5.35803,"is_reserved":false,"is_disabled":false,"rental_uris":{"android":"levelo://app?vid=1c3872e1-490d-494d-a161-3347fcd4adfe","ios":"levelo://app?vid=1c3872e1-490d-494d-a161-3347fcd4adfe"},"vehicle_type_id":"4","last_reported":1725901673,"current_range_meters":30800,"station_id":"ce4bhb12rcd13ifvqel0","pricing_plan_id":"cebpf4jnsgd1na2vs0mg"},{"bike_id":"2adf023e-db01-4c1b-b24a-d23b33f9ec29","system_id":"levelo_inurba_marseille","lat":43.292005,"lon":5.357875,"is_reserved":false,"is_disabled":false,"rental_uris":{"android":"levelo://app?vid=2adf023e-db01-4c1b-b24a-d23b33f9ec29","ios":"levelo://app?vid=2adf023e-db01-4c1b-b24a-d23b33f9ec29"},"vehicle_type_id":"4","last_reported":1725901673,"current_range_meters":10800,"station_id":"ce4bhb12rcd13ifvqel0","pricing_plan_id":"cebpf4jnsgd1na2vs0mg"},{"bike_id":"b99f1c20-edcf-4954-8661-bd7e222a3237","system_id":"levelo_inurba_marseille","lat":43.29193,"lon":5.3581,"is_reserved":false,"is_disabled":false,"rental_uris":{"android":"levelo://app?vid=b99f1c20-edcf-4954-8661-bd7e222a3237","ios":"levelo://app?vid=b99f1c20-edcf-4954-8661-bd7e222a3237"},"vehicle_type_id":"4","last_reported":1725901673,"current_range_meters":2400,"station_id":"ce4bhb12rcd13ifvqel0","pricing_plan_id":"cebpf4jnsgd1na2vs0mg"},{"bike_id":"4df24a40-9725-4970-8591-6e3e7b3b72aa","system_id":"levelo_inurba_marseille","lat":43.29193,"lon":5.358037,"is_reserved":false,"is_disabled":false,"rental_uris":{"android":"levelo://app?vid=4df24a40-9725-4970-8591-6e3e7b3b72aa","ios":"levelo://app?vid=4df24a40-9725-4970-8591-6e3e7b3b72aa"},"vehicle_type_id":"4","last_reported":1725901673,"current_range_meters":0,"station_id":"ce4bhb12rcd13ifvqel0","pricing_plan_id":"cebpf4jnsgd1na2vs0mg"},{"bike_id":"6ad66824-4598-4cf4-bf26-691dc6b55632","system_id":"levelo_inurba_marseille","lat":43.291924,"lon":5.358048,"is_reserved":false,"is_disabled":false,"rental_uris":{"android":"levelo://app?vid=6ad66824-4598-4cf4-bf26-691dc6b55632","ios":"levelo://app?vid=6ad66824-4598-4cf4-bf26-691dc6b55632"},"vehicle_type_id":"4","last_reported":1725901673,"current_range_meters":31200,"station_id":"ce4bhb12rcd13ifvqel0","pricing_plan_id":"cebpf4jnsgd1na2vs0mg"},{"bike_id":"e2b6c9c1-02ab-43d8-a7a4-09a2743ae0ee","system_id":"levelo_inurba_marseille","lat":43.291883,"lon":5.358211,"is_reserved":false,"is_disabled":false,"rental_uris":{"android":"levelo://app?vid=e2b6c9c1-02ab-43d8-a7a4-09a2743ae0ee","ios":"levelo://app?vid=e2b6c9c1-02ab-43d8-a7a4-09a2743ae0ee"},"vehicle_type_id":"4","last_reported":1725901673,"current_range_meters":12400,"station_id":"ce4bhb12rcd13ifvqel0","pricing_plan_id":"cebpf4jnsgd1na2vs0mg"},{"bike_id":"133b5137-36b5-49fd-83d8-a3c1f0513d04","system_id":"levelo_inurba_marseille","lat":43.313291,"lon":5.396838,"is_reserved":false,"is_disabled":false,"rental_uris":{"android":"levelo://app?vid=133b5137-36b5-49fd-83d8-a3c1f0513d04","ios":"levelo://app?vid=133b5137-36b5-49fd-83d8-a3c1f0513d04"},"vehicle_type_id":"4","last_reported":1725901673,"current_range_meters":12800,"station_id":"ce4bgvp2rcd13ifvqcu0","pricing_plan_id":"cebpf4jnsgd1na2vs0mg"},{"bike_id":"96975217-0efe-4818-8d8c-761cd6ccf880","system_id":"levelo_inurba_marseille","lat":43.292005,"lon":5.357875,"is_reserved":false,"is_disabled":false,"rental_uris":{"android":"levelo://app?vid=96975217-0efe-4818-8d8c-761cd6ccf880","ios":"levelo://app?vid=96975217-0efe-4818-8d8c-761cd6ccf880"},"vehicle_type_id":"4","last_reported":1725901673,"current_range_meters":18800,"station_id":"ce4bhb12rcd13ifvqel0","pricing_plan_id":"cebpf4jnsgd1na2vs0mg"},{"bike_id":"e9dcdb91-7446-4e54-bdc3-1ea52b8b55ff","system_id":"levelo_inurba_marseille","lat":43.313291,"lon":5.396838,"is_reserved":false,"is_disabled":false,"rental_uris":{"android":"levelo://app?vid=e9dcdb91-7446-4e54-bdc3-1ea52b8b55ff","ios":"levelo://app?vid=e9dcdb91-7446-4e54-bdc3-1ea52b8b55ff"},"vehicle_type_id":"4","last_reported":1725901673,"current_range_meters":23200,"station_id":"ce4bgvp2rcd13ifvqcu0","pricing_plan_id":"cebpf4jnsgd1na2vs0mg"},{"bike_id":"758a4d26-bc0b-4a7f-bb01-c4ad43c7eda1","system_id":"levelo_inurba_marseille","lat":43.313291,"lon":5.396838,"is_reserved":false,"is_disabled":false,"rental_uris":{"android":"levelo://app?vid=758a4d26-bc0b-4a7f-bb01-c4ad43c7eda1","ios":"levelo://app?vid=758a4d26-bc0b-4a7f-bb01-c4ad43c7eda1"},"vehicle_type_id":"4","last_reported":1725901673,"current_range_meters":17200,"station_id":"ce4bgvp2rcd13ifvqcu0","pricing_plan_id":"cebpf4jnsgd1na2vs0mg"},{"bike_id":"130869cc-0de2-4a0d-bb4c-7eca4a5c7cfc","system_id":"levelo_inurba_marseille","lat":43.31326,"lon":5.39696,"is_reserved":false,"is_disabled":false,"rental_uris":{"android":"levelo://app?vid=130869cc-0de2-4a0d-bb4c-7eca4a5c7cfc","ios":"levelo://app?vid=130869cc-0de2-4a0d-bb4c-7eca4a5c7cfc"},"vehicle_type_id":"4","last_reported":1725901673,"current_range_meters":0,"station_id":"ce4bgvp2rcd13ifvqcu0","pricing_plan_id":"cebpf4jnsgd1na2vs0mg"},{"bike_id":"8476d9d4-e4e4-4d57-bbfc-f67fab4fbf59","system_id":"levelo_inurba_marseille","lat":43.309038,"lon":5.396546,"is_reserved":false,"is_disabled":false,"rental_uris":{"android":"levelo://app?vid=8476d9d4-e4e4-4d57-bbfc-f67fab4fbf59","ios":"levelo://app?vid=8476d9d4-e4e4-4d57-bbfc-f67fab4fbf59"},"vehicle_type_id":"4","last_reported":1725901673,"current_range_meters":17200,"station_id":"ce4bh012rcd13ifvqcv0","pricing_plan_id":"cebpf4jnsgd1na2vs0mg"},{"bike_id":"e686f240-fe01-4d3e-a00d-0d4ccd78f9b1","system_id":"levelo_inurba_marseille","lat":43.309038,"lon":5.396546,"is_reserved":false,"is_disabled":false,"rental_uris":{"android":"levelo://app?vid=e686f240-fe01-4d3e-a00d-0d4ccd78f9b1","ios":"levelo://app?vid=e686f240-fe01-4d3e-a00d-0d4ccd78f9b1"},"vehicle_type_id":"4","last_reported":1725901673,"current_range_meters":9600,"station_id":"ce4bh012rcd13ifvqcv0","pricing_plan_id":"cebpf4jnsgd1na2vs0mg"},{"bike_id":"bd0d60c4-6807-4cc7-8b4f-a6119e3969ec","system_id":"levelo_inurba_marseille","lat":43.309038,"lon":5.396546,"is_reserved":false,"is_disabled":false,"rental_uris":{"android":"levelo://app?vid=bd0d60c4-6807-4cc7-8b4f-a6119e3969ec","ios":"levelo://app?vid=bd0d60c4-6807-4cc7-8b4f-a6119e3969ec"},"vehicle_type_id":"4","last_reported":1725901673,"current_range_meters":8800,"station_id":"ce4bh012rcd13ifvqcv0","pricing_plan_id":"cebpf4jnsgd1na2vs0mg"},{"bike_id":"d139751c-0341-4251-aa6c-9424611cb127","system_id":"levelo_inurba_marseille","lat":43.29529,"lon":5.385581,"is_reserved":false,"is_disabled":false,"rental_uris":{"android":"levelo://app?vid=d139751c-0341-4251-aa6c-9424611cb127","ios":"levelo://app?vid=d139751c-0341-4251-aa6c-9424611cb127"},"vehicle_type_id":"4","last_reported":1725901673,"current_range_meters":5200,"station_id":"ce4bgih2rcd13ifvqba0","pricing_plan_id":"cebpf4jnsgd1na2vs0mg"},{"bike_id":"0e23acb5-9f18-43d4-869f-ce1650240e4f","system_id":"levelo_inurba_marseille","lat":43.290779,"lon":5.371482,"is_reserved":false,"is_disabled":false,"rental_uris":{"android":"levelo://app?vid=0e23acb5-9f18-43d4-869f-ce1650240e4f","ios":"levelo://app?vid=0e23acb5-9f18-43d4-869f-ce1650240e4f"},"vehicle_type_id":"4","last_reported":1725901673,"current_range_meters":8800,"station_id":"ce4bh5p2rcd13ifvqe4g","pricing_plan_id":"cebpf4jnsgd1na2vs0mg"},{"bike_id":"ca104a92-eba1-4c6d-86c0-c4a4e47539b2","system_id":"levelo_inurba_marseille","lat":43.290779,"lon":5.371482,"is_reserved":false,"is_disabled":false,"rental_uris":{"android":"levelo://app?vid=ca104a92-eba1-4c6d-86c0-c4a4e47539b2","ios":"levelo://app?vid=ca104a92-eba1-4c6d-86c0-c4a4e47539b2"},"vehicle_type_id":"4","last_reported":1725901673,"current_range_meters":1200,"station_id":"ce4bh5p2rcd13ifvqe4g","pricing_plan_id":"cebpf4jnsgd1na2vs0mg"},{"bike_id":"33d6d38e-2e38-45d3-95a4-b775e5f4bc11","system_id":"levelo_inurba_marseille","lat":43.290779,"lon":5.371482,"is_reserved":false,"is_disabled":false,"rental_uris":{"android":"levelo://app?vid=33d6d38e-2e38-45d3-95a4-b775e5f4bc11","ios":"levelo://app?vid=33d6d38e-2e38-45d3-95a4-b775e5f4bc11"},"vehicle_type_id":"4","last_reported":1725901673,"current_range_meters":31600,"station_id":"ce4bh5p2rcd13ifvqe4g","pricing_plan_id":"cebpf4jnsgd1na2vs0mg"},{"bike_id":"741c11a1-cc04-440c-a011-9b0e764030d5","system_id":"levelo_inurba_marseille","lat":43.290779,"lon":5.371482,"is_reserved":false,"is_disabled":false,"rental_uris":{"android":"levelo://app?vid=741c11a1-cc04-440c-a011-9b0e764030d5","ios":"levelo://app?vid=741c11a1-cc04-440c-a011-9b0e764030d5"},"vehicle_type_id":"4","last_reported":1725901673,"current_range_meters":400,"station_id":"ce4bh5p2rcd13ifvqe4g","pricing_plan_id":"cebpf4jnsgd1na2vs0mg"},{"bike_id":"7f8e9858-88db-46fa-b231-ae54ab0e2f68","system_id":"levelo_inurba_marseille","lat":43.290779,"lon":5.371482,"is_reserved":false,"is_disabled":false,"rental_uris":{"android":"levelo://app?vid=7f8e9858-88db-46fa-b231-ae54ab0e2f68","ios":"levelo://app?vid=7f8e9858-88db-46fa-b231-ae54ab0e2f68"},"vehicle_type_id":"4","last_reported":1725901673,"current_range_meters":2000,"station_id":"ce4bh5p2rcd13ifvqe4g","pricing_plan_id":"cebpf4jnsgd1na2vs0mg"},{"bike_id":"463c51c0-21d1-4076-bc1c-5d8f9e820073","system_id":"levelo_inurba_marseille","lat":43.290624,"lon":5.359245,"is_reserved":false,"is_disabled":false,"rental_uris":{"android":"levelo://app?vid=463c51c0-21d1-4076-bc1c-5d8f9e820073","ios":"levelo://app?vid=463c51c0-21d1-4076-bc1c-5d8f9e820073"},"vehicle_type_id":"4","last_reported":1725901673,"current_range_meters":14000,"station_id":"ce4bha92rcd13ifvqeg0","pricing_plan_id":"cebpf4jnsgd1na2vs0mg"},{"bike_id":"b320956c-dfa9-4df1-8c4c-caf3c139f0c2","system_id":"levelo_inurba_marseille","lat":43.290631,"lon":5.359244,"is_reserved":false,"is_disabled":false,"rental_uris":{"android":"levelo://app?vid=b320956c-dfa9-4df1-8c4c-caf3c139f0c2","ios":"levelo://app?vid=b320956c-dfa9-4df1-8c4c-caf3c139f0c2"},"vehicle_type_id":"4","last_reported":1725901673,"current_range_meters":4400,"station_id":"ce4bha92rcd13ifvqeg0","pricing_plan_id":"cebpf4jnsgd1na2vs0mg"},{"bike_id":"62179f19-dbdd-4c87-a5a6-bbf50e286467","system_id":"levelo_inurba_marseille","lat":43.290624,"lon":5.359245,"is_reserved":false,"is_disabled":false,"rental_uris":{"android":"levelo://app?vid=62179f19-dbdd-4c87-a5a6-bbf50e286467","ios":"levelo://app?vid=62179f19-dbdd-4c87-a5a6-bbf50e286467"},"vehicle_type_id":"4","last_reported":1725901673,"current_range_meters":3200,"station_id":"ce4bha92rcd13ifvqeg0","pricing_plan_id":"cebpf4jnsgd1na2vs0mg"},{"bike_id":"25e8d0a4-387c-427b-9019-dca3fae22bfa","system_id":"levelo_inurba_marseille","lat":43.302008,"lon":5.394694,"is_reserved":false,"is_disabled":false,"rental_uris":{"android":"levelo://app?vid=25e8d0a4-387c-427b-9019-dca3fae22bfa","ios":"levelo://app?vid=25e8d0a4-387c-427b-9019-dca3fae22bfa"},"vehicle_type_id":"4","last_reported":1725901673,"current_range_meters":31200,"station_id":"ce4bh0p2rcd13ifvqd70","pricing_plan_id":"cebpf4jnsgd1na2vs0mg"},{"bike_id":"bfa67654-36fa-4238-8356-aedd727a2202","system_id":"levelo_inurba_marseille","lat":43.290631,"lon":5.359244,"is_reserved":false,"is_disabled":false,"rental_uris":{"android":"levelo://app?vid=bfa67654-36fa-4238-8356-aedd727a2202","ios":"levelo://app?vid=bfa67654-36fa-4238-8356-aedd727a2202"},"vehicle_type_id":"4","last_reported":1725901673,"current_range_meters":15600,"station_id":"ce4bha92rcd13ifvqeg0","pricing_plan_id":"cebpf4jnsgd1na2vs0mg"},{"bike_id":"f59f90db-a951-4bee-8f2a-e64c9e2f0549","system_id":"levelo_inurba_marseille","lat":43.290631,"lon":5.359244,"is_reserved":false,"is_disabled":false,"rental_uris":{"android":"levelo://app?vid=f59f90db-a951-4bee-8f2a-e64c9e2f0549","ios":"levelo://app?vid=f59f90db-a951-4bee-8f2a-e64c9e2f0549"},"vehicle_type_id":"4","last_reported":1725901673,"current_range_meters":30000,"station_id":"ce4bha92rcd13ifvqeg0","pricing_plan_id":"cebpf4jnsgd1na2vs0mg"},{"bike_id":"1d778ad5-71e7-480b-bf56-336123890235","system_id":"levelo_inurba_marseille","lat":43.290631,"lon":5.359244,"is_reserved":false,"is_disabled":false,"rental_uris":{"android":"levelo://app?vid=1d778ad5-71e7-480b-bf56-336123890235","ios":"levelo://app?vid=1d778ad5-71e7-480b-bf56-336123890235"},"vehicle_type_id":"4","last_reported":1725901673,"current_range_meters":5600,"station_id":"ce4bha92rcd13ifvqeg0","pricing_plan_id":"cebpf4jnsgd1na2vs0mg"},{"bike_id":"f639b427-3408-4ca5-bcbe-1d52fdd31d35","system_id":"levelo_inurba_marseille","lat":43.290624,"lon":5.359245,"is_reserved":false,"is_disabled":false,"rental_uris":{"android":"levelo://app?vid=f639b427-3408-4ca5-bcbe-1d52fdd31d35","ios":"levelo://app?vid=f639b427-3408-4ca5-bcbe-1d52fdd31d35"},"vehicle_type_id":"4","last_reported":1725901673,"current_range_meters":29200,"station_id":"ce4bha92rcd13ifvqeg0","pricing_plan_id":"cebpf4jnsgd1na2vs0mg"},{"bike_id":"0f549ef5-4404-4b37-84eb-b763aad2bfd6","system_id":"levelo_inurba_marseille","lat":43.290624,"lon":5.359245,"is_reserved":false,"is_disabled":false,"rental_uris":{"android":"levelo://app?vid=0f549ef5-4404-4b37-84eb-b763aad2bfd6","ios":"levelo://app?vid=0f549ef5-4404-4b37-84eb-b763aad2bfd6"},"vehicle_type_id":"4","last_reported":1725901673,"current_range_meters":31200,"station_id":"ce4bha92rcd13ifvqeg0","pricing_plan_id":"cebpf4jnsgd1na2vs0mg"},{"bike_id":"566caa21-48b3-42d7-ada2-b15471cbef00","system_id":"levelo_inurba_marseille","lat":43.290319,"lon":5.375732,"is_reserved":false,"is_disabled":false,"rental_uris":{"android":"levelo://app?vid=566caa21-48b3-42d7-ada2-b15471cbef00","ios":"levelo://app?vid=566caa21-48b3-42d7-ada2-b15471cbef00"},"vehicle_type_id":"4","last_reported":1725901673,"current_range_meters":2800,"station_id":"ce4bh692rcd13ifvqe90","pricing_plan_id":"cebpf4jnsgd1na2vs0mg"},{"bike_id":"2dfc9a0c-e23f-4ed3-b17b-a6e498f2a500","system_id":"levelo_inurba_marseille","lat":43.289184,"lon":5.366408,"is_reserved":false,"is_disabled":false,"rental_uris":{"android":"levelo://app?vid=2dfc9a0c-e23f-4ed3-b17b-a6e498f2a500","ios":"levelo://app?vid=2dfc9a0c-e23f-4ed3-b17b-a6e498f2a500"},"vehicle_type_id":"4","last_reported":1725901673,"current_range_meters":13600,"station_id":"ce4bhap2rcd13ifvqek0","pricing_plan_id":"cebpf4jnsgd1na2vs0mg"},{"bike_id":"0ec41408-6976-4a62-8269-491d2d5d1b81","system_id":"levelo_inurba_marseille","lat":43.294162,"lon":5.386292,"is_reserved":false,"is_disabled":false,"rental_uris":{"android":"levelo://app?vid=0ec41408-6976-4a62-8269-491d2d5d1b81","ios":"levelo://app?vid=0ec41408-6976-4a62-8269-491d2d5d1b81"},"vehicle_type_id":"4","last_reported":1725901673,"current_range_meters":18000,"station_id":"ce4bh2h2rcd13ifvqdh0","pricing_plan_id":"cebpf4jnsgd1na2vs0mg"},{"bike_id":"659bc5a4-8154-4807-8d3a-6a995c2d9f59","system_id":"levelo_inurba_marseille","lat":43.29419,"lon":5.38628,"is_reserved":false,"is_disabled":false,"rental_uris":{"android":"levelo://app?vid=659bc5a4-8154-4807-8d3a-6a995c2d9f59","ios":"levelo://app?vid=659bc5a4-8154-4807-8d3a-6a995c2d9f59"},"vehicle_type_id":"4","last_reported":1725901673,"current_range_meters":11200,"station_id":"ce4bh2h2rcd13ifvqdh0","pricing_plan_id":"cebpf4jnsgd1na2vs0mg"},{"bike_id":"00ee55fd-262e-4407-9e27-df4ccab64041","system_id":"levelo_inurba_marseille","lat":43.29419,"lon":5.38628,"is_reserved":false,"is_disabled":false,"rental_uris":{"android":"levelo://app?vid=00ee55fd-262e-4407-9e27-df4ccab64041","ios":"levelo://app?vid=00ee55fd-262e-4407-9e27-df4ccab64041"},"vehicle_type_id":"4","last_reported":1725901673,"current_range_meters":400,"station_id":"ce4bh2h2rcd13ifvqdh0","pricing_plan_id":"cebpf4jnsgd1na2vs0mg"},{"bike_id":"4c8f10bf-4ade-4021-889b-50699907ba8f","system_id":"levelo_inurba_marseille","lat":43.29417,"lon":5.38625,"is_reserved":false,"is_disabled":false,"rental_uris":{"android":"levelo://app?vid=4c8f10bf-4ade-4021-889b-50699907ba8f","ios":"levelo://app?vid=4c8f10bf-4ade-4021-889b-50699907ba8f"},"vehicle_type_id":"4","last_reported":1725901673,"current_range_meters":0,"station_id":"ce4bh2h2rcd13ifvqdh0","pricing_plan_id":"cebpf4jnsgd1na2vs0mg"},{"bike_id":"695c31a4-708f-49e0-a139-43a42d752121","system_id":"levelo_inurba_marseille","lat":43.289184,"lon":5.366408,"is_reserved":false,"is_disabled":false,"rental_uris":{"android":"levelo://app?vid=695c31a4-708f-49e0-a139-43a42d752121","ios":"levelo://app?vid=695c31a4-708f-49e0-a139-43a42d752121"},"vehicle_type_id":"4","last_reported":1725901673,"current_range_meters":5200,"station_id":"ce4bhap2rcd13ifvqek0","pricing_plan_id":"cebpf4jnsgd1na2vs0mg"},{"bike_id":"ba3d2e57-bf24-453a-8bb7-e184d56f50ba","system_id":"levelo_inurba_marseille","lat":43.289184,"lon":5.366408,"is_reserved":false,"is_disabled":false,"rental_uris":{"android":"levelo://app?vid=ba3d2e57-bf24-453a-8bb7-e184d56f50ba","ios":"levelo://app?vid=ba3d2e57-bf24-453a-8bb7-e184d56f50ba"},"vehicle_type_id":"4","last_reported":1725901673,"current_range_meters":1200,"station_id":"ce4bhap2rcd13ifvqek0","pricing_plan_id":"cebpf4jnsgd1na2vs0mg"},{"bike_id":"caa18454-7b18-49fa-bc50-3bf4b7981162","system_id":"levelo_inurba_marseille","lat":43.294162,"lon":5.386292,"is_reserved":false,"is_disabled":false,"rental_uris":{"android":"levelo://app?vid=caa18454-7b18-49fa-bc50-3bf4b7981162","ios":"levelo://app?vid=caa18454-7b18-49fa-bc50-3bf4b7981162"},"vehicle_type_id":"4","last_reported":1725901673,"current_range_meters":12800,"station_id":"ce4bh2h2rcd13ifvqdh0","pricing_plan_id":"cebpf4jnsgd1na2vs0mg"},{"bike_id":"08dabc02-d3e8-4d7b-b3ea-65c4ff0e7bbd","system_id":"levelo_inurba_marseille","lat":43.290319,"lon":5.375732,"is_reserved":false,"is_disabled":false,"rental_uris":{"android":"levelo://app?vid=08dabc02-d3e8-4d7b-b3ea-65c4ff0e7bbd","ios":"levelo://app?vid=08dabc02-d3e8-4d7b-b3ea-65c4ff0e7bbd"},"vehicle_type_id":"4","last_reported":1725901673,"current_range_meters":7600,"station_id":"ce4bh692rcd13ifvqe90","pricing_plan_id":"cebpf4jnsgd1na2vs0mg"},{"bike_id":"66444a57-df06-4d94-a5bc-8d1b2541ede7","system_id":"levelo_inurba_marseille","lat":43.294162,"lon":5.386292,"is_reserved":false,"is_disabled":false,"rental_uris":{"android":"levelo://app?vid=66444a57-df06-4d94-a5bc-8d1b2541ede7","ios":"levelo://app?vid=66444a57-df06-4d94-a5bc-8d1b2541ede7"},"vehicle_type_id":"4","last_reported":1725901673,"current_range_meters":8000,"station_id":"ce4bh2h2rcd13ifvqdh0","pricing_plan_id":"cebpf4jnsgd1na2vs0mg"},{"bike_id":"8bceeb39-7a50-4bbc-b5e9-4c9cdd44d5aa","system_id":"levelo_inurba_marseille","lat":43.294162,"lon":5.386292,"is_reserved":false,"is_disabled":false,"rental_uris":{"android":"levelo://app?vid=8bceeb39-7a50-4bbc-b5e9-4c9cdd44d5aa","ios":"levelo://app?vid=8bceeb39-7a50-4bbc-b5e9-4c9cdd44d5aa"},"vehicle_type_id":"4","last_reported":1725901673,"current_range_meters":23200,"station_id":"ce4bh2h2rcd13ifvqdh0","pricing_plan_id":"cebpf4jnsgd1na2vs0mg"},{"bike_id":"37d5f502-cf5f-495d-b627-3f985295414a","system_id":"levelo_inurba_marseille","lat":43.289468,"lon":5.363719,"is_reserved":false,"is_disabled":false,"rental_uris":{"android":"levelo://app?vid=37d5f502-cf5f-495d-b627-3f985295414a","ios":"levelo://app?vid=37d5f502-cf5f-495d-b627-3f985295414a"},"vehicle_type_id":"4","last_reported":1725901673,"current_range_meters":17200,"station_id":"ce4bhc92rcd13ifvqetg","pricing_plan_id":"cebpf4jnsgd1na2vs0mg"},{"bike_id":"3b9c9710-ffad-4625-ab8a-dcb14f3244c4","system_id":"levelo_inurba_marseille","lat":43.28939,"lon":5.36405,"is_reserved":false,"is_disabled":false,"rental_uris":{"android":"levelo://app?vid=3b9c9710-ffad-4625-ab8a-dcb14f3244c4","ios":"levelo://app?vid=3b9c9710-ffad-4625-ab8a-dcb14f3244c4"},"vehicle_type_id":"4","last_reported":1725901673,"current_range_meters":31200,"station_id":"ce4bhc92rcd13ifvqetg","pricing_plan_id":"cebpf4jnsgd1na2vs0mg"},{"bike_id":"818cb5e5-ccf2-4c06-a17b-bfff77631d13","system_id":"levelo_inurba_marseille","lat":43.28937,"lon":5.36391,"is_reserved":false,"is_disabled":false,"rental_uris":{"android":"levelo://app?vid=818cb5e5-ccf2-4c06-a17b-bfff77631d13","ios":"levelo://app?vid=818cb5e5-ccf2-4c06-a17b-bfff77631d13"},"vehicle_type_id":"4","last_reported":1725901673,"current_range_meters":0,"station_id":"ce4bhc92rcd13ifvqetg","pricing_plan_id":"cebpf4jnsgd1na2vs0mg"},{"bike_id":"bb26a935-c869-4fb9-819f-c62bbca2e981","system_id":"levelo_inurba_marseille","lat":43.292644,"lon":5.384257,"is_reserved":false,"is_disabled":false,"rental_uris":{"android":"levelo://app?vid=bb26a935-c869-4fb9-819f-c62bbca2e981","ios":"levelo://app?vid=bb26a935-c869-4fb9-819f-c62bbca2e981"},"vehicle_type_id":"4","last_reported":1725901673,"current_range_meters":4800,"station_id":"ce4bh692rcd13ifvqea0","pricing_plan_id":"cebpf4jnsgd1na2vs0mg"},{"bike_id":"1a81589b-c91c-4a3f-a10c-c22e1d20b99b","system_id":"levelo_inurba_marseille","lat":43.29267,"lon":5.38442,"is_reserved":false,"is_disabled":false,"rental_uris":{"android":"levelo://app?vid=1a81589b-c91c-4a3f-a10c-c22e1d20b99b","ios":"levelo://app?vid=1a81589b-c91c-4a3f-a10c-c22e1d20b99b"},"vehicle_type_id":"4","last_reported":1725901673,"current_range_meters":0,"station_id":"ce4bh692rcd13ifvqea0","pricing_plan_id":"cebpf4jnsgd1na2vs0mg"},{"bike_id":"7612359e-d1d1-483e-8070-2cfd17b9f400","system_id":"levelo_inurba_marseille","lat":43.29014,"lon":5.35614,"is_reserved":false,"is_disabled":false,"rental_uris":{"android":"levelo://app?vid=7612359e-d1d1-483e-8070-2cfd17b9f400","ios":"levelo://app?vid=7612359e-d1d1-483e-8070-2cfd17b9f400"},"vehicle_type_id":"4","last_reported":1725901673,"current_range_meters":18800,"station_id":"ce4bhb92rcd13ifvqen0","pricing_plan_id":"cebpf4jnsgd1na2vs0mg"},{"bike_id":"1e737cc7-c877-4dc5-93ca-70d4f7628b89","system_id":"levelo_inurba_marseille","lat":43.29009,"lon":5.35612,"is_reserved":false,"is_disabled":false,"rental_uris":{"android":"levelo://app?vid=1e737cc7-c877-4dc5-93ca-70d4f7628b89","ios":"levelo://app?vid=1e737cc7-c877-4dc5-93ca-70d4f7628b89"},"vehicle_type_id":"4","last_reported":1725901673,"current_range_meters":3600,"station_id":"ce4bhb92rcd13ifvqen0","pricing_plan_id":"cebpf4jnsgd1na2vs0mg"},{"bike_id":"e3d7d72b-2ab8-461a-a97e-24d91e0c4af8","system_id":"levelo_inurba_marseille","lat":43.290104,"lon":5.356111,"is_reserved":false,"is_disabled":false,"rental_uris":{"android":"levelo://app?vid=e3d7d72b-2ab8-461a-a97e-24d91e0c4af8","ios":"levelo://app?vid=e3d7d72b-2ab8-461a-a97e-24d91e0c4af8"},"vehicle_type_id":"4","last_reported":1725901673,"current_range_meters":15600,"station_id":"ce4bhb92rcd13ifvqen0","pricing_plan_id":"cebpf4jnsgd1na2vs0mg"},{"bike_id":"6b18605d-ed99-425a-8f23-39f4f4c6ed22","system_id":"levelo_inurba_marseille","lat":43.29007,"lon":5.35614,"is_reserved":false,"is_disabled":false,"rental_uris":{"android":"levelo://app?vid=6b18605d-ed99-425a-8f23-39f4f4c6ed22","ios":"levelo://app?vid=6b18605d-ed99-425a-8f23-39f4f4c6ed22"},"vehicle_type_id":"4","last_reported":1725901673,"current_range_meters":31600,"station_id":"ce4bhb92rcd13ifvqen0","pricing_plan_id":"cebpf4jnsgd1na2vs0mg"},{"bike_id":"cccc7174-12d9-4eea-be58-3f3ff9d44f18","system_id":"levelo_inurba_marseille","lat":43.290104,"lon":5.356111,"is_reserved":false,"is_disabled":false,"rental_uris":{"android":"levelo://app?vid=cccc7174-12d9-4eea-be58-3f3ff9d44f18","ios":"levelo://app?vid=cccc7174-12d9-4eea-be58-3f3ff9d44f18"},"vehicle_type_id":"4","last_reported":1725901673,"current_range_meters":12400,"station_id":"ce4bhb92rcd13ifvqen0","pricing_plan_id":"cebpf4jnsgd1na2vs0mg"},{"bike_id":"78e6e8af-b6d0-4e32-b37c-1dd80f08b2dd","system_id":"levelo_inurba_marseille","lat":43.29006,"lon":5.35613,"is_reserved":false,"is_disabled":false,"rental_uris":{"android":"levelo://app?vid=78e6e8af-b6d0-4e32-b37c-1dd80f08b2dd","ios":"levelo://app?vid=78e6e8af-b6d0-4e32-b37c-1dd80f08b2dd"},"vehicle_type_id":"4","last_reported":1725901673,"current_range_meters":15600,"station_id":"ce4bhb92rcd13ifvqen0","pricing_plan_id":"cebpf4jnsgd1na2vs0mg"},{"bike_id":"114fbfd7-d8a7-4a52-84fa-6d80349ecc1b","system_id":"levelo_inurba_marseille","lat":43.29005,"lon":5.35615,"is_reserved":false,"is_disabled":false,"rental_uris":{"android":"levelo://app?vid=114fbfd7-d8a7-4a52-84fa-6d80349ecc1b","ios":"levelo://app?vid=114fbfd7-d8a7-4a52-84fa-6d80349ecc1b"},"vehicle_type_id":"4","last_reported":1725901673,"current_range_meters":13200,"station_id":"ce4bhb92rcd13ifvqen0","pricing_plan_id":"cebpf4jnsgd1na2vs0mg"},{"bike_id":"de44c65e-03b3-4aeb-92c6-fe7705888321","system_id":"levelo_inurba_marseille","lat":43.29005,"lon":5.35609,"is_reserved":false,"is_disabled":false,"rental_uris":{"android":"levelo://app?vid=de44c65e-03b3-4aeb-92c6-fe7705888321","ios":"levelo://app?vid=de44c65e-03b3-4aeb-92c6-fe7705888321"},"vehicle_type_id":"4","last_reported":1725901673,"current_range_meters":30000,"station_id":"ce4bhb92rcd13ifvqen0","pricing_plan_id":"cebpf4jnsgd1na2vs0mg"},{"bike_id":"c0d6c92e-6dc4-432e-b742-723e1358eb08","system_id":"levelo_inurba_marseille","lat":43.290104,"lon":5.356111,"is_reserved":false,"is_disabled":false,"rental_uris":{"android":"levelo://app?vid=c0d6c92e-6dc4-432e-b742-723e1358eb08","ios":"levelo://app?vid=c0d6c92e-6dc4-432e-b742-723e1358eb08"},"vehicle_type_id":"4","last_reported":1725901673,"current_range_meters":31200,"station_id":"ce4bhb92rcd13ifvqen0","pricing_plan_id":"cebpf4jnsgd1na2vs0mg"},{"bike_id":"9d8b4366-ede7-421b-8f1c-253d58ee9a3e","system_id":"levelo_inurba_marseille","lat":43.290995,"lon":5.381361,"is_reserved":false,"is_disabled":false,"rental_uris":{"android":"levelo://app?vid=9d8b4366-ede7-421b-8f1c-253d58ee9a3e","ios":"levelo://app?vid=9d8b4366-ede7-421b-8f1c-253d58ee9a3e"},"vehicle_type_id":"4","last_reported":1725901673,"current_range_meters":28400,"station_id":"ce4bh512rcd13ifvqe2g","pricing_plan_id":"cebpf4jnsgd1na2vs0mg"},{"bike_id":"429b959d-d23e-44ef-9a6f-4db1076d954b","system_id":"levelo_inurba_marseille","lat":43.290995,"lon":5.381361,"is_reserved":false,"is_disabled":false,"rental_uris":{"android":"levelo://app?vid=429b959d-d23e-44ef-9a6f-4db1076d954b","ios":"levelo://app?vid=429b959d-d23e-44ef-9a6f-4db1076d954b"},"vehicle_type_id":"4","last_reported":1725901673,"current_range_meters":1200,"station_id":"ce4bh512rcd13ifvqe2g","pricing_plan_id":"cebpf4jnsgd1na2vs0mg"},{"bike_id":"80a7db97-b53f-49c1-ad3d-b367adfe3897","system_id":"levelo_inurba_marseille","lat":43.33017,"lon":5.39032,"is_reserved":false,"is_disabled":false,"rental_uris":{"android":"levelo://app?vid=80a7db97-b53f-49c1-ad3d-b367adfe3897","ios":"levelo://app?vid=80a7db97-b53f-49c1-ad3d-b367adfe3897"},"vehicle_type_id":"4","last_reported":1725901673,"current_range_meters":23600,"station_id":"ce4bhr92rcd13ifvqhrg","pricing_plan_id":"cebpf4jnsgd1na2vs0mg"},{"bike_id":"c3c16a53-79ec-4a0d-bf24-82464461d7fd","system_id":"levelo_inurba_marseille","lat":43.289741,"lon":5.378306,"is_reserved":false,"is_disabled":false,"rental_uris":{"android":"levelo://app?vid=c3c16a53-79ec-4a0d-bf24-82464461d7fd","ios":"levelo://app?vid=c3c16a53-79ec-4a0d-bf24-82464461d7fd"},"vehicle_type_id":"4","last_reported":1725901673,"current_range_meters":3600,"station_id":"ce4bh9p2rcd13ifvqed0","pricing_plan_id":"cebpf4jnsgd1na2vs0mg"},{"bike_id":"b8db1939-389c-4999-ad17-8bc1f03cba43","system_id":"levelo_inurba_marseille","lat":43.33017,"lon":5.39039,"is_reserved":false,"is_disabled":false,"rental_uris":{"android":"levelo://app?vid=b8db1939-389c-4999-ad17-8bc1f03cba43","ios":"levelo://app?vid=b8db1939-389c-4999-ad17-8bc1f03cba43"},"vehicle_type_id":"4","last_reported":1725901673,"current_range_meters":28000,"station_id":"ce4bhr92rcd13ifvqhrg","pricing_plan_id":"cebpf4jnsgd1na2vs0mg"},{"bike_id":"b067ff20-3c27-4a0e-98d9-13a2e6457459","system_id":"levelo_inurba_marseille","lat":43.297815,"lon":5.393548,"is_reserved":false,"is_disabled":false,"rental_uris":{"android":"levelo://app?vid=b067ff20-3c27-4a0e-98d9-13a2e6457459","ios":"levelo://app?vid=b067ff20-3c27-4a0e-98d9-13a2e6457459"},"vehicle_type_id":"4","last_reported":1725901673,"current_range_meters":29200,"station_id":"chh1huq6cuj3fo74tm60","pricing_plan_id":"cebpf4jnsgd1na2vs0mg"},{"bike_id":"6db48375-30b5-4d19-8578-2d01ac1e90f8","system_id":"levelo_inurba_marseille","lat":43.29515,"lon":5.3902,"is_reserved":false,"is_disabled":false,"rental_uris":{"android":"levelo://app?vid=6db48375-30b5-4d19-8578-2d01ac1e90f8","ios":"levelo://app?vid=6db48375-30b5-4d19-8578-2d01ac1e90f8"},"vehicle_type_id":"4","last_reported":1725901673,"current_range_meters":800,"station_id":"ce4bh3p2rcd13ifvqdp0","pricing_plan_id":"cebpf4jnsgd1na2vs0mg"},{"bike_id":"bf7e9ead-a3b5-4253-a2b0-f75e4997bbb2","system_id":"levelo_inurba_marseille","lat":43.33025,"lon":5.39033,"is_reserved":false,"is_disabled":false,"rental_uris":{"android":"levelo://app?vid=bf7e9ead-a3b5-4253-a2b0-f75e4997bbb2","ios":"levelo://app?vid=bf7e9ead-a3b5-4253-a2b0-f75e4997bbb2"},"vehicle_type_id":"4","last_reported":1725901673,"current_range_meters":8400,"station_id":"ce4bhr92rcd13ifvqhrg","pricing_plan_id":"cebpf4jnsgd1na2vs0mg"},{"bike_id":"58b65d15-0aef-4913-a6b5-72845112dc04","system_id":"levelo_inurba_marseille","lat":43.33024,"lon":5.39037,"is_reserved":false,"is_disabled":false,"rental_uris":{"android":"levelo://app?vid=58b65d15-0aef-4913-a6b5-72845112dc04","ios":"levelo://app?vid=58b65d15-0aef-4913-a6b5-72845112dc04"},"vehicle_type_id":"4","last_reported":1725901673,"current_range_meters":16800,"station_id":"ce4bhr92rcd13ifvqhrg","pricing_plan_id":"cebpf4jnsgd1na2vs0mg"},{"bike_id":"63d5b0c4-3335-4a1e-a226-5180e0c65906","system_id":"levelo_inurba_marseille","lat":43.330442,"lon":5.389148,"is_reserved":false,"is_disabled":false,"rental_uris":{"android":"levelo://app?vid=63d5b0c4-3335-4a1e-a226-5180e0c65906","ios":"levelo://app?vid=63d5b0c4-3335-4a1e-a226-5180e0c65906"},"vehicle_type_id":"4","last_reported":1725901673,"current_range_meters":32000,"station_id":"ce4bhr92rcd13ifvqhrg","pricing_plan_id":"cebpf4jnsgd1na2vs0mg"},{"bike_id":"8b58d131-e3b9-4392-9dfe-300e5e053894","system_id":"levelo_inurba_marseille","lat":43.330442,"lon":5.389148,"is_reserved":false,"is_disabled":false,"rental_uris":{"android":"levelo://app?vid=8b58d131-e3b9-4392-9dfe-300e5e053894","ios":"levelo://app?vid=8b58d131-e3b9-4392-9dfe-300e5e053894"},"vehicle_type_id":"4","last_reported":1725901673,"current_range_meters":31200,"station_id":"ce4bhr92rcd13ifvqhrg","pricing_plan_id":"cebpf4jnsgd1na2vs0mg"},{"bike_id":"be75ad2e-8ffc-46fa-9e59-6ecc387364ae","system_id":"levelo_inurba_marseille","lat":43.33022,"lon":5.39042,"is_reserved":false,"is_disabled":false,"rental_uris":{"android":"levelo://app?vid=be75ad2e-8ffc-46fa-9e59-6ecc387364ae","ios":"levelo://app?vid=be75ad2e-8ffc-46fa-9e59-6ecc387364ae"},"vehicle_type_id":"4","last_reported":1725901673,"current_range_meters":29600,"station_id":"ce4bhr92rcd13ifvqhrg","pricing_plan_id":"cebpf4jnsgd1na2vs0mg"},{"bike_id":"ffb83df5-3145-4c4b-a701-c52b5fca6397","system_id":"levelo_inurba_marseille","lat":43.33025,"lon":5.39038,"is_reserved":false,"is_disabled":false,"rental_uris":{"android":"levelo://app?vid=ffb83df5-3145-4c4b-a701-c52b5fca6397","ios":"levelo://app?vid=ffb83df5-3145-4c4b-a701-c52b5fca6397"},"vehicle_type_id":"4","last_reported":1725901673,"current_range_meters":19600,"station_id":"ce4bhr92rcd13ifvqhrg","pricing_plan_id":"cebpf4jnsgd1na2vs0mg"},{"bike_id":"ef4c5952-b63d-453c-990b-69ed3bb7c90f","system_id":"levelo_inurba_marseille","lat":43.330442,"lon":5.389148,"is_reserved":false,"is_disabled":false,"rental_uris":{"android":"levelo://app?vid=ef4c5952-b63d-453c-990b-69ed3bb7c90f","ios":"levelo://app?vid=ef4c5952-b63d-453c-990b-69ed3bb7c90f"},"vehicle_type_id":"4","last_reported":1725901673,"current_range_meters":7600,"station_id":"ce4bhr92rcd13ifvqhrg","pricing_plan_id":"cebpf4jnsgd1na2vs0mg"},{"bike_id":"2e199cde-9f43-4d17-9693-eea30c42b3ee","system_id":"levelo_inurba_marseille","lat":43.330442,"lon":5.389148,"is_reserved":false,"is_disabled":false,"rental_uris":{"android":"levelo://app?vid=2e199cde-9f43-4d17-9693-eea30c42b3ee","ios":"levelo://app?vid=2e199cde-9f43-4d17-9693-eea30c42b3ee"},"vehicle_type_id":"4","last_reported":1725901673,"current_range_meters":17600,"station_id":"ce4bhr92rcd13ifvqhrg","pricing_plan_id":"cebpf4jnsgd1na2vs0mg"},{"bike_id":"264e4be5-ddf7-4d61-8aaf-924999c1f260","system_id":"levelo_inurba_marseille","lat":43.33026,"lon":5.3904,"is_reserved":false,"is_disabled":false,"rental_uris":{"android":"levelo://app?vid=264e4be5-ddf7-4d61-8aaf-924999c1f260","ios":"levelo://app?vid=264e4be5-ddf7-4d61-8aaf-924999c1f260"},"vehicle_type_id":"4","last_reported":1725901673,"current_range_meters":4400,"station_id":"ce4bhr92rcd13ifvqhrg","pricing_plan_id":"cebpf4jnsgd1na2vs0mg"},{"bike_id":"10ffbc41-1b66-4004-a9a7-5eb173190009","system_id":"levelo_inurba_marseille","lat":43.330442,"lon":5.389148,"is_reserved":false,"is_disabled":false,"rental_uris":{"android":"levelo://app?vid=10ffbc41-1b66-4004-a9a7-5eb173190009","ios":"levelo://app?vid=10ffbc41-1b66-4004-a9a7-5eb173190009"},"vehicle_type_id":"4","last_reported":1725901673,"current_range_meters":22800,"station_id":"ce4bhr92rcd13ifvqhrg","pricing_plan_id":"cebpf4jnsgd1na2vs0mg"},{"bike_id":"a50e0854-fbd0-4f21-a51a-23ab6d13f904","system_id":"levelo_inurba_marseille","lat":43.330442,"lon":5.389148,"is_reserved":false,"is_disabled":false,"rental_uris":{"android":"levelo://app?vid=a50e0854-fbd0-4f21-a51a-23ab6d13f904","ios":"levelo://app?vid=a50e0854-fbd0-4f21-a51a-23ab6d13f904"},"vehicle_type_id":"4","last_reported":1725901673,"current_range_meters":12400,"station_id":"ce4bhr92rcd13ifvqhrg","pricing_plan_id":"cebpf4jnsgd1na2vs0mg"},{"bike_id":"f2df8de7-9b00-427b-9d8d-a103c4866601","system_id":"levelo_inurba_marseille","lat":43.295169,"lon":5.390426,"is_reserved":false,"is_disabled":false,"rental_uris":{"android":"levelo://app?vid=f2df8de7-9b00-427b-9d8d-a103c4866601","ios":"levelo://app?vid=f2df8de7-9b00-427b-9d8d-a103c4866601"},"vehicle_type_id":"4","last_reported":1725901673,"current_range_meters":31200,"station_id":"ce4bh3p2rcd13ifvqdp0","pricing_plan_id":"cebpf4jnsgd1na2vs0mg"},{"bike_id":"e3e7a85d-4bc3-44f1-a9c3-de4ce1680498","system_id":"levelo_inurba_marseille","lat":43.330442,"lon":5.389148,"is_reserved":false,"is_disabled":false,"rental_uris":{"android":"levelo://app?vid=e3e7a85d-4bc3-44f1-a9c3-de4ce1680498","ios":"levelo://app?vid=e3e7a85d-4bc3-44f1-a9c3-de4ce1680498"},"vehicle_type_id":"4","last_reported":1725901673,"current_range_meters":12800,"station_id":"ce4bhr92rcd13ifvqhrg","pricing_plan_id":"cebpf4jnsgd1na2vs0mg"},{"bike_id":"fdbb8264-43e5-4f54-a383-18ec69791a59","system_id":"levelo_inurba_marseille","lat":43.326605,"lon":5.409903,"is_reserved":false,"is_disabled":false,"rental_uris":{"android":"levelo://app?vid=fdbb8264-43e5-4f54-a383-18ec69791a59","ios":"levelo://app?vid=fdbb8264-43e5-4f54-a383-18ec69791a59"},"vehicle_type_id":"4","last_reported":1725901673,"current_range_meters":12800,"station_id":"ce4bhpp2rcd13ifvqhgg","pricing_plan_id":"cebpf4jnsgd1na2vs0mg"},{"bike_id":"469a7bd7-6090-4634-84cf-52e00c4c739a","system_id":"levelo_inurba_marseille","lat":43.290094,"lon":5.381264,"is_reserved":false,"is_disabled":false,"rental_uris":{"android":"levelo://app?vid=469a7bd7-6090-4634-84cf-52e00c4c739a","ios":"levelo://app?vid=469a7bd7-6090-4634-84cf-52e00c4c739a"},"vehicle_type_id":"4","last_reported":1725901673,"current_range_meters":25200,"station_id":"ce4bh4p2rcd13ifvqe1g","pricing_plan_id":"cebpf4jnsgd1na2vs0mg"},{"bike_id":"23513748-c462-4bfe-88ab-3dd7468dfb4a","system_id":"levelo_inurba_marseille","lat":43.2901,"lon":5.381269,"is_reserved":false,"is_disabled":false,"rental_uris":{"android":"levelo://app?vid=23513748-c462-4bfe-88ab-3dd7468dfb4a","ios":"levelo://app?vid=23513748-c462-4bfe-88ab-3dd7468dfb4a"},"vehicle_type_id":"4","last_reported":1725901673,"current_range_meters":0,"station_id":"ce4bh4p2rcd13ifvqe1g","pricing_plan_id":"cebpf4jnsgd1na2vs0mg"},{"bike_id":"0441f92e-c85c-4d1d-a5c4-7355670a557d","system_id":"levelo_inurba_marseille","lat":43.28856,"lon":5.358371,"is_reserved":false,"is_disabled":false,"rental_uris":{"android":"levelo://app?vid=0441f92e-c85c-4d1d-a5c4-7355670a557d","ios":"levelo://app?vid=0441f92e-c85c-4d1d-a5c4-7355670a557d"},"vehicle_type_id":"4","last_reported":1725901673,"current_range_meters":21200,"station_id":"ce4bhb12rcd13ifvqem0","pricing_plan_id":"cebpf4jnsgd1na2vs0mg"},{"bike_id":"db522072-ef55-447c-acb7-981a08240828","system_id":"levelo_inurba_marseille","lat":43.28783,"lon":5.36577,"is_reserved":false,"is_disabled":false,"rental_uris":{"android":"levelo://app?vid=db522072-ef55-447c-acb7-981a08240828","ios":"levelo://app?vid=db522072-ef55-447c-acb7-981a08240828"},"vehicle_type_id":"4","last_reported":1725901673,"current_range_meters":23200,"station_id":"","pricing_plan_id":"cebpf4jnsgd1na2vs0mg"},{"bike_id":"478e9319-cba9-4fa6-acda-db749f5265f2","system_id":"levelo_inurba_marseille","lat":43.28856,"lon":5.358371,"is_reserved":false,"is_disabled":false,"rental_uris":{"android":"levelo://app?vid=478e9319-cba9-4fa6-acda-db749f5265f2","ios":"levelo://app?vid=478e9319-cba9-4fa6-acda-db749f5265f2"},"vehicle_type_id":"4","last_reported":1725901673,"current_range_meters":1600,"station_id":"ce4bhb12rcd13ifvqem0","pricing_plan_id":"cebpf4jnsgd1na2vs0mg"},{"bike_id":"205cd98c-d590-4de5-957e-cdedfcbbd531","system_id":"levelo_inurba_marseille","lat":43.28856,"lon":5.358371,"is_reserved":false,"is_disabled":false,"rental_uris":{"android":"levelo://app?vid=205cd98c-d590-4de5-957e-cdedfcbbd531","ios":"levelo://app?vid=205cd98c-d590-4de5-957e-cdedfcbbd531"},"vehicle_type_id":"4","last_reported":1725901673,"current_range_meters":4400,"station_id":"ce4bhb12rcd13ifvqem0","pricing_plan_id":"cebpf4jnsgd1na2vs0mg"},{"bike_id":"7333e555-ae7a-4ef2-b43d-ac3b352f6ccf","system_id":"levelo_inurba_marseille","lat":43.312609,"lon":5.401662,"is_reserved":false,"is_disabled":false,"rental_uris":{"android":"levelo://app?vid=7333e555-ae7a-4ef2-b43d-ac3b352f6ccf","ios":"levelo://app?vid=7333e555-ae7a-4ef2-b43d-ac3b352f6ccf"},"vehicle_type_id":"4","last_reported":1725901673,"current_range_meters":12800,"station_id":"ce4bh092rcd13ifvqd30","pricing_plan_id":"cebpf4jnsgd1na2vs0mg"},{"bike_id":"1a67946f-169f-4967-864d-efd552ecee21","system_id":"levelo_inurba_marseille","lat":43.28856,"lon":5.358371,"is_reserved":false,"is_disabled":false,"rental_uris":{"android":"levelo://app?vid=1a67946f-169f-4967-864d-efd552ecee21","ios":"levelo://app?vid=1a67946f-169f-4967-864d-efd552ecee21"},"vehicle_type_id":"4","last_reported":1725901673,"current_range_meters":30000,"station_id":"ce4bhb12rcd13ifvqem0","pricing_plan_id":"cebpf4jnsgd1na2vs0mg"},{"bike_id":"0ff1f9c7-7a03-4d02-b798-7e48c2c34d92","system_id":"levelo_inurba_marseille","lat":43.28851,"lon":5.35825,"is_reserved":false,"is_disabled":false,"rental_uris":{"android":"levelo://app?vid=0ff1f9c7-7a03-4d02-b798-7e48c2c34d92","ios":"levelo://app?vid=0ff1f9c7-7a03-4d02-b798-7e48c2c34d92"},"vehicle_type_id":"4","last_reported":1725901673,"current_range_meters":31200,"station_id":"ce4bhb12rcd13ifvqem0","pricing_plan_id":"cebpf4jnsgd1na2vs0mg"},{"bike_id":"18716a9b-ada4-4c62-a8ad-411dbf8c6d8b","system_id":"levelo_inurba_marseille","lat":43.337416,"lon":5.374579,"is_reserved":false,"is_disabled":false,"rental_uris":{"android":"levelo://app?vid=18716a9b-ada4-4c62-a8ad-411dbf8c6d8b","ios":"levelo://app?vid=18716a9b-ada4-4c62-a8ad-411dbf8c6d8b"},"vehicle_type_id":"4","last_reported":1725901673,"current_range_meters":17200,"station_id":"","pricing_plan_id":"cebpf4jnsgd1na2vs0mg"},{"bike_id":"a8d30661-3929-470d-8e48-791789ff2b3f","system_id":"levelo_inurba_marseille","lat":43.33756,"lon":5.374518,"is_reserved":false,"is_disabled":false,"rental_uris":{"android":"levelo://app?vid=a8d30661-3929-470d-8e48-791789ff2b3f","ios":"levelo://app?vid=a8d30661-3929-470d-8e48-791789ff2b3f"},"vehicle_type_id":"4","last_reported":1725901673,"current_range_meters":30400,"station_id":"","pricing_plan_id":"cebpf4jnsgd1na2vs0mg"},{"bike_id":"d7fbe93c-a3da-4eab-bd1f-cd834108d146","system_id":"levelo_inurba_marseille","lat":43.33761,"lon":5.37461,"is_reserved":false,"is_disabled":false,"rental_uris":{"android":"levelo://app?vid=d7fbe93c-a3da-4eab-bd1f-cd834108d146","ios":"levelo://app?vid=d7fbe93c-a3da-4eab-bd1f-cd834108d146"},"vehicle_type_id":"4","last_reported":1725901673,"current_range_meters":27600,"station_id":"","pricing_plan_id":"cebpf4jnsgd1na2vs0mg"},{"bike_id":"7deab1b1-bb4f-4e22-92fb-9076dfd5a0e6","system_id":"levelo_inurba_marseille","lat":43.33759,"lon":5.37479,"is_reserved":false,"is_disabled":false,"rental_uris":{"android":"levelo://app?vid=7deab1b1-bb4f-4e22-92fb-9076dfd5a0e6","ios":"levelo://app?vid=7deab1b1-bb4f-4e22-92fb-9076dfd5a0e6"},"vehicle_type_id":"4","last_reported":1725901673,"current_range_meters":24000,"station_id":"","pricing_plan_id":"cebpf4jnsgd1na2vs0mg"},{"bike_id":"ba8272d9-3189-4abc-9ebf-f37f6a541912","system_id":"levelo_inurba_marseille","lat":43.306332,"lon":5.40088,"is_reserved":false,"is_disabled":false,"rental_uris":{"android":"levelo://app?vid=ba8272d9-3189-4abc-9ebf-f37f6a541912","ios":"levelo://app?vid=ba8272d9-3189-4abc-9ebf-f37f6a541912"},"vehicle_type_id":"4","last_reported":1725901673,"current_range_meters":23600,"station_id":"ce4bh112rcd13ifvqda0","pricing_plan_id":"cebpf4jnsgd1na2vs0mg"},{"bike_id":"866cd880-e098-4b0c-8f94-bd65e5c38c37","system_id":"levelo_inurba_marseille","lat":43.306412,"lon":5.401035,"is_reserved":false,"is_disabled":false,"rental_uris":{"android":"levelo://app?vid=866cd880-e098-4b0c-8f94-bd65e5c38c37","ios":"levelo://app?vid=866cd880-e098-4b0c-8f94-bd65e5c38c37"},"vehicle_type_id":"4","last_reported":1725901673,"current_range_meters":14000,"station_id":"ce4bh112rcd13ifvqda0","pricing_plan_id":"cebpf4jnsgd1na2vs0mg"},{"bike_id":"98b12773-73d6-4dae-99a7-4dc390235c8b","system_id":"levelo_inurba_marseille","lat":43.337696,"lon":5.374747,"is_reserved":false,"is_disabled":false,"rental_uris":{"android":"levelo://app?vid=98b12773-73d6-4dae-99a7-4dc390235c8b","ios":"levelo://app?vid=98b12773-73d6-4dae-99a7-4dc390235c8b"},"vehicle_type_id":"4","last_reported":1725901673,"current_range_meters":26400,"station_id":"","pricing_plan_id":"cebpf4jnsgd1na2vs0mg"},{"bike_id":"d776016a-b243-40a8-ade3-4d68aa18d078","system_id":"levelo_inurba_marseille","lat":43.301117,"lon":5.398795,"is_reserved":false,"is_disabled":false,"rental_uris":{"android":"levelo://app?vid=d776016a-b243-40a8-ade3-4d68aa18d078","ios":"levelo://app?vid=d776016a-b243-40a8-ade3-4d68aa18d078"},"vehicle_type_id":"4","last_reported":1725901673,"current_range_meters":0,"station_id":"ce4bh0h2rcd13ifvqd40","pricing_plan_id":"cebpf4jnsgd1na2vs0mg"},{"bike_id":"57411280-34a4-4e71-8641-afd503b45964","system_id":"levelo_inurba_marseille","lat":43.3014,"lon":5.39865,"is_reserved":false,"is_disabled":false,"rental_uris":{"android":"levelo://app?vid=57411280-34a4-4e71-8641-afd503b45964","ios":"levelo://app?vid=57411280-34a4-4e71-8641-afd503b45964"},"vehicle_type_id":"4","last_reported":1725901673,"current_range_meters":30400,"station_id":"ce4bh0h2rcd13ifvqd40","pricing_plan_id":"cebpf4jnsgd1na2vs0mg"},{"bike_id":"93708c43-80bc-4a1d-9a82-7b866a4fba26","system_id":"levelo_inurba_marseille","lat":43.301117,"lon":5.398795,"is_reserved":false,"is_disabled":false,"rental_uris":{"android":"levelo://app?vid=93708c43-80bc-4a1d-9a82-7b866a4fba26","ios":"levelo://app?vid=93708c43-80bc-4a1d-9a82-7b866a4fba26"},"vehicle_type_id":"4","last_reported":1725901673,"current_range_meters":10000,"station_id":"ce4bh0h2rcd13ifvqd40","pricing_plan_id":"cebpf4jnsgd1na2vs0mg"},{"bike_id":"c0a6c0cb-49da-4085-9260-ec019431f8c6","system_id":"levelo_inurba_marseille","lat":43.301117,"lon":5.398795,"is_reserved":false,"is_disabled":false,"rental_uris":{"android":"levelo://app?vid=c0a6c0cb-49da-4085-9260-ec019431f8c6","ios":"levelo://app?vid=c0a6c0cb-49da-4085-9260-ec019431f8c6"},"vehicle_type_id":"4","last_reported":1725901673,"current_range_meters":8800,"station_id":"ce4bh0h2rcd13ifvqd40","pricing_plan_id":"cebpf4jnsgd1na2vs0mg"},{"bike_id":"1c68582d-af8e-4ca8-a0d2-cd7058a22c9c","system_id":"levelo_inurba_marseille","lat":43.30124,"lon":5.39866,"is_reserved":false,"is_disabled":false,"rental_uris":{"android":"levelo://app?vid=1c68582d-af8e-4ca8-a0d2-cd7058a22c9c","ios":"levelo://app?vid=1c68582d-af8e-4ca8-a0d2-cd7058a22c9c"},"vehicle_type_id":"4","last_reported":1725901673,"current_range_meters":9600,"station_id":"ce4bh0h2rcd13ifvqd40","pricing_plan_id":"cebpf4jnsgd1na2vs0mg"},{"bike_id":"5d60bb3e-04c1-4d90-a32f-97b0c910266b","system_id":"levelo_inurba_marseille","lat":43.301117,"lon":5.398795,"is_reserved":false,"is_disabled":false,"rental_uris":{"android":"levelo://app?vid=5d60bb3e-04c1-4d90-a32f-97b0c910266b","ios":"levelo://app?vid=5d60bb3e-04c1-4d90-a32f-97b0c910266b"},"vehicle_type_id":"4","last_reported":1725901673,"current_range_meters":16800,"station_id":"ce4bh0h2rcd13ifvqd40","pricing_plan_id":"cebpf4jnsgd1na2vs0mg"},{"bike_id":"4a8aa6ef-c59d-45ae-b3aa-ea6761e2757a","system_id":"levelo_inurba_marseille","lat":43.286591,"lon":5.363346,"is_reserved":false,"is_disabled":false,"rental_uris":{"android":"levelo://app?vid=4a8aa6ef-c59d-45ae-b3aa-ea6761e2757a","ios":"levelo://app?vid=4a8aa6ef-c59d-45ae-b3aa-ea6761e2757a"},"vehicle_type_id":"4","last_reported":1725901673,"current_range_meters":14000,"station_id":"ce4bhah2rcd13ifvqej0","pricing_plan_id":"cebpf4jnsgd1na2vs0mg"},{"bike_id":"85e11164-c7ae-40ff-a368-419b6f5a8aa9","system_id":"levelo_inurba_marseille","lat":43.298681,"lon":5.397225,"is_reserved":false,"is_disabled":false,"rental_uris":{"android":"levelo://app?vid=85e11164-c7ae-40ff-a368-419b6f5a8aa9","ios":"levelo://app?vid=85e11164-c7ae-40ff-a368-419b6f5a8aa9"},"vehicle_type_id":"4","last_reported":1725901673,"current_range_meters":10000,"station_id":"ce4bh0h2rcd13ifvqd50","pricing_plan_id":"cebpf4jnsgd1na2vs0mg"},{"bike_id":"2f3f68bb-da0e-4a40-9ce6-68e32fe435e4","system_id":"levelo_inurba_marseille","lat":43.287063,"lon":5.373913,"is_reserved":false,"is_disabled":false,"rental_uris":{"android":"levelo://app?vid=2f3f68bb-da0e-4a40-9ce6-68e32fe435e4","ios":"levelo://app?vid=2f3f68bb-da0e-4a40-9ce6-68e32fe435e4"},"vehicle_type_id":"4","last_reported":1725901673,"current_range_meters":0,"station_id":"ce4bh3p2rcd13ifvqdq0","pricing_plan_id":"cebpf4jnsgd1na2vs0mg"},{"bike_id":"1d3b2e15-2d5b-44a2-916e-d4849399e66e","system_id":"levelo_inurba_marseille","lat":43.28668,"lon":5.36352,"is_reserved":false,"is_disabled":false,"rental_uris":{"android":"levelo://app?vid=1d3b2e15-2d5b-44a2-916e-d4849399e66e","ios":"levelo://app?vid=1d3b2e15-2d5b-44a2-916e-d4849399e66e"},"vehicle_type_id":"4","last_reported":1725901673,"current_range_meters":2000,"station_id":"ce4bhah2rcd13ifvqej0","pricing_plan_id":"cebpf4jnsgd1na2vs0mg"},{"bike_id":"dca1c900-b7d7-47f4-815f-e716cb7c7073","system_id":"levelo_inurba_marseille","lat":43.298681,"lon":5.397225,"is_reserved":false,"is_disabled":false,"rental_uris":{"android":"levelo://app?vid=dca1c900-b7d7-47f4-815f-e716cb7c7073","ios":"levelo://app?vid=dca1c900-b7d7-47f4-815f-e716cb7c7073"},"vehicle_type_id":"4","last_reported":1725901673,"current_range_meters":4800,"station_id":"ce4bh0h2rcd13ifvqd50","pricing_plan_id":"cebpf4jnsgd1na2vs0mg"},{"bike_id":"040748ea-df73-45ba-a052-748e85bf1b51","system_id":"levelo_inurba_marseille","lat":43.298681,"lon":5.397225,"is_reserved":false,"is_disabled":false,"rental_uris":{"android":"levelo://app?vid=040748ea-df73-45ba-a052-748e85bf1b51","ios":"levelo://app?vid=040748ea-df73-45ba-a052-748e85bf1b51"},"vehicle_type_id":"4","last_reported":1725901673,"current_range_meters":10000,"station_id":"ce4bh0h2rcd13ifvqd50","pricing_plan_id":"cebpf4jnsgd1na2vs0mg"},{"bike_id":"9528309b-475c-45c5-a9c4-cdb1f47aa85d","system_id":"levelo_inurba_marseille","lat":43.28704,"lon":5.37397,"is_reserved":false,"is_disabled":false,"rental_uris":{"android":"levelo://app?vid=9528309b-475c-45c5-a9c4-cdb1f47aa85d","ios":"levelo://app?vid=9528309b-475c-45c5-a9c4-cdb1f47aa85d"},"vehicle_type_id":"4","last_reported":1725901673,"current_range_meters":30800,"station_id":"ce4bh3p2rcd13ifvqdq0","pricing_plan_id":"cebpf4jnsgd1na2vs0mg"},{"bike_id":"d794e6a1-cceb-418b-9cc4-b08d4010225e","system_id":"levelo_inurba_marseille","lat":43.28703,"lon":5.374,"is_reserved":false,"is_disabled":false,"rental_uris":{"android":"levelo://app?vid=d794e6a1-cceb-418b-9cc4-b08d4010225e","ios":"levelo://app?vid=d794e6a1-cceb-418b-9cc4-b08d4010225e"},"vehicle_type_id":"4","last_reported":1725901673,"current_range_meters":31600,"station_id":"ce4bh3p2rcd13ifvqdq0","pricing_plan_id":"cebpf4jnsgd1na2vs0mg"},