{"last_updated":1732414976,"ttl":60,"version":"2.2","data":{"bikes":[{"bike_id":"84fb710c-0532-4559-8e73-7dc1977915be","system_id":"levelo_inurba_marseille","lat":43.2809,"lon":5.39664,"is_reserved":false,"is_disabled":false,"rental_uris":{"android":"levelo://app?vid=84fb710c-0532-4559-8e73-7dc1977915be","ios":"levelo://app?vid=84fb710c-0532-4559-8e73-7dc1977915be"},"vehicle_type_id":"4","last_reported":1732414977,"current_range_meters":38800,"station_id":"ce4bho12rcd13ifvqh2g","pricing_plan_id":"cebpf4jnsgd1na2vs0mg"},{"bike_id":"9a592002-11fb-4de6-a5a9-2040f17876bf","system_id":"levelo_inurba_marseille","lat":43.32526,"lon":5.4147,"is_reserved":false,"is_disabled":false,"rental_uris":{"android":"levelo://app?vid=9a592002-11fb-4de6-a5a9-2040f17876bf","ios":"levelo://app?vid=9a592002-11fb-4de6-a5a9-2040f17876bf"},"vehicle_type_id":"4","last_reported":1732414977,"current_range_meters":38800,"station_id":"ce4bhq12rcd13ifvqhhg","pricing_plan_id":"cebpf4jnsgd1na2vs0mg"},{"bike_id":"acac9b87-b7a3-4884-a3ec-daf058d51c41","system_id":"levelo_inurba_marseille","lat":43.29917,"lon":5.36551,"is_reserved":false,"is_disabled":false,"rental_uris":{"android":"levelo://app?vid=acac9b87-b7a3-4884-a3ec-daf058d51c41","ios":"levelo://app?vid=acac9b87-b7a3-4884-a3ec-daf058d51c41"},"vehicle_type_id":"4","last_reported":1732414977,"current_range_meters":26000,"station_id":"ce4bgm92rcd13ifvqbr0","pricing_plan_id":"cebpf4jnsgd1na2vs0mg"},{"bike_id":"7fdd3474-9bf6-4148-979e-5c8270968ce3","system_id":"levelo_inurba_marseille","lat":43.24075,"lon":5.37756,"is_reserved":false,"is_disabled":false,"rental_uris":{"android":"levelo://app?vid=7fdd3474-9bf6-4148-979e-5c8270968ce3","ios":"levelo://app?vid=7fdd3474-9bf6-4148-979e-5c8270968ce3"},"vehicle_type_id":"4","last_reported":1732414977,"current_range_meters":33600,"station_id":"ce4bhnp2rcd13ifvqgvg","pricing_plan_id":"cebpf4jnsgd1na2vs0mg"},{"bike_id":"3f337f94-0e60-427f-948f-79213675a8c4","system_id":"levelo_inurba_marseille","lat":43.24065,"lon":5.37764,"is_reserved":false,"is_disabled":false,"rental_uris":{"android":"levelo://app?vid=3f337f94-0e60-427f-948f-79213675a8c4","ios":"levelo://app?vid=3f337f94-0e60-427f-948f-79213675a8c4"},"vehicle_type_id":"4","last_reported":1732414977,"current_range_meters":16800,"station_id":"ce4bhnp2rcd13ifvqgvg","pricing_plan_id":"cebpf4jnsgd1na2vs0mg"},{"bike_id":"5a6448fb-3935-4990-b253-8082d8c73969","system_id":"levelo_inurba_marseille","lat":43.29203,"lon":5.35773,"is_reserved":false,"is_disabled":false,"rental_uris":{"android":"levelo://app?vid=5a6448fb-3935-4990-b253-8082d8c73969","ios":"levelo://app?vid=5a6448fb-3935-4990-b253-8082d8c73969"},"vehicle_type_id":"4","last_reported":1732414977,"current_range_meters":13600,"station_id":"ce4bhb12rcd13ifvqel0","pricing_plan_id":"cebpf4jnsgd1na2vs0mg"},{"bike_id":"9bd1354e-51da-4fa9-a96c-36b52a5aa34b","system_id":"levelo_inurba_marseille","lat":43.27376,"lon":5.36257,"is_reserved":false,"is_disabled":false,"rental_uris":{"android":"levelo://app?vid=9bd1354e-51da-4fa9-a96c-36b52a5aa34b","ios":"levelo://app?vid=9bd1354e-51da-4fa9-a96c-36b52a5aa34b"},"vehicle_type_id":"4","last_reported":1732414977,"current_range_meters":25200,"station_id":"ce4bhbh2rcd13ifvqeo0","pricing_plan_id":"cebpf4jnsgd1na2vs0mg"},{"bike_id":"fe7dea4e-d632-4642-aee0-92c00a764691","system_id":"levelo_inurba_marseille","lat":43.30132,"lon":5.38809,"is_reserved":false,"is_disabled":true,"rental_uris":{"android":"levelo://app?vid=fe7dea4e-d632-4642-aee0-92c00a764691","ios":"levelo://app?vid=fe7dea4e-d632-4642-aee0-92c00a764691"},"vehicle_type_id":"4","last_reported":1732414977,"current_range_meters":36800,"station_id":"ce4bghh2rcd13ifvqb60","pricing_plan_id":"cebpf4jnsgd1na2vs0mg"},{"bike_id":"65f0f79e-6416-4e06-a098-6129d5e1a4c3","system_id":"levelo_inurba_marseille","lat":43.31165,"lon":5.387,"is_reserved":false,"is_disabled":false,"rental_uris":{"android":"levelo://app?vid=65f0f79e-6416-4e06-a098-6129d5e1a4c3","ios":"levelo://app?vid=65f0f79e-6416-4e06-a098-6129d5e1a4c3"},"vehicle_type_id":"4","last_reported":1732414977,"current_range_meters":38800,"station_id":"ce4bgv12rcd13ifvqcp0","pricing_plan_id":"cebpf4jnsgd1na2vs0mg"},{"bike_id":"2e118e2b-14ed-4beb-b59c-77da8b96348c","system_id":"levelo_inurba_marseille","lat":43.26952,"lon":5.38635,"is_reserved":false,"is_disabled":false,"rental_uris":{"android":"levelo://app?vid=2e118e2b-14ed-4beb-b59c-77da8b96348c","ios":"levelo://app?vid=2e118e2b-14ed-4beb-b59c-77da8b96348c"},"vehicle_type_id":"4","last_reported":1732414977,"current_range_meters":28000,"station_id":"ce4bhh92rcd13ifvqfh0","pricing_plan_id":"cebpf4jnsgd1na2vs0mg"},{"bike_id":"819705ac-445c-490e-b0a2-e8b996a35892","system_id":"levelo_inurba_marseille","lat":43.26691,"lon":5.38273,"is_reserved":false,"is_disabled":false,"rental_uris":{"android":"levelo://app?vid=819705ac-445c-490e-b0a2-e8b996a35892","ios":"levelo://app?vid=819705ac-445c-490e-b0a2-e8b996a35892"},"vehicle_type_id":"4","last_reported":1732414977,"current_range_meters":38800,"station_id":"ce4bhg92rcd13ifvqf90","pricing_plan_id":"cebpf4jnsgd1na2vs0mg"},{"bike_id":"0cd19f9c-0663-48a7-9302-8215b41e3c26","system_id":"levelo_inurba_marseille","lat":43.28725,"lon":5.36094,"is_reserved":false,"is_disabled":false,"rental_uris":{"android":"levelo://app?vid=0cd19f9c-0663-48a7-9302-8215b41e3c26","ios":"levelo://app?vid=0cd19f9c-0663-48a7-9302-8215b41e3c26"},"vehicle_type_id":"4","last_reported":1732414977,"current_range_meters":25200,"station_id":"cki0cbj6b192h4jlfktg","pricing_plan_id":"cebpf4jnsgd1na2vs0mg"},{"bike_id":"f956308a-2ffd-40f1-ae1b-6704e2671bec","system_id":"levelo_inurba_marseille","lat":43.235889,"lon":5.379141,"is_reserved":false,"is_disabled":false,"rental_uris":{"android":"levelo://app?vid=f956308a-2ffd-40f1-ae1b-6704e2671bec","ios":"levelo://app?vid=f956308a-2ffd-40f1-ae1b-6704e2671bec"},"vehicle_type_id":"4","last_reported":1732414977,"current_range_meters":22800,"station_id":"","pricing_plan_id":"cebpf4jnsgd1na2vs0mg"},{"bike_id":"d33bc2ca-055c-48c4-8bc6-73051efb7e74","system_id":"levelo_inurba_marseille","lat":43.29632,"lon":5.406,"is_reserved":false,"is_disabled":false,"rental_uris":{"android":"levelo://app?vid=d33bc2ca-055c-48c4-8bc6-73051efb7e74","ios":"levelo://app?vid=d33bc2ca-055c-48c4-8bc6-73051efb7e74"},"vehicle_type_id":"4","last_reported":1732414977,"current_range_meters":38000,"station_id":"ce4bh0h2rcd13ifvqd60","pricing_plan_id":"cebpf4jnsgd1na2vs0mg"},{"bike_id":"648d1cfb-c9e8-48da-bc25-37ad95365731","system_id":"levelo_inurba_marseille","lat":43.26062,"lon":5.39394,"is_reserved":false,"is_disabled":false,"rental_uris":{"android":"levelo://app?vid=648d1cfb-c9e8-48da-bc25-37ad95365731","ios":"levelo://app?vid=648d1cfb-c9e8-48da-bc25-37ad95365731"},"vehicle_type_id":"4","last_reported":1732414977,"current_range_meters":19200,"station_id":"ce4bhh92rcd13ifvqfj0","pricing_plan_id":"cebpf4jnsgd1na2vs0mg"},{"bike_id":"1d480d76-bb73-4781-930a-16c68fdce680","system_id":"levelo_inurba_marseille","lat":43.2558,"lon":5.38231,"is_reserved":false,"is_disabled":false,"rental_uris":{"android":"levelo://app?vid=1d480d76-bb73-4781-930a-16c68fdce680","ios":"levelo://app?vid=1d480d76-bb73-4781-930a-16c68fdce680"},"vehicle_type_id":"4","last_reported":1732414977,"current_range_meters":37600,"station_id":"ce4bhih2rcd13ifvqfs0","pricing_plan_id":"cebpf4jnsgd1na2vs0mg"},{"bike_id":"6547d91e-ae94-488d-86eb-9ccfb0a3a6bd","system_id":"levelo_inurba_marseille","lat":43.29002,"lon":5.35605,"is_reserved":false,"is_disabled":false,"rental_uris":{"android":"levelo://app?vid=6547d91e-ae94-488d-86eb-9ccfb0a3a6bd","ios":"levelo://app?vid=6547d91e-ae94-488d-86eb-9ccfb0a3a6bd"},"vehicle_type_id":"4","last_reported":1732414977,"current_range_meters":31200,"station_id":"ce4bhb92rcd13ifvqen0","pricing_plan_id":"cebpf4jnsgd1na2vs0mg"},{"bike_id":"a423ca9f-af82-4f99-a980-55c4c16010b8","system_id":"levelo_inurba_marseille","lat":43.30805,"lon":5.4353,"is_reserved":false,"is_disabled":false,"rental_uris":{"android":"levelo://app?vid=a423ca9f-af82-4f99-a980-55c4c16010b8","ios":"levelo://app?vid=a423ca9f-af82-4f99-a980-55c4c16010b8"},"vehicle_type_id":"4","last_reported":1732414977,"current_range_meters":32000,"station_id":"ce4bhph2rcd13ifvqheg","pricing_plan_id":"cebpf4jnsgd1na2vs0mg"},{"bike_id":"50ea5bde-5722-438b-be2b-d7e798ec8edc","system_id":"levelo_inurba_marseille","lat":43.25092,"lon":5.39516,"is_reserved":false,"is_disabled":false,"rental_uris":{"android":"levelo://app?vid=50ea5bde-5722-438b-be2b-d7e798ec8edc","ios":"levelo://app?vid=50ea5bde-5722-438b-be2b-d7e798ec8edc"},"vehicle_type_id":"4","last_reported":1732414977,"current_range_meters":37600,"station_id":"ce4bhm12rcd13ifvqgkg","pricing_plan_id":"cebpf4jnsgd1na2vs0mg"},{"bike_id":"30585094-ecfe-43ac-ae36-000c4a5ab426","system_id":"levelo_inurba_marseille","lat":43.30956,"lon":5.39024,"is_reserved":false,"is_disabled":true,"rental_uris":{"android":"levelo://app?vid=30585094-ecfe-43ac-ae36-000c4a5ab426","ios":"levelo://app?vid=30585094-ecfe-43ac-ae36-000c4a5ab426"},"vehicle_type_id":"4","last_reported":1732414977,"current_range_meters":24400,"station_id":"ce4bgup2rcd13ifvqco0","pricing_plan_id":"cebpf4jnsgd1na2vs0mg"},{"bike_id":"5f84fccb-6473-45c7-b4bf-9ab64c8af504","system_id":"levelo_inurba_marseille","lat":43.25105,"lon":5.40324,"is_reserved":false,"is_disabled":false,"rental_uris":{"android":"levelo://app?vid=5f84fccb-6473-45c7-b4bf-9ab64c8af504","ios":"levelo://app?vid=5f84fccb-6473-45c7-b4bf-9ab64c8af504"},"vehicle_type_id":"4","last_reported":1732414977,"current_range_meters":36000,"station_id":"ce4bhlh2rcd13ifvqgig","pricing_plan_id":"cebpf4jnsgd1na2vs0mg"},{"bike_id":"06222d69-c6a3-47fe-9912-0fe63b34371e","system_id":"levelo_inurba_marseille","lat":43.29886,"lon":5.43642,"is_reserved":false,"is_disabled":false,"rental_uris":{"android":"levelo://app?vid=06222d69-c6a3-47fe-9912-0fe63b34371e","ios":"levelo://app?vid=06222d69-c6a3-47fe-9912-0fe63b34371e"},"vehicle_type_id":"4","last_reported":1732414977,"current_range_meters":39200,"station_id":"ce4bhpp2rcd13ifvqhfg","pricing_plan_id":"cebpf4jnsgd1na2vs0mg"},{"bike_id":"b56f48da-9197-4089-a7c9-fa0044505160","system_id":"levelo_inurba_marseille","lat":43.31889,"lon":5.40729,"is_reserved":false,"is_disabled":false,"rental_uris":{"android":"levelo://app?vid=b56f48da-9197-4089-a7c9-fa0044505160","ios":"levelo://app?vid=b56f48da-9197-4089-a7c9-fa0044505160"},"vehicle_type_id":"4","last_reported":1732414977,"current_range_meters":14800,"station_id":"ce4bhq12rcd13ifvqhig","pricing_plan_id":"cebpf4jnsgd1na2vs0mg"},{"bike_id":"db101b78-6ffb-4919-8b14-ec9dca35135b","system_id":"levelo_inurba_marseille","lat":43.33728,"lon":5.39189,"is_reserved":false,"is_disabled":false,"rental_uris":{"android":"levelo://app?vid=db101b78-6ffb-4919-8b14-ec9dca35135b","ios":"levelo://app?vid=db101b78-6ffb-4919-8b14-ec9dca35135b"},"vehicle_type_id":"4","last_reported":1732414977,"current_range_meters":13600,"station_id":"ce4bhr92rcd13ifvqhsg","pricing_plan_id":"cebpf4jnsgd1na2vs0mg"},{"bike_id":"ce6b263e-834e-4228-bcd5-cefd2a41e0d9","system_id":"levelo_inurba_marseille","lat":43.26775,"lon":5.39418,"is_reserved":false,"is_disabled":false,"rental_uris":{"android":"levelo://app?vid=ce6b263e-834e-4228-bcd5-cefd2a41e0d9","ios":"levelo://app?vid=ce6b263e-834e-4228-bcd5-cefd2a41e0d9"},"vehicle_type_id":"4","last_reported":1732414977,"current_range_meters":38000,"station_id":"ce4bhh12rcd13ifvqfg0","pricing_plan_id":"cebpf4jnsgd1na2vs0mg"},{"bike_id":"b325d831-3511-4ea7-9dfd-b5fa63b83e06","system_id":"levelo_inurba_marseille","lat":43.29559,"lon":5.42271,"is_reserved":false,"is_disabled":false,"rental_uris":{"android":"levelo://app?vid=b325d831-3511-4ea7-9dfd-b5fa63b83e06","ios":"levelo://app?vid=b325d831-3511-4ea7-9dfd-b5fa63b83e06"},"vehicle_type_id":"4","last_reported":1732414977,"current_range_meters":24000,"station_id":"ce4bhph2rcd13ifvqhdg","pricing_plan_id":"cebpf4jnsgd1na2vs0mg"},{"bike_id":"ddbb8862-da2a-48a0-9978-12ed9b2c2469","system_id":"levelo_inurba_marseille","lat":43.30176,"lon":5.36618,"is_reserved":false,"is_disabled":false,"rental_uris":{"android":"levelo://app?vid=ddbb8862-da2a-48a0-9978-12ed9b2c2469","ios":"levelo://app?vid=ddbb8862-da2a-48a0-9978-12ed9b2c2469"},"vehicle_type_id":"4","last_reported":1732414977,"current_range_meters":27200,"station_id":"ce4bgrh2rcd13ifvqc8g","pricing_plan_id":"cebpf4jnsgd1na2vs0mg"},{"bike_id":"594ef630-a4b8-4c85-b8fd-4bc9cc2a997a","system_id":"levelo_inurba_marseille","lat":43.27005,"lon":5.39248,"is_reserved":false,"is_disabled":false,"rental_uris":{"android":"levelo://app?vid=594ef630-a4b8-4c85-b8fd-4bc9cc2a997a","ios":"levelo://app?vid=594ef630-a4b8-4c85-b8fd-4bc9cc2a997a"},"vehicle_type_id":"4","last_reported":1732414977,"current_range_meters":17200,"station_id":"","pricing_plan_id":"cebpf4jnsgd1na2vs0mg"},{"bike_id":"411cad6f-2006-460f-b83b-afec7a807d4e","system_id":"levelo_inurba_marseille","lat":43.3176,"lon":5.39006,"is_reserved":false,"is_disabled":false,"rental_uris":{"android":"levelo://app?vid=411cad6f-2006-460f-b83b-afec7a807d4e","ios":"levelo://app?vid=411cad6f-2006-460f-b83b-afec7a807d4e"},"vehicle_type_id":"4","last_reported":1732414977,"current_range_meters":27200,"station_id":"ce4bhqp2rcd13ifvqhng","pricing_plan_id":"cebpf4jnsgd1na2vs0mg"},{"bike_id":"01acb60a-0c50-4cb6-8db2-e7d9bdfa87a0","system_id":"levelo_inurba_marseille","lat":43.29517,"lon":5.3939,"is_reserved":false,"is_disabled":false,"rental_uris":{"android":"levelo://app?vid=01acb60a-0c50-4cb6-8db2-e7d9bdfa87a0","ios":"levelo://app?vid=01acb60a-0c50-4cb6-8db2-e7d9bdfa87a0"},"vehicle_type_id":"4","last_reported":1732414977,"current_range_meters":16400,"station_id":"ce4bh292rcd13ifvqdf0","pricing_plan_id":"cebpf4jnsgd1na2vs0mg"},{"bike_id":"6a163b86-b43f-4648-8e77-ec1ce62464c5","system_id":"levelo_inurba_marseille","lat":43.31265,"lon":5.40171,"is_reserved":false,"is_disabled":false,"rental_uris":{"android":"levelo://app?vid=6a163b86-b43f-4648-8e77-ec1ce62464c5","ios":"levelo://app?vid=6a163b86-b43f-4648-8e77-ec1ce62464c5"},"vehicle_type_id":"4","last_reported":1732414977,"current_range_meters":38800,"station_id":"ce4bh092rcd13ifvqd30","pricing_plan_id":"cebpf4jnsgd1na2vs0mg"},{"bike_id":"4e7fc883-8673-4272-a3a7-4ef49794200d","system_id":"levelo_inurba_marseille","lat":43.26803,"lon":5.40278,"is_reserved":false,"is_disabled":false,"rental_uris":{"android":"levelo://app?vid=4e7fc883-8673-4272-a3a7-4ef49794200d","ios":"levelo://app?vid=4e7fc883-8673-4272-a3a7-4ef49794200d"},"vehicle_type_id":"4","last_reported":1732414977,"current_range_meters":38000,"station_id":"ce501612rcd8frsf0b60","pricing_plan_id":"cebpf4jnsgd1na2vs0mg"},{"bike_id":"caeeb28a-2337-46ff-8cc1-38286fc7227b","system_id":"levelo_inurba_marseille","lat":43.25588,"lon":5.38261,"is_reserved":false,"is_disabled":false,"rental_uris":{"android":"levelo://app?vid=caeeb28a-2337-46ff-8cc1-38286fc7227b","ios":"levelo://app?vid=caeeb28a-2337-46ff-8cc1-38286fc7227b"},"vehicle_type_id":"4","last_reported":1732414977,"current_range_meters":14000,"station_id":"ce4bhih2rcd13ifvqfs0","pricing_plan_id":"cebpf4jnsgd1na2vs0mg"},{"bike_id":"6a2df70c-4e94-45ba-b67d-45bd465ca49d","system_id":"levelo_inurba_marseille","lat":43.292,"lon":5.39291,"is_reserved":false,"is_disabled":true,"rental_uris":{"android":"levelo://app?vid=6a2df70c-4e94-45ba-b67d-45bd465ca49d","ios":"levelo://app?vid=6a2df70c-4e94-45ba-b67d-45bd465ca49d"},"vehicle_type_id":"4","last_reported":1732414977,"current_range_meters":32400,"station_id":"ce4bh192rcd13ifvqdd0","pricing_plan_id":"cebpf4jnsgd1na2vs0mg"},{"bike_id":"f0c9b009-6e7d-4316-96af-3036572d9258","system_id":"levelo_inurba_marseille","lat":43.29515,"lon":5.3749,"is_reserved":false,"is_disabled":true,"rental_uris":{"android":"levelo://app?vid=f0c9b009-6e7d-4316-96af-3036572d9258","ios":"levelo://app?vid=f0c9b009-6e7d-4316-96af-3036572d9258"},"vehicle_type_id":"4","last_reported":1732414977,"current_range_meters":32800,"station_id":"ce4bgkp2rcd13ifvqbmg","pricing_plan_id":"cebpf4jnsgd1na2vs0mg"},{"bike_id":"a33fd1d9-8998-41b0-9a29-7b1fde6c577a","system_id":"levelo_inurba_marseille","lat":43.26035,"lon":5.37548,"is_reserved":false,"is_disabled":false,"rental_uris":{"android":"levelo://app?vid=a33fd1d9-8998-41b0-9a29-7b1fde6c577a","ios":"levelo://app?vid=a33fd1d9-8998-41b0-9a29-7b1fde6c577a"},"vehicle_type_id":"4","last_reported":1732414977,"current_range_meters":38800,"station_id":"ce4bhgh2rcd13ifvqfa0","pricing_plan_id":"cebpf4jnsgd1na2vs0mg"},{"bike_id":"b2b158d0-8028-4675-9f9a-048f08fcfa95","system_id":"levelo_inurba_marseille","lat":43.27892,"lon":5.38014,"is_reserved":false,"is_disabled":false,"rental_uris":{"android":"levelo://app?vid=b2b158d0-8028-4675-9f9a-048f08fcfa95","ios":"levelo://app?vid=b2b158d0-8028-4675-9f9a-048f08fcfa95"},"vehicle_type_id":"4","last_reported":1732414977,"current_range_meters":38400,"station_id":"ce4bhf92rcd13ifvqf50","pricing_plan_id":"cebpf4jnsgd1na2vs0mg"},{"bike_id":"cba75631-9b69-42ba-8a82-1059adf0ef0e","system_id":"levelo_inurba_marseille","lat":43.27372,"lon":5.36256,"is_reserved":false,"is_disabled":false,"rental_uris":{"android":"levelo://app?vid=cba75631-9b69-42ba-8a82-1059adf0ef0e","ios":"levelo://app?vid=cba75631-9b69-42ba-8a82-1059adf0ef0e"},"vehicle_type_id":"4","last_reported":1732414977,"current_range_meters":38800,"station_id":"ce4bhbh2rcd13ifvqeo0","pricing_plan_id":"cebpf4jnsgd1na2vs0mg"},{"bike_id":"ff3594ee-f948-4832-9680-599cfdacc368","system_id":"levelo_inurba_marseille","lat":43.27176,"lon":5.41009,"is_reserved":false,"is_disabled":false,"rental_uris":{"android":"levelo://app?vid=ff3594ee-f948-4832-9680-599cfdacc368","ios":"levelo://app?vid=ff3594ee-f948-4832-9680-599cfdacc368"},"vehicle_type_id":"4","last_reported":1732414977,"current_range_meters":35600,"station_id":"ce4bhl12rcd13ifvqgf0","pricing_plan_id":"cebpf4jnsgd1na2vs0mg"},{"bike_id":"a7806711-4d3a-4f55-89c2-8cc52066ab81","system_id":"levelo_inurba_marseille","lat":43.28117,"lon":5.37838,"is_reserved":false,"is_disabled":false,"rental_uris":{"android":"levelo://app?vid=a7806711-4d3a-4f55-89c2-8cc52066ab81","ios":"levelo://app?vid=a7806711-4d3a-4f55-89c2-8cc52066ab81"},"vehicle_type_id":"4","last_reported":1732414977,"current_range_meters":28400,"station_id":"ce4bha12rcd13ifvqee0","pricing_plan_id":"cebpf4jnsgd1na2vs0mg"},{"bike_id":"6f9c3a2e-2bb8-48e6-aff8-4150e52b9f6f","system_id":"levelo_inurba_marseille","lat":43.26491,"lon":5.3956,"is_reserved":false,"is_disabled":false,"rental_uris":{"android":"levelo://app?vid=6f9c3a2e-2bb8-48e6-aff8-4150e52b9f6f","ios":"levelo://app?vid=6f9c3a2e-2bb8-48e6-aff8-4150e52b9f6f"},"vehicle_type_id":"4","last_reported":1732414977,"current_range_meters":38800,"station_id":"ce4bhi12rcd13ifvqfq0","pricing_plan_id":"cebpf4jnsgd1na2vs0mg"},{"bike_id":"1e126baa-22b4-4cf7-a05e-1c0611873009","system_id":"levelo_inurba_marseille","lat":43.311192,"lon":5.377708,"is_reserved":false,"is_disabled":false,"rental_uris":{"android":"levelo://app?vid=1e126baa-22b4-4cf7-a05e-1c0611873009","ios":"levelo://app?vid=1e126baa-22b4-4cf7-a05e-1c0611873009"},"vehicle_type_id":"4","last_reported":1732414977,"current_range_meters":4800,"station_id":"","pricing_plan_id":"cebpf4jnsgd1na2vs0mg"},{"bike_id":"856c5296-7fea-42cc-be09-a6b9a37c0b30","system_id":"levelo_inurba_marseille","lat":43.27382,"lon":5.36242,"is_reserved":false,"is_disabled":true,"rental_uris":{"android":"levelo://app?vid=856c5296-7fea-42cc-be09-a6b9a37c0b30","ios":"levelo://app?vid=856c5296-7fea-42cc-be09-a6b9a37c0b30"},"vehicle_type_id":"4","last_reported":1732414977,"current_range_meters":0,"station_id":"ce4bhbh2rcd13ifvqeo0","pricing_plan_id":"cebpf4jnsgd1na2vs0mg"},{"bike_id":"611cfdea-6a9d-4c01-bbd3-ecfc6be5ddfb","system_id":"levelo_inurba_marseille","lat":43.24398,"lon":5.3705,"is_reserved":false,"is_disabled":false,"rental_uris":{"android":"levelo://app?vid=611cfdea-6a9d-4c01-bbd3-ecfc6be5ddfb","ios":"levelo://app?vid=611cfdea-6a9d-4c01-bbd3-ecfc6be5ddfb"},"vehicle_type_id":"4","last_reported":1732414977,"current_range_meters":15200,"station_id":"ce4bhhh2rcd13ifvqfk0","pricing_plan_id":"cebpf4jnsgd1na2vs0mg"},{"bike_id":"5bc0f97a-98f6-4fe9-8151-adba4f938e50","system_id":"levelo_inurba_marseille","lat":43.25875,"lon":5.39895,"is_reserved":false,"is_disabled":false,"rental_uris":{"android":"levelo://app?vid=5bc0f97a-98f6-4fe9-8151-adba4f938e50","ios":"levelo://app?vid=5bc0f97a-98f6-4fe9-8151-adba4f938e50"},"vehicle_type_id":"4","last_reported":1732414977,"current_range_meters":23200,"station_id":"ce4bhl92rcd13ifvqghg","pricing_plan_id":"cebpf4jnsgd1na2vs0mg"},{"bike_id":"4923c794-1c51-42d4-9bb0-755ca4844557","system_id":"levelo_inurba_marseille","lat":43.30802,"lon":5.38157,"is_reserved":false,"is_disabled":false,"rental_uris":{"android":"levelo://app?vid=4923c794-1c51-42d4-9bb0-755ca4844557","ios":"levelo://app?vid=4923c794-1c51-42d4-9bb0-755ca4844557"},"vehicle_type_id":"4","last_reported":1732414977,"current_range_meters":39200,"station_id":"ce4bgt12rcd13ifvqce0","pricing_plan_id":"cebpf4jnsgd1na2vs0mg"},{"bike_id":"32e30b44-394f-439d-9e2a-000c52163030","system_id":"levelo_inurba_marseille","lat":43.24658,"lon":5.38157,"is_reserved":false,"is_disabled":false,"rental_uris":{"android":"levelo://app?vid=32e30b44-394f-439d-9e2a-000c52163030","ios":"levelo://app?vid=32e30b44-394f-439d-9e2a-000c52163030"},"vehicle_type_id":"4","last_reported":1732414977,"current_range_meters":6000,"station_id":"ce4bhih2rcd13ifvqfr0","pricing_plan_id":"cebpf4jnsgd1na2vs0mg"},{"bike_id":"724e82bd-a7e8-41ff-8707-446ec1cc2a4f","system_id":"levelo_inurba_marseille","lat":43.31119,"lon":5.37755,"is_reserved":false,"is_disabled":false,"rental_uris":{"android":"levelo://app?vid=724e82bd-a7e8-41ff-8707-446ec1cc2a4f","ios":"levelo://app?vid=724e82bd-a7e8-41ff-8707-446ec1cc2a4f"},"vehicle_type_id":"4","last_reported":1732414977,"current_range_meters":33600,"station_id":"ce4bgt92rcd13ifvqcg0","pricing_plan_id":"cebpf4jnsgd1na2vs0mg"},{"bike_id":"9a122f92-8d1b-4a84-9637-aeed9243668f","system_id":"levelo_inurba_marseille","lat":43.28945,"lon":5.36618,"is_reserved":false,"is_disabled":true,"rental_uris":{"android":"levelo://app?vid=9a122f92-8d1b-4a84-9637-aeed9243668f","ios":"levelo://app?vid=9a122f92-8d1b-4a84-9637-aeed9243668f"},"vehicle_type_id":"4","last_reported":1732414977,"current_range_meters":0,"station_id":"ce4bhap2rcd13ifvqek0","pricing_plan_id":"cebpf4jnsgd1na2vs0mg"},{"bike_id":"46b7244a-473d-4849-a2db-b88df463f6e4","system_id":"levelo_inurba_marseille","lat":43.30408,"lon":5.39761,"is_reserved":false,"is_disabled":false,"rental_uris":{"android":"levelo://app?vid=46b7244a-473d-4849-a2db-b88df463f6e4","ios":"levelo://app?vid=46b7244a-473d-4849-a2db-b88df463f6e4"},"vehicle_type_id":"4","last_reported":1732414977,"current_range_meters":38800,"station_id":"ce4bh092rcd13ifvqd20","pricing_plan_id":"cebpf4jnsgd1na2vs0mg"},{"bike_id":"ae2ebe28-b42e-42a5-b3ab-abdf67169fbb","system_id":"levelo_inurba_marseille","lat":43.29196,"lon":5.35809,"is_reserved":false,"is_disabled":false,"rental_uris":{"android":"levelo://app?vid=ae2ebe28-b42e-42a5-b3ab-abdf67169fbb","ios":"levelo://app?vid=ae2ebe28-b42e-42a5-b3ab-abdf67169fbb"},"vehicle_type_id":"4","last_reported":1732414977,"current_range_meters":38000,"station_id":"ce4bhb12rcd13ifvqel0","pricing_plan_id":"cebpf4jnsgd1na2vs0mg"},{"bike_id":"e2e9f87f-1bdc-4cfd-8cc2-5c9aa8beb9a8","system_id":"levelo_inurba_marseille","lat":43.25104,"lon":5.4034,"is_reserved":false,"is_disabled":false,"rental_uris":{"android":"levelo://app?vid=e2e9f87f-1bdc-4cfd-8cc2-5c9aa8beb9a8","ios":"levelo://app?vid=e2e9f87f-1bdc-4cfd-8cc2-5c9aa8beb9a8"},"vehicle_type_id":"4","last_reported":1732414977,"current_range_meters":38400,"station_id":"ce4bhlh2rcd13ifvqgig","pricing_plan_id":"cebpf4jnsgd1na2vs0mg"},{"bike_id":"0bff4688-540e-4e2c-808d-c9347a358a4f","system_id":"levelo_inurba_marseille","lat":43.27645,"lon":5.38921,"is_reserved":false,"is_disabled":true,"rental_uris":{"android":"levelo://app?vid=0bff4688-540e-4e2c-808d-c9347a358a4f","ios":"levelo://app?vid=0bff4688-540e-4e2c-808d-c9347a358a4f"},"vehicle_type_id":"4","last_reported":1732414977,"current_range_meters":38800,"station_id":"ce4bhi12rcd13ifvqfo0","pricing_plan_id":"cebpf4jnsgd1na2vs0mg"},{"bike_id":"3f5ae3b1-b7d2-4566-a896-0edfbeb3bd14","system_id":"levelo_inurba_marseille","lat":43.27972,"lon":5.38746,"is_reserved":false,"is_disabled":false,"rental_uris":{"android":"levelo://app?vid=3f5ae3b1-b7d2-4566-a896-0edfbeb3bd14","ios":"levelo://app?vid=3f5ae3b1-b7d2-4566-a896-0edfbeb3bd14"},"vehicle_type_id":"4","last_reported":1732414977,"current_range_meters":32800,"station_id":"ce4bhg12rcd13ifvqf80","pricing_plan_id":"cebpf4jnsgd1na2vs0mg"},{"bike_id":"eabab5b3-5476-4134-9e67-6d97b417fabd","system_id":"levelo_inurba_marseille","lat":43.28723,"lon":5.36085,"is_reserved":false,"is_disabled":false,"rental_uris":{"android":"levelo://app?vid=eabab5b3-5476-4134-9e67-6d97b417fabd","ios":"levelo://app?vid=eabab5b3-5476-4134-9e67-6d97b417fabd"},"vehicle_type_id":"4","last_reported":1732414977,"current_range_meters":38800,"station_id":"cki0cbj6b192h4jlfktg","pricing_plan_id":"cebpf4jnsgd1na2vs0mg"},{"bike_id":"265bbdf7-e01c-44e4-b9ed-1c608d0a5012","system_id":"levelo_inurba_marseille","lat":43.33025,"lon":5.39069,"is_reserved":false,"is_disabled":false,"rental_uris":{"android":"levelo://app?vid=265bbdf7-e01c-44e4-b9ed-1c608d0a5012","ios":"levelo://app?vid=265bbdf7-e01c-44e4-b9ed-1c608d0a5012"},"vehicle_type_id":"4","last_reported":1732414977,"current_range_meters":37600,"station_id":"ce4bhr92rcd13ifvqhrg","pricing_plan_id":"cebpf4jnsgd1na2vs0mg"},{"bike_id":"c5846803-b633-44f1-be4a-7a19a8cfa1f4","system_id":"levelo_inurba_marseille","lat":43.29033,"lon":5.3998,"is_reserved":false,"is_disabled":false,"rental_uris":{"android":"levelo://app?vid=c5846803-b633-44f1-be4a-7a19a8cfa1f4","ios":"levelo://app?vid=c5846803-b633-44f1-be4a-7a19a8cfa1f4"},"vehicle_type_id":"4","last_reported":1732414977,"current_range_meters":26800,"station_id":"ce4bh392rcd13ifvqdm0","pricing_plan_id":"cebpf4jnsgd1na2vs0mg"},{"bike_id":"bc1d4763-2357-48f0-91d1-3eec3f47cc06","system_id":"levelo_inurba_marseille","lat":43.30895,"lon":5.37181,"is_reserved":false,"is_disabled":false,"rental_uris":{"android":"levelo://app?vid=bc1d4763-2357-48f0-91d1-3eec3f47cc06","ios":"levelo://app?vid=bc1d4763-2357-48f0-91d1-3eec3f47cc06"},"vehicle_type_id":"4","last_reported":1732414977,"current_range_meters":35200,"station_id":"ce4bguh2rcd13ifvqckg","pricing_plan_id":"cebpf4jnsgd1na2vs0mg"},{"bike_id":"35b2f4ef-c674-49bf-9abd-7b506b98c650","system_id":"levelo_inurba_marseille","lat":43.29043,"lon":5.39965,"is_reserved":false,"is_disabled":false,"rental_uris":{"android":"levelo://app?vid=35b2f4ef-c674-49bf-9abd-7b506b98c650","ios":"levelo://app?vid=35b2f4ef-c674-49bf-9abd-7b506b98c650"},"vehicle_type_id":"4","last_reported":1732414977,"current_range_meters":36000,"station_id":"ce4bh392rcd13ifvqdm0","pricing_plan_id":"cebpf4jnsgd1na2vs0mg"},{"bike_id":"585b249f-8d26-4118-821e-ecb19a66d11d","system_id":"levelo_inurba_marseille","lat":43.23958,"lon":5.36645,"is_reserved":false,"is_disabled":false,"rental_uris":{"android":"levelo://app?vid=585b249f-8d26-4118-821e-ecb19a66d11d","ios":"levelo://app?vid=585b249f-8d26-4118-821e-ecb19a66d11d"},"vehicle_type_id":"4","last_reported":1732414977,"current_range_meters":27200,"station_id":"ce4bhi12rcd13ifvqfp0","pricing_plan_id":"cebpf4jnsgd1na2vs0mg"},{"bike_id":"547ea531-2929-489b-a8eb-c4cc565ac9af","system_id":"levelo_inurba_marseille","lat":43.27617,"lon":5.3615,"is_reserved":false,"is_disabled":false,"rental_uris":{"android":"levelo://app?vid=547ea531-2929-489b-a8eb-c4cc565ac9af","ios":"levelo://app?vid=547ea531-2929-489b-a8eb-c4cc565ac9af"},"vehicle_type_id":"4","last_reported":1732414977,"current_range_meters":38000,"station_id":"ce4bgj92rcd13ifvqbe0","pricing_plan_id":"cebpf4jnsgd1na2vs0mg"},{"bike_id":"f7d44ca9-75fd-4a20-bc04-a53629656d7d","system_id":"levelo_inurba_marseille","lat":43.25106,"lon":5.40313,"is_reserved":false,"is_disabled":false,"rental_uris":{"android":"levelo://app?vid=f7d44ca9-75fd-4a20-bc04-a53629656d7d","ios":"levelo://app?vid=f7d44ca9-75fd-4a20-bc04-a53629656d7d"},"vehicle_type_id":"4","last_reported":1732414977,"current_range_meters":19200,"station_id":"ce4bhlh2rcd13ifvqgig","pricing_plan_id":"cebpf4jnsgd1na2vs0mg"},{"bike_id":"16d0ef1c-82ed-4be2-a0f3-c1a21a1665eb","system_id":"levelo_inurba_marseille","lat":43.29212,"lon":5.36053,"is_reserved":false,"is_disabled":false,"rental_uris":{"android":"levelo://app?vid=16d0ef1c-82ed-4be2-a0f3-c1a21a1665eb","ios":"levelo://app?vid=16d0ef1c-82ed-4be2-a0f3-c1a21a1665eb"},"vehicle_type_id":"4","last_reported":1732414977,"current_range_meters":22800,"station_id":"ce4bhbh2rcd13ifvqeqg","pricing_plan_id":"cebpf4jnsgd1na2vs0mg"},{"bike_id":"4614c3ce-fa32-4b49-800d-cf02516d6ab9","system_id":"levelo_inurba_marseille","lat":43.32381,"lon":5.3897,"is_reserved":false,"is_disabled":false,"rental_uris":{"android":"levelo://app?vid=4614c3ce-fa32-4b49-800d-cf02516d6ab9","ios":"levelo://app?vid=4614c3ce-fa32-4b49-800d-cf02516d6ab9"},"vehicle_type_id":"4","last_reported":1732414977,"current_range_meters":22000,"station_id":"","pricing_plan_id":"cebpf4jnsgd1na2vs0mg"},{"bike_id":"72488d89-84d6-4d48-85a6-5400e601b1cd","system_id":"levelo_inurba_marseille","lat":43.24665,"lon":5.38164,"is_reserved":false,"is_disabled":false,"rental_uris":{"android":"levelo://app?vid=72488d89-84d6-4d48-85a6-5400e601b1cd","ios":"levelo://app?vid=72488d89-84d6-4d48-85a6-5400e601b1cd"},"vehicle_type_id":"4","last_reported":1732414977,"current_range_meters":19600,"station_id":"ce4bhih2rcd13ifvqfr0","pricing_plan_id":"cebpf4jnsgd1na2vs0mg"},{"bike_id":"5e0800be-1e09-4676-a603-b8912b1c8901","system_id":"levelo_inurba_marseille","lat":43.32668,"lon":5.4099,"is_reserved":false,"is_disabled":false,"rental_uris":{"android":"levelo://app?vid=5e0800be-1e09-4676-a603-b8912b1c8901","ios":"levelo://app?vid=5e0800be-1e09-4676-a603-b8912b1c8901"},"vehicle_type_id":"4","last_reported":1732414977,"current_range_meters":36800,"station_id":"ce4bhpp2rcd13ifvqhgg","pricing_plan_id":"cebpf4jnsgd1na2vs0mg"},{"bike_id":"fd0e3340-543f-4c8a-8c34-222130852a29","system_id":"levelo_inurba_marseille","lat":43.27979,"lon":5.38753,"is_reserved":false,"is_disabled":true,"rental_uris":{"android":"levelo://app?vid=fd0e3340-543f-4c8a-8c34-222130852a29","ios":"levelo://app?vid=fd0e3340-543f-4c8a-8c34-222130852a29"},"vehicle_type_id":"4","last_reported":1732414977,"current_range_meters":18000,"station_id":"ce4bhg12rcd13ifvqf80","pricing_plan_id":"cebpf4jnsgd1na2vs0mg"},{"bike_id":"5dbe99c4-7052-47fb-badb-ebebdaedef38","system_id":"levelo_inurba_marseille","lat":43.28935,"lon":5.39625,"is_reserved":false,"is_disabled":false,"rental_uris":{"android":"levelo://app?vid=5dbe99c4-7052-47fb-badb-ebebdaedef38","ios":"levelo://app?vid=5dbe99c4-7052-47fb-badb-ebebdaedef38"},"vehicle_type_id":"4","last_reported":1732414977,"current_range_meters":37600,"station_id":"ce4bh3h2rcd13ifvqdn0","pricing_plan_id":"cebpf4jnsgd1na2vs0mg"},{"bike_id":"e662b885-15c0-4344-8409-692fa14b9dbc","system_id":"levelo_inurba_marseille","lat":43.27488,"lon":5.42456,"is_reserved":false,"is_disabled":false,"rental_uris":{"android":"levelo://app?vid=e662b885-15c0-4344-8409-692fa14b9dbc","ios":"levelo://app?vid=e662b885-15c0-4344-8409-692fa14b9dbc"},"vehicle_type_id":"4","last_reported":1732414977,"current_range_meters":37600,"station_id":"ce4bhn92rcd13ifvqgrg","pricing_plan_id":"cebpf4jnsgd1na2vs0mg"},{"bike_id":"b9177629-3263-4cba-91a3-2ab5e06a66c2","system_id":"levelo_inurba_marseille","lat":43.2705,"lon":5.40299,"is_reserved":false,"is_disabled":false,"rental_uris":{"android":"levelo://app?vid=b9177629-3263-4cba-91a3-2ab5e06a66c2","ios":"levelo://app?vid=b9177629-3263-4cba-91a3-2ab5e06a66c2"},"vehicle_type_id":"4","last_reported":1732414977,"current_range_meters":7200,"station_id":"ce4bhk92rcd13ifvqgc0","pricing_plan_id":"cebpf4jnsgd1na2vs0mg"},{"bike_id":"3fdd38e5-a2bf-4802-b2cd-0c9b9bcb444d","system_id":"levelo_inurba_marseille","lat":43.30882,"lon":5.39642,"is_reserved":false,"is_disabled":false,"rental_uris":{"android":"levelo://app?vid=3fdd38e5-a2bf-4802-b2cd-0c9b9bcb444d","ios":"levelo://app?vid=3fdd38e5-a2bf-4802-b2cd-0c9b9bcb444d"},"vehicle_type_id":"4","last_reported":1732414977,"current_range_meters":9200,"station_id":"ce4bh012rcd13ifvqcv0","pricing_plan_id":"cebpf4jnsgd1na2vs0mg"},{"bike_id":"20e9b7a9-bc35-4793-b52b-c77aed10f509","system_id":"levelo_inurba_marseille","lat":43.28725,"lon":5.36099,"is_reserved":false,"is_disabled":false,"rental_uris":{"android":"levelo://app?vid=20e9b7a9-bc35-4793-b52b-c77aed10f509","ios":"levelo://app?vid=20e9b7a9-bc35-4793-b52b-c77aed10f509"},"vehicle_type_id":"4","last_reported":1732414977,"current_range_meters":3200,"station_id":"cki0cbj6b192h4jlfktg","pricing_plan_id":"cebpf4jnsgd1na2vs0mg"},{"bike_id":"1f6bdb64-1ad9-43dc-9317-33a84f3d58d9","system_id":"levelo_inurba_marseille","lat":43.28854,"lon":5.39339,"is_reserved":false,"is_disabled":false,"rental_uris":{"android":"levelo://app?vid=1f6bdb64-1ad9-43dc-9317-33a84f3d58d9","ios":"levelo://app?vid=1f6bdb64-1ad9-43dc-9317-33a84f3d58d9"},"vehicle_type_id":"4","last_reported":1732414977,"current_range_meters":38800,"station_id":"ce4bh2p2rcd13ifvqdi0","pricing_plan_id":"cebpf4jnsgd1na2vs0mg"},{"bike_id":"0b60f259-44c3-44b4-8354-e8afd54af0ac","system_id":"levelo_inurba_marseille","lat":43.29607,"lon":5.36746,"is_reserved":false,"is_disabled":false,"rental_uris":{"android":"levelo://app?vid=0b60f259-44c3-44b4-8354-e8afd54af0ac","ios":"levelo://app?vid=0b60f259-44c3-44b4-8354-e8afd54af0ac"},"vehicle_type_id":"4","last_reported":1732414977,"current_range_meters":38800,"station_id":"ce4bgph2rcd13ifvqc2g","pricing_plan_id":"cebpf4jnsgd1na2vs0mg"},{"bike_id":"600b3470-1dde-43ce-962b-7a6284b20990","system_id":"levelo_inurba_marseille","lat":43.23186,"lon":5.35558,"is_reserved":false,"is_disabled":true,"rental_uris":{"android":"levelo://app?vid=600b3470-1dde-43ce-962b-7a6284b20990","ios":"levelo://app?vid=600b3470-1dde-43ce-962b-7a6284b20990"},"vehicle_type_id":"4","last_reported":1732414977,"current_range_meters":28000,"station_id":"ce4bhu92rcd13ifvqi70","pricing_plan_id":"cebpf4jnsgd1na2vs0mg"},{"bike_id":"da482d90-a4f8-4104-b7f7-5dae94f0d169","system_id":"levelo_inurba_marseille","lat":43.29257,"lon":5.40919,"is_reserved":false,"is_disabled":false,"rental_uris":{"android":"levelo://app?vid=da482d90-a4f8-4104-b7f7-5dae94f0d169","ios":"levelo://app?vid=da482d90-a4f8-4104-b7f7-5dae94f0d169"},"vehicle_type_id":"4","last_reported":1732414977,"current_range_meters":28400,"station_id":"ce4bh192rcd13ifvqdc0","pricing_plan_id":"cebpf4jnsgd1na2vs0mg"},{"bike_id":"2f97ab1a-2c9a-43fc-b6d5-98d14c9777c5","system_id":"levelo_inurba_marseille","lat":43.28396,"lon":5.37539,"is_reserved":false,"is_disabled":false,"rental_uris":{"android":"levelo://app?vid=2f97ab1a-2c9a-43fc-b6d5-98d14c9777c5","ios":"levelo://app?vid=2f97ab1a-2c9a-43fc-b6d5-98d14c9777c5"},"vehicle_type_id":"4","last_reported":1732414977,"current_range_meters":38800,"station_id":"ce4bh412rcd13ifvqds0","pricing_plan_id":"cebpf4jnsgd1na2vs0mg"},{"bike_id":"ae47bb9a-c366-40c4-bdb5-a76a05320251","system_id":"levelo_inurba_marseille","lat":43.27568,"lon":5.38444,"is_reserved":false,"is_disabled":false,"rental_uris":{"android":"levelo://app?vid=ae47bb9a-c366-40c4-bdb5-a76a05320251","ios":"levelo://app?vid=ae47bb9a-c366-40c4-bdb5-a76a05320251"},"vehicle_type_id":"4","last_reported":1732414977,"current_range_meters":34000,"station_id":"ce4bhh92rcd13ifvqfi0","pricing_plan_id":"cebpf4jnsgd1na2vs0mg"},{"bike_id":"18a00ecb-08b7-43b1-8b86-b213904f10e1","system_id":"levelo_inurba_marseille","lat":43.25571,"lon":5.38236,"is_reserved":false,"is_disabled":false,"rental_uris":{"android":"levelo://app?vid=18a00ecb-08b7-43b1-8b86-b213904f10e1","ios":"levelo://app?vid=18a00ecb-08b7-43b1-8b86-b213904f10e1"},"vehicle_type_id":"4","last_reported":1732414977,"current_range_meters":16000,"station_id":"ce4bhih2rcd13ifvqfs0","pricing_plan_id":"cebpf4jnsgd1na2vs0mg"},{"bike_id":"9cd4a41e-9267-4c1b-94dc-126dd78de022","system_id":"levelo_inurba_marseille","lat":43.30916,"lon":5.37442,"is_reserved":false,"is_disabled":false,"rental_uris":{"android":"levelo://app?vid=9cd4a41e-9267-4c1b-94dc-126dd78de022","ios":"levelo://app?vid=9cd4a41e-9267-4c1b-94dc-126dd78de022"},"vehicle_type_id":"4","last_reported":1732414977,"current_range_meters":12400,"station_id":"","pricing_plan_id":"cebpf4jnsgd1na2vs0mg"},{"bike_id":"4247d4d8-fcb1-4b4f-b68b-ee04f06d2845","system_id":"levelo_inurba_marseille","lat":43.30809,"lon":5.38161,"is_reserved":false,"is_disabled":false,"rental_uris":{"android":"levelo://app?vid=4247d4d8-fcb1-4b4f-b68b-ee04f06d2845","ios":"levelo://app?vid=4247d4d8-fcb1-4b4f-b68b-ee04f06d2845"},"vehicle_type_id":"4","last_reported":1732414977,"current_range_meters":16000,"station_id":"ce4bgt12rcd13ifvqce0","pricing_plan_id":"cebpf4jnsgd1na2vs0mg"},{"bike_id":"6f148f96-5001-4751-9146-64d27a6f5f1c","system_id":"levelo_inurba_marseille","lat":43.30803,"lon":5.43533,"is_reserved":false,"is_disabled":false,"rental_uris":{"android":"levelo://app?vid=6f148f96-5001-4751-9146-64d27a6f5f1c","ios":"levelo://app?vid=6f148f96-5001-4751-9146-64d27a6f5f1c"},"vehicle_type_id":"4","last_reported":1732414977,"current_range_meters":38800,"station_id":"ce4bhph2rcd13ifvqheg","pricing_plan_id":"cebpf4jnsgd1na2vs0mg"},{"bike_id":"54890bfe-0b38-4c99-a513-3f4d4ca53129","system_id":"levelo_inurba_marseille","lat":43.30641,"lon":5.401,"is_reserved":false,"is_disabled":false,"rental_uris":{"android":"levelo://app?vid=54890bfe-0b38-4c99-a513-3f4d4ca53129","ios":"levelo://app?vid=54890bfe-0b38-4c99-a513-3f4d4ca53129"},"vehicle_type_id":"4","last_reported":1732414977,"current_range_meters":34800,"station_id":"ce4bh112rcd13ifvqda0","pricing_plan_id":"cebpf4jnsgd1na2vs0mg"},{"bike_id":"8ac8754e-5c60-4e33-a4d5-e8f1f732e8fb","system_id":"levelo_inurba_marseille","lat":43.31697,"lon":5.40465,"is_reserved":false,"is_disabled":false,"rental_uris":{"android":"levelo://app?vid=8ac8754e-5c60-4e33-a4d5-e8f1f732e8fb","ios":"levelo://app?vid=8ac8754e-5c60-4e33-a4d5-e8f1f732e8fb"},"vehicle_type_id":"4","last_reported":1732414977,"current_range_meters":37600,"station_id":"ce4bh012rcd13ifvqd00","pricing_plan_id":"cebpf4jnsgd1na2vs0mg"},{"bike_id":"ea31867a-b991-44ce-a8d8-4c2eb955c2a5","system_id":"levelo_inurba_marseille","lat":43.24676,"lon":5.38162,"is_reserved":false,"is_disabled":false,"rental_uris":{"android":"levelo://app?vid=ea31867a-b991-44ce-a8d8-4c2eb955c2a5","ios":"levelo://app?vid=ea31867a-b991-44ce-a8d8-4c2eb955c2a5"},"vehicle_type_id":"4","last_reported":1732414977,"current_range_meters":24000,"station_id":"ce4bhih2rcd13ifvqfr0","pricing_plan_id":"cebpf4jnsgd1na2vs0mg"},{"bike_id":"7dae9d58-4d13-4bd1-a28f-f51c389ec5dd","system_id":"levelo_inurba_marseille","lat":43.28405,"lon":5.37517,"is_reserved":false,"is_disabled":false,"rental_uris":{"android":"levelo://app?vid=7dae9d58-4d13-4bd1-a28f-f51c389ec5dd","ios":"levelo://app?vid=7dae9d58-4d13-4bd1-a28f-f51c389ec5dd"},"vehicle_type_id":"4","last_reported":1732414977,"current_range_meters":37600,"station_id":"ce4bh412rcd13ifvqds0","pricing_plan_id":"cebpf4jnsgd1na2vs0mg"},{"bike_id":"06992198-f9c5-4440-b677-1cbdabd9a2c6","system_id":"levelo_inurba_marseille","lat":43.30655,"lon":5.40083,"is_reserved":false,"is_disabled":false,"rental_uris":{"android":"levelo://app?vid=06992198-f9c5-4440-b677-1cbdabd9a2c6","ios":"levelo://app?vid=06992198-f9c5-4440-b677-1cbdabd9a2c6"},"vehicle_type_id":"4","last_reported":1732414977,"current_range_meters":8400,"station_id":"ce4bh112rcd13ifvqda0","pricing_plan_id":"cebpf4jnsgd1na2vs0mg"},{"bike_id":"6366c9d4-8bb1-44b4-ac0d-d040876d71bb","system_id":"levelo_inurba_marseille","lat":43.33604,"lon":5.41002,"is_reserved":false,"is_disabled":false,"rental_uris":{"android":"levelo://app?vid=6366c9d4-8bb1-44b4-ac0d-d040876d71bb","ios":"levelo://app?vid=6366c9d4-8bb1-44b4-ac0d-d040876d71bb"},"vehicle_type_id":"4","last_reported":1732414977,"current_range_meters":23200,"station_id":"ce4bhqh2rcd13ifvqhmg","pricing_plan_id":"cebpf4jnsgd1na2vs0mg"},{"bike_id":"1ce32676-1013-4fe4-881f-27c0ced76e68","system_id":"levelo_inurba_marseille","lat":43.27058,"lon":5.40258,"is_reserved":false,"is_disabled":false,"rental_uris":{"android":"levelo://app?vid=1ce32676-1013-4fe4-881f-27c0ced76e68","ios":"levelo://app?vid=1ce32676-1013-4fe4-881f-27c0ced76e68"},"vehicle_type_id":"4","last_reported":1732414977,"current_range_meters":10800,"station_id":"ce4bhk92rcd13ifvqgc0","pricing_plan_id":"cebpf4jnsgd1na2vs0mg"},{"bike_id":"d6346f25-df94-41cb-b7a0-5584e0b22de3","system_id":"levelo_inurba_marseille","lat":43.28692,"lon":5.37371,"is_reserved":false,"is_disabled":false,"rental_uris":{"android":"levelo://app?vid=d6346f25-df94-41cb-b7a0-5584e0b22de3","ios":"levelo://app?vid=d6346f25-df94-41cb-b7a0-5584e0b22de3"},"vehicle_type_id":"4","last_reported":1732414977,"current_range_meters":9200,"station_id":"ce4bh3p2rcd13ifvqdq0","pricing_plan_id":"cebpf4jnsgd1na2vs0mg"},{"bike_id":"734ff0c4-f245-4197-8036-be5e222d76fd","system_id":"levelo_inurba_marseille","lat":43.2899,"lon":5.42597,"is_reserved":false,"is_disabled":true,"rental_uris":{"android":"levelo://app?vid=734ff0c4-f245-4197-8036-be5e222d76fd","ios":"levelo://app?vid=734ff0c4-f245-4197-8036-be5e222d76fd"},"vehicle_type_id":"4","last_reported":1732414977,"current_range_meters":0,"station_id":"","pricing_plan_id":"cebpf4jnsgd1na2vs0mg"},{"bike_id":"6f1bad86-79c1-4a35-b9a0-2dd1f4f26150","system_id":"levelo_inurba_marseille","lat":43.29974,"lon":5.38509,"is_reserved":false,"is_disabled":true,"rental_uris":{"android":"levelo://app?vid=6f1bad86-79c1-4a35-b9a0-2dd1f4f26150","ios":"levelo://app?vid=6f1bad86-79c1-4a35-b9a0-2dd1f4f26150"},"vehicle_type_id":"4","last_reported":1732414977,"current_range_meters":30800,"station_id":"ce4bgj92rcd13ifvqbd0","pricing_plan_id":"cebpf4jnsgd1na2vs0mg"},{"bike_id":"6ac7e056-91eb-4652-8376-2a2bc9bfc434","system_id":"levelo_inurba_marseille","lat":43.28024,"lon":5.36945,"is_reserved":false,"is_disabled":false,"rental_uris":{"android":"levelo://app?vid=6ac7e056-91eb-4652-8376-2a2bc9bfc434","ios":"levelo://app?vid=6ac7e056-91eb-4652-8376-2a2bc9bfc434"},"vehicle_type_id":"4","last_reported":1732414977,"current_range_meters":16800,"station_id":"ce4bha12rcd13ifvqef0","pricing_plan_id":"cebpf4jnsgd1na2vs0mg"},{"bike_id":"cdb50ab8-0901-4c98-9404-3ef1c98581da","system_id":"levelo_inurba_marseille","lat":43.24657,"lon":5.38175,"is_reserved":false,"is_disabled":false,"rental_uris":{"android":"levelo://app?vid=cdb50ab8-0901-4c98-9404-3ef1c98581da","ios":"levelo://app?vid=cdb50ab8-0901-4c98-9404-3ef1c98581da"},"vehicle_type_id":"4","last_reported":1732414977,"current_range_meters":22400,"station_id":"ce4bhih2rcd13ifvqfr0","pricing_plan_id":"cebpf4jnsgd1na2vs0mg"},{"bike_id":"11980602-9466-4247-a5b8-e3e79fa3bf33","system_id":"levelo_inurba_marseille","lat":43.26035,"lon":5.37558,"is_reserved":false,"is_disabled":false,"rental_uris":{"android":"levelo://app?vid=11980602-9466-4247-a5b8-e3e79fa3bf33","ios":"levelo://app?vid=11980602-9466-4247-a5b8-e3e79fa3bf33"},"vehicle_type_id":"4","last_reported":1732414977,"current_range_meters":7200,"station_id":"ce4bhgh2rcd13ifvqfa0","pricing_plan_id":"cebpf4jnsgd1na2vs0mg"},{"bike_id":"909ba3f4-6f5d-40e7-8252-4fa1fabb6767","system_id":"levelo_inurba_marseille","lat":43.281,"lon":5.37833,"is_reserved":false,"is_disabled":false,"rental_uris":{"android":"levelo://app?vid=909ba3f4-6f5d-40e7-8252-4fa1fabb6767","ios":"levelo://app?vid=909ba3f4-6f5d-40e7-8252-4fa1fabb6767"},"vehicle_type_id":"4","last_reported":1732414977,"current_range_meters":10000,"station_id":"ce4bha12rcd13ifvqee0","pricing_plan_id":"cebpf4jnsgd1na2vs0mg"},{"bike_id":"46542312-5a57-4358-8e82-504d74fb4c60","system_id":"levelo_inurba_marseille","lat":43.28159,"lon":5.42634,"is_reserved":false,"is_disabled":false,"rental_uris":{"android":"levelo://app?vid=46542312-5a57-4358-8e82-504d74fb4c60","ios":"levelo://app?vid=46542312-5a57-4358-8e82-504d74fb4c60"},"vehicle_type_id":"4","last_reported":1732414977,"current_range_meters":28800,"station_id":"ce4bhnh2rcd13ifvqgug","pricing_plan_id":"cebpf4jnsgd1na2vs0mg"},{"bike_id":"ca66c1ef-a934-45a8-b066-9a8d837d3678","system_id":"levelo_inurba_marseille","lat":43.28552,"lon":5.39518,"is_reserved":false,"is_disabled":false,"rental_uris":{"android":"levelo://app?vid=ca66c1ef-a934-45a8-b066-9a8d837d3678","ios":"levelo://app?vid=ca66c1ef-a934-45a8-b066-9a8d837d3678"},"vehicle_type_id":"4","last_reported":1732414977,"current_range_meters":34800,"station_id":"ce4bh292rcd13ifvqdg0","pricing_plan_id":"cebpf4jnsgd1na2vs0mg"},{"bike_id":"294eeb79-af1b-495a-909f-216801ae6b41","system_id":"levelo_inurba_marseille","lat":43.337444,"lon":5.374475,"is_reserved":false,"is_disabled":true,"rental_uris":{"android":"levelo://app?vid=294eeb79-af1b-495a-909f-216801ae6b41","ios":"levelo://app?vid=294eeb79-af1b-495a-909f-216801ae6b41"},"vehicle_type_id":"4","last_reported":1732414977,"current_range_meters":0,"station_id":"","pricing_plan_id":"cebpf4jnsgd1na2vs0mg"},{"bike_id":"7b617085-383f-4548-8d64-0032f0eded9d","system_id":"levelo_inurba_marseille","lat":43.34141,"lon":5.40899,"is_reserved":false,"is_disabled":false,"rental_uris":{"android":"levelo://app?vid=7b617085-383f-4548-8d64-0032f0eded9d","ios":"levelo://app?vid=7b617085-383f-4548-8d64-0032f0eded9d"},"vehicle_type_id":"4","last_reported":1732414977,"current_range_meters":38800,"station_id":"ce4bhqh2rcd13ifvqhlg","pricing_plan_id":"cebpf4jnsgd1na2vs0mg"},{"bike_id":"3cd2a025-17db-470c-bb82-e1b9b4966050","system_id":"levelo_inurba_marseille","lat":43.30773,"lon":5.38186,"is_reserved":false,"is_disabled":false,"rental_uris":{"android":"levelo://app?vid=3cd2a025-17db-470c-bb82-e1b9b4966050","ios":"levelo://app?vid=3cd2a025-17db-470c-bb82-e1b9b4966050"},"vehicle_type_id":"4","last_reported":1732414977,"current_range_meters":30000,"station_id":"ce4bgt12rcd13ifvqce0","pricing_plan_id":"cebpf4jnsgd1na2vs0mg"},{"bike_id":"85c835c3-8578-4aaa-9ea3-c17603d2afdb","system_id":"levelo_inurba_marseille","lat":43.29552,"lon":5.42274,"is_reserved":false,"is_disabled":false,"rental_uris":{"android":"levelo://app?vid=85c835c3-8578-4aaa-9ea3-c17603d2afdb","ios":"levelo://app?vid=85c835c3-8578-4aaa-9ea3-c17603d2afdb"},"vehicle_type_id":"4","last_reported":1732414977,"current_range_meters":38800,"station_id":"ce4bhph2rcd13ifvqhdg","pricing_plan_id":"cebpf4jnsgd1na2vs0mg"},{"bike_id":"677c7322-f017-41b4-b2b4-6107ebd39bbc","system_id":"levelo_inurba_marseille","lat":43.32636,"lon":5.40986,"is_reserved":false,"is_disabled":false,"rental_uris":{"android":"levelo://app?vid=677c7322-f017-41b4-b2b4-6107ebd39bbc","ios":"levelo://app?vid=677c7322-f017-41b4-b2b4-6107ebd39bbc"},"vehicle_type_id":"4","last_reported":1732414977,"current_range_meters":38800,"station_id":"ce4bhpp2rcd13ifvqhgg","pricing_plan_id":"cebpf4jnsgd1na2vs0mg"},{"bike_id":"b0a3e25d-b208-420f-bb01-7a1d50925629","system_id":"levelo_inurba_marseille","lat":43.30602,"lon":5.37217,"is_reserved":false,"is_disabled":false,"rental_uris":{"android":"levelo://app?vid=b0a3e25d-b208-420f-bb01-7a1d50925629","ios":"levelo://app?vid=b0a3e25d-b208-420f-bb01-7a1d50925629"},"vehicle_type_id":"4","last_reported":1732414977,"current_range_meters":38800,"station_id":"ce4bgqh2rcd13ifvqc4g","pricing_plan_id":"cebpf4jnsgd1na2vs0mg"},{"bike_id":"98a1dbe4-70e4-4876-99e1-ad1e6496d7ad","system_id":"levelo_inurba_marseille","lat":43.29034,"lon":5.39955,"is_reserved":false,"is_disabled":false,"rental_uris":{"android":"levelo://app?vid=98a1dbe4-70e4-4876-99e1-ad1e6496d7ad","ios":"levelo://app?vid=98a1dbe4-70e4-4876-99e1-ad1e6496d7ad"},"vehicle_type_id":"4","last_reported":1732414977,"current_range_meters":38800,"station_id":"ce4bh392rcd13ifvqdm0","pricing_plan_id":"cebpf4jnsgd1na2vs0mg"},{"bike_id":"18f6979e-cf65-4632-b209-076e21eafc22","system_id":"levelo_inurba_marseille","lat":43.25573,"lon":5.38248,"is_reserved":false,"is_disabled":false,"rental_uris":{"android":"levelo://app?vid=18f6979e-cf65-4632-b209-076e21eafc22","ios":"levelo://app?vid=18f6979e-cf65-4632-b209-076e21eafc22"},"vehicle_type_id":"4","last_reported":1732414977,"current_range_meters":38800,"station_id":"ce4bhih2rcd13ifvqfs0","pricing_plan_id":"cebpf4jnsgd1na2vs0mg"},{"bike_id":"777b7fed-d395-4c97-b504-dee7c3479d4f","system_id":"levelo_inurba_marseille","lat":43.29836,"lon":5.3785,"is_reserved":false,"is_disabled":true,"rental_uris":{"android":"levelo://app?vid=777b7fed-d395-4c97-b504-dee7c3479d4f","ios":"levelo://app?vid=777b7fed-d395-4c97-b504-dee7c3479d4f"},"vehicle_type_id":"4","last_reported":1732414977,"current_range_meters":0,"station_id":"","pricing_plan_id":"cebpf4jnsgd1na2vs0mg"},{"bike_id":"cd78312a-142a-42d0-92e1-dbc654bf8bb4","system_id":"levelo_inurba_marseille","lat":43.24181,"lon":5.39714,"is_reserved":false,"is_disabled":true,"rental_uris":{"android":"levelo://app?vid=cd78312a-142a-42d0-92e1-dbc654bf8bb4","ios":"levelo://app?vid=cd78312a-142a-42d0-92e1-dbc654bf8bb4"},"vehicle_type_id":"4","last_reported":1732414977,"current_range_meters":10800,"station_id":"ce4bhn12rcd13ifvqgpg","pricing_plan_id":"cebpf4jnsgd1na2vs0mg"},{"bike_id":"6c316017-cf26-4996-9ade-369def8e0ff9","system_id":"levelo_inurba_marseille","lat":43.30438,"lon":5.38873,"is_reserved":false,"is_disabled":false,"rental_uris":{"android":"levelo://app?vid=6c316017-cf26-4996-9ade-369def8e0ff9","ios":"levelo://app?vid=6c316017-cf26-4996-9ade-369def8e0ff9"},"vehicle_type_id":"4","last_reported":1732414977,"current_range_meters":38800,"station_id":"ce4bgk12rcd13ifvqbi0","pricing_plan_id":"cebpf4jnsgd1na2vs0mg"},{"bike_id":"38353faf-7853-4633-9686-55d0e0761291","system_id":"levelo_inurba_marseille","lat":43.25109,"lon":5.40322,"is_reserved":false,"is_disabled":false,"rental_uris":{"android":"levelo://app?vid=38353faf-7853-4633-9686-55d0e0761291","ios":"levelo://app?vid=38353faf-7853-4633-9686-55d0e0761291"},"vehicle_type_id":"4","last_reported":1732414977,"current_range_meters":24000,"station_id":"ce4bhlh2rcd13ifvqgig","pricing_plan_id":"cebpf4jnsgd1na2vs0mg"},{"bike_id":"11841e04-abc6-4ba2-b1c8-d7f8fa41241b","system_id":"levelo_inurba_marseille","lat":43.26495,"lon":5.39559,"is_reserved":false,"is_disabled":false,"rental_uris":{"android":"levelo://app?vid=11841e04-abc6-4ba2-b1c8-d7f8fa41241b","ios":"levelo://app?vid=11841e04-abc6-4ba2-b1c8-d7f8fa41241b"},"vehicle_type_id":"4","last_reported":1732414977,"current_range_meters":36800,"station_id":"ce4bhi12rcd13ifvqfq0","pricing_plan_id":"cebpf4jnsgd1na2vs0mg"},{"bike_id":"a093ad12-b6bc-47f6-9819-08d3a7e62582","system_id":"levelo_inurba_marseille","lat":43.27379,"lon":5.36255,"is_reserved":false,"is_disabled":false,"rental_uris":{"android":"levelo://app?vid=a093ad12-b6bc-47f6-9819-08d3a7e62582","ios":"levelo://app?vid=a093ad12-b6bc-47f6-9819-08d3a7e62582"},"vehicle_type_id":"4","last_reported":1732414977,"current_range_meters":38800,"station_id":"ce4bhbh2rcd13ifvqeo0","pricing_plan_id":"cebpf4jnsgd1na2vs0mg"},{"bike_id":"43f6da94-5cf1-446e-9b8d-b4c4e86bf027","system_id":"levelo_inurba_marseille","lat":43.26189,"lon":5.37458,"is_reserved":false,"is_disabled":true,"rental_uris":{"android":"levelo://app?vid=43f6da94-5cf1-446e-9b8d-b4c4e86bf027","ios":"levelo://app?vid=43f6da94-5cf1-446e-9b8d-b4c4e86bf027"},"vehicle_type_id":"4","last_reported":1732414977,"current_range_meters":8800,"station_id":"ce4bhgp2rcd13ifvqfc0","pricing_plan_id":"cebpf4jnsgd1na2vs0mg"},{"bike_id":"dd5ab154-647e-4dfa-88f1-0f781c7552f5","system_id":"levelo_inurba_marseille","lat":43.25579,"lon":5.38237,"is_reserved":false,"is_disabled":false,"rental_uris":{"android":"levelo://app?vid=dd5ab154-647e-4dfa-88f1-0f781c7552f5","ios":"levelo://app?vid=dd5ab154-647e-4dfa-88f1-0f781c7552f5"},"vehicle_type_id":"4","last_reported":1732414977,"current_range_meters":27600,"station_id":"ce4bhih2rcd13ifvqfs0","pricing_plan_id":"cebpf4jnsgd1na2vs0mg"},{"bike_id":"9e8c93f7-eeac-416f-81dc-bcdf3d324667","system_id":"levelo_inurba_marseille","lat":43.27664,"lon":5.38918,"is_reserved":false,"is_disabled":false,"rental_uris":{"android":"levelo://app?vid=9e8c93f7-eeac-416f-81dc-bcdf3d324667","ios":"levelo://app?vid=9e8c93f7-eeac-416f-81dc-bcdf3d324667"},"vehicle_type_id":"4","last_reported":1732414977,"current_range_meters":30400,"station_id":"ce4bhi12rcd13ifvqfo0","pricing_plan_id":"cebpf4jnsgd1na2vs0mg"},{"bike_id":"994195f6-b5da-4158-a5b5-8b38baad32b0","system_id":"levelo_inurba_marseille","lat":43.33715,"lon":5.39188,"is_reserved":false,"is_disabled":false,"rental_uris":{"android":"levelo://app?vid=994195f6-b5da-4158-a5b5-8b38baad32b0","ios":"levelo://app?vid=994195f6-b5da-4158-a5b5-8b38baad32b0"},"vehicle_type_id":"4","last_reported":1732414977,"current_range_meters":28800,"station_id":"ce4bhr92rcd13ifvqhsg","pricing_plan_id":"cebpf4jnsgd1na2vs0mg"},{"bike_id":"7c2f19f3-5373-4c2a-87bb-e1fd3ef39822","system_id":"levelo_inurba_marseille","lat":43.26562,"lon":5.39023,"is_reserved":false,"is_disabled":true,"rental_uris":{"android":"levelo://app?vid=7c2f19f3-5373-4c2a-87bb-e1fd3ef39822","ios":"levelo://app?vid=7c2f19f3-5373-4c2a-87bb-e1fd3ef39822"},"vehicle_type_id":"4","last_reported":1732414977,"current_range_meters":22000,"station_id":"ce4bhe12rcd13ifvqf30","pricing_plan_id":"cebpf4jnsgd1na2vs0mg"},{"bike_id":"36ef9a42-f4d8-45f5-adc2-b51fb9b962d0","system_id":"levelo_inurba_marseille","lat":43.34143,"lon":5.40901,"is_reserved":false,"is_disabled":false,"rental_uris":{"android":"levelo://app?vid=36ef9a42-f4d8-45f5-adc2-b51fb9b962d0","ios":"levelo://app?vid=36ef9a42-f4d8-45f5-adc2-b51fb9b962d0"},"vehicle_type_id":"4","last_reported":1732414977,"current_range_meters":38400,"station_id":"ce4bhqh2rcd13ifvqhlg","pricing_plan_id":"cebpf4jnsgd1na2vs0mg"},{"bike_id":"62821c01-689d-4275-80de-724784eacdf5","system_id":"levelo_inurba_marseille","lat":43.30546,"lon":5.38437,"is_reserved":false,"is_disabled":false,"rental_uris":{"android":"levelo://app?vid=62821c01-689d-4275-80de-724784eacdf5","ios":"levelo://app?vid=62821c01-689d-4275-80de-724784eacdf5"},"vehicle_type_id":"4","last_reported":1732414977,"current_range_meters":37600,"station_id":"ce4bgg92rcd13ifvqb30","pricing_plan_id":"cebpf4jnsgd1na2vs0mg"},{"bike_id":"a3202fc1-85cb-42ee-bead-37756f81ff0f","system_id":"levelo_inurba_marseille","lat":43.30569,"lon":5.384,"is_reserved":false,"is_disabled":true,"rental_uris":{"android":"levelo://app?vid=a3202fc1-85cb-42ee-bead-37756f81ff0f","ios":"levelo://app?vid=a3202fc1-85cb-42ee-bead-37756f81ff0f"},"vehicle_type_id":"4","last_reported":1732414977,"current_range_meters":26000,"station_id":"ce4bgg92rcd13ifvqb30","pricing_plan_id":"cebpf4jnsgd1na2vs0mg"},{"bike_id":"97cd3183-b3fd-486d-8ecd-f6949d56b2f8","system_id":"levelo_inurba_marseille","lat":43.29553,"lon":5.42281,"is_reserved":false,"is_disabled":false,"rental_uris":{"android":"levelo://app?vid=97cd3183-b3fd-486d-8ecd-f6949d56b2f8","ios":"levelo://app?vid=97cd3183-b3fd-486d-8ecd-f6949d56b2f8"},"vehicle_type_id":"4","last_reported":1732414977,"current_range_meters":39200,"station_id":"ce4bhph2rcd13ifvqhdg","pricing_plan_id":"cebpf4jnsgd1na2vs0mg"},{"bike_id":"90aaf4b2-24c8-4d78-85f8-08f85ed8f352","system_id":"levelo_inurba_marseille","lat":43.28456,"lon":5.35885,"is_reserved":false,"is_disabled":false,"rental_uris":{"android":"levelo://app?vid=90aaf4b2-24c8-4d78-85f8-08f85ed8f352","ios":"levelo://app?vid=90aaf4b2-24c8-4d78-85f8-08f85ed8f352"},"vehicle_type_id":"4","last_reported":1732414977,"current_range_meters":25600,"station_id":"ce4bhah2rcd13ifvqei0","pricing_plan_id":"cebpf4jnsgd1na2vs0mg"},{"bike_id":"67eec873-2e0f-49d2-a011-594652020334","system_id":"levelo_inurba_marseille","lat":43.26217,"lon":5.37911,"is_reserved":false,"is_disabled":false,"rental_uris":{"android":"levelo://app?vid=67eec873-2e0f-49d2-a011-594652020334","ios":"levelo://app?vid=67eec873-2e0f-49d2-a011-594652020334"},"vehicle_type_id":"4","last_reported":1732414977,"current_range_meters":15200,"station_id":"ce4bhjp2rcd13ifvqg90","pricing_plan_id":"cebpf4jnsgd1na2vs0mg"},{"bike_id":"9495fa64-9fda-4344-b5aa-1797ee4f28c5","system_id":"levelo_inurba_marseille","lat":43.25091,"lon":5.39524,"is_reserved":false,"is_disabled":false,"rental_uris":{"android":"levelo://app?vid=9495fa64-9fda-4344-b5aa-1797ee4f28c5","ios":"levelo://app?vid=9495fa64-9fda-4344-b5aa-1797ee4f28c5"},"vehicle_type_id":"4","last_reported":1732414977,"current_range_meters":6000,"station_id":"ce4bhm12rcd13ifvqgkg","pricing_plan_id":"cebpf4jnsgd1na2vs0mg"},{"bike_id":"f3284536-e5c7-4ef9-a8ea-453f16957bea","system_id":"levelo_inurba_marseille","lat":43.24075,"lon":5.3775,"is_reserved":false,"is_disabled":false,"rental_uris":{"android":"levelo://app?vid=f3284536-e5c7-4ef9-a8ea-453f16957bea","ios":"levelo://app?vid=f3284536-e5c7-4ef9-a8ea-453f16957bea"},"vehicle_type_id":"4","last_reported":1732414977,"current_range_meters":28400,"station_id":"ce4bhnp2rcd13ifvqgvg","pricing_plan_id":"cebpf4jnsgd1na2vs0mg"},{"bike_id":"cd04ddd1-8420-4283-b686-46b60686b428","system_id":"levelo_inurba_marseille","lat":43.29563,"lon":5.42295,"is_reserved":false,"is_disabled":false,"rental_uris":{"android":"levelo://app?vid=cd04ddd1-8420-4283-b686-46b60686b428","ios":"levelo://app?vid=cd04ddd1-8420-4283-b686-46b60686b428"},"vehicle_type_id":"4","last_reported":1732414977,"current_range_meters":24800,"station_id":"ce4bhph2rcd13ifvqhdg","pricing_plan_id":"cebpf4jnsgd1na2vs0mg"},{"bike_id":"57fa0b0b-836e-4aeb-9db5-c114ef1d588b","system_id":"levelo_inurba_marseille","lat":43.27816,"lon":5.40705,"is_reserved":false,"is_disabled":false,"rental_uris":{"android":"levelo://app?vid=57fa0b0b-836e-4aeb-9db5-c114ef1d588b","ios":"levelo://app?vid=57fa0b0b-836e-4aeb-9db5-c114ef1d588b"},"vehicle_type_id":"4","last_reported":1732414977,"current_range_meters":12400,"station_id":"ce4bhnh2rcd13ifvqgtg","pricing_plan_id":"cebpf4jnsgd1na2vs0mg"},{"bike_id":"6bfcdcf3-a1aa-48d4-8475-231f03ac2af0","system_id":"levelo_inurba_marseille","lat":43.30881,"lon":5.39635,"is_reserved":false,"is_disabled":false,"rental_uris":{"android":"levelo://app?vid=6bfcdcf3-a1aa-48d4-8475-231f03ac2af0","ios":"levelo://app?vid=6bfcdcf3-a1aa-48d4-8475-231f03ac2af0"},"vehicle_type_id":"4","last_reported":1732414977,"current_range_meters":12800,"station_id":"ce4bh012rcd13ifvqcv0","pricing_plan_id":"cebpf4jnsgd1na2vs0mg"},{"bike_id":"faddc5bf-9308-4490-a929-f5be12fd1597","system_id":"levelo_inurba_marseille","lat":43.25584,"lon":5.3824,"is_reserved":false,"is_disabled":false,"rental_uris":{"android":"levelo://app?vid=faddc5bf-9308-4490-a929-f5be12fd1597","ios":"levelo://app?vid=faddc5bf-9308-4490-a929-f5be12fd1597"},"vehicle_type_id":"4","last_reported":1732414977,"current_range_meters":22000,"station_id":"ce4bhih2rcd13ifvqfs0","pricing_plan_id":"cebpf4jnsgd1na2vs0mg"},{"bike_id":"73ff8f4e-173b-4111-860f-0fbe90564417","system_id":"levelo_inurba_marseille","lat":43.32654,"lon":5.41006,"is_reserved":false,"is_disabled":false,"rental_uris":{"android":"levelo://app?vid=73ff8f4e-173b-4111-860f-0fbe90564417","ios":"levelo://app?vid=73ff8f4e-173b-4111-860f-0fbe90564417"},"vehicle_type_id":"4","last_reported":1732414977,"current_range_meters":38800,"station_id":"ce4bhpp2rcd13ifvqhgg","pricing_plan_id":"cebpf4jnsgd1na2vs0mg"},{"bike_id":"36296f5c-0176-4be0-97c8-7930cda9c369","system_id":"levelo_inurba_marseille","lat":43.32095,"lon":5.36805,"is_reserved":false,"is_disabled":false,"rental_uris":{"android":"levelo://app?vid=36296f5c-0176-4be0-97c8-7930cda9c369","ios":"levelo://app?vid=36296f5c-0176-4be0-97c8-7930cda9c369"},"vehicle_type_id":"4","last_reported":1732414977,"current_range_meters":33200,"station_id":"ce4bhrh2rcd13ifvqhug","pricing_plan_id":"cebpf4jnsgd1na2vs0mg"},{"bike_id":"12b1bbd6-dc44-489a-bdfb-1eac521b561d","system_id":"levelo_inurba_marseille","lat":43.33601,"lon":5.41029,"is_reserved":false,"is_disabled":false,"rental_uris":{"android":"levelo://app?vid=12b1bbd6-dc44-489a-bdfb-1eac521b561d","ios":"levelo://app?vid=12b1bbd6-dc44-489a-bdfb-1eac521b561d"},"vehicle_type_id":"4","last_reported":1732414977,"current_range_meters":35600,"station_id":"ce4bhqh2rcd13ifvqhmg","pricing_plan_id":"cebpf4jnsgd1na2vs0mg"},{"bike_id":"3749f547-26de-49f3-8704-9a5a504b68f5","system_id":"levelo_inurba_marseille","lat":43.25586,"lon":5.38246,"is_reserved":false,"is_disabled":false,"rental_uris":{"android":"levelo://app?vid=3749f547-26de-49f3-8704-9a5a504b68f5","ios":"levelo://app?vid=3749f547-26de-49f3-8704-9a5a504b68f5"},"vehicle_type_id":"4","last_reported":1732414977,"current_range_meters":36800,"station_id":"ce4bhih2rcd13ifvqfs0","pricing_plan_id":"cebpf4jnsgd1na2vs0mg"},{"bike_id":"d2a52b58-fabe-4a57-94ba-464e41b85800","system_id":"levelo_inurba_marseille","lat":43.30094,"lon":5.37426,"is_reserved":false,"is_disabled":true,"rental_uris":{"android":"levelo://app?vid=d2a52b58-fabe-4a57-94ba-464e41b85800","ios":"levelo://app?vid=d2a52b58-fabe-4a57-94ba-464e41b85800"},"vehicle_type_id":"4","last_reported":1732414977,"current_range_meters":27200,"station_id":"","pricing_plan_id":"cebpf4jnsgd1na2vs0mg"},{"bike_id":"a8825ed3-d53c-40d8-9f8d-dd5bfd7448b7","system_id":"levelo_inurba_marseille","lat":43.29003,"lon":5.35604,"is_reserved":false,"is_disabled":false,"rental_uris":{"android":"levelo://app?vid=a8825ed3-d53c-40d8-9f8d-dd5bfd7448b7","ios":"levelo://app?vid=a8825ed3-d53c-40d8-9f8d-dd5bfd7448b7"},"vehicle_type_id":"4","last_reported":1732414977,"current_range_meters":33200,"station_id":"ce4bhb92rcd13ifvqen0","pricing_plan_id":"cebpf4jnsgd1na2vs0mg"},{"bike_id":"40201922-542a-47ea-a6ed-64ec011d2f20","system_id":"levelo_inurba_marseille","lat":43.24544,"lon":5.3953,"is_reserved":false,"is_disabled":false,"rental_uris":{"android":"levelo://app?vid=40201922-542a-47ea-a6ed-64ec011d2f20","ios":"levelo://app?vid=40201922-542a-47ea-a6ed-64ec011d2f20"},"vehicle_type_id":"4","last_reported":1732414977,"current_range_meters":8000,"station_id":"ce4bhlp2rcd13ifvqgjg","pricing_plan_id":"cebpf4jnsgd1na2vs0mg"},{"bike_id":"5546cc7e-b5f4-42f8-90bc-2c151db90410","system_id":"levelo_inurba_marseille","lat":43.30417,"lon":5.41282,"is_reserved":false,"is_disabled":false,"rental_uris":{"android":"levelo://app?vid=5546cc7e-b5f4-42f8-90bc-2c151db90410","ios":"levelo://app?vid=5546cc7e-b5f4-42f8-90bc-2c151db90410"},"vehicle_type_id":"4","last_reported":1732414977,"current_range_meters":15200,"station_id":"ce4bhop2rcd13ifvqh8g","pricing_plan_id":"cebpf4jnsgd1na2vs0mg"},{"bike_id":"3a14a950-ca5e-4cd9-a15c-78308e324429","system_id":"levelo_inurba_marseille","lat":43.31132,"lon":5.3776,"is_reserved":false,"is_disabled":false,"rental_uris":{"android":"levelo://app?vid=3a14a950-ca5e-4cd9-a15c-78308e324429","ios":"levelo://app?vid=3a14a950-ca5e-4cd9-a15c-78308e324429"},"vehicle_type_id":"4","last_reported":1732414977,"current_range_meters":38800,"station_id":"ce4bgt92rcd13ifvqcg0","pricing_plan_id":"cebpf4jnsgd1na2vs0mg"},{"bike_id":"c869928a-d6c7-48fa-97c2-aa2e341fb35d","system_id":"levelo_inurba_marseille","lat":43.29014,"lon":5.35617,"is_reserved":false,"is_disabled":false,"rental_uris":{"android":"levelo://app?vid=c869928a-d6c7-48fa-97c2-aa2e341fb35d","ios":"levelo://app?vid=c869928a-d6c7-48fa-97c2-aa2e341fb35d"},"vehicle_type_id":"4","last_reported":1732414977,"current_range_meters":38800,"station_id":"ce4bhb92rcd13ifvqen0","pricing_plan_id":"cebpf4jnsgd1na2vs0mg"},{"bike_id":"4923d6fc-1ccb-44fd-9ab5-43feda0c5519","system_id":"levelo_inurba_marseille","lat":43.25726,"lon":5.41109,"is_reserved":false,"is_disabled":false,"rental_uris":{"android":"levelo://app?vid=4923d6fc-1ccb-44fd-9ab5-43feda0c5519","ios":"levelo://app?vid=4923d6fc-1ccb-44fd-9ab5-43feda0c5519"},"vehicle_type_id":"4","last_reported":1732414977,"current_range_meters":18000,"station_id":"ce4bhkp2rcd13ifvqgd0","pricing_plan_id":"cebpf4jnsgd1na2vs0mg"},{"bike_id":"845cd7ff-290e-432c-bed8-16e3fe08c47c","system_id":"levelo_inurba_marseille","lat":43.23962,"lon":5.3664,"is_reserved":false,"is_disabled":false,"rental_uris":{"android":"levelo://app?vid=845cd7ff-290e-432c-bed8-16e3fe08c47c","ios":"levelo://app?vid=845cd7ff-290e-432c-bed8-16e3fe08c47c"},"vehicle_type_id":"4","last_reported":1732414977,"current_range_meters":8400,"station_id":"ce4bhi12rcd13ifvqfp0","pricing_plan_id":"cebpf4jnsgd1na2vs0mg"},{"bike_id":"a7790398-6f15-43a7-b440-b5dfc4446e31","system_id":"levelo_inurba_marseille","lat":43.26683,"lon":5.38267,"is_reserved":false,"is_disabled":false,"rental_uris":{"android":"levelo://app?vid=a7790398-6f15-43a7-b440-b5dfc4446e31","ios":"levelo://app?vid=a7790398-6f15-43a7-b440-b5dfc4446e31"},"vehicle_type_id":"4","last_reported":1732414977,"current_range_meters":39200,"station_id":"ce4bhg92rcd13ifvqf90","pricing_plan_id":"cebpf4jnsgd1na2vs0mg"},{"bike_id":"dd3b09fe-b71a-401a-b299-a88383f47f1c","system_id":"levelo_inurba_marseille","lat":43.337444,"lon":5.374475,"is_reserved":false,"is_disabled":false,"rental_uris":{"android":"levelo://app?vid=dd3b09fe-b71a-401a-b299-a88383f47f1c","ios":"levelo://app?vid=dd3b09fe-b71a-401a-b299-a88383f47f1c"},"vehicle_type_id":"4","last_reported":1732414977,"current_range_meters":33200,"station_id":"","pricing_plan_id":"cebpf4jnsgd1na2vs0mg"},{"bike_id":"3a660d7c-3937-4475-a0af-ffe3d752167f","system_id":"levelo_inurba_marseille","lat":43.3176,"lon":5.39018,"is_reserved":false,"is_disabled":false,"rental_uris":{"android":"levelo://app?vid=3a660d7c-3937-4475-a0af-ffe3d752167f","ios":"levelo://app?vid=3a660d7c-3937-4475-a0af-ffe3d752167f"},"vehicle_type_id":"4","last_reported":1732414977,"current_range_meters":38400,"station_id":"ce4bhqp2rcd13ifvqhng","pricing_plan_id":"cebpf4jnsgd1na2vs0mg"},{"bike_id":"7307bfba-a419-4654-a5f6-689fa771f864","system_id":"levelo_inurba_marseille","lat":43.23963,"lon":5.36629,"is_reserved":false,"is_disabled":false,"rental_uris":{"android":"levelo://app?vid=7307bfba-a419-4654-a5f6-689fa771f864","ios":"levelo://app?vid=7307bfba-a419-4654-a5f6-689fa771f864"},"vehicle_type_id":"4","last_reported":1732414977,"current_range_meters":16800,"station_id":"ce4bhi12rcd13ifvqfp0","pricing_plan_id":"cebpf4jnsgd1na2vs0mg"},{"bike_id":"58ea9c78-ccb0-4451-9cc5-3b43dab99ed1","system_id":"levelo_inurba_marseille","lat":43.30879,"lon":5.3963,"is_reserved":false,"is_disabled":false,"rental_uris":{"android":"levelo://app?vid=58ea9c78-ccb0-4451-9cc5-3b43dab99ed1","ios":"levelo://app?vid=58ea9c78-ccb0-4451-9cc5-3b43dab99ed1"},"vehicle_type_id":"4","last_reported":1732414977,"current_range_meters":26000,"station_id":"ce4bh012rcd13ifvqcv0","pricing_plan_id":"cebpf4jnsgd1na2vs0mg"},{"bike_id":"c9141344-4212-4983-abf2-7da6f9e1710d","system_id":"levelo_inurba_marseille","lat":43.25724,"lon":5.41109,"is_reserved":false,"is_disabled":false,"rental_uris":{"android":"levelo://app?vid=c9141344-4212-4983-abf2-7da6f9e1710d","ios":"levelo://app?vid=c9141344-4212-4983-abf2-7da6f9e1710d"},"vehicle_type_id":"4","last_reported":1732414977,"current_range_meters":30800,"station_id":"ce4bhkp2rcd13ifvqgd0","pricing_plan_id":"cebpf4jnsgd1na2vs0mg"},{"bike_id":"9562d3c7-a3c8-4e2b-bf87-14e562826f19","system_id":"levelo_inurba_marseille","lat":43.28856,"lon":5.35859,"is_reserved":false,"is_disabled":false,"rental_uris":{"android":"levelo://app?vid=9562d3c7-a3c8-4e2b-bf87-14e562826f19","ios":"levelo://app?vid=9562d3c7-a3c8-4e2b-bf87-14e562826f19"},"vehicle_type_id":"4","last_reported":1732414977,"current_range_meters":30400,"station_id":"ce4bhb12rcd13ifvqem0","pricing_plan_id":"cebpf4jnsgd1na2vs0mg"},{"bike_id":"fb6f77a9-5987-418d-9602-0247c990dbad","system_id":"levelo_inurba_marseille","lat":43.30921,"lon":5.40156,"is_reserved":false,"is_disabled":false,"rental_uris":{"android":"levelo://app?vid=fb6f77a9-5987-418d-9602-0247c990dbad","ios":"levelo://app?vid=fb6f77a9-5987-418d-9602-0247c990dbad"},"vehicle_type_id":"4","last_reported":1732414977,"current_range_meters":19600,"station_id":"ce4bgvp2rcd13ifvqct0","pricing_plan_id":"cebpf4jnsgd1na2vs0mg"},{"bike_id":"176a6866-e56d-4c77-b5ff-7ec1ba10b370","system_id":"levelo_inurba_marseille","lat":43.23965,"lon":5.36639,"is_reserved":false,"is_disabled":false,"rental_uris":{"android":"levelo://app?vid=176a6866-e56d-4c77-b5ff-7ec1ba10b370","ios":"levelo://app?vid=176a6866-e56d-4c77-b5ff-7ec1ba10b370"},"vehicle_type_id":"4","last_reported":1732414977,"current_range_meters":38800,"station_id":"ce4bhi12rcd13ifvqfp0","pricing_plan_id":"cebpf4jnsgd1na2vs0mg"},{"bike_id":"9647d9a8-a1f3-4aef-846e-b8f5e6268a7b","system_id":"levelo_inurba_marseille","lat":43.29793,"lon":5.39343,"is_reserved":false,"is_disabled":false,"rental_uris":{"android":"levelo://app?vid=9647d9a8-a1f3-4aef-846e-b8f5e6268a7b","ios":"levelo://app?vid=9647d9a8-a1f3-4aef-846e-b8f5e6268a7b"},"vehicle_type_id":"4","last_reported":1732414977,"current_range_meters":32400,"station_id":"chh1huq6cuj3fo74tm60","pricing_plan_id":"cebpf4jnsgd1na2vs0mg"},{"bike_id":"ce6fa27d-b99d-419e-b537-a041802fd74b","system_id":"levelo_inurba_marseille","lat":43.28729,"lon":5.36092,"is_reserved":false,"is_disabled":false,"rental_uris":{"android":"levelo://app?vid=ce6fa27d-b99d-419e-b537-a041802fd74b","ios":"levelo://app?vid=ce6fa27d-b99d-419e-b537-a041802fd74b"},"vehicle_type_id":"4","last_reported":1732414977,"current_range_meters":33200,"station_id":"cki0cbj6b192h4jlfktg","pricing_plan_id":"cebpf4jnsgd1na2vs0mg"},{"bike_id":"17ba6615-9f08-440e-93e9-f8f4f3600fcd","system_id":"levelo_inurba_marseille","lat":43.3055,"lon":5.36519,"is_reserved":false,"is_disabled":true,"rental_uris":{"android":"levelo://app?vid=17ba6615-9f08-440e-93e9-f8f4f3600fcd","ios":"levelo://app?vid=17ba6615-9f08-440e-93e9-f8f4f3600fcd"},"vehicle_type_id":"4","last_reported":1732414977,"current_range_meters":4400,"station_id":"ce4bgs12rcd13ifvqcag","pricing_plan_id":"cebpf4jnsgd1na2vs0mg"},{"bike_id":"cbc2167d-639d-4b33-b914-3ad6f36f2868","system_id":"levelo_inurba_marseille","lat":43.2292,"lon":5.35374,"is_reserved":false,"is_disabled":false,"rental_uris":{"android":"levelo://app?vid=cbc2167d-639d-4b33-b914-3ad6f36f2868","ios":"levelo://app?vid=cbc2167d-639d-4b33-b914-3ad6f36f2868"},"vehicle_type_id":"4","last_reported":1732414977,"current_range_meters":37600,"station_id":"cpo3532slgdg3j2ikp40","pricing_plan_id":"cebpf4jnsgd1na2vs0mg"},{"bike_id":"f5b9a9d2-8bec-49ff-b34b-3aed7721422f","system_id":"levelo_inurba_marseille","lat":43.27905,"lon":5.39602,"is_reserved":false,"is_disabled":false,"rental_uris":{"android":"levelo://app?vid=f5b9a9d2-8bec-49ff-b34b-3aed7721422f","ios":"levelo://app?vid=f5b9a9d2-8bec-49ff-b34b-3aed7721422f"},"vehicle_type_id":"4","last_reported":1732414977,"current_range_meters":19200,"station_id":"ce4bhf92rcd13ifvqf40","pricing_plan_id":"cebpf4jnsgd1na2vs0mg"},{"bike_id":"67543194-442d-444a-bbec-658de5e439fc","system_id":"levelo_inurba_marseille","lat":43.30144,"lon":5.37417,"is_reserved":false,"is_disabled":false,"rental_uris":{"android":"levelo://app?vid=67543194-442d-444a-bbec-658de5e439fc","ios":"levelo://app?vid=67543194-442d-444a-bbec-658de5e439fc"},"vehicle_type_id":"4","last_reported":1732414977,"current_range_meters":37600,"station_id":"ce4bgs92rcd13ifvqcc0","pricing_plan_id":"cebpf4jnsgd1na2vs0mg"},{"bike_id":"d2d6b761-7df5-4ee3-9c07-7f6feedf1b78","system_id":"levelo_inurba_marseille","lat":43.29249,"lon":5.40893,"is_reserved":false,"is_disabled":false,"rental_uris":{"android":"levelo://app?vid=d2d6b761-7df5-4ee3-9c07-7f6feedf1b78","ios":"levelo://app?vid=d2d6b761-7df5-4ee3-9c07-7f6feedf1b78"},"vehicle_type_id":"4","last_reported":1732414977,"current_range_meters":25600,"station_id":"ce4bh192rcd13ifvqdc0","pricing_plan_id":"cebpf4jnsgd1na2vs0mg"},{"bike_id":"635f2088-37d7-4c7e-b140-3292398be605","system_id":"levelo_inurba_marseille","lat":43.24808,"lon":5.37466,"is_reserved":false,"is_disabled":false,"rental_uris":{"android":"levelo://app?vid=635f2088-37d7-4c7e-b140-3292398be605","ios":"levelo://app?vid=635f2088-37d7-4c7e-b140-3292398be605"},"vehicle_type_id":"4","last_reported":1732414977,"current_range_meters":36800,"station_id":"ce4bhgh2rcd13ifvqfb0","pricing_plan_id":"cebpf4jnsgd1na2vs0mg"},{"bike_id":"c838ef5d-d731-4ac9-87b1-ee7a3a460494","system_id":"levelo_inurba_marseille","lat":43.2972,"lon":5.36607,"is_reserved":false,"is_disabled":false,"rental_uris":{"android":"levelo://app?vid=c838ef5d-d731-4ac9-87b1-ee7a3a460494","ios":"levelo://app?vid=c838ef5d-d731-4ac9-87b1-ee7a3a460494"},"vehicle_type_id":"4","last_reported":1732414977,"current_range_meters":26000,"station_id":"ce4bgn12rcd13ifvqbt0","pricing_plan_id":"cebpf4jnsgd1na2vs0mg"},{"bike_id":"d7259feb-ca11-4e85-b9f7-53a5ce5807f9","system_id":"levelo_inurba_marseille","lat":43.27661,"lon":5.38919,"is_reserved":false,"is_disabled":false,"rental_uris":{"android":"levelo://app?vid=d7259feb-ca11-4e85-b9f7-53a5ce5807f9","ios":"levelo://app?vid=d7259feb-ca11-4e85-b9f7-53a5ce5807f9"},"vehicle_type_id":"4","last_reported":1732414977,"current_range_meters":38800,"station_id":"ce4bhi12rcd13ifvqfo0","pricing_plan_id":"cebpf4jnsgd1na2vs0mg"},{"bike_id":"35d0c5a1-95b7-402a-be87-83d00d9535ed","system_id":"levelo_inurba_marseille","lat":43.31324,"lon":5.3969,"is_reserved":false,"is_disabled":false,"rental_uris":{"android":"levelo://app?vid=35d0c5a1-95b7-402a-be87-83d00d9535ed","ios":"levelo://app?vid=35d0c5a1-95b7-402a-be87-83d00d9535ed"},"vehicle_type_id":"4","last_reported":1732414977,"current_range_meters":34000,"station_id":"ce4bgvp2rcd13ifvqcu0","pricing_plan_id":"cebpf4jnsgd1na2vs0mg"},{"bike_id":"7fe1dcea-a638-4ae0-8b82-a5b4f5b624da","system_id":"levelo_inurba_marseille","lat":43.31177,"lon":5.38697,"is_reserved":false,"is_disabled":false,"rental_uris":{"android":"levelo://app?vid=7fe1dcea-a638-4ae0-8b82-a5b4f5b624da","ios":"levelo://app?vid=7fe1dcea-a638-4ae0-8b82-a5b4f5b624da"},"vehicle_type_id":"4","last_reported":1732414977,"current_range_meters":38400,"station_id":"ce4bgv12rcd13ifvqcp0","pricing_plan_id":"cebpf4jnsgd1na2vs0mg"},{"bike_id":"5764f65a-e9ea-485c-9204-598562cdd968","system_id":"levelo_inurba_marseille","lat":43.28604,"lon":5.37065,"is_reserved":false,"is_disabled":false,"rental_uris":{"android":"levelo://app?vid=5764f65a-e9ea-485c-9204-598562cdd968","ios":"levelo://app?vid=5764f65a-e9ea-485c-9204-598562cdd968"},"vehicle_type_id":"4","last_reported":1732414977,"current_range_meters":7200,"station_id":"ce4bht12rcd13ifvqi60","pricing_plan_id":"cebpf4jnsgd1na2vs0mg"},{"bike_id":"1f6861f8-a4ba-4edc-b620-14eb78d59e00","system_id":"levelo_inurba_marseille","lat":43.30435,"lon":5.38904,"is_reserved":false,"is_disabled":false,"rental_uris":{"android":"levelo://app?vid=1f6861f8-a4ba-4edc-b620-14eb78d59e00","ios":"levelo://app?vid=1f6861f8-a4ba-4edc-b620-14eb78d59e00"},"vehicle_type_id":"4","last_reported":1732414977,"current_range_meters":25600,"station_id":"ce4bgk12rcd13ifvqbi0","pricing_plan_id":"cebpf4jnsgd1na2vs0mg"},{"bike_id":"2671fb8a-3452-46fd-bec4-bd169133378c","system_id":"levelo_inurba_marseille","lat":43.26684,"lon":5.38284,"is_reserved":false,"is_disabled":true,"rental_uris":{"android":"levelo://app?vid=2671fb8a-3452-46fd-bec4-bd169133378c","ios":"levelo://app?vid=2671fb8a-3452-46fd-bec4-bd169133378c"},"vehicle_type_id":"4","last_reported":1732414977,"current_range_meters":38800,"station_id":"ce4bhg92rcd13ifvqf90","pricing_plan_id":"cebpf4jnsgd1na2vs0mg"},{"bike_id":"6e5f0abd-4828-428c-93b3-40258f9f6c4d","system_id":"levelo_inurba_marseille","lat":43.31888,"lon":5.40736,"is_reserved":false,"is_disabled":false,"rental_uris":{"android":"levelo://app?vid=6e5f0abd-4828-428c-93b3-40258f9f6c4d","ios":"levelo://app?vid=6e5f0abd-4828-428c-93b3-40258f9f6c4d"},"vehicle_type_id":"4","last_reported":1732414977,"current_range_meters":28400,"station_id":"ce4bhq12rcd13ifvqhig","pricing_plan_id":"cebpf4jnsgd1na2vs0mg"},{"bike_id":"78d4ded6-449d-416a-9ec0-7767d7d3439a","system_id":"levelo_inurba_marseille","lat":43.29257,"lon":5.40901,"is_reserved":false,"is_disabled":false,"rental_uris":{"android":"levelo://app?vid=78d4ded6-449d-416a-9ec0-7767d7d3439a","ios":"levelo://app?vid=78d4ded6-449d-416a-9ec0-7767d7d3439a"},"vehicle_type_id":"4","last_reported":1732414977,"current_range_meters":33600,"station_id":"ce4bh192rcd13ifvqdc0","pricing_plan_id":"cebpf4jnsgd1na2vs0mg"},{"bike_id":"28f8ecf8-a7ae-4a32-aa4f-609e03eada5d","system_id":"levelo_inurba_marseille","lat":43.29536,"lon":5.38524,"is_reserved":false,"is_disabled":true,"rental_uris":{"android":"levelo://app?vid=28f8ecf8-a7ae-4a32-aa4f-609e03eada5d","ios":"levelo://app?vid=28f8ecf8-a7ae-4a32-aa4f-609e03eada5d"},"vehicle_type_id":"4","last_reported":1732414977,"current_range_meters":0,"station_id":"ce4bgih2rcd13ifvqba0","pricing_plan_id":"cebpf4jnsgd1na2vs0mg"},{"bike_id":"858b65e1-94fc-4151-a71e-8b168cb19dcb","system_id":"levelo_inurba_marseille","lat":43.32249,"lon":5.39241,"is_reserved":false,"is_disabled":true,"rental_uris":{"android":"levelo://app?vid=858b65e1-94fc-4151-a71e-8b168cb19dcb","ios":"levelo://app?vid=858b65e1-94fc-4151-a71e-8b168cb19dcb"},"vehicle_type_id":"4","last_reported":1732414977,"current_range_meters":8800,"station_id":"","pricing_plan_id":"cebpf4jnsgd1na2vs0mg"},{"bike_id":"08abbd03-819b-449a-9e0f-97225b9115a3","system_id":"levelo_inurba_marseille","lat":43.27838,"lon":5.39204,"is_reserved":false,"is_disabled":false,"rental_uris":{"android":"levelo://app?vid=08abbd03-819b-449a-9e0f-97225b9115a3","ios":"levelo://app?vid=08abbd03-819b-449a-9e0f-97225b9115a3"},"vehicle_type_id":"4","last_reported":1732414977,"current_range_meters":26800,"station_id":"ce4bhjp2rcd13ifvqga0","pricing_plan_id":"cebpf4jnsgd1na2vs0mg"},{"bike_id":"64cacc5e-c31a-4ddd-bfe7-67a8c291bcf0","system_id":"levelo_inurba_marseille","lat":43.29639,"lon":5.40595,"is_reserved":false,"is_disabled":false,"rental_uris":{"android":"levelo://app?vid=64cacc5e-c31a-4ddd-bfe7-67a8c291bcf0","ios":"levelo://app?vid=64cacc5e-c31a-4ddd-bfe7-67a8c291bcf0"},"vehicle_type_id":"4","last_reported":1732414977,"current_range_meters":16000,"station_id":"ce4bh0h2rcd13ifvqd60","pricing_plan_id":"cebpf4jnsgd1na2vs0mg"},{"bike_id":"79a46f61-d50b-4aac-937d-de8501ad6d3e","system_id":"levelo_inurba_marseille","lat":43.29536,"lon":5.42272,"is_reserved":false,"is_disabled":false,"rental_uris":{"android":"levelo://app?vid=79a46f61-d50b-4aac-937d-de8501ad6d3e","ios":"levelo://app?vid=79a46f61-d50b-4aac-937d-de8501ad6d3e"},"vehicle_type_id":"4","last_reported":1732414977,"current_range_meters":25600,"station_id":"ce4bhph2rcd13ifvqhdg","pricing_plan_id":"cebpf4jnsgd1na2vs0mg"},{"bike_id":"133c0635-6ac4-49a6-b3b8-4ad5dda949c5","system_id":"levelo_inurba_marseille","lat":43.316958,"lon":5.377334,"is_reserved":false,"is_disabled":true,"rental_uris":{"android":"levelo://app?vid=133c0635-6ac4-49a6-b3b8-4ad5dda949c5","ios":"levelo://app?vid=133c0635-6ac4-49a6-b3b8-4ad5dda949c5"},"vehicle_type_id":"4","last_reported":1732414977,"current_range_meters":38800,"station_id":"ce4bgth2rcd13ifvqch0","pricing_plan_id":"cebpf4jnsgd1na2vs0mg"},{"bike_id":"bcc3b397-4053-4374-93ce-1da8586f0c5d","system_id":"levelo_inurba_marseille","lat":43.33727,"lon":5.39186,"is_reserved":false,"is_disabled":false,"rental_uris":{"android":"levelo://app?vid=bcc3b397-4053-4374-93ce-1da8586f0c5d","ios":"levelo://app?vid=bcc3b397-4053-4374-93ce-1da8586f0c5d"},"vehicle_type_id":"4","last_reported":1732414977,"current_range_meters":38800,"station_id":"ce4bhr92rcd13ifvqhsg","pricing_plan_id":"cebpf4jnsgd1na2vs0mg"},{"bike_id":"3689d08c-cda8-4e2b-96b1-9d56a9cf8868","system_id":"levelo_inurba_marseille","lat":43.29804,"lon":5.37106,"is_reserved":false,"is_disabled":false,"rental_uris":{"android":"levelo://app?vid=3689d08c-cda8-4e2b-96b1-9d56a9cf8868","ios":"levelo://app?vid=3689d08c-cda8-4e2b-96b1-9d56a9cf8868"},"vehicle_type_id":"4","last_reported":1732414977,"current_range_meters":33600,"station_id":"ce4bgop2rcd13ifvqc1g","pricing_plan_id":"cebpf4jnsgd1na2vs0mg"},{"bike_id":"d10336fe-c20c-4a65-b5c7-91fc2a2cbdb6","system_id":"levelo_inurba_marseille","lat":43.31368,"lon":5.38496,"is_reserved":false,"is_disabled":true,"rental_uris":{"android":"levelo://app?vid=d10336fe-c20c-4a65-b5c7-91fc2a2cbdb6","ios":"levelo://app?vid=d10336fe-c20c-4a65-b5c7-91fc2a2cbdb6"},"vehicle_type_id":"4","last_reported":1732414977,"current_range_meters":10000,"station_id":"ce4bgt92rcd13ifvqcf0","pricing_plan_id":"cebpf4jnsgd1na2vs0mg"},{"bike_id":"f139d3f8-2444-4038-9756-27cc0e458348","system_id":"levelo_inurba_marseille","lat":43.28717,"lon":5.37935,"is_reserved":false,"is_disabled":false,"rental_uris":{"android":"levelo://app?vid=f139d3f8-2444-4038-9756-27cc0e458348","ios":"levelo://app?vid=f139d3f8-2444-4038-9756-27cc0e458348"},"vehicle_type_id":"4","last_reported":1732414977,"current_range_meters":38800,"station_id":"ce4bh9p2rcd13ifvqec0","pricing_plan_id":"cebpf4jnsgd1na2vs0mg"},{"bike_id":"6329708f-cd48-4a04-a00b-46882fe66552","system_id":"levelo_inurba_marseille","lat":43.29024,"lon":5.35608,"is_reserved":false,"is_disabled":false,"rental_uris":{"android":"levelo://app?vid=6329708f-cd48-4a04-a00b-46882fe66552","ios":"levelo://app?vid=6329708f-cd48-4a04-a00b-46882fe66552"},"vehicle_type_id":"4","last_reported":1732414977,"current_range_meters":20000,"station_id":"ce4bhb92rcd13ifvqen0","pricing_plan_id":"cebpf4jnsgd1na2vs0mg"},{"bike_id":"09ab20da-d0df-4427-9cea-390b6ab2d379","system_id":"levelo_inurba_marseille","lat":43.28566,"lon":5.39529,"is_reserved":false,"is_disabled":false,"rental_uris":{"android":"levelo://app?vid=09ab20da-d0df-4427-9cea-390b6ab2d379","ios":"levelo://app?vid=09ab20da-d0df-4427-9cea-390b6ab2d379"},"vehicle_type_id":"4","last_reported":1732414977,"current_range_meters":38800,"station_id":"ce4bh292rcd13ifvqdg0","pricing_plan_id":"cebpf4jnsgd1na2vs0mg"},{"bike_id":"f7033b3a-38b5-43ec-9dfb-9338084bda7e","system_id":"levelo_inurba_marseille","lat":43.26063,"lon":5.39395,"is_reserved":false,"is_disabled":true,"rental_uris":{"android":"levelo://app?vid=f7033b3a-38b5-43ec-9dfb-9338084bda7e","ios":"levelo://app?vid=f7033b3a-38b5-43ec-9dfb-9338084bda7e"},"vehicle_type_id":"4","last_reported":1732414977,"current_range_meters":0,"station_id":"ce4bhh92rcd13ifvqfj0","pricing_plan_id":"cebpf4jnsgd1na2vs0mg"},{"bike_id":"749b841c-80f7-4bda-b6c3-79c2962acd5f","system_id":"levelo_inurba_marseille","lat":43.29712,"lon":5.36617,"is_reserved":false,"is_disabled":false,"rental_uris":{"android":"levelo://app?vid=749b841c-80f7-4bda-b6c3-79c2962acd5f","ios":"levelo://app?vid=749b841c-80f7-4bda-b6c3-79c2962acd5f"},"vehicle_type_id":"4","last_reported":1732414977,"current_range_meters":37600,"station_id":"ce4bgn12rcd13ifvqbt0","pricing_plan_id":"cebpf4jnsgd1na2vs0mg"},{"bike_id":"552ae1f9-34eb-4d70-a19b-3616d3661778","system_id":"levelo_inurba_marseille","lat":43.33718,"lon":5.39177,"is_reserved":false,"is_disabled":false,"rental_uris":{"android":"levelo://app?vid=552ae1f9-34eb-4d70-a19b-3616d3661778","ios":"levelo://app?vid=552ae1f9-34eb-4d70-a19b-3616d3661778"},"vehicle_type_id":"4","last_reported":1732414977,"current_range_meters":17600,"station_id":"ce4bhr92rcd13ifvqhsg","pricing_plan_id":"cebpf4jnsgd1na2vs0mg"},{"bike_id":"f7f3756c-1ec7-4782-9c87-6273f87b6774","system_id":"levelo_inurba_marseille","lat":43.337444,"lon":5.374475,"is_reserved":false,"is_disabled":true,"rental_uris":{"android":"levelo://app?vid=f7f3756c-1ec7-4782-9c87-6273f87b6774","ios":"levelo://app?vid=f7f3756c-1ec7-4782-9c87-6273f87b6774"},"vehicle_type_id":"4","last_reported":1732414977,"current_range_meters":30400,"station_id":"","pricing_plan_id":"cebpf4jnsgd1na2vs0mg"},{"bike_id":"740f162e-a0c7-4af9-899d-283ea1409dc6","system_id":"levelo_inurba_marseille","lat":43.26906,"lon":5.38958,"is_reserved":false,"is_disabled":true,"rental_uris":{"android":"levelo://app?vid=740f162e-a0c7-4af9-899d-283ea1409dc6","ios":"levelo://app?vid=740f162e-a0c7-4af9-899d-283ea1409dc6"},"vehicle_type_id":"4","last_reported":1732414977,"current_range_meters":33600,"station_id":"ce4bhhh2rcd13ifvqfl0","pricing_plan_id":"cebpf4jnsgd1na2vs0mg"},{"bike_id":"fdad8c31-b968-44fd-ac61-fbd0b35e667d","system_id":"levelo_inurba_marseille","lat":43.3041,"lon":5.41126,"is_reserved":false,"is_disabled":false,"rental_uris":{"android":"levelo://app?vid=fdad8c31-b968-44fd-ac61-fbd0b35e667d","ios":"levelo://app?vid=fdad8c31-b968-44fd-ac61-fbd0b35e667d"},"vehicle_type_id":"4","last_reported":1732414977,"current_range_meters":28800,"station_id":"ce4bhop2rcd13ifvqh8g","pricing_plan_id":"cebpf4jnsgd1na2vs0mg"},{"bike_id":"cc88fad8-5106-4c6d-8f52-96d59990a5c7","system_id":"levelo_inurba_marseille","lat":43.27181,"lon":5.40993,"is_reserved":false,"is_disabled":false,"rental_uris":{"android":"levelo://app?vid=cc88fad8-5106-4c6d-8f52-96d59990a5c7","ios":"levelo://app?vid=cc88fad8-5106-4c6d-8f52-96d59990a5c7"},"vehicle_type_id":"4","last_reported":1732414977,"current_range_meters":38800,"station_id":"ce4bhl12rcd13ifvqgf0","pricing_plan_id":"cebpf4jnsgd1na2vs0mg"},{"bike_id":"4fcad102-dd26-4f30-a5cc-f15f83040cd7","system_id":"levelo_inurba_marseille","lat":43.27999,"lon":5.40017,"is_reserved":false,"is_disabled":false,"rental_uris":{"android":"levelo://app?vid=4fcad102-dd26-4f30-a5cc-f15f83040cd7","ios":"levelo://app?vid=4fcad102-dd26-4f30-a5cc-f15f83040cd7"},"vehicle_type_id":"4","last_reported":1732414977,"current_range_meters":38000,"station_id":"ce4bho92rcd13ifvqh4g","pricing_plan_id":"cebpf4jnsgd1na2vs0mg"},{"bike_id":"ed1f2db2-1d34-4bf2-b212-ac00e9ab3aa5","system_id":"levelo_inurba_marseille","lat":43.28144,"lon":5.42647,"is_reserved":false,"is_disabled":false,"rental_uris":{"android":"levelo://app?vid=ed1f2db2-1d34-4bf2-b212-ac00e9ab3aa5","ios":"levelo://app?vid=ed1f2db2-1d34-4bf2-b212-ac00e9ab3aa5"},"vehicle_type_id":"4","last_reported":1732414977,"current_range_meters":20400,"station_id":"ce4bhnh2rcd13ifvqgug","pricing_plan_id":"cebpf4jnsgd1na2vs0mg"},{"bike_id":"ae2b9dc9-2b11-49d7-85f2-a5f66993d139","system_id":"levelo_inurba_marseille","lat":43.27528,"lon":5.41628,"is_reserved":false,"is_disabled":false,"rental_uris":{"android":"levelo://app?vid=ae2b9dc9-2b11-49d7-85f2-a5f66993d139","ios":"levelo://app?vid=ae2b9dc9-2b11-49d7-85f2-a5f66993d139"},"vehicle_type_id":"4","last_reported":1732414977,"current_range_meters":25600,"station_id":"","pricing_plan_id":"cebpf4jnsgd1na2vs0mg"},{"bike_id":"c40df751-baf2-483f-a4b2-d1e922084467","system_id":"levelo_inurba_marseille","lat":43.30542,"lon":5.38434,"is_reserved":false,"is_disabled":false,"rental_uris":{"android":"levelo://app?vid=c40df751-baf2-483f-a4b2-d1e922084467","ios":"levelo://app?vid=c40df751-baf2-483f-a4b2-d1e922084467"},"vehicle_type_id":"4","last_reported":1732414977,"current_range_meters":30000,"station_id":"ce4bgg92rcd13ifvqb30","pricing_plan_id":"cebpf4jnsgd1na2vs0mg"},{"bike_id":"96fef04f-f424-4b1e-a003-fc645e04ed3a","system_id":"levelo_inurba_marseille","lat":43.27377,"lon":5.36241,"is_reserved":false,"is_disabled":true,"rental_uris":{"android":"levelo://app?vid=96fef04f-f424-4b1e-a003-fc645e04ed3a","ios":"levelo://app?vid=96fef04f-f424-4b1e-a003-fc645e04ed3a"},"vehicle_type_id":"4","last_reported":1732414977,"current_range_meters":34000,"station_id":"ce4bhbh2rcd13ifvqeo0","pricing_plan_id":"cebpf4jnsgd1na2vs0mg"},{"bike_id":"b7b61d62-d3cf-45c0-ae9e-f05215122577","system_id":"levelo_inurba_marseille","lat":43.30921,"lon":5.40143,"is_reserved":false,"is_disabled":true,"rental_uris":{"android":"levelo://app?vid=b7b61d62-d3cf-45c0-ae9e-f05215122577","ios":"levelo://app?vid=b7b61d62-d3cf-45c0-ae9e-f05215122577"},"vehicle_type_id":"4","last_reported":1732414977,"current_range_meters":0,"station_id":"ce4bgvp2rcd13ifvqct0","pricing_plan_id":"cebpf4jnsgd1na2vs0mg"},{"bike_id":"d829a23f-8ecd-4bdd-b419-70b6e5e55aec","system_id":"levelo_inurba_marseille","lat":43.30163,"lon":5.39886,"is_reserved":false,"is_disabled":false,"rental_uris":{"android":"levelo://app?vid=d829a23f-8ecd-4bdd-b419-70b6e5e55aec","ios":"levelo://app?vid=d829a23f-8ecd-4bdd-b419-70b6e5e55aec"},"vehicle_type_id":"4","last_reported":1732414977,"current_range_meters":35600,"station_id":"ce4bh0h2rcd13ifvqd40","pricing_plan_id":"cebpf4jnsgd1na2vs0mg"},{"bike_id":"b69d3f02-b66a-4b6f-9d2f-8f4c1941601c","system_id":"levelo_inurba_marseille","lat":43.24101,"lon":5.3773,"is_reserved":false,"is_disabled":false,"rental_uris":{"android":"levelo://app?vid=b69d3f02-b66a-4b6f-9d2f-8f4c1941601c","ios":"levelo://app?vid=b69d3f02-b66a-4b6f-9d2f-8f4c1941601c"},"vehicle_type_id":"4","last_reported":1732414977,"current_range_meters":26800,"station_id":"ce4bhnp2rcd13ifvqgvg","pricing_plan_id":"cebpf4jnsgd1na2vs0mg"},{"bike_id":"9ecc4a9a-817f-4837-b4ad-aaca7db32274","system_id":"levelo_inurba_marseille","lat":43.33619,"lon":5.40995,"is_reserved":false,"is_disabled":false,"rental_uris":{"android":"levelo://app?vid=9ecc4a9a-817f-4837-b4ad-aaca7db32274","ios":"levelo://app?vid=9ecc4a9a-817f-4837-b4ad-aaca7db32274"},"vehicle_type_id":"4","last_reported":1732414977,"current_range_meters":38800,"station_id":"ce4bhqh2rcd13ifvqhmg","pricing_plan_id":"cebpf4jnsgd1na2vs0mg"},{"bike_id":"1eff2185-7ff3-4d99-99cc-38f0a5bc3cb8","system_id":"levelo_inurba_marseille","lat":43.25711,"lon":5.41094,"is_reserved":false,"is_disabled":false,"rental_uris":{"android":"levelo://app?vid=1eff2185-7ff3-4d99-99cc-38f0a5bc3cb8","ios":"levelo://app?vid=1eff2185-7ff3-4d99-99cc-38f0a5bc3cb8"},"vehicle_type_id":"4","last_reported":1732414977,"current_range_meters":24400,"station_id":"ce4bhkp2rcd13ifvqgd0","pricing_plan_id":"cebpf4jnsgd1na2vs0mg"},{"bike_id":"a55c7155-8dfc-4e13-b519-3e89d853fb5a","system_id":"levelo_inurba_marseille","lat":43.32656,"lon":5.40998,"is_reserved":false,"is_disabled":false,"rental_uris":{"android":"levelo://app?vid=a55c7155-8dfc-4e13-b519-3e89d853fb5a","ios":"levelo://app?vid=a55c7155-8dfc-4e13-b519-3e89d853fb5a"},"vehicle_type_id":"4","last_reported":1732414977,"current_range_meters":32000,"station_id":"ce4bhpp2rcd13ifvqhgg","pricing_plan_id":"cebpf4jnsgd1na2vs0mg"},{"bike_id":"94dc74d6-9f55-48ea-a920-89b1c39d4732","system_id":"levelo_inurba_marseille","lat":43.30417,"lon":5.41273,"is_reserved":false,"is_disabled":false,"rental_uris":{"android":"levelo://app?vid=94dc74d6-9f55-48ea-a920-89b1c39d4732","ios":"levelo://app?vid=94dc74d6-9f55-48ea-a920-89b1c39d4732"},"vehicle_type_id":"4","last_reported":1732414977,"current_range_meters":8800,"station_id":"ce4bhop2rcd13ifvqh8g","pricing_plan_id":"cebpf4jnsgd1na2vs0mg"},{"bike_id":"63e5c75a-30c8-4be5-8ec8-448fdf89dbb8","system_id":"levelo_inurba_marseille","lat":43.23062,"lon":5.35482,"is_reserved":false,"is_disabled":false,"rental_uris":{"android":"levelo://app?vid=63e5c75a-30c8-4be5-8ec8-448fdf89dbb8","ios":"levelo://app?vid=63e5c75a-30c8-4be5-8ec8-448fdf89dbb8"},"vehicle_type_id":"4","last_reported":1732414977,"current_range_meters":7200,"station_id":"cpo3342slgdg3j2ifvpg","pricing_plan_id":"cebpf4jnsgd1na2vs0mg"},{"bike_id":"ca3c2b50-0588-45a9-bd94-0d3d8231088d","system_id":"levelo_inurba_marseille","lat":43.3169,"lon":5.37783,"is_reserved":false,"is_disabled":false,"rental_uris":{"android":"levelo://app?vid=ca3c2b50-0588-45a9-bd94-0d3d8231088d","ios":"levelo://app?vid=ca3c2b50-0588-45a9-bd94-0d3d8231088d"},"vehicle_type_id":"4","last_reported":1732414977,"current_range_meters":38800,"station_id":"ce4bgth2rcd13ifvqch0","pricing_plan_id":"cebpf4jnsgd1na2vs0mg"},{"bike_id":"1e193d09-2cb0-4798-8e19-b0516f3ebb8e","system_id":"levelo_inurba_marseille","lat":43.28151,"lon":5.42642,"is_reserved":false,"is_disabled":false,"rental_uris":{"android":"levelo://app?vid=1e193d09-2cb0-4798-8e19-b0516f3ebb8e","ios":"levelo://app?vid=1e193d09-2cb0-4798-8e19-b0516f3ebb8e"},"vehicle_type_id":"4","last_reported":1732414977,"current_range_meters":20400,"station_id":"ce4bhnh2rcd13ifvqgug","pricing_plan_id":"cebpf4jnsgd1na2vs0mg"},{"bike_id":"325fe5f5-d999-444f-bb23-27ea636eb738","system_id":"levelo_inurba_marseille","lat":43.24164,"lon":5.36393,"is_reserved":false,"is_disabled":false,"rental_uris":{"android":"levelo://app?vid=325fe5f5-d999-444f-bb23-27ea636eb738","ios":"levelo://app?vid=325fe5f5-d999-444f-bb23-27ea636eb738"},"vehicle_type_id":"4","last_reported":1732414977,"current_range_meters":37600,"station_id":"cpo36qri1sfpv3e86is0","pricing_plan_id":"cebpf4jnsgd1na2vs0mg"},{"bike_id":"89228f68-3127-4436-9201-8331b38355c7","system_id":"levelo_inurba_marseille","lat":43.25718,"lon":5.41093,"is_reserved":false,"is_disabled":false,"rental_uris":{"android":"levelo://app?vid=89228f68-3127-4436-9201-8331b38355c7","ios":"levelo://app?vid=89228f68-3127-4436-9201-8331b38355c7"},"vehicle_type_id":"4","last_reported":1732414977,"current_range_meters":38400,"station_id":"ce4bhkp2rcd13ifvqgd0","pricing_plan_id":"cebpf4jnsgd1na2vs0mg"},{"bike_id":"0e4e4e0f-80b8-4da4-a5fd-15d890ba7922","system_id":"levelo_inurba_marseille","lat":43.27983,"lon":5.41677,"is_reserved":false,"is_disabled":false,"rental_uris":{"android":"levelo://app?vid=0e4e4e0f-80b8-4da4-a5fd-15d890ba7922","ios":"levelo://app?vid=0e4e4e0f-80b8-4da4-a5fd-15d890ba7922"},"vehicle_type_id":"4","last_reported":1732414977,"current_range_meters":39200,"station_id":"ce4bho12rcd13ifvqh1g","pricing_plan_id":"cebpf4jnsgd1na2vs0mg"},{"bike_id":"400c51b9-2ef9-425c-b02b-68c86da8008f","system_id":"levelo_inurba_marseille","lat":43.28421,"lon":5.34992,"is_reserved":false,"is_disabled":false,"rental_uris":{"android":"levelo://app?vid=400c51b9-2ef9-425c-b02b-68c86da8008f","ios":"levelo://app?vid=400c51b9-2ef9-425c-b02b-68c86da8008f"},"vehicle_type_id":"4","last_reported":1732414977,"current_range_meters":38800,"station_id":"ce4bhbh2rcd13ifvqepg","pricing_plan_id":"cebpf4jnsgd1na2vs0mg"},{"bike_id":"e5951ee3-4a5a-4ebb-b469-096c5188dfa3","system_id":"levelo_inurba_marseille","lat":43.23194,"lon":5.35575,"is_reserved":false,"is_disabled":false,"rental_uris":{"android":"levelo://app?vid=e5951ee3-4a5a-4ebb-b469-096c5188dfa3","ios":"levelo://app?vid=e5951ee3-4a5a-4ebb-b469-096c5188dfa3"},"vehicle_type_id":"4","last_reported":1732414977,"current_range_meters":20400,"station_id":"ce4bhu92rcd13ifvqi70","pricing_plan_id":"cebpf4jnsgd1na2vs0mg"},{"bike_id":"b4031e97-07ad-4bf3-b625-27b2659b4faf","system_id":"levelo_inurba_marseille","lat":43.25699,"lon":5.41109,"is_reserved":false,"is_disabled":false,"rental_uris":{"android":"levelo://app?vid=b4031e97-07ad-4bf3-b625-27b2659b4faf","ios":"levelo://app?vid=b4031e97-07ad-4bf3-b625-27b2659b4faf"},"vehicle_type_id":"4","last_reported":1732414977,"current_range_meters":12000,"station_id":"ce4bhkp2rcd13ifvqgd0","pricing_plan_id":"cebpf4jnsgd1na2vs0mg"},{"bike_id":"0fe9f654-f958-4eec-869e-d9d84a4c2ba7","system_id":"levelo_inurba_marseille","lat":43.2952,"lon":5.37498,"is_reserved":false,"is_disabled":false,"rental_uris":{"android":"levelo://app?vid=0fe9f654-f958-4eec-869e-d9d84a4c2ba7","ios":"levelo://app?vid=0fe9f654-f958-4eec-869e-d9d84a4c2ba7"},"vehicle_type_id":"4","last_reported":1732414977,"current_range_meters":36800,"station_id":"ce4bgkp2rcd13ifvqbmg","pricing_plan_id":"cebpf4jnsgd1na2vs0mg"},{"bike_id":"53aedfa4-4049-4759-bc95-757addd8c685","system_id":"levelo_inurba_marseille","lat":43.26557,"lon":5.3732,"is_reserved":false,"is_disabled":false,"rental_uris":{"android":"levelo://app?vid=53aedfa4-4049-4759-bc95-757addd8c685","ios":"levelo://app?vid=53aedfa4-4049-4759-bc95-757addd8c685"},"vehicle_type_id":"4","last_reported":1732414977,"current_range_meters":38000,"station_id":"ce4bhg12rcd13ifvqf70","pricing_plan_id":"cebpf4jnsgd1na2vs0mg"},{"bike_id":"4f389f48-f165-455a-980b-fa52db1cf7bf","system_id":"levelo_inurba_marseille","lat":43.31472,"lon":5.37288,"is_reserved":false,"is_disabled":false,"rental_uris":{"android":"levelo://app?vid=4f389f48-f165-455a-980b-fa52db1cf7bf","ios":"levelo://app?vid=4f389f48-f165-455a-980b-fa52db1cf7bf"},"vehicle_type_id":"4","last_reported":1732414977,"current_range_meters":38800,"station_id":"ce4bgt12rcd13ifvqcd0","pricing_plan_id":"cebpf4jnsgd1na2vs0mg"},{"bike_id":"c1ad12cc-73ba-4cde-9739-a6c3d0ddd070","system_id":"levelo_inurba_marseille","lat":43.24387,"lon":5.37055,"is_reserved":false,"is_disabled":false,"rental_uris":{"android":"levelo://app?vid=c1ad12cc-73ba-4cde-9739-a6c3d0ddd070","ios":"levelo://app?vid=c1ad12cc-73ba-4cde-9739-a6c3d0ddd070"},"vehicle_type_id":"4","last_reported":1732414977,"current_range_meters":38800,"station_id":"ce4bhhh2rcd13ifvqfk0","pricing_plan_id":"cebpf4jnsgd1na2vs0mg"},{"bike_id":"39bad283-589b-474c-be69-8875024d7346","system_id":"levelo_inurba_marseille","lat":43.28099,"lon":5.37834,"is_reserved":false,"is_disabled":false,"rental_uris":{"android":"levelo://app?vid=39bad283-589b-474c-be69-8875024d7346","ios":"levelo://app?vid=39bad283-589b-474c-be69-8875024d7346"},"vehicle_type_id":"4","last_reported":1732414977,"current_range_meters":27200,"station_id":"ce4bha12rcd13ifvqee0","pricing_plan_id":"cebpf4jnsgd1na2vs0mg"},{"bike_id":"6c948e9c-d5b3-4fe5-a918-1bd2f7c83b02","system_id":"levelo_inurba_marseille","lat":43.32109,"lon":5.36786,"is_reserved":false,"is_disabled":false,"rental_uris":{"android":"levelo://app?vid=6c948e9c-d5b3-4fe5-a918-1bd2f7c83b02","ios":"levelo://app?vid=6c948e9c-d5b3-4fe5-a918-1bd2f7c83b02"},"vehicle_type_id":"4","last_reported":1732414977,"current_range_meters":30000,"station_id":"ce4bhrh2rcd13ifvqhug","pricing_plan_id":"cebpf4jnsgd1na2vs0mg"},{"bike_id":"9e620abf-d324-4f99-84fc-d67e71109f2a","system_id":"levelo_inurba_marseille","lat":43.31077,"lon":5.42445,"is_reserved":false,"is_disabled":true,"rental_uris":{"android":"levelo://app?vid=9e620abf-d324-4f99-84fc-d67e71109f2a","ios":"levelo://app?vid=9e620abf-d324-4f99-84fc-d67e71109f2a"},"vehicle_type_id":"4","last_reported":1732414977,"current_range_meters":0,"station_id":"ce4bhp92rcd13ifvqhag","pricing_plan_id":"cebpf4jnsgd1na2vs0mg"},{"bike_id":"9388a7ff-9c5c-4c26-9899-39b2408cf7e3","system_id":"levelo_inurba_marseille","lat":43.31025,"lon":5.38342,"is_reserved":false,"is_disabled":true,"rental_uris":{"android":"levelo://app?vid=9388a7ff-9c5c-4c26-9899-39b2408cf7e3","ios":"levelo://app?vid=9388a7ff-9c5c-4c26-9899-39b2408cf7e3"},"vehicle_type_id":"4","last_reported":1732414977,"current_range_meters":0,"station_id":"","pricing_plan_id":"cebpf4jnsgd1na2vs0mg"},{"bike_id":"4d6b356d-2cf8-4c98-aed1-976ebfe1555d","system_id":"levelo_inurba_marseille","lat":43.25569,"lon":5.38225,"is_reserved":false,"is_disabled":false,"rental_uris":{"android":"levelo://app?vid=4d6b356d-2cf8-4c98-aed1-976ebfe1555d","ios":"levelo://app?vid=4d6b356d-2cf8-4c98-aed1-976ebfe1555d"},"vehicle_type_id":"4","last_reported":1732414977,"current_range_meters":34800,"station_id":"ce4bhih2rcd13ifvqfs0","pricing_plan_id":"cebpf4jnsgd1na2vs0mg"},{"bike_id":"015b3c69-9da6-4a70-9b96-3e30758935ea","system_id":"levelo_inurba_marseille","lat":43.29261,"lon":5.40918,"is_reserved":false,"is_disabled":false,"rental_uris":{"android":"levelo://app?vid=015b3c69-9da6-4a70-9b96-3e30758935ea","ios":"levelo://app?vid=015b3c69-9da6-4a70-9b96-3e30758935ea"},"vehicle_type_id":"4","last_reported":1732414977,"current_range_meters":14000,"station_id":"ce4bh192rcd13ifvqdc0","pricing_plan_id":"cebpf4jnsgd1na2vs0mg"},{"bike_id":"c6b4454a-877c-429e-8e00-351fc70ff9bb","system_id":"levelo_inurba_marseille","lat":43.32362,"lon":5.38899,"is_reserved":false,"is_disabled":false,"rental_uris":{"android":"levelo://app?vid=c6b4454a-877c-429e-8e00-351fc70ff9bb","ios":"levelo://app?vid=c6b4454a-877c-429e-8e00-351fc70ff9bb"},"vehicle_type_id":"4","last_reported":1732414977,"current_range_meters":10000,"station_id":"ce4bhqp2rcd13ifvqhog","pricing_plan_id":"cebpf4jnsgd1na2vs0mg"},{"bike_id":"878c1aca-74e8-4a96-8b6f-16d85c7f1ac1","system_id":"levelo_inurba_marseille","lat":43.30893,"lon":5.39643,"is_reserved":false,"is_disabled":false,"rental_uris":{"android":"levelo://app?vid=878c1aca-74e8-4a96-8b6f-16d85c7f1ac1","ios":"levelo://app?vid=878c1aca-74e8-4a96-8b6f-16d85c7f1ac1"},"vehicle_type_id":"4","last_reported":1732414977,"current_range_meters":38800,"station_id":"ce4bh012rcd13ifvqcv0","pricing_plan_id":"cebpf4jnsgd1na2vs0mg"},