{"last_updated":1738692743,"ttl":60,"version":"2.2","data":{"bikes":[{"bike_id":"f1ca05a5-7ba2-401a-8ef5-6350e9d41bf8","system_id":"levelo_inurba_marseille","lat":43.29529,"lon":5.38549,"is_reserved":false,"is_disabled":false,"rental_uris":{"android":"levelo://app?vid=f1ca05a5-7ba2-401a-8ef5-6350e9d41bf8","ios":"levelo://app?vid=f1ca05a5-7ba2-401a-8ef5-6350e9d41bf8"},"vehicle_type_id":"4","last_reported":1738692744,"current_range_meters":28800,"station_id":"ce4bgih2rcd13ifvqba0","pricing_plan_id":"cebpf4jnsgd1na2vs0mg"},{"bike_id":"84598151-c453-4c49-a4d4-90560262791b","system_id":"levelo_inurba_marseille","lat":43.25837,"lon":5.39458,"is_reserved":false,"is_disabled":false,"rental_uris":{"android":"levelo://app?vid=84598151-c453-4c49-a4d4-90560262791b","ios":"levelo://app?vid=84598151-c453-4c49-a4d4-90560262791b"},"vehicle_type_id":"4","last_reported":1738692744,"current_range_meters":30000,"station_id":"ce4bhip2rcd13ifvqft0","pricing_plan_id":"cebpf4jnsgd1na2vs0mg"},{"bike_id":"6ef41a8e-78b7-45b8-a494-155b41971b9d","system_id":"levelo_inurba_marseille","lat":43.28408,"lon":5.37518,"is_reserved":false,"is_disabled":false,"rental_uris":{"android":"levelo://app?vid=6ef41a8e-78b7-45b8-a494-155b41971b9d","ios":"levelo://app?vid=6ef41a8e-78b7-45b8-a494-155b41971b9d"},"vehicle_type_id":"4","last_reported":1738692744,"current_range_meters":17200,"station_id":"ce4bh412rcd13ifvqds0","pricing_plan_id":"cebpf4jnsgd1na2vs0mg"},{"bike_id":"b9f078ca-d325-4faa-8614-7d31ee98c407","system_id":"levelo_inurba_marseille","lat":43.27627,"lon":5.36108,"is_reserved":false,"is_disabled":false,"rental_uris":{"android":"levelo://app?vid=b9f078ca-d325-4faa-8614-7d31ee98c407","ios":"levelo://app?vid=b9f078ca-d325-4faa-8614-7d31ee98c407"},"vehicle_type_id":"4","last_reported":1738692744,"current_range_meters":38400,"station_id":"ce4bgj92rcd13ifvqbe0","pricing_plan_id":"cebpf4jnsgd1na2vs0mg"},{"bike_id":"1834cdfa-55d9-40d2-aec4-1230af582f98","system_id":"levelo_inurba_marseille","lat":43.29187,"lon":5.35805,"is_reserved":false,"is_disabled":false,"rental_uris":{"android":"levelo://app?vid=1834cdfa-55d9-40d2-aec4-1230af582f98","ios":"levelo://app?vid=1834cdfa-55d9-40d2-aec4-1230af582f98"},"vehicle_type_id":"4","last_reported":1738692744,"current_range_meters":28000,"station_id":"ce4bhb12rcd13ifvqel0","pricing_plan_id":"cebpf4jnsgd1na2vs0mg"},{"bike_id":"430c9887-709a-4cb8-aaad-24b0546c919e","system_id":"levelo_inurba_marseille","lat":43.29927,"lon":5.36543,"is_reserved":false,"is_disabled":false,"rental_uris":{"android":"levelo://app?vid=430c9887-709a-4cb8-aaad-24b0546c919e","ios":"levelo://app?vid=430c9887-709a-4cb8-aaad-24b0546c919e"},"vehicle_type_id":"4","last_reported":1738692744,"current_range_meters":9600,"station_id":"ce4bgm92rcd13ifvqbr0","pricing_plan_id":"cebpf4jnsgd1na2vs0mg"},{"bike_id":"8253f3da-a43d-4134-9d15-ce8c8ed21758","system_id":"levelo_inurba_marseille","lat":43.23191,"lon":5.3556,"is_reserved":false,"is_disabled":false,"rental_uris":{"android":"levelo://app?vid=8253f3da-a43d-4134-9d15-ce8c8ed21758","ios":"levelo://app?vid=8253f3da-a43d-4134-9d15-ce8c8ed21758"},"vehicle_type_id":"4","last_reported":1738692744,"current_range_meters":16000,"station_id":"ce4bhu92rcd13ifvqi70","pricing_plan_id":"cebpf4jnsgd1na2vs0mg"},{"bike_id":"583c3fe7-92be-46dc-8c89-368fd147bd7e","system_id":"levelo_inurba_marseille","lat":43.30694,"lon":5.36759,"is_reserved":false,"is_disabled":false,"rental_uris":{"android":"levelo://app?vid=583c3fe7-92be-46dc-8c89-368fd147bd7e","ios":"levelo://app?vid=583c3fe7-92be-46dc-8c89-368fd147bd7e"},"vehicle_type_id":"4","last_reported":1738692744,"current_range_meters":38400,"station_id":"","pricing_plan_id":"cebpf4jnsgd1na2vs0mg"},{"bike_id":"063214a5-99eb-4918-b0fe-a4120e0e58b0","system_id":"levelo_inurba_marseille","lat":43.31328,"lon":5.39691,"is_reserved":false,"is_disabled":false,"rental_uris":{"android":"levelo://app?vid=063214a5-99eb-4918-b0fe-a4120e0e58b0","ios":"levelo://app?vid=063214a5-99eb-4918-b0fe-a4120e0e58b0"},"vehicle_type_id":"4","last_reported":1738692744,"current_range_meters":30800,"station_id":"ce4bgvp2rcd13ifvqcu0","pricing_plan_id":"cebpf4jnsgd1na2vs0mg"},{"bike_id":"d6bdaf09-dbb6-4798-b0c2-028a01b20bc5","system_id":"levelo_inurba_marseille","lat":43.26568,"lon":5.39021,"is_reserved":false,"is_disabled":false,"rental_uris":{"android":"levelo://app?vid=d6bdaf09-dbb6-4798-b0c2-028a01b20bc5","ios":"levelo://app?vid=d6bdaf09-dbb6-4798-b0c2-028a01b20bc5"},"vehicle_type_id":"4","last_reported":1738692744,"current_range_meters":4000,"station_id":"ce4bhe12rcd13ifvqf30","pricing_plan_id":"cebpf4jnsgd1na2vs0mg"},{"bike_id":"fa4bcdaf-875a-4587-822e-cfeed5b0358f","system_id":"levelo_inurba_marseille","lat":43.28461,"lon":5.35881,"is_reserved":false,"is_disabled":false,"rental_uris":{"android":"levelo://app?vid=fa4bcdaf-875a-4587-822e-cfeed5b0358f","ios":"levelo://app?vid=fa4bcdaf-875a-4587-822e-cfeed5b0358f"},"vehicle_type_id":"4","last_reported":1738692744,"current_range_meters":11200,"station_id":"ce4bhah2rcd13ifvqei0","pricing_plan_id":"cebpf4jnsgd1na2vs0mg"},{"bike_id":"f56185a9-012f-40f6-b178-338a8bf6ac85","system_id":"levelo_inurba_marseille","lat":43.30939,"lon":5.40123,"is_reserved":false,"is_disabled":false,"rental_uris":{"android":"levelo://app?vid=f56185a9-012f-40f6-b178-338a8bf6ac85","ios":"levelo://app?vid=f56185a9-012f-40f6-b178-338a8bf6ac85"},"vehicle_type_id":"4","last_reported":1738692744,"current_range_meters":36400,"station_id":"ce4bgvp2rcd13ifvqct0","pricing_plan_id":"cebpf4jnsgd1na2vs0mg"},{"bike_id":"733e5fea-25dd-49bf-906f-98327c943ed7","system_id":"levelo_inurba_marseille","lat":43.30324,"lon":5.40434,"is_reserved":false,"is_disabled":false,"rental_uris":{"android":"levelo://app?vid=733e5fea-25dd-49bf-906f-98327c943ed7","ios":"levelo://app?vid=733e5fea-25dd-49bf-906f-98327c943ed7"},"vehicle_type_id":"4","last_reported":1738692744,"current_range_meters":37600,"station_id":"ce4bh012rcd13ifvqd10","pricing_plan_id":"cebpf4jnsgd1na2vs0mg"},{"bike_id":"c6c64523-26de-48b5-a1b8-37f98838a272","system_id":"levelo_inurba_marseille","lat":43.31291,"lon":5.40202,"is_reserved":false,"is_disabled":false,"rental_uris":{"android":"levelo://app?vid=c6c64523-26de-48b5-a1b8-37f98838a272","ios":"levelo://app?vid=c6c64523-26de-48b5-a1b8-37f98838a272"},"vehicle_type_id":"4","last_reported":1738692744,"current_range_meters":13600,"station_id":"ce4bh092rcd13ifvqd30","pricing_plan_id":"cebpf4jnsgd1na2vs0mg"},{"bike_id":"f88e9836-7d29-4bff-b116-30872ae8c64b","system_id":"levelo_inurba_marseille","lat":43.28003,"lon":5.41676,"is_reserved":false,"is_disabled":false,"rental_uris":{"android":"levelo://app?vid=f88e9836-7d29-4bff-b116-30872ae8c64b","ios":"levelo://app?vid=f88e9836-7d29-4bff-b116-30872ae8c64b"},"vehicle_type_id":"4","last_reported":1738692744,"current_range_meters":38800,"station_id":"ce4bho12rcd13ifvqh1g","pricing_plan_id":"cebpf4jnsgd1na2vs0mg"},{"bike_id":"585548c3-dfea-4775-b261-9cda396a75ed","system_id":"levelo_inurba_marseille","lat":43.30904,"lon":5.40121,"is_reserved":false,"is_disabled":true,"rental_uris":{"android":"levelo://app?vid=585548c3-dfea-4775-b261-9cda396a75ed","ios":"levelo://app?vid=585548c3-dfea-4775-b261-9cda396a75ed"},"vehicle_type_id":"4","last_reported":1738692744,"current_range_meters":38400,"station_id":"ce4bgvp2rcd13ifvqct0","pricing_plan_id":"cebpf4jnsgd1na2vs0mg"},{"bike_id":"7eaacd34-10f9-4246-8aa1-4a22e07a7c06","system_id":"levelo_inurba_marseille","lat":43.31653,"lon":5.37411,"is_reserved":false,"is_disabled":false,"rental_uris":{"android":"levelo://app?vid=7eaacd34-10f9-4246-8aa1-4a22e07a7c06","ios":"levelo://app?vid=7eaacd34-10f9-4246-8aa1-4a22e07a7c06"},"vehicle_type_id":"4","last_reported":1738692744,"current_range_meters":28800,"station_id":"","pricing_plan_id":"cebpf4jnsgd1na2vs0mg"},{"bike_id":"1572cbca-62ac-4b78-95e4-0e23353e4f06","system_id":"levelo_inurba_marseille","lat":43.29035,"lon":5.35925,"is_reserved":false,"is_disabled":false,"rental_uris":{"android":"levelo://app?vid=1572cbca-62ac-4b78-95e4-0e23353e4f06","ios":"levelo://app?vid=1572cbca-62ac-4b78-95e4-0e23353e4f06"},"vehicle_type_id":"4","last_reported":1738692744,"current_range_meters":14400,"station_id":"ce4bha92rcd13ifvqeg0","pricing_plan_id":"cebpf4jnsgd1na2vs0mg"},{"bike_id":"4023048b-db93-4060-9ede-3f3de8b1e087","system_id":"levelo_inurba_marseille","lat":43.28458,"lon":5.3589,"is_reserved":false,"is_disabled":false,"rental_uris":{"android":"levelo://app?vid=4023048b-db93-4060-9ede-3f3de8b1e087","ios":"levelo://app?vid=4023048b-db93-4060-9ede-3f3de8b1e087"},"vehicle_type_id":"4","last_reported":1738692744,"current_range_meters":22000,"station_id":"ce4bhah2rcd13ifvqei0","pricing_plan_id":"cebpf4jnsgd1na2vs0mg"},{"bike_id":"81232249-f73a-4ee8-8a83-c51d8a23ad51","system_id":"levelo_inurba_marseille","lat":43.25498,"lon":5.37661,"is_reserved":false,"is_disabled":false,"rental_uris":{"android":"levelo://app?vid=81232249-f73a-4ee8-8a83-c51d8a23ad51","ios":"levelo://app?vid=81232249-f73a-4ee8-8a83-c51d8a23ad51"},"vehicle_type_id":"4","last_reported":1738692744,"current_range_meters":39200,"station_id":"ce4bhh12rcd13ifvqff0","pricing_plan_id":"cebpf4jnsgd1na2vs0mg"},{"bike_id":"ac977124-a672-4857-8ba4-a3a171800695","system_id":"levelo_inurba_marseille","lat":43.32361,"lon":5.3676,"is_reserved":false,"is_disabled":false,"rental_uris":{"android":"levelo://app?vid=ac977124-a672-4857-8ba4-a3a171800695","ios":"levelo://app?vid=ac977124-a672-4857-8ba4-a3a171800695"},"vehicle_type_id":"4","last_reported":1738692744,"current_range_meters":26800,"station_id":"ce4bhsh2rcd13ifvqi2g","pricing_plan_id":"cebpf4jnsgd1na2vs0mg"},{"bike_id":"0d26eeb8-f175-4930-9b0f-cdc5da3b020e","system_id":"levelo_inurba_marseille","lat":43.28363,"lon":5.38605,"is_reserved":false,"is_disabled":false,"rental_uris":{"android":"levelo://app?vid=0d26eeb8-f175-4930-9b0f-cdc5da3b020e","ios":"levelo://app?vid=0d26eeb8-f175-4930-9b0f-cdc5da3b020e"},"vehicle_type_id":"4","last_reported":1738692744,"current_range_meters":37600,"station_id":"ce4bh492rcd13ifvqdvg","pricing_plan_id":"cebpf4jnsgd1na2vs0mg"},{"bike_id":"c92d27b3-011a-4b9b-85d3-c7a68cdf0054","system_id":"levelo_inurba_marseille","lat":43.324777,"lon":5.365669,"is_reserved":false,"is_disabled":true,"rental_uris":{"android":"levelo://app?vid=c92d27b3-011a-4b9b-85d3-c7a68cdf0054","ios":"levelo://app?vid=c92d27b3-011a-4b9b-85d3-c7a68cdf0054"},"vehicle_type_id":"4","last_reported":1738692744,"current_range_meters":16000,"station_id":"","pricing_plan_id":"cebpf4jnsgd1na2vs0mg"},{"bike_id":"03de7c73-41cf-4dc2-b024-d7d82b997547","system_id":"levelo_inurba_marseille","lat":43.2481,"lon":5.37458,"is_reserved":false,"is_disabled":false,"rental_uris":{"android":"levelo://app?vid=03de7c73-41cf-4dc2-b024-d7d82b997547","ios":"levelo://app?vid=03de7c73-41cf-4dc2-b024-d7d82b997547"},"vehicle_type_id":"4","last_reported":1738692744,"current_range_meters":16000,"station_id":"ce4bhgh2rcd13ifvqfb0","pricing_plan_id":"cebpf4jnsgd1na2vs0mg"},{"bike_id":"a31da492-d404-42a4-a173-3e8c75aeef5d","system_id":"levelo_inurba_marseille","lat":43.24393,"lon":5.37048,"is_reserved":false,"is_disabled":false,"rental_uris":{"android":"levelo://app?vid=a31da492-d404-42a4-a173-3e8c75aeef5d","ios":"levelo://app?vid=a31da492-d404-42a4-a173-3e8c75aeef5d"},"vehicle_type_id":"4","last_reported":1738692744,"current_range_meters":33200,"station_id":"ce4bhhh2rcd13ifvqfk0","pricing_plan_id":"cebpf4jnsgd1na2vs0mg"},{"bike_id":"a1a7079b-68b5-45ca-9af8-b6bc9f7cd559","system_id":"levelo_inurba_marseille","lat":43.22931,"lon":5.35373,"is_reserved":false,"is_disabled":false,"rental_uris":{"android":"levelo://app?vid=a1a7079b-68b5-45ca-9af8-b6bc9f7cd559","ios":"levelo://app?vid=a1a7079b-68b5-45ca-9af8-b6bc9f7cd559"},"vehicle_type_id":"4","last_reported":1738692744,"current_range_meters":38800,"station_id":"cpo3532slgdg3j2ikp40","pricing_plan_id":"cebpf4jnsgd1na2vs0mg"},{"bike_id":"434b618f-54de-4fea-a4f7-8069e6ab644a","system_id":"levelo_inurba_marseille","lat":43.27559,"lon":5.38408,"is_reserved":false,"is_disabled":false,"rental_uris":{"android":"levelo://app?vid=434b618f-54de-4fea-a4f7-8069e6ab644a","ios":"levelo://app?vid=434b618f-54de-4fea-a4f7-8069e6ab644a"},"vehicle_type_id":"4","last_reported":1738692744,"current_range_meters":32000,"station_id":"ce4bhh92rcd13ifvqfi0","pricing_plan_id":"cebpf4jnsgd1na2vs0mg"},{"bike_id":"b33c305b-93f2-4704-99fc-c1fc7dc94c00","system_id":"levelo_inurba_marseille","lat":43.31205,"lon":5.38661,"is_reserved":false,"is_disabled":true,"rental_uris":{"android":"levelo://app?vid=b33c305b-93f2-4704-99fc-c1fc7dc94c00","ios":"levelo://app?vid=b33c305b-93f2-4704-99fc-c1fc7dc94c00"},"vehicle_type_id":"4","last_reported":1738692744,"current_range_meters":2000,"station_id":"","pricing_plan_id":"cebpf4jnsgd1na2vs0mg"},{"bike_id":"b7406dda-3082-4224-bdff-a31932a4a7c1","system_id":"levelo_inurba_marseille","lat":43.28078,"lon":5.39662,"is_reserved":false,"is_disabled":false,"rental_uris":{"android":"levelo://app?vid=b7406dda-3082-4224-bdff-a31932a4a7c1","ios":"levelo://app?vid=b7406dda-3082-4224-bdff-a31932a4a7c1"},"vehicle_type_id":"4","last_reported":1738692744,"current_range_meters":29600,"station_id":"ce4bho12rcd13ifvqh2g","pricing_plan_id":"cebpf4jnsgd1na2vs0mg"},{"bike_id":"2e76fff4-b1a2-448a-a5eb-2419b038afd4","system_id":"levelo_inurba_marseille","lat":43.23176,"lon":5.39995,"is_reserved":false,"is_disabled":false,"rental_uris":{"android":"levelo://app?vid=2e76fff4-b1a2-448a-a5eb-2419b038afd4","ios":"levelo://app?vid=2e76fff4-b1a2-448a-a5eb-2419b038afd4"},"vehicle_type_id":"4","last_reported":1738692744,"current_range_meters":34000,"station_id":"ce4bhn12rcd13ifvqgqg","pricing_plan_id":"cebpf4jnsgd1na2vs0mg"},{"bike_id":"b4da0a36-b2a2-409b-8b71-70ab4e6718ab","system_id":"levelo_inurba_marseille","lat":43.25572,"lon":5.38232,"is_reserved":false,"is_disabled":false,"rental_uris":{"android":"levelo://app?vid=b4da0a36-b2a2-409b-8b71-70ab4e6718ab","ios":"levelo://app?vid=b4da0a36-b2a2-409b-8b71-70ab4e6718ab"},"vehicle_type_id":"4","last_reported":1738692744,"current_range_meters":19200,"station_id":"ce4bhih2rcd13ifvqfs0","pricing_plan_id":"cebpf4jnsgd1na2vs0mg"},{"bike_id":"3726dff5-00e4-45e5-9db7-c906f7e13ea9","system_id":"levelo_inurba_marseille","lat":43.27174,"lon":5.41001,"is_reserved":false,"is_disabled":false,"rental_uris":{"android":"levelo://app?vid=3726dff5-00e4-45e5-9db7-c906f7e13ea9","ios":"levelo://app?vid=3726dff5-00e4-45e5-9db7-c906f7e13ea9"},"vehicle_type_id":"4","last_reported":1738692744,"current_range_meters":32000,"station_id":"ce4bhl12rcd13ifvqgf0","pricing_plan_id":"cebpf4jnsgd1na2vs0mg"},{"bike_id":"38d9c123-c80e-4d99-abd9-1554da4e609f","system_id":"levelo_inurba_marseille","lat":43.24657,"lon":5.38885,"is_reserved":false,"is_disabled":false,"rental_uris":{"android":"levelo://app?vid=38d9c123-c80e-4d99-abd9-1554da4e609f","ios":"levelo://app?vid=38d9c123-c80e-4d99-abd9-1554da4e609f"},"vehicle_type_id":"4","last_reported":1738692744,"current_range_meters":29600,"station_id":"ce4bhg12rcd13ifvqf60","pricing_plan_id":"cebpf4jnsgd1na2vs0mg"},{"bike_id":"0d30f1f6-cb03-41c8-9ed3-2fe3b5a2ebb5","system_id":"levelo_inurba_marseille","lat":43.29883,"lon":5.38906,"is_reserved":false,"is_disabled":false,"rental_uris":{"android":"levelo://app?vid=0d30f1f6-cb03-41c8-9ed3-2fe3b5a2ebb5","ios":"levelo://app?vid=0d30f1f6-cb03-41c8-9ed3-2fe3b5a2ebb5"},"vehicle_type_id":"4","last_reported":1738692744,"current_range_meters":9200,"station_id":"ce4bh392rcd13ifvqdl0","pricing_plan_id":"cebpf4jnsgd1na2vs0mg"},{"bike_id":"ecfd8047-b75a-4e87-a298-ba28fe0083c2","system_id":"levelo_inurba_marseille","lat":43.29608,"lon":5.38109,"is_reserved":false,"is_disabled":true,"rental_uris":{"android":"levelo://app?vid=ecfd8047-b75a-4e87-a298-ba28fe0083c2","ios":"levelo://app?vid=ecfd8047-b75a-4e87-a298-ba28fe0083c2"},"vehicle_type_id":"4","last_reported":1738692744,"current_range_meters":400,"station_id":"ce4bgl12rcd13ifvqbo0","pricing_plan_id":"cebpf4jnsgd1na2vs0mg"},{"bike_id":"40ac7ddf-eb8c-497a-bd29-99aee7765eea","system_id":"levelo_inurba_marseille","lat":43.29266,"lon":5.38439,"is_reserved":false,"is_disabled":false,"rental_uris":{"android":"levelo://app?vid=40ac7ddf-eb8c-497a-bd29-99aee7765eea","ios":"levelo://app?vid=40ac7ddf-eb8c-497a-bd29-99aee7765eea"},"vehicle_type_id":"4","last_reported":1738692744,"current_range_meters":15200,"station_id":"ce4bh692rcd13ifvqea0","pricing_plan_id":"cebpf4jnsgd1na2vs0mg"},{"bike_id":"5f9d9d16-cd47-4d54-8a34-1ca6771485e1","system_id":"levelo_inurba_marseille","lat":43.29525,"lon":5.39401,"is_reserved":false,"is_disabled":false,"rental_uris":{"android":"levelo://app?vid=5f9d9d16-cd47-4d54-8a34-1ca6771485e1","ios":"levelo://app?vid=5f9d9d16-cd47-4d54-8a34-1ca6771485e1"},"vehicle_type_id":"4","last_reported":1738692744,"current_range_meters":30400,"station_id":"ce4bh292rcd13ifvqdf0","pricing_plan_id":"cebpf4jnsgd1na2vs0mg"},{"bike_id":"9a3d8afe-6430-4f53-aba8-27d653fab8bf","system_id":"levelo_inurba_marseille","lat":43.25001,"lon":5.38924,"is_reserved":false,"is_disabled":false,"rental_uris":{"android":"levelo://app?vid=9a3d8afe-6430-4f53-aba8-27d653fab8bf","ios":"levelo://app?vid=9a3d8afe-6430-4f53-aba8-27d653fab8bf"},"vehicle_type_id":"4","last_reported":1738692744,"current_range_meters":11600,"station_id":"ce4bhgp2rcd13ifvqfd0","pricing_plan_id":"cebpf4jnsgd1na2vs0mg"},{"bike_id":"dc3d31fc-0219-4434-80b9-8dac31d0d020","system_id":"levelo_inurba_marseille","lat":43.29296,"lon":5.40147,"is_reserved":false,"is_disabled":false,"rental_uris":{"android":"levelo://app?vid=dc3d31fc-0219-4434-80b9-8dac31d0d020","ios":"levelo://app?vid=dc3d31fc-0219-4434-80b9-8dac31d0d020"},"vehicle_type_id":"4","last_reported":1738692744,"current_range_meters":32000,"station_id":"ce4bh312rcd13ifvqdk0","pricing_plan_id":"cebpf4jnsgd1na2vs0mg"},{"bike_id":"fcec2196-c533-4670-933c-9ee1e51f8179","system_id":"levelo_inurba_marseille","lat":43.25496,"lon":5.37648,"is_reserved":false,"is_disabled":false,"rental_uris":{"android":"levelo://app?vid=fcec2196-c533-4670-933c-9ee1e51f8179","ios":"levelo://app?vid=fcec2196-c533-4670-933c-9ee1e51f8179"},"vehicle_type_id":"4","last_reported":1738692744,"current_range_meters":34800,"station_id":"ce4bhh12rcd13ifvqff0","pricing_plan_id":"cebpf4jnsgd1na2vs0mg"},{"bike_id":"cf0d534e-429a-4742-b2cb-4793faf704ac","system_id":"levelo_inurba_marseille","lat":43.24648,"lon":5.38894,"is_reserved":false,"is_disabled":false,"rental_uris":{"android":"levelo://app?vid=cf0d534e-429a-4742-b2cb-4793faf704ac","ios":"levelo://app?vid=cf0d534e-429a-4742-b2cb-4793faf704ac"},"vehicle_type_id":"4","last_reported":1738692744,"current_range_meters":33600,"station_id":"ce4bhg12rcd13ifvqf60","pricing_plan_id":"cebpf4jnsgd1na2vs0mg"},{"bike_id":"8990bf66-2391-44c0-90e1-98264103ad0b","system_id":"levelo_inurba_marseille","lat":43.3132,"lon":5.39731,"is_reserved":false,"is_disabled":false,"rental_uris":{"android":"levelo://app?vid=8990bf66-2391-44c0-90e1-98264103ad0b","ios":"levelo://app?vid=8990bf66-2391-44c0-90e1-98264103ad0b"},"vehicle_type_id":"4","last_reported":1738692744,"current_range_meters":38800,"station_id":"ce4bgvp2rcd13ifvqcu0","pricing_plan_id":"cebpf4jnsgd1na2vs0mg"},{"bike_id":"161cfab1-3585-4f49-9175-5e4591bd3bd6","system_id":"levelo_inurba_marseille","lat":43.26492,"lon":5.39556,"is_reserved":false,"is_disabled":false,"rental_uris":{"android":"levelo://app?vid=161cfab1-3585-4f49-9175-5e4591bd3bd6","ios":"levelo://app?vid=161cfab1-3585-4f49-9175-5e4591bd3bd6"},"vehicle_type_id":"4","last_reported":1738692744,"current_range_meters":38400,"station_id":"ce4bhi12rcd13ifvqfq0","pricing_plan_id":"cebpf4jnsgd1na2vs0mg"},{"bike_id":"d7ecc465-4a8b-4ad6-9b46-100ba6c928d4","system_id":"levelo_inurba_marseille","lat":43.2903,"lon":5.38631,"is_reserved":false,"is_disabled":false,"rental_uris":{"android":"levelo://app?vid=d7ecc465-4a8b-4ad6-9b46-100ba6c928d4","ios":"levelo://app?vid=d7ecc465-4a8b-4ad6-9b46-100ba6c928d4"},"vehicle_type_id":"4","last_reported":1738692744,"current_range_meters":19600,"station_id":"ce4bh4p2rcd13ifvqe0g","pricing_plan_id":"cebpf4jnsgd1na2vs0mg"},{"bike_id":"d0f83c8b-7d8b-4405-b29d-b6f7f57a005e","system_id":"levelo_inurba_marseille","lat":43.33017,"lon":5.39061,"is_reserved":false,"is_disabled":false,"rental_uris":{"android":"levelo://app?vid=d0f83c8b-7d8b-4405-b29d-b6f7f57a005e","ios":"levelo://app?vid=d0f83c8b-7d8b-4405-b29d-b6f7f57a005e"},"vehicle_type_id":"4","last_reported":1738692744,"current_range_meters":10800,"station_id":"ce4bhr92rcd13ifvqhrg","pricing_plan_id":"cebpf4jnsgd1na2vs0mg"},{"bike_id":"30d68ac6-7ba6-4749-8154-bf914e372a6a","system_id":"levelo_inurba_marseille","lat":43.32369,"lon":5.38859,"is_reserved":false,"is_disabled":false,"rental_uris":{"android":"levelo://app?vid=30d68ac6-7ba6-4749-8154-bf914e372a6a","ios":"levelo://app?vid=30d68ac6-7ba6-4749-8154-bf914e372a6a"},"vehicle_type_id":"4","last_reported":1738692744,"current_range_meters":36800,"station_id":"ce4bhqp2rcd13ifvqhog","pricing_plan_id":"cebpf4jnsgd1na2vs0mg"},{"bike_id":"c5b056ff-c872-48a0-bb26-d9c2657a26db","system_id":"levelo_inurba_marseille","lat":43.30329,"lon":5.40434,"is_reserved":false,"is_disabled":false,"rental_uris":{"android":"levelo://app?vid=c5b056ff-c872-48a0-bb26-d9c2657a26db","ios":"levelo://app?vid=c5b056ff-c872-48a0-bb26-d9c2657a26db"},"vehicle_type_id":"4","last_reported":1738692744,"current_range_meters":10800,"station_id":"ce4bh012rcd13ifvqd10","pricing_plan_id":"cebpf4jnsgd1na2vs0mg"},{"bike_id":"312e32c3-6324-498b-b53b-8d30f4b3f2b5","system_id":"levelo_inurba_marseille","lat":43.30902,"lon":5.40219,"is_reserved":false,"is_disabled":false,"rental_uris":{"android":"levelo://app?vid=312e32c3-6324-498b-b53b-8d30f4b3f2b5","ios":"levelo://app?vid=312e32c3-6324-498b-b53b-8d30f4b3f2b5"},"vehicle_type_id":"4","last_reported":1738692744,"current_range_meters":6400,"station_id":"","pricing_plan_id":"cebpf4jnsgd1na2vs0mg"},{"bike_id":"3498d5b7-80e0-4a6b-a61a-97fd538a8c0b","system_id":"levelo_inurba_marseille","lat":43.30096,"lon":5.39079,"is_reserved":false,"is_disabled":false,"rental_uris":{"android":"levelo://app?vid=3498d5b7-80e0-4a6b-a61a-97fd538a8c0b","ios":"levelo://app?vid=3498d5b7-80e0-4a6b-a61a-97fd538a8c0b"},"vehicle_type_id":"4","last_reported":1738692744,"current_range_meters":22000,"station_id":"ce4bh192rcd13ifvqdb0","pricing_plan_id":"cebpf4jnsgd1na2vs0mg"},{"bike_id":"e33c097b-83d0-40ec-9fbf-364e5b0a9ef8","system_id":"levelo_inurba_marseille","lat":43.23214,"lon":5.3552,"is_reserved":false,"is_disabled":false,"rental_uris":{"android":"levelo://app?vid=e33c097b-83d0-40ec-9fbf-364e5b0a9ef8","ios":"levelo://app?vid=e33c097b-83d0-40ec-9fbf-364e5b0a9ef8"},"vehicle_type_id":"4","last_reported":1738692744,"current_range_meters":38800,"station_id":"ce4bhu92rcd13ifvqi70","pricing_plan_id":"cebpf4jnsgd1na2vs0mg"},{"bike_id":"09367ea6-a8db-48fd-ab0e-590b1852e1ef","system_id":"levelo_inurba_marseille","lat":43.27053,"lon":5.40263,"is_reserved":false,"is_disabled":false,"rental_uris":{"android":"levelo://app?vid=09367ea6-a8db-48fd-ab0e-590b1852e1ef","ios":"levelo://app?vid=09367ea6-a8db-48fd-ab0e-590b1852e1ef"},"vehicle_type_id":"4","last_reported":1738692744,"current_range_meters":18800,"station_id":"ce4bhk92rcd13ifvqgc0","pricing_plan_id":"cebpf4jnsgd1na2vs0mg"},{"bike_id":"ce988fad-6d63-497d-baa9-a1533374f3da","system_id":"levelo_inurba_marseille","lat":43.29534,"lon":5.38551,"is_reserved":false,"is_disabled":false,"rental_uris":{"android":"levelo://app?vid=ce988fad-6d63-497d-baa9-a1533374f3da","ios":"levelo://app?vid=ce988fad-6d63-497d-baa9-a1533374f3da"},"vehicle_type_id":"4","last_reported":1738692744,"current_range_meters":25200,"station_id":"ce4bgih2rcd13ifvqba0","pricing_plan_id":"cebpf4jnsgd1na2vs0mg"},{"bike_id":"9c44f44f-043a-4fd1-9de6-e60c4b43f383","system_id":"levelo_inurba_marseille","lat":43.28152,"lon":5.4264,"is_reserved":false,"is_disabled":false,"rental_uris":{"android":"levelo://app?vid=9c44f44f-043a-4fd1-9de6-e60c4b43f383","ios":"levelo://app?vid=9c44f44f-043a-4fd1-9de6-e60c4b43f383"},"vehicle_type_id":"4","last_reported":1738692744,"current_range_meters":9200,"station_id":"ce4bhnh2rcd13ifvqgug","pricing_plan_id":"cebpf4jnsgd1na2vs0mg"},{"bike_id":"6712f04b-f35d-4e3a-a70d-c89aec85d9b2","system_id":"levelo_inurba_marseille","lat":43.22934,"lon":5.35376,"is_reserved":false,"is_disabled":false,"rental_uris":{"android":"levelo://app?vid=6712f04b-f35d-4e3a-a70d-c89aec85d9b2","ios":"levelo://app?vid=6712f04b-f35d-4e3a-a70d-c89aec85d9b2"},"vehicle_type_id":"4","last_reported":1738692744,"current_range_meters":39200,"station_id":"cpo3532slgdg3j2ikp40","pricing_plan_id":"cebpf4jnsgd1na2vs0mg"},{"bike_id":"1dd8b9b0-9e6d-4b43-941b-d55283383f21","system_id":"levelo_inurba_marseille","lat":43.2621,"lon":5.37442,"is_reserved":false,"is_disabled":false,"rental_uris":{"android":"levelo://app?vid=1dd8b9b0-9e6d-4b43-941b-d55283383f21","ios":"levelo://app?vid=1dd8b9b0-9e6d-4b43-941b-d55283383f21"},"vehicle_type_id":"4","last_reported":1738692744,"current_range_meters":38000,"station_id":"ce4bhgp2rcd13ifvqfc0","pricing_plan_id":"cebpf4jnsgd1na2vs0mg"},{"bike_id":"f6772d4a-aead-4bd4-be5f-5fdb9eff6cbd","system_id":"levelo_inurba_marseille","lat":43.30078,"lon":5.39083,"is_reserved":false,"is_disabled":false,"rental_uris":{"android":"levelo://app?vid=f6772d4a-aead-4bd4-be5f-5fdb9eff6cbd","ios":"levelo://app?vid=f6772d4a-aead-4bd4-be5f-5fdb9eff6cbd"},"vehicle_type_id":"4","last_reported":1738692744,"current_range_meters":20000,"station_id":"ce4bh192rcd13ifvqdb0","pricing_plan_id":"cebpf4jnsgd1na2vs0mg"},{"bike_id":"1d6d3aa6-a83b-4532-99de-e692503ba432","system_id":"levelo_inurba_marseille","lat":43.29875,"lon":5.3891,"is_reserved":false,"is_disabled":false,"rental_uris":{"android":"levelo://app?vid=1d6d3aa6-a83b-4532-99de-e692503ba432","ios":"levelo://app?vid=1d6d3aa6-a83b-4532-99de-e692503ba432"},"vehicle_type_id":"4","last_reported":1738692744,"current_range_meters":24000,"station_id":"ce4bh392rcd13ifvqdl0","pricing_plan_id":"cebpf4jnsgd1na2vs0mg"},{"bike_id":"0888dc6c-9768-41f1-850c-939321da586f","system_id":"levelo_inurba_marseille","lat":43.29034,"lon":5.3592,"is_reserved":false,"is_disabled":false,"rental_uris":{"android":"levelo://app?vid=0888dc6c-9768-41f1-850c-939321da586f","ios":"levelo://app?vid=0888dc6c-9768-41f1-850c-939321da586f"},"vehicle_type_id":"4","last_reported":1738692744,"current_range_meters":38800,"station_id":"ce4bha92rcd13ifvqeg0","pricing_plan_id":"cebpf4jnsgd1na2vs0mg"},{"bike_id":"4b51056f-c9bf-4d1d-a8ae-f2274992a55e","system_id":"levelo_inurba_marseille","lat":43.23195,"lon":5.39992,"is_reserved":false,"is_disabled":false,"rental_uris":{"android":"levelo://app?vid=4b51056f-c9bf-4d1d-a8ae-f2274992a55e","ios":"levelo://app?vid=4b51056f-c9bf-4d1d-a8ae-f2274992a55e"},"vehicle_type_id":"4","last_reported":1738692744,"current_range_meters":17200,"station_id":"ce4bhn12rcd13ifvqgqg","pricing_plan_id":"cebpf4jnsgd1na2vs0mg"},{"bike_id":"41f19d31-18ea-4eba-9d61-fb9edf75b655","system_id":"levelo_inurba_marseille","lat":43.27811,"lon":5.40718,"is_reserved":false,"is_disabled":false,"rental_uris":{"android":"levelo://app?vid=41f19d31-18ea-4eba-9d61-fb9edf75b655","ios":"levelo://app?vid=41f19d31-18ea-4eba-9d61-fb9edf75b655"},"vehicle_type_id":"4","last_reported":1738692744,"current_range_meters":38400,"station_id":"ce4bhnh2rcd13ifvqgtg","pricing_plan_id":"cebpf4jnsgd1na2vs0mg"},{"bike_id":"c078b0e3-2ce6-4dae-a02c-61d9a6bc1d98","system_id":"levelo_inurba_marseille","lat":43.28268,"lon":5.35064,"is_reserved":false,"is_disabled":false,"rental_uris":{"android":"levelo://app?vid=c078b0e3-2ce6-4dae-a02c-61d9a6bc1d98","ios":"levelo://app?vid=c078b0e3-2ce6-4dae-a02c-61d9a6bc1d98"},"vehicle_type_id":"4","last_reported":1738692744,"current_range_meters":34000,"station_id":"ce4bhbp2rcd13ifvqerg","pricing_plan_id":"cebpf4jnsgd1na2vs0mg"},{"bike_id":"eb7b35ac-5b2f-4b2a-ace4-1f7640067fc6","system_id":"levelo_inurba_marseille","lat":43.27844,"lon":5.39212,"is_reserved":false,"is_disabled":false,"rental_uris":{"android":"levelo://app?vid=eb7b35ac-5b2f-4b2a-ace4-1f7640067fc6","ios":"levelo://app?vid=eb7b35ac-5b2f-4b2a-ace4-1f7640067fc6"},"vehicle_type_id":"4","last_reported":1738692744,"current_range_meters":27600,"station_id":"ce4bhjp2rcd13ifvqga0","pricing_plan_id":"cebpf4jnsgd1na2vs0mg"},{"bike_id":"71e719bf-4472-4681-97c5-5079ee849471","system_id":"levelo_inurba_marseille","lat":43.30575,"lon":5.39371,"is_reserved":false,"is_disabled":false,"rental_uris":{"android":"levelo://app?vid=71e719bf-4472-4681-97c5-5079ee849471","ios":"levelo://app?vid=71e719bf-4472-4681-97c5-5079ee849471"},"vehicle_type_id":"4","last_reported":1738692744,"current_range_meters":19200,"station_id":"ce4bh0p2rcd13ifvqd80","pricing_plan_id":"cebpf4jnsgd1na2vs0mg"},{"bike_id":"1fcd64c5-8176-40ba-bc0f-0c3bba0291e2","system_id":"levelo_inurba_marseille","lat":43.250885,"lon":5.395123,"is_reserved":false,"is_disabled":false,"rental_uris":{"android":"levelo://app?vid=1fcd64c5-8176-40ba-bc0f-0c3bba0291e2","ios":"levelo://app?vid=1fcd64c5-8176-40ba-bc0f-0c3bba0291e2"},"vehicle_type_id":"4","last_reported":1738692744,"current_range_meters":38800,"station_id":"ce4bhm12rcd13ifvqgkg","pricing_plan_id":"cebpf4jnsgd1na2vs0mg"},{"bike_id":"278902b4-7b50-4f46-8ac1-6d0f29cc8638","system_id":"levelo_inurba_marseille","lat":43.24391,"lon":5.3705,"is_reserved":false,"is_disabled":false,"rental_uris":{"android":"levelo://app?vid=278902b4-7b50-4f46-8ac1-6d0f29cc8638","ios":"levelo://app?vid=278902b4-7b50-4f46-8ac1-6d0f29cc8638"},"vehicle_type_id":"4","last_reported":1738692744,"current_range_meters":38400,"station_id":"ce4bhhh2rcd13ifvqfk0","pricing_plan_id":"cebpf4jnsgd1na2vs0mg"},{"bike_id":"d6b0cf54-fa2e-4bc8-963e-74d7f8faf1fe","system_id":"levelo_inurba_marseille","lat":43.24685,"lon":5.3814,"is_reserved":false,"is_disabled":false,"rental_uris":{"android":"levelo://app?vid=d6b0cf54-fa2e-4bc8-963e-74d7f8faf1fe","ios":"levelo://app?vid=d6b0cf54-fa2e-4bc8-963e-74d7f8faf1fe"},"vehicle_type_id":"4","last_reported":1738692744,"current_range_meters":6000,"station_id":"ce4bhih2rcd13ifvqfr0","pricing_plan_id":"cebpf4jnsgd1na2vs0mg"},{"bike_id":"c498ce6e-31b6-4b5a-bf27-88958aca9621","system_id":"levelo_inurba_marseille","lat":43.29528,"lon":5.38527,"is_reserved":false,"is_disabled":false,"rental_uris":{"android":"levelo://app?vid=c498ce6e-31b6-4b5a-bf27-88958aca9621","ios":"levelo://app?vid=c498ce6e-31b6-4b5a-bf27-88958aca9621"},"vehicle_type_id":"4","last_reported":1738692744,"current_range_meters":38800,"station_id":"ce4bgih2rcd13ifvqba0","pricing_plan_id":"cebpf4jnsgd1na2vs0mg"},{"bike_id":"8b3eac35-06cf-4eb0-b96f-ceebf5dc2592","system_id":"levelo_inurba_marseille","lat":43.25497,"lon":5.3765,"is_reserved":false,"is_disabled":false,"rental_uris":{"android":"levelo://app?vid=8b3eac35-06cf-4eb0-b96f-ceebf5dc2592","ios":"levelo://app?vid=8b3eac35-06cf-4eb0-b96f-ceebf5dc2592"},"vehicle_type_id":"4","last_reported":1738692744,"current_range_meters":22800,"station_id":"ce4bhh12rcd13ifvqff0","pricing_plan_id":"cebpf4jnsgd1na2vs0mg"},{"bike_id":"97a08849-0937-4210-b532-5a18ef38860c","system_id":"levelo_inurba_marseille","lat":43.29522,"lon":5.39405,"is_reserved":false,"is_disabled":false,"rental_uris":{"android":"levelo://app?vid=97a08849-0937-4210-b532-5a18ef38860c","ios":"levelo://app?vid=97a08849-0937-4210-b532-5a18ef38860c"},"vehicle_type_id":"4","last_reported":1738692744,"current_range_meters":12400,"station_id":"ce4bh292rcd13ifvqdf0","pricing_plan_id":"cebpf4jnsgd1na2vs0mg"},{"bike_id":"3ab0ceb6-cd89-477f-8038-1be761eb4bda","system_id":"levelo_inurba_marseille","lat":43.29527,"lon":5.37511,"is_reserved":false,"is_disabled":true,"rental_uris":{"android":"levelo://app?vid=3ab0ceb6-cd89-477f-8038-1be761eb4bda","ios":"levelo://app?vid=3ab0ceb6-cd89-477f-8038-1be761eb4bda"},"vehicle_type_id":"4","last_reported":1738692744,"current_range_meters":0,"station_id":"ce4bgkp2rcd13ifvqbmg","pricing_plan_id":"cebpf4jnsgd1na2vs0mg"},{"bike_id":"c85a26e1-f53e-4ec1-b1ea-8b32d23f1f4d","system_id":"levelo_inurba_marseille","lat":43.23064,"lon":5.35499,"is_reserved":false,"is_disabled":false,"rental_uris":{"android":"levelo://app?vid=c85a26e1-f53e-4ec1-b1ea-8b32d23f1f4d","ios":"levelo://app?vid=c85a26e1-f53e-4ec1-b1ea-8b32d23f1f4d"},"vehicle_type_id":"4","last_reported":1738692744,"current_range_meters":25200,"station_id":"cpo3342slgdg3j2ifvpg","pricing_plan_id":"cebpf4jnsgd1na2vs0mg"},{"bike_id":"e3fa5aaf-a54f-49f1-9073-60a9cb58ace8","system_id":"levelo_inurba_marseille","lat":43.26845,"lon":5.4062,"is_reserved":false,"is_disabled":false,"rental_uris":{"android":"levelo://app?vid=e3fa5aaf-a54f-49f1-9073-60a9cb58ace8","ios":"levelo://app?vid=e3fa5aaf-a54f-49f1-9073-60a9cb58ace8"},"vehicle_type_id":"4","last_reported":1738692744,"current_range_meters":18800,"station_id":"","pricing_plan_id":"cebpf4jnsgd1na2vs0mg"},{"bike_id":"182298ac-ccac-4138-abf9-4deb3f8f0700","system_id":"levelo_inurba_marseille","lat":43.29514,"lon":5.39042,"is_reserved":false,"is_disabled":false,"rental_uris":{"android":"levelo://app?vid=182298ac-ccac-4138-abf9-4deb3f8f0700","ios":"levelo://app?vid=182298ac-ccac-4138-abf9-4deb3f8f0700"},"vehicle_type_id":"4","last_reported":1738692744,"current_range_meters":38000,"station_id":"ce4bh3p2rcd13ifvqdp0","pricing_plan_id":"cebpf4jnsgd1na2vs0mg"},{"bike_id":"58331517-2727-4350-acc7-125ff3fd7d12","system_id":"levelo_inurba_marseille","lat":43.30409,"lon":5.38885,"is_reserved":false,"is_disabled":false,"rental_uris":{"android":"levelo://app?vid=58331517-2727-4350-acc7-125ff3fd7d12","ios":"levelo://app?vid=58331517-2727-4350-acc7-125ff3fd7d12"},"vehicle_type_id":"4","last_reported":1738692744,"current_range_meters":36800,"station_id":"ce4bgk12rcd13ifvqbi0","pricing_plan_id":"cebpf4jnsgd1na2vs0mg"},{"bike_id":"3ebd2d27-4a89-41dd-ab18-873857324992","system_id":"levelo_inurba_marseille","lat":43.26684,"lon":5.38275,"is_reserved":false,"is_disabled":false,"rental_uris":{"android":"levelo://app?vid=3ebd2d27-4a89-41dd-ab18-873857324992","ios":"levelo://app?vid=3ebd2d27-4a89-41dd-ab18-873857324992"},"vehicle_type_id":"4","last_reported":1738692744,"current_range_meters":38800,"station_id":"ce4bhg92rcd13ifvqf90","pricing_plan_id":"cebpf4jnsgd1na2vs0mg"},{"bike_id":"1440ea3e-b07a-40a3-99c2-540bbce54b42","system_id":"levelo_inurba_marseille","lat":43.31113,"lon":5.37779,"is_reserved":false,"is_disabled":false,"rental_uris":{"android":"levelo://app?vid=1440ea3e-b07a-40a3-99c2-540bbce54b42","ios":"levelo://app?vid=1440ea3e-b07a-40a3-99c2-540bbce54b42"},"vehicle_type_id":"4","last_reported":1738692744,"current_range_meters":17200,"station_id":"ce4bgt92rcd13ifvqcg0","pricing_plan_id":"cebpf4jnsgd1na2vs0mg"},{"bike_id":"adce3605-a15c-4e61-a5ce-de064812d197","system_id":"levelo_inurba_marseille","lat":43.27813,"lon":5.40686,"is_reserved":false,"is_disabled":false,"rental_uris":{"android":"levelo://app?vid=adce3605-a15c-4e61-a5ce-de064812d197","ios":"levelo://app?vid=adce3605-a15c-4e61-a5ce-de064812d197"},"vehicle_type_id":"4","last_reported":1738692744,"current_range_meters":19600,"station_id":"ce4bhnh2rcd13ifvqgtg","pricing_plan_id":"cebpf4jnsgd1na2vs0mg"},{"bike_id":"7efeefa1-4d8f-4583-8637-99fc72432bf6","system_id":"levelo_inurba_marseille","lat":43.29029,"lon":5.39972,"is_reserved":false,"is_disabled":false,"rental_uris":{"android":"levelo://app?vid=7efeefa1-4d8f-4583-8637-99fc72432bf6","ios":"levelo://app?vid=7efeefa1-4d8f-4583-8637-99fc72432bf6"},"vehicle_type_id":"4","last_reported":1738692744,"current_range_meters":16000,"station_id":"ce4bh392rcd13ifvqdm0","pricing_plan_id":"cebpf4jnsgd1na2vs0mg"},{"bike_id":"1ef98b06-35f8-42b6-b7b3-42b7ff981866","system_id":"levelo_inurba_marseille","lat":43.33023,"lon":5.39031,"is_reserved":false,"is_disabled":false,"rental_uris":{"android":"levelo://app?vid=1ef98b06-35f8-42b6-b7b3-42b7ff981866","ios":"levelo://app?vid=1ef98b06-35f8-42b6-b7b3-42b7ff981866"},"vehicle_type_id":"4","last_reported":1738692744,"current_range_meters":3600,"station_id":"ce4bhr92rcd13ifvqhrg","pricing_plan_id":"cebpf4jnsgd1na2vs0mg"},{"bike_id":"a6849ea2-4bc2-446c-ae7e-aa28cf9173cf","system_id":"levelo_inurba_marseille","lat":43.31693,"lon":5.40468,"is_reserved":false,"is_disabled":false,"rental_uris":{"android":"levelo://app?vid=a6849ea2-4bc2-446c-ae7e-aa28cf9173cf","ios":"levelo://app?vid=a6849ea2-4bc2-446c-ae7e-aa28cf9173cf"},"vehicle_type_id":"4","last_reported":1738692744,"current_range_meters":39200,"station_id":"ce4bh012rcd13ifvqd00","pricing_plan_id":"cebpf4jnsgd1na2vs0mg"},{"bike_id":"28bb841b-94b3-4842-8d56-4fd8bc4ce1ed","system_id":"levelo_inurba_marseille","lat":43.24542,"lon":5.39524,"is_reserved":false,"is_disabled":false,"rental_uris":{"android":"levelo://app?vid=28bb841b-94b3-4842-8d56-4fd8bc4ce1ed","ios":"levelo://app?vid=28bb841b-94b3-4842-8d56-4fd8bc4ce1ed"},"vehicle_type_id":"4","last_reported":1738692744,"current_range_meters":10800,"station_id":"ce4bhlp2rcd13ifvqgjg","pricing_plan_id":"cebpf4jnsgd1na2vs0mg"},{"bike_id":"95aa3883-dcc3-41b6-a50a-a18203db6de0","system_id":"levelo_inurba_marseille","lat":43.26953,"lon":5.40252,"is_reserved":false,"is_disabled":false,"rental_uris":{"android":"levelo://app?vid=95aa3883-dcc3-41b6-a50a-a18203db6de0","ios":"levelo://app?vid=95aa3883-dcc3-41b6-a50a-a18203db6de0"},"vehicle_type_id":"4","last_reported":1738692744,"current_range_meters":32800,"station_id":"cjm6bp8fraef2m0cb0m0","pricing_plan_id":"cebpf4jnsgd1na2vs0mg"},{"bike_id":"c2bd934f-62f0-44c0-82bd-0dc4de43b191","system_id":"levelo_inurba_marseille","lat":43.29194,"lon":5.35802,"is_reserved":false,"is_disabled":false,"rental_uris":{"android":"levelo://app?vid=c2bd934f-62f0-44c0-82bd-0dc4de43b191","ios":"levelo://app?vid=c2bd934f-62f0-44c0-82bd-0dc4de43b191"},"vehicle_type_id":"4","last_reported":1738692744,"current_range_meters":38400,"station_id":"ce4bhb12rcd13ifvqel0","pricing_plan_id":"cebpf4jnsgd1na2vs0mg"},{"bike_id":"3d00fb59-c606-49ec-b11c-0d8ad9bda7a3","system_id":"levelo_inurba_marseille","lat":43.27613,"lon":5.36111,"is_reserved":false,"is_disabled":false,"rental_uris":{"android":"levelo://app?vid=3d00fb59-c606-49ec-b11c-0d8ad9bda7a3","ios":"levelo://app?vid=3d00fb59-c606-49ec-b11c-0d8ad9bda7a3"},"vehicle_type_id":"4","last_reported":1738692744,"current_range_meters":14400,"station_id":"ce4bgj92rcd13ifvqbe0","pricing_plan_id":"cebpf4jnsgd1na2vs0mg"},{"bike_id":"62b7e5df-4436-4f26-a9ca-c183007a8df0","system_id":"levelo_inurba_marseille","lat":43.28346,"lon":5.38098,"is_reserved":false,"is_disabled":false,"rental_uris":{"android":"levelo://app?vid=62b7e5df-4436-4f26-a9ca-c183007a8df0","ios":"levelo://app?vid=62b7e5df-4436-4f26-a9ca-c183007a8df0"},"vehicle_type_id":"4","last_reported":1738692744,"current_range_meters":20400,"station_id":"ce4bh412rcd13ifvqdr0","pricing_plan_id":"cebpf4jnsgd1na2vs0mg"},{"bike_id":"763bed45-2e14-41ee-bfd9-664984f368e8","system_id":"levelo_inurba_marseille","lat":43.25483,"lon":5.37644,"is_reserved":false,"is_disabled":false,"rental_uris":{"android":"levelo://app?vid=763bed45-2e14-41ee-bfd9-664984f368e8","ios":"levelo://app?vid=763bed45-2e14-41ee-bfd9-664984f368e8"},"vehicle_type_id":"4","last_reported":1738692744,"current_range_meters":39200,"station_id":"ce4bhh12rcd13ifvqff0","pricing_plan_id":"cebpf4jnsgd1na2vs0mg"},{"bike_id":"8dd94dc3-73b7-46e9-b5e0-bf8271221e0a","system_id":"levelo_inurba_marseille","lat":43.30638,"lon":5.40092,"is_reserved":false,"is_disabled":false,"rental_uris":{"android":"levelo://app?vid=8dd94dc3-73b7-46e9-b5e0-bf8271221e0a","ios":"levelo://app?vid=8dd94dc3-73b7-46e9-b5e0-bf8271221e0a"},"vehicle_type_id":"4","last_reported":1738692744,"current_range_meters":28000,"station_id":"ce4bh112rcd13ifvqda0","pricing_plan_id":"cebpf4jnsgd1na2vs0mg"},{"bike_id":"174e9883-c98a-4ded-b20d-c3792346c649","system_id":"levelo_inurba_marseille","lat":43.31711,"lon":5.43712,"is_reserved":false,"is_disabled":false,"rental_uris":{"android":"levelo://app?vid=174e9883-c98a-4ded-b20d-c3792346c649","ios":"levelo://app?vid=174e9883-c98a-4ded-b20d-c3792346c649"},"vehicle_type_id":"4","last_reported":1738692744,"current_range_meters":10800,"station_id":"ce4bhp92rcd13ifvqhcg","pricing_plan_id":"cebpf4jnsgd1na2vs0mg"},{"bike_id":"3715074c-abae-4cb1-89a2-a358c27d9545","system_id":"levelo_inurba_marseille","lat":43.29573,"lon":5.36742,"is_reserved":false,"is_disabled":false,"rental_uris":{"android":"levelo://app?vid=3715074c-abae-4cb1-89a2-a358c27d9545","ios":"levelo://app?vid=3715074c-abae-4cb1-89a2-a358c27d9545"},"vehicle_type_id":"4","last_reported":1738692744,"current_range_meters":38400,"station_id":"ce4bgph2rcd13ifvqc2g","pricing_plan_id":"cebpf4jnsgd1na2vs0mg"},{"bike_id":"4dd4d20b-ede5-47d0-948d-cc2515eca781","system_id":"levelo_inurba_marseille","lat":43.317623,"lon":5.390163,"is_reserved":false,"is_disabled":true,"rental_uris":{"android":"levelo://app?vid=4dd4d20b-ede5-47d0-948d-cc2515eca781","ios":"levelo://app?vid=4dd4d20b-ede5-47d0-948d-cc2515eca781"},"vehicle_type_id":"4","last_reported":1738692744,"current_range_meters":32000,"station_id":"ce4bhqp2rcd13ifvqhng","pricing_plan_id":"cebpf4jnsgd1na2vs0mg"},{"bike_id":"38d5197c-53e9-4ed5-8c6c-9f20d291f067","system_id":"levelo_inurba_marseille","lat":43.28847,"lon":5.3584,"is_reserved":false,"is_disabled":false,"rental_uris":{"android":"levelo://app?vid=38d5197c-53e9-4ed5-8c6c-9f20d291f067","ios":"levelo://app?vid=38d5197c-53e9-4ed5-8c6c-9f20d291f067"},"vehicle_type_id":"4","last_reported":1738692744,"current_range_meters":38400,"station_id":"ce4bhb12rcd13ifvqem0","pricing_plan_id":"cebpf4jnsgd1na2vs0mg"},{"bike_id":"aacbfc6b-bd24-4951-a999-16b074dc2bb4","system_id":"levelo_inurba_marseille","lat":43.28425,"lon":5.39193,"is_reserved":false,"is_disabled":false,"rental_uris":{"android":"levelo://app?vid=aacbfc6b-bd24-4951-a999-16b074dc2bb4","ios":"levelo://app?vid=aacbfc6b-bd24-4951-a999-16b074dc2bb4"},"vehicle_type_id":"4","last_reported":1738692744,"current_range_meters":28400,"station_id":"ce4bhoh2rcd13ifvqh5g","pricing_plan_id":"cebpf4jnsgd1na2vs0mg"},{"bike_id":"db22e222-8ca6-4d29-9220-44be638d780a","system_id":"levelo_inurba_marseille","lat":43.284153,"lon":5.385045,"is_reserved":false,"is_disabled":false,"rental_uris":{"android":"levelo://app?vid=db22e222-8ca6-4d29-9220-44be638d780a","ios":"levelo://app?vid=db22e222-8ca6-4d29-9220-44be638d780a"},"vehicle_type_id":"4","last_reported":1738692744,"current_range_meters":22400,"station_id":"ce4bh512rcd13ifvqe2g","pricing_plan_id":"cebpf4jnsgd1na2vs0mg"},{"bike_id":"88f6ec14-1047-428a-bfc8-ed7564b679d3","system_id":"levelo_inurba_marseille","lat":43.24429,"lon":5.37056,"is_reserved":false,"is_disabled":false,"rental_uris":{"android":"levelo://app?vid=88f6ec14-1047-428a-bfc8-ed7564b679d3","ios":"levelo://app?vid=88f6ec14-1047-428a-bfc8-ed7564b679d3"},"vehicle_type_id":"4","last_reported":1738692744,"current_range_meters":38800,"station_id":"ce4bhhh2rcd13ifvqfk0","pricing_plan_id":"cebpf4jnsgd1na2vs0mg"},{"bike_id":"bb52aad1-9438-47e8-b33d-f4bfb9a03a55","system_id":"levelo_inurba_marseille","lat":43.29205,"lon":5.36068,"is_reserved":false,"is_disabled":false,"rental_uris":{"android":"levelo://app?vid=bb52aad1-9438-47e8-b33d-f4bfb9a03a55","ios":"levelo://app?vid=bb52aad1-9438-47e8-b33d-f4bfb9a03a55"},"vehicle_type_id":"4","last_reported":1738692744,"current_range_meters":37600,"station_id":"ce4bhbh2rcd13ifvqeqg","pricing_plan_id":"cebpf4jnsgd1na2vs0mg"},{"bike_id":"3eb089a4-83c3-4e94-92de-84f6b7286420","system_id":"levelo_inurba_marseille","lat":43.28154,"lon":5.4264,"is_reserved":false,"is_disabled":false,"rental_uris":{"android":"levelo://app?vid=3eb089a4-83c3-4e94-92de-84f6b7286420","ios":"levelo://app?vid=3eb089a4-83c3-4e94-92de-84f6b7286420"},"vehicle_type_id":"4","last_reported":1738692744,"current_range_meters":14400,"station_id":"ce4bhnh2rcd13ifvqgug","pricing_plan_id":"cebpf4jnsgd1na2vs0mg"},{"bike_id":"bf317ff9-fd3f-4038-81aa-8051299a75eb","system_id":"levelo_inurba_marseille","lat":43.31279,"lon":5.40166,"is_reserved":false,"is_disabled":false,"rental_uris":{"android":"levelo://app?vid=bf317ff9-fd3f-4038-81aa-8051299a75eb","ios":"levelo://app?vid=bf317ff9-fd3f-4038-81aa-8051299a75eb"},"vehicle_type_id":"4","last_reported":1738692744,"current_range_meters":29600,"station_id":"ce4bh092rcd13ifvqd30","pricing_plan_id":"cebpf4jnsgd1na2vs0mg"},{"bike_id":"c3042c2f-3c6a-4234-8397-5c1813291621","system_id":"levelo_inurba_marseille","lat":43.30055,"lon":5.38846,"is_reserved":false,"is_disabled":true,"rental_uris":{"android":"levelo://app?vid=c3042c2f-3c6a-4234-8397-5c1813291621","ios":"levelo://app?vid=c3042c2f-3c6a-4234-8397-5c1813291621"},"vehicle_type_id":"4","last_reported":1738692744,"current_range_meters":0,"station_id":"","pricing_plan_id":"cebpf4jnsgd1na2vs0mg"},{"bike_id":"ac10ecdc-782c-467c-8065-29ce4e1b1aab","system_id":"levelo_inurba_marseille","lat":43.32663,"lon":5.40996,"is_reserved":false,"is_disabled":false,"rental_uris":{"android":"levelo://app?vid=ac10ecdc-782c-467c-8065-29ce4e1b1aab","ios":"levelo://app?vid=ac10ecdc-782c-467c-8065-29ce4e1b1aab"},"vehicle_type_id":"4","last_reported":1738692744,"current_range_meters":39200,"station_id":"ce4bhpp2rcd13ifvqhgg","pricing_plan_id":"cebpf4jnsgd1na2vs0mg"},{"bike_id":"dcdc0f89-424b-480b-860a-becd402a3900","system_id":"levelo_inurba_marseille","lat":43.23966,"lon":5.36626,"is_reserved":false,"is_disabled":false,"rental_uris":{"android":"levelo://app?vid=dcdc0f89-424b-480b-860a-becd402a3900","ios":"levelo://app?vid=dcdc0f89-424b-480b-860a-becd402a3900"},"vehicle_type_id":"4","last_reported":1738692744,"current_range_meters":38800,"station_id":"ce4bhi12rcd13ifvqfp0","pricing_plan_id":"cebpf4jnsgd1na2vs0mg"},{"bike_id":"908345b8-1c56-4494-b691-aa8cb53e6393","system_id":"levelo_inurba_marseille","lat":43.29203,"lon":5.35797,"is_reserved":false,"is_disabled":false,"rental_uris":{"android":"levelo://app?vid=908345b8-1c56-4494-b691-aa8cb53e6393","ios":"levelo://app?vid=908345b8-1c56-4494-b691-aa8cb53e6393"},"vehicle_type_id":"4","last_reported":1738692744,"current_range_meters":20800,"station_id":"ce4bhb12rcd13ifvqel0","pricing_plan_id":"cebpf4jnsgd1na2vs0mg"},{"bike_id":"3894dca2-273b-40ed-8be2-d6f8dae96388","system_id":"levelo_inurba_marseille","lat":43.286218,"lon":5.350987,"is_reserved":false,"is_disabled":false,"rental_uris":{"android":"levelo://app?vid=3894dca2-273b-40ed-8be2-d6f8dae96388","ios":"levelo://app?vid=3894dca2-273b-40ed-8be2-d6f8dae96388"},"vehicle_type_id":"4","last_reported":1738692744,"current_range_meters":38400,"station_id":"ce4bhch2rcd13ifvqeug","pricing_plan_id":"cebpf4jnsgd1na2vs0mg"},{"bike_id":"03215b30-aa65-4b10-b451-ed50967ec88e","system_id":"levelo_inurba_marseille","lat":43.34436,"lon":5.35952,"is_reserved":false,"is_disabled":true,"rental_uris":{"android":"levelo://app?vid=03215b30-aa65-4b10-b451-ed50967ec88e","ios":"levelo://app?vid=03215b30-aa65-4b10-b451-ed50967ec88e"},"vehicle_type_id":"4","last_reported":1738692744,"current_range_meters":0,"station_id":"","pricing_plan_id":"cebpf4jnsgd1na2vs0mg"},{"bike_id":"931c3b97-cce1-4ebe-a291-6c50a6f2810e","system_id":"levelo_inurba_marseille","lat":43.31797,"lon":5.37413,"is_reserved":false,"is_disabled":false,"rental_uris":{"android":"levelo://app?vid=931c3b97-cce1-4ebe-a291-6c50a6f2810e","ios":"levelo://app?vid=931c3b97-cce1-4ebe-a291-6c50a6f2810e"},"vehicle_type_id":"4","last_reported":1738692744,"current_range_meters":8800,"station_id":"","pricing_plan_id":"cebpf4jnsgd1na2vs0mg"},{"bike_id":"1ee56031-79e9-4a67-99b0-43cee15b894f","system_id":"levelo_inurba_marseille","lat":43.30149,"lon":5.38083,"is_reserved":false,"is_disabled":false,"rental_uris":{"android":"levelo://app?vid=1ee56031-79e9-4a67-99b0-43cee15b894f","ios":"levelo://app?vid=1ee56031-79e9-4a67-99b0-43cee15b894f"},"vehicle_type_id":"4","last_reported":1738692744,"current_range_meters":35600,"station_id":"ce4bgjp2rcd13ifvqbh0","pricing_plan_id":"cebpf4jnsgd1na2vs0mg"},{"bike_id":"d1d51ec2-e1ab-4b92-9a4b-f935b04ef436","system_id":"levelo_inurba_marseille","lat":43.25038,"lon":5.38927,"is_reserved":false,"is_disabled":false,"rental_uris":{"android":"levelo://app?vid=d1d51ec2-e1ab-4b92-9a4b-f935b04ef436","ios":"levelo://app?vid=d1d51ec2-e1ab-4b92-9a4b-f935b04ef436"},"vehicle_type_id":"4","last_reported":1738692744,"current_range_meters":24000,"station_id":"ce4bhgp2rcd13ifvqfd0","pricing_plan_id":"cebpf4jnsgd1na2vs0mg"},{"bike_id":"102b9f2d-4c9c-4720-8aef-3f4ab487e1a0","system_id":"levelo_inurba_marseille","lat":43.32354,"lon":5.38877,"is_reserved":false,"is_disabled":false,"rental_uris":{"android":"levelo://app?vid=102b9f2d-4c9c-4720-8aef-3f4ab487e1a0","ios":"levelo://app?vid=102b9f2d-4c9c-4720-8aef-3f4ab487e1a0"},"vehicle_type_id":"4","last_reported":1738692744,"current_range_meters":10800,"station_id":"ce4bhqp2rcd13ifvqhog","pricing_plan_id":"cebpf4jnsgd1na2vs0mg"},{"bike_id":"7a2080c9-d44a-471c-9acd-526428e8e5dc","system_id":"levelo_inurba_marseille","lat":43.2293,"lon":5.35387,"is_reserved":false,"is_disabled":false,"rental_uris":{"android":"levelo://app?vid=7a2080c9-d44a-471c-9acd-526428e8e5dc","ios":"levelo://app?vid=7a2080c9-d44a-471c-9acd-526428e8e5dc"},"vehicle_type_id":"4","last_reported":1738692744,"current_range_meters":39200,"station_id":"cpo3532slgdg3j2ikp40","pricing_plan_id":"cebpf4jnsgd1na2vs0mg"},{"bike_id":"5b645a62-62e3-4a19-998b-56ec8b9755bf","system_id":"levelo_inurba_marseille","lat":43.30536,"lon":5.3842,"is_reserved":false,"is_disabled":false,"rental_uris":{"android":"levelo://app?vid=5b645a62-62e3-4a19-998b-56ec8b9755bf","ios":"levelo://app?vid=5b645a62-62e3-4a19-998b-56ec8b9755bf"},"vehicle_type_id":"4","last_reported":1738692744,"current_range_meters":38000,"station_id":"ce4bgg92rcd13ifvqb30","pricing_plan_id":"cebpf4jnsgd1na2vs0mg"},{"bike_id":"b55dee3c-549c-401b-8890-9112dd99053d","system_id":"levelo_inurba_marseille","lat":43.31685,"lon":5.40477,"is_reserved":false,"is_disabled":false,"rental_uris":{"android":"levelo://app?vid=b55dee3c-549c-401b-8890-9112dd99053d","ios":"levelo://app?vid=b55dee3c-549c-401b-8890-9112dd99053d"},"vehicle_type_id":"4","last_reported":1738692744,"current_range_meters":28000,"station_id":"ce4bh012rcd13ifvqd00","pricing_plan_id":"cebpf4jnsgd1na2vs0mg"},{"bike_id":"f307dfc9-492f-427c-886b-0aebd0c4a217","system_id":"levelo_inurba_marseille","lat":43.241649,"lon":5.364006,"is_reserved":false,"is_disabled":false,"rental_uris":{"android":"levelo://app?vid=f307dfc9-492f-427c-886b-0aebd0c4a217","ios":"levelo://app?vid=f307dfc9-492f-427c-886b-0aebd0c4a217"},"vehicle_type_id":"4","last_reported":1738692744,"current_range_meters":12000,"station_id":"cpo36qri1sfpv3e86is0","pricing_plan_id":"cebpf4jnsgd1na2vs0mg"},{"bike_id":"1bdf073d-c097-4150-87c6-187750a9dea9","system_id":"levelo_inurba_marseille","lat":43.26224,"lon":5.37445,"is_reserved":false,"is_disabled":false,"rental_uris":{"android":"levelo://app?vid=1bdf073d-c097-4150-87c6-187750a9dea9","ios":"levelo://app?vid=1bdf073d-c097-4150-87c6-187750a9dea9"},"vehicle_type_id":"4","last_reported":1738692744,"current_range_meters":37600,"station_id":"ce4bhgp2rcd13ifvqfc0","pricing_plan_id":"cebpf4jnsgd1na2vs0mg"},{"bike_id":"c4577d3e-8a4c-4bb5-8b46-07685403d6c6","system_id":"levelo_inurba_marseille","lat":43.31366,"lon":5.38512,"is_reserved":false,"is_disabled":false,"rental_uris":{"android":"levelo://app?vid=c4577d3e-8a4c-4bb5-8b46-07685403d6c6","ios":"levelo://app?vid=c4577d3e-8a4c-4bb5-8b46-07685403d6c6"},"vehicle_type_id":"4","last_reported":1738692744,"current_range_meters":38400,"station_id":"ce4bgt92rcd13ifvqcf0","pricing_plan_id":"cebpf4jnsgd1na2vs0mg"},{"bike_id":"bdfe44b3-5707-4491-b9b6-9ad33f0f555f","system_id":"levelo_inurba_marseille","lat":43.25117,"lon":5.40306,"is_reserved":false,"is_disabled":false,"rental_uris":{"android":"levelo://app?vid=bdfe44b3-5707-4491-b9b6-9ad33f0f555f","ios":"levelo://app?vid=bdfe44b3-5707-4491-b9b6-9ad33f0f555f"},"vehicle_type_id":"4","last_reported":1738692744,"current_range_meters":14800,"station_id":"ce4bhlh2rcd13ifvqgig","pricing_plan_id":"cebpf4jnsgd1na2vs0mg"},{"bike_id":"43784456-3d29-412e-8227-794ace361614","system_id":"levelo_inurba_marseille","lat":43.31173,"lon":5.38727,"is_reserved":false,"is_disabled":false,"rental_uris":{"android":"levelo://app?vid=43784456-3d29-412e-8227-794ace361614","ios":"levelo://app?vid=43784456-3d29-412e-8227-794ace361614"},"vehicle_type_id":"4","last_reported":1738692744,"current_range_meters":20000,"station_id":"ce4bgv12rcd13ifvqcp0","pricing_plan_id":"cebpf4jnsgd1na2vs0mg"},{"bike_id":"6dfe34ee-89dc-4687-a40b-bb003e3c18c6","system_id":"levelo_inurba_marseille","lat":43.281034,"lon":5.378406,"is_reserved":false,"is_disabled":true,"rental_uris":{"android":"levelo://app?vid=6dfe34ee-89dc-4687-a40b-bb003e3c18c6","ios":"levelo://app?vid=6dfe34ee-89dc-4687-a40b-bb003e3c18c6"},"vehicle_type_id":"4","last_reported":1738692744,"current_range_meters":38400,"station_id":"ce4bha12rcd13ifvqee0","pricing_plan_id":"cebpf4jnsgd1na2vs0mg"},{"bike_id":"6d60913d-cc26-4ecc-b494-5bb2f9b2ea83","system_id":"levelo_inurba_marseille","lat":43.29894,"lon":5.43665,"is_reserved":false,"is_disabled":false,"rental_uris":{"android":"levelo://app?vid=6d60913d-cc26-4ecc-b494-5bb2f9b2ea83","ios":"levelo://app?vid=6d60913d-cc26-4ecc-b494-5bb2f9b2ea83"},"vehicle_type_id":"4","last_reported":1738692744,"current_range_meters":38800,"station_id":"ce4bhpp2rcd13ifvqhfg","pricing_plan_id":"cebpf4jnsgd1na2vs0mg"},{"bike_id":"2fed9ba3-3909-423b-8e60-69abd9978d73","system_id":"levelo_inurba_marseille","lat":43.26799,"lon":5.40265,"is_reserved":false,"is_disabled":false,"rental_uris":{"android":"levelo://app?vid=2fed9ba3-3909-423b-8e60-69abd9978d73","ios":"levelo://app?vid=2fed9ba3-3909-423b-8e60-69abd9978d73"},"vehicle_type_id":"4","last_reported":1738692744,"current_range_meters":38800,"station_id":"ce501612rcd8frsf0b60","pricing_plan_id":"cebpf4jnsgd1na2vs0mg"},{"bike_id":"7d5a4724-5684-460d-941f-32e024b5a6bf","system_id":"levelo_inurba_marseille","lat":43.30112,"lon":5.39069,"is_reserved":false,"is_disabled":false,"rental_uris":{"android":"levelo://app?vid=7d5a4724-5684-460d-941f-32e024b5a6bf","ios":"levelo://app?vid=7d5a4724-5684-460d-941f-32e024b5a6bf"},"vehicle_type_id":"4","last_reported":1738692744,"current_range_meters":10000,"station_id":"ce4bh192rcd13ifvqdb0","pricing_plan_id":"cebpf4jnsgd1na2vs0mg"},{"bike_id":"4cfda800-3442-4c18-aea8-60879e304ad5","system_id":"levelo_inurba_marseille","lat":43.26489,"lon":5.39547,"is_reserved":false,"is_disabled":false,"rental_uris":{"android":"levelo://app?vid=4cfda800-3442-4c18-aea8-60879e304ad5","ios":"levelo://app?vid=4cfda800-3442-4c18-aea8-60879e304ad5"},"vehicle_type_id":"4","last_reported":1738692744,"current_range_meters":8400,"station_id":"ce4bhi12rcd13ifvqfq0","pricing_plan_id":"cebpf4jnsgd1na2vs0mg"},{"bike_id":"fb1830e2-f6fc-4fde-afda-8615e8ed9c4a","system_id":"levelo_inurba_marseille","lat":43.26196,"lon":5.37454,"is_reserved":false,"is_disabled":false,"rental_uris":{"android":"levelo://app?vid=fb1830e2-f6fc-4fde-afda-8615e8ed9c4a","ios":"levelo://app?vid=fb1830e2-f6fc-4fde-afda-8615e8ed9c4a"},"vehicle_type_id":"4","last_reported":1738692744,"current_range_meters":8400,"station_id":"ce4bhgp2rcd13ifvqfc0","pricing_plan_id":"cebpf4jnsgd1na2vs0mg"},{"bike_id":"069c07a0-fca0-4333-a2d2-5bb565137b09","system_id":"levelo_inurba_marseille","lat":43.25837,"lon":5.39456,"is_reserved":false,"is_disabled":false,"rental_uris":{"android":"levelo://app?vid=069c07a0-fca0-4333-a2d2-5bb565137b09","ios":"levelo://app?vid=069c07a0-fca0-4333-a2d2-5bb565137b09"},"vehicle_type_id":"4","last_reported":1738692744,"current_range_meters":10800,"station_id":"ce4bhip2rcd13ifvqft0","pricing_plan_id":"cebpf4jnsgd1na2vs0mg"},{"bike_id":"ddf8baa8-7606-442d-bcb8-bf35aa852c13","system_id":"levelo_inurba_marseille","lat":43.29579,"lon":5.37521,"is_reserved":false,"is_disabled":false,"rental_uris":{"android":"levelo://app?vid=ddf8baa8-7606-442d-bcb8-bf35aa852c13","ios":"levelo://app?vid=ddf8baa8-7606-442d-bcb8-bf35aa852c13"},"vehicle_type_id":"4","last_reported":1738692744,"current_range_meters":20000,"station_id":"ce4bgh92rcd13ifvqb50","pricing_plan_id":"cebpf4jnsgd1na2vs0mg"},{"bike_id":"6e7c1ac2-e791-43c7-8c36-9db37854d07d","system_id":"levelo_inurba_marseille","lat":43.28616,"lon":5.35113,"is_reserved":false,"is_disabled":true,"rental_uris":{"android":"levelo://app?vid=6e7c1ac2-e791-43c7-8c36-9db37854d07d","ios":"levelo://app?vid=6e7c1ac2-e791-43c7-8c36-9db37854d07d"},"vehicle_type_id":"4","last_reported":1738692744,"current_range_meters":25200,"station_id":"ce4bhch2rcd13ifvqeug","pricing_plan_id":"cebpf4jnsgd1na2vs0mg"},{"bike_id":"2b52254f-933d-4903-ac07-21eb27a1e798","system_id":"levelo_inurba_marseille","lat":43.27178,"lon":5.41002,"is_reserved":false,"is_disabled":false,"rental_uris":{"android":"levelo://app?vid=2b52254f-933d-4903-ac07-21eb27a1e798","ios":"levelo://app?vid=2b52254f-933d-4903-ac07-21eb27a1e798"},"vehicle_type_id":"4","last_reported":1738692744,"current_range_meters":8400,"station_id":"ce4bhl12rcd13ifvqgf0","pricing_plan_id":"cebpf4jnsgd1na2vs0mg"},{"bike_id":"f3ecf09e-1100-4fb7-8665-2e98d84633ae","system_id":"levelo_inurba_marseille","lat":43.27371,"lon":5.36251,"is_reserved":false,"is_disabled":true,"rental_uris":{"android":"levelo://app?vid=f3ecf09e-1100-4fb7-8665-2e98d84633ae","ios":"levelo://app?vid=f3ecf09e-1100-4fb7-8665-2e98d84633ae"},"vehicle_type_id":"4","last_reported":1738692744,"current_range_meters":0,"station_id":"ce4bhbh2rcd13ifvqeo0","pricing_plan_id":"cebpf4jnsgd1na2vs0mg"},{"bike_id":"1418b524-1535-4478-a5d6-289886b7efa0","system_id":"levelo_inurba_marseille","lat":43.28162,"lon":5.42633,"is_reserved":false,"is_disabled":false,"rental_uris":{"android":"levelo://app?vid=1418b524-1535-4478-a5d6-289886b7efa0","ios":"levelo://app?vid=1418b524-1535-4478-a5d6-289886b7efa0"},"vehicle_type_id":"4","last_reported":1738692744,"current_range_meters":36400,"station_id":"ce4bhnh2rcd13ifvqgug","pricing_plan_id":"cebpf4jnsgd1na2vs0mg"},{"bike_id":"f57bfa97-a5cc-487d-afa9-9b44bc853d3f","system_id":"levelo_inurba_marseille","lat":43.278188,"lon":5.407128,"is_reserved":false,"is_disabled":false,"rental_uris":{"android":"levelo://app?vid=f57bfa97-a5cc-487d-afa9-9b44bc853d3f","ios":"levelo://app?vid=f57bfa97-a5cc-487d-afa9-9b44bc853d3f"},"vehicle_type_id":"4","last_reported":1738692744,"current_range_meters":24400,"station_id":"ce4bhnh2rcd13ifvqgtg","pricing_plan_id":"cebpf4jnsgd1na2vs0mg"},{"bike_id":"9b71e329-f58f-4038-b3a1-ec2921912ecf","system_id":"levelo_inurba_marseille","lat":43.28723,"lon":5.36103,"is_reserved":false,"is_disabled":false,"rental_uris":{"android":"levelo://app?vid=9b71e329-f58f-4038-b3a1-ec2921912ecf","ios":"levelo://app?vid=9b71e329-f58f-4038-b3a1-ec2921912ecf"},"vehicle_type_id":"4","last_reported":1738692744,"current_range_meters":22400,"station_id":"cki0cbj6b192h4jlfktg","pricing_plan_id":"cebpf4jnsgd1na2vs0mg"},{"bike_id":"124e9a79-c729-4bbc-98ed-f7455c4baa32","system_id":"levelo_inurba_marseille","lat":43.30253,"lon":5.40086,"is_reserved":false,"is_disabled":false,"rental_uris":{"android":"levelo://app?vid=124e9a79-c729-4bbc-98ed-f7455c4baa32","ios":"levelo://app?vid=124e9a79-c729-4bbc-98ed-f7455c4baa32"},"vehicle_type_id":"4","last_reported":1738692744,"current_range_meters":5600,"station_id":"ce4bgvh2rcd13ifvqcs0","pricing_plan_id":"cebpf4jnsgd1na2vs0mg"},{"bike_id":"d7e70dc9-0697-4281-99ee-ba5da2e99695","system_id":"levelo_inurba_marseille","lat":43.28939,"lon":5.36382,"is_reserved":false,"is_disabled":false,"rental_uris":{"android":"levelo://app?vid=d7e70dc9-0697-4281-99ee-ba5da2e99695","ios":"levelo://app?vid=d7e70dc9-0697-4281-99ee-ba5da2e99695"},"vehicle_type_id":"4","last_reported":1738692744,"current_range_meters":38800,"station_id":"ce4bhc92rcd13ifvqetg","pricing_plan_id":"cebpf4jnsgd1na2vs0mg"},{"bike_id":"516e3082-90de-4ad8-b461-f5ca6ec7d10e","system_id":"levelo_inurba_marseille","lat":43.28818,"lon":5.35799,"is_reserved":false,"is_disabled":false,"rental_uris":{"android":"levelo://app?vid=516e3082-90de-4ad8-b461-f5ca6ec7d10e","ios":"levelo://app?vid=516e3082-90de-4ad8-b461-f5ca6ec7d10e"},"vehicle_type_id":"4","last_reported":1738692744,"current_range_meters":36400,"station_id":"ce4bhb12rcd13ifvqem0","pricing_plan_id":"cebpf4jnsgd1na2vs0mg"},{"bike_id":"b336a88a-95aa-4ced-a894-e93bccfe175a","system_id":"levelo_inurba_marseille","lat":43.29258,"lon":5.38432,"is_reserved":false,"is_disabled":false,"rental_uris":{"android":"levelo://app?vid=b336a88a-95aa-4ced-a894-e93bccfe175a","ios":"levelo://app?vid=b336a88a-95aa-4ced-a894-e93bccfe175a"},"vehicle_type_id":"4","last_reported":1738692744,"current_range_meters":18800,"station_id":"ce4bh692rcd13ifvqea0","pricing_plan_id":"cebpf4jnsgd1na2vs0mg"},{"bike_id":"cbbc130d-0059-4a82-a98b-9379ebb5f705","system_id":"levelo_inurba_marseille","lat":43.25118,"lon":5.40316,"is_reserved":false,"is_disabled":true,"rental_uris":{"android":"levelo://app?vid=cbbc130d-0059-4a82-a98b-9379ebb5f705","ios":"levelo://app?vid=cbbc130d-0059-4a82-a98b-9379ebb5f705"},"vehicle_type_id":"4","last_reported":1738692744,"current_range_meters":0,"station_id":"ce4bhlh2rcd13ifvqgig","pricing_plan_id":"cebpf4jnsgd1na2vs0mg"},{"bike_id":"f32b00fe-3d44-4d35-a9cf-f29a5bad275c","system_id":"levelo_inurba_marseille","lat":43.27317,"lon":5.39075,"is_reserved":false,"is_disabled":false,"rental_uris":{"android":"levelo://app?vid=f32b00fe-3d44-4d35-a9cf-f29a5bad275c","ios":"levelo://app?vid=f32b00fe-3d44-4d35-a9cf-f29a5bad275c"},"vehicle_type_id":"4","last_reported":1738692744,"current_range_meters":5600,"station_id":"ce4bhgp2rcd13ifvqfe0","pricing_plan_id":"cebpf4jnsgd1na2vs0mg"},{"bike_id":"cb423099-cf7b-43bd-b91c-33d292327889","system_id":"levelo_inurba_marseille","lat":43.31267,"lon":5.4016,"is_reserved":false,"is_disabled":false,"rental_uris":{"android":"levelo://app?vid=cb423099-cf7b-43bd-b91c-33d292327889","ios":"levelo://app?vid=cb423099-cf7b-43bd-b91c-33d292327889"},"vehicle_type_id":"4","last_reported":1738692744,"current_range_meters":36000,"station_id":"ce4bh092rcd13ifvqd30","pricing_plan_id":"cebpf4jnsgd1na2vs0mg"},{"bike_id":"26d397a9-61ee-400d-a6b0-dc8b026ea3e4","system_id":"levelo_inurba_marseille","lat":43.29631,"lon":5.37146,"is_reserved":false,"is_disabled":false,"rental_uris":{"android":"levelo://app?vid=26d397a9-61ee-400d-a6b0-dc8b026ea3e4","ios":"levelo://app?vid=26d397a9-61ee-400d-a6b0-dc8b026ea3e4"},"vehicle_type_id":"4","last_reported":1738692744,"current_range_meters":34000,"station_id":"ce4bgnh2rcd13ifvqc0g","pricing_plan_id":"cebpf4jnsgd1na2vs0mg"},{"bike_id":"9b3c003b-e25d-4df5-8a0f-7b47b2d95a01","system_id":"levelo_inurba_marseille","lat":43.29416,"lon":5.38625,"is_reserved":false,"is_disabled":false,"rental_uris":{"android":"levelo://app?vid=9b3c003b-e25d-4df5-8a0f-7b47b2d95a01","ios":"levelo://app?vid=9b3c003b-e25d-4df5-8a0f-7b47b2d95a01"},"vehicle_type_id":"4","last_reported":1738692744,"current_range_meters":39200,"station_id":"ce4bh2h2rcd13ifvqdh0","pricing_plan_id":"cebpf4jnsgd1na2vs0mg"},{"bike_id":"2632d83d-0506-4076-8742-3d293bf05e08","system_id":"levelo_inurba_marseille","lat":43.26783,"lon":5.39417,"is_reserved":false,"is_disabled":false,"rental_uris":{"android":"levelo://app?vid=2632d83d-0506-4076-8742-3d293bf05e08","ios":"levelo://app?vid=2632d83d-0506-4076-8742-3d293bf05e08"},"vehicle_type_id":"4","last_reported":1738692744,"current_range_meters":4000,"station_id":"ce4bhh12rcd13ifvqfg0","pricing_plan_id":"cebpf4jnsgd1na2vs0mg"},{"bike_id":"5fba90fb-e993-4d8f-99e0-53f38203668f","system_id":"levelo_inurba_marseille","lat":43.231903,"lon":5.39987,"is_reserved":false,"is_disabled":false,"rental_uris":{"android":"levelo://app?vid=5fba90fb-e993-4d8f-99e0-53f38203668f","ios":"levelo://app?vid=5fba90fb-e993-4d8f-99e0-53f38203668f"},"vehicle_type_id":"4","last_reported":1738692744,"current_range_meters":20000,"station_id":"ce4bhn12rcd13ifvqgqg","pricing_plan_id":"cebpf4jnsgd1na2vs0mg"},{"bike_id":"a6dd96c4-3685-4e00-a4f6-29f91df87e1c","system_id":"levelo_inurba_marseille","lat":43.29582,"lon":5.37493,"is_reserved":false,"is_disabled":false,"rental_uris":{"android":"levelo://app?vid=a6dd96c4-3685-4e00-a4f6-29f91df87e1c","ios":"levelo://app?vid=a6dd96c4-3685-4e00-a4f6-29f91df87e1c"},"vehicle_type_id":"4","last_reported":1738692744,"current_range_meters":10000,"station_id":"ce4bgh92rcd13ifvqb50","pricing_plan_id":"cebpf4jnsgd1na2vs0mg"},{"bike_id":"a9ee38d0-21e8-4d99-8e3f-cc643e32473e","system_id":"levelo_inurba_marseille","lat":43.27813,"lon":5.40723,"is_reserved":false,"is_disabled":false,"rental_uris":{"android":"levelo://app?vid=a9ee38d0-21e8-4d99-8e3f-cc643e32473e","ios":"levelo://app?vid=a9ee38d0-21e8-4d99-8e3f-cc643e32473e"},"vehicle_type_id":"4","last_reported":1738692744,"current_range_meters":38800,"station_id":"ce4bhnh2rcd13ifvqgtg","pricing_plan_id":"cebpf4jnsgd1na2vs0mg"},{"bike_id":"630dd466-e4dd-4ada-8a39-01e92abf0818","system_id":"levelo_inurba_marseille","lat":43.26192,"lon":5.37442,"is_reserved":false,"is_disabled":false,"rental_uris":{"android":"levelo://app?vid=630dd466-e4dd-4ada-8a39-01e92abf0818","ios":"levelo://app?vid=630dd466-e4dd-4ada-8a39-01e92abf0818"},"vehicle_type_id":"4","last_reported":1738692744,"current_range_meters":32800,"station_id":"ce4bhgp2rcd13ifvqfc0","pricing_plan_id":"cebpf4jnsgd1na2vs0mg"},{"bike_id":"90d71cbd-a748-4639-aa98-c89fc6d4b901","system_id":"levelo_inurba_marseille","lat":43.29886,"lon":5.3891,"is_reserved":false,"is_disabled":false,"rental_uris":{"android":"levelo://app?vid=90d71cbd-a748-4639-aa98-c89fc6d4b901","ios":"levelo://app?vid=90d71cbd-a748-4639-aa98-c89fc6d4b901"},"vehicle_type_id":"4","last_reported":1738692744,"current_range_meters":6000,"station_id":"ce4bh392rcd13ifvqdl0","pricing_plan_id":"cebpf4jnsgd1na2vs0mg"},{"bike_id":"6e570cc3-0656-4675-ba8e-15dfa66454ab","system_id":"levelo_inurba_marseille","lat":43.30884,"lon":5.39645,"is_reserved":false,"is_disabled":false,"rental_uris":{"android":"levelo://app?vid=6e570cc3-0656-4675-ba8e-15dfa66454ab","ios":"levelo://app?vid=6e570cc3-0656-4675-ba8e-15dfa66454ab"},"vehicle_type_id":"4","last_reported":1738692744,"current_range_meters":9200,"station_id":"ce4bh012rcd13ifvqcv0","pricing_plan_id":"cebpf4jnsgd1na2vs0mg"},{"bike_id":"3034d64e-f78e-468c-b4d6-2520a053438f","system_id":"levelo_inurba_marseille","lat":43.23193,"lon":5.39995,"is_reserved":false,"is_disabled":false,"rental_uris":{"android":"levelo://app?vid=3034d64e-f78e-468c-b4d6-2520a053438f","ios":"levelo://app?vid=3034d64e-f78e-468c-b4d6-2520a053438f"},"vehicle_type_id":"4","last_reported":1738692744,"current_range_meters":38800,"station_id":"ce4bhn12rcd13ifvqgqg","pricing_plan_id":"cebpf4jnsgd1na2vs0mg"},{"bike_id":"53bba524-cb70-4f62-87ef-1436aebcbbc7","system_id":"levelo_inurba_marseille","lat":43.3017,"lon":5.36627,"is_reserved":false,"is_disabled":false,"rental_uris":{"android":"levelo://app?vid=53bba524-cb70-4f62-87ef-1436aebcbbc7","ios":"levelo://app?vid=53bba524-cb70-4f62-87ef-1436aebcbbc7"},"vehicle_type_id":"4","last_reported":1738692744,"current_range_meters":37600,"station_id":"ce4bgrh2rcd13ifvqc8g","pricing_plan_id":"cebpf4jnsgd1na2vs0mg"},{"bike_id":"b788b8a3-3305-4c14-9ceb-b54f3cd6bd8f","system_id":"levelo_inurba_marseille","lat":43.26566,"lon":5.39012,"is_reserved":false,"is_disabled":false,"rental_uris":{"android":"levelo://app?vid=b788b8a3-3305-4c14-9ceb-b54f3cd6bd8f","ios":"levelo://app?vid=b788b8a3-3305-4c14-9ceb-b54f3cd6bd8f"},"vehicle_type_id":"4","last_reported":1738692744,"current_range_meters":38000,"station_id":"ce4bhe12rcd13ifvqf30","pricing_plan_id":"cebpf4jnsgd1na2vs0mg"},{"bike_id":"0fbef44a-47c6-4b6b-8fd4-32db6a950439","system_id":"levelo_inurba_marseille","lat":43.31691,"lon":5.40477,"is_reserved":false,"is_disabled":false,"rental_uris":{"android":"levelo://app?vid=0fbef44a-47c6-4b6b-8fd4-32db6a950439","ios":"levelo://app?vid=0fbef44a-47c6-4b6b-8fd4-32db6a950439"},"vehicle_type_id":"4","last_reported":1738692744,"current_range_meters":39200,"station_id":"ce4bh012rcd13ifvqd00","pricing_plan_id":"cebpf4jnsgd1na2vs0mg"},{"bike_id":"6bbbf966-47b4-473b-988d-51057dcd6693","system_id":"levelo_inurba_marseille","lat":43.29006,"lon":5.35612,"is_reserved":false,"is_disabled":false,"rental_uris":{"android":"levelo://app?vid=6bbbf966-47b4-473b-988d-51057dcd6693","ios":"levelo://app?vid=6bbbf966-47b4-473b-988d-51057dcd6693"},"vehicle_type_id":"4","last_reported":1738692744,"current_range_meters":4000,"station_id":"ce4bhb92rcd13ifvqen0","pricing_plan_id":"cebpf4jnsgd1na2vs0mg"},{"bike_id":"b09ebd01-c975-4878-ac0b-8fd11b1739f7","system_id":"levelo_inurba_marseille","lat":43.28143,"lon":5.42623,"is_reserved":false,"is_disabled":false,"rental_uris":{"android":"levelo://app?vid=b09ebd01-c975-4878-ac0b-8fd11b1739f7","ios":"levelo://app?vid=b09ebd01-c975-4878-ac0b-8fd11b1739f7"},"vehicle_type_id":"4","last_reported":1738692744,"current_range_meters":16000,"station_id":"ce4bhnh2rcd13ifvqgug","pricing_plan_id":"cebpf4jnsgd1na2vs0mg"},{"bike_id":"e214cb68-bd90-4283-80e9-951f93a1751c","system_id":"levelo_inurba_marseille","lat":43.3234,"lon":5.4062,"is_reserved":false,"is_disabled":false,"rental_uris":{"android":"levelo://app?vid=e214cb68-bd90-4283-80e9-951f93a1751c","ios":"levelo://app?vid=e214cb68-bd90-4283-80e9-951f93a1751c"},"vehicle_type_id":"4","last_reported":1738692744,"current_range_meters":38800,"station_id":"ce4bhq92rcd13ifvqhjg","pricing_plan_id":"cebpf4jnsgd1na2vs0mg"},{"bike_id":"63a78ee6-ea41-4621-bca4-383450360664","system_id":"levelo_inurba_marseille","lat":43.3014,"lon":5.38782,"is_reserved":false,"is_disabled":false,"rental_uris":{"android":"levelo://app?vid=63a78ee6-ea41-4621-bca4-383450360664","ios":"levelo://app?vid=63a78ee6-ea41-4621-bca4-383450360664"},"vehicle_type_id":"4","last_reported":1738692744,"current_range_meters":38400,"station_id":"ce4bhoh2rcd13ifvqh6g","pricing_plan_id":"cebpf4jnsgd1na2vs0mg"},{"bike_id":"a7dc0848-081a-4438-bce6-7e161a91f066","system_id":"levelo_inurba_marseille","lat":43.28154,"lon":5.42635,"is_reserved":false,"is_disabled":false,"rental_uris":{"android":"levelo://app?vid=a7dc0848-081a-4438-bce6-7e161a91f066","ios":"levelo://app?vid=a7dc0848-081a-4438-bce6-7e161a91f066"},"vehicle_type_id":"4","last_reported":1738692744,"current_range_meters":33600,"station_id":"ce4bhnh2rcd13ifvqgug","pricing_plan_id":"cebpf4jnsgd1na2vs0mg"},{"bike_id":"537d148d-4101-4c2e-81be-eedbb9188f59","system_id":"levelo_inurba_marseille","lat":43.26194,"lon":5.37462,"is_reserved":false,"is_disabled":false,"rental_uris":{"android":"levelo://app?vid=537d148d-4101-4c2e-81be-eedbb9188f59","ios":"levelo://app?vid=537d148d-4101-4c2e-81be-eedbb9188f59"},"vehicle_type_id":"4","last_reported":1738692744,"current_range_meters":32400,"station_id":"ce4bhgp2rcd13ifvqfc0","pricing_plan_id":"cebpf4jnsgd1na2vs0mg"},{"bike_id":"2055a81d-8e5e-4bf5-b5e1-2fc40f396b7c","system_id":"levelo_inurba_marseille","lat":43.30538,"lon":5.38438,"is_reserved":false,"is_disabled":true,"rental_uris":{"android":"levelo://app?vid=2055a81d-8e5e-4bf5-b5e1-2fc40f396b7c","ios":"levelo://app?vid=2055a81d-8e5e-4bf5-b5e1-2fc40f396b7c"},"vehicle_type_id":"4","last_reported":1738692744,"current_range_meters":32000,"station_id":"ce4bgg92rcd13ifvqb30","pricing_plan_id":"cebpf4jnsgd1na2vs0mg"},{"bike_id":"60459898-4795-4acb-95dc-4e319e0a4d38","system_id":"levelo_inurba_marseille","lat":43.246547,"lon":5.388961,"is_reserved":false,"is_disabled":false,"rental_uris":{"android":"levelo://app?vid=60459898-4795-4acb-95dc-4e319e0a4d38","ios":"levelo://app?vid=60459898-4795-4acb-95dc-4e319e0a4d38"},"vehicle_type_id":"4","last_reported":1738692744,"current_range_meters":36400,"station_id":"ce4bhg12rcd13ifvqf60","pricing_plan_id":"cebpf4jnsgd1na2vs0mg"},{"bike_id":"cafc3be3-ff7f-4690-b036-f309feb31f0f","system_id":"levelo_inurba_marseille","lat":43.25,"lon":5.38926,"is_reserved":false,"is_disabled":false,"rental_uris":{"android":"levelo://app?vid=cafc3be3-ff7f-4690-b036-f309feb31f0f","ios":"levelo://app?vid=cafc3be3-ff7f-4690-b036-f309feb31f0f"},"vehicle_type_id":"4","last_reported":1738692744,"current_range_meters":36400,"station_id":"ce4bhgp2rcd13ifvqfd0","pricing_plan_id":"cebpf4jnsgd1na2vs0mg"},{"bike_id":"6cf15891-88d7-45d7-8e57-013f85c020f9","system_id":"levelo_inurba_marseille","lat":43.26929,"lon":5.38919,"is_reserved":false,"is_disabled":false,"rental_uris":{"android":"levelo://app?vid=6cf15891-88d7-45d7-8e57-013f85c020f9","ios":"levelo://app?vid=6cf15891-88d7-45d7-8e57-013f85c020f9"},"vehicle_type_id":"4","last_reported":1738692744,"current_range_meters":36400,"station_id":"ce4bhhh2rcd13ifvqfl0","pricing_plan_id":"cebpf4jnsgd1na2vs0mg"},{"bike_id":"16112818-6421-41ec-a1db-2c6d44d83c8d","system_id":"levelo_inurba_marseille","lat":43.31056,"lon":5.383337,"is_reserved":false,"is_disabled":true,"rental_uris":{"android":"levelo://app?vid=16112818-6421-41ec-a1db-2c6d44d83c8d","ios":"levelo://app?vid=16112818-6421-41ec-a1db-2c6d44d83c8d"},"vehicle_type_id":"4","last_reported":1738692744,"current_range_meters":0,"station_id":"ce4bgv92rcd13ifvqcr0","pricing_plan_id":"cebpf4jnsgd1na2vs0mg"},{"bike_id":"bb846df9-2969-480a-aed6-edbcf9c326fb","system_id":"levelo_inurba_marseille","lat":43.24815,"lon":5.37462,"is_reserved":false,"is_disabled":false,"rental_uris":{"android":"levelo://app?vid=bb846df9-2969-480a-aed6-edbcf9c326fb","ios":"levelo://app?vid=bb846df9-2969-480a-aed6-edbcf9c326fb"},"vehicle_type_id":"4","last_reported":1738692744,"current_range_meters":24400,"station_id":"ce4bhgh2rcd13ifvqfb0","pricing_plan_id":"cebpf4jnsgd1na2vs0mg"},{"bike_id":"f7b06ef1-8fe2-49dc-97bf-948e009e701e","system_id":"levelo_inurba_marseille","lat":43.29262,"lon":5.38443,"is_reserved":false,"is_disabled":false,"rental_uris":{"android":"levelo://app?vid=f7b06ef1-8fe2-49dc-97bf-948e009e701e","ios":"levelo://app?vid=f7b06ef1-8fe2-49dc-97bf-948e009e701e"},"vehicle_type_id":"4","last_reported":1738692744,"current_range_meters":38800,"station_id":"ce4bh692rcd13ifvqea0","pricing_plan_id":"cebpf4jnsgd1na2vs0mg"},{"bike_id":"cd07e062-2af1-406e-bcb9-5f1ec4730937","system_id":"levelo_inurba_marseille","lat":43.23079,"lon":5.35485,"is_reserved":false,"is_disabled":false,"rental_uris":{"android":"levelo://app?vid=cd07e062-2af1-406e-bcb9-5f1ec4730937","ios":"levelo://app?vid=cd07e062-2af1-406e-bcb9-5f1ec4730937"},"vehicle_type_id":"4","last_reported":1738692744,"current_range_meters":8400,"station_id":"cpo3342slgdg3j2ifvpg","pricing_plan_id":"cebpf4jnsgd1na2vs0mg"},{"bike_id":"c3644d12-8427-4602-9945-9ef42c46feca","system_id":"levelo_inurba_marseille","lat":43.24166,"lon":5.36407,"is_reserved":false,"is_disabled":false,"rental_uris":{"android":"levelo://app?vid=c3644d12-8427-4602-9945-9ef42c46feca","ios":"levelo://app?vid=c3644d12-8427-4602-9945-9ef42c46feca"},"vehicle_type_id":"4","last_reported":1738692744,"current_range_meters":12000,"station_id":"cpo36qri1sfpv3e86is0","pricing_plan_id":"cebpf4jnsgd1na2vs0mg"},{"bike_id":"c63fc382-f0a8-4f5d-988c-41b6516dbf79","system_id":"levelo_inurba_marseille","lat":43.28616,"lon":5.351,"is_reserved":false,"is_disabled":false,"rental_uris":{"android":"levelo://app?vid=c63fc382-f0a8-4f5d-988c-41b6516dbf79","ios":"levelo://app?vid=c63fc382-f0a8-4f5d-988c-41b6516dbf79"},"vehicle_type_id":"4","last_reported":1738692744,"current_range_meters":15200,"station_id":"ce4bhch2rcd13ifvqeug","pricing_plan_id":"cebpf4jnsgd1na2vs0mg"},{"bike_id":"1e7bde43-ab8f-4755-b59a-acd0a53ae759","system_id":"levelo_inurba_marseille","lat":43.31718,"lon":5.42396,"is_reserved":false,"is_disabled":true,"rental_uris":{"android":"levelo://app?vid=1e7bde43-ab8f-4755-b59a-acd0a53ae759","ios":"levelo://app?vid=1e7bde43-ab8f-4755-b59a-acd0a53ae759"},"vehicle_type_id":"4","last_reported":1738692744,"current_range_meters":1600,"station_id":"ce4bhp92rcd13ifvqhbg","pricing_plan_id":"cebpf4jnsgd1na2vs0mg"},{"bike_id":"c9b70e57-d162-47a3-9738-99e93645261e","system_id":"levelo_inurba_marseille","lat":43.29522,"lon":5.39041,"is_reserved":false,"is_disabled":false,"rental_uris":{"android":"levelo://app?vid=c9b70e57-d162-47a3-9738-99e93645261e","ios":"levelo://app?vid=c9b70e57-d162-47a3-9738-99e93645261e"},"vehicle_type_id":"4","last_reported":1738692744,"current_range_meters":38800,"station_id":"ce4bh3p2rcd13ifvqdp0","pricing_plan_id":"cebpf4jnsgd1na2vs0mg"},{"bike_id":"d5833b74-5f64-4b8c-b501-56dcdb3c50a4","system_id":"levelo_inurba_marseille","lat":43.2923,"lon":5.36073,"is_reserved":false,"is_disabled":false,"rental_uris":{"android":"levelo://app?vid=d5833b74-5f64-4b8c-b501-56dcdb3c50a4","ios":"levelo://app?vid=d5833b74-5f64-4b8c-b501-56dcdb3c50a4"},"vehicle_type_id":"4","last_reported":1738692744,"current_range_meters":5600,"station_id":"ce4bhbh2rcd13ifvqeqg","pricing_plan_id":"cebpf4jnsgd1na2vs0mg"},{"bike_id":"2f66ff52-c752-4628-a1ad-4b88dcaff935","system_id":"levelo_inurba_marseille","lat":43.2959,"lon":5.38091,"is_reserved":false,"is_disabled":false,"rental_uris":{"android":"levelo://app?vid=2f66ff52-c752-4628-a1ad-4b88dcaff935","ios":"levelo://app?vid=2f66ff52-c752-4628-a1ad-4b88dcaff935"},"vehicle_type_id":"4","last_reported":1738692744,"current_range_meters":6800,"station_id":"ce4bgl12rcd13ifvqbo0","pricing_plan_id":"cebpf4jnsgd1na2vs0mg"},{"bike_id":"82b3c122-e306-4e3c-b908-b9b59d1bef0c","system_id":"levelo_inurba_marseille","lat":43.30129,"lon":5.39861,"is_reserved":false,"is_disabled":false,"rental_uris":{"android":"levelo://app?vid=82b3c122-e306-4e3c-b908-b9b59d1bef0c","ios":"levelo://app?vid=82b3c122-e306-4e3c-b908-b9b59d1bef0c"},"vehicle_type_id":"4","last_reported":1738692744,"current_range_meters":21600,"station_id":"ce4bh0h2rcd13ifvqd40","pricing_plan_id":"cebpf4jnsgd1na2vs0mg"},{"bike_id":"45a7daa2-2a2e-4454-90c3-1009aaecc5bd","system_id":"levelo_inurba_marseille","lat":43.231959,"lon":5.355511,"is_reserved":false,"is_disabled":false,"rental_uris":{"android":"levelo://app?vid=45a7daa2-2a2e-4454-90c3-1009aaecc5bd","ios":"levelo://app?vid=45a7daa2-2a2e-4454-90c3-1009aaecc5bd"},"vehicle_type_id":"4","last_reported":1738692744,"current_range_meters":8000,"station_id":"ce4bhu92rcd13ifvqi70","pricing_plan_id":"cebpf4jnsgd1na2vs0mg"},{"bike_id":"b55f14f3-9dd9-432d-b2e4-e2a06f1749e4","system_id":"levelo_inurba_marseille","lat":43.25565,"lon":5.38271,"is_reserved":false,"is_disabled":false,"rental_uris":{"android":"levelo://app?vid=b55f14f3-9dd9-432d-b2e4-e2a06f1749e4","ios":"levelo://app?vid=b55f14f3-9dd9-432d-b2e4-e2a06f1749e4"},"vehicle_type_id":"4","last_reported":1738692744,"current_range_meters":10800,"station_id":"ce4bhih2rcd13ifvqfs0","pricing_plan_id":"cebpf4jnsgd1na2vs0mg"},{"bike_id":"e90130af-5f47-482d-94c0-8e60098c0b22","system_id":"levelo_inurba_marseille","lat":43.29527,"lon":5.39042,"is_reserved":false,"is_disabled":false,"rental_uris":{"android":"levelo://app?vid=e90130af-5f47-482d-94c0-8e60098c0b22","ios":"levelo://app?vid=e90130af-5f47-482d-94c0-8e60098c0b22"},"vehicle_type_id":"4","last_reported":1738692744,"current_range_meters":36800,"station_id":"ce4bh3p2rcd13ifvqdp0","pricing_plan_id":"cebpf4jnsgd1na2vs0mg"},{"bike_id":"b4c4a2b5-8113-41e0-816a-5141dbc28c6d","system_id":"levelo_inurba_marseille","lat":43.2808,"lon":5.39652,"is_reserved":false,"is_disabled":false,"rental_uris":{"android":"levelo://app?vid=b4c4a2b5-8113-41e0-816a-5141dbc28c6d","ios":"levelo://app?vid=b4c4a2b5-8113-41e0-816a-5141dbc28c6d"},"vehicle_type_id":"4","last_reported":1738692744,"current_range_meters":33200,"station_id":"ce4bho12rcd13ifvqh2g","pricing_plan_id":"cebpf4jnsgd1na2vs0mg"},{"bike_id":"692ffd53-1745-408f-a05a-d600ce9896ef","system_id":"levelo_inurba_marseille","lat":43.29683,"lon":5.37277,"is_reserved":false,"is_disabled":false,"rental_uris":{"android":"levelo://app?vid=692ffd53-1745-408f-a05a-d600ce9896ef","ios":"levelo://app?vid=692ffd53-1745-408f-a05a-d600ce9896ef"},"vehicle_type_id":"4","last_reported":1738692744,"current_range_meters":38000,"station_id":"ce4bgk12rcd13ifvqbj0","pricing_plan_id":"cebpf4jnsgd1na2vs0mg"},{"bike_id":"3b1d5f28-8e2f-4cd2-84ee-32e60c8bc1d4","system_id":"levelo_inurba_marseille","lat":43.2794,"lon":5.387,"is_reserved":false,"is_disabled":true,"rental_uris":{"android":"levelo://app?vid=3b1d5f28-8e2f-4cd2-84ee-32e60c8bc1d4","ios":"levelo://app?vid=3b1d5f28-8e2f-4cd2-84ee-32e60c8bc1d4"},"vehicle_type_id":"4","last_reported":1738692744,"current_range_meters":3200,"station_id":"","pricing_plan_id":"cebpf4jnsgd1na2vs0mg"},{"bike_id":"a21453e1-7dd1-439a-9411-5be2637f52a4","system_id":"levelo_inurba_marseille","lat":43.29792,"lon":5.38103,"is_reserved":false,"is_disabled":true,"rental_uris":{"android":"levelo://app?vid=a21453e1-7dd1-439a-9411-5be2637f52a4","ios":"levelo://app?vid=a21453e1-7dd1-439a-9411-5be2637f52a4"},"vehicle_type_id":"4","last_reported":1738692744,"current_range_meters":0,"station_id":"ce4bgip2rcd13ifvqbb0","pricing_plan_id":"cebpf4jnsgd1na2vs0mg"},{"bike_id":"35798297-b936-47d1-8a98-bfdb50e14c75","system_id":"levelo_inurba_marseille","lat":43.32067,"lon":5.43294,"is_reserved":false,"is_disabled":true,"rental_uris":{"android":"levelo://app?vid=35798297-b936-47d1-8a98-bfdb50e14c75","ios":"levelo://app?vid=35798297-b936-47d1-8a98-bfdb50e14c75"},"vehicle_type_id":"4","last_reported":1738692744,"current_range_meters":36800,"station_id":"","pricing_plan_id":"cebpf4jnsgd1na2vs0mg"},{"bike_id":"ea5d774f-7eab-4828-a560-1535ca043c02","system_id":"levelo_inurba_marseille","lat":43.2842,"lon":5.34996,"is_reserved":false,"is_disabled":false,"rental_uris":{"android":"levelo://app?vid=ea5d774f-7eab-4828-a560-1535ca043c02","ios":"levelo://app?vid=ea5d774f-7eab-4828-a560-1535ca043c02"},"vehicle_type_id":"4","last_reported":1738692744,"current_range_meters":38800,"station_id":"ce4bhbh2rcd13ifvqepg","pricing_plan_id":"cebpf4jnsgd1na2vs0mg"},{"bike_id":"e6dc612f-7f56-4634-8aac-2cfefb7b3910","system_id":"levelo_inurba_marseille","lat":43.28276,"lon":5.35067,"is_reserved":false,"is_disabled":true,"rental_uris":{"android":"levelo://app?vid=e6dc612f-7f56-4634-8aac-2cfefb7b3910","ios":"levelo://app?vid=e6dc612f-7f56-4634-8aac-2cfefb7b3910"},"vehicle_type_id":"4","last_reported":1738692744,"current_range_meters":30400,"station_id":"ce4bhbp2rcd13ifvqerg","pricing_plan_id":"cebpf4jnsgd1na2vs0mg"},{"bike_id":"4ab5657a-d02d-42a0-9c03-c6d06f0a7e67","system_id":"levelo_inurba_marseille","lat":43.25582,"lon":5.38234,"is_reserved":false,"is_disabled":false,"rental_uris":{"android":"levelo://app?vid=4ab5657a-d02d-42a0-9c03-c6d06f0a7e67","ios":"levelo://app?vid=4ab5657a-d02d-42a0-9c03-c6d06f0a7e67"},"vehicle_type_id":"4","last_reported":1738692744,"current_range_meters":5600,"station_id":"ce4bhih2rcd13ifvqfs0","pricing_plan_id":"cebpf4jnsgd1na2vs0mg"},{"bike_id":"07fe2c79-0bd5-44ca-b551-89bed65638e6","system_id":"levelo_inurba_marseille","lat":43.28609,"lon":5.37062,"is_reserved":false,"is_disabled":true,"rental_uris":{"android":"levelo://app?vid=07fe2c79-0bd5-44ca-b551-89bed65638e6","ios":"levelo://app?vid=07fe2c79-0bd5-44ca-b551-89bed65638e6"},"vehicle_type_id":"4","last_reported":1738692744,"current_range_meters":800,"station_id":"ce4bht12rcd13ifvqi60","pricing_plan_id":"cebpf4jnsgd1na2vs0mg"},{"bike_id":"48a3f017-a474-490e-a7e8-15c5850cbbb4","system_id":"levelo_inurba_marseille","lat":43.28357,"lon":5.38629,"is_reserved":false,"is_disabled":true,"rental_uris":{"android":"levelo://app?vid=48a3f017-a474-490e-a7e8-15c5850cbbb4","ios":"levelo://app?vid=48a3f017-a474-490e-a7e8-15c5850cbbb4"},"vehicle_type_id":"4","last_reported":1738692744,"current_range_meters":800,"station_id":"ce4bh492rcd13ifvqdvg","pricing_plan_id":"cebpf4jnsgd1na2vs0mg"},{"bike_id":"297a4a02-2730-48f7-b051-15a6abe2b802","system_id":"levelo_inurba_marseille","lat":43.312747,"lon":5.401687,"is_reserved":false,"is_disabled":false,"rental_uris":{"android":"levelo://app?vid=297a4a02-2730-48f7-b051-15a6abe2b802","ios":"levelo://app?vid=297a4a02-2730-48f7-b051-15a6abe2b802"},"vehicle_type_id":"4","last_reported":1738692744,"current_range_meters":38800,"station_id":"ce4bh092rcd13ifvqd30","pricing_plan_id":"cebpf4jnsgd1na2vs0mg"},{"bike_id":"637c3436-3246-4528-a804-501c70d08596","system_id":"levelo_inurba_marseille","lat":43.2953,"lon":5.39042,"is_reserved":false,"is_disabled":false,"rental_uris":{"android":"levelo://app?vid=637c3436-3246-4528-a804-501c70d08596","ios":"levelo://app?vid=637c3436-3246-4528-a804-501c70d08596"},"vehicle_type_id":"4","last_reported":1738692744,"current_range_meters":34000,"station_id":"ce4bh3p2rcd13ifvqdp0","pricing_plan_id":"cebpf4jnsgd1na2vs0mg"},{"bike_id":"a060df4d-dd7a-4959-a05b-3ac45900b919","system_id":"levelo_inurba_marseille","lat":43.26925,"lon":5.38911,"is_reserved":false,"is_disabled":false,"rental_uris":{"android":"levelo://app?vid=a060df4d-dd7a-4959-a05b-3ac45900b919","ios":"levelo://app?vid=a060df4d-dd7a-4959-a05b-3ac45900b919"},"vehicle_type_id":"4","last_reported":1738692744,"current_range_meters":39200,"station_id":"ce4bhhh2rcd13ifvqfl0","pricing_plan_id":"cebpf4jnsgd1na2vs0mg"},{"bike_id":"49ac2d94-26a9-4d4a-a166-e86397143366","system_id":"levelo_inurba_marseille","lat":43.29266,"lon":5.38433,"is_reserved":false,"is_disabled":false,"rental_uris":{"android":"levelo://app?vid=49ac2d94-26a9-4d4a-a166-e86397143366","ios":"levelo://app?vid=49ac2d94-26a9-4d4a-a166-e86397143366"},"vehicle_type_id":"4","last_reported":1738692744,"current_range_meters":27200,"station_id":"ce4bh692rcd13ifvqea0","pricing_plan_id":"cebpf4jnsgd1na2vs0mg"},{"bike_id":"5c94817e-58ea-413c-b331-09fbd949183d","system_id":"levelo_inurba_marseille","lat":43.28714,"lon":5.39973,"is_reserved":false,"is_disabled":true,"rental_uris":{"android":"levelo://app?vid=5c94817e-58ea-413c-b331-09fbd949183d","ios":"levelo://app?vid=5c94817e-58ea-413c-b331-09fbd949183d"},"vehicle_type_id":"4","last_reported":1738692744,"current_range_meters":4400,"station_id":"ce4bho92rcd13ifvqh3g","pricing_plan_id":"cebpf4jnsgd1na2vs0mg"},{"bike_id":"6bb18b6b-35db-4080-8375-2a2e83c6fc4b","system_id":"levelo_inurba_marseille","lat":43.23144,"lon":5.43696,"is_reserved":false,"is_disabled":true,"rental_uris":{"android":"levelo://app?vid=6bb18b6b-35db-4080-8375-2a2e83c6fc4b","ios":"levelo://app?vid=6bb18b6b-35db-4080-8375-2a2e83c6fc4b"},"vehicle_type_id":"4","last_reported":1738692744,"current_range_meters":38800,"station_id":"ce4bhmp2rcd13ifvqgog","pricing_plan_id":"cebpf4jnsgd1na2vs0mg"},{"bike_id":"c0a3a442-67a0-40bd-8014-408a01235cc1","system_id":"levelo_inurba_marseille","lat":43.29521,"lon":5.39398,"is_reserved":false,"is_disabled":false,"rental_uris":{"android":"levelo://app?vid=c0a3a442-67a0-40bd-8014-408a01235cc1","ios":"levelo://app?vid=c0a3a442-67a0-40bd-8014-408a01235cc1"},"vehicle_type_id":"4","last_reported":1738692744,"current_range_meters":27200,"station_id":"ce4bh292rcd13ifvqdf0","pricing_plan_id":"cebpf4jnsgd1na2vs0mg"},{"bike_id":"4c938425-c231-42e7-aed2-476a37f6fa3f","system_id":"levelo_inurba_marseille","lat":43.290474,"lon":5.399502,"is_reserved":false,"is_disabled":true,"rental_uris":{"android":"levelo://app?vid=4c938425-c231-42e7-aed2-476a37f6fa3f","ios":"levelo://app?vid=4c938425-c231-42e7-aed2-476a37f6fa3f"},"vehicle_type_id":"4","last_reported":1738692744,"current_range_meters":38000,"station_id":"ce4bh392rcd13ifvqdm0","pricing_plan_id":"cebpf4jnsgd1na2vs0mg"},{"bike_id":"787b7837-f258-4886-bbf5-841ee39c0166","system_id":"levelo_inurba_marseille","lat":43.28275,"lon":5.35065,"is_reserved":false,"is_disabled":true,"rental_uris":{"android":"levelo://app?vid=787b7837-f258-4886-bbf5-841ee39c0166","ios":"levelo://app?vid=787b7837-f258-4886-bbf5-841ee39c0166"},"vehicle_type_id":"4","last_reported":1738692744,"current_range_meters":36800,"station_id":"ce4bhbp2rcd13ifvqerg","pricing_plan_id":"cebpf4jnsgd1na2vs0mg"},{"bike_id":"f361fabc-3cb4-47c2-8761-de09d9f48b3e","system_id":"levelo_inurba_marseille","lat":43.24663,"lon":5.38163,"is_reserved":false,"is_disabled":false,"rental_uris":{"android":"levelo://app?vid=f361fabc-3cb4-47c2-8761-de09d9f48b3e","ios":"levelo://app?vid=f361fabc-3cb4-47c2-8761-de09d9f48b3e"},"vehicle_type_id":"4","last_reported":1738692744,"current_range_meters":27600,"station_id":"ce4bhih2rcd13ifvqfr0","pricing_plan_id":"cebpf4jnsgd1na2vs0mg"},{"bike_id":"bd4229e2-91cd-44d2-848b-86d01b6fffa6","system_id":"levelo_inurba_marseille","lat":43.29525,"lon":5.3905,"is_reserved":false,"is_disabled":false,"rental_uris":{"android":"levelo://app?vid=bd4229e2-91cd-44d2-848b-86d01b6fffa6","ios":"levelo://app?vid=bd4229e2-91cd-44d2-848b-86d01b6fffa6"},"vehicle_type_id":"4","last_reported":1738692744,"current_range_meters":9200,"station_id":"ce4bh3p2rcd13ifvqdp0","pricing_plan_id":"cebpf4jnsgd1na2vs0mg"},{"bike_id":"ff4553e1-929b-4595-b2f0-994b6249225f","system_id":"levelo_inurba_marseille","lat":43.3236,"lon":5.38871,"is_reserved":false,"is_disabled":false,"rental_uris":{"android":"levelo://app?vid=ff4553e1-929b-4595-b2f0-994b6249225f","ios":"levelo://app?vid=ff4553e1-929b-4595-b2f0-994b6249225f"},"vehicle_type_id":"4","last_reported":1738692744,"current_range_meters":28000,"station_id":"ce4bhqp2rcd13ifvqhog","pricing_plan_id":"cebpf4jnsgd1na2vs0mg"},{"bike_id":"44a30f83-4304-4f9f-be85-a99271585cc5","system_id":"levelo_inurba_marseille","lat":43.2417,"lon":5.36389,"is_reserved":false,"is_disabled":false,"rental_uris":{"android":"levelo://app?vid=44a30f83-4304-4f9f-be85-a99271585cc5","ios":"levelo://app?vid=44a30f83-4304-4f9f-be85-a99271585cc5"},"vehicle_type_id":"4","last_reported":1738692744,"current_range_meters":20000,"station_id":"cpo36qri1sfpv3e86is0","pricing_plan_id":"cebpf4jnsgd1na2vs0mg"},{"bike_id":"eac8e106-76e0-4f1b-81af-4eaefecd2501","system_id":"levelo_inurba_marseille","lat":43.25014,"lon":5.38915,"is_reserved":false,"is_disabled":false,"rental_uris":{"android":"levelo://app?vid=eac8e106-76e0-4f1b-81af-4eaefecd2501","ios":"levelo://app?vid=eac8e106-76e0-4f1b-81af-4eaefecd2501"},"vehicle_type_id":"4","last_reported":1738692744,"current_range_meters":15200,"station_id":"ce4bhgp2rcd13ifvqfd0","pricing_plan_id":"cebpf4jnsgd1na2vs0mg"},{"bike_id":"9ec8bead-ccd8-4622-921c-2ccb91bc2a9e","system_id":"levelo_inurba_marseille","lat":43.28562,"lon":5.395,"is_reserved":false,"is_disabled":false,"rental_uris":{"android":"levelo://app?vid=9ec8bead-ccd8-4622-921c-2ccb91bc2a9e","ios":"levelo://app?vid=9ec8bead-ccd8-4622-921c-2ccb91bc2a9e"},"vehicle_type_id":"4","last_reported":1738692744,"current_range_meters":39200,"station_id":"ce4bh292rcd13ifvqdg0","pricing_plan_id":"cebpf4jnsgd1na2vs0mg"},{"bike_id":"5dd253fb-c57b-49ef-9fc3-26b9cbb92e9a","system_id":"levelo_inurba_marseille","lat":43.30767,"lon":5.37393,"is_reserved":false,"is_disabled":false,"rental_uris":{"android":"levelo://app?vid=5dd253fb-c57b-49ef-9fc3-26b9cbb92e9a","ios":"levelo://app?vid=5dd253fb-c57b-49ef-9fc3-26b9cbb92e9a"},"vehicle_type_id":"4","last_reported":1738692744,"current_range_meters":34000,"station_id":"","pricing_plan_id":"cebpf4jnsgd1na2vs0mg"},{"bike_id":"0256ff3c-1df4-4ca0-9ab5-dd91799ec05e","system_id":"levelo_inurba_marseille","lat":43.28858,"lon":5.35861,"is_reserved":false,"is_disabled":false,"rental_uris":{"android":"levelo://app?vid=0256ff3c-1df4-4ca0-9ab5-dd91799ec05e","ios":"levelo://app?vid=0256ff3c-1df4-4ca0-9ab5-dd91799ec05e"},"vehicle_type_id":"4","last_reported":1738692744,"current_range_meters":37600,"station_id":"ce4bhb12rcd13ifvqem0","pricing_plan_id":"cebpf4jnsgd1na2vs0mg"},{"bike_id":"c9126219-6bbc-4212-a375-520bc353363b","system_id":"levelo_inurba_marseille","lat":43.25583,"lon":5.38223,"is_reserved":false,"is_disabled":false,"rental_uris":{"android":"levelo://app?vid=c9126219-6bbc-4212-a375-520bc353363b","ios":"levelo://app?vid=c9126219-6bbc-4212-a375-520bc353363b"},"vehicle_type_id":"4","last_reported":1738692744,"current_range_meters":12400,"station_id":"ce4bhih2rcd13ifvqfs0","pricing_plan_id":"cebpf4jnsgd1na2vs0mg"},{"bike_id":"61ceb31b-03f6-4213-9b34-0374ee45b479","system_id":"levelo_inurba_marseille","lat":43.32106,"lon":5.36784,"is_reserved":false,"is_disabled":false,"rental_uris":{"android":"levelo://app?vid=61ceb31b-03f6-4213-9b34-0374ee45b479","ios":"levelo://app?vid=61ceb31b-03f6-4213-9b34-0374ee45b479"},"vehicle_type_id":"4","last_reported":1738692744,"current_range_meters":24400,"station_id":"ce4bhrh2rcd13ifvqhug","pricing_plan_id":"cebpf4jnsgd1na2vs0mg"},{"bike_id":"c8076923-5547-432b-8bca-28a64a480251","system_id":"levelo_inurba_marseille","lat":43.28708,"lon":5.374,"is_reserved":false,"is_disabled":false,"rental_uris":{"android":"levelo://app?vid=c8076923-5547-432b-8bca-28a64a480251","ios":"levelo://app?vid=c8076923-5547-432b-8bca-28a64a480251"},"vehicle_type_id":"4","last_reported":1738692744,"current_range_meters":28800,"station_id":"ce4bh3p2rcd13ifvqdq0","pricing_plan_id":"cebpf4jnsgd1na2vs0mg"},{"bike_id":"fb015f18-e4a9-470f-b502-95b4ec18443a","system_id":"levelo_inurba_marseille","lat":43.31329,"lon":5.397,"is_reserved":false,"is_disabled":true,"rental_uris":{"android":"levelo://app?vid=fb015f18-e4a9-470f-b502-95b4ec18443a","ios":"levelo://app?vid=fb015f18-e4a9-470f-b502-95b4ec18443a"},"vehicle_type_id":"4","last_reported":1738692744,"current_range_meters":400,"station_id":"ce4bgvp2rcd13ifvqcu0","pricing_plan_id":"cebpf4jnsgd1na2vs0mg"},{"bike_id":"c37fe78d-492f-4d03-8975-c1450aaed20d","system_id":"levelo_inurba_marseille","lat":43.27837,"lon":5.40668,"is_reserved":false,"is_disabled":false,"rental_uris":{"android":"levelo://app?vid=c37fe78d-492f-4d03-8975-c1450aaed20d","ios":"levelo://app?vid=c37fe78d-492f-4d03-8975-c1450aaed20d"},"vehicle_type_id":"4","last_reported":1738692744,"current_range_meters":21600,"station_id":"ce4bhnh2rcd13ifvqgtg","pricing_plan_id":"cebpf4jnsgd1na2vs0mg"},{"bike_id":"c322498b-971c-4774-a775-9df1558e42d2","system_id":"levelo_inurba_marseille","lat":43.29369,"lon":5.37868,"is_reserved":false,"is_disabled":true,"rental_uris":{"android":"levelo://app?vid=c322498b-971c-4774-a775-9df1558e42d2","ios":"levelo://app?vid=c322498b-971c-4774-a775-9df1558e42d2"},"vehicle_type_id":"4","last_reported":1738692744,"current_range_meters":29600,"station_id":"ce4bgjh2rcd13ifvqbf0","pricing_plan_id":"cebpf4jnsgd1na2vs0mg"},{"bike_id":"a33f698f-a5e6-4594-8eeb-353d5a917848","system_id":"levelo_inurba_marseille","lat":43.26932,"lon":5.38922,"is_reserved":false,"is_disabled":false,"rental_uris":{"android":"levelo://app?vid=a33f698f-a5e6-4594-8eeb-353d5a917848","ios":"levelo://app?vid=a33f698f-a5e6-4594-8eeb-353d5a917848"},"vehicle_type_id":"4","last_reported":1738692744,"current_range_meters":25600,"station_id":"ce4bhhh2rcd13ifvqfl0","pricing_plan_id":"cebpf4jnsgd1na2vs0mg"},{"bike_id":"c3467c4c-14f1-4656-b39d-880954e34ae6","system_id":"levelo_inurba_marseille","lat":43.31684,"lon":5.40471,"is_reserved":false,"is_disabled":false,"rental_uris":{"android":"levelo://app?vid=c3467c4c-14f1-4656-b39d-880954e34ae6","ios":"levelo://app?vid=c3467c4c-14f1-4656-b39d-880954e34ae6"},"vehicle_type_id":"4","last_reported":1738692744,"current_range_meters":33200,"station_id":"ce4bh012rcd13ifvqd00","pricing_plan_id":"cebpf4jnsgd1na2vs0mg"},{"bike_id":"962e86d5-31c5-4a4c-887b-2199948fce15","system_id":"levelo_inurba_marseille","lat":43.31275,"lon":5.40169,"is_reserved":false,"is_disabled":false,"rental_uris":{"android":"levelo://app?vid=962e86d5-31c5-4a4c-887b-2199948fce15","ios":"levelo://app?vid=962e86d5-31c5-4a4c-887b-2199948fce15"},"vehicle_type_id":"4","last_reported":1738692744,"current_range_meters":36000,"station_id":"ce4bh092rcd13ifvqd30","pricing_plan_id":"cebpf4jnsgd1na2vs0mg"},{"bike_id":"e5f34f7c-c503-40c2-aeb7-a92c676b8443","system_id":"levelo_inurba_marseille","lat":43.28704,"lon":5.4,"is_reserved":false,"is_disabled":true,"rental_uris":{"android":"levelo://app?vid=e5f34f7c-c503-40c2-aeb7-a92c676b8443","ios":"levelo://app?vid=e5f34f7c-c503-40c2-aeb7-a92c676b8443"},"vehicle_type_id":"4","last_reported":1738692744,"current_range_meters":0,"station_id":"ce4bho92rcd13ifvqh3g","pricing_plan_id":"cebpf4jnsgd1na2vs0mg"},{"bike_id":"8035757c-d944-4139-987f-0040021f3b20","system_id":"levelo_inurba_marseille","lat":43.30143,"lon":5.37415,"is_reserved":false,"is_disabled":false,"rental_uris":{"android":"levelo://app?vid=8035757c-d944-4139-987f-0040021f3b20","ios":"levelo://app?vid=8035757c-d944-4139-987f-0040021f3b20"},"vehicle_type_id":"4","last_reported":1738692744,"current_range_meters":19600,"station_id":"ce4bgs92rcd13ifvqcc0","pricing_plan_id":"cebpf4jnsgd1na2vs0mg"},{"bike_id":"ddbdd259-473e-4920-91b4-39dbad906b74","system_id":"levelo_inurba_marseille","lat":43.26803,"lon":5.40262,"is_reserved":false,"is_disabled":false,"rental_uris":{"android":"levelo://app?vid=ddbdd259-473e-4920-91b4-39dbad906b74","ios":"levelo://app?vid=ddbdd259-473e-4920-91b4-39dbad906b74"},"vehicle_type_id":"4","last_reported":1738692744,"current_range_meters":11200,"station_id":"ce501612rcd8frsf0b60","pricing_plan_id":"cebpf4jnsgd1na2vs0mg"},{"bike_id":"7d849773-f82b-4d69-878c-bb5ebc2bfe30","system_id":"levelo_inurba_marseille","lat":43.29617,"lon":5.37712,"is_reserved":false,"is_disabled":false,"rental_uris":{"android":"levelo://app?vid=7d849773-f82b-4d69-878c-bb5ebc2bfe30","ios":"levelo://app?vid=7d849773-f82b-4d69-878c-bb5ebc2bfe30"},"vehicle_type_id":"4","last_reported":1738692744,"current_range_meters":36800,"station_id":"ce4bgi92rcd13ifvqb90","pricing_plan_id":"cebpf4jnsgd1na2vs0mg"},{"bike_id":"f959e12c-7756-429d-ac8f-f51977963103","system_id":"levelo_inurba_marseille","lat":43.32112,"lon":5.36772,"is_reserved":false,"is_disabled":false,"rental_uris":{"android":"levelo://app?vid=f959e12c-7756-429d-ac8f-f51977963103","ios":"levelo://app?vid=f959e12c-7756-429d-ac8f-f51977963103"},"vehicle_type_id":"4","last_reported":1738692744,"current_range_meters":28800,"station_id":"ce4bhrh2rcd13ifvqhug","pricing_plan_id":"cebpf4jnsgd1na2vs0mg"},{"bike_id":"7e4fddec-7172-4098-a94f-350113fb0dfd","system_id":"levelo_inurba_marseille","lat":43.30642,"lon":5.40088,"is_reserved":false,"is_disabled":false,"rental_uris":{"android":"levelo://app?vid=7e4fddec-7172-4098-a94f-350113fb0dfd","ios":"levelo://app?vid=7e4fddec-7172-4098-a94f-350113fb0dfd"},"vehicle_type_id":"4","last_reported":1738692744,"current_range_meters":12800,"station_id":"ce4bh112rcd13ifvqda0","pricing_plan_id":"cebpf4jnsgd1na2vs0mg"},{"bike_id":"419967d2-7d56-48ed-9ff1-43a71c8314da","system_id":"levelo_inurba_marseille","lat":43.29713,"lon":5.36603,"is_reserved":false,"is_disabled":false,"rental_uris":{"android":"levelo://app?vid=419967d2-7d56-48ed-9ff1-43a71c8314da","ios":"levelo://app?vid=419967d2-7d56-48ed-9ff1-43a71c8314da"},"vehicle_type_id":"4","last_reported":1738692744,"current_range_meters":14400,"station_id":"ce4bgn12rcd13ifvqbt0","pricing_plan_id":"cebpf4jnsgd1na2vs0mg"},{"bike_id":"ed52e4ad-2bd3-4926-bfda-3d8c52e9b677","system_id":"levelo_inurba_marseille","lat":43.31318,"lon":5.39703,"is_reserved":false,"is_disabled":false,"rental_uris":{"android":"levelo://app?vid=ed52e4ad-2bd3-4926-bfda-3d8c52e9b677","ios":"levelo://app?vid=ed52e4ad-2bd3-4926-bfda-3d8c52e9b677"},"vehicle_type_id":"4","last_reported":1738692744,"current_range_meters":4400,"station_id":"ce4bgvp2rcd13ifvqcu0","pricing_plan_id":"cebpf4jnsgd1na2vs0mg"},{"bike_id":"7b39ed00-86df-4303-bda1-bfc0fee1e7e2","system_id":"levelo_inurba_marseille","lat":43.32454,"lon":5.45535,"is_reserved":false,"is_disabled":false,"rental_uris":{"android":"levelo://app?vid=7b39ed00-86df-4303-bda1-bfc0fee1e7e2","ios":"levelo://app?vid=7b39ed00-86df-4303-bda1-bfc0fee1e7e2"},"vehicle_type_id":"4","last_reported":1738692744,"current_range_meters":24000,"station_id":"","pricing_plan_id":"cebpf4jnsgd1na2vs0mg"},{"bike_id":"9736f717-5d6f-4dd2-a7f1-bb087b3e9e13","system_id":"levelo_inurba_marseille","lat":43.28161,"lon":5.42632,"is_reserved":false,"is_disabled":false,"rental_uris":{"android":"levelo://app?vid=9736f717-5d6f-4dd2-a7f1-bb087b3e9e13","ios":"levelo://app?vid=9736f717-5d6f-4dd2-a7f1-bb087b3e9e13"},"vehicle_type_id":"4","last_reported":1738692744,"current_range_meters":7200,"station_id":"ce4bhnh2rcd13ifvqgug","pricing_plan_id":"cebpf4jnsgd1na2vs0mg"},