{"last_updated":1769598912,"ttl":60,"version":"2.2","data":{"bikes":[{"bike_id":"4563cd4a-14be-4cd2-962a-8eb9b6992943","system_id":"levelo_inurba_marseille","lat":43.23187,"lon":5.35533,"is_reserved":false,"is_disabled":false,"rental_uris":{"android":"levelo://app?vid=4563cd4a-14be-4cd2-962a-8eb9b6992943","ios":"levelo://app?vid=4563cd4a-14be-4cd2-962a-8eb9b6992943"},"vehicle_type_id":"4","last_reported":1769598913,"current_range_meters":2800,"station_id":"ce4bhu92rcd13ifvqi70","pricing_plan_id":"cebpf4jnsgd1na2vs0mg"},{"bike_id":"ebb420da-9f91-41a5-8e07-8ddc17ac8d79","system_id":"levelo_inurba_marseille","lat":43.27986,"lon":5.41656,"is_reserved":false,"is_disabled":false,"rental_uris":{"android":"levelo://app?vid=ebb420da-9f91-41a5-8e07-8ddc17ac8d79","ios":"levelo://app?vid=ebb420da-9f91-41a5-8e07-8ddc17ac8d79"},"vehicle_type_id":"4","last_reported":1769598913,"current_range_meters":2800,"station_id":"ce4bho12rcd13ifvqh1g","pricing_plan_id":"cebpf4jnsgd1na2vs0mg"},{"bike_id":"ffe9aa10-1e59-4666-9d74-ad18a94b2995","system_id":"levelo_inurba_marseille","lat":43.28447,"lon":5.39201,"is_reserved":false,"is_disabled":false,"rental_uris":{"android":"levelo://app?vid=ffe9aa10-1e59-4666-9d74-ad18a94b2995","ios":"levelo://app?vid=ffe9aa10-1e59-4666-9d74-ad18a94b2995"},"vehicle_type_id":"4","last_reported":1769598913,"current_range_meters":2800,"station_id":"ce4bhoh2rcd13ifvqh5g","pricing_plan_id":"cebpf4jnsgd1na2vs0mg"},{"bike_id":"a292f842-fade-4625-acd6-566197709a87","system_id":"levelo_inurba_marseille","lat":43.31355,"lon":5.36681,"is_reserved":false,"is_disabled":false,"rental_uris":{"android":"levelo://app?vid=a292f842-fade-4625-acd6-566197709a87","ios":"levelo://app?vid=a292f842-fade-4625-acd6-566197709a87"},"vehicle_type_id":"4","last_reported":1769598913,"current_range_meters":2800,"station_id":"ce4bgr92rcd13ifvqc6g","pricing_plan_id":"cebpf4jnsgd1na2vs0mg"},{"bike_id":"e1120862-e77d-472e-b5c8-670c3df22cb9","system_id":"levelo_inurba_marseille","lat":43.240691,"lon":5.377484,"is_reserved":false,"is_disabled":false,"rental_uris":{"android":"levelo://app?vid=e1120862-e77d-472e-b5c8-670c3df22cb9","ios":"levelo://app?vid=e1120862-e77d-472e-b5c8-670c3df22cb9"},"vehicle_type_id":"4","last_reported":1769598913,"current_range_meters":2800,"station_id":"ce4bhnp2rcd13ifvqgvg","pricing_plan_id":"cebpf4jnsgd1na2vs0mg"},{"bike_id":"29aa5aa3-c04d-4a4a-9381-86a1ba9e5e8a","system_id":"levelo_inurba_marseille","lat":43.26537,"lon":5.37289,"is_reserved":false,"is_disabled":false,"rental_uris":{"android":"levelo://app?vid=29aa5aa3-c04d-4a4a-9381-86a1ba9e5e8a","ios":"levelo://app?vid=29aa5aa3-c04d-4a4a-9381-86a1ba9e5e8a"},"vehicle_type_id":"4","last_reported":1769598913,"current_range_meters":2800,"station_id":"ce4bhg12rcd13ifvqf70","pricing_plan_id":"cebpf4jnsgd1na2vs0mg"},{"bike_id":"77d8bad2-be8f-4adf-aa33-b9459cdea121","system_id":"levelo_inurba_marseille","lat":43.33538,"lon":5.3747,"is_reserved":false,"is_disabled":false,"rental_uris":{"android":"levelo://app?vid=77d8bad2-be8f-4adf-aa33-b9459cdea121","ios":"levelo://app?vid=77d8bad2-be8f-4adf-aa33-b9459cdea121"},"vehicle_type_id":"4","last_reported":1769598913,"current_range_meters":2800,"station_id":"st_d46tts09ee8s73dlu43g","pricing_plan_id":"cebpf4jnsgd1na2vs0mg"},{"bike_id":"aef48c2d-4e9e-44fa-b69a-17199407ac19","system_id":"levelo_inurba_marseille","lat":43.28492,"lon":5.48404,"is_reserved":false,"is_disabled":false,"rental_uris":{"android":"levelo://app?vid=aef48c2d-4e9e-44fa-b69a-17199407ac19","ios":"levelo://app?vid=aef48c2d-4e9e-44fa-b69a-17199407ac19"},"vehicle_type_id":"4","last_reported":1769598913,"current_range_meters":2800,"station_id":"st_d3svhcjqgbts73a3dn0g","pricing_plan_id":"cebpf4jnsgd1na2vs0mg"},{"bike_id":"1b368f07-fb77-43ed-a874-1f0946e19f72","system_id":"levelo_inurba_marseille","lat":43.3236,"lon":5.36773,"is_reserved":false,"is_disabled":false,"rental_uris":{"android":"levelo://app?vid=1b368f07-fb77-43ed-a874-1f0946e19f72","ios":"levelo://app?vid=1b368f07-fb77-43ed-a874-1f0946e19f72"},"vehicle_type_id":"4","last_reported":1769598913,"current_range_meters":2800,"station_id":"","pricing_plan_id":"cebpf4jnsgd1na2vs0mg"},{"bike_id":"a547037f-f7c5-4529-85b9-38478b8230cc","system_id":"levelo_inurba_marseille","lat":43.314765,"lon":5.373005,"is_reserved":false,"is_disabled":false,"rental_uris":{"android":"levelo://app?vid=a547037f-f7c5-4529-85b9-38478b8230cc","ios":"levelo://app?vid=a547037f-f7c5-4529-85b9-38478b8230cc"},"vehicle_type_id":"4","last_reported":1769598913,"current_range_meters":3200,"station_id":"ce4bgt12rcd13ifvqcd0","pricing_plan_id":"cebpf4jnsgd1na2vs0mg"},{"bike_id":"cfecdf5b-bd8a-41f6-bc87-4a228b76ad15","system_id":"levelo_inurba_marseille","lat":43.29361,"lon":5.3785,"is_reserved":false,"is_disabled":false,"rental_uris":{"android":"levelo://app?vid=cfecdf5b-bd8a-41f6-bc87-4a228b76ad15","ios":"levelo://app?vid=cfecdf5b-bd8a-41f6-bc87-4a228b76ad15"},"vehicle_type_id":"4","last_reported":1769598913,"current_range_meters":3200,"station_id":"ce4bgjh2rcd13ifvqbf0","pricing_plan_id":"cebpf4jnsgd1na2vs0mg"},{"bike_id":"210d34b3-637d-4a3a-93be-c748d1fe37e1","system_id":"levelo_inurba_marseille","lat":43.2464,"lon":5.43143,"is_reserved":false,"is_disabled":false,"rental_uris":{"android":"levelo://app?vid=210d34b3-637d-4a3a-93be-c748d1fe37e1","ios":"levelo://app?vid=210d34b3-637d-4a3a-93be-c748d1fe37e1"},"vehicle_type_id":"4","last_reported":1769598913,"current_range_meters":3200,"station_id":"st_d2m6c4gdas8pm72e190g","pricing_plan_id":"cebpf4jnsgd1na2vs0mg"},{"bike_id":"2b075d01-c712-444e-828a-10730b6841f4","system_id":"levelo_inurba_marseille","lat":43.31506,"lon":5.3731,"is_reserved":false,"is_disabled":false,"rental_uris":{"android":"levelo://app?vid=2b075d01-c712-444e-828a-10730b6841f4","ios":"levelo://app?vid=2b075d01-c712-444e-828a-10730b6841f4"},"vehicle_type_id":"4","last_reported":1769598913,"current_range_meters":3200,"station_id":"ce4bgt12rcd13ifvqcd0","pricing_plan_id":"cebpf4jnsgd1na2vs0mg"},{"bike_id":"e01e12df-208f-43ee-99bf-5376acaa42bf","system_id":"levelo_inurba_marseille","lat":43.28854,"lon":5.42514,"is_reserved":false,"is_disabled":false,"rental_uris":{"android":"levelo://app?vid=e01e12df-208f-43ee-99bf-5376acaa42bf","ios":"levelo://app?vid=e01e12df-208f-43ee-99bf-5376acaa42bf"},"vehicle_type_id":"4","last_reported":1769598913,"current_range_meters":3200,"station_id":"st_d3b462108ojc7389ooeg","pricing_plan_id":"cebpf4jnsgd1na2vs0mg"},{"bike_id":"9bcda961-27cd-4075-b93d-da48aacaa36e","system_id":"levelo_inurba_marseille","lat":43.266808,"lon":5.382668,"is_reserved":false,"is_disabled":false,"rental_uris":{"android":"levelo://app?vid=9bcda961-27cd-4075-b93d-da48aacaa36e","ios":"levelo://app?vid=9bcda961-27cd-4075-b93d-da48aacaa36e"},"vehicle_type_id":"4","last_reported":1769598913,"current_range_meters":3200,"station_id":"ce4bhg92rcd13ifvqf90","pricing_plan_id":"cebpf4jnsgd1na2vs0mg"},{"bike_id":"1d032a20-19ad-49a5-a797-ecf678e0d73c","system_id":"levelo_inurba_marseille","lat":43.31537,"lon":5.38036,"is_reserved":false,"is_disabled":true,"rental_uris":{"android":"levelo://app?vid=1d032a20-19ad-49a5-a797-ecf678e0d73c","ios":"levelo://app?vid=1d032a20-19ad-49a5-a797-ecf678e0d73c"},"vehicle_type_id":"4","last_reported":1769598913,"current_range_meters":3600,"station_id":"ce4bhsp2rcd13ifvqi50","pricing_plan_id":"cebpf4jnsgd1na2vs0mg"},{"bike_id":"b1c835b9-d1b0-4420-b1bf-6cfd071e73dc","system_id":"levelo_inurba_marseille","lat":43.24808,"lon":5.37448,"is_reserved":false,"is_disabled":false,"rental_uris":{"android":"levelo://app?vid=b1c835b9-d1b0-4420-b1bf-6cfd071e73dc","ios":"levelo://app?vid=b1c835b9-d1b0-4420-b1bf-6cfd071e73dc"},"vehicle_type_id":"4","last_reported":1769598913,"current_range_meters":3600,"station_id":"ce4bhgh2rcd13ifvqfb0","pricing_plan_id":"cebpf4jnsgd1na2vs0mg"},{"bike_id":"0c035227-befb-4c8d-8086-061e8c9d0b71","system_id":"levelo_inurba_marseille","lat":43.293689,"lon":5.378445,"is_reserved":false,"is_disabled":false,"rental_uris":{"android":"levelo://app?vid=0c035227-befb-4c8d-8086-061e8c9d0b71","ios":"levelo://app?vid=0c035227-befb-4c8d-8086-061e8c9d0b71"},"vehicle_type_id":"4","last_reported":1769598913,"current_range_meters":3600,"station_id":"ce4bgjh2rcd13ifvqbf0","pricing_plan_id":"cebpf4jnsgd1na2vs0mg"},{"bike_id":"a4197ac1-f17c-4dde-8532-d7c6e6881287","system_id":"levelo_inurba_marseille","lat":43.2319,"lon":5.35568,"is_reserved":false,"is_disabled":false,"rental_uris":{"android":"levelo://app?vid=a4197ac1-f17c-4dde-8532-d7c6e6881287","ios":"levelo://app?vid=a4197ac1-f17c-4dde-8532-d7c6e6881287"},"vehicle_type_id":"4","last_reported":1769598913,"current_range_meters":3600,"station_id":"ce4bhu92rcd13ifvqi70","pricing_plan_id":"cebpf4jnsgd1na2vs0mg"},{"bike_id":"71356222-e5c5-4365-b84a-c5d9e6a66d49","system_id":"levelo_inurba_marseille","lat":43.31756,"lon":5.39031,"is_reserved":false,"is_disabled":false,"rental_uris":{"android":"levelo://app?vid=71356222-e5c5-4365-b84a-c5d9e6a66d49","ios":"levelo://app?vid=71356222-e5c5-4365-b84a-c5d9e6a66d49"},"vehicle_type_id":"4","last_reported":1769598913,"current_range_meters":3600,"station_id":"ce4bhqp2rcd13ifvqhng","pricing_plan_id":"cebpf4jnsgd1na2vs0mg"},{"bike_id":"51f12955-85fa-488e-a5a3-3568ec645218","system_id":"levelo_inurba_marseille","lat":43.23147,"lon":5.43723,"is_reserved":false,"is_disabled":false,"rental_uris":{"android":"levelo://app?vid=51f12955-85fa-488e-a5a3-3568ec645218","ios":"levelo://app?vid=51f12955-85fa-488e-a5a3-3568ec645218"},"vehicle_type_id":"4","last_reported":1769598913,"current_range_meters":3600,"station_id":"ce4bhmp2rcd13ifvqgog","pricing_plan_id":"cebpf4jnsgd1na2vs0mg"},{"bike_id":"4747169d-73e0-4278-b096-2fcb1c4b7b0c","system_id":"levelo_inurba_marseille","lat":43.26581,"lon":5.39014,"is_reserved":false,"is_disabled":false,"rental_uris":{"android":"levelo://app?vid=4747169d-73e0-4278-b096-2fcb1c4b7b0c","ios":"levelo://app?vid=4747169d-73e0-4278-b096-2fcb1c4b7b0c"},"vehicle_type_id":"4","last_reported":1769598913,"current_range_meters":3600,"station_id":"ce4bhe12rcd13ifvqf30","pricing_plan_id":"cebpf4jnsgd1na2vs0mg"},{"bike_id":"5b1328e1-725c-435f-9cc2-db91a5108ba5","system_id":"levelo_inurba_marseille","lat":43.25015,"lon":5.38928,"is_reserved":false,"is_disabled":false,"rental_uris":{"android":"levelo://app?vid=5b1328e1-725c-435f-9cc2-db91a5108ba5","ios":"levelo://app?vid=5b1328e1-725c-435f-9cc2-db91a5108ba5"},"vehicle_type_id":"4","last_reported":1769598913,"current_range_meters":3600,"station_id":"ce4bhgp2rcd13ifvqfd0","pricing_plan_id":"cebpf4jnsgd1na2vs0mg"},{"bike_id":"13412fd6-fcc8-4592-8f33-a77ca55d2b61","system_id":"levelo_inurba_marseille","lat":43.31072,"lon":5.38736,"is_reserved":false,"is_disabled":false,"rental_uris":{"android":"levelo://app?vid=13412fd6-fcc8-4592-8f33-a77ca55d2b61","ios":"levelo://app?vid=13412fd6-fcc8-4592-8f33-a77ca55d2b61"},"vehicle_type_id":"4","last_reported":1769598913,"current_range_meters":4000,"station_id":"","pricing_plan_id":"cebpf4jnsgd1na2vs0mg"},{"bike_id":"0053c009-e4b3-400e-bf72-21c86b619303","system_id":"levelo_inurba_marseille","lat":43.291,"lon":5.38138,"is_reserved":false,"is_disabled":false,"rental_uris":{"android":"levelo://app?vid=0053c009-e4b3-400e-bf72-21c86b619303","ios":"levelo://app?vid=0053c009-e4b3-400e-bf72-21c86b619303"},"vehicle_type_id":"4","last_reported":1769598913,"current_range_meters":4000,"station_id":"ce4bh512rcd13ifvqe2g","pricing_plan_id":"cebpf4jnsgd1na2vs0mg"},{"bike_id":"2d341e68-8682-48ca-86e7-ace06645ef34","system_id":"levelo_inurba_marseille","lat":43.24469,"lon":5.425407,"is_reserved":false,"is_disabled":false,"rental_uris":{"android":"levelo://app?vid=2d341e68-8682-48ca-86e7-ace06645ef34","ios":"levelo://app?vid=2d341e68-8682-48ca-86e7-ace06645ef34"},"vehicle_type_id":"4","last_reported":1769598913,"current_range_meters":4000,"station_id":"st_d4a3vfp97mjs738cd8kg","pricing_plan_id":"cebpf4jnsgd1na2vs0mg"},{"bike_id":"293e483c-1e3c-46c3-b7be-8f2ffab97441","system_id":"levelo_inurba_marseille","lat":43.33604,"lon":5.41022,"is_reserved":false,"is_disabled":false,"rental_uris":{"android":"levelo://app?vid=293e483c-1e3c-46c3-b7be-8f2ffab97441","ios":"levelo://app?vid=293e483c-1e3c-46c3-b7be-8f2ffab97441"},"vehicle_type_id":"4","last_reported":1769598913,"current_range_meters":4000,"station_id":"ce4bhqh2rcd13ifvqhmg","pricing_plan_id":"cebpf4jnsgd1na2vs0mg"},{"bike_id":"f1ff8d0a-12c9-4236-a042-6aa2561ec6d5","system_id":"levelo_inurba_marseille","lat":43.27212,"lon":5.4281,"is_reserved":false,"is_disabled":false,"rental_uris":{"android":"levelo://app?vid=f1ff8d0a-12c9-4236-a042-6aa2561ec6d5","ios":"levelo://app?vid=f1ff8d0a-12c9-4236-a042-6aa2561ec6d5"},"vehicle_type_id":"4","last_reported":1769598913,"current_range_meters":4000,"station_id":"","pricing_plan_id":"cebpf4jnsgd1na2vs0mg"},{"bike_id":"7d9982a5-bc45-4237-abe2-f8a80718bcf2","system_id":"levelo_inurba_marseille","lat":43.331587,"lon":5.377024,"is_reserved":false,"is_disabled":false,"rental_uris":{"android":"levelo://app?vid=7d9982a5-bc45-4237-abe2-f8a80718bcf2","ios":"levelo://app?vid=7d9982a5-bc45-4237-abe2-f8a80718bcf2"},"vehicle_type_id":"4","last_reported":1769598913,"current_range_meters":4000,"station_id":"st_d46cu089ee8s73dldbu0","pricing_plan_id":"cebpf4jnsgd1na2vs0mg"},{"bike_id":"4b3417a6-1f1f-4163-87a9-5c0d16767f2a","system_id":"levelo_inurba_marseille","lat":43.28473,"lon":5.48406,"is_reserved":false,"is_disabled":false,"rental_uris":{"android":"levelo://app?vid=4b3417a6-1f1f-4163-87a9-5c0d16767f2a","ios":"levelo://app?vid=4b3417a6-1f1f-4163-87a9-5c0d16767f2a"},"vehicle_type_id":"4","last_reported":1769598913,"current_range_meters":4000,"station_id":"st_d3svhcjqgbts73a3dn0g","pricing_plan_id":"cebpf4jnsgd1na2vs0mg"},{"bike_id":"30d5ad6b-daa5-4699-ad03-8950354a49a5","system_id":"levelo_inurba_marseille","lat":43.3211,"lon":5.36771,"is_reserved":false,"is_disabled":false,"rental_uris":{"android":"levelo://app?vid=30d5ad6b-daa5-4699-ad03-8950354a49a5","ios":"levelo://app?vid=30d5ad6b-daa5-4699-ad03-8950354a49a5"},"vehicle_type_id":"4","last_reported":1769598913,"current_range_meters":4000,"station_id":"ce4bhrh2rcd13ifvqhug","pricing_plan_id":"cebpf4jnsgd1na2vs0mg"},{"bike_id":"51b8f39f-e87e-4327-a9b7-dad481cf0cba","system_id":"levelo_inurba_marseille","lat":43.23792,"lon":5.36626,"is_reserved":false,"is_disabled":false,"rental_uris":{"android":"levelo://app?vid=51b8f39f-e87e-4327-a9b7-dad481cf0cba","ios":"levelo://app?vid=51b8f39f-e87e-4327-a9b7-dad481cf0cba"},"vehicle_type_id":"4","last_reported":1769598913,"current_range_meters":4400,"station_id":"st_d3nk18o9ro0c73en2l3g","pricing_plan_id":"cebpf4jnsgd1na2vs0mg"},{"bike_id":"175e5f71-fbb3-4254-8434-f47a57e9bda6","system_id":"levelo_inurba_marseille","lat":43.23159,"lon":5.43696,"is_reserved":false,"is_disabled":false,"rental_uris":{"android":"levelo://app?vid=175e5f71-fbb3-4254-8434-f47a57e9bda6","ios":"levelo://app?vid=175e5f71-fbb3-4254-8434-f47a57e9bda6"},"vehicle_type_id":"4","last_reported":1769598913,"current_range_meters":4400,"station_id":"ce4bhmp2rcd13ifvqgog","pricing_plan_id":"cebpf4jnsgd1na2vs0mg"},{"bike_id":"8daea874-6378-4664-a8a0-600241f931cc","system_id":"levelo_inurba_marseille","lat":43.23784,"lon":5.36626,"is_reserved":false,"is_disabled":false,"rental_uris":{"android":"levelo://app?vid=8daea874-6378-4664-a8a0-600241f931cc","ios":"levelo://app?vid=8daea874-6378-4664-a8a0-600241f931cc"},"vehicle_type_id":"4","last_reported":1769598913,"current_range_meters":4400,"station_id":"st_d3nk18o9ro0c73en2l3g","pricing_plan_id":"cebpf4jnsgd1na2vs0mg"},{"bike_id":"78aa4272-c4e4-4137-8530-4c40847f1cd9","system_id":"levelo_inurba_marseille","lat":43.30584,"lon":5.3674,"is_reserved":false,"is_disabled":false,"rental_uris":{"android":"levelo://app?vid=78aa4272-c4e4-4137-8530-4c40847f1cd9","ios":"levelo://app?vid=78aa4272-c4e4-4137-8530-4c40847f1cd9"},"vehicle_type_id":"4","last_reported":1769598913,"current_range_meters":4400,"station_id":"","pricing_plan_id":"cebpf4jnsgd1na2vs0mg"},{"bike_id":"db91af1c-8610-46d2-8811-cba210a8ff4f","system_id":"levelo_inurba_marseille","lat":43.33277,"lon":5.37955,"is_reserved":false,"is_disabled":false,"rental_uris":{"android":"levelo://app?vid=db91af1c-8610-46d2-8811-cba210a8ff4f","ios":"levelo://app?vid=db91af1c-8610-46d2-8811-cba210a8ff4f"},"vehicle_type_id":"4","last_reported":1769598913,"current_range_meters":4400,"station_id":"","pricing_plan_id":"cebpf4jnsgd1na2vs0mg"},{"bike_id":"caf214c6-f51e-422f-a150-65a2d01f29fe","system_id":"levelo_inurba_marseille","lat":43.33267,"lon":5.36602,"is_reserved":false,"is_disabled":false,"rental_uris":{"android":"levelo://app?vid=caf214c6-f51e-422f-a150-65a2d01f29fe","ios":"levelo://app?vid=caf214c6-f51e-422f-a150-65a2d01f29fe"},"vehicle_type_id":"4","last_reported":1769598913,"current_range_meters":4400,"station_id":"","pricing_plan_id":"cebpf4jnsgd1na2vs0mg"},{"bike_id":"3a2a4b66-3a9f-438f-be15-3b6b5da1afd5","system_id":"levelo_inurba_marseille","lat":43.29964,"lon":5.41313,"is_reserved":false,"is_disabled":false,"rental_uris":{"android":"levelo://app?vid=3a2a4b66-3a9f-438f-be15-3b6b5da1afd5","ios":"levelo://app?vid=3a2a4b66-3a9f-438f-be15-3b6b5da1afd5"},"vehicle_type_id":"4","last_reported":1769598913,"current_range_meters":4400,"station_id":"ce4bhp12rcd13ifvqh9g","pricing_plan_id":"cebpf4jnsgd1na2vs0mg"},{"bike_id":"47c8241e-3428-4faf-889c-4f0d761c4639","system_id":"levelo_inurba_marseille","lat":43.29978,"lon":5.38491,"is_reserved":false,"is_disabled":false,"rental_uris":{"android":"levelo://app?vid=47c8241e-3428-4faf-889c-4f0d761c4639","ios":"levelo://app?vid=47c8241e-3428-4faf-889c-4f0d761c4639"},"vehicle_type_id":"4","last_reported":1769598913,"current_range_meters":4800,"station_id":"ce4bgj92rcd13ifvqbd0","pricing_plan_id":"cebpf4jnsgd1na2vs0mg"},{"bike_id":"8a225959-9028-4e8e-bb41-43f7382c386a","system_id":"levelo_inurba_marseille","lat":43.25439,"lon":5.3958,"is_reserved":false,"is_disabled":false,"rental_uris":{"android":"levelo://app?vid=8a225959-9028-4e8e-bb41-43f7382c386a","ios":"levelo://app?vid=8a225959-9028-4e8e-bb41-43f7382c386a"},"vehicle_type_id":"4","last_reported":1769598913,"current_range_meters":4800,"station_id":"","pricing_plan_id":"cebpf4jnsgd1na2vs0mg"},{"bike_id":"ddb2a730-30fd-4588-a2fb-a734e53f0d24","system_id":"levelo_inurba_marseille","lat":43.30911,"lon":5.37477,"is_reserved":false,"is_disabled":false,"rental_uris":{"android":"levelo://app?vid=ddb2a730-30fd-4588-a2fb-a734e53f0d24","ios":"levelo://app?vid=ddb2a730-30fd-4588-a2fb-a734e53f0d24"},"vehicle_type_id":"4","last_reported":1769598913,"current_range_meters":4800,"station_id":"","pricing_plan_id":"cebpf4jnsgd1na2vs0mg"},{"bike_id":"eeec3323-1eab-4171-a774-187bc3a536e5","system_id":"levelo_inurba_marseille","lat":43.299493,"lon":5.365435,"is_reserved":false,"is_disabled":false,"rental_uris":{"android":"levelo://app?vid=eeec3323-1eab-4171-a774-187bc3a536e5","ios":"levelo://app?vid=eeec3323-1eab-4171-a774-187bc3a536e5"},"vehicle_type_id":"4","last_reported":1769598913,"current_range_meters":4800,"station_id":"ce4bgm92rcd13ifvqbr0","pricing_plan_id":"cebpf4jnsgd1na2vs0mg"},{"bike_id":"773a0794-9608-48d0-ac87-744f6b7bca0d","system_id":"levelo_inurba_marseille","lat":43.22537,"lon":5.4164,"is_reserved":false,"is_disabled":false,"rental_uris":{"android":"levelo://app?vid=773a0794-9608-48d0-ac87-744f6b7bca0d","ios":"levelo://app?vid=773a0794-9608-48d0-ac87-744f6b7bca0d"},"vehicle_type_id":"4","last_reported":1769598913,"current_range_meters":4800,"station_id":"st_d2o4gvlbi1j2169b742g","pricing_plan_id":"cebpf4jnsgd1na2vs0mg"},{"bike_id":"27f194a5-e968-4a9b-97d7-2d76fb04828c","system_id":"levelo_inurba_marseille","lat":43.26682,"lon":5.38272,"is_reserved":false,"is_disabled":false,"rental_uris":{"android":"levelo://app?vid=27f194a5-e968-4a9b-97d7-2d76fb04828c","ios":"levelo://app?vid=27f194a5-e968-4a9b-97d7-2d76fb04828c"},"vehicle_type_id":"4","last_reported":1769598913,"current_range_meters":4800,"station_id":"ce4bhg92rcd13ifvqf90","pricing_plan_id":"cebpf4jnsgd1na2vs0mg"},{"bike_id":"38939492-5112-461d-8788-f383260a8286","system_id":"levelo_inurba_marseille","lat":43.33155,"lon":5.37704,"is_reserved":false,"is_disabled":false,"rental_uris":{"android":"levelo://app?vid=38939492-5112-461d-8788-f383260a8286","ios":"levelo://app?vid=38939492-5112-461d-8788-f383260a8286"},"vehicle_type_id":"4","last_reported":1769598913,"current_range_meters":4800,"station_id":"st_d46cu089ee8s73dldbu0","pricing_plan_id":"cebpf4jnsgd1na2vs0mg"},{"bike_id":"251146e2-ec72-43b0-a9b4-a10323a3d397","system_id":"levelo_inurba_marseille","lat":43.27426,"lon":5.39415,"is_reserved":false,"is_disabled":false,"rental_uris":{"android":"levelo://app?vid=251146e2-ec72-43b0-a9b4-a10323a3d397","ios":"levelo://app?vid=251146e2-ec72-43b0-a9b4-a10323a3d397"},"vehicle_type_id":"4","last_reported":1769598913,"current_range_meters":4800,"station_id":"ce4bhdp2rcd13ifvqf20","pricing_plan_id":"cebpf4jnsgd1na2vs0mg"},{"bike_id":"ec6cd7cd-b5d0-46e7-a3c8-0526c2ec4592","system_id":"levelo_inurba_marseille","lat":43.28397,"lon":5.3498,"is_reserved":false,"is_disabled":false,"rental_uris":{"android":"levelo://app?vid=ec6cd7cd-b5d0-46e7-a3c8-0526c2ec4592","ios":"levelo://app?vid=ec6cd7cd-b5d0-46e7-a3c8-0526c2ec4592"},"vehicle_type_id":"4","last_reported":1769598913,"current_range_meters":4800,"station_id":"ce4bhbh2rcd13ifvqepg","pricing_plan_id":"cebpf4jnsgd1na2vs0mg"},{"bike_id":"5629f77c-efd7-418d-a053-3ace41b8a029","system_id":"levelo_inurba_marseille","lat":43.28268,"lon":5.35079,"is_reserved":false,"is_disabled":false,"rental_uris":{"android":"levelo://app?vid=5629f77c-efd7-418d-a053-3ace41b8a029","ios":"levelo://app?vid=5629f77c-efd7-418d-a053-3ace41b8a029"},"vehicle_type_id":"4","last_reported":1769598913,"current_range_meters":4800,"station_id":"ce4bhbp2rcd13ifvqerg","pricing_plan_id":"cebpf4jnsgd1na2vs0mg"},{"bike_id":"0e3e56a8-c028-4a2f-88ed-6334be577f88","system_id":"levelo_inurba_marseille","lat":43.23159,"lon":5.43746,"is_reserved":false,"is_disabled":false,"rental_uris":{"android":"levelo://app?vid=0e3e56a8-c028-4a2f-88ed-6334be577f88","ios":"levelo://app?vid=0e3e56a8-c028-4a2f-88ed-6334be577f88"},"vehicle_type_id":"4","last_reported":1769598913,"current_range_meters":4800,"station_id":"ce4bhmp2rcd13ifvqgog","pricing_plan_id":"cebpf4jnsgd1na2vs0mg"},{"bike_id":"aef10846-628b-4472-b735-88d2fcb27420","system_id":"levelo_inurba_marseille","lat":43.27922,"lon":5.3959,"is_reserved":false,"is_disabled":true,"rental_uris":{"android":"levelo://app?vid=aef10846-628b-4472-b735-88d2fcb27420","ios":"levelo://app?vid=aef10846-628b-4472-b735-88d2fcb27420"},"vehicle_type_id":"4","last_reported":1769598913,"current_range_meters":4800,"station_id":"ce4bhf92rcd13ifvqf40","pricing_plan_id":"cebpf4jnsgd1na2vs0mg"},{"bike_id":"db310099-e410-46db-8f42-7b76b3ec64f2","system_id":"levelo_inurba_marseille","lat":43.25832,"lon":5.3944,"is_reserved":false,"is_disabled":false,"rental_uris":{"android":"levelo://app?vid=db310099-e410-46db-8f42-7b76b3ec64f2","ios":"levelo://app?vid=db310099-e410-46db-8f42-7b76b3ec64f2"},"vehicle_type_id":"4","last_reported":1769598913,"current_range_meters":4800,"station_id":"ce4bhip2rcd13ifvqft0","pricing_plan_id":"cebpf4jnsgd1na2vs0mg"},{"bike_id":"2e77998e-c517-4f35-8821-169fc0fea54e","system_id":"levelo_inurba_marseille","lat":43.23189,"lon":5.35562,"is_reserved":false,"is_disabled":false,"rental_uris":{"android":"levelo://app?vid=2e77998e-c517-4f35-8821-169fc0fea54e","ios":"levelo://app?vid=2e77998e-c517-4f35-8821-169fc0fea54e"},"vehicle_type_id":"4","last_reported":1769598913,"current_range_meters":4800,"station_id":"ce4bhu92rcd13ifvqi70","pricing_plan_id":"cebpf4jnsgd1na2vs0mg"},{"bike_id":"730f088c-00d8-4b8f-a391-1a0afdcd34ad","system_id":"levelo_inurba_marseille","lat":43.25941,"lon":5.40897,"is_reserved":false,"is_disabled":false,"rental_uris":{"android":"levelo://app?vid=730f088c-00d8-4b8f-a391-1a0afdcd34ad","ios":"levelo://app?vid=730f088c-00d8-4b8f-a391-1a0afdcd34ad"},"vehicle_type_id":"4","last_reported":1769598913,"current_range_meters":5600,"station_id":"ce4bhm92rcd13ifvqglg","pricing_plan_id":"cebpf4jnsgd1na2vs0mg"},{"bike_id":"d2c4eb74-42b0-4647-9a1a-00c8b86dfe4c","system_id":"levelo_inurba_marseille","lat":43.2583,"lon":5.39434,"is_reserved":false,"is_disabled":false,"rental_uris":{"android":"levelo://app?vid=d2c4eb74-42b0-4647-9a1a-00c8b86dfe4c","ios":"levelo://app?vid=d2c4eb74-42b0-4647-9a1a-00c8b86dfe4c"},"vehicle_type_id":"4","last_reported":1769598913,"current_range_meters":5600,"station_id":"ce4bhip2rcd13ifvqft0","pricing_plan_id":"cebpf4jnsgd1na2vs0mg"},{"bike_id":"5b541917-86b0-46e9-b782-3fdbd5f814c3","system_id":"levelo_inurba_marseille","lat":43.27692,"lon":5.38915,"is_reserved":false,"is_disabled":false,"rental_uris":{"android":"levelo://app?vid=5b541917-86b0-46e9-b782-3fdbd5f814c3","ios":"levelo://app?vid=5b541917-86b0-46e9-b782-3fdbd5f814c3"},"vehicle_type_id":"4","last_reported":1769598913,"current_range_meters":5600,"station_id":"ce4bhi12rcd13ifvqfo0","pricing_plan_id":"cebpf4jnsgd1na2vs0mg"},{"bike_id":"958b43fb-8c80-4692-977b-3f50e641a707","system_id":"levelo_inurba_marseille","lat":43.25933,"lon":5.40923,"is_reserved":false,"is_disabled":false,"rental_uris":{"android":"levelo://app?vid=958b43fb-8c80-4692-977b-3f50e641a707","ios":"levelo://app?vid=958b43fb-8c80-4692-977b-3f50e641a707"},"vehicle_type_id":"4","last_reported":1769598913,"current_range_meters":5600,"station_id":"ce4bhm92rcd13ifvqglg","pricing_plan_id":"cebpf4jnsgd1na2vs0mg"},{"bike_id":"d89cf35e-ea72-4be0-abab-d87970f6484a","system_id":"levelo_inurba_marseille","lat":43.30552,"lon":5.36514,"is_reserved":false,"is_disabled":false,"rental_uris":{"android":"levelo://app?vid=d89cf35e-ea72-4be0-abab-d87970f6484a","ios":"levelo://app?vid=d89cf35e-ea72-4be0-abab-d87970f6484a"},"vehicle_type_id":"4","last_reported":1769598913,"current_range_meters":5600,"station_id":"ce4bgs12rcd13ifvqcag","pricing_plan_id":"cebpf4jnsgd1na2vs0mg"},{"bike_id":"66b53d6a-3c00-42ec-b9d6-c6c8259b1a95","system_id":"levelo_inurba_marseille","lat":43.337444,"lon":5.374475,"is_reserved":false,"is_disabled":false,"rental_uris":{"android":"levelo://app?vid=66b53d6a-3c00-42ec-b9d6-c6c8259b1a95","ios":"levelo://app?vid=66b53d6a-3c00-42ec-b9d6-c6c8259b1a95"},"vehicle_type_id":"4","last_reported":1769598913,"current_range_meters":5600,"station_id":"","pricing_plan_id":"cebpf4jnsgd1na2vs0mg"},{"bike_id":"abee8780-ae36-4054-bd72-bac8e13e66b1","system_id":"levelo_inurba_marseille","lat":43.24165,"lon":5.36418,"is_reserved":false,"is_disabled":false,"rental_uris":{"android":"levelo://app?vid=abee8780-ae36-4054-bd72-bac8e13e66b1","ios":"levelo://app?vid=abee8780-ae36-4054-bd72-bac8e13e66b1"},"vehicle_type_id":"4","last_reported":1769598913,"current_range_meters":5600,"station_id":"cpo36qri1sfpv3e86is0","pricing_plan_id":"cebpf4jnsgd1na2vs0mg"},{"bike_id":"5ec5e39e-3ed1-40f6-847f-e3215d6e9aa5","system_id":"levelo_inurba_marseille","lat":43.28427,"lon":5.34991,"is_reserved":false,"is_disabled":false,"rental_uris":{"android":"levelo://app?vid=5ec5e39e-3ed1-40f6-847f-e3215d6e9aa5","ios":"levelo://app?vid=5ec5e39e-3ed1-40f6-847f-e3215d6e9aa5"},"vehicle_type_id":"4","last_reported":1769598913,"current_range_meters":5600,"station_id":"ce4bhbh2rcd13ifvqepg","pricing_plan_id":"cebpf4jnsgd1na2vs0mg"},{"bike_id":"70e6e4b1-7efc-43fa-b416-14145ad2c461","system_id":"levelo_inurba_marseille","lat":43.27827,"lon":5.40736,"is_reserved":false,"is_disabled":false,"rental_uris":{"android":"levelo://app?vid=70e6e4b1-7efc-43fa-b416-14145ad2c461","ios":"levelo://app?vid=70e6e4b1-7efc-43fa-b416-14145ad2c461"},"vehicle_type_id":"4","last_reported":1769598913,"current_range_meters":6000,"station_id":"ce4bhnh2rcd13ifvqgtg","pricing_plan_id":"cebpf4jnsgd1na2vs0mg"},{"bike_id":"71474573-e139-42f3-bf94-d0fc6a99c0c9","system_id":"levelo_inurba_marseille","lat":43.281561,"lon":5.426352,"is_reserved":false,"is_disabled":false,"rental_uris":{"android":"levelo://app?vid=71474573-e139-42f3-bf94-d0fc6a99c0c9","ios":"levelo://app?vid=71474573-e139-42f3-bf94-d0fc6a99c0c9"},"vehicle_type_id":"4","last_reported":1769598913,"current_range_meters":6000,"station_id":"ce4bhnh2rcd13ifvqgug","pricing_plan_id":"cebpf4jnsgd1na2vs0mg"},{"bike_id":"3bc5eb93-5e52-4f30-bca7-1c72bb708566","system_id":"levelo_inurba_marseille","lat":43.30896,"lon":5.37198,"is_reserved":false,"is_disabled":false,"rental_uris":{"android":"levelo://app?vid=3bc5eb93-5e52-4f30-bca7-1c72bb708566","ios":"levelo://app?vid=3bc5eb93-5e52-4f30-bca7-1c72bb708566"},"vehicle_type_id":"4","last_reported":1769598913,"current_range_meters":6000,"station_id":"ce4bguh2rcd13ifvqckg","pricing_plan_id":"cebpf4jnsgd1na2vs0mg"},{"bike_id":"37898724-93a0-4c37-b4d2-86862ecb9561","system_id":"levelo_inurba_marseille","lat":43.24399,"lon":5.37069,"is_reserved":false,"is_disabled":false,"rental_uris":{"android":"levelo://app?vid=37898724-93a0-4c37-b4d2-86862ecb9561","ios":"levelo://app?vid=37898724-93a0-4c37-b4d2-86862ecb9561"},"vehicle_type_id":"4","last_reported":1769598913,"current_range_meters":6000,"station_id":"ce4bhhh2rcd13ifvqfk0","pricing_plan_id":"cebpf4jnsgd1na2vs0mg"},{"bike_id":"832ba7eb-1c35-43cb-be63-61f58639df63","system_id":"levelo_inurba_marseille","lat":43.32357,"lon":5.36731,"is_reserved":false,"is_disabled":false,"rental_uris":{"android":"levelo://app?vid=832ba7eb-1c35-43cb-be63-61f58639df63","ios":"levelo://app?vid=832ba7eb-1c35-43cb-be63-61f58639df63"},"vehicle_type_id":"4","last_reported":1769598913,"current_range_meters":6000,"station_id":"ce4bhsh2rcd13ifvqi2g","pricing_plan_id":"cebpf4jnsgd1na2vs0mg"},{"bike_id":"9f87aa0c-b33c-4139-a4c2-7bae7dcb2add","system_id":"levelo_inurba_marseille","lat":43.26565,"lon":5.40324,"is_reserved":false,"is_disabled":false,"rental_uris":{"android":"levelo://app?vid=9f87aa0c-b33c-4139-a4c2-7bae7dcb2add","ios":"levelo://app?vid=9f87aa0c-b33c-4139-a4c2-7bae7dcb2add"},"vehicle_type_id":"4","last_reported":1769598913,"current_range_meters":6000,"station_id":"ce4bhmp2rcd13ifvqgng","pricing_plan_id":"cebpf4jnsgd1na2vs0mg"},{"bike_id":"43b64def-90c3-4f02-bec1-18f33daea206","system_id":"levelo_inurba_marseille","lat":43.25106,"lon":5.40318,"is_reserved":false,"is_disabled":false,"rental_uris":{"android":"levelo://app?vid=43b64def-90c3-4f02-bec1-18f33daea206","ios":"levelo://app?vid=43b64def-90c3-4f02-bec1-18f33daea206"},"vehicle_type_id":"4","last_reported":1769598913,"current_range_meters":6000,"station_id":"ce4bhlh2rcd13ifvqgig","pricing_plan_id":"cebpf4jnsgd1na2vs0mg"},{"bike_id":"42c3a743-7c01-4861-a73a-caf38ba8969a","system_id":"levelo_inurba_marseille","lat":43.29788,"lon":5.38105,"is_reserved":false,"is_disabled":false,"rental_uris":{"android":"levelo://app?vid=42c3a743-7c01-4861-a73a-caf38ba8969a","ios":"levelo://app?vid=42c3a743-7c01-4861-a73a-caf38ba8969a"},"vehicle_type_id":"4","last_reported":1769598913,"current_range_meters":6400,"station_id":"ce4bgip2rcd13ifvqbb0","pricing_plan_id":"cebpf4jnsgd1na2vs0mg"},{"bike_id":"f52d681d-9afd-4ec3-b0ea-4ef756afadb6","system_id":"levelo_inurba_marseille","lat":43.2931,"lon":5.38549,"is_reserved":false,"is_disabled":false,"rental_uris":{"android":"levelo://app?vid=f52d681d-9afd-4ec3-b0ea-4ef756afadb6","ios":"levelo://app?vid=f52d681d-9afd-4ec3-b0ea-4ef756afadb6"},"vehicle_type_id":"4","last_reported":1769598913,"current_range_meters":6400,"station_id":"ce4bh512rcd13ifvqe2g","pricing_plan_id":"cebpf4jnsgd1na2vs0mg"},{"bike_id":"82a6b099-0577-4798-9a60-21fb38c2bbb7","system_id":"levelo_inurba_marseille","lat":43.2983,"lon":5.44079,"is_reserved":false,"is_disabled":false,"rental_uris":{"android":"levelo://app?vid=82a6b099-0577-4798-9a60-21fb38c2bbb7","ios":"levelo://app?vid=82a6b099-0577-4798-9a60-21fb38c2bbb7"},"vehicle_type_id":"4","last_reported":1769598913,"current_range_meters":6400,"station_id":"","pricing_plan_id":"cebpf4jnsgd1na2vs0mg"},{"bike_id":"e8f45a33-ec85-48b6-ae9b-6673515ea86a","system_id":"levelo_inurba_marseille","lat":43.30284,"lon":5.36889,"is_reserved":false,"is_disabled":false,"rental_uris":{"android":"levelo://app?vid=e8f45a33-ec85-48b6-ae9b-6673515ea86a","ios":"levelo://app?vid=e8f45a33-ec85-48b6-ae9b-6673515ea86a"},"vehicle_type_id":"4","last_reported":1769598913,"current_range_meters":6400,"station_id":"ce4bgqh2rcd13ifvqc5g","pricing_plan_id":"cebpf4jnsgd1na2vs0mg"},{"bike_id":"7040bdbc-5052-46fd-9d78-6fb9765e379a","system_id":"levelo_inurba_marseille","lat":43.23963,"lon":5.36629,"is_reserved":false,"is_disabled":false,"rental_uris":{"android":"levelo://app?vid=7040bdbc-5052-46fd-9d78-6fb9765e379a","ios":"levelo://app?vid=7040bdbc-5052-46fd-9d78-6fb9765e379a"},"vehicle_type_id":"4","last_reported":1769598913,"current_range_meters":6400,"station_id":"ce4bhi12rcd13ifvqfp0","pricing_plan_id":"cebpf4jnsgd1na2vs0mg"},{"bike_id":"1f27925c-ff25-4870-9c4e-ac24412cf67a","system_id":"levelo_inurba_marseille","lat":43.30076,"lon":5.37647,"is_reserved":false,"is_disabled":false,"rental_uris":{"android":"levelo://app?vid=1f27925c-ff25-4870-9c4e-ac24412cf67a","ios":"levelo://app?vid=1f27925c-ff25-4870-9c4e-ac24412cf67a"},"vehicle_type_id":"4","last_reported":1769598913,"current_range_meters":6400,"station_id":"","pricing_plan_id":"cebpf4jnsgd1na2vs0mg"},{"bike_id":"1ad2e393-a92c-4f9d-816f-005ca727b14e","system_id":"levelo_inurba_marseille","lat":43.23155,"lon":5.43731,"is_reserved":false,"is_disabled":false,"rental_uris":{"android":"levelo://app?vid=1ad2e393-a92c-4f9d-816f-005ca727b14e","ios":"levelo://app?vid=1ad2e393-a92c-4f9d-816f-005ca727b14e"},"vehicle_type_id":"4","last_reported":1769598913,"current_range_meters":6400,"station_id":"ce4bhmp2rcd13ifvqgog","pricing_plan_id":"cebpf4jnsgd1na2vs0mg"},{"bike_id":"0e2af928-1823-41b4-be10-9ab8609a9a2e","system_id":"levelo_inurba_marseille","lat":43.24166,"lon":5.36408,"is_reserved":false,"is_disabled":false,"rental_uris":{"android":"levelo://app?vid=0e2af928-1823-41b4-be10-9ab8609a9a2e","ios":"levelo://app?vid=0e2af928-1823-41b4-be10-9ab8609a9a2e"},"vehicle_type_id":"4","last_reported":1769598913,"current_range_meters":6400,"station_id":"cpo36qri1sfpv3e86is0","pricing_plan_id":"cebpf4jnsgd1na2vs0mg"},{"bike_id":"b15feef3-6d7c-44a8-8028-53c3fba47a9a","system_id":"levelo_inurba_marseille","lat":43.27326,"lon":5.39115,"is_reserved":false,"is_disabled":false,"rental_uris":{"android":"levelo://app?vid=b15feef3-6d7c-44a8-8028-53c3fba47a9a","ios":"levelo://app?vid=b15feef3-6d7c-44a8-8028-53c3fba47a9a"},"vehicle_type_id":"4","last_reported":1769598913,"current_range_meters":6400,"station_id":"ce4bhgp2rcd13ifvqfe0","pricing_plan_id":"cebpf4jnsgd1na2vs0mg"},{"bike_id":"8de525a9-5bd3-43a9-9291-a02ed36bbc58","system_id":"levelo_inurba_marseille","lat":43.33159,"lon":5.37701,"is_reserved":false,"is_disabled":false,"rental_uris":{"android":"levelo://app?vid=8de525a9-5bd3-43a9-9291-a02ed36bbc58","ios":"levelo://app?vid=8de525a9-5bd3-43a9-9291-a02ed36bbc58"},"vehicle_type_id":"4","last_reported":1769598913,"current_range_meters":6400,"station_id":"st_d46cu089ee8s73dldbu0","pricing_plan_id":"cebpf4jnsgd1na2vs0mg"},{"bike_id":"55815b43-85cf-40ff-97dd-1477d8dcbf09","system_id":"levelo_inurba_marseille","lat":43.23152,"lon":5.43711,"is_reserved":false,"is_disabled":false,"rental_uris":{"android":"levelo://app?vid=55815b43-85cf-40ff-97dd-1477d8dcbf09","ios":"levelo://app?vid=55815b43-85cf-40ff-97dd-1477d8dcbf09"},"vehicle_type_id":"4","last_reported":1769598913,"current_range_meters":6400,"station_id":"ce4bhmp2rcd13ifvqgog","pricing_plan_id":"cebpf4jnsgd1na2vs0mg"},{"bike_id":"43cdc93d-f3f2-47d5-9737-990cb5438b9e","system_id":"levelo_inurba_marseille","lat":43.33147,"lon":5.37703,"is_reserved":false,"is_disabled":false,"rental_uris":{"android":"levelo://app?vid=43cdc93d-f3f2-47d5-9737-990cb5438b9e","ios":"levelo://app?vid=43cdc93d-f3f2-47d5-9737-990cb5438b9e"},"vehicle_type_id":"4","last_reported":1769598913,"current_range_meters":6400,"station_id":"st_d46cu089ee8s73dldbu0","pricing_plan_id":"cebpf4jnsgd1na2vs0mg"},{"bike_id":"5432d7a0-1700-4fbb-98da-e9587b56686e","system_id":"levelo_inurba_marseille","lat":43.27645,"lon":5.36105,"is_reserved":false,"is_disabled":false,"rental_uris":{"android":"levelo://app?vid=5432d7a0-1700-4fbb-98da-e9587b56686e","ios":"levelo://app?vid=5432d7a0-1700-4fbb-98da-e9587b56686e"},"vehicle_type_id":"4","last_reported":1769598913,"current_range_meters":6800,"station_id":"ce4bgj92rcd13ifvqbe0","pricing_plan_id":"cebpf4jnsgd1na2vs0mg"},{"bike_id":"c9026cf3-bc60-41ac-ba3f-4fdf4bcb4586","system_id":"levelo_inurba_marseille","lat":43.25346,"lon":5.42201,"is_reserved":false,"is_disabled":false,"rental_uris":{"android":"levelo://app?vid=c9026cf3-bc60-41ac-ba3f-4fdf4bcb4586","ios":"levelo://app?vid=c9026cf3-bc60-41ac-ba3f-4fdf4bcb4586"},"vehicle_type_id":"4","last_reported":1769598913,"current_range_meters":6800,"station_id":"st_d2m65c5bi1j21697t3ng","pricing_plan_id":"cebpf4jnsgd1na2vs0mg"},{"bike_id":"701b1f82-872b-404a-b1b9-c04d698fc931","system_id":"levelo_inurba_marseille","lat":43.29002,"lon":5.35628,"is_reserved":false,"is_disabled":false,"rental_uris":{"android":"levelo://app?vid=701b1f82-872b-404a-b1b9-c04d698fc931","ios":"levelo://app?vid=701b1f82-872b-404a-b1b9-c04d698fc931"},"vehicle_type_id":"4","last_reported":1769598913,"current_range_meters":6800,"station_id":"ce4bhb92rcd13ifvqen0","pricing_plan_id":"cebpf4jnsgd1na2vs0mg"},{"bike_id":"83fc51a6-33d8-4514-8bb6-691df6dd60b4","system_id":"levelo_inurba_marseille","lat":43.30137,"lon":5.43105,"is_reserved":false,"is_disabled":false,"rental_uris":{"android":"levelo://app?vid=83fc51a6-33d8-4514-8bb6-691df6dd60b4","ios":"levelo://app?vid=83fc51a6-33d8-4514-8bb6-691df6dd60b4"},"vehicle_type_id":"4","last_reported":1769598913,"current_range_meters":6800,"station_id":"st_d3js3co5814s73ftftug","pricing_plan_id":"cebpf4jnsgd1na2vs0mg"},{"bike_id":"c86d42ac-229c-4818-930b-a7ffc82a6487","system_id":"levelo_inurba_marseille","lat":43.27958,"lon":5.38745,"is_reserved":false,"is_disabled":false,"rental_uris":{"android":"levelo://app?vid=c86d42ac-229c-4818-930b-a7ffc82a6487","ios":"levelo://app?vid=c86d42ac-229c-4818-930b-a7ffc82a6487"},"vehicle_type_id":"4","last_reported":1769598913,"current_range_meters":6800,"station_id":"ce4bhg12rcd13ifvqf80","pricing_plan_id":"cebpf4jnsgd1na2vs0mg"},{"bike_id":"cf25d291-cd84-4ed4-b5e0-e0efdadc4bec","system_id":"levelo_inurba_marseille","lat":43.30552,"lon":5.36528,"is_reserved":false,"is_disabled":false,"rental_uris":{"android":"levelo://app?vid=cf25d291-cd84-4ed4-b5e0-e0efdadc4bec","ios":"levelo://app?vid=cf25d291-cd84-4ed4-b5e0-e0efdadc4bec"},"vehicle_type_id":"4","last_reported":1769598913,"current_range_meters":6800,"station_id":"ce4bgs12rcd13ifvqcag","pricing_plan_id":"cebpf4jnsgd1na2vs0mg"},{"bike_id":"2e4b5a78-8d5f-49ab-a32c-da3979878386","system_id":"levelo_inurba_marseille","lat":43.25483,"lon":5.37649,"is_reserved":false,"is_disabled":false,"rental_uris":{"android":"levelo://app?vid=2e4b5a78-8d5f-49ab-a32c-da3979878386","ios":"levelo://app?vid=2e4b5a78-8d5f-49ab-a32c-da3979878386"},"vehicle_type_id":"4","last_reported":1769598913,"current_range_meters":6800,"station_id":"ce4bhh12rcd13ifvqff0","pricing_plan_id":"cebpf4jnsgd1na2vs0mg"},{"bike_id":"ee89e0fd-9d03-4ec0-abaa-2515efa4964b","system_id":"levelo_inurba_marseille","lat":43.29323,"lon":5.37164,"is_reserved":false,"is_disabled":false,"rental_uris":{"android":"levelo://app?vid=ee89e0fd-9d03-4ec0-abaa-2515efa4964b","ios":"levelo://app?vid=ee89e0fd-9d03-4ec0-abaa-2515efa4964b"},"vehicle_type_id":"4","last_reported":1769598913,"current_range_meters":6800,"station_id":"ce4bgh92rcd13ifvqb40","pricing_plan_id":"cebpf4jnsgd1na2vs0mg"},{"bike_id":"69015cf3-bc6b-446f-9be5-f6f422a1478d","system_id":"levelo_inurba_marseille","lat":43.28861,"lon":5.42523,"is_reserved":false,"is_disabled":false,"rental_uris":{"android":"levelo://app?vid=69015cf3-bc6b-446f-9be5-f6f422a1478d","ios":"levelo://app?vid=69015cf3-bc6b-446f-9be5-f6f422a1478d"},"vehicle_type_id":"4","last_reported":1769598913,"current_range_meters":6800,"station_id":"st_d3b462108ojc7389ooeg","pricing_plan_id":"cebpf4jnsgd1na2vs0mg"},{"bike_id":"dd025a3b-8d88-4cc7-98ea-d46d5c91c806","system_id":"levelo_inurba_marseille","lat":43.27178,"lon":5.40996,"is_reserved":false,"is_disabled":false,"rental_uris":{"android":"levelo://app?vid=dd025a3b-8d88-4cc7-98ea-d46d5c91c806","ios":"levelo://app?vid=dd025a3b-8d88-4cc7-98ea-d46d5c91c806"},"vehicle_type_id":"4","last_reported":1769598913,"current_range_meters":6800,"station_id":"ce4bhl12rcd13ifvqgf0","pricing_plan_id":"cebpf4jnsgd1na2vs0mg"},{"bike_id":"407f8e2e-4ca5-4e08-8abd-3a4ee1593ea4","system_id":"levelo_inurba_marseille","lat":43.32659,"lon":5.40994,"is_reserved":false,"is_disabled":false,"rental_uris":{"android":"levelo://app?vid=407f8e2e-4ca5-4e08-8abd-3a4ee1593ea4","ios":"levelo://app?vid=407f8e2e-4ca5-4e08-8abd-3a4ee1593ea4"},"vehicle_type_id":"4","last_reported":1769598913,"current_range_meters":6800,"station_id":"ce4bhpp2rcd13ifvqhgg","pricing_plan_id":"cebpf4jnsgd1na2vs0mg"},{"bike_id":"11c0b822-ed21-4cc4-ae23-9767ba2abb5a","system_id":"levelo_inurba_marseille","lat":43.30565,"lon":5.36651,"is_reserved":false,"is_disabled":false,"rental_uris":{"android":"levelo://app?vid=11c0b822-ed21-4cc4-ae23-9767ba2abb5a","ios":"levelo://app?vid=11c0b822-ed21-4cc4-ae23-9767ba2abb5a"},"vehicle_type_id":"4","last_reported":1769598913,"current_range_meters":7200,"station_id":"","pricing_plan_id":"cebpf4jnsgd1na2vs0mg"},{"bike_id":"1c28b0bd-3eca-46f6-a58a-d76a26f70029","system_id":"levelo_inurba_marseille","lat":43.25575,"lon":5.38243,"is_reserved":false,"is_disabled":false,"rental_uris":{"android":"levelo://app?vid=1c28b0bd-3eca-46f6-a58a-d76a26f70029","ios":"levelo://app?vid=1c28b0bd-3eca-46f6-a58a-d76a26f70029"},"vehicle_type_id":"4","last_reported":1769598913,"current_range_meters":7200,"station_id":"ce4bhih2rcd13ifvqfs0","pricing_plan_id":"cebpf4jnsgd1na2vs0mg"},{"bike_id":"16fa2e5a-8e77-4b37-8c10-66a9cda88383","system_id":"levelo_inurba_marseille","lat":43.27316,"lon":5.39079,"is_reserved":false,"is_disabled":false,"rental_uris":{"android":"levelo://app?vid=16fa2e5a-8e77-4b37-8c10-66a9cda88383","ios":"levelo://app?vid=16fa2e5a-8e77-4b37-8c10-66a9cda88383"},"vehicle_type_id":"4","last_reported":1769598913,"current_range_meters":7200,"station_id":"ce4bhgp2rcd13ifvqfe0","pricing_plan_id":"cebpf4jnsgd1na2vs0mg"},{"bike_id":"01975127-19fc-4410-bf15-3838d9bab1af","system_id":"levelo_inurba_marseille","lat":43.31483,"lon":5.37307,"is_reserved":false,"is_disabled":false,"rental_uris":{"android":"levelo://app?vid=01975127-19fc-4410-bf15-3838d9bab1af","ios":"levelo://app?vid=01975127-19fc-4410-bf15-3838d9bab1af"},"vehicle_type_id":"4","last_reported":1769598913,"current_range_meters":7200,"station_id":"ce4bgt12rcd13ifvqcd0","pricing_plan_id":"cebpf4jnsgd1na2vs0mg"},{"bike_id":"2b025830-a75f-4dd0-9345-1f4a2853b8f8","system_id":"levelo_inurba_marseille","lat":43.32361,"lon":5.36736,"is_reserved":false,"is_disabled":false,"rental_uris":{"android":"levelo://app?vid=2b025830-a75f-4dd0-9345-1f4a2853b8f8","ios":"levelo://app?vid=2b025830-a75f-4dd0-9345-1f4a2853b8f8"},"vehicle_type_id":"4","last_reported":1769598913,"current_range_meters":7200,"station_id":"ce4bhsh2rcd13ifvqi2g","pricing_plan_id":"cebpf4jnsgd1na2vs0mg"},{"bike_id":"72089be9-38d6-423c-b54b-444cdb64406b","system_id":"levelo_inurba_marseille","lat":43.28415,"lon":5.35007,"is_reserved":false,"is_disabled":false,"rental_uris":{"android":"levelo://app?vid=72089be9-38d6-423c-b54b-444cdb64406b","ios":"levelo://app?vid=72089be9-38d6-423c-b54b-444cdb64406b"},"vehicle_type_id":"4","last_reported":1769598913,"current_range_meters":7200,"station_id":"ce4bhbh2rcd13ifvqepg","pricing_plan_id":"cebpf4jnsgd1na2vs0mg"},{"bike_id":"a3951293-9c0a-44f5-ba95-d7309dbd4917","system_id":"levelo_inurba_marseille","lat":43.31208,"lon":5.3687,"is_reserved":false,"is_disabled":false,"rental_uris":{"android":"levelo://app?vid=a3951293-9c0a-44f5-ba95-d7309dbd4917","ios":"levelo://app?vid=a3951293-9c0a-44f5-ba95-d7309dbd4917"},"vehicle_type_id":"4","last_reported":1769598913,"current_range_meters":7200,"station_id":"ce4bgl92rcd13ifvqbq0","pricing_plan_id":"cebpf4jnsgd1na2vs0mg"},{"bike_id":"396ec683-e6cb-4075-8fab-ea51d545abde","system_id":"levelo_inurba_marseille","lat":43.27065,"lon":5.40321,"is_reserved":false,"is_disabled":false,"rental_uris":{"android":"levelo://app?vid=396ec683-e6cb-4075-8fab-ea51d545abde","ios":"levelo://app?vid=396ec683-e6cb-4075-8fab-ea51d545abde"},"vehicle_type_id":"4","last_reported":1769598913,"current_range_meters":7200,"station_id":"","pricing_plan_id":"cebpf4jnsgd1na2vs0mg"},{"bike_id":"60c02f49-2adf-4424-ade8-9c6070d15506","system_id":"levelo_inurba_marseille","lat":43.25009,"lon":5.38916,"is_reserved":false,"is_disabled":false,"rental_uris":{"android":"levelo://app?vid=60c02f49-2adf-4424-ade8-9c6070d15506","ios":"levelo://app?vid=60c02f49-2adf-4424-ade8-9c6070d15506"},"vehicle_type_id":"4","last_reported":1769598913,"current_range_meters":7200,"station_id":"ce4bhgp2rcd13ifvqfd0","pricing_plan_id":"cebpf4jnsgd1na2vs0mg"},{"bike_id":"7685a49c-8aa3-4105-b6c4-9b0fdec5d0f8","system_id":"levelo_inurba_marseille","lat":43.31517,"lon":5.37227,"is_reserved":false,"is_disabled":false,"rental_uris":{"android":"levelo://app?vid=7685a49c-8aa3-4105-b6c4-9b0fdec5d0f8","ios":"levelo://app?vid=7685a49c-8aa3-4105-b6c4-9b0fdec5d0f8"},"vehicle_type_id":"4","last_reported":1769598913,"current_range_meters":7200,"station_id":"","pricing_plan_id":"cebpf4jnsgd1na2vs0mg"},{"bike_id":"0385f7d7-3e87-46cf-a99f-8643b05dd864","system_id":"levelo_inurba_marseille","lat":43.32501,"lon":5.38289,"is_reserved":false,"is_disabled":false,"rental_uris":{"android":"levelo://app?vid=0385f7d7-3e87-46cf-a99f-8643b05dd864","ios":"levelo://app?vid=0385f7d7-3e87-46cf-a99f-8643b05dd864"},"vehicle_type_id":"4","last_reported":1769598913,"current_range_meters":7200,"station_id":"st_d4asgbiv49dc73anf9m0","pricing_plan_id":"cebpf4jnsgd1na2vs0mg"},{"bike_id":"a314aa3a-257c-4a25-888c-c8675cd8023a","system_id":"levelo_inurba_marseille","lat":43.30528,"lon":5.36553,"is_reserved":false,"is_disabled":false,"rental_uris":{"android":"levelo://app?vid=a314aa3a-257c-4a25-888c-c8675cd8023a","ios":"levelo://app?vid=a314aa3a-257c-4a25-888c-c8675cd8023a"},"vehicle_type_id":"4","last_reported":1769598913,"current_range_meters":7200,"station_id":"ce4bgs12rcd13ifvqcag","pricing_plan_id":"cebpf4jnsgd1na2vs0mg"},{"bike_id":"a31218b5-45f9-4cee-ae20-3afb077962a4","system_id":"levelo_inurba_marseille","lat":43.26682,"lon":5.38269,"is_reserved":false,"is_disabled":false,"rental_uris":{"android":"levelo://app?vid=a31218b5-45f9-4cee-ae20-3afb077962a4","ios":"levelo://app?vid=a31218b5-45f9-4cee-ae20-3afb077962a4"},"vehicle_type_id":"4","last_reported":1769598913,"current_range_meters":7200,"station_id":"ce4bhg92rcd13ifvqf90","pricing_plan_id":"cebpf4jnsgd1na2vs0mg"},{"bike_id":"42f8414b-aac3-4531-a10a-d65bb6862d25","system_id":"levelo_inurba_marseille","lat":43.25336,"lon":5.42176,"is_reserved":false,"is_disabled":false,"rental_uris":{"android":"levelo://app?vid=42f8414b-aac3-4531-a10a-d65bb6862d25","ios":"levelo://app?vid=42f8414b-aac3-4531-a10a-d65bb6862d25"},"vehicle_type_id":"4","last_reported":1769598913,"current_range_meters":7200,"station_id":"st_d2m65c5bi1j21697t3ng","pricing_plan_id":"cebpf4jnsgd1na2vs0mg"},{"bike_id":"d91a8d3c-f058-4ebb-83ec-b65bfe0b07bd","system_id":"levelo_inurba_marseille","lat":43.24662,"lon":5.38164,"is_reserved":false,"is_disabled":false,"rental_uris":{"android":"levelo://app?vid=d91a8d3c-f058-4ebb-83ec-b65bfe0b07bd","ios":"levelo://app?vid=d91a8d3c-f058-4ebb-83ec-b65bfe0b07bd"},"vehicle_type_id":"4","last_reported":1769598913,"current_range_meters":7200,"station_id":"ce4bhih2rcd13ifvqfr0","pricing_plan_id":"cebpf4jnsgd1na2vs0mg"},{"bike_id":"5d05d531-ebc5-422e-a94d-fab2e789248e","system_id":"levelo_inurba_marseille","lat":43.25089,"lon":5.39513,"is_reserved":false,"is_disabled":false,"rental_uris":{"android":"levelo://app?vid=5d05d531-ebc5-422e-a94d-fab2e789248e","ios":"levelo://app?vid=5d05d531-ebc5-422e-a94d-fab2e789248e"},"vehicle_type_id":"4","last_reported":1769598913,"current_range_meters":8000,"station_id":"ce4bhm12rcd13ifvqgkg","pricing_plan_id":"cebpf4jnsgd1na2vs0mg"},{"bike_id":"81f0ff38-9bcb-481c-bb97-efd01000649f","system_id":"levelo_inurba_marseille","lat":43.29612,"lon":5.37731,"is_reserved":false,"is_disabled":false,"rental_uris":{"android":"levelo://app?vid=81f0ff38-9bcb-481c-bb97-efd01000649f","ios":"levelo://app?vid=81f0ff38-9bcb-481c-bb97-efd01000649f"},"vehicle_type_id":"4","last_reported":1769598913,"current_range_meters":8000,"station_id":"ce4bgi92rcd13ifvqb90","pricing_plan_id":"cebpf4jnsgd1na2vs0mg"},{"bike_id":"c4afb074-53a0-4d44-b5f4-69a59fdc18cd","system_id":"levelo_inurba_marseille","lat":43.24172,"lon":5.36412,"is_reserved":false,"is_disabled":false,"rental_uris":{"android":"levelo://app?vid=c4afb074-53a0-4d44-b5f4-69a59fdc18cd","ios":"levelo://app?vid=c4afb074-53a0-4d44-b5f4-69a59fdc18cd"},"vehicle_type_id":"4","last_reported":1769598913,"current_range_meters":8000,"station_id":"cpo36qri1sfpv3e86is0","pricing_plan_id":"cebpf4jnsgd1na2vs0mg"},{"bike_id":"7c70a630-f080-4d65-8f79-af323dbedc62","system_id":"levelo_inurba_marseille","lat":43.3012,"lon":5.43081,"is_reserved":false,"is_disabled":false,"rental_uris":{"android":"levelo://app?vid=7c70a630-f080-4d65-8f79-af323dbedc62","ios":"levelo://app?vid=7c70a630-f080-4d65-8f79-af323dbedc62"},"vehicle_type_id":"4","last_reported":1769598913,"current_range_meters":8000,"station_id":"st_d3js3co5814s73ftftug","pricing_plan_id":"cebpf4jnsgd1na2vs0mg"},{"bike_id":"234f7311-25dc-4b55-a0cb-d05382a81de7","system_id":"levelo_inurba_marseille","lat":43.303067,"lon":5.368929,"is_reserved":false,"is_disabled":false,"rental_uris":{"android":"levelo://app?vid=234f7311-25dc-4b55-a0cb-d05382a81de7","ios":"levelo://app?vid=234f7311-25dc-4b55-a0cb-d05382a81de7"},"vehicle_type_id":"4","last_reported":1769598913,"current_range_meters":8000,"station_id":"ce4bgqh2rcd13ifvqc5g","pricing_plan_id":"cebpf4jnsgd1na2vs0mg"},{"bike_id":"215d9242-cc67-4957-98e5-94a2159c71f8","system_id":"levelo_inurba_marseille","lat":43.32357,"lon":5.36715,"is_reserved":false,"is_disabled":false,"rental_uris":{"android":"levelo://app?vid=215d9242-cc67-4957-98e5-94a2159c71f8","ios":"levelo://app?vid=215d9242-cc67-4957-98e5-94a2159c71f8"},"vehicle_type_id":"4","last_reported":1769598913,"current_range_meters":8000,"station_id":"ce4bhsh2rcd13ifvqi2g","pricing_plan_id":"cebpf4jnsgd1na2vs0mg"},{"bike_id":"edcf7268-9037-4d86-a040-f29b3b6258a5","system_id":"levelo_inurba_marseille","lat":43.32442,"lon":5.36556,"is_reserved":false,"is_disabled":false,"rental_uris":{"android":"levelo://app?vid=edcf7268-9037-4d86-a040-f29b3b6258a5","ios":"levelo://app?vid=edcf7268-9037-4d86-a040-f29b3b6258a5"},"vehicle_type_id":"4","last_reported":1769598913,"current_range_meters":8000,"station_id":"ce4bhs12rcd13ifvqhvg","pricing_plan_id":"cebpf4jnsgd1na2vs0mg"},{"bike_id":"c00d1abe-f6f3-4677-9b5b-65f2d4348ca7","system_id":"levelo_inurba_marseille","lat":43.231977,"lon":5.355526,"is_reserved":false,"is_disabled":false,"rental_uris":{"android":"levelo://app?vid=c00d1abe-f6f3-4677-9b5b-65f2d4348ca7","ios":"levelo://app?vid=c00d1abe-f6f3-4677-9b5b-65f2d4348ca7"},"vehicle_type_id":"4","last_reported":1769598913,"current_range_meters":8000,"station_id":"ce4bhu92rcd13ifvqi70","pricing_plan_id":"cebpf4jnsgd1na2vs0mg"},{"bike_id":"054e919a-503d-4841-92a8-91040da79c48","system_id":"levelo_inurba_marseille","lat":43.30309,"lon":5.36889,"is_reserved":false,"is_disabled":false,"rental_uris":{"android":"levelo://app?vid=054e919a-503d-4841-92a8-91040da79c48","ios":"levelo://app?vid=054e919a-503d-4841-92a8-91040da79c48"},"vehicle_type_id":"4","last_reported":1769598913,"current_range_meters":8000,"station_id":"ce4bgqh2rcd13ifvqc5g","pricing_plan_id":"cebpf4jnsgd1na2vs0mg"},{"bike_id":"d75d722c-1278-467f-b25c-2eec7b30ce3e","system_id":"levelo_inurba_marseille","lat":43.29752,"lon":5.37692,"is_reserved":false,"is_disabled":false,"rental_uris":{"android":"levelo://app?vid=d75d722c-1278-467f-b25c-2eec7b30ce3e","ios":"levelo://app?vid=d75d722c-1278-467f-b25c-2eec7b30ce3e"},"vehicle_type_id":"4","last_reported":1769598913,"current_range_meters":8000,"station_id":"","pricing_plan_id":"cebpf4jnsgd1na2vs0mg"},{"bike_id":"0e67fe98-9108-433b-9434-394fc2106387","system_id":"levelo_inurba_marseille","lat":43.24643,"lon":5.43145,"is_reserved":false,"is_disabled":false,"rental_uris":{"android":"levelo://app?vid=0e67fe98-9108-433b-9434-394fc2106387","ios":"levelo://app?vid=0e67fe98-9108-433b-9434-394fc2106387"},"vehicle_type_id":"4","last_reported":1769598913,"current_range_meters":8000,"station_id":"st_d2m6c4gdas8pm72e190g","pricing_plan_id":"cebpf4jnsgd1na2vs0mg"},{"bike_id":"08b2f0c7-c4e2-4d3e-9cef-bf67b3ada943","system_id":"levelo_inurba_marseille","lat":43.29526,"lon":5.38551,"is_reserved":false,"is_disabled":true,"rental_uris":{"android":"levelo://app?vid=08b2f0c7-c4e2-4d3e-9cef-bf67b3ada943","ios":"levelo://app?vid=08b2f0c7-c4e2-4d3e-9cef-bf67b3ada943"},"vehicle_type_id":"4","last_reported":1769598913,"current_range_meters":8000,"station_id":"ce4bgih2rcd13ifvqba0","pricing_plan_id":"cebpf4jnsgd1na2vs0mg"},{"bike_id":"41c91ad2-73b9-4699-b23d-1b5a65edd284","system_id":"levelo_inurba_marseille","lat":43.33537,"lon":5.37476,"is_reserved":false,"is_disabled":false,"rental_uris":{"android":"levelo://app?vid=41c91ad2-73b9-4699-b23d-1b5a65edd284","ios":"levelo://app?vid=41c91ad2-73b9-4699-b23d-1b5a65edd284"},"vehicle_type_id":"4","last_reported":1769598913,"current_range_meters":8000,"station_id":"","pricing_plan_id":"cebpf4jnsgd1na2vs0mg"},{"bike_id":"ffc95317-ad6d-43e1-9145-eeebc3fe117c","system_id":"levelo_inurba_marseille","lat":43.25091,"lon":5.39521,"is_reserved":false,"is_disabled":false,"rental_uris":{"android":"levelo://app?vid=ffc95317-ad6d-43e1-9145-eeebc3fe117c","ios":"levelo://app?vid=ffc95317-ad6d-43e1-9145-eeebc3fe117c"},"vehicle_type_id":"4","last_reported":1769598913,"current_range_meters":8000,"station_id":"ce4bhm12rcd13ifvqgkg","pricing_plan_id":"cebpf4jnsgd1na2vs0mg"},{"bike_id":"ba5c0ab7-6f53-4709-a08b-3ce80febb960","system_id":"levelo_inurba_marseille","lat":43.26218,"lon":5.40459,"is_reserved":false,"is_disabled":false,"rental_uris":{"android":"levelo://app?vid=ba5c0ab7-6f53-4709-a08b-3ce80febb960","ios":"levelo://app?vid=ba5c0ab7-6f53-4709-a08b-3ce80febb960"},"vehicle_type_id":"4","last_reported":1769598913,"current_range_meters":8000,"station_id":"ce4bhmh2rcd13ifvqgmg","pricing_plan_id":"cebpf4jnsgd1na2vs0mg"},{"bike_id":"0742544d-4cad-4f38-bacd-71d9b4def1ec","system_id":"levelo_inurba_marseille","lat":43.29586,"lon":5.37525,"is_reserved":false,"is_disabled":false,"rental_uris":{"android":"levelo://app?vid=0742544d-4cad-4f38-bacd-71d9b4def1ec","ios":"levelo://app?vid=0742544d-4cad-4f38-bacd-71d9b4def1ec"},"vehicle_type_id":"4","last_reported":1769598913,"current_range_meters":8000,"station_id":"ce4bgh92rcd13ifvqb50","pricing_plan_id":"cebpf4jnsgd1na2vs0mg"},{"bike_id":"69a8705c-622c-4687-befc-0e95f406c55e","system_id":"levelo_inurba_marseille","lat":43.22558,"lon":5.4164,"is_reserved":false,"is_disabled":false,"rental_uris":{"android":"levelo://app?vid=69a8705c-622c-4687-befc-0e95f406c55e","ios":"levelo://app?vid=69a8705c-622c-4687-befc-0e95f406c55e"},"vehicle_type_id":"4","last_reported":1769598913,"current_range_meters":8400,"station_id":"st_d2o4gvlbi1j2169b742g","pricing_plan_id":"cebpf4jnsgd1na2vs0mg"},{"bike_id":"926fb7a9-71ef-4191-ad40-e76b770b1b35","system_id":"levelo_inurba_marseille","lat":43.29562,"lon":5.37523,"is_reserved":false,"is_disabled":false,"rental_uris":{"android":"levelo://app?vid=926fb7a9-71ef-4191-ad40-e76b770b1b35","ios":"levelo://app?vid=926fb7a9-71ef-4191-ad40-e76b770b1b35"},"vehicle_type_id":"4","last_reported":1769598913,"current_range_meters":8400,"station_id":"ce4bgh92rcd13ifvqb50","pricing_plan_id":"cebpf4jnsgd1na2vs0mg"},{"bike_id":"c6c829a3-9a24-4361-bd05-061508fb311d","system_id":"levelo_inurba_marseille","lat":43.30336,"lon":5.36899,"is_reserved":false,"is_disabled":false,"rental_uris":{"android":"levelo://app?vid=c6c829a3-9a24-4361-bd05-061508fb311d","ios":"levelo://app?vid=c6c829a3-9a24-4361-bd05-061508fb311d"},"vehicle_type_id":"4","last_reported":1769598913,"current_range_meters":8400,"station_id":"ce4bgqh2rcd13ifvqc5g","pricing_plan_id":"cebpf4jnsgd1na2vs0mg"},{"bike_id":"8f81f246-6d5d-41c6-a914-40ca18e88edd","system_id":"levelo_inurba_marseille","lat":43.33204,"lon":5.40231,"is_reserved":false,"is_disabled":false,"rental_uris":{"android":"levelo://app?vid=8f81f246-6d5d-41c6-a914-40ca18e88edd","ios":"levelo://app?vid=8f81f246-6d5d-41c6-a914-40ca18e88edd"},"vehicle_type_id":"4","last_reported":1769598913,"current_range_meters":8400,"station_id":"","pricing_plan_id":"cebpf4jnsgd1na2vs0mg"},{"bike_id":"12269c14-2943-455d-bb12-36cc3854c2c1","system_id":"levelo_inurba_marseille","lat":43.29252,"lon":5.38443,"is_reserved":false,"is_disabled":false,"rental_uris":{"android":"levelo://app?vid=12269c14-2943-455d-bb12-36cc3854c2c1","ios":"levelo://app?vid=12269c14-2943-455d-bb12-36cc3854c2c1"},"vehicle_type_id":"4","last_reported":1769598913,"current_range_meters":8400,"station_id":"ce4bh692rcd13ifvqea0","pricing_plan_id":"cebpf4jnsgd1na2vs0mg"},{"bike_id":"9ba0872b-a869-4522-9809-2326ba94ec06","system_id":"levelo_inurba_marseille","lat":43.30558,"lon":5.36526,"is_reserved":false,"is_disabled":false,"rental_uris":{"android":"levelo://app?vid=9ba0872b-a869-4522-9809-2326ba94ec06","ios":"levelo://app?vid=9ba0872b-a869-4522-9809-2326ba94ec06"},"vehicle_type_id":"4","last_reported":1769598913,"current_range_meters":8400,"station_id":"ce4bgs12rcd13ifvqcag","pricing_plan_id":"cebpf4jnsgd1na2vs0mg"},{"bike_id":"1d6b32ed-dde8-4831-851e-66657d346ed1","system_id":"levelo_inurba_marseille","lat":43.31323,"lon":5.36722,"is_reserved":false,"is_disabled":false,"rental_uris":{"android":"levelo://app?vid=1d6b32ed-dde8-4831-851e-66657d346ed1","ios":"levelo://app?vid=1d6b32ed-dde8-4831-851e-66657d346ed1"},"vehicle_type_id":"4","last_reported":1769598913,"current_range_meters":8400,"station_id":"ce4bgr92rcd13ifvqc6g","pricing_plan_id":"cebpf4jnsgd1na2vs0mg"},{"bike_id":"4a39372c-0ef2-41b6-bdd5-fbaa3b123a7c","system_id":"levelo_inurba_marseille","lat":43.2656,"lon":5.37294,"is_reserved":false,"is_disabled":false,"rental_uris":{"android":"levelo://app?vid=4a39372c-0ef2-41b6-bdd5-fbaa3b123a7c","ios":"levelo://app?vid=4a39372c-0ef2-41b6-bdd5-fbaa3b123a7c"},"vehicle_type_id":"4","last_reported":1769598913,"current_range_meters":8400,"station_id":"ce4bhg12rcd13ifvqf70","pricing_plan_id":"cebpf4jnsgd1na2vs0mg"},{"bike_id":"1ffbda22-e3ce-449b-8cf2-1a8499f4ffd7","system_id":"levelo_inurba_marseille","lat":43.2696,"lon":5.38651,"is_reserved":false,"is_disabled":true,"rental_uris":{"android":"levelo://app?vid=1ffbda22-e3ce-449b-8cf2-1a8499f4ffd7","ios":"levelo://app?vid=1ffbda22-e3ce-449b-8cf2-1a8499f4ffd7"},"vehicle_type_id":"4","last_reported":1769598913,"current_range_meters":8400,"station_id":"ce4bhh92rcd13ifvqfh0","pricing_plan_id":"cebpf4jnsgd1na2vs0mg"},{"bike_id":"1101bc69-1a13-4c25-af4c-dd501d038abf","system_id":"levelo_inurba_marseille","lat":43.31368,"lon":5.36736,"is_reserved":false,"is_disabled":false,"rental_uris":{"android":"levelo://app?vid=1101bc69-1a13-4c25-af4c-dd501d038abf","ios":"levelo://app?vid=1101bc69-1a13-4c25-af4c-dd501d038abf"},"vehicle_type_id":"4","last_reported":1769598913,"current_range_meters":8400,"station_id":"ce4bgr92rcd13ifvqc6g","pricing_plan_id":"cebpf4jnsgd1na2vs0mg"},{"bike_id":"18a449f2-d3da-4a87-894d-1e26bf427695","system_id":"levelo_inurba_marseille","lat":43.28661,"lon":5.38674,"is_reserved":false,"is_disabled":false,"rental_uris":{"android":"levelo://app?vid=18a449f2-d3da-4a87-894d-1e26bf427695","ios":"levelo://app?vid=18a449f2-d3da-4a87-894d-1e26bf427695"},"vehicle_type_id":"4","last_reported":1769598913,"current_range_meters":8400,"station_id":"ce4bh492rcd13ifvqdug","pricing_plan_id":"cebpf4jnsgd1na2vs0mg"},{"bike_id":"452f769f-adc3-4ad7-809e-fe7e6a116547","system_id":"levelo_inurba_marseille","lat":43.2958,"lon":5.37492,"is_reserved":false,"is_disabled":false,"rental_uris":{"android":"levelo://app?vid=452f769f-adc3-4ad7-809e-fe7e6a116547","ios":"levelo://app?vid=452f769f-adc3-4ad7-809e-fe7e6a116547"},"vehicle_type_id":"4","last_reported":1769598913,"current_range_meters":8400,"station_id":"ce4bgh92rcd13ifvqb50","pricing_plan_id":"cebpf4jnsgd1na2vs0mg"},{"bike_id":"c5845baf-9f1a-482b-a6a9-83c61113307a","system_id":"levelo_inurba_marseille","lat":43.230604,"lon":5.354984,"is_reserved":false,"is_disabled":false,"rental_uris":{"android":"levelo://app?vid=c5845baf-9f1a-482b-a6a9-83c61113307a","ios":"levelo://app?vid=c5845baf-9f1a-482b-a6a9-83c61113307a"},"vehicle_type_id":"4","last_reported":1769598913,"current_range_meters":8400,"station_id":"cpo3342slgdg3j2ifvpg","pricing_plan_id":"cebpf4jnsgd1na2vs0mg"},{"bike_id":"a097c751-bb29-4ebe-bc02-881e85889070","system_id":"levelo_inurba_marseille","lat":43.28871,"lon":5.4251,"is_reserved":false,"is_disabled":false,"rental_uris":{"android":"levelo://app?vid=a097c751-bb29-4ebe-bc02-881e85889070","ios":"levelo://app?vid=a097c751-bb29-4ebe-bc02-881e85889070"},"vehicle_type_id":"4","last_reported":1769598913,"current_range_meters":8400,"station_id":"st_d3b462108ojc7389ooeg","pricing_plan_id":"cebpf4jnsgd1na2vs0mg"},{"bike_id":"cb244530-27d3-443c-b788-0340e0e04b1c","system_id":"levelo_inurba_marseille","lat":43.33162,"lon":5.376913,"is_reserved":false,"is_disabled":false,"rental_uris":{"android":"levelo://app?vid=cb244530-27d3-443c-b788-0340e0e04b1c","ios":"levelo://app?vid=cb244530-27d3-443c-b788-0340e0e04b1c"},"vehicle_type_id":"4","last_reported":1769598913,"current_range_meters":8400,"station_id":"st_d46cu089ee8s73dldbu0","pricing_plan_id":"cebpf4jnsgd1na2vs0mg"},{"bike_id":"fd5cac91-3b82-41b2-9b97-04cacea7a2ee","system_id":"levelo_inurba_marseille","lat":43.26197,"lon":5.37447,"is_reserved":false,"is_disabled":true,"rental_uris":{"android":"levelo://app?vid=fd5cac91-3b82-41b2-9b97-04cacea7a2ee","ios":"levelo://app?vid=fd5cac91-3b82-41b2-9b97-04cacea7a2ee"},"vehicle_type_id":"4","last_reported":1769598913,"current_range_meters":8400,"station_id":"ce4bhgp2rcd13ifvqfc0","pricing_plan_id":"cebpf4jnsgd1na2vs0mg"},{"bike_id":"c7e4813a-c248-4d27-817f-f64ef50a11f2","system_id":"levelo_inurba_marseille","lat":43.25939,"lon":5.40903,"is_reserved":false,"is_disabled":false,"rental_uris":{"android":"levelo://app?vid=c7e4813a-c248-4d27-817f-f64ef50a11f2","ios":"levelo://app?vid=c7e4813a-c248-4d27-817f-f64ef50a11f2"},"vehicle_type_id":"4","last_reported":1769598913,"current_range_meters":8800,"station_id":"ce4bhm92rcd13ifvqglg","pricing_plan_id":"cebpf4jnsgd1na2vs0mg"},{"bike_id":"b45c8d2c-8d88-4cef-8b61-a19c2da1c61e","system_id":"levelo_inurba_marseille","lat":43.33539,"lon":5.37459,"is_reserved":false,"is_disabled":false,"rental_uris":{"android":"levelo://app?vid=b45c8d2c-8d88-4cef-8b61-a19c2da1c61e","ios":"levelo://app?vid=b45c8d2c-8d88-4cef-8b61-a19c2da1c61e"},"vehicle_type_id":"4","last_reported":1769598913,"current_range_meters":8800,"station_id":"st_d46tts09ee8s73dlu43g","pricing_plan_id":"cebpf4jnsgd1na2vs0mg"},{"bike_id":"937e8f40-b9db-4b0d-b8cf-fc34a1864b28","system_id":"levelo_inurba_marseille","lat":43.27072,"lon":5.40255,"is_reserved":false,"is_disabled":false,"rental_uris":{"android":"levelo://app?vid=937e8f40-b9db-4b0d-b8cf-fc34a1864b28","ios":"levelo://app?vid=937e8f40-b9db-4b0d-b8cf-fc34a1864b28"},"vehicle_type_id":"4","last_reported":1769598913,"current_range_meters":8800,"station_id":"ce4bhk92rcd13ifvqgc0","pricing_plan_id":"cebpf4jnsgd1na2vs0mg"},{"bike_id":"2b8a39bf-896d-4ae3-851a-7feedcec9ec0","system_id":"levelo_inurba_marseille","lat":43.27381,"lon":5.36258,"is_reserved":false,"is_disabled":false,"rental_uris":{"android":"levelo://app?vid=2b8a39bf-896d-4ae3-851a-7feedcec9ec0","ios":"levelo://app?vid=2b8a39bf-896d-4ae3-851a-7feedcec9ec0"},"vehicle_type_id":"4","last_reported":1769598913,"current_range_meters":8800,"station_id":"ce4bhbh2rcd13ifvqeo0","pricing_plan_id":"cebpf4jnsgd1na2vs0mg"},{"bike_id":"e67fc9ad-980c-4bee-9cef-9478c6435fce","system_id":"levelo_inurba_marseille","lat":43.27947,"lon":5.41061,"is_reserved":false,"is_disabled":true,"rental_uris":{"android":"levelo://app?vid=e67fc9ad-980c-4bee-9cef-9478c6435fce","ios":"levelo://app?vid=e67fc9ad-980c-4bee-9cef-9478c6435fce"},"vehicle_type_id":"4","last_reported":1769598913,"current_range_meters":8800,"station_id":"ce4bhnp2rcd13ifvqh0g","pricing_plan_id":"cebpf4jnsgd1na2vs0mg"},{"bike_id":"4ae21097-68ff-4a44-bcb7-3e142e11d517","system_id":"levelo_inurba_marseille","lat":43.24172,"lon":5.36423,"is_reserved":false,"is_disabled":false,"rental_uris":{"android":"levelo://app?vid=4ae21097-68ff-4a44-bcb7-3e142e11d517","ios":"levelo://app?vid=4ae21097-68ff-4a44-bcb7-3e142e11d517"},"vehicle_type_id":"4","last_reported":1769598913,"current_range_meters":8800,"station_id":"cpo36qri1sfpv3e86is0","pricing_plan_id":"cebpf4jnsgd1na2vs0mg"},{"bike_id":"2fdd7372-7a1a-41fc-b3d0-637003fe8700","system_id":"levelo_inurba_marseille","lat":43.26214,"lon":5.37921,"is_reserved":false,"is_disabled":false,"rental_uris":{"android":"levelo://app?vid=2fdd7372-7a1a-41fc-b3d0-637003fe8700","ios":"levelo://app?vid=2fdd7372-7a1a-41fc-b3d0-637003fe8700"},"vehicle_type_id":"4","last_reported":1769598913,"current_range_meters":8800,"station_id":"ce4bhjp2rcd13ifvqg90","pricing_plan_id":"cebpf4jnsgd1na2vs0mg"},{"bike_id":"4d6c9886-c900-4f99-b9f8-03aa0164a59d","system_id":"levelo_inurba_marseille","lat":43.23142,"lon":5.437,"is_reserved":false,"is_disabled":false,"rental_uris":{"android":"levelo://app?vid=4d6c9886-c900-4f99-b9f8-03aa0164a59d","ios":"levelo://app?vid=4d6c9886-c900-4f99-b9f8-03aa0164a59d"},"vehicle_type_id":"4","last_reported":1769598913,"current_range_meters":8800,"station_id":"","pricing_plan_id":"cebpf4jnsgd1na2vs0mg"},{"bike_id":"b96775b7-8954-4f94-990f-968813344c58","system_id":"levelo_inurba_marseille","lat":43.31254,"lon":5.37828,"is_reserved":false,"is_disabled":false,"rental_uris":{"android":"levelo://app?vid=b96775b7-8954-4f94-990f-968813344c58","ios":"levelo://app?vid=b96775b7-8954-4f94-990f-968813344c58"},"vehicle_type_id":"4","last_reported":1769598913,"current_range_meters":8800,"station_id":"","pricing_plan_id":"cebpf4jnsgd1na2vs0mg"},{"bike_id":"ec92a3d7-0aaf-40cf-9513-2fb7d35cc0c4","system_id":"levelo_inurba_marseille","lat":43.23067,"lon":5.35491,"is_reserved":false,"is_disabled":false,"rental_uris":{"android":"levelo://app?vid=ec92a3d7-0aaf-40cf-9513-2fb7d35cc0c4","ios":"levelo://app?vid=ec92a3d7-0aaf-40cf-9513-2fb7d35cc0c4"},"vehicle_type_id":"4","last_reported":1769598913,"current_range_meters":8800,"station_id":"cpo3342slgdg3j2ifvpg","pricing_plan_id":"cebpf4jnsgd1na2vs0mg"},{"bike_id":"87445528-19ed-4061-87ff-db7c975398af","system_id":"levelo_inurba_marseille","lat":43.2992,"lon":5.37469,"is_reserved":false,"is_disabled":false,"rental_uris":{"android":"levelo://app?vid=87445528-19ed-4061-87ff-db7c975398af","ios":"levelo://app?vid=87445528-19ed-4061-87ff-db7c975398af"},"vehicle_type_id":"4","last_reported":1769598913,"current_range_meters":8800,"station_id":"ce4bgjh2rcd13ifvqbg0","pricing_plan_id":"cebpf4jnsgd1na2vs0mg"},{"bike_id":"f203c6a1-cc88-48bb-9231-4a2b0ee17626","system_id":"levelo_inurba_marseille","lat":43.29629,"lon":5.40595,"is_reserved":false,"is_disabled":false,"rental_uris":{"android":"levelo://app?vid=f203c6a1-cc88-48bb-9231-4a2b0ee17626","ios":"levelo://app?vid=f203c6a1-cc88-48bb-9231-4a2b0ee17626"},"vehicle_type_id":"4","last_reported":1769598913,"current_range_meters":8800,"station_id":"ce4bh0h2rcd13ifvqd60","pricing_plan_id":"cebpf4jnsgd1na2vs0mg"},{"bike_id":"7914e119-1614-4899-81d3-c50cda4c6e7a","system_id":"levelo_inurba_marseille","lat":43.23144,"lon":5.43738,"is_reserved":false,"is_disabled":false,"rental_uris":{"android":"levelo://app?vid=7914e119-1614-4899-81d3-c50cda4c6e7a","ios":"levelo://app?vid=7914e119-1614-4899-81d3-c50cda4c6e7a"},"vehicle_type_id":"4","last_reported":1769598913,"current_range_meters":8800,"station_id":"ce4bhmp2rcd13ifvqgog","pricing_plan_id":"cebpf4jnsgd1na2vs0mg"},{"bike_id":"79009d73-0523-4c6d-91de-5993a965a866","system_id":"levelo_inurba_marseille","lat":43.259366,"lon":5.409012,"is_reserved":false,"is_disabled":false,"rental_uris":{"android":"levelo://app?vid=79009d73-0523-4c6d-91de-5993a965a866","ios":"levelo://app?vid=79009d73-0523-4c6d-91de-5993a965a866"},"vehicle_type_id":"4","last_reported":1769598913,"current_range_meters":8800,"station_id":"ce4bhm92rcd13ifvqglg","pricing_plan_id":"cebpf4jnsgd1na2vs0mg"},{"bike_id":"bc230eaa-6d54-4e2d-8428-bb3463d83558","system_id":"levelo_inurba_marseille","lat":43.273,"lon":5.39138,"is_reserved":false,"is_disabled":true,"rental_uris":{"android":"levelo://app?vid=bc230eaa-6d54-4e2d-8428-bb3463d83558","ios":"levelo://app?vid=bc230eaa-6d54-4e2d-8428-bb3463d83558"},"vehicle_type_id":"4","last_reported":1769598913,"current_range_meters":9200,"station_id":"ce4bhgp2rcd13ifvqfe0","pricing_plan_id":"cebpf4jnsgd1na2vs0mg"},{"bike_id":"29065f68-7126-4714-9ee4-88cfe04e93fc","system_id":"levelo_inurba_marseille","lat":43.28162,"lon":5.42653,"is_reserved":false,"is_disabled":false,"rental_uris":{"android":"levelo://app?vid=29065f68-7126-4714-9ee4-88cfe04e93fc","ios":"levelo://app?vid=29065f68-7126-4714-9ee4-88cfe04e93fc"},"vehicle_type_id":"4","last_reported":1769598913,"current_range_meters":9200,"station_id":"ce4bhnh2rcd13ifvqgug","pricing_plan_id":"cebpf4jnsgd1na2vs0mg"},{"bike_id":"e8f03a56-57c3-45d7-aa77-c0c99a59d5d8","system_id":"levelo_inurba_marseille","lat":43.31483,"lon":5.37304,"is_reserved":false,"is_disabled":false,"rental_uris":{"android":"levelo://app?vid=e8f03a56-57c3-45d7-aa77-c0c99a59d5d8","ios":"levelo://app?vid=e8f03a56-57c3-45d7-aa77-c0c99a59d5d8"},"vehicle_type_id":"4","last_reported":1769598913,"current_range_meters":9200,"station_id":"ce4bgt12rcd13ifvqcd0","pricing_plan_id":"cebpf4jnsgd1na2vs0mg"},{"bike_id":"3e6599b3-80f5-4cb4-a947-9865a5671465","system_id":"levelo_inurba_marseille","lat":43.27617,"lon":5.36133,"is_reserved":false,"is_disabled":false,"rental_uris":{"android":"levelo://app?vid=3e6599b3-80f5-4cb4-a947-9865a5671465","ios":"levelo://app?vid=3e6599b3-80f5-4cb4-a947-9865a5671465"},"vehicle_type_id":"4","last_reported":1769598913,"current_range_meters":9200,"station_id":"ce4bgj92rcd13ifvqbe0","pricing_plan_id":"cebpf4jnsgd1na2vs0mg"},{"bike_id":"4964a424-0af3-42e2-bf0b-74b0ddd1ccbc","system_id":"levelo_inurba_marseille","lat":43.25673,"lon":5.38687,"is_reserved":false,"is_disabled":false,"rental_uris":{"android":"levelo://app?vid=4964a424-0af3-42e2-bf0b-74b0ddd1ccbc","ios":"levelo://app?vid=4964a424-0af3-42e2-bf0b-74b0ddd1ccbc"},"vehicle_type_id":"4","last_reported":1769598913,"current_range_meters":9200,"station_id":"","pricing_plan_id":"cebpf4jnsgd1na2vs0mg"},{"bike_id":"d6347785-7f4b-4520-b64a-bf5bb0e98944","system_id":"levelo_inurba_marseille","lat":43.25014,"lon":5.38925,"is_reserved":false,"is_disabled":false,"rental_uris":{"android":"levelo://app?vid=d6347785-7f4b-4520-b64a-bf5bb0e98944","ios":"levelo://app?vid=d6347785-7f4b-4520-b64a-bf5bb0e98944"},"vehicle_type_id":"4","last_reported":1769598913,"current_range_meters":9200,"station_id":"ce4bhgp2rcd13ifvqfd0","pricing_plan_id":"cebpf4jnsgd1na2vs0mg"},{"bike_id":"57915ed6-8bc7-4588-9a1b-fd389146bda2","system_id":"levelo_inurba_marseille","lat":43.28946,"lon":5.3663,"is_reserved":false,"is_disabled":false,"rental_uris":{"android":"levelo://app?vid=57915ed6-8bc7-4588-9a1b-fd389146bda2","ios":"levelo://app?vid=57915ed6-8bc7-4588-9a1b-fd389146bda2"},"vehicle_type_id":"4","last_reported":1769598913,"current_range_meters":9200,"station_id":"ce4bhap2rcd13ifvqek0","pricing_plan_id":"cebpf4jnsgd1na2vs0mg"},{"bike_id":"8c50cc1b-6957-4db2-9b96-76d9d37bac03","system_id":"levelo_inurba_marseille","lat":43.22576,"lon":5.41626,"is_reserved":false,"is_disabled":false,"rental_uris":{"android":"levelo://app?vid=8c50cc1b-6957-4db2-9b96-76d9d37bac03","ios":"levelo://app?vid=8c50cc1b-6957-4db2-9b96-76d9d37bac03"},"vehicle_type_id":"4","last_reported":1769598913,"current_range_meters":9200,"station_id":"st_d2o4gvlbi1j2169b742g","pricing_plan_id":"cebpf4jnsgd1na2vs0mg"},{"bike_id":"ccbcbe73-f920-41a4-9d55-38d829172655","system_id":"levelo_inurba_marseille","lat":43.29001,"lon":5.35612,"is_reserved":false,"is_disabled":false,"rental_uris":{"android":"levelo://app?vid=ccbcbe73-f920-41a4-9d55-38d829172655","ios":"levelo://app?vid=ccbcbe73-f920-41a4-9d55-38d829172655"},"vehicle_type_id":"4","last_reported":1769598913,"current_range_meters":9200,"station_id":"ce4bhb92rcd13ifvqen0","pricing_plan_id":"cebpf4jnsgd1na2vs0mg"},{"bike_id":"8c072e3b-353a-4ad6-aa38-ac83b00c79d4","system_id":"levelo_inurba_marseille","lat":43.31223,"lon":5.3779,"is_reserved":false,"is_disabled":false,"rental_uris":{"android":"levelo://app?vid=8c072e3b-353a-4ad6-aa38-ac83b00c79d4","ios":"levelo://app?vid=8c072e3b-353a-4ad6-aa38-ac83b00c79d4"},"vehicle_type_id":"4","last_reported":1769598913,"current_range_meters":9200,"station_id":"","pricing_plan_id":"cebpf4jnsgd1na2vs0mg"},{"bike_id":"c98b11d0-0520-418d-bfc6-d6149e6ffac9","system_id":"levelo_inurba_marseille","lat":43.28507,"lon":5.48399,"is_reserved":false,"is_disabled":false,"rental_uris":{"android":"levelo://app?vid=c98b11d0-0520-418d-bfc6-d6149e6ffac9","ios":"levelo://app?vid=c98b11d0-0520-418d-bfc6-d6149e6ffac9"},"vehicle_type_id":"4","last_reported":1769598913,"current_range_meters":9200,"station_id":"st_d3svhcjqgbts73a3dn0g","pricing_plan_id":"cebpf4jnsgd1na2vs0mg"},{"bike_id":"36855e79-f7ac-4112-b45f-3779dd796963","system_id":"levelo_inurba_marseille","lat":43.3019,"lon":5.37353,"is_reserved":false,"is_disabled":false,"rental_uris":{"android":"levelo://app?vid=36855e79-f7ac-4112-b45f-3779dd796963","ios":"levelo://app?vid=36855e79-f7ac-4112-b45f-3779dd796963"},"vehicle_type_id":"4","last_reported":1769598913,"current_range_meters":9200,"station_id":"","pricing_plan_id":"cebpf4jnsgd1na2vs0mg"},{"bike_id":"12d18314-b173-4f53-8c34-39de8e2a6514","system_id":"levelo_inurba_marseille","lat":43.28458,"lon":5.38835,"is_reserved":false,"is_disabled":false,"rental_uris":{"android":"levelo://app?vid=12d18314-b173-4f53-8c34-39de8e2a6514","ios":"levelo://app?vid=12d18314-b173-4f53-8c34-39de8e2a6514"},"vehicle_type_id":"4","last_reported":1769598913,"current_range_meters":9600,"station_id":"","pricing_plan_id":"cebpf4jnsgd1na2vs0mg"},{"bike_id":"9806da0f-d7e9-4daf-99fc-e3fd22a4da76","system_id":"levelo_inurba_marseille","lat":43.25935,"lon":5.40881,"is_reserved":false,"is_disabled":false,"rental_uris":{"android":"levelo://app?vid=9806da0f-d7e9-4daf-99fc-e3fd22a4da76","ios":"levelo://app?vid=9806da0f-d7e9-4daf-99fc-e3fd22a4da76"},"vehicle_type_id":"4","last_reported":1769598913,"current_range_meters":9600,"station_id":"ce4bhm92rcd13ifvqglg","pricing_plan_id":"cebpf4jnsgd1na2vs0mg"},{"bike_id":"d58f344c-cd0b-44a8-8dbf-ba727762a67b","system_id":"levelo_inurba_marseille","lat":43.231508,"lon":5.437278,"is_reserved":false,"is_disabled":false,"rental_uris":{"android":"levelo://app?vid=d58f344c-cd0b-44a8-8dbf-ba727762a67b","ios":"levelo://app?vid=d58f344c-cd0b-44a8-8dbf-ba727762a67b"},"vehicle_type_id":"4","last_reported":1769598913,"current_range_meters":9600,"station_id":"ce4bhmp2rcd13ifvqgog","pricing_plan_id":"cebpf4jnsgd1na2vs0mg"},{"bike_id":"312472ef-ec71-4255-ba04-19d354fd64d5","system_id":"levelo_inurba_marseille","lat":43.239605,"lon":5.366246,"is_reserved":false,"is_disabled":false,"rental_uris":{"android":"levelo://app?vid=312472ef-ec71-4255-ba04-19d354fd64d5","ios":"levelo://app?vid=312472ef-ec71-4255-ba04-19d354fd64d5"},"vehicle_type_id":"4","last_reported":1769598913,"current_range_meters":9600,"station_id":"ce4bhi12rcd13ifvqfp0","pricing_plan_id":"cebpf4jnsgd1na2vs0mg"},{"bike_id":"a9d61f59-4fb7-4f9c-8f78-ddfcb7d9a59d","system_id":"levelo_inurba_marseille","lat":43.30145,"lon":5.38091,"is_reserved":false,"is_disabled":false,"rental_uris":{"android":"levelo://app?vid=a9d61f59-4fb7-4f9c-8f78-ddfcb7d9a59d","ios":"levelo://app?vid=a9d61f59-4fb7-4f9c-8f78-ddfcb7d9a59d"},"vehicle_type_id":"4","last_reported":1769598913,"current_range_meters":9600,"station_id":"ce4bgjp2rcd13ifvqbh0","pricing_plan_id":"cebpf4jnsgd1na2vs0mg"},{"bike_id":"c9c3bbe8-0e38-4b18-ae26-f24ed988c379","system_id":"levelo_inurba_marseille","lat":43.313453,"lon":5.367156,"is_reserved":false,"is_disabled":false,"rental_uris":{"android":"levelo://app?vid=c9c3bbe8-0e38-4b18-ae26-f24ed988c379","ios":"levelo://app?vid=c9c3bbe8-0e38-4b18-ae26-f24ed988c379"},"vehicle_type_id":"4","last_reported":1769598913,"current_range_meters":9600,"station_id":"ce4bgr92rcd13ifvqc6g","pricing_plan_id":"cebpf4jnsgd1na2vs0mg"},{"bike_id":"541aab47-c46a-45ce-9946-ea87420fea14","system_id":"levelo_inurba_marseille","lat":43.23191,"lon":5.3997,"is_reserved":false,"is_disabled":false,"rental_uris":{"android":"levelo://app?vid=541aab47-c46a-45ce-9946-ea87420fea14","ios":"levelo://app?vid=541aab47-c46a-45ce-9946-ea87420fea14"},"vehicle_type_id":"4","last_reported":1769598913,"current_range_meters":9600,"station_id":"ce4bhn12rcd13ifvqgqg","pricing_plan_id":"cebpf4jnsgd1na2vs0mg"},{"bike_id":"2dcd229b-9a70-410f-96af-5a659ecc8110","system_id":"levelo_inurba_marseille","lat":43.24178,"lon":5.36416,"is_reserved":false,"is_disabled":false,"rental_uris":{"android":"levelo://app?vid=2dcd229b-9a70-410f-96af-5a659ecc8110","ios":"levelo://app?vid=2dcd229b-9a70-410f-96af-5a659ecc8110"},"vehicle_type_id":"4","last_reported":1769598913,"current_range_meters":9600,"station_id":"cpo36qri1sfpv3e86is0","pricing_plan_id":"cebpf4jnsgd1na2vs0mg"},{"bike_id":"0a7405ad-871c-4a38-944c-17ac55cc69b6","system_id":"levelo_inurba_marseille","lat":43.24176,"lon":5.36422,"is_reserved":false,"is_disabled":false,"rental_uris":{"android":"levelo://app?vid=0a7405ad-871c-4a38-944c-17ac55cc69b6","ios":"levelo://app?vid=0a7405ad-871c-4a38-944c-17ac55cc69b6"},"vehicle_type_id":"4","last_reported":1769598913,"current_range_meters":9600,"station_id":"cpo36qri1sfpv3e86is0","pricing_plan_id":"cebpf4jnsgd1na2vs0mg"},{"bike_id":"7467cb27-eaf1-4da2-8e26-27fbbc086518","system_id":"levelo_inurba_marseille","lat":43.29922,"lon":5.42637,"is_reserved":false,"is_disabled":false,"rental_uris":{"android":"levelo://app?vid=7467cb27-eaf1-4da2-8e26-27fbbc086518","ios":"levelo://app?vid=7467cb27-eaf1-4da2-8e26-27fbbc086518"},"vehicle_type_id":"4","last_reported":1769598913,"current_range_meters":9600,"station_id":"","pricing_plan_id":"cebpf4jnsgd1na2vs0mg"},{"bike_id":"58561bee-b9b4-40cb-a81c-4908ef2f3de1","system_id":"levelo_inurba_marseille","lat":43.27351,"lon":5.36253,"is_reserved":false,"is_disabled":false,"rental_uris":{"android":"levelo://app?vid=58561bee-b9b4-40cb-a81c-4908ef2f3de1","ios":"levelo://app?vid=58561bee-b9b4-40cb-a81c-4908ef2f3de1"},"vehicle_type_id":"4","last_reported":1769598913,"current_range_meters":9600,"station_id":"ce4bhbh2rcd13ifvqeo0","pricing_plan_id":"cebpf4jnsgd1na2vs0mg"},{"bike_id":"cef89498-fbf9-4ad5-afa6-46a5eea10249","system_id":"levelo_inurba_marseille","lat":43.27352,"lon":5.40971,"is_reserved":false,"is_disabled":false,"rental_uris":{"android":"levelo://app?vid=cef89498-fbf9-4ad5-afa6-46a5eea10249","ios":"levelo://app?vid=cef89498-fbf9-4ad5-afa6-46a5eea10249"},"vehicle_type_id":"4","last_reported":1769598913,"current_range_meters":9600,"station_id":"","pricing_plan_id":"cebpf4jnsgd1na2vs0mg"},{"bike_id":"9183a072-7ef7-40b6-9d57-92fed5e7631a","system_id":"levelo_inurba_marseille","lat":43.30125,"lon":5.43117,"is_reserved":false,"is_disabled":false,"rental_uris":{"android":"levelo://app?vid=9183a072-7ef7-40b6-9d57-92fed5e7631a","ios":"levelo://app?vid=9183a072-7ef7-40b6-9d57-92fed5e7631a"},"vehicle_type_id":"4","last_reported":1769598913,"current_range_meters":10000,"station_id":"st_d3js3co5814s73ftftug","pricing_plan_id":"cebpf4jnsgd1na2vs0mg"},{"bike_id":"e0eb837e-198e-477d-b11b-0d066804c80a","system_id":"levelo_inurba_marseille","lat":43.341397,"lon":5.409069,"is_reserved":false,"is_disabled":false,"rental_uris":{"android":"levelo://app?vid=e0eb837e-198e-477d-b11b-0d066804c80a","ios":"levelo://app?vid=e0eb837e-198e-477d-b11b-0d066804c80a"},"vehicle_type_id":"4","last_reported":1769598913,"current_range_meters":10000,"station_id":"ce4bhqh2rcd13ifvqhlg","pricing_plan_id":"cebpf4jnsgd1na2vs0mg"},{"bike_id":"29e658f4-2359-46f1-90c1-df0499696a70","system_id":"levelo_inurba_marseille","lat":43.30123,"lon":5.4312,"is_reserved":false,"is_disabled":false,"rental_uris":{"android":"levelo://app?vid=29e658f4-2359-46f1-90c1-df0499696a70","ios":"levelo://app?vid=29e658f4-2359-46f1-90c1-df0499696a70"},"vehicle_type_id":"4","last_reported":1769598913,"current_range_meters":10000,"station_id":"st_d3js3co5814s73ftftug","pricing_plan_id":"cebpf4jnsgd1na2vs0mg"},{"bike_id":"fa3935ca-5664-431b-81b3-d462965b7a2a","system_id":"levelo_inurba_marseille","lat":43.23155,"lon":5.43742,"is_reserved":false,"is_disabled":false,"rental_uris":{"android":"levelo://app?vid=fa3935ca-5664-431b-81b3-d462965b7a2a","ios":"levelo://app?vid=fa3935ca-5664-431b-81b3-d462965b7a2a"},"vehicle_type_id":"4","last_reported":1769598913,"current_range_meters":10000,"station_id":"ce4bhmp2rcd13ifvqgog","pricing_plan_id":"cebpf4jnsgd1na2vs0mg"},{"bike_id":"c07f73fb-61ca-46b5-b7a6-c22c91a3d83d","system_id":"levelo_inurba_marseille","lat":43.32457,"lon":5.36522,"is_reserved":false,"is_disabled":false,"rental_uris":{"android":"levelo://app?vid=c07f73fb-61ca-46b5-b7a6-c22c91a3d83d","ios":"levelo://app?vid=c07f73fb-61ca-46b5-b7a6-c22c91a3d83d"},"vehicle_type_id":"4","last_reported":1769598913,"current_range_meters":10000,"station_id":"ce4bhs12rcd13ifvqhvg","pricing_plan_id":"cebpf4jnsgd1na2vs0mg"},{"bike_id":"16199858-b735-4ef4-aea3-a073cd0a7000","system_id":"levelo_inurba_marseille","lat":43.255807,"lon":5.382376,"is_reserved":false,"is_disabled":false,"rental_uris":{"android":"levelo://app?vid=16199858-b735-4ef4-aea3-a073cd0a7000","ios":"levelo://app?vid=16199858-b735-4ef4-aea3-a073cd0a7000"},"vehicle_type_id":"4","last_reported":1769598913,"current_range_meters":10000,"station_id":"ce4bhih2rcd13ifvqfs0","pricing_plan_id":"cebpf4jnsgd1na2vs0mg"},{"bike_id":"dcc20a74-9ba4-4119-a5f5-ce0a76ef7ac9","system_id":"levelo_inurba_marseille","lat":43.22563,"lon":5.41636,"is_reserved":false,"is_disabled":false,"rental_uris":{"android":"levelo://app?vid=dcc20a74-9ba4-4119-a5f5-ce0a76ef7ac9","ios":"levelo://app?vid=dcc20a74-9ba4-4119-a5f5-ce0a76ef7ac9"},"vehicle_type_id":"4","last_reported":1769598913,"current_range_meters":10000,"station_id":"st_d2o4gvlbi1j2169b742g","pricing_plan_id":"cebpf4jnsgd1na2vs0mg"},{"bike_id":"5138898d-be6b-4794-b991-21453a881634","system_id":"levelo_inurba_marseille","lat":43.30614,"lon":5.37226,"is_reserved":false,"is_disabled":false,"rental_uris":{"android":"levelo://app?vid=5138898d-be6b-4794-b991-21453a881634","ios":"levelo://app?vid=5138898d-be6b-4794-b991-21453a881634"},"vehicle_type_id":"4","last_reported":1769598913,"current_range_meters":10000,"station_id":"ce4bgqh2rcd13ifvqc4g","pricing_plan_id":"cebpf4jnsgd1na2vs0mg"},{"bike_id":"70c8e946-935d-472e-a5f3-1a97a017c367","system_id":"levelo_inurba_marseille","lat":43.32463,"lon":5.36577,"is_reserved":false,"is_disabled":false,"rental_uris":{"android":"levelo://app?vid=70c8e946-935d-472e-a5f3-1a97a017c367","ios":"levelo://app?vid=70c8e946-935d-472e-a5f3-1a97a017c367"},"vehicle_type_id":"4","last_reported":1769598913,"current_range_meters":10000,"station_id":"ce4bhs12rcd13ifvqhvg","pricing_plan_id":"cebpf4jnsgd1na2vs0mg"},{"bike_id":"11ea5605-7882-4487-a008-b5f4221886b5","system_id":"levelo_inurba_marseille","lat":43.31393,"lon":5.37403,"is_reserved":false,"is_disabled":false,"rental_uris":{"android":"levelo://app?vid=11ea5605-7882-4487-a008-b5f4221886b5","ios":"levelo://app?vid=11ea5605-7882-4487-a008-b5f4221886b5"},"vehicle_type_id":"4","last_reported":1769598913,"current_range_meters":10000,"station_id":"","pricing_plan_id":"cebpf4jnsgd1na2vs0mg"},{"bike_id":"802f6e05-7249-407a-aac4-32d2041628b8","system_id":"levelo_inurba_marseille","lat":43.23045,"lon":5.35503,"is_reserved":false,"is_disabled":false,"rental_uris":{"android":"levelo://app?vid=802f6e05-7249-407a-aac4-32d2041628b8","ios":"levelo://app?vid=802f6e05-7249-407a-aac4-32d2041628b8"},"vehicle_type_id":"4","last_reported":1769598913,"current_range_meters":10000,"station_id":"cpo3342slgdg3j2ifvpg","pricing_plan_id":"cebpf4jnsgd1na2vs0mg"},{"bike_id":"e236f0a6-2e87-48ed-94ce-e49f696f4842","system_id":"levelo_inurba_marseille","lat":43.2661,"lon":5.37509,"is_reserved":false,"is_disabled":false,"rental_uris":{"android":"levelo://app?vid=e236f0a6-2e87-48ed-94ce-e49f696f4842","ios":"levelo://app?vid=e236f0a6-2e87-48ed-94ce-e49f696f4842"},"vehicle_type_id":"4","last_reported":1769598913,"current_range_meters":10000,"station_id":"","pricing_plan_id":"cebpf4jnsgd1na2vs0mg"},{"bike_id":"1626167b-18c5-433f-bb6c-cd0ec49ca515","system_id":"levelo_inurba_marseille","lat":43.27421,"lon":5.39425,"is_reserved":false,"is_disabled":false,"rental_uris":{"android":"levelo://app?vid=1626167b-18c5-433f-bb6c-cd0ec49ca515","ios":"levelo://app?vid=1626167b-18c5-433f-bb6c-cd0ec49ca515"},"vehicle_type_id":"4","last_reported":1769598913,"current_range_meters":10000,"station_id":"ce4bhdp2rcd13ifvqf20","pricing_plan_id":"cebpf4jnsgd1na2vs0mg"},{"bike_id":"7316f60c-8b12-4f7d-9646-805365ea2132","system_id":"levelo_inurba_marseille","lat":43.246805,"lon":5.381745,"is_reserved":false,"is_disabled":false,"rental_uris":{"android":"levelo://app?vid=7316f60c-8b12-4f7d-9646-805365ea2132","ios":"levelo://app?vid=7316f60c-8b12-4f7d-9646-805365ea2132"},"vehicle_type_id":"4","last_reported":1769598913,"current_range_meters":10000,"station_id":"ce4bhih2rcd13ifvqfr0","pricing_plan_id":"cebpf4jnsgd1na2vs0mg"},{"bike_id":"ba94ad88-2d86-4f15-a70c-04c6ad4ea30f","system_id":"levelo_inurba_marseille","lat":43.33161,"lon":5.37676,"is_reserved":false,"is_disabled":false,"rental_uris":{"android":"levelo://app?vid=ba94ad88-2d86-4f15-a70c-04c6ad4ea30f","ios":"levelo://app?vid=ba94ad88-2d86-4f15-a70c-04c6ad4ea30f"},"vehicle_type_id":"4","last_reported":1769598913,"current_range_meters":10000,"station_id":"st_d46cu089ee8s73dldbu0","pricing_plan_id":"cebpf4jnsgd1na2vs0mg"},{"bike_id":"8ad011a3-2e38-4d5e-9a5e-9e8438122aba","system_id":"levelo_inurba_marseille","lat":43.26684,"lon":5.38268,"is_reserved":false,"is_disabled":false,"rental_uris":{"android":"levelo://app?vid=8ad011a3-2e38-4d5e-9a5e-9e8438122aba","ios":"levelo://app?vid=8ad011a3-2e38-4d5e-9a5e-9e8438122aba"},"vehicle_type_id":"4","last_reported":1769598913,"current_range_meters":10000,"station_id":"ce4bhg92rcd13ifvqf90","pricing_plan_id":"cebpf4jnsgd1na2vs0mg"},{"bike_id":"4bd6cb39-f26e-431f-9c48-bc9838a79167","system_id":"levelo_inurba_marseille","lat":43.29817,"lon":5.44064,"is_reserved":false,"is_disabled":false,"rental_uris":{"android":"levelo://app?vid=4bd6cb39-f26e-431f-9c48-bc9838a79167","ios":"levelo://app?vid=4bd6cb39-f26e-431f-9c48-bc9838a79167"},"vehicle_type_id":"4","last_reported":1769598913,"current_range_meters":10000,"station_id":"st_d3jp68qikq2c7381ktn0","pricing_plan_id":"cebpf4jnsgd1na2vs0mg"},{"bike_id":"9530e525-99a6-44ef-9550-48c35496d598","system_id":"levelo_inurba_marseille","lat":43.335387,"lon":5.374645,"is_reserved":false,"is_disabled":false,"rental_uris":{"android":"levelo://app?vid=9530e525-99a6-44ef-9550-48c35496d598","ios":"levelo://app?vid=9530e525-99a6-44ef-9550-48c35496d598"},"vehicle_type_id":"4","last_reported":1769598913,"current_range_meters":10800,"station_id":"st_d46tts09ee8s73dlu43g","pricing_plan_id":"cebpf4jnsgd1na2vs0mg"},{"bike_id":"7b6d8a8b-d351-4282-bf84-c6e7865bd8af","system_id":"levelo_inurba_marseille","lat":43.24631,"lon":5.38899,"is_reserved":false,"is_disabled":false,"rental_uris":{"android":"levelo://app?vid=7b6d8a8b-d351-4282-bf84-c6e7865bd8af","ios":"levelo://app?vid=7b6d8a8b-d351-4282-bf84-c6e7865bd8af"},"vehicle_type_id":"4","last_reported":1769598913,"current_range_meters":10800,"station_id":"ce4bhg12rcd13ifvqf60","pricing_plan_id":"cebpf4jnsgd1na2vs0mg"},{"bike_id":"bb6db0b0-a7e3-42a8-992e-e2e55dc89d52","system_id":"levelo_inurba_marseille","lat":43.33159,"lon":5.37697,"is_reserved":false,"is_disabled":false,"rental_uris":{"android":"levelo://app?vid=bb6db0b0-a7e3-42a8-992e-e2e55dc89d52","ios":"levelo://app?vid=bb6db0b0-a7e3-42a8-992e-e2e55dc89d52"},"vehicle_type_id":"4","last_reported":1769598913,"current_range_meters":10800,"station_id":"st_d46cu089ee8s73dldbu0","pricing_plan_id":"cebpf4jnsgd1na2vs0mg"},{"bike_id":"65eb5cb0-a6f7-4de3-a9be-a5e0a4386045","system_id":"levelo_inurba_marseille","lat":43.33145,"lon":5.37705,"is_reserved":false,"is_disabled":false,"rental_uris":{"android":"levelo://app?vid=65eb5cb0-a6f7-4de3-a9be-a5e0a4386045","ios":"levelo://app?vid=65eb5cb0-a6f7-4de3-a9be-a5e0a4386045"},"vehicle_type_id":"4","last_reported":1769598913,"current_range_meters":10800,"station_id":"st_d46cu089ee8s73dldbu0","pricing_plan_id":"cebpf4jnsgd1na2vs0mg"},{"bike_id":"85b1b1e1-c458-4711-86a6-2ddb2584b733","system_id":"levelo_inurba_marseille","lat":43.33547,"lon":5.37466,"is_reserved":false,"is_disabled":false,"rental_uris":{"android":"levelo://app?vid=85b1b1e1-c458-4711-86a6-2ddb2584b733","ios":"levelo://app?vid=85b1b1e1-c458-4711-86a6-2ddb2584b733"},"vehicle_type_id":"4","last_reported":1769598913,"current_range_meters":10800,"station_id":"","pricing_plan_id":"cebpf4jnsgd1na2vs0mg"},{"bike_id":"b56b2f29-215b-445f-a0c6-48f3fd7c8655","system_id":"levelo_inurba_marseille","lat":43.290368,"lon":5.381372,"is_reserved":false,"is_disabled":true,"rental_uris":{"android":"levelo://app?vid=b56b2f29-215b-445f-a0c6-48f3fd7c8655","ios":"levelo://app?vid=b56b2f29-215b-445f-a0c6-48f3fd7c8655"},"vehicle_type_id":"4","last_reported":1769598913,"current_range_meters":10800,"station_id":"ce4bh4p2rcd13ifvqe1g","pricing_plan_id":"cebpf4jnsgd1na2vs0mg"},{"bike_id":"c3641efd-82fa-4de2-a15a-e6b19a434bf3","system_id":"levelo_inurba_marseille","lat":43.23961,"lon":5.36587,"is_reserved":false,"is_disabled":false,"rental_uris":{"android":"levelo://app?vid=c3641efd-82fa-4de2-a15a-e6b19a434bf3","ios":"levelo://app?vid=c3641efd-82fa-4de2-a15a-e6b19a434bf3"},"vehicle_type_id":"4","last_reported":1769598913,"current_range_meters":10800,"station_id":"ce4bhi12rcd13ifvqfp0","pricing_plan_id":"cebpf4jnsgd1na2vs0mg"},{"bike_id":"963c2162-d7a9-4bf4-8c9d-638ae75d44bd","system_id":"levelo_inurba_marseille","lat":43.24176,"lon":5.36386,"is_reserved":false,"is_disabled":false,"rental_uris":{"android":"levelo://app?vid=963c2162-d7a9-4bf4-8c9d-638ae75d44bd","ios":"levelo://app?vid=963c2162-d7a9-4bf4-8c9d-638ae75d44bd"},"vehicle_type_id":"4","last_reported":1769598913,"current_range_meters":10800,"station_id":"cpo36qri1sfpv3e86is0","pricing_plan_id":"cebpf4jnsgd1na2vs0mg"},{"bike_id":"2d655a97-bd06-49e9-b2b4-efa072ca5fda","system_id":"levelo_inurba_marseille","lat":43.32123,"lon":5.36769,"is_reserved":false,"is_disabled":false,"rental_uris":{"android":"levelo://app?vid=2d655a97-bd06-49e9-b2b4-efa072ca5fda","ios":"levelo://app?vid=2d655a97-bd06-49e9-b2b4-efa072ca5fda"},"vehicle_type_id":"4","last_reported":1769598913,"current_range_meters":10800,"station_id":"ce4bhrh2rcd13ifvqhug","pricing_plan_id":"cebpf4jnsgd1na2vs0mg"},{"bike_id":"51e33b43-0b63-43c6-8dbf-365699605da8","system_id":"levelo_inurba_marseille","lat":43.26985,"lon":5.39832,"is_reserved":false,"is_disabled":false,"rental_uris":{"android":"levelo://app?vid=51e33b43-0b63-43c6-8dbf-365699605da8","ios":"levelo://app?vid=51e33b43-0b63-43c6-8dbf-365699605da8"},"vehicle_type_id":"4","last_reported":1769598913,"current_range_meters":10800,"station_id":"","pricing_plan_id":"cebpf4jnsgd1na2vs0mg"},{"bike_id":"d1b56c9e-98a7-431d-9a8c-c617c0205df7","system_id":"levelo_inurba_marseille","lat":43.29967,"lon":5.38498,"is_reserved":false,"is_disabled":false,"rental_uris":{"android":"levelo://app?vid=d1b56c9e-98a7-431d-9a8c-c617c0205df7","ios":"levelo://app?vid=d1b56c9e-98a7-431d-9a8c-c617c0205df7"},"vehicle_type_id":"4","last_reported":1769598913,"current_range_meters":10800,"station_id":"ce4bgj92rcd13ifvqbd0","pricing_plan_id":"cebpf4jnsgd1na2vs0mg"},{"bike_id":"1bfe2930-bdb0-4422-9fe9-421cffed6f81","system_id":"levelo_inurba_marseille","lat":43.25929,"lon":5.4087,"is_reserved":false,"is_disabled":false,"rental_uris":{"android":"levelo://app?vid=1bfe2930-bdb0-4422-9fe9-421cffed6f81","ios":"levelo://app?vid=1bfe2930-bdb0-4422-9fe9-421cffed6f81"},"vehicle_type_id":"4","last_reported":1769598913,"current_range_meters":10800,"station_id":"ce4bhm92rcd13ifvqglg","pricing_plan_id":"cebpf4jnsgd1na2vs0mg"},{"bike_id":"81b79309-6492-491c-9cb9-a7b29db4177e","system_id":"levelo_inurba_marseille","lat":43.275584,"lon":5.384391,"is_reserved":false,"is_disabled":false,"rental_uris":{"android":"levelo://app?vid=81b79309-6492-491c-9cb9-a7b29db4177e","ios":"levelo://app?vid=81b79309-6492-491c-9cb9-a7b29db4177e"},"vehicle_type_id":"4","last_reported":1769598913,"current_range_meters":10800,"station_id":"ce4bhh92rcd13ifvqfi0","pricing_plan_id":"cebpf4jnsgd1na2vs0mg"},{"bike_id":"bbf12486-e043-443d-8c79-9a273772c204","system_id":"levelo_inurba_marseille","lat":43.23192,"lon":5.39986,"is_reserved":false,"is_disabled":false,"rental_uris":{"android":"levelo://app?vid=bbf12486-e043-443d-8c79-9a273772c204","ios":"levelo://app?vid=bbf12486-e043-443d-8c79-9a273772c204"},"vehicle_type_id":"4","last_reported":1769598913,"current_range_meters":11200,"station_id":"ce4bhn12rcd13ifvqgqg","pricing_plan_id":"cebpf4jnsgd1na2vs0mg"},{"bike_id":"60ebce89-9b49-41d8-b1d5-1fdb022bac99","system_id":"levelo_inurba_marseille","lat":43.33665,"lon":5.3734,"is_reserved":false,"is_disabled":false,"rental_uris":{"android":"levelo://app?vid=60ebce89-9b49-41d8-b1d5-1fdb022bac99","ios":"levelo://app?vid=60ebce89-9b49-41d8-b1d5-1fdb022bac99"},"vehicle_type_id":"4","last_reported":1769598913,"current_range_meters":11200,"station_id":"","pricing_plan_id":"cebpf4jnsgd1na2vs0mg"},{"bike_id":"34cc7922-7d74-47c3-8cfd-3d422b491d8c","system_id":"levelo_inurba_marseille","lat":43.28441,"lon":5.39191,"is_reserved":false,"is_disabled":true,"rental_uris":{"android":"levelo://app?vid=34cc7922-7d74-47c3-8cfd-3d422b491d8c","ios":"levelo://app?vid=34cc7922-7d74-47c3-8cfd-3d422b491d8c"},"vehicle_type_id":"4","last_reported":1769598913,"current_range_meters":11200,"station_id":"ce4bhoh2rcd13ifvqh5g","pricing_plan_id":"cebpf4jnsgd1na2vs0mg"},{"bike_id":"5ac42f77-e34f-41fe-bd32-78022533dad4","system_id":"levelo_inurba_marseille","lat":43.30144,"lon":5.38095,"is_reserved":false,"is_disabled":false,"rental_uris":{"android":"levelo://app?vid=5ac42f77-e34f-41fe-bd32-78022533dad4","ios":"levelo://app?vid=5ac42f77-e34f-41fe-bd32-78022533dad4"},"vehicle_type_id":"4","last_reported":1769598913,"current_range_meters":11200,"station_id":"ce4bgjp2rcd13ifvqbh0","pricing_plan_id":"cebpf4jnsgd1na2vs0mg"},{"bike_id":"404cd129-cc8d-4d81-bd34-c17cab37f293","system_id":"levelo_inurba_marseille","lat":43.292541,"lon":5.376167,"is_reserved":false,"is_disabled":false,"rental_uris":{"android":"levelo://app?vid=404cd129-cc8d-4d81-bd34-c17cab37f293","ios":"levelo://app?vid=404cd129-cc8d-4d81-bd34-c17cab37f293"},"vehicle_type_id":"4","last_reported":1769598913,"current_range_meters":11200,"station_id":"ce4bgi12rcd13ifvqb80","pricing_plan_id":"cebpf4jnsgd1na2vs0mg"},{"bike_id":"7c2c1930-9506-4e01-88e5-4f549cb27a3b","system_id":"levelo_inurba_marseille","lat":43.27169,"lon":5.40998,"is_reserved":false,"is_disabled":false,"rental_uris":{"android":"levelo://app?vid=7c2c1930-9506-4e01-88e5-4f549cb27a3b","ios":"levelo://app?vid=7c2c1930-9506-4e01-88e5-4f549cb27a3b"},"vehicle_type_id":"4","last_reported":1769598913,"current_range_meters":11200,"station_id":"ce4bhl12rcd13ifvqgf0","pricing_plan_id":"cebpf4jnsgd1na2vs0mg"},{"bike_id":"ae137984-25be-4bf6-91de-8f22583dc351","system_id":"levelo_inurba_marseille","lat":43.29509,"lon":5.39026,"is_reserved":false,"is_disabled":false,"rental_uris":{"android":"levelo://app?vid=ae137984-25be-4bf6-91de-8f22583dc351","ios":"levelo://app?vid=ae137984-25be-4bf6-91de-8f22583dc351"},"vehicle_type_id":"4","last_reported":1769598913,"current_range_meters":11200,"station_id":"ce4bh3p2rcd13ifvqdp0","pricing_plan_id":"cebpf4jnsgd1na2vs0mg"},{"bike_id":"bd551aec-24c2-4aba-b573-e89c13f76575","system_id":"levelo_inurba_marseille","lat":43.25573,"lon":5.38243,"is_reserved":false,"is_disabled":false,"rental_uris":{"android":"levelo://app?vid=bd551aec-24c2-4aba-b573-e89c13f76575","ios":"levelo://app?vid=bd551aec-24c2-4aba-b573-e89c13f76575"},"vehicle_type_id":"4","last_reported":1769598913,"current_range_meters":11200,"station_id":"ce4bhih2rcd13ifvqfs0","pricing_plan_id":"cebpf4jnsgd1na2vs0mg"},{"bike_id":"8105c3bf-c953-47dc-a669-68ce6c5070bb","system_id":"levelo_inurba_marseille","lat":43.31175,"lon":5.37964,"is_reserved":false,"is_disabled":true,"rental_uris":{"android":"levelo://app?vid=8105c3bf-c953-47dc-a669-68ce6c5070bb","ios":"levelo://app?vid=8105c3bf-c953-47dc-a669-68ce6c5070bb"},"vehicle_type_id":"4","last_reported":1769598913,"current_range_meters":11200,"station_id":"","pricing_plan_id":"cebpf4jnsgd1na2vs0mg"},{"bike_id":"a1adbbcc-56be-41a6-a560-f4a5e4282b51","system_id":"levelo_inurba_marseille","lat":43.28396,"lon":5.34996,"is_reserved":false,"is_disabled":false,"rental_uris":{"android":"levelo://app?vid=a1adbbcc-56be-41a6-a560-f4a5e4282b51","ios":"levelo://app?vid=a1adbbcc-56be-41a6-a560-f4a5e4282b51"},"vehicle_type_id":"4","last_reported":1769598913,"current_range_meters":11200,"station_id":"ce4bhbh2rcd13ifvqepg","pricing_plan_id":"cebpf4jnsgd1na2vs0mg"},{"bike_id":"360bd922-c036-43fc-9f95-f2099189cf17","system_id":"levelo_inurba_marseille","lat":43.250038,"lon":5.389173,"is_reserved":false,"is_disabled":false,"rental_uris":{"android":"levelo://app?vid=360bd922-c036-43fc-9f95-f2099189cf17","ios":"levelo://app?vid=360bd922-c036-43fc-9f95-f2099189cf17"},"vehicle_type_id":"4","last_reported":1769598913,"current_range_meters":11200,"station_id":"ce4bhgp2rcd13ifvqfd0","pricing_plan_id":"cebpf4jnsgd1na2vs0mg"},{"bike_id":"2b9c2ac6-0f85-4c6a-a497-526227ec3ab8","system_id":"levelo_inurba_marseille","lat":43.246322,"lon":5.431514,"is_reserved":false,"is_disabled":false,"rental_uris":{"android":"levelo://app?vid=2b9c2ac6-0f85-4c6a-a497-526227ec3ab8","ios":"levelo://app?vid=2b9c2ac6-0f85-4c6a-a497-526227ec3ab8"},"vehicle_type_id":"4","last_reported":1769598913,"current_range_meters":11200,"station_id":"st_d2m6c4gdas8pm72e190g","pricing_plan_id":"cebpf4jnsgd1na2vs0mg"},{"bike_id":"2c734100-1532-49be-95c9-ac5f65ec6966","system_id":"levelo_inurba_marseille","lat":43.23191,"lon":5.39986,"is_reserved":false,"is_disabled":false,"rental_uris":{"android":"levelo://app?vid=2c734100-1532-49be-95c9-ac5f65ec6966","ios":"levelo://app?vid=2c734100-1532-49be-95c9-ac5f65ec6966"},"vehicle_type_id":"4","last_reported":1769598913,"current_range_meters":11200,"station_id":"ce4bhn12rcd13ifvqgqg","pricing_plan_id":"cebpf4jnsgd1na2vs0mg"},{"bike_id":"11577d07-4c5a-4629-8399-e23278222e08","system_id":"levelo_inurba_marseille","lat":43.30117,"lon":5.43119,"is_reserved":false,"is_disabled":false,"rental_uris":{"android":"levelo://app?vid=11577d07-4c5a-4629-8399-e23278222e08","ios":"levelo://app?vid=11577d07-4c5a-4629-8399-e23278222e08"},"vehicle_type_id":"4","last_reported":1769598913,"current_range_meters":11200,"station_id":"st_d3js3co5814s73ftftug","pricing_plan_id":"cebpf4jnsgd1na2vs0mg"},{"bike_id":"b326e93f-b296-413b-9a2a-b42e9c5cf73b","system_id":"levelo_inurba_marseille","lat":43.26938,"lon":5.40259,"is_reserved":false,"is_disabled":false,"rental_uris":{"android":"levelo://app?vid=b326e93f-b296-413b-9a2a-b42e9c5cf73b","ios":"levelo://app?vid=b326e93f-b296-413b-9a2a-b42e9c5cf73b"},"vehicle_type_id":"4","last_reported":1769598913,"current_range_meters":11200,"station_id":"cjm6bp8fraef2m0cb0m0","pricing_plan_id":"cebpf4jnsgd1na2vs0mg"},