{"last_updated":1730394570,"ttl":60,"version":"2.2","data":{"bikes":[{"bike_id":"a871acf4-3ac0-4e23-8feb-74013fc0f472","system_id":"levelo_inurba_marseille","lat":43.29095,"lon":5.38152,"is_reserved":false,"is_disabled":false,"rental_uris":{"android":"levelo://app?vid=a871acf4-3ac0-4e23-8feb-74013fc0f472","ios":"levelo://app?vid=a871acf4-3ac0-4e23-8feb-74013fc0f472"},"vehicle_type_id":"4","last_reported":1730394571,"current_range_meters":20000,"station_id":"ce4bh512rcd13ifvqe2g","pricing_plan_id":"cebpf4jnsgd1na2vs0mg"},{"bike_id":"017545e3-f945-4bf5-a8f4-9e171e0bdfdb","system_id":"levelo_inurba_marseille","lat":43.25578,"lon":5.38229,"is_reserved":false,"is_disabled":false,"rental_uris":{"android":"levelo://app?vid=017545e3-f945-4bf5-a8f4-9e171e0bdfdb","ios":"levelo://app?vid=017545e3-f945-4bf5-a8f4-9e171e0bdfdb"},"vehicle_type_id":"4","last_reported":1730394571,"current_range_meters":38800,"station_id":"ce4bhih2rcd13ifvqfs0","pricing_plan_id":"cebpf4jnsgd1na2vs0mg"},{"bike_id":"f64c1e7d-3ae9-4dfc-8ec2-0a90d036364f","system_id":"levelo_inurba_marseille","lat":43.32111,"lon":5.36771,"is_reserved":false,"is_disabled":false,"rental_uris":{"android":"levelo://app?vid=f64c1e7d-3ae9-4dfc-8ec2-0a90d036364f","ios":"levelo://app?vid=f64c1e7d-3ae9-4dfc-8ec2-0a90d036364f"},"vehicle_type_id":"4","last_reported":1730394571,"current_range_meters":21600,"station_id":"ce4bhrh2rcd13ifvqhug","pricing_plan_id":"cebpf4jnsgd1na2vs0mg"},{"bike_id":"9b4d9d18-74a1-4319-849f-1fe9f7c2a928","system_id":"levelo_inurba_marseille","lat":43.31496,"lon":5.37311,"is_reserved":false,"is_disabled":false,"rental_uris":{"android":"levelo://app?vid=9b4d9d18-74a1-4319-849f-1fe9f7c2a928","ios":"levelo://app?vid=9b4d9d18-74a1-4319-849f-1fe9f7c2a928"},"vehicle_type_id":"4","last_reported":1730394571,"current_range_meters":14000,"station_id":"ce4bgt12rcd13ifvqcd0","pricing_plan_id":"cebpf4jnsgd1na2vs0mg"},{"bike_id":"bd69ea22-7685-4269-aa94-e44f19131975","system_id":"levelo_inurba_marseille","lat":43.27839,"lon":5.39209,"is_reserved":false,"is_disabled":false,"rental_uris":{"android":"levelo://app?vid=bd69ea22-7685-4269-aa94-e44f19131975","ios":"levelo://app?vid=bd69ea22-7685-4269-aa94-e44f19131975"},"vehicle_type_id":"4","last_reported":1730394571,"current_range_meters":9200,"station_id":"ce4bhjp2rcd13ifvqga0","pricing_plan_id":"cebpf4jnsgd1na2vs0mg"},{"bike_id":"06e32548-f808-43af-9ccc-f30b9b0d784e","system_id":"levelo_inurba_marseille","lat":43.29019,"lon":5.38109,"is_reserved":false,"is_disabled":false,"rental_uris":{"android":"levelo://app?vid=06e32548-f808-43af-9ccc-f30b9b0d784e","ios":"levelo://app?vid=06e32548-f808-43af-9ccc-f30b9b0d784e"},"vehicle_type_id":"4","last_reported":1730394571,"current_range_meters":38800,"station_id":"ce4bh4p2rcd13ifvqe1g","pricing_plan_id":"cebpf4jnsgd1na2vs0mg"},{"bike_id":"a1fde2f4-2f86-4437-896f-85eb5c671553","system_id":"levelo_inurba_marseille","lat":43.30937,"lon":5.40151,"is_reserved":false,"is_disabled":false,"rental_uris":{"android":"levelo://app?vid=a1fde2f4-2f86-4437-896f-85eb5c671553","ios":"levelo://app?vid=a1fde2f4-2f86-4437-896f-85eb5c671553"},"vehicle_type_id":"4","last_reported":1730394571,"current_range_meters":36400,"station_id":"ce4bgvp2rcd13ifvqct0","pricing_plan_id":"cebpf4jnsgd1na2vs0mg"},{"bike_id":"54fd1e7a-8d82-4d65-9623-a97951a84849","system_id":"levelo_inurba_marseille","lat":43.28409,"lon":5.37514,"is_reserved":false,"is_disabled":false,"rental_uris":{"android":"levelo://app?vid=54fd1e7a-8d82-4d65-9623-a97951a84849","ios":"levelo://app?vid=54fd1e7a-8d82-4d65-9623-a97951a84849"},"vehicle_type_id":"4","last_reported":1730394571,"current_range_meters":4800,"station_id":"ce4bh412rcd13ifvqds0","pricing_plan_id":"cebpf4jnsgd1na2vs0mg"},{"bike_id":"081a3b8f-cdf1-489f-be6f-d7cee1a529d8","system_id":"levelo_inurba_marseille","lat":43.3042,"lon":5.39738,"is_reserved":false,"is_disabled":false,"rental_uris":{"android":"levelo://app?vid=081a3b8f-cdf1-489f-be6f-d7cee1a529d8","ios":"levelo://app?vid=081a3b8f-cdf1-489f-be6f-d7cee1a529d8"},"vehicle_type_id":"4","last_reported":1730394571,"current_range_meters":5600,"station_id":"ce4bh092rcd13ifvqd20","pricing_plan_id":"cebpf4jnsgd1na2vs0mg"},{"bike_id":"5a630d2f-334a-434e-9444-556db0f632d1","system_id":"levelo_inurba_marseille","lat":43.30207,"lon":5.39475,"is_reserved":false,"is_disabled":false,"rental_uris":{"android":"levelo://app?vid=5a630d2f-334a-434e-9444-556db0f632d1","ios":"levelo://app?vid=5a630d2f-334a-434e-9444-556db0f632d1"},"vehicle_type_id":"4","last_reported":1730394571,"current_range_meters":28000,"station_id":"ce4bh0p2rcd13ifvqd70","pricing_plan_id":"cebpf4jnsgd1na2vs0mg"},{"bike_id":"a4627486-a087-47d1-bdea-e9476cd49986","system_id":"levelo_inurba_marseille","lat":43.231944,"lon":5.355519,"is_reserved":false,"is_disabled":false,"rental_uris":{"android":"levelo://app?vid=a4627486-a087-47d1-bdea-e9476cd49986","ios":"levelo://app?vid=a4627486-a087-47d1-bdea-e9476cd49986"},"vehicle_type_id":"4","last_reported":1730394571,"current_range_meters":36400,"station_id":"ce4bhu92rcd13ifvqi70","pricing_plan_id":"cebpf4jnsgd1na2vs0mg"},{"bike_id":"ce718875-f3cf-46c8-a71e-2ec6da08b5d9","system_id":"levelo_inurba_marseille","lat":43.24551,"lon":5.39523,"is_reserved":false,"is_disabled":false,"rental_uris":{"android":"levelo://app?vid=ce718875-f3cf-46c8-a71e-2ec6da08b5d9","ios":"levelo://app?vid=ce718875-f3cf-46c8-a71e-2ec6da08b5d9"},"vehicle_type_id":"4","last_reported":1730394571,"current_range_meters":11600,"station_id":"ce4bhlp2rcd13ifvqgjg","pricing_plan_id":"cebpf4jnsgd1na2vs0mg"},{"bike_id":"a9d67b9a-1c09-4579-b77b-7dcf428eee18","system_id":"levelo_inurba_marseille","lat":43.26981,"lon":5.39861,"is_reserved":false,"is_disabled":false,"rental_uris":{"android":"levelo://app?vid=a9d67b9a-1c09-4579-b77b-7dcf428eee18","ios":"levelo://app?vid=a9d67b9a-1c09-4579-b77b-7dcf428eee18"},"vehicle_type_id":"4","last_reported":1730394571,"current_range_meters":8800,"station_id":"","pricing_plan_id":"cebpf4jnsgd1na2vs0mg"},{"bike_id":"8e449324-47c1-4b1f-9259-f20749f3e22f","system_id":"levelo_inurba_marseille","lat":43.32483,"lon":5.36571,"is_reserved":false,"is_disabled":false,"rental_uris":{"android":"levelo://app?vid=8e449324-47c1-4b1f-9259-f20749f3e22f","ios":"levelo://app?vid=8e449324-47c1-4b1f-9259-f20749f3e22f"},"vehicle_type_id":"4","last_reported":1730394571,"current_range_meters":38800,"station_id":"ce4bhs12rcd13ifvqhvg","pricing_plan_id":"cebpf4jnsgd1na2vs0mg"},{"bike_id":"4075e605-7e2d-4335-883e-4292dc011012","system_id":"levelo_inurba_marseille","lat":43.23967,"lon":5.366336,"is_reserved":false,"is_disabled":false,"rental_uris":{"android":"levelo://app?vid=4075e605-7e2d-4335-883e-4292dc011012","ios":"levelo://app?vid=4075e605-7e2d-4335-883e-4292dc011012"},"vehicle_type_id":"4","last_reported":1730394571,"current_range_meters":38800,"station_id":"ce4bhi12rcd13ifvqfp0","pricing_plan_id":"cebpf4jnsgd1na2vs0mg"},{"bike_id":"5261cbd5-a572-40af-bc7b-60f21035c621","system_id":"levelo_inurba_marseille","lat":43.24181,"lon":5.3973,"is_reserved":false,"is_disabled":false,"rental_uris":{"android":"levelo://app?vid=5261cbd5-a572-40af-bc7b-60f21035c621","ios":"levelo://app?vid=5261cbd5-a572-40af-bc7b-60f21035c621"},"vehicle_type_id":"4","last_reported":1730394571,"current_range_meters":24800,"station_id":"ce4bhn12rcd13ifvqgpg","pricing_plan_id":"cebpf4jnsgd1na2vs0mg"},{"bike_id":"61a17217-866a-45e4-ad7d-ed917d0d9903","system_id":"levelo_inurba_marseille","lat":43.29538,"lon":5.38542,"is_reserved":false,"is_disabled":false,"rental_uris":{"android":"levelo://app?vid=61a17217-866a-45e4-ad7d-ed917d0d9903","ios":"levelo://app?vid=61a17217-866a-45e4-ad7d-ed917d0d9903"},"vehicle_type_id":"4","last_reported":1730394571,"current_range_meters":37600,"station_id":"ce4bgih2rcd13ifvqba0","pricing_plan_id":"cebpf4jnsgd1na2vs0mg"},{"bike_id":"efbe383f-83c6-4df5-ac1f-ffa8f2e0197b","system_id":"levelo_inurba_marseille","lat":43.31338,"lon":5.39695,"is_reserved":false,"is_disabled":false,"rental_uris":{"android":"levelo://app?vid=efbe383f-83c6-4df5-ac1f-ffa8f2e0197b","ios":"levelo://app?vid=efbe383f-83c6-4df5-ac1f-ffa8f2e0197b"},"vehicle_type_id":"4","last_reported":1730394571,"current_range_meters":14800,"station_id":"ce4bgvp2rcd13ifvqcu0","pricing_plan_id":"cebpf4jnsgd1na2vs0mg"},{"bike_id":"b52171fd-0056-41bb-8665-18bc72041f84","system_id":"levelo_inurba_marseille","lat":43.30634,"lon":5.4009,"is_reserved":false,"is_disabled":false,"rental_uris":{"android":"levelo://app?vid=b52171fd-0056-41bb-8665-18bc72041f84","ios":"levelo://app?vid=b52171fd-0056-41bb-8665-18bc72041f84"},"vehicle_type_id":"4","last_reported":1730394571,"current_range_meters":13600,"station_id":"ce4bh112rcd13ifvqda0","pricing_plan_id":"cebpf4jnsgd1na2vs0mg"},{"bike_id":"cc505503-b139-4f7f-a071-30e66ecd28ce","system_id":"levelo_inurba_marseille","lat":43.24549,"lon":5.39526,"is_reserved":false,"is_disabled":false,"rental_uris":{"android":"levelo://app?vid=cc505503-b139-4f7f-a071-30e66ecd28ce","ios":"levelo://app?vid=cc505503-b139-4f7f-a071-30e66ecd28ce"},"vehicle_type_id":"4","last_reported":1730394571,"current_range_meters":8800,"station_id":"ce4bhlp2rcd13ifvqgjg","pricing_plan_id":"cebpf4jnsgd1na2vs0mg"},{"bike_id":"4f70da79-f289-471d-92e2-06d0db7a6b6d","system_id":"levelo_inurba_marseille","lat":43.29573,"lon":5.3997,"is_reserved":false,"is_disabled":false,"rental_uris":{"android":"levelo://app?vid=4f70da79-f289-471d-92e2-06d0db7a6b6d","ios":"levelo://app?vid=4f70da79-f289-471d-92e2-06d0db7a6b6d"},"vehicle_type_id":"4","last_reported":1730394571,"current_range_meters":30800,"station_id":"ce4bh312rcd13ifvqdj0","pricing_plan_id":"cebpf4jnsgd1na2vs0mg"},{"bike_id":"889a852f-1657-46e6-a17a-719f887e099f","system_id":"levelo_inurba_marseille","lat":43.31484,"lon":5.37313,"is_reserved":false,"is_disabled":false,"rental_uris":{"android":"levelo://app?vid=889a852f-1657-46e6-a17a-719f887e099f","ios":"levelo://app?vid=889a852f-1657-46e6-a17a-719f887e099f"},"vehicle_type_id":"4","last_reported":1730394571,"current_range_meters":9200,"station_id":"ce4bgt12rcd13ifvqcd0","pricing_plan_id":"cebpf4jnsgd1na2vs0mg"},{"bike_id":"42e61598-64ce-4f84-97eb-90c09ebd9abe","system_id":"levelo_inurba_marseille","lat":43.23188,"lon":5.39993,"is_reserved":false,"is_disabled":false,"rental_uris":{"android":"levelo://app?vid=42e61598-64ce-4f84-97eb-90c09ebd9abe","ios":"levelo://app?vid=42e61598-64ce-4f84-97eb-90c09ebd9abe"},"vehicle_type_id":"4","last_reported":1730394571,"current_range_meters":9200,"station_id":"ce4bhn12rcd13ifvqgqg","pricing_plan_id":"cebpf4jnsgd1na2vs0mg"},{"bike_id":"aa99a592-ead5-41c7-8029-d47e2523ad0b","system_id":"levelo_inurba_marseille","lat":43.29096,"lon":5.38124,"is_reserved":false,"is_disabled":false,"rental_uris":{"android":"levelo://app?vid=aa99a592-ead5-41c7-8029-d47e2523ad0b","ios":"levelo://app?vid=aa99a592-ead5-41c7-8029-d47e2523ad0b"},"vehicle_type_id":"4","last_reported":1730394571,"current_range_meters":6000,"station_id":"ce4bh512rcd13ifvqe2g","pricing_plan_id":"cebpf4jnsgd1na2vs0mg"},{"bike_id":"b9748c4a-d4fd-4575-bdb4-d87ec7438bdc","system_id":"levelo_inurba_marseille","lat":43.29902,"lon":5.43671,"is_reserved":false,"is_disabled":false,"rental_uris":{"android":"levelo://app?vid=b9748c4a-d4fd-4575-bdb4-d87ec7438bdc","ios":"levelo://app?vid=b9748c4a-d4fd-4575-bdb4-d87ec7438bdc"},"vehicle_type_id":"4","last_reported":1730394571,"current_range_meters":14000,"station_id":"ce4bhpp2rcd13ifvqhfg","pricing_plan_id":"cebpf4jnsgd1na2vs0mg"},{"bike_id":"c573c73f-75e4-475a-bcd6-666ce297695e","system_id":"levelo_inurba_marseille","lat":43.2318,"lon":5.39993,"is_reserved":false,"is_disabled":false,"rental_uris":{"android":"levelo://app?vid=c573c73f-75e4-475a-bcd6-666ce297695e","ios":"levelo://app?vid=c573c73f-75e4-475a-bcd6-666ce297695e"},"vehicle_type_id":"4","last_reported":1730394571,"current_range_meters":25200,"station_id":"ce4bhn12rcd13ifvqgqg","pricing_plan_id":"cebpf4jnsgd1na2vs0mg"},{"bike_id":"3e83603d-7c49-4775-8125-5bc140fcfbe7","system_id":"levelo_inurba_marseille","lat":43.28456,"lon":5.3589,"is_reserved":false,"is_disabled":false,"rental_uris":{"android":"levelo://app?vid=3e83603d-7c49-4775-8125-5bc140fcfbe7","ios":"levelo://app?vid=3e83603d-7c49-4775-8125-5bc140fcfbe7"},"vehicle_type_id":"4","last_reported":1730394571,"current_range_meters":32400,"station_id":"ce4bhah2rcd13ifvqei0","pricing_plan_id":"cebpf4jnsgd1na2vs0mg"},{"bike_id":"a1ec2e0b-f4d0-4b33-aa2e-c379dc673f1b","system_id":"levelo_inurba_marseille","lat":43.29972,"lon":5.38495,"is_reserved":false,"is_disabled":false,"rental_uris":{"android":"levelo://app?vid=a1ec2e0b-f4d0-4b33-aa2e-c379dc673f1b","ios":"levelo://app?vid=a1ec2e0b-f4d0-4b33-aa2e-c379dc673f1b"},"vehicle_type_id":"4","last_reported":1730394571,"current_range_meters":38800,"station_id":"ce4bgj92rcd13ifvqbd0","pricing_plan_id":"cebpf4jnsgd1na2vs0mg"},{"bike_id":"f9a2c48c-a0b4-489f-967c-e3c78f1063bd","system_id":"levelo_inurba_marseille","lat":43.30342,"lon":5.40443,"is_reserved":false,"is_disabled":false,"rental_uris":{"android":"levelo://app?vid=f9a2c48c-a0b4-489f-967c-e3c78f1063bd","ios":"levelo://app?vid=f9a2c48c-a0b4-489f-967c-e3c78f1063bd"},"vehicle_type_id":"4","last_reported":1730394571,"current_range_meters":34800,"station_id":"ce4bh012rcd13ifvqd10","pricing_plan_id":"cebpf4jnsgd1na2vs0mg"},{"bike_id":"60b71c7c-4918-47ba-8287-329d23746782","system_id":"levelo_inurba_marseille","lat":43.29901,"lon":5.43663,"is_reserved":false,"is_disabled":false,"rental_uris":{"android":"levelo://app?vid=60b71c7c-4918-47ba-8287-329d23746782","ios":"levelo://app?vid=60b71c7c-4918-47ba-8287-329d23746782"},"vehicle_type_id":"4","last_reported":1730394571,"current_range_meters":36800,"station_id":"ce4bhpp2rcd13ifvqhfg","pricing_plan_id":"cebpf4jnsgd1na2vs0mg"},{"bike_id":"57a0154f-e513-4dd8-b3ce-fc5941e8defc","system_id":"levelo_inurba_marseille","lat":43.30808,"lon":5.38153,"is_reserved":false,"is_disabled":false,"rental_uris":{"android":"levelo://app?vid=57a0154f-e513-4dd8-b3ce-fc5941e8defc","ios":"levelo://app?vid=57a0154f-e513-4dd8-b3ce-fc5941e8defc"},"vehicle_type_id":"4","last_reported":1730394571,"current_range_meters":28000,"station_id":"ce4bgt12rcd13ifvqce0","pricing_plan_id":"cebpf4jnsgd1na2vs0mg"},{"bike_id":"5986fccd-6cbd-425c-aafb-c7d5c74b7ede","system_id":"levelo_inurba_marseille","lat":43.24388,"lon":5.3705,"is_reserved":false,"is_disabled":false,"rental_uris":{"android":"levelo://app?vid=5986fccd-6cbd-425c-aafb-c7d5c74b7ede","ios":"levelo://app?vid=5986fccd-6cbd-425c-aafb-c7d5c74b7ede"},"vehicle_type_id":"4","last_reported":1730394571,"current_range_meters":38800,"station_id":"ce4bhhh2rcd13ifvqfk0","pricing_plan_id":"cebpf4jnsgd1na2vs0mg"},{"bike_id":"435275e8-6f6d-409a-ab27-88b94d96b593","system_id":"levelo_inurba_marseille","lat":43.286637,"lon":5.363458,"is_reserved":false,"is_disabled":false,"rental_uris":{"android":"levelo://app?vid=435275e8-6f6d-409a-ab27-88b94d96b593","ios":"levelo://app?vid=435275e8-6f6d-409a-ab27-88b94d96b593"},"vehicle_type_id":"4","last_reported":1730394571,"current_range_meters":36400,"station_id":"ce4bhah2rcd13ifvqej0","pricing_plan_id":"cebpf4jnsgd1na2vs0mg"},{"bike_id":"22c6e823-f497-4c9e-9905-1cd22e77f6b6","system_id":"levelo_inurba_marseille","lat":43.24184,"lon":5.39727,"is_reserved":false,"is_disabled":false,"rental_uris":{"android":"levelo://app?vid=22c6e823-f497-4c9e-9905-1cd22e77f6b6","ios":"levelo://app?vid=22c6e823-f497-4c9e-9905-1cd22e77f6b6"},"vehicle_type_id":"4","last_reported":1730394571,"current_range_meters":28400,"station_id":"ce4bhn12rcd13ifvqgpg","pricing_plan_id":"cebpf4jnsgd1na2vs0mg"},{"bike_id":"3a803bb2-b221-4aa2-98fd-7efa375ff178","system_id":"levelo_inurba_marseille","lat":43.287292,"lon":5.400114,"is_reserved":false,"is_disabled":false,"rental_uris":{"android":"levelo://app?vid=3a803bb2-b221-4aa2-98fd-7efa375ff178","ios":"levelo://app?vid=3a803bb2-b221-4aa2-98fd-7efa375ff178"},"vehicle_type_id":"4","last_reported":1730394571,"current_range_meters":23200,"station_id":"ce4bho92rcd13ifvqh3g","pricing_plan_id":"cebpf4jnsgd1na2vs0mg"},{"bike_id":"f0123273-0653-4fc2-89a6-be2a5ba9333a","system_id":"levelo_inurba_marseille","lat":43.28697,"lon":5.37941,"is_reserved":false,"is_disabled":false,"rental_uris":{"android":"levelo://app?vid=f0123273-0653-4fc2-89a6-be2a5ba9333a","ios":"levelo://app?vid=f0123273-0653-4fc2-89a6-be2a5ba9333a"},"vehicle_type_id":"4","last_reported":1730394571,"current_range_meters":20000,"station_id":"ce4bh9p2rcd13ifvqec0","pricing_plan_id":"cebpf4jnsgd1na2vs0mg"},{"bike_id":"39e8b041-adb1-4368-9018-4beec5fbd600","system_id":"levelo_inurba_marseille","lat":43.29701,"lon":5.36603,"is_reserved":false,"is_disabled":false,"rental_uris":{"android":"levelo://app?vid=39e8b041-adb1-4368-9018-4beec5fbd600","ios":"levelo://app?vid=39e8b041-adb1-4368-9018-4beec5fbd600"},"vehicle_type_id":"4","last_reported":1730394571,"current_range_meters":36000,"station_id":"ce4bgn12rcd13ifvqbt0","pricing_plan_id":"cebpf4jnsgd1na2vs0mg"},{"bike_id":"ceb55059-2562-42a2-9035-244f2e2577c8","system_id":"levelo_inurba_marseille","lat":43.292699,"lon":5.384555,"is_reserved":false,"is_disabled":false,"rental_uris":{"android":"levelo://app?vid=ceb55059-2562-42a2-9035-244f2e2577c8","ios":"levelo://app?vid=ceb55059-2562-42a2-9035-244f2e2577c8"},"vehicle_type_id":"4","last_reported":1730394571,"current_range_meters":9600,"station_id":"ce4bh692rcd13ifvqea0","pricing_plan_id":"cebpf4jnsgd1na2vs0mg"},{"bike_id":"a9bbcbbe-e1bb-449c-adcd-34688245503d","system_id":"levelo_inurba_marseille","lat":43.29525,"lon":5.3854,"is_reserved":false,"is_disabled":false,"rental_uris":{"android":"levelo://app?vid=a9bbcbbe-e1bb-449c-adcd-34688245503d","ios":"levelo://app?vid=a9bbcbbe-e1bb-449c-adcd-34688245503d"},"vehicle_type_id":"4","last_reported":1730394571,"current_range_meters":3200,"station_id":"ce4bgih2rcd13ifvqba0","pricing_plan_id":"cebpf4jnsgd1na2vs0mg"},{"bike_id":"ea9abc2c-e507-4c04-938b-096e21244aa3","system_id":"levelo_inurba_marseille","lat":43.26948,"lon":5.40258,"is_reserved":false,"is_disabled":false,"rental_uris":{"android":"levelo://app?vid=ea9abc2c-e507-4c04-938b-096e21244aa3","ios":"levelo://app?vid=ea9abc2c-e507-4c04-938b-096e21244aa3"},"vehicle_type_id":"4","last_reported":1730394571,"current_range_meters":25600,"station_id":"cjm6bp8fraef2m0cb0m0","pricing_plan_id":"cebpf4jnsgd1na2vs0mg"},{"bike_id":"c9b324b1-4915-460f-9999-718412030996","system_id":"levelo_inurba_marseille","lat":43.29369,"lon":5.37861,"is_reserved":false,"is_disabled":false,"rental_uris":{"android":"levelo://app?vid=c9b324b1-4915-460f-9999-718412030996","ios":"levelo://app?vid=c9b324b1-4915-460f-9999-718412030996"},"vehicle_type_id":"4","last_reported":1730394571,"current_range_meters":14000,"station_id":"ce4bgjh2rcd13ifvqbf0","pricing_plan_id":"cebpf4jnsgd1na2vs0mg"},{"bike_id":"e2e7561b-4071-46b7-8e3d-3e7f126b5ef4","system_id":"levelo_inurba_marseille","lat":43.29623,"lon":5.37153,"is_reserved":false,"is_disabled":false,"rental_uris":{"android":"levelo://app?vid=e2e7561b-4071-46b7-8e3d-3e7f126b5ef4","ios":"levelo://app?vid=e2e7561b-4071-46b7-8e3d-3e7f126b5ef4"},"vehicle_type_id":"4","last_reported":1730394571,"current_range_meters":24400,"station_id":"ce4bgnh2rcd13ifvqc0g","pricing_plan_id":"cebpf4jnsgd1na2vs0mg"},{"bike_id":"92adf987-4779-4b78-ad9c-8e29ab9175f3","system_id":"levelo_inurba_marseille","lat":43.23194,"lon":5.35553,"is_reserved":false,"is_disabled":false,"rental_uris":{"android":"levelo://app?vid=92adf987-4779-4b78-ad9c-8e29ab9175f3","ios":"levelo://app?vid=92adf987-4779-4b78-ad9c-8e29ab9175f3"},"vehicle_type_id":"4","last_reported":1730394571,"current_range_meters":6400,"station_id":"ce4bhu92rcd13ifvqi70","pricing_plan_id":"cebpf4jnsgd1na2vs0mg"},{"bike_id":"35fd6368-8d63-497d-8a6e-4a321956ebd8","system_id":"levelo_inurba_marseille","lat":43.26487,"lon":5.39555,"is_reserved":false,"is_disabled":false,"rental_uris":{"android":"levelo://app?vid=35fd6368-8d63-497d-8a6e-4a321956ebd8","ios":"levelo://app?vid=35fd6368-8d63-497d-8a6e-4a321956ebd8"},"vehicle_type_id":"4","last_reported":1730394571,"current_range_meters":29600,"station_id":"ce4bhi12rcd13ifvqfq0","pricing_plan_id":"cebpf4jnsgd1na2vs0mg"},{"bike_id":"4e31cf8e-f449-468a-94d1-c9230024bb15","system_id":"levelo_inurba_marseille","lat":43.29621,"lon":5.37154,"is_reserved":false,"is_disabled":false,"rental_uris":{"android":"levelo://app?vid=4e31cf8e-f449-468a-94d1-c9230024bb15","ios":"levelo://app?vid=4e31cf8e-f449-468a-94d1-c9230024bb15"},"vehicle_type_id":"4","last_reported":1730394571,"current_range_meters":36800,"station_id":"ce4bgnh2rcd13ifvqc0g","pricing_plan_id":"cebpf4jnsgd1na2vs0mg"},{"bike_id":"aeb7f287-ac2e-41a5-9086-a135e101c58d","system_id":"levelo_inurba_marseille","lat":43.2417,"lon":5.36394,"is_reserved":false,"is_disabled":false,"rental_uris":{"android":"levelo://app?vid=aeb7f287-ac2e-41a5-9086-a135e101c58d","ios":"levelo://app?vid=aeb7f287-ac2e-41a5-9086-a135e101c58d"},"vehicle_type_id":"4","last_reported":1730394571,"current_range_meters":9600,"station_id":"cpo36qri1sfpv3e86is0","pricing_plan_id":"cebpf4jnsgd1na2vs0mg"},{"bike_id":"5996ca64-725e-4fb6-a378-e8a470395fbb","system_id":"levelo_inurba_marseille","lat":43.27907,"lon":5.38018,"is_reserved":false,"is_disabled":false,"rental_uris":{"android":"levelo://app?vid=5996ca64-725e-4fb6-a378-e8a470395fbb","ios":"levelo://app?vid=5996ca64-725e-4fb6-a378-e8a470395fbb"},"vehicle_type_id":"4","last_reported":1730394571,"current_range_meters":8400,"station_id":"ce4bhf92rcd13ifvqf50","pricing_plan_id":"cebpf4jnsgd1na2vs0mg"},{"bike_id":"9789a659-603a-435c-8de3-97d43a744e9d","system_id":"levelo_inurba_marseille","lat":43.28942,"lon":5.36639,"is_reserved":false,"is_disabled":false,"rental_uris":{"android":"levelo://app?vid=9789a659-603a-435c-8de3-97d43a744e9d","ios":"levelo://app?vid=9789a659-603a-435c-8de3-97d43a744e9d"},"vehicle_type_id":"4","last_reported":1730394571,"current_range_meters":27200,"station_id":"ce4bhap2rcd13ifvqek0","pricing_plan_id":"cebpf4jnsgd1na2vs0mg"},{"bike_id":"d3800165-2596-4636-b8da-cba0bbe9f7f6","system_id":"levelo_inurba_marseille","lat":43.304432,"lon":5.397433,"is_reserved":false,"is_disabled":false,"rental_uris":{"android":"levelo://app?vid=d3800165-2596-4636-b8da-cba0bbe9f7f6","ios":"levelo://app?vid=d3800165-2596-4636-b8da-cba0bbe9f7f6"},"vehicle_type_id":"4","last_reported":1730394571,"current_range_meters":29600,"station_id":"ce4bgk12rcd13ifvqbi0","pricing_plan_id":"cebpf4jnsgd1na2vs0mg"},{"bike_id":"a68c2a3b-1e9f-42e2-bba3-c307f2cf87b1","system_id":"levelo_inurba_marseille","lat":43.25831,"lon":5.39426,"is_reserved":false,"is_disabled":false,"rental_uris":{"android":"levelo://app?vid=a68c2a3b-1e9f-42e2-bba3-c307f2cf87b1","ios":"levelo://app?vid=a68c2a3b-1e9f-42e2-bba3-c307f2cf87b1"},"vehicle_type_id":"4","last_reported":1730394571,"current_range_meters":6400,"station_id":"ce4bhip2rcd13ifvqft0","pricing_plan_id":"cebpf4jnsgd1na2vs0mg"},{"bike_id":"53b0d704-9a87-454f-a632-02f5fef59b60","system_id":"levelo_inurba_marseille","lat":43.27901,"lon":5.39583,"is_reserved":false,"is_disabled":false,"rental_uris":{"android":"levelo://app?vid=53b0d704-9a87-454f-a632-02f5fef59b60","ios":"levelo://app?vid=53b0d704-9a87-454f-a632-02f5fef59b60"},"vehicle_type_id":"4","last_reported":1730394571,"current_range_meters":23200,"station_id":"ce4bhf92rcd13ifvqf40","pricing_plan_id":"cebpf4jnsgd1na2vs0mg"},{"bike_id":"15531a6f-8704-47e6-a633-e027d12ce8fd","system_id":"levelo_inurba_marseille","lat":43.28471,"lon":5.38434,"is_reserved":false,"is_disabled":false,"rental_uris":{"android":"levelo://app?vid=15531a6f-8704-47e6-a633-e027d12ce8fd","ios":"levelo://app?vid=15531a6f-8704-47e6-a633-e027d12ce8fd"},"vehicle_type_id":"4","last_reported":1730394571,"current_range_meters":27600,"station_id":"ce4bh512rcd13ifvqe3g","pricing_plan_id":"cebpf4jnsgd1na2vs0mg"},{"bike_id":"6efb0d9b-2cf2-4834-b244-fe44aa3186e3","system_id":"levelo_inurba_marseille","lat":43.30208,"lon":5.39474,"is_reserved":false,"is_disabled":false,"rental_uris":{"android":"levelo://app?vid=6efb0d9b-2cf2-4834-b244-fe44aa3186e3","ios":"levelo://app?vid=6efb0d9b-2cf2-4834-b244-fe44aa3186e3"},"vehicle_type_id":"4","last_reported":1730394571,"current_range_meters":28800,"station_id":"ce4bh0p2rcd13ifvqd70","pricing_plan_id":"cebpf4jnsgd1na2vs0mg"},{"bike_id":"cae7b15e-a9a9-4f33-b5c4-69cb631a99c2","system_id":"levelo_inurba_marseille","lat":43.30129,"lon":5.38784,"is_reserved":false,"is_disabled":false,"rental_uris":{"android":"levelo://app?vid=cae7b15e-a9a9-4f33-b5c4-69cb631a99c2","ios":"levelo://app?vid=cae7b15e-a9a9-4f33-b5c4-69cb631a99c2"},"vehicle_type_id":"4","last_reported":1730394571,"current_range_meters":36800,"station_id":"ce4bghh2rcd13ifvqb60","pricing_plan_id":"cebpf4jnsgd1na2vs0mg"},{"bike_id":"2d9bda17-a70c-4801-9d42-1370a0e41f85","system_id":"levelo_inurba_marseille","lat":43.283399,"lon":5.381005,"is_reserved":false,"is_disabled":false,"rental_uris":{"android":"levelo://app?vid=2d9bda17-a70c-4801-9d42-1370a0e41f85","ios":"levelo://app?vid=2d9bda17-a70c-4801-9d42-1370a0e41f85"},"vehicle_type_id":"4","last_reported":1730394571,"current_range_meters":38800,"station_id":"ce4bh412rcd13ifvqdr0","pricing_plan_id":"cebpf4jnsgd1na2vs0mg"},{"bike_id":"1b657c94-56eb-4fd6-b808-785cb4f33bb4","system_id":"levelo_inurba_marseille","lat":43.32656,"lon":5.40994,"is_reserved":false,"is_disabled":false,"rental_uris":{"android":"levelo://app?vid=1b657c94-56eb-4fd6-b808-785cb4f33bb4","ios":"levelo://app?vid=1b657c94-56eb-4fd6-b808-785cb4f33bb4"},"vehicle_type_id":"4","last_reported":1730394571,"current_range_meters":6000,"station_id":"ce4bhpp2rcd13ifvqhgg","pricing_plan_id":"cebpf4jnsgd1na2vs0mg"},{"bike_id":"0eac5a1d-d684-45e0-be5d-a22f3e11c4ca","system_id":"levelo_inurba_marseille","lat":43.23969,"lon":5.36632,"is_reserved":false,"is_disabled":false,"rental_uris":{"android":"levelo://app?vid=0eac5a1d-d684-45e0-be5d-a22f3e11c4ca","ios":"levelo://app?vid=0eac5a1d-d684-45e0-be5d-a22f3e11c4ca"},"vehicle_type_id":"4","last_reported":1730394571,"current_range_meters":10800,"station_id":"ce4bhi12rcd13ifvqfp0","pricing_plan_id":"cebpf4jnsgd1na2vs0mg"},{"bike_id":"bc1a2d08-690b-4f0c-874c-7c96f494f6c9","system_id":"levelo_inurba_marseille","lat":43.27844,"lon":5.39208,"is_reserved":false,"is_disabled":false,"rental_uris":{"android":"levelo://app?vid=bc1a2d08-690b-4f0c-874c-7c96f494f6c9","ios":"levelo://app?vid=bc1a2d08-690b-4f0c-874c-7c96f494f6c9"},"vehicle_type_id":"4","last_reported":1730394571,"current_range_meters":20800,"station_id":"ce4bhjp2rcd13ifvqga0","pricing_plan_id":"cebpf4jnsgd1na2vs0mg"},{"bike_id":"75367bf3-0bee-4225-b918-a3e4fe09d9a1","system_id":"levelo_inurba_marseille","lat":43.26209,"lon":5.37441,"is_reserved":false,"is_disabled":false,"rental_uris":{"android":"levelo://app?vid=75367bf3-0bee-4225-b918-a3e4fe09d9a1","ios":"levelo://app?vid=75367bf3-0bee-4225-b918-a3e4fe09d9a1"},"vehicle_type_id":"4","last_reported":1730394571,"current_range_meters":37600,"station_id":"ce4bhgp2rcd13ifvqfc0","pricing_plan_id":"cebpf4jnsgd1na2vs0mg"},{"bike_id":"7634bbc9-cbd8-496a-bd43-57eeb086eaac","system_id":"levelo_inurba_marseille","lat":43.33719,"lon":5.39186,"is_reserved":false,"is_disabled":false,"rental_uris":{"android":"levelo://app?vid=7634bbc9-cbd8-496a-bd43-57eeb086eaac","ios":"levelo://app?vid=7634bbc9-cbd8-496a-bd43-57eeb086eaac"},"vehicle_type_id":"4","last_reported":1730394571,"current_range_meters":30000,"station_id":"ce4bhr92rcd13ifvqhsg","pricing_plan_id":"cebpf4jnsgd1na2vs0mg"},{"bike_id":"e7b2be94-21fc-42ac-bdf7-d486710a5d9a","system_id":"levelo_inurba_marseille","lat":43.231939,"lon":5.355521,"is_reserved":false,"is_disabled":false,"rental_uris":{"android":"levelo://app?vid=e7b2be94-21fc-42ac-bdf7-d486710a5d9a","ios":"levelo://app?vid=e7b2be94-21fc-42ac-bdf7-d486710a5d9a"},"vehicle_type_id":"4","last_reported":1730394571,"current_range_meters":38800,"station_id":"ce4bhu92rcd13ifvqi70","pricing_plan_id":"cebpf4jnsgd1na2vs0mg"},{"bike_id":"ae5aeaee-a0e8-4057-897c-c757a4b3d50e","system_id":"levelo_inurba_marseille","lat":43.32662,"lon":5.40995,"is_reserved":false,"is_disabled":false,"rental_uris":{"android":"levelo://app?vid=ae5aeaee-a0e8-4057-897c-c757a4b3d50e","ios":"levelo://app?vid=ae5aeaee-a0e8-4057-897c-c757a4b3d50e"},"vehicle_type_id":"4","last_reported":1730394571,"current_range_meters":28000,"station_id":"ce4bhpp2rcd13ifvqhgg","pricing_plan_id":"cebpf4jnsgd1na2vs0mg"},{"bike_id":"927a874f-f1b8-4a9f-8e4d-6948cc98fa5b","system_id":"levelo_inurba_marseille","lat":43.30939,"lon":5.40146,"is_reserved":false,"is_disabled":false,"rental_uris":{"android":"levelo://app?vid=927a874f-f1b8-4a9f-8e4d-6948cc98fa5b","ios":"levelo://app?vid=927a874f-f1b8-4a9f-8e4d-6948cc98fa5b"},"vehicle_type_id":"4","last_reported":1730394571,"current_range_meters":9200,"station_id":"ce4bgvp2rcd13ifvqct0","pricing_plan_id":"cebpf4jnsgd1na2vs0mg"},{"bike_id":"46ee498f-c557-4a42-a3a9-7142785f58de","system_id":"levelo_inurba_marseille","lat":43.26787,"lon":5.39413,"is_reserved":false,"is_disabled":false,"rental_uris":{"android":"levelo://app?vid=46ee498f-c557-4a42-a3a9-7142785f58de","ios":"levelo://app?vid=46ee498f-c557-4a42-a3a9-7142785f58de"},"vehicle_type_id":"4","last_reported":1730394571,"current_range_meters":7200,"station_id":"ce4bhh12rcd13ifvqfg0","pricing_plan_id":"cebpf4jnsgd1na2vs0mg"},{"bike_id":"f5aa4c41-ec0f-4e90-ab60-89a0ed599a42","system_id":"levelo_inurba_marseille","lat":43.3096,"lon":5.39027,"is_reserved":false,"is_disabled":false,"rental_uris":{"android":"levelo://app?vid=f5aa4c41-ec0f-4e90-ab60-89a0ed599a42","ios":"levelo://app?vid=f5aa4c41-ec0f-4e90-ab60-89a0ed599a42"},"vehicle_type_id":"4","last_reported":1730394571,"current_range_meters":28400,"station_id":"ce4bgup2rcd13ifvqco0","pricing_plan_id":"cebpf4jnsgd1na2vs0mg"},{"bike_id":"14e6e855-181b-4718-a749-2e2b3ca23480","system_id":"levelo_inurba_marseille","lat":43.24804,"lon":5.37458,"is_reserved":false,"is_disabled":false,"rental_uris":{"android":"levelo://app?vid=14e6e855-181b-4718-a749-2e2b3ca23480","ios":"levelo://app?vid=14e6e855-181b-4718-a749-2e2b3ca23480"},"vehicle_type_id":"4","last_reported":1730394571,"current_range_meters":36000,"station_id":"ce4bhgh2rcd13ifvqfb0","pricing_plan_id":"cebpf4jnsgd1na2vs0mg"},{"bike_id":"122231cb-4422-4960-b5b8-3c4780eb61fd","system_id":"levelo_inurba_marseille","lat":43.27371,"lon":5.36262,"is_reserved":false,"is_disabled":false,"rental_uris":{"android":"levelo://app?vid=122231cb-4422-4960-b5b8-3c4780eb61fd","ios":"levelo://app?vid=122231cb-4422-4960-b5b8-3c4780eb61fd"},"vehicle_type_id":"4","last_reported":1730394571,"current_range_meters":16000,"station_id":"ce4bhbh2rcd13ifvqeo0","pricing_plan_id":"cebpf4jnsgd1na2vs0mg"},{"bike_id":"6ebb58ed-1590-42c1-bd35-58362bfc1769","system_id":"levelo_inurba_marseille","lat":43.32381,"lon":5.38925,"is_reserved":false,"is_disabled":false,"rental_uris":{"android":"levelo://app?vid=6ebb58ed-1590-42c1-bd35-58362bfc1769","ios":"levelo://app?vid=6ebb58ed-1590-42c1-bd35-58362bfc1769"},"vehicle_type_id":"4","last_reported":1730394571,"current_range_meters":7200,"station_id":"ce4bhqp2rcd13ifvqhog","pricing_plan_id":"cebpf4jnsgd1na2vs0mg"},{"bike_id":"f5e448d2-b38d-476c-8f9e-b4d694f3494f","system_id":"levelo_inurba_marseille","lat":43.2997,"lon":5.37175,"is_reserved":false,"is_disabled":false,"rental_uris":{"android":"levelo://app?vid=f5e448d2-b38d-476c-8f9e-b4d694f3494f","ios":"levelo://app?vid=f5e448d2-b38d-476c-8f9e-b4d694f3494f"},"vehicle_type_id":"4","last_reported":1730394571,"current_range_meters":7200,"station_id":"ce4bgr92rcd13ifvqc7g","pricing_plan_id":"cebpf4jnsgd1na2vs0mg"},{"bike_id":"f0197f11-3ef5-446c-ab6c-cc41543c091a","system_id":"levelo_inurba_marseille","lat":43.31695,"lon":5.40478,"is_reserved":false,"is_disabled":false,"rental_uris":{"android":"levelo://app?vid=f0197f11-3ef5-446c-ab6c-cc41543c091a","ios":"levelo://app?vid=f0197f11-3ef5-446c-ab6c-cc41543c091a"},"vehicle_type_id":"4","last_reported":1730394571,"current_range_meters":27600,"station_id":"ce4bh012rcd13ifvqd00","pricing_plan_id":"cebpf4jnsgd1na2vs0mg"},{"bike_id":"c8ab7025-13d3-43d0-bf0d-b956f878ea6d","system_id":"levelo_inurba_marseille","lat":43.28468,"lon":5.38419,"is_reserved":false,"is_disabled":false,"rental_uris":{"android":"levelo://app?vid=c8ab7025-13d3-43d0-bf0d-b956f878ea6d","ios":"levelo://app?vid=c8ab7025-13d3-43d0-bf0d-b956f878ea6d"},"vehicle_type_id":"4","last_reported":1730394571,"current_range_meters":32800,"station_id":"ce4bh512rcd13ifvqe3g","pricing_plan_id":"cebpf4jnsgd1na2vs0mg"},{"bike_id":"8d4de749-926e-4a4f-a8ee-a5edf0a03ecc","system_id":"levelo_inurba_marseille","lat":43.25006,"lon":5.38932,"is_reserved":false,"is_disabled":false,"rental_uris":{"android":"levelo://app?vid=8d4de749-926e-4a4f-a8ee-a5edf0a03ecc","ios":"levelo://app?vid=8d4de749-926e-4a4f-a8ee-a5edf0a03ecc"},"vehicle_type_id":"4","last_reported":1730394571,"current_range_meters":4000,"station_id":"ce4bhgp2rcd13ifvqfd0","pricing_plan_id":"cebpf4jnsgd1na2vs0mg"},{"bike_id":"0b8fb182-81fc-48d5-a320-2bd242434c87","system_id":"levelo_inurba_marseille","lat":43.29203,"lon":5.35813,"is_reserved":false,"is_disabled":false,"rental_uris":{"android":"levelo://app?vid=0b8fb182-81fc-48d5-a320-2bd242434c87","ios":"levelo://app?vid=0b8fb182-81fc-48d5-a320-2bd242434c87"},"vehicle_type_id":"4","last_reported":1730394571,"current_range_meters":19200,"station_id":"ce4bhb12rcd13ifvqel0","pricing_plan_id":"cebpf4jnsgd1na2vs0mg"},{"bike_id":"000a2711-60e8-4a72-9191-621224c3143b","system_id":"levelo_inurba_marseille","lat":43.30836,"lon":5.3965,"is_reserved":false,"is_disabled":false,"rental_uris":{"android":"levelo://app?vid=000a2711-60e8-4a72-9191-621224c3143b","ios":"levelo://app?vid=000a2711-60e8-4a72-9191-621224c3143b"},"vehicle_type_id":"4","last_reported":1730394571,"current_range_meters":36800,"station_id":"ce4bh012rcd13ifvqcv0","pricing_plan_id":"cebpf4jnsgd1na2vs0mg"},{"bike_id":"fde65b28-1ff5-486b-95fb-97e1f9d67af9","system_id":"levelo_inurba_marseille","lat":43.32374,"lon":5.38875,"is_reserved":false,"is_disabled":false,"rental_uris":{"android":"levelo://app?vid=fde65b28-1ff5-486b-95fb-97e1f9d67af9","ios":"levelo://app?vid=fde65b28-1ff5-486b-95fb-97e1f9d67af9"},"vehicle_type_id":"4","last_reported":1730394571,"current_range_meters":22000,"station_id":"ce4bhqp2rcd13ifvqhog","pricing_plan_id":"cebpf4jnsgd1na2vs0mg"},{"bike_id":"6214cad1-68ed-469e-9ddb-c863bfc4ae55","system_id":"levelo_inurba_marseille","lat":43.28936,"lon":5.36402,"is_reserved":false,"is_disabled":false,"rental_uris":{"android":"levelo://app?vid=6214cad1-68ed-469e-9ddb-c863bfc4ae55","ios":"levelo://app?vid=6214cad1-68ed-469e-9ddb-c863bfc4ae55"},"vehicle_type_id":"4","last_reported":1730394571,"current_range_meters":10000,"station_id":"ce4bhc92rcd13ifvqetg","pricing_plan_id":"cebpf4jnsgd1na2vs0mg"},{"bike_id":"8f55f6cc-0b54-4d5f-9029-aa15dfd6d9b0","system_id":"levelo_inurba_marseille","lat":43.32662,"lon":5.40996,"is_reserved":false,"is_disabled":false,"rental_uris":{"android":"levelo://app?vid=8f55f6cc-0b54-4d5f-9029-aa15dfd6d9b0","ios":"levelo://app?vid=8f55f6cc-0b54-4d5f-9029-aa15dfd6d9b0"},"vehicle_type_id":"4","last_reported":1730394571,"current_range_meters":16800,"station_id":"ce4bhpp2rcd13ifvqhgg","pricing_plan_id":"cebpf4jnsgd1na2vs0mg"},{"bike_id":"1c16d6d3-6a16-4039-9339-a5ee09eb69da","system_id":"levelo_inurba_marseille","lat":43.31713,"lon":5.40463,"is_reserved":false,"is_disabled":false,"rental_uris":{"android":"levelo://app?vid=1c16d6d3-6a16-4039-9339-a5ee09eb69da","ios":"levelo://app?vid=1c16d6d3-6a16-4039-9339-a5ee09eb69da"},"vehicle_type_id":"4","last_reported":1730394571,"current_range_meters":20000,"station_id":"ce4bh012rcd13ifvqd00","pricing_plan_id":"cebpf4jnsgd1na2vs0mg"},{"bike_id":"5ff74640-5d39-40f8-808a-e5695df59fd4","system_id":"levelo_inurba_marseille","lat":43.27218,"lon":5.41026,"is_reserved":false,"is_disabled":false,"rental_uris":{"android":"levelo://app?vid=5ff74640-5d39-40f8-808a-e5695df59fd4","ios":"levelo://app?vid=5ff74640-5d39-40f8-808a-e5695df59fd4"},"vehicle_type_id":"4","last_reported":1730394571,"current_range_meters":6800,"station_id":"","pricing_plan_id":"cebpf4jnsgd1na2vs0mg"},{"bike_id":"7f84b0c8-abff-4720-adab-24ed3cf5a1d7","system_id":"levelo_inurba_marseille","lat":43.29187,"lon":5.35802,"is_reserved":false,"is_disabled":false,"rental_uris":{"android":"levelo://app?vid=7f84b0c8-abff-4720-adab-24ed3cf5a1d7","ios":"levelo://app?vid=7f84b0c8-abff-4720-adab-24ed3cf5a1d7"},"vehicle_type_id":"4","last_reported":1730394571,"current_range_meters":38800,"station_id":"ce4bhb12rcd13ifvqel0","pricing_plan_id":"cebpf4jnsgd1na2vs0mg"},{"bike_id":"3cbe9eaf-e8f3-4414-bdfb-6e8a6b6b9d84","system_id":"levelo_inurba_marseille","lat":43.32661,"lon":5.4099,"is_reserved":false,"is_disabled":false,"rental_uris":{"android":"levelo://app?vid=3cbe9eaf-e8f3-4414-bdfb-6e8a6b6b9d84","ios":"levelo://app?vid=3cbe9eaf-e8f3-4414-bdfb-6e8a6b6b9d84"},"vehicle_type_id":"4","last_reported":1730394571,"current_range_meters":4400,"station_id":"ce4bhpp2rcd13ifvqhgg","pricing_plan_id":"cebpf4jnsgd1na2vs0mg"},{"bike_id":"0296054d-a061-4846-9c9e-374be7c146bf","system_id":"levelo_inurba_marseille","lat":43.29008,"lon":5.35617,"is_reserved":false,"is_disabled":false,"rental_uris":{"android":"levelo://app?vid=0296054d-a061-4846-9c9e-374be7c146bf","ios":"levelo://app?vid=0296054d-a061-4846-9c9e-374be7c146bf"},"vehicle_type_id":"4","last_reported":1730394571,"current_range_meters":8400,"station_id":"ce4bhb92rcd13ifvqen0","pricing_plan_id":"cebpf4jnsgd1na2vs0mg"},{"bike_id":"f9e08035-530b-49dc-b92e-671a5b6ece95","system_id":"levelo_inurba_marseille","lat":43.292,"lon":5.39329,"is_reserved":false,"is_disabled":false,"rental_uris":{"android":"levelo://app?vid=f9e08035-530b-49dc-b92e-671a5b6ece95","ios":"levelo://app?vid=f9e08035-530b-49dc-b92e-671a5b6ece95"},"vehicle_type_id":"4","last_reported":1730394571,"current_range_meters":23200,"station_id":"ce4bh192rcd13ifvqdd0","pricing_plan_id":"cebpf4jnsgd1na2vs0mg"},{"bike_id":"a49238fb-3504-4a73-8b4d-2e97af8c1023","system_id":"levelo_inurba_marseille","lat":43.26213,"lon":5.37442,"is_reserved":false,"is_disabled":false,"rental_uris":{"android":"levelo://app?vid=a49238fb-3504-4a73-8b4d-2e97af8c1023","ios":"levelo://app?vid=a49238fb-3504-4a73-8b4d-2e97af8c1023"},"vehicle_type_id":"4","last_reported":1730394571,"current_range_meters":20400,"station_id":"ce4bhgp2rcd13ifvqfc0","pricing_plan_id":"cebpf4jnsgd1na2vs0mg"},{"bike_id":"ec6b9073-f040-4b5d-9196-6ef1515ae5be","system_id":"levelo_inurba_marseille","lat":43.32006,"lon":5.38157,"is_reserved":false,"is_disabled":false,"rental_uris":{"android":"levelo://app?vid=ec6b9073-f040-4b5d-9196-6ef1515ae5be","ios":"levelo://app?vid=ec6b9073-f040-4b5d-9196-6ef1515ae5be"},"vehicle_type_id":"4","last_reported":1730394571,"current_range_meters":17600,"station_id":"ce4bhr12rcd13ifvqhpg","pricing_plan_id":"cebpf4jnsgd1na2vs0mg"},{"bike_id":"8088647d-67a4-4210-bd98-9588fe1a9e53","system_id":"levelo_inurba_marseille","lat":43.24995,"lon":5.38934,"is_reserved":false,"is_disabled":false,"rental_uris":{"android":"levelo://app?vid=8088647d-67a4-4210-bd98-9588fe1a9e53","ios":"levelo://app?vid=8088647d-67a4-4210-bd98-9588fe1a9e53"},"vehicle_type_id":"4","last_reported":1730394571,"current_range_meters":32000,"station_id":"ce4bhgp2rcd13ifvqfd0","pricing_plan_id":"cebpf4jnsgd1na2vs0mg"},{"bike_id":"72b7c5e3-9e0e-4e66-9907-5879d51b5851","system_id":"levelo_inurba_marseille","lat":43.26555,"lon":5.37284,"is_reserved":false,"is_disabled":false,"rental_uris":{"android":"levelo://app?vid=72b7c5e3-9e0e-4e66-9907-5879d51b5851","ios":"levelo://app?vid=72b7c5e3-9e0e-4e66-9907-5879d51b5851"},"vehicle_type_id":"4","last_reported":1730394571,"current_range_meters":24400,"station_id":"ce4bhg12rcd13ifvqf70","pricing_plan_id":"cebpf4jnsgd1na2vs0mg"},{"bike_id":"5b1beb29-08c3-4517-96e1-89c4b727e0c3","system_id":"levelo_inurba_marseille","lat":43.23197,"lon":5.35554,"is_reserved":false,"is_disabled":false,"rental_uris":{"android":"levelo://app?vid=5b1beb29-08c3-4517-96e1-89c4b727e0c3","ios":"levelo://app?vid=5b1beb29-08c3-4517-96e1-89c4b727e0c3"},"vehicle_type_id":"4","last_reported":1730394571,"current_range_meters":34000,"station_id":"ce4bhu92rcd13ifvqi70","pricing_plan_id":"cebpf4jnsgd1na2vs0mg"},{"bike_id":"22e5e5c1-6dbf-40f4-b818-a64e5c930397","system_id":"levelo_inurba_marseille","lat":43.23963,"lon":5.3664,"is_reserved":false,"is_disabled":false,"rental_uris":{"android":"levelo://app?vid=22e5e5c1-6dbf-40f4-b818-a64e5c930397","ios":"levelo://app?vid=22e5e5c1-6dbf-40f4-b818-a64e5c930397"},"vehicle_type_id":"4","last_reported":1730394571,"current_range_meters":29600,"station_id":"ce4bhi12rcd13ifvqfp0","pricing_plan_id":"cebpf4jnsgd1na2vs0mg"},{"bike_id":"678bd49d-4e97-464a-9d6b-ff8f1a094f5f","system_id":"levelo_inurba_marseille","lat":43.290922,"lon":5.355792,"is_reserved":false,"is_disabled":false,"rental_uris":{"android":"levelo://app?vid=678bd49d-4e97-464a-9d6b-ff8f1a094f5f","ios":"levelo://app?vid=678bd49d-4e97-464a-9d6b-ff8f1a094f5f"},"vehicle_type_id":"4","last_reported":1730394571,"current_range_meters":23200,"station_id":"ce4bh4p2rcd13ifvqe0g","pricing_plan_id":"cebpf4jnsgd1na2vs0mg"},{"bike_id":"f99547b6-e0b7-4a86-b4bb-f600f8ca5cb2","system_id":"levelo_inurba_marseille","lat":43.24168,"lon":5.36401,"is_reserved":false,"is_disabled":false,"rental_uris":{"android":"levelo://app?vid=f99547b6-e0b7-4a86-b4bb-f600f8ca5cb2","ios":"levelo://app?vid=f99547b6-e0b7-4a86-b4bb-f600f8ca5cb2"},"vehicle_type_id":"4","last_reported":1730394571,"current_range_meters":10000,"station_id":"cpo36qri1sfpv3e86is0","pricing_plan_id":"cebpf4jnsgd1na2vs0mg"},{"bike_id":"d24a84ff-a6f2-46c4-9081-c8b941261ed6","system_id":"levelo_inurba_marseille","lat":43.28422,"lon":5.37514,"is_reserved":false,"is_disabled":false,"rental_uris":{"android":"levelo://app?vid=d24a84ff-a6f2-46c4-9081-c8b941261ed6","ios":"levelo://app?vid=d24a84ff-a6f2-46c4-9081-c8b941261ed6"},"vehicle_type_id":"4","last_reported":1730394571,"current_range_meters":18800,"station_id":"ce4bh412rcd13ifvqds0","pricing_plan_id":"cebpf4jnsgd1na2vs0mg"},{"bike_id":"7869b7eb-e3ac-43ab-bdea-20f3c9927033","system_id":"levelo_inurba_marseille","lat":43.31703,"lon":5.40476,"is_reserved":false,"is_disabled":false,"rental_uris":{"android":"levelo://app?vid=7869b7eb-e3ac-43ab-bdea-20f3c9927033","ios":"levelo://app?vid=7869b7eb-e3ac-43ab-bdea-20f3c9927033"},"vehicle_type_id":"4","last_reported":1730394571,"current_range_meters":28800,"station_id":"ce4bh012rcd13ifvqd00","pricing_plan_id":"cebpf4jnsgd1na2vs0mg"},{"bike_id":"46d82059-436f-4ff9-ba54-fc3ecd0fe84f","system_id":"levelo_inurba_marseille","lat":43.299792,"lon":5.371854,"is_reserved":false,"is_disabled":false,"rental_uris":{"android":"levelo://app?vid=46d82059-436f-4ff9-ba54-fc3ecd0fe84f","ios":"levelo://app?vid=46d82059-436f-4ff9-ba54-fc3ecd0fe84f"},"vehicle_type_id":"4","last_reported":1730394571,"current_range_meters":30800,"station_id":"ce4bgr92rcd13ifvqc7g","pricing_plan_id":"cebpf4jnsgd1na2vs0mg"},{"bike_id":"794d23c0-def7-4557-a69a-112ea268f585","system_id":"levelo_inurba_marseille","lat":43.232,"lon":5.35555,"is_reserved":false,"is_disabled":false,"rental_uris":{"android":"levelo://app?vid=794d23c0-def7-4557-a69a-112ea268f585","ios":"levelo://app?vid=794d23c0-def7-4557-a69a-112ea268f585"},"vehicle_type_id":"4","last_reported":1730394571,"current_range_meters":26000,"station_id":"ce4bhu92rcd13ifvqi70","pricing_plan_id":"cebpf4jnsgd1na2vs0mg"},{"bike_id":"e7b3876e-0692-4eb0-b28b-e396c7d0c567","system_id":"levelo_inurba_marseille","lat":43.29104,"lon":5.38139,"is_reserved":false,"is_disabled":false,"rental_uris":{"android":"levelo://app?vid=e7b3876e-0692-4eb0-b28b-e396c7d0c567","ios":"levelo://app?vid=e7b3876e-0692-4eb0-b28b-e396c7d0c567"},"vehicle_type_id":"4","last_reported":1730394571,"current_range_meters":38000,"station_id":"ce4bh512rcd13ifvqe2g","pricing_plan_id":"cebpf4jnsgd1na2vs0mg"},{"bike_id":"1205d633-4986-4c67-9432-2d423a89c40d","system_id":"levelo_inurba_marseille","lat":43.27181,"lon":5.40992,"is_reserved":false,"is_disabled":false,"rental_uris":{"android":"levelo://app?vid=1205d633-4986-4c67-9432-2d423a89c40d","ios":"levelo://app?vid=1205d633-4986-4c67-9432-2d423a89c40d"},"vehicle_type_id":"4","last_reported":1730394571,"current_range_meters":33200,"station_id":"ce4bhl12rcd13ifvqgf0","pricing_plan_id":"cebpf4jnsgd1na2vs0mg"},{"bike_id":"8a626e11-1d1a-4fb6-8bd8-292044211e8a","system_id":"levelo_inurba_marseille","lat":43.300293,"lon":5.388861,"is_reserved":false,"is_disabled":false,"rental_uris":{"android":"levelo://app?vid=8a626e11-1d1a-4fb6-8bd8-292044211e8a","ios":"levelo://app?vid=8a626e11-1d1a-4fb6-8bd8-292044211e8a"},"vehicle_type_id":"4","last_reported":1730394571,"current_range_meters":38400,"station_id":"ce4bhih2rcd13ifvqfr0","pricing_plan_id":"cebpf4jnsgd1na2vs0mg"},{"bike_id":"4714ada8-93a5-4108-ae0d-b8d49c924193","system_id":"levelo_inurba_marseille","lat":43.24178,"lon":5.39729,"is_reserved":false,"is_disabled":false,"rental_uris":{"android":"levelo://app?vid=4714ada8-93a5-4108-ae0d-b8d49c924193","ios":"levelo://app?vid=4714ada8-93a5-4108-ae0d-b8d49c924193"},"vehicle_type_id":"4","last_reported":1730394571,"current_range_meters":2000,"station_id":"ce4bhn12rcd13ifvqgpg","pricing_plan_id":"cebpf4jnsgd1na2vs0mg"},{"bike_id":"a6f4917c-e847-4a6c-81d5-32412b501f15","system_id":"levelo_inurba_marseille","lat":43.2903,"lon":5.38651,"is_reserved":false,"is_disabled":false,"rental_uris":{"android":"levelo://app?vid=a6f4917c-e847-4a6c-81d5-32412b501f15","ios":"levelo://app?vid=a6f4917c-e847-4a6c-81d5-32412b501f15"},"vehicle_type_id":"4","last_reported":1730394571,"current_range_meters":32000,"station_id":"ce4bh4p2rcd13ifvqe0g","pricing_plan_id":"cebpf4jnsgd1na2vs0mg"},{"bike_id":"d69b2cc0-43c2-419c-b764-4afde8aa321b","system_id":"levelo_inurba_marseille","lat":43.29436,"lon":5.39755,"is_reserved":false,"is_disabled":false,"rental_uris":{"android":"levelo://app?vid=d69b2cc0-43c2-419c-b764-4afde8aa321b","ios":"levelo://app?vid=d69b2cc0-43c2-419c-b764-4afde8aa321b"},"vehicle_type_id":"4","last_reported":1730394571,"current_range_meters":21600,"station_id":"ce4bh3h2rcd13ifvqdo0","pricing_plan_id":"cebpf4jnsgd1na2vs0mg"},{"bike_id":"4251e4c3-14d6-4ccb-81bd-99eb2f995194","system_id":"levelo_inurba_marseille","lat":43.28485,"lon":5.3842,"is_reserved":false,"is_disabled":false,"rental_uris":{"android":"levelo://app?vid=4251e4c3-14d6-4ccb-81bd-99eb2f995194","ios":"levelo://app?vid=4251e4c3-14d6-4ccb-81bd-99eb2f995194"},"vehicle_type_id":"4","last_reported":1730394571,"current_range_meters":24400,"station_id":"ce4bh512rcd13ifvqe3g","pricing_plan_id":"cebpf4jnsgd1na2vs0mg"},{"bike_id":"ad17c3bf-0054-4535-8249-d80eec5a42eb","system_id":"levelo_inurba_marseille","lat":43.29635,"lon":5.37748,"is_reserved":false,"is_disabled":false,"rental_uris":{"android":"levelo://app?vid=ad17c3bf-0054-4535-8249-d80eec5a42eb","ios":"levelo://app?vid=ad17c3bf-0054-4535-8249-d80eec5a42eb"},"vehicle_type_id":"4","last_reported":1730394571,"current_range_meters":36000,"station_id":"ce4bgi92rcd13ifvqb90","pricing_plan_id":"cebpf4jnsgd1na2vs0mg"},{"bike_id":"30cd3637-5231-4451-8b17-3902824e2d98","system_id":"levelo_inurba_marseille","lat":43.31435,"lon":5.393,"is_reserved":false,"is_disabled":false,"rental_uris":{"android":"levelo://app?vid=30cd3637-5231-4451-8b17-3902824e2d98","ios":"levelo://app?vid=30cd3637-5231-4451-8b17-3902824e2d98"},"vehicle_type_id":"4","last_reported":1730394571,"current_range_meters":22000,"station_id":"","pricing_plan_id":"cebpf4jnsgd1na2vs0mg"},{"bike_id":"a29cc5c9-447c-4779-885a-284261698515","system_id":"levelo_inurba_marseille","lat":43.258369,"lon":5.394435,"is_reserved":false,"is_disabled":false,"rental_uris":{"android":"levelo://app?vid=a29cc5c9-447c-4779-885a-284261698515","ios":"levelo://app?vid=a29cc5c9-447c-4779-885a-284261698515"},"vehicle_type_id":"4","last_reported":1730394571,"current_range_meters":7200,"station_id":"ce4bhip2rcd13ifvqft0","pricing_plan_id":"cebpf4jnsgd1na2vs0mg"},{"bike_id":"34d3d109-fa5f-42d7-ac88-59ff2afb63b9","system_id":"levelo_inurba_marseille","lat":43.33012,"lon":5.39016,"is_reserved":false,"is_disabled":false,"rental_uris":{"android":"levelo://app?vid=34d3d109-fa5f-42d7-ac88-59ff2afb63b9","ios":"levelo://app?vid=34d3d109-fa5f-42d7-ac88-59ff2afb63b9"},"vehicle_type_id":"4","last_reported":1730394571,"current_range_meters":38800,"station_id":"ce4bhr92rcd13ifvqhrg","pricing_plan_id":"cebpf4jnsgd1na2vs0mg"},{"bike_id":"d7f1b36e-944e-4532-8836-45465937e529","system_id":"levelo_inurba_marseille","lat":43.29522,"lon":5.39405,"is_reserved":false,"is_disabled":false,"rental_uris":{"android":"levelo://app?vid=d7f1b36e-944e-4532-8836-45465937e529","ios":"levelo://app?vid=d7f1b36e-944e-4532-8836-45465937e529"},"vehicle_type_id":"4","last_reported":1730394571,"current_range_meters":35600,"station_id":"ce4bh292rcd13ifvqdf0","pricing_plan_id":"cebpf4jnsgd1na2vs0mg"},{"bike_id":"55e8dde2-617e-4c29-bde2-a7deb8339727","system_id":"levelo_inurba_marseille","lat":43.30208,"lon":5.39475,"is_reserved":false,"is_disabled":false,"rental_uris":{"android":"levelo://app?vid=55e8dde2-617e-4c29-bde2-a7deb8339727","ios":"levelo://app?vid=55e8dde2-617e-4c29-bde2-a7deb8339727"},"vehicle_type_id":"4","last_reported":1730394571,"current_range_meters":38400,"station_id":"ce4bh0p2rcd13ifvqd70","pricing_plan_id":"cebpf4jnsgd1na2vs0mg"},{"bike_id":"e79c541d-cf8d-4c36-99ad-53183172d044","system_id":"levelo_inurba_marseille","lat":43.3012,"lon":5.39834,"is_reserved":false,"is_disabled":false,"rental_uris":{"android":"levelo://app?vid=e79c541d-cf8d-4c36-99ad-53183172d044","ios":"levelo://app?vid=e79c541d-cf8d-4c36-99ad-53183172d044"},"vehicle_type_id":"4","last_reported":1730394571,"current_range_meters":38800,"station_id":"ce4bh0h2rcd13ifvqd40","pricing_plan_id":"cebpf4jnsgd1na2vs0mg"},{"bike_id":"a901f3d9-9b0e-459f-b5a4-2db83c366dc2","system_id":"levelo_inurba_marseille","lat":43.29517,"lon":5.37511,"is_reserved":false,"is_disabled":false,"rental_uris":{"android":"levelo://app?vid=a901f3d9-9b0e-459f-b5a4-2db83c366dc2","ios":"levelo://app?vid=a901f3d9-9b0e-459f-b5a4-2db83c366dc2"},"vehicle_type_id":"4","last_reported":1730394571,"current_range_meters":34000,"station_id":"ce4bgkp2rcd13ifvqbmg","pricing_plan_id":"cebpf4jnsgd1na2vs0mg"},{"bike_id":"d99b04c7-306b-4999-a9df-a06f1987f0d5","system_id":"levelo_inurba_marseille","lat":43.309448,"lon":5.373843,"is_reserved":false,"is_disabled":false,"rental_uris":{"android":"levelo://app?vid=d99b04c7-306b-4999-a9df-a06f1987f0d5","ios":"levelo://app?vid=d99b04c7-306b-4999-a9df-a06f1987f0d5"},"vehicle_type_id":"4","last_reported":1730394571,"current_range_meters":4400,"station_id":"ce4bgl92rcd13ifvqbq0","pricing_plan_id":"cebpf4jnsgd1na2vs0mg"},{"bike_id":"8e63b503-778b-42f4-ae04-a1cee9c5ac08","system_id":"levelo_inurba_marseille","lat":43.29422,"lon":5.38635,"is_reserved":false,"is_disabled":false,"rental_uris":{"android":"levelo://app?vid=8e63b503-778b-42f4-ae04-a1cee9c5ac08","ios":"levelo://app?vid=8e63b503-778b-42f4-ae04-a1cee9c5ac08"},"vehicle_type_id":"4","last_reported":1730394571,"current_range_meters":24800,"station_id":"ce4bh2h2rcd13ifvqdh0","pricing_plan_id":"cebpf4jnsgd1na2vs0mg"},{"bike_id":"248516bd-2643-4a5e-8034-b8a7ad58221d","system_id":"levelo_inurba_marseille","lat":43.25576,"lon":5.38232,"is_reserved":false,"is_disabled":false,"rental_uris":{"android":"levelo://app?vid=248516bd-2643-4a5e-8034-b8a7ad58221d","ios":"levelo://app?vid=248516bd-2643-4a5e-8034-b8a7ad58221d"},"vehicle_type_id":"4","last_reported":1730394571,"current_range_meters":38800,"station_id":"ce4bhih2rcd13ifvqfs0","pricing_plan_id":"cebpf4jnsgd1na2vs0mg"},{"bike_id":"6f093907-a129-41fb-8e46-dfb42e1813d7","system_id":"levelo_inurba_marseille","lat":43.31688,"lon":5.40475,"is_reserved":false,"is_disabled":false,"rental_uris":{"android":"levelo://app?vid=6f093907-a129-41fb-8e46-dfb42e1813d7","ios":"levelo://app?vid=6f093907-a129-41fb-8e46-dfb42e1813d7"},"vehicle_type_id":"4","last_reported":1730394571,"current_range_meters":28800,"station_id":"ce4bh012rcd13ifvqd00","pricing_plan_id":"cebpf4jnsgd1na2vs0mg"},{"bike_id":"426b80e2-ebed-4188-8450-b6cbf3ebf993","system_id":"levelo_inurba_marseille","lat":43.29793,"lon":5.3809,"is_reserved":false,"is_disabled":false,"rental_uris":{"android":"levelo://app?vid=426b80e2-ebed-4188-8450-b6cbf3ebf993","ios":"levelo://app?vid=426b80e2-ebed-4188-8450-b6cbf3ebf993"},"vehicle_type_id":"4","last_reported":1730394571,"current_range_meters":21600,"station_id":"ce4bgip2rcd13ifvqbb0","pricing_plan_id":"cebpf4jnsgd1na2vs0mg"},{"bike_id":"457d9417-7080-4ab8-a75e-8f26b552f257","system_id":"levelo_inurba_marseille","lat":43.32483,"lon":5.36581,"is_reserved":false,"is_disabled":false,"rental_uris":{"android":"levelo://app?vid=457d9417-7080-4ab8-a75e-8f26b552f257","ios":"levelo://app?vid=457d9417-7080-4ab8-a75e-8f26b552f257"},"vehicle_type_id":"4","last_reported":1730394571,"current_range_meters":38800,"station_id":"ce4bhs12rcd13ifvqhvg","pricing_plan_id":"cebpf4jnsgd1na2vs0mg"},{"bike_id":"1f9f3d62-d6b8-42ae-a1d5-0905e398dcba","system_id":"levelo_inurba_marseille","lat":43.28674,"lon":5.3636,"is_reserved":false,"is_disabled":false,"rental_uris":{"android":"levelo://app?vid=1f9f3d62-d6b8-42ae-a1d5-0905e398dcba","ios":"levelo://app?vid=1f9f3d62-d6b8-42ae-a1d5-0905e398dcba"},"vehicle_type_id":"4","last_reported":1730394571,"current_range_meters":6800,"station_id":"ce4bhah2rcd13ifvqej0","pricing_plan_id":"cebpf4jnsgd1na2vs0mg"},{"bike_id":"c8eb3d89-60fc-4498-bdf3-d5341c1c0373","system_id":"levelo_inurba_marseille","lat":43.28157,"lon":5.4265,"is_reserved":false,"is_disabled":false,"rental_uris":{"android":"levelo://app?vid=c8eb3d89-60fc-4498-bdf3-d5341c1c0373","ios":"levelo://app?vid=c8eb3d89-60fc-4498-bdf3-d5341c1c0373"},"vehicle_type_id":"4","last_reported":1730394571,"current_range_meters":8000,"station_id":"ce4bhnh2rcd13ifvqgug","pricing_plan_id":"cebpf4jnsgd1na2vs0mg"},{"bike_id":"94279a57-03c0-47b7-abe3-7226e86fd3b0","system_id":"levelo_inurba_marseille","lat":43.27615,"lon":5.36116,"is_reserved":false,"is_disabled":false,"rental_uris":{"android":"levelo://app?vid=94279a57-03c0-47b7-abe3-7226e86fd3b0","ios":"levelo://app?vid=94279a57-03c0-47b7-abe3-7226e86fd3b0"},"vehicle_type_id":"4","last_reported":1730394571,"current_range_meters":28800,"station_id":"ce4bgj92rcd13ifvqbe0","pricing_plan_id":"cebpf4jnsgd1na2vs0mg"},{"bike_id":"548b1938-665b-4062-a80e-af9019d7c253","system_id":"levelo_inurba_marseille","lat":43.30251,"lon":5.40073,"is_reserved":false,"is_disabled":false,"rental_uris":{"android":"levelo://app?vid=548b1938-665b-4062-a80e-af9019d7c253","ios":"levelo://app?vid=548b1938-665b-4062-a80e-af9019d7c253"},"vehicle_type_id":"4","last_reported":1730394571,"current_range_meters":38800,"station_id":"","pricing_plan_id":"cebpf4jnsgd1na2vs0mg"},{"bike_id":"9e9467dc-08bd-4540-a622-7c942da68b8d","system_id":"levelo_inurba_marseille","lat":43.25578,"lon":5.38228,"is_reserved":false,"is_disabled":false,"rental_uris":{"android":"levelo://app?vid=9e9467dc-08bd-4540-a622-7c942da68b8d","ios":"levelo://app?vid=9e9467dc-08bd-4540-a622-7c942da68b8d"},"vehicle_type_id":"4","last_reported":1730394571,"current_range_meters":3200,"station_id":"ce4bhih2rcd13ifvqfs0","pricing_plan_id":"cebpf4jnsgd1na2vs0mg"},{"bike_id":"784cdc61-f3a2-4ae3-b4c2-cd5e52915dda","system_id":"levelo_inurba_marseille","lat":43.31722,"lon":5.37785,"is_reserved":false,"is_disabled":false,"rental_uris":{"android":"levelo://app?vid=784cdc61-f3a2-4ae3-b4c2-cd5e52915dda","ios":"levelo://app?vid=784cdc61-f3a2-4ae3-b4c2-cd5e52915dda"},"vehicle_type_id":"4","last_reported":1730394571,"current_range_meters":32800,"station_id":"ce4bgth2rcd13ifvqch0","pricing_plan_id":"cebpf4jnsgd1na2vs0mg"},{"bike_id":"e17b1ce5-0d94-43ef-8d4f-8b37f6cd19ce","system_id":"levelo_inurba_marseille","lat":43.28418,"lon":5.37513,"is_reserved":false,"is_disabled":false,"rental_uris":{"android":"levelo://app?vid=e17b1ce5-0d94-43ef-8d4f-8b37f6cd19ce","ios":"levelo://app?vid=e17b1ce5-0d94-43ef-8d4f-8b37f6cd19ce"},"vehicle_type_id":"4","last_reported":1730394571,"current_range_meters":28400,"station_id":"ce4bh412rcd13ifvqds0","pricing_plan_id":"cebpf4jnsgd1na2vs0mg"},{"bike_id":"725853ba-4024-4e08-a87a-e308592b02a8","system_id":"levelo_inurba_marseille","lat":43.28107,"lon":5.378441,"is_reserved":false,"is_disabled":false,"rental_uris":{"android":"levelo://app?vid=725853ba-4024-4e08-a87a-e308592b02a8","ios":"levelo://app?vid=725853ba-4024-4e08-a87a-e308592b02a8"},"vehicle_type_id":"4","last_reported":1730394571,"current_range_meters":35200,"station_id":"ce4bha12rcd13ifvqee0","pricing_plan_id":"cebpf4jnsgd1na2vs0mg"},{"bike_id":"38bf3e5a-1c82-4284-85cc-ceb536051c39","system_id":"levelo_inurba_marseille","lat":43.29593,"lon":5.381033,"is_reserved":false,"is_disabled":false,"rental_uris":{"android":"levelo://app?vid=38bf3e5a-1c82-4284-85cc-ceb536051c39","ios":"levelo://app?vid=38bf3e5a-1c82-4284-85cc-ceb536051c39"},"vehicle_type_id":"4","last_reported":1730394571,"current_range_meters":24400,"station_id":"ce4bgl12rcd13ifvqbo0","pricing_plan_id":"cebpf4jnsgd1na2vs0mg"},{"bike_id":"d9b81e60-ebcc-476a-abde-9ca28f92971f","system_id":"levelo_inurba_marseille","lat":43.29099,"lon":5.38134,"is_reserved":false,"is_disabled":false,"rental_uris":{"android":"levelo://app?vid=d9b81e60-ebcc-476a-abde-9ca28f92971f","ios":"levelo://app?vid=d9b81e60-ebcc-476a-abde-9ca28f92971f"},"vehicle_type_id":"4","last_reported":1730394571,"current_range_meters":32000,"station_id":"ce4bh512rcd13ifvqe2g","pricing_plan_id":"cebpf4jnsgd1na2vs0mg"},{"bike_id":"8fdebf7d-8b6f-4fba-8220-7ce4afea7a0d","system_id":"levelo_inurba_marseille","lat":43.30093,"lon":5.3908,"is_reserved":false,"is_disabled":false,"rental_uris":{"android":"levelo://app?vid=8fdebf7d-8b6f-4fba-8220-7ce4afea7a0d","ios":"levelo://app?vid=8fdebf7d-8b6f-4fba-8220-7ce4afea7a0d"},"vehicle_type_id":"4","last_reported":1730394571,"current_range_meters":12800,"station_id":"ce4bh192rcd13ifvqdb0","pricing_plan_id":"cebpf4jnsgd1na2vs0mg"},{"bike_id":"72605634-605b-4466-8ecd-8d629ed8147a","system_id":"levelo_inurba_marseille","lat":43.25106,"lon":5.40328,"is_reserved":false,"is_disabled":false,"rental_uris":{"android":"levelo://app?vid=72605634-605b-4466-8ecd-8d629ed8147a","ios":"levelo://app?vid=72605634-605b-4466-8ecd-8d629ed8147a"},"vehicle_type_id":"4","last_reported":1730394571,"current_range_meters":14800,"station_id":"ce4bhlh2rcd13ifvqgig","pricing_plan_id":"cebpf4jnsgd1na2vs0mg"},{"bike_id":"c2e04192-bb2c-4443-bb2a-b18b9b741d5d","system_id":"levelo_inurba_marseille","lat":43.28408,"lon":5.37519,"is_reserved":false,"is_disabled":false,"rental_uris":{"android":"levelo://app?vid=c2e04192-bb2c-4443-bb2a-b18b9b741d5d","ios":"levelo://app?vid=c2e04192-bb2c-4443-bb2a-b18b9b741d5d"},"vehicle_type_id":"4","last_reported":1730394571,"current_range_meters":29600,"station_id":"ce4bh412rcd13ifvqds0","pricing_plan_id":"cebpf4jnsgd1na2vs0mg"},{"bike_id":"2fd9ca95-840f-4261-84f0-3cf23ccc1dba","system_id":"levelo_inurba_marseille","lat":43.30955,"lon":5.39046,"is_reserved":false,"is_disabled":false,"rental_uris":{"android":"levelo://app?vid=2fd9ca95-840f-4261-84f0-3cf23ccc1dba","ios":"levelo://app?vid=2fd9ca95-840f-4261-84f0-3cf23ccc1dba"},"vehicle_type_id":"4","last_reported":1730394571,"current_range_meters":20400,"station_id":"ce4bgup2rcd13ifvqco0","pricing_plan_id":"cebpf4jnsgd1na2vs0mg"},{"bike_id":"dd7bb330-daba-4a75-922b-12e19e787ed9","system_id":"levelo_inurba_marseille","lat":43.2465,"lon":5.38887,"is_reserved":false,"is_disabled":false,"rental_uris":{"android":"levelo://app?vid=dd7bb330-daba-4a75-922b-12e19e787ed9","ios":"levelo://app?vid=dd7bb330-daba-4a75-922b-12e19e787ed9"},"vehicle_type_id":"4","last_reported":1730394571,"current_range_meters":28000,"station_id":"ce4bhg12rcd13ifvqf60","pricing_plan_id":"cebpf4jnsgd1na2vs0mg"},{"bike_id":"490fd527-1bf3-4b5e-bade-4ad6f58fb7b7","system_id":"levelo_inurba_marseille","lat":43.29431,"lon":5.39754,"is_reserved":false,"is_disabled":false,"rental_uris":{"android":"levelo://app?vid=490fd527-1bf3-4b5e-bade-4ad6f58fb7b7","ios":"levelo://app?vid=490fd527-1bf3-4b5e-bade-4ad6f58fb7b7"},"vehicle_type_id":"4","last_reported":1730394571,"current_range_meters":7200,"station_id":"ce4bh3h2rcd13ifvqdo0","pricing_plan_id":"cebpf4jnsgd1na2vs0mg"},{"bike_id":"e616cc39-94cf-4327-9738-9ea2cb544462","system_id":"levelo_inurba_marseille","lat":43.294404,"lon":5.397443,"is_reserved":false,"is_disabled":false,"rental_uris":{"android":"levelo://app?vid=e616cc39-94cf-4327-9738-9ea2cb544462","ios":"levelo://app?vid=e616cc39-94cf-4327-9738-9ea2cb544462"},"vehicle_type_id":"4","last_reported":1730394571,"current_range_meters":2800,"station_id":"ce4bh3h2rcd13ifvqdo0","pricing_plan_id":"cebpf4jnsgd1na2vs0mg"},{"bike_id":"fea23d88-9bbb-4ffa-af08-7b03ca37348f","system_id":"levelo_inurba_marseille","lat":43.23185,"lon":5.39994,"is_reserved":false,"is_disabled":false,"rental_uris":{"android":"levelo://app?vid=fea23d88-9bbb-4ffa-af08-7b03ca37348f","ios":"levelo://app?vid=fea23d88-9bbb-4ffa-af08-7b03ca37348f"},"vehicle_type_id":"4","last_reported":1730394571,"current_range_meters":25200,"station_id":"ce4bhn12rcd13ifvqgqg","pricing_plan_id":"cebpf4jnsgd1na2vs0mg"},{"bike_id":"4959bb82-b58d-45f8-be4b-f9304405654b","system_id":"levelo_inurba_marseille","lat":43.317,"lon":5.40473,"is_reserved":false,"is_disabled":false,"rental_uris":{"android":"levelo://app?vid=4959bb82-b58d-45f8-be4b-f9304405654b","ios":"levelo://app?vid=4959bb82-b58d-45f8-be4b-f9304405654b"},"vehicle_type_id":"4","last_reported":1730394571,"current_range_meters":34000,"station_id":"ce4bh012rcd13ifvqd00","pricing_plan_id":"cebpf4jnsgd1na2vs0mg"},{"bike_id":"d6f26591-ac73-49b0-81cd-ae655a25d91c","system_id":"levelo_inurba_marseille","lat":43.28411,"lon":5.37515,"is_reserved":false,"is_disabled":false,"rental_uris":{"android":"levelo://app?vid=d6f26591-ac73-49b0-81cd-ae655a25d91c","ios":"levelo://app?vid=d6f26591-ac73-49b0-81cd-ae655a25d91c"},"vehicle_type_id":"4","last_reported":1730394571,"current_range_meters":17600,"station_id":"ce4bh412rcd13ifvqds0","pricing_plan_id":"cebpf4jnsgd1na2vs0mg"},{"bike_id":"160c3125-d109-49e3-a687-ede78b99dea2","system_id":"levelo_inurba_marseille","lat":43.23196,"lon":5.35543,"is_reserved":false,"is_disabled":false,"rental_uris":{"android":"levelo://app?vid=160c3125-d109-49e3-a687-ede78b99dea2","ios":"levelo://app?vid=160c3125-d109-49e3-a687-ede78b99dea2"},"vehicle_type_id":"4","last_reported":1730394571,"current_range_meters":34000,"station_id":"ce4bhu92rcd13ifvqi70","pricing_plan_id":"cebpf4jnsgd1na2vs0mg"},{"bike_id":"d93ceb2b-2576-4335-8e1c-fe39a92d1174","system_id":"levelo_inurba_marseille","lat":43.27185,"lon":5.40995,"is_reserved":false,"is_disabled":false,"rental_uris":{"android":"levelo://app?vid=d93ceb2b-2576-4335-8e1c-fe39a92d1174","ios":"levelo://app?vid=d93ceb2b-2576-4335-8e1c-fe39a92d1174"},"vehicle_type_id":"4","last_reported":1730394571,"current_range_meters":35600,"station_id":"ce4bhl12rcd13ifvqgf0","pricing_plan_id":"cebpf4jnsgd1na2vs0mg"},{"bike_id":"0e4e3928-2494-4810-988f-0ebad1784a66","system_id":"levelo_inurba_marseille","lat":43.28676,"lon":5.3866,"is_reserved":false,"is_disabled":false,"rental_uris":{"android":"levelo://app?vid=0e4e3928-2494-4810-988f-0ebad1784a66","ios":"levelo://app?vid=0e4e3928-2494-4810-988f-0ebad1784a66"},"vehicle_type_id":"4","last_reported":1730394571,"current_range_meters":8800,"station_id":"ce4bh492rcd13ifvqdug","pricing_plan_id":"cebpf4jnsgd1na2vs0mg"},{"bike_id":"601b8f66-23fd-4f0d-9eed-a84664740c4a","system_id":"levelo_inurba_marseille","lat":43.28156,"lon":5.42643,"is_reserved":false,"is_disabled":false,"rental_uris":{"android":"levelo://app?vid=601b8f66-23fd-4f0d-9eed-a84664740c4a","ios":"levelo://app?vid=601b8f66-23fd-4f0d-9eed-a84664740c4a"},"vehicle_type_id":"4","last_reported":1730394571,"current_range_meters":8800,"station_id":"ce4bhnh2rcd13ifvqgug","pricing_plan_id":"cebpf4jnsgd1na2vs0mg"},{"bike_id":"96e538a6-845b-4f3d-a5c6-daffb75bdd96","system_id":"levelo_inurba_marseille","lat":43.32374,"lon":5.38882,"is_reserved":false,"is_disabled":false,"rental_uris":{"android":"levelo://app?vid=96e538a6-845b-4f3d-a5c6-daffb75bdd96","ios":"levelo://app?vid=96e538a6-845b-4f3d-a5c6-daffb75bdd96"},"vehicle_type_id":"4","last_reported":1730394571,"current_range_meters":23200,"station_id":"ce4bhqp2rcd13ifvqhog","pricing_plan_id":"cebpf4jnsgd1na2vs0mg"},{"bike_id":"71d10f41-2ffe-4394-bc10-bfa4bb58be1e","system_id":"levelo_inurba_marseille","lat":43.32346,"lon":5.40624,"is_reserved":false,"is_disabled":false,"rental_uris":{"android":"levelo://app?vid=71d10f41-2ffe-4394-bc10-bfa4bb58be1e","ios":"levelo://app?vid=71d10f41-2ffe-4394-bc10-bfa4bb58be1e"},"vehicle_type_id":"4","last_reported":1730394571,"current_range_meters":28000,"station_id":"ce4bhq92rcd13ifvqhjg","pricing_plan_id":"cebpf4jnsgd1na2vs0mg"},{"bike_id":"b55a47cd-e5f3-45ef-ac20-ab2bcef658e0","system_id":"levelo_inurba_marseille","lat":43.28157,"lon":5.42649,"is_reserved":false,"is_disabled":false,"rental_uris":{"android":"levelo://app?vid=b55a47cd-e5f3-45ef-ac20-ab2bcef658e0","ios":"levelo://app?vid=b55a47cd-e5f3-45ef-ac20-ab2bcef658e0"},"vehicle_type_id":"4","last_reported":1730394571,"current_range_meters":38800,"station_id":"ce4bhnh2rcd13ifvqgug","pricing_plan_id":"cebpf4jnsgd1na2vs0mg"},{"bike_id":"95979164-a8a4-4e0e-bb04-17f22e19596a","system_id":"levelo_inurba_marseille","lat":43.29536,"lon":5.38553,"is_reserved":false,"is_disabled":false,"rental_uris":{"android":"levelo://app?vid=95979164-a8a4-4e0e-bb04-17f22e19596a","ios":"levelo://app?vid=95979164-a8a4-4e0e-bb04-17f22e19596a"},"vehicle_type_id":"4","last_reported":1730394571,"current_range_meters":38000,"station_id":"ce4bgih2rcd13ifvqba0","pricing_plan_id":"cebpf4jnsgd1na2vs0mg"},{"bike_id":"188104ba-8b23-4782-86eb-8f705cebac23","system_id":"levelo_inurba_marseille","lat":43.28471,"lon":5.38553,"is_reserved":false,"is_disabled":false,"rental_uris":{"android":"levelo://app?vid=188104ba-8b23-4782-86eb-8f705cebac23","ios":"levelo://app?vid=188104ba-8b23-4782-86eb-8f705cebac23"},"vehicle_type_id":"4","last_reported":1730394571,"current_range_meters":2800,"station_id":"ce4bh8p2rcd13ifvqeb0","pricing_plan_id":"cebpf4jnsgd1na2vs0mg"},{"bike_id":"ef4444de-bc7f-49e7-acc4-5e37cf1c2890","system_id":"levelo_inurba_marseille","lat":43.3042,"lon":5.4128,"is_reserved":false,"is_disabled":false,"rental_uris":{"android":"levelo://app?vid=ef4444de-bc7f-49e7-acc4-5e37cf1c2890","ios":"levelo://app?vid=ef4444de-bc7f-49e7-acc4-5e37cf1c2890"},"vehicle_type_id":"4","last_reported":1730394571,"current_range_meters":30000,"station_id":"ce4bhop2rcd13ifvqh8g","pricing_plan_id":"cebpf4jnsgd1na2vs0mg"},{"bike_id":"1f5560d1-62aa-45ad-b530-dcffdb7c96b7","system_id":"levelo_inurba_marseille","lat":43.29271,"lon":5.40913,"is_reserved":false,"is_disabled":false,"rental_uris":{"android":"levelo://app?vid=1f5560d1-62aa-45ad-b530-dcffdb7c96b7","ios":"levelo://app?vid=1f5560d1-62aa-45ad-b530-dcffdb7c96b7"},"vehicle_type_id":"4","last_reported":1730394571,"current_range_meters":38800,"station_id":"ce4bh192rcd13ifvqdc0","pricing_plan_id":"cebpf4jnsgd1na2vs0mg"},{"bike_id":"2195b99f-d74b-41a3-861e-80541edfbfc7","system_id":"levelo_inurba_marseille","lat":43.2512,"lon":5.40324,"is_reserved":false,"is_disabled":false,"rental_uris":{"android":"levelo://app?vid=2195b99f-d74b-41a3-861e-80541edfbfc7","ios":"levelo://app?vid=2195b99f-d74b-41a3-861e-80541edfbfc7"},"vehicle_type_id":"4","last_reported":1730394571,"current_range_meters":29600,"station_id":"ce4bhlh2rcd13ifvqgig","pricing_plan_id":"cebpf4jnsgd1na2vs0mg"},{"bike_id":"27af1fb6-354f-4701-9f1a-cb63120973cd","system_id":"levelo_inurba_marseille","lat":43.26024,"lon":5.3755,"is_reserved":false,"is_disabled":false,"rental_uris":{"android":"levelo://app?vid=27af1fb6-354f-4701-9f1a-cb63120973cd","ios":"levelo://app?vid=27af1fb6-354f-4701-9f1a-cb63120973cd"},"vehicle_type_id":"4","last_reported":1730394571,"current_range_meters":16000,"station_id":"ce4bhgh2rcd13ifvqfa0","pricing_plan_id":"cebpf4jnsgd1na2vs0mg"},{"bike_id":"6b930ddf-cf47-40fe-a6f7-caa714f6b62f","system_id":"levelo_inurba_marseille","lat":43.30928,"lon":5.40148,"is_reserved":false,"is_disabled":false,"rental_uris":{"android":"levelo://app?vid=6b930ddf-cf47-40fe-a6f7-caa714f6b62f","ios":"levelo://app?vid=6b930ddf-cf47-40fe-a6f7-caa714f6b62f"},"vehicle_type_id":"4","last_reported":1730394571,"current_range_meters":29600,"station_id":"ce4bgvp2rcd13ifvqct0","pricing_plan_id":"cebpf4jnsgd1na2vs0mg"},{"bike_id":"e79f8a6b-ba79-410e-a5f2-5250ede19608","system_id":"levelo_inurba_marseille","lat":43.23963,"lon":5.36642,"is_reserved":false,"is_disabled":false,"rental_uris":{"android":"levelo://app?vid=e79f8a6b-ba79-410e-a5f2-5250ede19608","ios":"levelo://app?vid=e79f8a6b-ba79-410e-a5f2-5250ede19608"},"vehicle_type_id":"4","last_reported":1730394571,"current_range_meters":7200,"station_id":"ce4bhi12rcd13ifvqfp0","pricing_plan_id":"cebpf4jnsgd1na2vs0mg"},{"bike_id":"6fe95313-e873-4982-8420-95fec21f0b5f","system_id":"levelo_inurba_marseille","lat":43.31991,"lon":5.38165,"is_reserved":false,"is_disabled":false,"rental_uris":{"android":"levelo://app?vid=6fe95313-e873-4982-8420-95fec21f0b5f","ios":"levelo://app?vid=6fe95313-e873-4982-8420-95fec21f0b5f"},"vehicle_type_id":"4","last_reported":1730394571,"current_range_meters":23200,"station_id":"ce4bhr12rcd13ifvqhpg","pricing_plan_id":"cebpf4jnsgd1na2vs0mg"},{"bike_id":"e8293b4e-059a-4396-9bed-846c599622d5","system_id":"levelo_inurba_marseille","lat":43.27179,"lon":5.4099,"is_reserved":false,"is_disabled":false,"rental_uris":{"android":"levelo://app?vid=e8293b4e-059a-4396-9bed-846c599622d5","ios":"levelo://app?vid=e8293b4e-059a-4396-9bed-846c599622d5"},"vehicle_type_id":"4","last_reported":1730394571,"current_range_meters":38800,"station_id":"ce4bhl12rcd13ifvqgf0","pricing_plan_id":"cebpf4jnsgd1na2vs0mg"},{"bike_id":"d22e09bb-dafa-464b-bd89-da281c0b87cf","system_id":"levelo_inurba_marseille","lat":43.30254,"lon":5.40087,"is_reserved":false,"is_disabled":false,"rental_uris":{"android":"levelo://app?vid=d22e09bb-dafa-464b-bd89-da281c0b87cf","ios":"levelo://app?vid=d22e09bb-dafa-464b-bd89-da281c0b87cf"},"vehicle_type_id":"4","last_reported":1730394571,"current_range_meters":24400,"station_id":"ce4bgvh2rcd13ifvqcs0","pricing_plan_id":"cebpf4jnsgd1na2vs0mg"},{"bike_id":"fab7870b-fd1e-4236-b087-f7d8e6cbc573","system_id":"levelo_inurba_marseille","lat":43.25932,"lon":5.40915,"is_reserved":false,"is_disabled":false,"rental_uris":{"android":"levelo://app?vid=fab7870b-fd1e-4236-b087-f7d8e6cbc573","ios":"levelo://app?vid=fab7870b-fd1e-4236-b087-f7d8e6cbc573"},"vehicle_type_id":"4","last_reported":1730394571,"current_range_meters":27600,"station_id":"ce4bhm92rcd13ifvqglg","pricing_plan_id":"cebpf4jnsgd1na2vs0mg"},{"bike_id":"ac4a6c91-e438-44b4-b7d2-dab3ea0f108e","system_id":"levelo_inurba_marseille","lat":43.29084,"lon":5.37177,"is_reserved":false,"is_disabled":false,"rental_uris":{"android":"levelo://app?vid=ac4a6c91-e438-44b4-b7d2-dab3ea0f108e","ios":"levelo://app?vid=ac4a6c91-e438-44b4-b7d2-dab3ea0f108e"},"vehicle_type_id":"4","last_reported":1730394571,"current_range_meters":27600,"station_id":"ce4bh5p2rcd13ifvqe4g","pricing_plan_id":"cebpf4jnsgd1na2vs0mg"},{"bike_id":"2e679aa2-6222-4666-94d2-8febbbac34cf","system_id":"levelo_inurba_marseille","lat":43.2895,"lon":5.48068,"is_reserved":false,"is_disabled":false,"rental_uris":{"android":"levelo://app?vid=2e679aa2-6222-4666-94d2-8febbbac34cf","ios":"levelo://app?vid=2e679aa2-6222-4666-94d2-8febbbac34cf"},"vehicle_type_id":"4","last_reported":1730394571,"current_range_meters":10800,"station_id":"ce4bgvp2rcd13ifvqct0","pricing_plan_id":"cebpf4jnsgd1na2vs0mg"},{"bike_id":"00570a9a-70dc-4fd9-a21d-b33665529146","system_id":"levelo_inurba_marseille","lat":43.23968,"lon":5.36639,"is_reserved":false,"is_disabled":false,"rental_uris":{"android":"levelo://app?vid=00570a9a-70dc-4fd9-a21d-b33665529146","ios":"levelo://app?vid=00570a9a-70dc-4fd9-a21d-b33665529146"},"vehicle_type_id":"4","last_reported":1730394571,"current_range_meters":38800,"station_id":"ce4bhi12rcd13ifvqfp0","pricing_plan_id":"cebpf4jnsgd1na2vs0mg"},{"bike_id":"b65d358b-a2ba-4397-a9a1-50da4450a928","system_id":"levelo_inurba_marseille","lat":43.30422,"lon":5.41286,"is_reserved":false,"is_disabled":false,"rental_uris":{"android":"levelo://app?vid=b65d358b-a2ba-4397-a9a1-50da4450a928","ios":"levelo://app?vid=b65d358b-a2ba-4397-a9a1-50da4450a928"},"vehicle_type_id":"4","last_reported":1730394571,"current_range_meters":39200,"station_id":"ce4bhop2rcd13ifvqh8g","pricing_plan_id":"cebpf4jnsgd1na2vs0mg"},{"bike_id":"bd39e705-b4be-4f7c-af64-bcc0cee3f59a","system_id":"levelo_inurba_marseille","lat":43.292766,"lon":5.368484,"is_reserved":false,"is_disabled":false,"rental_uris":{"android":"levelo://app?vid=bd39e705-b4be-4f7c-af64-bcc0cee3f59a","ios":"levelo://app?vid=bd39e705-b4be-4f7c-af64-bcc0cee3f59a"},"vehicle_type_id":"4","last_reported":1730394571,"current_range_meters":14000,"station_id":"ce4bhbp2rcd13ifvqesg","pricing_plan_id":"cebpf4jnsgd1na2vs0mg"},{"bike_id":"d7b11ea7-002a-4efd-994b-9a9df4e42526","system_id":"levelo_inurba_marseille","lat":43.30254,"lon":5.40081,"is_reserved":false,"is_disabled":false,"rental_uris":{"android":"levelo://app?vid=d7b11ea7-002a-4efd-994b-9a9df4e42526","ios":"levelo://app?vid=d7b11ea7-002a-4efd-994b-9a9df4e42526"},"vehicle_type_id":"4","last_reported":1730394571,"current_range_meters":15200,"station_id":"ce4bgvh2rcd13ifvqcs0","pricing_plan_id":"cebpf4jnsgd1na2vs0mg"},{"bike_id":"6e2a2c79-b030-4a06-9455-8e50c4ffea05","system_id":"levelo_inurba_marseille","lat":43.29886,"lon":5.38898,"is_reserved":false,"is_disabled":false,"rental_uris":{"android":"levelo://app?vid=6e2a2c79-b030-4a06-9455-8e50c4ffea05","ios":"levelo://app?vid=6e2a2c79-b030-4a06-9455-8e50c4ffea05"},"vehicle_type_id":"4","last_reported":1730394571,"current_range_meters":22000,"station_id":"ce4bh392rcd13ifvqdl0","pricing_plan_id":"cebpf4jnsgd1na2vs0mg"},{"bike_id":"1bb9c5e7-6be5-451b-a146-176a7f3f8008","system_id":"levelo_inurba_marseille","lat":43.29162,"lon":5.3717,"is_reserved":false,"is_disabled":false,"rental_uris":{"android":"levelo://app?vid=1bb9c5e7-6be5-451b-a146-176a7f3f8008","ios":"levelo://app?vid=1bb9c5e7-6be5-451b-a146-176a7f3f8008"},"vehicle_type_id":"4","last_reported":1730394571,"current_range_meters":11600,"station_id":"ce4bha92rcd13ifvqeh0","pricing_plan_id":"cebpf4jnsgd1na2vs0mg"},{"bike_id":"ed279d38-b7eb-4b14-96b9-94c615824290","system_id":"levelo_inurba_marseille","lat":43.23198,"lon":5.3555,"is_reserved":false,"is_disabled":false,"rental_uris":{"android":"levelo://app?vid=ed279d38-b7eb-4b14-96b9-94c615824290","ios":"levelo://app?vid=ed279d38-b7eb-4b14-96b9-94c615824290"},"vehicle_type_id":"4","last_reported":1730394571,"current_range_meters":19200,"station_id":"ce4bhu92rcd13ifvqi70","pricing_plan_id":"cebpf4jnsgd1na2vs0mg"},{"bike_id":"8a747cb8-f6a1-4bc2-96fb-18e7dee5de4b","system_id":"levelo_inurba_marseille","lat":43.24655,"lon":5.38896,"is_reserved":false,"is_disabled":false,"rental_uris":{"android":"levelo://app?vid=8a747cb8-f6a1-4bc2-96fb-18e7dee5de4b","ios":"levelo://app?vid=8a747cb8-f6a1-4bc2-96fb-18e7dee5de4b"},"vehicle_type_id":"4","last_reported":1730394571,"current_range_meters":36000,"station_id":"ce4bhg12rcd13ifvqf60","pricing_plan_id":"cebpf4jnsgd1na2vs0mg"},{"bike_id":"0f39f72a-ff3e-469c-9bd7-063288df0803","system_id":"levelo_inurba_marseille","lat":43.28468,"lon":5.35894,"is_reserved":false,"is_disabled":false,"rental_uris":{"android":"levelo://app?vid=0f39f72a-ff3e-469c-9bd7-063288df0803","ios":"levelo://app?vid=0f39f72a-ff3e-469c-9bd7-063288df0803"},"vehicle_type_id":"4","last_reported":1730394571,"current_range_meters":23200,"station_id":"ce4bhah2rcd13ifvqei0","pricing_plan_id":"cebpf4jnsgd1na2vs0mg"},{"bike_id":"aab39834-2a16-4c02-84ed-6e5d4ecaa4c2","system_id":"levelo_inurba_marseille","lat":43.29557,"lon":5.42294,"is_reserved":false,"is_disabled":false,"rental_uris":{"android":"levelo://app?vid=aab39834-2a16-4c02-84ed-6e5d4ecaa4c2","ios":"levelo://app?vid=aab39834-2a16-4c02-84ed-6e5d4ecaa4c2"},"vehicle_type_id":"4","last_reported":1730394571,"current_range_meters":31200,"station_id":"ce4bhph2rcd13ifvqhdg","pricing_plan_id":"cebpf4jnsgd1na2vs0mg"},{"bike_id":"43cd789e-98ee-4b99-8805-4d026141167b","system_id":"levelo_inurba_marseille","lat":43.292506,"lon":5.371483,"is_reserved":false,"is_disabled":false,"rental_uris":{"android":"levelo://app?vid=43cd789e-98ee-4b99-8805-4d026141167b","ios":"levelo://app?vid=43cd789e-98ee-4b99-8805-4d026141167b"},"vehicle_type_id":"4","last_reported":1730394571,"current_range_meters":25200,"station_id":"ce4bgt92rcd13ifvqcf0","pricing_plan_id":"cebpf4jnsgd1na2vs0mg"},{"bike_id":"f3e55630-f378-4c54-a790-a77ea65f6bf8","system_id":"levelo_inurba_marseille","lat":43.22935,"lon":5.3538,"is_reserved":false,"is_disabled":false,"rental_uris":{"android":"levelo://app?vid=f3e55630-f378-4c54-a790-a77ea65f6bf8","ios":"levelo://app?vid=f3e55630-f378-4c54-a790-a77ea65f6bf8"},"vehicle_type_id":"4","last_reported":1730394571,"current_range_meters":23200,"station_id":"cpo3532slgdg3j2ikp40","pricing_plan_id":"cebpf4jnsgd1na2vs0mg"},{"bike_id":"ae465581-6788-4f38-bb06-d2e0533545d6","system_id":"levelo_inurba_marseille","lat":43.23203,"lon":5.35553,"is_reserved":false,"is_disabled":false,"rental_uris":{"android":"levelo://app?vid=ae465581-6788-4f38-bb06-d2e0533545d6","ios":"levelo://app?vid=ae465581-6788-4f38-bb06-d2e0533545d6"},"vehicle_type_id":"4","last_reported":1730394571,"current_range_meters":32800,"station_id":"ce4bhu92rcd13ifvqi70","pricing_plan_id":"cebpf4jnsgd1na2vs0mg"},{"bike_id":"36fb883f-bf2b-463b-b62f-52724aa97e7d","system_id":"levelo_inurba_marseille","lat":43.28044,"lon":5.36945,"is_reserved":false,"is_disabled":false,"rental_uris":{"android":"levelo://app?vid=36fb883f-bf2b-463b-b62f-52724aa97e7d","ios":"levelo://app?vid=36fb883f-bf2b-463b-b62f-52724aa97e7d"},"vehicle_type_id":"4","last_reported":1730394571,"current_range_meters":4400,"station_id":"ce4bha12rcd13ifvqef0","pricing_plan_id":"cebpf4jnsgd1na2vs0mg"},{"bike_id":"b0218894-9343-49c5-84f1-f9216b9df020","system_id":"levelo_inurba_marseille","lat":43.29888,"lon":5.39725,"is_reserved":false,"is_disabled":false,"rental_uris":{"android":"levelo://app?vid=b0218894-9343-49c5-84f1-f9216b9df020","ios":"levelo://app?vid=b0218894-9343-49c5-84f1-f9216b9df020"},"vehicle_type_id":"4","last_reported":1730394571,"current_range_meters":38000,"station_id":"ce4bh0h2rcd13ifvqd50","pricing_plan_id":"cebpf4jnsgd1na2vs0mg"},{"bike_id":"0d4e0479-d8a2-45f2-91e0-dd87823320fe","system_id":"levelo_inurba_marseille","lat":43.33777,"lon":5.37469,"is_reserved":false,"is_disabled":false,"rental_uris":{"android":"levelo://app?vid=0d4e0479-d8a2-45f2-91e0-dd87823320fe","ios":"levelo://app?vid=0d4e0479-d8a2-45f2-91e0-dd87823320fe"},"vehicle_type_id":"4","last_reported":1730394571,"current_range_meters":29600,"station_id":"","pricing_plan_id":"cebpf4jnsgd1na2vs0mg"},{"bike_id":"1a65c305-7d63-458a-97d5-c678ab37735f","system_id":"levelo_inurba_marseille","lat":43.299,"lon":5.38136,"is_reserved":false,"is_disabled":false,"rental_uris":{"android":"levelo://app?vid=1a65c305-7d63-458a-97d5-c678ab37735f","ios":"levelo://app?vid=1a65c305-7d63-458a-97d5-c678ab37735f"},"vehicle_type_id":"4","last_reported":1730394571,"current_range_meters":22800,"station_id":"ce4bgj12rcd13ifvqbc0","pricing_plan_id":"cebpf4jnsgd1na2vs0mg"},{"bike_id":"149f5025-1f47-4bb1-9662-2699477b6d0c","system_id":"levelo_inurba_marseille","lat":43.3211,"lon":5.36774,"is_reserved":false,"is_disabled":false,"rental_uris":{"android":"levelo://app?vid=149f5025-1f47-4bb1-9662-2699477b6d0c","ios":"levelo://app?vid=149f5025-1f47-4bb1-9662-2699477b6d0c"},"vehicle_type_id":"4","last_reported":1730394571,"current_range_meters":29600,"station_id":"ce4bhrh2rcd13ifvqhug","pricing_plan_id":"cebpf4jnsgd1na2vs0mg"},{"bike_id":"d61e4806-d5a8-4d96-a16a-74a05d1d11c8","system_id":"levelo_inurba_marseille","lat":43.31485,"lon":5.37309,"is_reserved":false,"is_disabled":false,"rental_uris":{"android":"levelo://app?vid=d61e4806-d5a8-4d96-a16a-74a05d1d11c8","ios":"levelo://app?vid=d61e4806-d5a8-4d96-a16a-74a05d1d11c8"},"vehicle_type_id":"4","last_reported":1730394571,"current_range_meters":4800,"station_id":"ce4bgt12rcd13ifvqcd0","pricing_plan_id":"cebpf4jnsgd1na2vs0mg"},{"bike_id":"e8e74bce-f56c-4367-8c15-1f5c6fa1a6d2","system_id":"levelo_inurba_marseille","lat":43.27987,"lon":5.41663,"is_reserved":false,"is_disabled":false,"rental_uris":{"android":"levelo://app?vid=e8e74bce-f56c-4367-8c15-1f5c6fa1a6d2","ios":"levelo://app?vid=e8e74bce-f56c-4367-8c15-1f5c6fa1a6d2"},"vehicle_type_id":"4","last_reported":1730394571,"current_range_meters":35600,"station_id":"ce4bho12rcd13ifvqh1g","pricing_plan_id":"cebpf4jnsgd1na2vs0mg"},{"bike_id":"c056e1b8-b6f6-4782-95ca-b834b1ecc735","system_id":"levelo_inurba_marseille","lat":43.27976,"lon":5.3874,"is_reserved":false,"is_disabled":false,"rental_uris":{"android":"levelo://app?vid=c056e1b8-b6f6-4782-95ca-b834b1ecc735","ios":"levelo://app?vid=c056e1b8-b6f6-4782-95ca-b834b1ecc735"},"vehicle_type_id":"4","last_reported":1730394571,"current_range_meters":25200,"station_id":"ce4bhg12rcd13ifvqf80","pricing_plan_id":"cebpf4jnsgd1na2vs0mg"},{"bike_id":"80eb5a19-522e-415a-8b23-941901f32cdf","system_id":"levelo_inurba_marseille","lat":43.29013,"lon":5.38633,"is_reserved":false,"is_disabled":false,"rental_uris":{"android":"levelo://app?vid=80eb5a19-522e-415a-8b23-941901f32cdf","ios":"levelo://app?vid=80eb5a19-522e-415a-8b23-941901f32cdf"},"vehicle_type_id":"4","last_reported":1730394571,"current_range_meters":9600,"station_id":"ce4bh4p2rcd13ifvqe0g","pricing_plan_id":"cebpf4jnsgd1na2vs0mg"},{"bike_id":"8cb0819c-45fa-415f-9c72-8c652dc5a1fe","system_id":"levelo_inurba_marseille","lat":43.2872,"lon":5.36083,"is_reserved":false,"is_disabled":false,"rental_uris":{"android":"levelo://app?vid=8cb0819c-45fa-415f-9c72-8c652dc5a1fe","ios":"levelo://app?vid=8cb0819c-45fa-415f-9c72-8c652dc5a1fe"},"vehicle_type_id":"4","last_reported":1730394571,"current_range_meters":4800,"station_id":"cki0cbj6b192h4jlfktg","pricing_plan_id":"cebpf4jnsgd1na2vs0mg"},{"bike_id":"7dc8f0eb-1aec-4100-ae3f-609020e38c36","system_id":"levelo_inurba_marseille","lat":43.29262,"lon":5.40903,"is_reserved":false,"is_disabled":false,"rental_uris":{"android":"levelo://app?vid=7dc8f0eb-1aec-4100-ae3f-609020e38c36","ios":"levelo://app?vid=7dc8f0eb-1aec-4100-ae3f-609020e38c36"},"vehicle_type_id":"4","last_reported":1730394571,"current_range_meters":24400,"station_id":"ce4bh192rcd13ifvqdc0","pricing_plan_id":"cebpf4jnsgd1na2vs0mg"},{"bike_id":"a03c77fe-6fcf-4175-9c1a-dda11b084d4c","system_id":"levelo_inurba_marseille","lat":43.30358,"lon":5.41879,"is_reserved":false,"is_disabled":false,"rental_uris":{"android":"levelo://app?vid=a03c77fe-6fcf-4175-9c1a-dda11b084d4c","ios":"levelo://app?vid=a03c77fe-6fcf-4175-9c1a-dda11b084d4c"},"vehicle_type_id":"4","last_reported":1730394571,"current_range_meters":17600,"station_id":"ce4bhop2rcd13ifvqh7g","pricing_plan_id":"cebpf4jnsgd1na2vs0mg"},{"bike_id":"53a6d53b-6bc5-4f80-b783-860011602993","system_id":"levelo_inurba_marseille","lat":43.28155,"lon":5.42641,"is_reserved":false,"is_disabled":false,"rental_uris":{"android":"levelo://app?vid=53a6d53b-6bc5-4f80-b783-860011602993","ios":"levelo://app?vid=53a6d53b-6bc5-4f80-b783-860011602993"},"vehicle_type_id":"4","last_reported":1730394571,"current_range_meters":10800,"station_id":"ce4bhnh2rcd13ifvqgug","pricing_plan_id":"cebpf4jnsgd1na2vs0mg"},{"bike_id":"e4050b8d-0c3e-4ee2-9f1a-bdb806242570","system_id":"levelo_inurba_marseille","lat":43.26562,"lon":5.37286,"is_reserved":false,"is_disabled":false,"rental_uris":{"android":"levelo://app?vid=e4050b8d-0c3e-4ee2-9f1a-bdb806242570","ios":"levelo://app?vid=e4050b8d-0c3e-4ee2-9f1a-bdb806242570"},"vehicle_type_id":"4","last_reported":1730394571,"current_range_meters":27200,"station_id":"ce4bhg12rcd13ifvqf70","pricing_plan_id":"cebpf4jnsgd1na2vs0mg"},{"bike_id":"0bd71fd0-6b85-431c-9898-2d60585d95a8","system_id":"levelo_inurba_marseille","lat":43.28156,"lon":5.42647,"is_reserved":false,"is_disabled":false,"rental_uris":{"android":"levelo://app?vid=0bd71fd0-6b85-431c-9898-2d60585d95a8","ios":"levelo://app?vid=0bd71fd0-6b85-431c-9898-2d60585d95a8"},"vehicle_type_id":"4","last_reported":1730394571,"current_range_meters":22800,"station_id":"ce4bhnh2rcd13ifvqgug","pricing_plan_id":"cebpf4jnsgd1na2vs0mg"},{"bike_id":"be95d513-9f26-44b4-b3cc-ca39226c2ce7","system_id":"levelo_inurba_marseille","lat":43.30245,"lon":5.39625,"is_reserved":false,"is_disabled":false,"rental_uris":{"android":"levelo://app?vid=be95d513-9f26-44b4-b3cc-ca39226c2ce7","ios":"levelo://app?vid=be95d513-9f26-44b4-b3cc-ca39226c2ce7"},"vehicle_type_id":"4","last_reported":1730394571,"current_range_meters":6800,"station_id":"ce4bgvp2rcd13ifvqct0","pricing_plan_id":"cebpf4jnsgd1na2vs0mg"},{"bike_id":"dec28324-a19b-4ce2-8511-1c394064cf7b","system_id":"levelo_inurba_marseille","lat":43.29732,"lon":5.37681,"is_reserved":false,"is_disabled":false,"rental_uris":{"android":"levelo://app?vid=dec28324-a19b-4ce2-8511-1c394064cf7b","ios":"levelo://app?vid=dec28324-a19b-4ce2-8511-1c394064cf7b"},"vehicle_type_id":"4","last_reported":1730394571,"current_range_meters":38800,"station_id":"ce4bgkh2rcd13ifvqbl0","pricing_plan_id":"cebpf4jnsgd1na2vs0mg"},{"bike_id":"9880c20b-26b4-485a-87de-5c511d9c809a","system_id":"levelo_inurba_marseille","lat":43.296,"lon":5.381,"is_reserved":false,"is_disabled":false,"rental_uris":{"android":"levelo://app?vid=9880c20b-26b4-485a-87de-5c511d9c809a","ios":"levelo://app?vid=9880c20b-26b4-485a-87de-5c511d9c809a"},"vehicle_type_id":"4","last_reported":1730394571,"current_range_meters":10000,"station_id":"ce4bgl12rcd13ifvqbo0","pricing_plan_id":"cebpf4jnsgd1na2vs0mg"},{"bike_id":"a3332e51-d45e-497f-8c0b-7df5356b102d","system_id":"levelo_inurba_marseille","lat":43.29796,"lon":5.381,"is_reserved":false,"is_disabled":false,"rental_uris":{"android":"levelo://app?vid=a3332e51-d45e-497f-8c0b-7df5356b102d","ios":"levelo://app?vid=a3332e51-d45e-497f-8c0b-7df5356b102d"},"vehicle_type_id":"4","last_reported":1730394571,"current_range_meters":30400,"station_id":"ce4bgip2rcd13ifvqbb0","pricing_plan_id":"cebpf4jnsgd1na2vs0mg"},{"bike_id":"3517966f-e9a6-4058-8f99-89c82a59e77f","system_id":"levelo_inurba_marseille","lat":43.24392,"lon":5.37068,"is_reserved":false,"is_disabled":false,"rental_uris":{"android":"levelo://app?vid=3517966f-e9a6-4058-8f99-89c82a59e77f","ios":"levelo://app?vid=3517966f-e9a6-4058-8f99-89c82a59e77f"},"vehicle_type_id":"4","last_reported":1730394571,"current_range_meters":27600,"station_id":"ce4bhhh2rcd13ifvqfk0","pricing_plan_id":"cebpf4jnsgd1na2vs0mg"},{"bike_id":"4fe028fa-34c3-4712-aaea-a7571a83608e","system_id":"levelo_inurba_marseille","lat":43.295319,"lon":5.385443,"is_reserved":false,"is_disabled":false,"rental_uris":{"android":"levelo://app?vid=4fe028fa-34c3-4712-aaea-a7571a83608e","ios":"levelo://app?vid=4fe028fa-34c3-4712-aaea-a7571a83608e"},"vehicle_type_id":"4","last_reported":1730394571,"current_range_meters":22800,"station_id":"ce4bgjh2rcd13ifvqbg0","pricing_plan_id":"cebpf4jnsgd1na2vs0mg"},{"bike_id":"165828b1-d06e-4b70-b3a7-636ec8e9ee04","system_id":"levelo_inurba_marseille","lat":43.24165,"lon":5.36392,"is_reserved":false,"is_disabled":false,"rental_uris":{"android":"levelo://app?vid=165828b1-d06e-4b70-b3a7-636ec8e9ee04","ios":"levelo://app?vid=165828b1-d06e-4b70-b3a7-636ec8e9ee04"},"vehicle_type_id":"4","last_reported":1730394571,"current_range_meters":32000,"station_id":"cpo36qri1sfpv3e86is0","pricing_plan_id":"cebpf4jnsgd1na2vs0mg"},{"bike_id":"04a4b4d4-3673-4107-909d-2fcca0b4e220","system_id":"levelo_inurba_marseille","lat":43.29017,"lon":5.38134,"is_reserved":false,"is_disabled":false,"rental_uris":{"android":"levelo://app?vid=04a4b4d4-3673-4107-909d-2fcca0b4e220","ios":"levelo://app?vid=04a4b4d4-3673-4107-909d-2fcca0b4e220"},"vehicle_type_id":"4","last_reported":1730394571,"current_range_meters":24800,"station_id":"ce4bh4p2rcd13ifvqe1g","pricing_plan_id":"cebpf4jnsgd1na2vs0mg"},{"bike_id":"13ce5f24-ff1c-4f98-b960-5a7836b67c8e","system_id":"levelo_inurba_marseille","lat":43.29538,"lon":5.3855,"is_reserved":false,"is_disabled":false,"rental_uris":{"android":"levelo://app?vid=13ce5f24-ff1c-4f98-b960-5a7836b67c8e","ios":"levelo://app?vid=13ce5f24-ff1c-4f98-b960-5a7836b67c8e"},"vehicle_type_id":"4","last_reported":1730394571,"current_range_meters":17200,"station_id":"ce4bgih2rcd13ifvqba0","pricing_plan_id":"cebpf4jnsgd1na2vs0mg"},{"bike_id":"4c0afd70-20a4-45d9-b86d-a62dd29f0637","system_id":"levelo_inurba_marseille","lat":43.27109,"lon":5.42209,"is_reserved":false,"is_disabled":false,"rental_uris":{"android":"levelo://app?vid=4c0afd70-20a4-45d9-b86d-a62dd29f0637","ios":"levelo://app?vid=4c0afd70-20a4-45d9-b86d-a62dd29f0637"},"vehicle_type_id":"4","last_reported":1730394571,"current_range_meters":27200,"station_id":"ce4bhk92rcd13ifvqgb0","pricing_plan_id":"cebpf4jnsgd1na2vs0mg"},{"bike_id":"4d470e4e-2455-41f4-b3a4-9bc29488aec8","system_id":"levelo_inurba_marseille","lat":43.32294,"lon":5.3827,"is_reserved":false,"is_disabled":false,"rental_uris":{"android":"levelo://app?vid=4d470e4e-2455-41f4-b3a4-9bc29488aec8","ios":"levelo://app?vid=4d470e4e-2455-41f4-b3a4-9bc29488aec8"},"vehicle_type_id":"4","last_reported":1730394571,"current_range_meters":38800,"station_id":"ce4bhr12rcd13ifvqhqg","pricing_plan_id":"cebpf4jnsgd1na2vs0mg"},{"bike_id":"40837078-d198-422e-bd09-5c5770c1ca65","system_id":"levelo_inurba_marseille","lat":43.32286,"lon":5.38282,"is_reserved":false,"is_disabled":false,"rental_uris":{"android":"levelo://app?vid=40837078-d198-422e-bd09-5c5770c1ca65","ios":"levelo://app?vid=40837078-d198-422e-bd09-5c5770c1ca65"},"vehicle_type_id":"4","last_reported":1730394571,"current_range_meters":12800,"station_id":"ce4bhr12rcd13ifvqhqg","pricing_plan_id":"cebpf4jnsgd1na2vs0mg"},{"bike_id":"d323e35f-66d9-46d4-9e65-35591421f834","system_id":"levelo_inurba_marseille","lat":43.30127,"lon":5.39855,"is_reserved":false,"is_disabled":false,"rental_uris":{"android":"levelo://app?vid=d323e35f-66d9-46d4-9e65-35591421f834","ios":"levelo://app?vid=d323e35f-66d9-46d4-9e65-35591421f834"},"vehicle_type_id":"4","last_reported":1730394571,"current_range_meters":24000,"station_id":"ce4bh0h2rcd13ifvqd40","pricing_plan_id":"cebpf4jnsgd1na2vs0mg"},{"bike_id":"1d01409e-0bd6-46b1-9778-474d487860c6","system_id":"levelo_inurba_marseille","lat":43.27175,"lon":5.40996,"is_reserved":false,"is_disabled":false,"rental_uris":{"android":"levelo://app?vid=1d01409e-0bd6-46b1-9778-474d487860c6","ios":"levelo://app?vid=1d01409e-0bd6-46b1-9778-474d487860c6"},"vehicle_type_id":"4","last_reported":1730394571,"current_range_meters":31200,"station_id":"ce4bhl12rcd13ifvqgf0","pricing_plan_id":"cebpf4jnsgd1na2vs0mg"},{"bike_id":"4e78ba22-7310-4ddb-b37d-9e97a79a9eca","system_id":"levelo_inurba_marseille","lat":43.293,"lon":5.37177,"is_reserved":false,"is_disabled":false,"rental_uris":{"android":"levelo://app?vid=4e78ba22-7310-4ddb-b37d-9e97a79a9eca","ios":"levelo://app?vid=4e78ba22-7310-4ddb-b37d-9e97a79a9eca"},"vehicle_type_id":"4","last_reported":1730394571,"current_range_meters":38800,"station_id":"ce4bgh92rcd13ifvqb40","pricing_plan_id":"cebpf4jnsgd1na2vs0mg"},{"bike_id":"25b7ec90-2443-4c54-94e0-b8bd37679bbc","system_id":"levelo_inurba_marseille","lat":43.25822,"lon":5.39445,"is_reserved":false,"is_disabled":false,"rental_uris":{"android":"levelo://app?vid=25b7ec90-2443-4c54-94e0-b8bd37679bbc","ios":"levelo://app?vid=25b7ec90-2443-4c54-94e0-b8bd37679bbc"},"vehicle_type_id":"4","last_reported":1730394571,"current_range_meters":18000,"station_id":"ce4bhip2rcd13ifvqft0","pricing_plan_id":"cebpf4jnsgd1na2vs0mg"},{"bike_id":"575d7349-a3b4-4cc3-a85b-4e030cc22fce","system_id":"levelo_inurba_marseille","lat":43.31328,"lon":5.39695,"is_reserved":false,"is_disabled":false,"rental_uris":{"android":"levelo://app?vid=575d7349-a3b4-4cc3-a85b-4e030cc22fce","ios":"levelo://app?vid=575d7349-a3b4-4cc3-a85b-4e030cc22fce"},"vehicle_type_id":"4","last_reported":1730394571,"current_range_meters":36400,"station_id":"ce4bgvp2rcd13ifvqcu0","pricing_plan_id":"cebpf4jnsgd1na2vs0mg"},{"bike_id":"3c025bb8-ce75-466f-84f8-d52bf81f68eb","system_id":"levelo_inurba_marseille","lat":43.2997,"lon":5.38478,"is_reserved":false,"is_disabled":false,"rental_uris":{"android":"levelo://app?vid=3c025bb8-ce75-466f-84f8-d52bf81f68eb","ios":"levelo://app?vid=3c025bb8-ce75-466f-84f8-d52bf81f68eb"},"vehicle_type_id":"4","last_reported":1730394571,"current_range_meters":38800,"station_id":"ce4bgj92rcd13ifvqbd0","pricing_plan_id":"cebpf4jnsgd1na2vs0mg"},{"bike_id":"e7a03448-96f1-44df-8c2c-c0adbd59f1f9","system_id":"levelo_inurba_marseille","lat":43.29978,"lon":5.38485,"is_reserved":false,"is_disabled":false,"rental_uris":{"android":"levelo://app?vid=e7a03448-96f1-44df-8c2c-c0adbd59f1f9","ios":"levelo://app?vid=e7a03448-96f1-44df-8c2c-c0adbd59f1f9"},"vehicle_type_id":"4","last_reported":1730394571,"current_range_meters":32000,"station_id":"ce4bgj92rcd13ifvqbd0","pricing_plan_id":"cebpf4jnsgd1na2vs0mg"},{"bike_id":"ba3c991d-29fb-4a50-b023-efdc02a6770d","system_id":"levelo_inurba_marseille","lat":43.32291,"lon":5.38263,"is_reserved":false,"is_disabled":false,"rental_uris":{"android":"levelo://app?vid=ba3c991d-29fb-4a50-b023-efdc02a6770d","ios":"levelo://app?vid=ba3c991d-29fb-4a50-b023-efdc02a6770d"},"vehicle_type_id":"4","last_reported":1730394571,"current_range_meters":9200,"station_id":"ce4bhr12rcd13ifvqhqg","pricing_plan_id":"cebpf4jnsgd1na2vs0mg"},{"bike_id":"a83ccb62-d0f1-4b65-bfd9-4fd4badd72ea","system_id":"levelo_inurba_marseille","lat":43.27988,"lon":5.41663,"is_reserved":false,"is_disabled":false,"rental_uris":{"android":"levelo://app?vid=a83ccb62-d0f1-4b65-bfd9-4fd4badd72ea","ios":"levelo://app?vid=a83ccb62-d0f1-4b65-bfd9-4fd4badd72ea"},"vehicle_type_id":"4","last_reported":1730394571,"current_range_meters":3600,"station_id":"ce4bho12rcd13ifvqh1g","pricing_plan_id":"cebpf4jnsgd1na2vs0mg"},{"bike_id":"f9c6009e-424e-4b89-80f4-b0ae912eec79","system_id":"levelo_inurba_marseille","lat":43.2848,"lon":5.38547,"is_reserved":false,"is_disabled":false,"rental_uris":{"android":"levelo://app?vid=f9c6009e-424e-4b89-80f4-b0ae912eec79","ios":"levelo://app?vid=f9c6009e-424e-4b89-80f4-b0ae912eec79"},"vehicle_type_id":"4","last_reported":1730394571,"current_range_meters":14400,"station_id":"ce4bh8p2rcd13ifvqeb0","pricing_plan_id":"cebpf4jnsgd1na2vs0mg"},{"bike_id":"e9630214-20f4-45ee-9054-c1888250f45d","system_id":"levelo_inurba_marseille","lat":43.33026,"lon":5.39046,"is_reserved":false,"is_disabled":false,"rental_uris":{"android":"levelo://app?vid=e9630214-20f4-45ee-9054-c1888250f45d","ios":"levelo://app?vid=e9630214-20f4-45ee-9054-c1888250f45d"},"vehicle_type_id":"4","last_reported":1730394571,"current_range_meters":8400,"station_id":"ce4bhr92rcd13ifvqhrg","pricing_plan_id":"cebpf4jnsgd1na2vs0mg"},{"bike_id":"e87ffda7-c004-4bd5-a3b0-1f71ddf70fb5","system_id":"levelo_inurba_marseille","lat":43.28097,"lon":5.37827,"is_reserved":false,"is_disabled":false,"rental_uris":{"android":"levelo://app?vid=e87ffda7-c004-4bd5-a3b0-1f71ddf70fb5","ios":"levelo://app?vid=e87ffda7-c004-4bd5-a3b0-1f71ddf70fb5"},"vehicle_type_id":"4","last_reported":1730394571,"current_range_meters":30400,"station_id":"ce4bha12rcd13ifvqee0","pricing_plan_id":"cebpf4jnsgd1na2vs0mg"},{"bike_id":"71ea7ac7-e43b-4122-9197-dfddd6a1a359","system_id":"levelo_inurba_marseille","lat":43.29875,"lon":5.39741,"is_reserved":false,"is_disabled":false,"rental_uris":{"android":"levelo://app?vid=71ea7ac7-e43b-4122-9197-dfddd6a1a359","ios":"levelo://app?vid=71ea7ac7-e43b-4122-9197-dfddd6a1a359"},"vehicle_type_id":"4","last_reported":1730394571,"current_range_meters":6800,"station_id":"ce4bh0h2rcd13ifvqd50","pricing_plan_id":"cebpf4jnsgd1na2vs0mg"},{"bike_id":"309463a0-eca7-41ef-b815-d0b7f383ac84","system_id":"levelo_inurba_marseille","lat":43.29964,"lon":5.38492,"is_reserved":false,"is_disabled":false,"rental_uris":{"android":"levelo://app?vid=309463a0-eca7-41ef-b815-d0b7f383ac84","ios":"levelo://app?vid=309463a0-eca7-41ef-b815-d0b7f383ac84"},"vehicle_type_id":"4","last_reported":1730394571,"current_range_meters":38800,"station_id":"ce4bho92rcd13ifvqh4g","pricing_plan_id":"cebpf4jnsgd1na2vs0mg"},{"bike_id":"38a8c00a-04e7-4d55-86cb-05d4fb795004","system_id":"levelo_inurba_marseille","lat":43.23187,"lon":5.39984,"is_reserved":false,"is_disabled":false,"rental_uris":{"android":"levelo://app?vid=38a8c00a-04e7-4d55-86cb-05d4fb795004","ios":"levelo://app?vid=38a8c00a-04e7-4d55-86cb-05d4fb795004"},"vehicle_type_id":"4","last_reported":1730394571,"current_range_meters":37600,"station_id":"ce4bhn12rcd13ifvqgqg","pricing_plan_id":"cebpf4jnsgd1na2vs0mg"},{"bike_id":"5c2267f5-c660-4826-b12e-e6f62fe91b39","system_id":"levelo_inurba_marseille","lat":43.30135,"lon":5.39864,"is_reserved":false,"is_disabled":false,"rental_uris":{"android":"levelo://app?vid=5c2267f5-c660-4826-b12e-e6f62fe91b39","ios":"levelo://app?vid=5c2267f5-c660-4826-b12e-e6f62fe91b39"},"vehicle_type_id":"4","last_reported":1730394571,"current_range_meters":38800,"station_id":"ce4bh0h2rcd13ifvqd40","pricing_plan_id":"cebpf4jnsgd1na2vs0mg"},{"bike_id":"fee933f8-ca55-4d57-a6bb-c9789a2db470","system_id":"levelo_inurba_marseille","lat":43.275,"lon":5.42442,"is_reserved":false,"is_disabled":false,"rental_uris":{"android":"levelo://app?vid=fee933f8-ca55-4d57-a6bb-c9789a2db470","ios":"levelo://app?vid=fee933f8-ca55-4d57-a6bb-c9789a2db470"},"vehicle_type_id":"4","last_reported":1730394571,"current_range_meters":38800,"station_id":"ce4bhn92rcd13ifvqgrg","pricing_plan_id":"cebpf4jnsgd1na2vs0mg"},{"bike_id":"b3647db3-5101-4fca-bb29-4529512d8f8b","system_id":"levelo_inurba_marseille","lat":43.32479,"lon":5.36567,"is_reserved":false,"is_disabled":false,"rental_uris":{"android":"levelo://app?vid=b3647db3-5101-4fca-bb29-4529512d8f8b","ios":"levelo://app?vid=b3647db3-5101-4fca-bb29-4529512d8f8b"},"vehicle_type_id":"4","last_reported":1730394571,"current_range_meters":30400,"station_id":"ce4bhs12rcd13ifvqhvg","pricing_plan_id":"cebpf4jnsgd1na2vs0mg"},{"bike_id":"9d550a93-90b0-4d75-b78b-9706ec6282d6","system_id":"levelo_inurba_marseille","lat":43.27381,"lon":5.36259,"is_reserved":false,"is_disabled":false,"rental_uris":{"android":"levelo://app?vid=9d550a93-90b0-4d75-b78b-9706ec6282d6","ios":"levelo://app?vid=9d550a93-90b0-4d75-b78b-9706ec6282d6"},"vehicle_type_id":"4","last_reported":1730394571,"current_range_meters":16400,"station_id":"ce4bhbh2rcd13ifvqeo0","pricing_plan_id":"cebpf4jnsgd1na2vs0mg"},{"bike_id":"04955d30-e9e9-42a5-8740-d8e1dcfbb6f1","system_id":"levelo_inurba_marseille","lat":43.31067,"lon":5.38354,"is_reserved":false,"is_disabled":false,"rental_uris":{"android":"levelo://app?vid=04955d30-e9e9-42a5-8740-d8e1dcfbb6f1","ios":"levelo://app?vid=04955d30-e9e9-42a5-8740-d8e1dcfbb6f1"},"vehicle_type_id":"4","last_reported":1730394571,"current_range_meters":2800,"station_id":"ce4bgv92rcd13ifvqcr0","pricing_plan_id":"cebpf4jnsgd1na2vs0mg"},{"bike_id":"954495f4-a3d3-4cea-a5e6-6f26fac8f43e","system_id":"levelo_inurba_marseille","lat":43.30167,"lon":5.38348,"is_reserved":false,"is_disabled":false,"rental_uris":{"android":"levelo://app?vid=954495f4-a3d3-4cea-a5e6-6f26fac8f43e","ios":"levelo://app?vid=954495f4-a3d3-4cea-a5e6-6f26fac8f43e"},"vehicle_type_id":"4","last_reported":1730394571,"current_range_meters":36000,"station_id":"ce4bgv12rcd13ifvqcp0","pricing_plan_id":"cebpf4jnsgd1na2vs0mg"},{"bike_id":"7532df11-62b8-4c9d-ade1-f3ac2af3518b","system_id":"levelo_inurba_marseille","lat":43.25585,"lon":5.3822,"is_reserved":false,"is_disabled":false,"rental_uris":{"android":"levelo://app?vid=7532df11-62b8-4c9d-ade1-f3ac2af3518b","ios":"levelo://app?vid=7532df11-62b8-4c9d-ade1-f3ac2af3518b"},"vehicle_type_id":"4","last_reported":1730394571,"current_range_meters":38800,"station_id":"ce4bhih2rcd13ifvqfs0","pricing_plan_id":"cebpf4jnsgd1na2vs0mg"},