{"last_updated":1700341519,"ttl":30,"version":"2.2","data":{"bikes":[{"bike_id":"e45aa1b2-a042-4f73-aa5d-13e6549a9d35","system_id":"levelo_inurba_marseille","lat":43.31341,"lon":5.367098,"is_reserved":false,"is_disabled":false,"rental_uris":{"android":"levelo://app?vid=e45aa1b2-a042-4f73-aa5d-13e6549a9d35","ios":"levelo://app?vid=e45aa1b2-a042-4f73-aa5d-13e6549a9d35"},"vehicle_type_id":"4","last_reported":1700341520,"current_range_meters":0,"station_id":"ce4bgr92rcd13ifvqc6g","pricing_plan_id":"free"},{"bike_id":"943dfc2f-eec4-44b8-ae3a-bf8f278b58c3","system_id":"levelo_inurba_marseille","lat":43.311508,"lon":5.368928,"is_reserved":false,"is_disabled":false,"rental_uris":{"android":"levelo://app?vid=943dfc2f-eec4-44b8-ae3a-bf8f278b58c3","ios":"levelo://app?vid=943dfc2f-eec4-44b8-ae3a-bf8f278b58c3"},"vehicle_type_id":"4","last_reported":1700341520,"current_range_meters":0,"station_id":"","pricing_plan_id":"free"},{"bike_id":"ca20e79b-9757-4686-999f-7b3972ee2a25","system_id":"levelo_inurba_marseille","lat":43.309076,"lon":5.368465,"is_reserved":false,"is_disabled":false,"rental_uris":{"android":"levelo://app?vid=ca20e79b-9757-4686-999f-7b3972ee2a25","ios":"levelo://app?vid=ca20e79b-9757-4686-999f-7b3972ee2a25"},"vehicle_type_id":"4","last_reported":1700341520,"current_range_meters":8400,"station_id":"ce4bgn92rcd13ifvqbvg","pricing_plan_id":"free"},{"bike_id":"53cc2861-524d-43ab-9cd7-f01e0f6106a0","system_id":"levelo_inurba_marseille","lat":43.309076,"lon":5.368465,"is_reserved":false,"is_disabled":false,"rental_uris":{"android":"levelo://app?vid=53cc2861-524d-43ab-9cd7-f01e0f6106a0","ios":"levelo://app?vid=53cc2861-524d-43ab-9cd7-f01e0f6106a0"},"vehicle_type_id":"4","last_reported":1700341520,"current_range_meters":29600,"station_id":"ce4bgn92rcd13ifvqbvg","pricing_plan_id":"free"},{"bike_id":"4aa1f3d0-dac1-4589-a2c0-a47cb4a931b9","system_id":"levelo_inurba_marseille","lat":43.314811,"lon":5.373103,"is_reserved":false,"is_disabled":false,"rental_uris":{"android":"levelo://app?vid=4aa1f3d0-dac1-4589-a2c0-a47cb4a931b9","ios":"levelo://app?vid=4aa1f3d0-dac1-4589-a2c0-a47cb4a931b9"},"vehicle_type_id":"4","last_reported":1700341520,"current_range_meters":5600,"station_id":"ce4bgt12rcd13ifvqcd0","pricing_plan_id":"free"},{"bike_id":"0eb9427b-55a5-4080-9c33-fb66343316de","system_id":"levelo_inurba_marseille","lat":43.314811,"lon":5.373103,"is_reserved":false,"is_disabled":false,"rental_uris":{"android":"levelo://app?vid=0eb9427b-55a5-4080-9c33-fb66343316de","ios":"levelo://app?vid=0eb9427b-55a5-4080-9c33-fb66343316de"},"vehicle_type_id":"4","last_reported":1700341520,"current_range_meters":6800,"station_id":"ce4bgt12rcd13ifvqcd0","pricing_plan_id":"free"},{"bike_id":"3475d204-43b6-43d9-b615-ca1d0d58200e","system_id":"levelo_inurba_marseille","lat":43.30679,"lon":5.3679,"is_reserved":false,"is_disabled":false,"rental_uris":{"android":"levelo://app?vid=3475d204-43b6-43d9-b615-ca1d0d58200e","ios":"levelo://app?vid=3475d204-43b6-43d9-b615-ca1d0d58200e"},"vehicle_type_id":"4","last_reported":1700341520,"current_range_meters":13200,"station_id":"","pricing_plan_id":"free"},{"bike_id":"b889c571-0652-427e-a9cf-d0bdf450cd59","system_id":"levelo_inurba_marseille","lat":43.305712,"lon":5.365641,"is_reserved":false,"is_disabled":false,"rental_uris":{"android":"levelo://app?vid=b889c571-0652-427e-a9cf-d0bdf450cd59","ios":"levelo://app?vid=b889c571-0652-427e-a9cf-d0bdf450cd59"},"vehicle_type_id":"4","last_reported":1700341520,"current_range_meters":30000,"station_id":"ce4bgs12rcd13ifvqcag","pricing_plan_id":"free"},{"bike_id":"09ccbac6-0f01-4cfb-8bb8-da5484277d5c","system_id":"levelo_inurba_marseille","lat":43.319543,"lon":5.370913,"is_reserved":false,"is_disabled":false,"rental_uris":{"android":"levelo://app?vid=09ccbac6-0f01-4cfb-8bb8-da5484277d5c","ios":"levelo://app?vid=09ccbac6-0f01-4cfb-8bb8-da5484277d5c"},"vehicle_type_id":"4","last_reported":1700341520,"current_range_meters":3600,"station_id":"","pricing_plan_id":"free"},{"bike_id":"b1b4fe3f-68a0-4f3f-a790-49e4d69fac01","system_id":"levelo_inurba_marseille","lat":43.305989,"lon":5.37225,"is_reserved":false,"is_disabled":false,"rental_uris":{"android":"levelo://app?vid=b1b4fe3f-68a0-4f3f-a790-49e4d69fac01","ios":"levelo://app?vid=b1b4fe3f-68a0-4f3f-a790-49e4d69fac01"},"vehicle_type_id":"4","last_reported":1700341520,"current_range_meters":7200,"station_id":"ce4bgqh2rcd13ifvqc4g","pricing_plan_id":"free"},{"bike_id":"dcbf9c93-0758-41cf-8699-4ede01d69428","system_id":"levelo_inurba_marseille","lat":43.308159,"lon":5.376544,"is_reserved":false,"is_disabled":false,"rental_uris":{"android":"levelo://app?vid=dcbf9c93-0758-41cf-8699-4ede01d69428","ios":"levelo://app?vid=dcbf9c93-0758-41cf-8699-4ede01d69428"},"vehicle_type_id":"4","last_reported":1700341520,"current_range_meters":14400,"station_id":"ce4bgv92rcd13ifvqcq0","pricing_plan_id":"free"},{"bike_id":"d46db03e-b2e3-41a6-9b0f-ad8a8a1f37de","system_id":"levelo_inurba_marseille","lat":43.307945,"lon":5.376487,"is_reserved":false,"is_disabled":false,"rental_uris":{"android":"levelo://app?vid=d46db03e-b2e3-41a6-9b0f-ad8a8a1f37de","ios":"levelo://app?vid=d46db03e-b2e3-41a6-9b0f-ad8a8a1f37de"},"vehicle_type_id":"4","last_reported":1700341520,"current_range_meters":23200,"station_id":"ce4bgv92rcd13ifvqcq0","pricing_plan_id":"free"},{"bike_id":"9c6cb93e-1760-40ad-b03f-91f534a7dbc3","system_id":"levelo_inurba_marseille","lat":43.317075,"lon":5.377367,"is_reserved":false,"is_disabled":false,"rental_uris":{"android":"levelo://app?vid=9c6cb93e-1760-40ad-b03f-91f534a7dbc3","ios":"levelo://app?vid=9c6cb93e-1760-40ad-b03f-91f534a7dbc3"},"vehicle_type_id":"4","last_reported":1700341520,"current_range_meters":20800,"station_id":"ce4bgth2rcd13ifvqch0","pricing_plan_id":"free"},{"bike_id":"1029c931-5f1d-48df-966e-5165cecb0f40","system_id":"levelo_inurba_marseille","lat":43.303046,"lon":5.368981,"is_reserved":false,"is_disabled":false,"rental_uris":{"android":"levelo://app?vid=1029c931-5f1d-48df-966e-5165cecb0f40","ios":"levelo://app?vid=1029c931-5f1d-48df-966e-5165cecb0f40"},"vehicle_type_id":"4","last_reported":1700341520,"current_range_meters":1200,"station_id":"ce4bgqh2rcd13ifvqc5g","pricing_plan_id":"free"},{"bike_id":"358a7092-aa98-4489-9e95-96d08e41807c","system_id":"levelo_inurba_marseille","lat":43.31531,"lon":5.380353,"is_reserved":false,"is_disabled":false,"rental_uris":{"android":"levelo://app?vid=358a7092-aa98-4489-9e95-96d08e41807c","ios":"levelo://app?vid=358a7092-aa98-4489-9e95-96d08e41807c"},"vehicle_type_id":"4","last_reported":1700341520,"current_range_meters":3200,"station_id":"ce4bhsp2rcd13ifvqi50","pricing_plan_id":"free"},{"bike_id":"9819bebf-0513-4f3a-af1f-5960e3e4346a","system_id":"levelo_inurba_marseille","lat":43.30464,"lon":5.37893,"is_reserved":false,"is_disabled":false,"rental_uris":{"android":"levelo://app?vid=9819bebf-0513-4f3a-af1f-5960e3e4346a","ios":"levelo://app?vid=9819bebf-0513-4f3a-af1f-5960e3e4346a"},"vehicle_type_id":"4","last_reported":1700341520,"current_range_meters":0,"station_id":"ce4bgup2rcd13ifvqcn0","pricing_plan_id":"free"},{"bike_id":"5a6db0fc-cfe2-47a7-ae76-d4e0529428ab","system_id":"levelo_inurba_marseille","lat":43.319907,"lon":5.38083,"is_reserved":false,"is_disabled":false,"rental_uris":{"android":"levelo://app?vid=5a6db0fc-cfe2-47a7-ae76-d4e0529428ab","ios":"levelo://app?vid=5a6db0fc-cfe2-47a7-ae76-d4e0529428ab"},"vehicle_type_id":"4","last_reported":1700341520,"current_range_meters":16800,"station_id":"ce4bhr12rcd13ifvqhpg","pricing_plan_id":"free"},{"bike_id":"1764139e-a015-4870-9a26-51f8f07587c2","system_id":"levelo_inurba_marseille","lat":43.30143,"lon":5.37413,"is_reserved":false,"is_disabled":false,"rental_uris":{"android":"levelo://app?vid=1764139e-a015-4870-9a26-51f8f07587c2","ios":"levelo://app?vid=1764139e-a015-4870-9a26-51f8f07587c2"},"vehicle_type_id":"4","last_reported":1700341520,"current_range_meters":13200,"station_id":"ce4bgs92rcd13ifvqcc0","pricing_plan_id":"free"},{"bike_id":"aabc9c62-83ba-4314-a9c3-11800e31405a","system_id":"levelo_inurba_marseille","lat":43.302784,"lon":5.377158,"is_reserved":false,"is_disabled":false,"rental_uris":{"android":"levelo://app?vid=aabc9c62-83ba-4314-a9c3-11800e31405a","ios":"levelo://app?vid=aabc9c62-83ba-4314-a9c3-11800e31405a"},"vehicle_type_id":"4","last_reported":1700341520,"current_range_meters":22400,"station_id":"ce4bguh2rcd13ifvqcj0","pricing_plan_id":"free"},{"bike_id":"8e8d969a-f1c0-4e31-8675-6b937b924596","system_id":"levelo_inurba_marseille","lat":43.30143,"lon":5.37413,"is_reserved":false,"is_disabled":false,"rental_uris":{"android":"levelo://app?vid=8e8d969a-f1c0-4e31-8675-6b937b924596","ios":"levelo://app?vid=8e8d969a-f1c0-4e31-8675-6b937b924596"},"vehicle_type_id":"4","last_reported":1700341520,"current_range_meters":24000,"station_id":"ce4bgs92rcd13ifvqcc0","pricing_plan_id":"free"},{"bike_id":"b07df4dc-5dee-47d2-9384-cdf7d13ef59f","system_id":"levelo_inurba_marseille","lat":43.31756,"lon":5.38328,"is_reserved":false,"is_disabled":false,"rental_uris":{"android":"levelo://app?vid=b07df4dc-5dee-47d2-9384-cdf7d13ef59f","ios":"levelo://app?vid=b07df4dc-5dee-47d2-9384-cdf7d13ef59f"},"vehicle_type_id":"4","last_reported":1700341520,"current_range_meters":22400,"station_id":"","pricing_plan_id":"free"},{"bike_id":"fe202d26-8484-4d9d-b8a6-d278566ecb23","system_id":"levelo_inurba_marseille","lat":43.313571,"lon":5.384829,"is_reserved":false,"is_disabled":false,"rental_uris":{"android":"levelo://app?vid=fe202d26-8484-4d9d-b8a6-d278566ecb23","ios":"levelo://app?vid=fe202d26-8484-4d9d-b8a6-d278566ecb23"},"vehicle_type_id":"4","last_reported":1700341520,"current_range_meters":800,"station_id":"ce4bgt92rcd13ifvqcf0","pricing_plan_id":"free"},{"bike_id":"15693ee3-d003-4d40-a401-0ba9d6fc6292","system_id":"levelo_inurba_marseille","lat":43.299209,"lon":5.365547,"is_reserved":false,"is_disabled":false,"rental_uris":{"android":"levelo://app?vid=15693ee3-d003-4d40-a401-0ba9d6fc6292","ios":"levelo://app?vid=15693ee3-d003-4d40-a401-0ba9d6fc6292"},"vehicle_type_id":"4","last_reported":1700341520,"current_range_meters":0,"station_id":"ce4bgm92rcd13ifvqbr0","pricing_plan_id":"free"},{"bike_id":"5da9dea2-bd9f-4746-b637-56e44ea9e587","system_id":"levelo_inurba_marseille","lat":43.298489,"lon":5.362942,"is_reserved":false,"is_disabled":false,"rental_uris":{"android":"levelo://app?vid=5da9dea2-bd9f-4746-b637-56e44ea9e587","ios":"levelo://app?vid=5da9dea2-bd9f-4746-b637-56e44ea9e587"},"vehicle_type_id":"4","last_reported":1700341520,"current_range_meters":0,"station_id":"","pricing_plan_id":"free"},{"bike_id":"e6f74401-2dea-4868-a047-b220d94cac66","system_id":"levelo_inurba_marseille","lat":43.298433,"lon":5.362774,"is_reserved":false,"is_disabled":false,"rental_uris":{"android":"levelo://app?vid=e6f74401-2dea-4868-a047-b220d94cac66","ios":"levelo://app?vid=e6f74401-2dea-4868-a047-b220d94cac66"},"vehicle_type_id":"4","last_reported":1700341520,"current_range_meters":12800,"station_id":"ce4bgpp2rcd13ifvqc3g","pricing_plan_id":"free"},{"bike_id":"94039e29-a05d-491f-9f1c-f37b559c0b7b","system_id":"levelo_inurba_marseille","lat":43.298433,"lon":5.362774,"is_reserved":false,"is_disabled":false,"rental_uris":{"android":"levelo://app?vid=94039e29-a05d-491f-9f1c-f37b559c0b7b","ios":"levelo://app?vid=94039e29-a05d-491f-9f1c-f37b559c0b7b"},"vehicle_type_id":"4","last_reported":1700341520,"current_range_meters":6400,"station_id":"ce4bgpp2rcd13ifvqc3g","pricing_plan_id":"free"},{"bike_id":"67b7b9ec-436a-4d23-8b2c-e6620194026a","system_id":"levelo_inurba_marseille","lat":43.31172,"lon":5.38708,"is_reserved":false,"is_disabled":false,"rental_uris":{"android":"levelo://app?vid=67b7b9ec-436a-4d23-8b2c-e6620194026a","ios":"levelo://app?vid=67b7b9ec-436a-4d23-8b2c-e6620194026a"},"vehicle_type_id":"4","last_reported":1700341520,"current_range_meters":0,"station_id":"ce4bgv12rcd13ifvqcp0","pricing_plan_id":"free"},{"bike_id":"f23849c0-d8fa-4cf3-85dc-231066b37fb6","system_id":"levelo_inurba_marseille","lat":43.299243,"lon":5.374807,"is_reserved":false,"is_disabled":false,"rental_uris":{"android":"levelo://app?vid=f23849c0-d8fa-4cf3-85dc-231066b37fb6","ios":"levelo://app?vid=f23849c0-d8fa-4cf3-85dc-231066b37fb6"},"vehicle_type_id":"4","last_reported":1700341520,"current_range_meters":24000,"station_id":"ce4bgjh2rcd13ifvqbg0","pricing_plan_id":"free"},{"bike_id":"8c76c6e2-5f6a-4818-85cb-8b750ab02a02","system_id":"levelo_inurba_marseille","lat":43.311722,"lon":5.387247,"is_reserved":false,"is_disabled":false,"rental_uris":{"android":"levelo://app?vid=8c76c6e2-5f6a-4818-85cb-8b750ab02a02","ios":"levelo://app?vid=8c76c6e2-5f6a-4818-85cb-8b750ab02a02"},"vehicle_type_id":"4","last_reported":1700341520,"current_range_meters":20000,"station_id":"ce4bgv12rcd13ifvqcp0","pricing_plan_id":"free"},{"bike_id":"56f22ae9-3195-4d0c-b3a8-654f66616ce7","system_id":"levelo_inurba_marseille","lat":43.297794,"lon":5.370888,"is_reserved":false,"is_disabled":false,"rental_uris":{"android":"levelo://app?vid=56f22ae9-3195-4d0c-b3a8-654f66616ce7","ios":"levelo://app?vid=56f22ae9-3195-4d0c-b3a8-654f66616ce7"},"vehicle_type_id":"4","last_reported":1700341520,"current_range_meters":3600,"station_id":"ce4bgop2rcd13ifvqc1g","pricing_plan_id":"free"},{"bike_id":"dadade26-8d95-44b2-86a8-a68427fdc33d","system_id":"levelo_inurba_marseille","lat":43.32282,"lon":5.38268,"is_reserved":false,"is_disabled":false,"rental_uris":{"android":"levelo://app?vid=dadade26-8d95-44b2-86a8-a68427fdc33d","ios":"levelo://app?vid=dadade26-8d95-44b2-86a8-a68427fdc33d"},"vehicle_type_id":"4","last_reported":1700341520,"current_range_meters":8800,"station_id":"ce4bhr12rcd13ifvqhqg","pricing_plan_id":"free"},{"bike_id":"03280722-771f-4306-a97e-63b2b8ee3125","system_id":"levelo_inurba_marseille","lat":43.322872,"lon":5.382756,"is_reserved":false,"is_disabled":false,"rental_uris":{"android":"levelo://app?vid=03280722-771f-4306-a97e-63b2b8ee3125","ios":"levelo://app?vid=03280722-771f-4306-a97e-63b2b8ee3125"},"vehicle_type_id":"4","last_reported":1700341520,"current_range_meters":13200,"station_id":"ce4bhr12rcd13ifvqhqg","pricing_plan_id":"free"},{"bike_id":"971ef656-b95a-417d-b69d-a5ba3954e948","system_id":"levelo_inurba_marseille","lat":43.32837,"lon":5.36677,"is_reserved":false,"is_disabled":false,"rental_uris":{"android":"levelo://app?vid=971ef656-b95a-417d-b69d-a5ba3954e948","ios":"levelo://app?vid=971ef656-b95a-417d-b69d-a5ba3954e948"},"vehicle_type_id":"4","last_reported":1700341520,"current_range_meters":5600,"station_id":"ce4bhs92rcd13ifvqi0g","pricing_plan_id":"free"},{"bike_id":"bab6e1e8-0726-4f51-8b18-d54941f080d7","system_id":"levelo_inurba_marseille","lat":43.297013,"lon":5.37394,"is_reserved":false,"is_disabled":false,"rental_uris":{"android":"levelo://app?vid=bab6e1e8-0726-4f51-8b18-d54941f080d7","ios":"levelo://app?vid=bab6e1e8-0726-4f51-8b18-d54941f080d7"},"vehicle_type_id":"4","last_reported":1700341520,"current_range_meters":0,"station_id":"","pricing_plan_id":"free"},{"bike_id":"d447991a-59b4-4778-a190-7d2b0920a414","system_id":"levelo_inurba_marseille","lat":43.32215,"lon":5.38613,"is_reserved":false,"is_disabled":false,"rental_uris":{"android":"levelo://app?vid=d447991a-59b4-4778-a190-7d2b0920a414","ios":"levelo://app?vid=d447991a-59b4-4778-a190-7d2b0920a414"},"vehicle_type_id":"4","last_reported":1700341520,"current_range_meters":0,"station_id":"","pricing_plan_id":"free"},{"bike_id":"eec7b089-7c2f-498e-b88d-9fc953a39380","system_id":"levelo_inurba_marseille","lat":43.31757,"lon":5.39018,"is_reserved":false,"is_disabled":false,"rental_uris":{"android":"levelo://app?vid=eec7b089-7c2f-498e-b88d-9fc953a39380","ios":"levelo://app?vid=eec7b089-7c2f-498e-b88d-9fc953a39380"},"vehicle_type_id":"4","last_reported":1700341520,"current_range_meters":0,"station_id":"ce4bhqp2rcd13ifvqhng","pricing_plan_id":"free"},{"bike_id":"416d9943-f07e-495b-8f28-05ae82c1f6a3","system_id":"levelo_inurba_marseille","lat":43.31757,"lon":5.3902,"is_reserved":false,"is_disabled":false,"rental_uris":{"android":"levelo://app?vid=416d9943-f07e-495b-8f28-05ae82c1f6a3","ios":"levelo://app?vid=416d9943-f07e-495b-8f28-05ae82c1f6a3"},"vehicle_type_id":"4","last_reported":1700341520,"current_range_meters":0,"station_id":"ce4bhqp2rcd13ifvqhng","pricing_plan_id":"free"},{"bike_id":"1e68dfc9-fb89-4c75-b7d7-4c1b83d396fc","system_id":"levelo_inurba_marseille","lat":43.298037,"lon":5.381066,"is_reserved":false,"is_disabled":false,"rental_uris":{"android":"levelo://app?vid=1e68dfc9-fb89-4c75-b7d7-4c1b83d396fc","ios":"levelo://app?vid=1e68dfc9-fb89-4c75-b7d7-4c1b83d396fc"},"vehicle_type_id":"4","last_reported":1700341520,"current_range_meters":12800,"station_id":"ce4bgip2rcd13ifvqbb0","pricing_plan_id":"free"},{"bike_id":"67ffd28a-0325-489b-a10f-d90500122751","system_id":"levelo_inurba_marseille","lat":43.295748,"lon":5.37522,"is_reserved":false,"is_disabled":false,"rental_uris":{"android":"levelo://app?vid=67ffd28a-0325-489b-a10f-d90500122751","ios":"levelo://app?vid=67ffd28a-0325-489b-a10f-d90500122751"},"vehicle_type_id":"4","last_reported":1700341520,"current_range_meters":30000,"station_id":"ce4bgh92rcd13ifvqb50","pricing_plan_id":"free"},{"bike_id":"d2dced52-b7fb-4d11-ad33-56be009e3364","system_id":"levelo_inurba_marseille","lat":43.321847,"lon":5.388263,"is_reserved":false,"is_disabled":false,"rental_uris":{"android":"levelo://app?vid=d2dced52-b7fb-4d11-ad33-56be009e3364","ios":"levelo://app?vid=d2dced52-b7fb-4d11-ad33-56be009e3364"},"vehicle_type_id":"4","last_reported":1700341520,"current_range_meters":17600,"station_id":"","pricing_plan_id":"free"},{"bike_id":"3e3e92fe-39b7-4933-99ff-3747b28b5d69","system_id":"levelo_inurba_marseille","lat":43.328154,"lon":5.380034,"is_reserved":false,"is_disabled":false,"rental_uris":{"android":"levelo://app?vid=3e3e92fe-39b7-4933-99ff-3747b28b5d69","ios":"levelo://app?vid=3e3e92fe-39b7-4933-99ff-3747b28b5d69"},"vehicle_type_id":"4","last_reported":1700341520,"current_range_meters":8400,"station_id":"","pricing_plan_id":"free"},{"bike_id":"e145a3f7-00ac-4f8f-bfe5-435bc38ccaf7","system_id":"levelo_inurba_marseille","lat":43.293801,"lon":5.363066,"is_reserved":false,"is_disabled":false,"rental_uris":{"android":"levelo://app?vid=e145a3f7-00ac-4f8f-bfe5-435bc38ccaf7","ios":"levelo://app?vid=e145a3f7-00ac-4f8f-bfe5-435bc38ccaf7"},"vehicle_type_id":"4","last_reported":1700341520,"current_range_meters":26400,"station_id":"","pricing_plan_id":"free"},{"bike_id":"7231cd16-585a-4813-8f62-f682aab3598c","system_id":"levelo_inurba_marseille","lat":43.293259,"lon":5.371586,"is_reserved":false,"is_disabled":false,"rental_uris":{"android":"levelo://app?vid=7231cd16-585a-4813-8f62-f682aab3598c","ios":"levelo://app?vid=7231cd16-585a-4813-8f62-f682aab3598c"},"vehicle_type_id":"4","last_reported":1700341520,"current_range_meters":14800,"station_id":"ce4bgh92rcd13ifvqb40","pricing_plan_id":"free"},{"bike_id":"00fc0dcf-b4b3-4a72-aa92-b84885f0e66a","system_id":"levelo_inurba_marseille","lat":43.303002,"lon":5.392142,"is_reserved":false,"is_disabled":false,"rental_uris":{"android":"levelo://app?vid=00fc0dcf-b4b3-4a72-aa92-b84885f0e66a","ios":"levelo://app?vid=00fc0dcf-b4b3-4a72-aa92-b84885f0e66a"},"vehicle_type_id":"4","last_reported":1700341520,"current_range_meters":14400,"station_id":"ce4bgkh2rcd13ifvqbk0","pricing_plan_id":"free"},{"bike_id":"236c054c-312c-4360-a6fc-1117dbee258e","system_id":"levelo_inurba_marseille","lat":43.30085,"lon":5.390856,"is_reserved":false,"is_disabled":false,"rental_uris":{"android":"levelo://app?vid=236c054c-312c-4360-a6fc-1117dbee258e","ios":"levelo://app?vid=236c054c-312c-4360-a6fc-1117dbee258e"},"vehicle_type_id":"4","last_reported":1700341520,"current_range_meters":22000,"station_id":"ce4bh192rcd13ifvqdb0","pricing_plan_id":"free"},{"bike_id":"4736a0fc-0b82-4b4c-8a19-265ce0ecf398","system_id":"levelo_inurba_marseille","lat":43.300852,"lon":5.390859,"is_reserved":false,"is_disabled":false,"rental_uris":{"android":"levelo://app?vid=4736a0fc-0b82-4b4c-8a19-265ce0ecf398","ios":"levelo://app?vid=4736a0fc-0b82-4b4c-8a19-265ce0ecf398"},"vehicle_type_id":"4","last_reported":1700341520,"current_range_meters":9600,"station_id":"ce4bh192rcd13ifvqdb0","pricing_plan_id":"free"},{"bike_id":"786afbe7-ae1c-4641-93b3-eee911fd07e4","system_id":"levelo_inurba_marseille","lat":43.292856,"lon":5.377082,"is_reserved":false,"is_disabled":false,"rental_uris":{"android":"levelo://app?vid=786afbe7-ae1c-4641-93b3-eee911fd07e4","ios":"levelo://app?vid=786afbe7-ae1c-4641-93b3-eee911fd07e4"},"vehicle_type_id":"4","last_reported":1700341520,"current_range_meters":0,"station_id":"","pricing_plan_id":"free"},{"bike_id":"dafa8b1e-fa43-4873-83d7-7eaa0a8b8e58","system_id":"levelo_inurba_marseille","lat":43.291747,"lon":5.371364,"is_reserved":false,"is_disabled":false,"rental_uris":{"android":"levelo://app?vid=dafa8b1e-fa43-4873-83d7-7eaa0a8b8e58","ios":"levelo://app?vid=dafa8b1e-fa43-4873-83d7-7eaa0a8b8e58"},"vehicle_type_id":"4","last_reported":1700341520,"current_range_meters":0,"station_id":"ce4bha92rcd13ifvqeh0","pricing_plan_id":"free"},{"bike_id":"1e34889e-a7c2-45f1-819d-f74c765978dc","system_id":"levelo_inurba_marseille","lat":43.298764,"lon":5.388973,"is_reserved":false,"is_disabled":false,"rental_uris":{"android":"levelo://app?vid=1e34889e-a7c2-45f1-819d-f74c765978dc","ios":"levelo://app?vid=1e34889e-a7c2-45f1-819d-f74c765978dc"},"vehicle_type_id":"4","last_reported":1700341520,"current_range_meters":11600,"station_id":"ce4bh392rcd13ifvqdl0","pricing_plan_id":"free"},{"bike_id":"4eef38cc-64cf-4f4d-8d5b-99bd9d3b1b37","system_id":"levelo_inurba_marseille","lat":43.291675,"lon":5.371583,"is_reserved":false,"is_disabled":false,"rental_uris":{"android":"levelo://app?vid=4eef38cc-64cf-4f4d-8d5b-99bd9d3b1b37","ios":"levelo://app?vid=4eef38cc-64cf-4f4d-8d5b-99bd9d3b1b37"},"vehicle_type_id":"4","last_reported":1700341520,"current_range_meters":27200,"station_id":"ce4bha92rcd13ifvqeh0","pricing_plan_id":"free"},{"bike_id":"1045079f-fe33-4948-938b-51dceba28122","system_id":"levelo_inurba_marseille","lat":43.291655,"lon":5.371512,"is_reserved":false,"is_disabled":false,"rental_uris":{"android":"levelo://app?vid=1045079f-fe33-4948-938b-51dceba28122","ios":"levelo://app?vid=1045079f-fe33-4948-938b-51dceba28122"},"vehicle_type_id":"4","last_reported":1700341520,"current_range_meters":0,"station_id":"ce4bha92rcd13ifvqeh0","pricing_plan_id":"free"},{"bike_id":"76468b57-6bfa-4c52-88ad-9a1b2576a117","system_id":"levelo_inurba_marseille","lat":43.298768,"lon":5.389112,"is_reserved":false,"is_disabled":false,"rental_uris":{"android":"levelo://app?vid=76468b57-6bfa-4c52-88ad-9a1b2576a117","ios":"levelo://app?vid=76468b57-6bfa-4c52-88ad-9a1b2576a117"},"vehicle_type_id":"4","last_reported":1700341520,"current_range_meters":0,"station_id":"ce4bh392rcd13ifvqdl0","pricing_plan_id":"free"},{"bike_id":"10b538e4-e360-4f0b-bed6-1abf6e38a19d","system_id":"levelo_inurba_marseille","lat":43.29515,"lon":5.38469,"is_reserved":false,"is_disabled":false,"rental_uris":{"android":"levelo://app?vid=10b538e4-e360-4f0b-bed6-1abf6e38a19d","ios":"levelo://app?vid=10b538e4-e360-4f0b-bed6-1abf6e38a19d"},"vehicle_type_id":"4","last_reported":1700341520,"current_range_meters":4000,"station_id":"","pricing_plan_id":"free"},{"bike_id":"f5f0c31b-3075-4b0d-afe1-0f78079ad951","system_id":"levelo_inurba_marseille","lat":43.29531,"lon":5.38533,"is_reserved":false,"is_disabled":false,"rental_uris":{"android":"levelo://app?vid=f5f0c31b-3075-4b0d-afe1-0f78079ad951","ios":"levelo://app?vid=f5f0c31b-3075-4b0d-afe1-0f78079ad951"},"vehicle_type_id":"4","last_reported":1700341520,"current_range_meters":0,"station_id":"ce4bgih2rcd13ifvqba0","pricing_plan_id":"free"},{"bike_id":"01d9a574-4dbd-4d43-be86-fff679b15587","system_id":"levelo_inurba_marseille","lat":43.29528,"lon":5.38548,"is_reserved":false,"is_disabled":false,"rental_uris":{"android":"levelo://app?vid=01d9a574-4dbd-4d43-be86-fff679b15587","ios":"levelo://app?vid=01d9a574-4dbd-4d43-be86-fff679b15587"},"vehicle_type_id":"4","last_reported":1700341520,"current_range_meters":0,"station_id":"ce4bgih2rcd13ifvqba0","pricing_plan_id":"free"},{"bike_id":"3f1f6ed3-cf3e-45bf-b20d-7175b0078a22","system_id":"levelo_inurba_marseille","lat":43.29071,"lon":5.3717,"is_reserved":false,"is_disabled":false,"rental_uris":{"android":"levelo://app?vid=3f1f6ed3-cf3e-45bf-b20d-7175b0078a22","ios":"levelo://app?vid=3f1f6ed3-cf3e-45bf-b20d-7175b0078a22"},"vehicle_type_id":"4","last_reported":1700341520,"current_range_meters":800,"station_id":"ce4bh5p2rcd13ifvqe4g","pricing_plan_id":"free"},{"bike_id":"8e0d4e1e-2325-49a0-a300-7cfc50fe364e","system_id":"levelo_inurba_marseille","lat":43.289429,"lon":5.366321,"is_reserved":false,"is_disabled":false,"rental_uris":{"android":"levelo://app?vid=8e0d4e1e-2325-49a0-a300-7cfc50fe364e","ios":"levelo://app?vid=8e0d4e1e-2325-49a0-a300-7cfc50fe364e"},"vehicle_type_id":"4","last_reported":1700341520,"current_range_meters":0,"station_id":"ce4bhap2rcd13ifvqek0","pricing_plan_id":"free"},{"bike_id":"e05474e8-6267-421f-ada6-20604663cf70","system_id":"levelo_inurba_marseille","lat":43.294153,"lon":5.386305,"is_reserved":false,"is_disabled":false,"rental_uris":{"android":"levelo://app?vid=e05474e8-6267-421f-ada6-20604663cf70","ios":"levelo://app?vid=e05474e8-6267-421f-ada6-20604663cf70"},"vehicle_type_id":"4","last_reported":1700341520,"current_range_meters":0,"station_id":"ce4bh2h2rcd13ifvqdh0","pricing_plan_id":"free"},{"bike_id":"51fc42eb-7f4b-47e4-925e-2a7ec37cde40","system_id":"levelo_inurba_marseille","lat":43.290327,"lon":5.375711,"is_reserved":false,"is_disabled":false,"rental_uris":{"android":"levelo://app?vid=51fc42eb-7f4b-47e4-925e-2a7ec37cde40","ios":"levelo://app?vid=51fc42eb-7f4b-47e4-925e-2a7ec37cde40"},"vehicle_type_id":"4","last_reported":1700341520,"current_range_meters":11200,"station_id":"ce4bh692rcd13ifvqe90","pricing_plan_id":"free"},{"bike_id":"5a6c3c29-4e8d-4002-86df-f756558c85d3","system_id":"levelo_inurba_marseille","lat":43.29265,"lon":5.38444,"is_reserved":false,"is_disabled":false,"rental_uris":{"android":"levelo://app?vid=5a6c3c29-4e8d-4002-86df-f756558c85d3","ios":"levelo://app?vid=5a6c3c29-4e8d-4002-86df-f756558c85d3"},"vehicle_type_id":"4","last_reported":1700341520,"current_range_meters":1200,"station_id":"ce4bh692rcd13ifvqea0","pricing_plan_id":"free"},{"bike_id":"cba94d6e-8466-42db-8d54-536dc5dbdb13","system_id":"levelo_inurba_marseille","lat":43.292643,"lon":5.38445,"is_reserved":false,"is_disabled":false,"rental_uris":{"android":"levelo://app?vid=cba94d6e-8466-42db-8d54-536dc5dbdb13","ios":"levelo://app?vid=cba94d6e-8466-42db-8d54-536dc5dbdb13"},"vehicle_type_id":"4","last_reported":1700341520,"current_range_meters":1200,"station_id":"ce4bh692rcd13ifvqea0","pricing_plan_id":"free"},{"bike_id":"9b58bd17-ac87-450f-840a-9c331b39f96a","system_id":"levelo_inurba_marseille","lat":43.292642,"lon":5.384254,"is_reserved":false,"is_disabled":false,"rental_uris":{"android":"levelo://app?vid=9b58bd17-ac87-450f-840a-9c331b39f96a","ios":"levelo://app?vid=9b58bd17-ac87-450f-840a-9c331b39f96a"},"vehicle_type_id":"4","last_reported":1700341520,"current_range_meters":12800,"station_id":"ce4bh692rcd13ifvqea0","pricing_plan_id":"free"},{"bike_id":"26d322ea-a089-41f1-9527-4f1bd984e3ad","system_id":"levelo_inurba_marseille","lat":43.28899,"lon":5.35956,"is_reserved":false,"is_disabled":false,"rental_uris":{"android":"levelo://app?vid=26d322ea-a089-41f1-9527-4f1bd984e3ad","ios":"levelo://app?vid=26d322ea-a089-41f1-9527-4f1bd984e3ad"},"vehicle_type_id":"4","last_reported":1700341520,"current_range_meters":5200,"station_id":"ce4bhb12rcd13ifvqem0","pricing_plan_id":"free"},{"bike_id":"eaabfc28-72fb-4dcb-814e-f7dd5b8b42de","system_id":"levelo_inurba_marseille","lat":43.295169,"lon":5.390426,"is_reserved":false,"is_disabled":false,"rental_uris":{"android":"levelo://app?vid=eaabfc28-72fb-4dcb-814e-f7dd5b8b42de","ios":"levelo://app?vid=eaabfc28-72fb-4dcb-814e-f7dd5b8b42de"},"vehicle_type_id":"4","last_reported":1700341520,"current_range_meters":4400,"station_id":"ce4bh3p2rcd13ifvqdp0","pricing_plan_id":"free"},{"bike_id":"d381e49f-e8d1-4d82-b7fe-c779600cc992","system_id":"levelo_inurba_marseille","lat":43.2885,"lon":5.35839,"is_reserved":false,"is_disabled":false,"rental_uris":{"android":"levelo://app?vid=d381e49f-e8d1-4d82-b7fe-c779600cc992","ios":"levelo://app?vid=d381e49f-e8d1-4d82-b7fe-c779600cc992"},"vehicle_type_id":"4","last_reported":1700341520,"current_range_meters":0,"station_id":"ce4bhb12rcd13ifvqem0","pricing_plan_id":"free"},{"bike_id":"07202f70-50d7-46f0-a5bd-59712659d6a0","system_id":"levelo_inurba_marseille","lat":43.31251,"lon":5.40162,"is_reserved":false,"is_disabled":false,"rental_uris":{"android":"levelo://app?vid=07202f70-50d7-46f0-a5bd-59712659d6a0","ios":"levelo://app?vid=07202f70-50d7-46f0-a5bd-59712659d6a0"},"vehicle_type_id":"4","last_reported":1700341520,"current_range_meters":13600,"station_id":"","pricing_plan_id":"free"},{"bike_id":"ed95fae0-5138-4277-ba77-36f491fb90fd","system_id":"levelo_inurba_marseille","lat":43.309371,"lon":5.401449,"is_reserved":false,"is_disabled":false,"rental_uris":{"android":"levelo://app?vid=ed95fae0-5138-4277-ba77-36f491fb90fd","ios":"levelo://app?vid=ed95fae0-5138-4277-ba77-36f491fb90fd"},"vehicle_type_id":"4","last_reported":1700341520,"current_range_meters":800,"station_id":"ce4bgvp2rcd13ifvqct0","pricing_plan_id":"free"},{"bike_id":"c5f0cee3-c107-40a0-beb5-afc8de6de8ed","system_id":"levelo_inurba_marseille","lat":43.30931,"lon":5.4014,"is_reserved":false,"is_disabled":false,"rental_uris":{"android":"levelo://app?vid=c5f0cee3-c107-40a0-beb5-afc8de6de8ed","ios":"levelo://app?vid=c5f0cee3-c107-40a0-beb5-afc8de6de8ed"},"vehicle_type_id":"4","last_reported":1700341520,"current_range_meters":800,"station_id":"ce4bgvp2rcd13ifvqct0","pricing_plan_id":"free"},{"bike_id":"4a1eeebc-381a-42de-a98e-f332397794af","system_id":"levelo_inurba_marseille","lat":43.30933,"lon":5.40142,"is_reserved":false,"is_disabled":false,"rental_uris":{"android":"levelo://app?vid=4a1eeebc-381a-42de-a98e-f332397794af","ios":"levelo://app?vid=4a1eeebc-381a-42de-a98e-f332397794af"},"vehicle_type_id":"4","last_reported":1700341520,"current_range_meters":5200,"station_id":"ce4bgvp2rcd13ifvqct0","pricing_plan_id":"free"},{"bike_id":"d999cd80-e6c2-4946-b513-dcf1f233b6e6","system_id":"levelo_inurba_marseille","lat":43.33753,"lon":5.37427,"is_reserved":false,"is_disabled":false,"rental_uris":{"android":"levelo://app?vid=d999cd80-e6c2-4946-b513-dcf1f233b6e6","ios":"levelo://app?vid=d999cd80-e6c2-4946-b513-dcf1f233b6e6"},"vehicle_type_id":"4","last_reported":1700341520,"current_range_meters":26800,"station_id":"","pricing_plan_id":"free"},{"bike_id":"7893ce08-50f9-4548-8045-a6d61920c695","system_id":"levelo_inurba_marseille","lat":43.30651,"lon":5.40077,"is_reserved":false,"is_disabled":false,"rental_uris":{"android":"levelo://app?vid=7893ce08-50f9-4548-8045-a6d61920c695","ios":"levelo://app?vid=7893ce08-50f9-4548-8045-a6d61920c695"},"vehicle_type_id":"4","last_reported":1700341520,"current_range_meters":1200,"station_id":"ce4bh112rcd13ifvqda0","pricing_plan_id":"free"},{"bike_id":"7d94f61e-4e1a-42a0-b1de-35bf4e16cc1c","system_id":"levelo_inurba_marseille","lat":43.30642,"lon":5.401031,"is_reserved":false,"is_disabled":false,"rental_uris":{"android":"levelo://app?vid=7d94f61e-4e1a-42a0-b1de-35bf4e16cc1c","ios":"levelo://app?vid=7d94f61e-4e1a-42a0-b1de-35bf4e16cc1c"},"vehicle_type_id":"4","last_reported":1700341520,"current_range_meters":14000,"station_id":"ce4bh112rcd13ifvqda0","pricing_plan_id":"free"},{"bike_id":"0243db20-ce9a-479f-9d7f-1a62609d3470","system_id":"levelo_inurba_marseille","lat":43.309465,"lon":5.401815,"is_reserved":false,"is_disabled":false,"rental_uris":{"android":"levelo://app?vid=0243db20-ce9a-479f-9d7f-1a62609d3470","ios":"levelo://app?vid=0243db20-ce9a-479f-9d7f-1a62609d3470"},"vehicle_type_id":"4","last_reported":1700341520,"current_range_meters":1600,"station_id":"ce4bgvp2rcd13ifvqct0","pricing_plan_id":"free"},{"bike_id":"8fed093c-5482-4902-a31d-53f81196cca2","system_id":"levelo_inurba_marseille","lat":43.301117,"lon":5.398795,"is_reserved":false,"is_disabled":false,"rental_uris":{"android":"levelo://app?vid=8fed093c-5482-4902-a31d-53f81196cca2","ios":"levelo://app?vid=8fed093c-5482-4902-a31d-53f81196cca2"},"vehicle_type_id":"4","last_reported":1700341520,"current_range_meters":2800,"station_id":"ce4bh0h2rcd13ifvqd40","pricing_plan_id":"free"},{"bike_id":"8e5cf5c8-1dc2-4e3c-a31e-02e895926b4b","system_id":"levelo_inurba_marseille","lat":43.28725,"lon":5.36095,"is_reserved":false,"is_disabled":false,"rental_uris":{"android":"levelo://app?vid=8e5cf5c8-1dc2-4e3c-a31e-02e895926b4b","ios":"levelo://app?vid=8e5cf5c8-1dc2-4e3c-a31e-02e895926b4b"},"vehicle_type_id":"4","last_reported":1700341520,"current_range_meters":15200,"station_id":"cki0cbj6b192h4jlfktg","pricing_plan_id":"free"},{"bike_id":"f5589b03-8248-464b-9149-0e370250beee","system_id":"levelo_inurba_marseille","lat":43.28727,"lon":5.36078,"is_reserved":false,"is_disabled":false,"rental_uris":{"android":"levelo://app?vid=f5589b03-8248-464b-9149-0e370250beee","ios":"levelo://app?vid=f5589b03-8248-464b-9149-0e370250beee"},"vehicle_type_id":"4","last_reported":1700341520,"current_range_meters":17600,"station_id":"cki0cbj6b192h4jlfktg","pricing_plan_id":"free"},{"bike_id":"01415aa6-4d5e-4406-a413-0fd7c809c541","system_id":"levelo_inurba_marseille","lat":43.28727,"lon":5.36078,"is_reserved":false,"is_disabled":false,"rental_uris":{"android":"levelo://app?vid=01415aa6-4d5e-4406-a413-0fd7c809c541","ios":"levelo://app?vid=01415aa6-4d5e-4406-a413-0fd7c809c541"},"vehicle_type_id":"4","last_reported":1700341520,"current_range_meters":17600,"station_id":"cki0cbj6b192h4jlfktg","pricing_plan_id":"free"},{"bike_id":"85ae88ea-00da-4683-995e-4182dc8df8e3","system_id":"levelo_inurba_marseille","lat":43.28721,"lon":5.36079,"is_reserved":false,"is_disabled":false,"rental_uris":{"android":"levelo://app?vid=85ae88ea-00da-4683-995e-4182dc8df8e3","ios":"levelo://app?vid=85ae88ea-00da-4683-995e-4182dc8df8e3"},"vehicle_type_id":"4","last_reported":1700341520,"current_range_meters":0,"station_id":"cki0cbj6b192h4jlfktg","pricing_plan_id":"free"},{"bike_id":"eb97b1eb-2c10-4cce-b0d4-f525bdd1863d","system_id":"levelo_inurba_marseille","lat":43.286961,"lon":5.373785,"is_reserved":false,"is_disabled":false,"rental_uris":{"android":"levelo://app?vid=eb97b1eb-2c10-4cce-b0d4-f525bdd1863d","ios":"levelo://app?vid=eb97b1eb-2c10-4cce-b0d4-f525bdd1863d"},"vehicle_type_id":"4","last_reported":1700341520,"current_range_meters":0,"station_id":"ce4bh3p2rcd13ifvqdq0","pricing_plan_id":"free"},{"bike_id":"4c92ce5e-27a2-4ad9-846c-dbd9d269cd40","system_id":"levelo_inurba_marseille","lat":43.286961,"lon":5.373785,"is_reserved":false,"is_disabled":false,"rental_uris":{"android":"levelo://app?vid=4c92ce5e-27a2-4ad9-846c-dbd9d269cd40","ios":"levelo://app?vid=4c92ce5e-27a2-4ad9-846c-dbd9d269cd40"},"vehicle_type_id":"4","last_reported":1700341520,"current_range_meters":0,"station_id":"ce4bh3p2rcd13ifvqdq0","pricing_plan_id":"free"},{"bike_id":"c4156c03-05db-434b-9335-f46db086271b","system_id":"levelo_inurba_marseille","lat":43.286593,"lon":5.363346,"is_reserved":false,"is_disabled":false,"rental_uris":{"android":"levelo://app?vid=c4156c03-05db-434b-9335-f46db086271b","ios":"levelo://app?vid=c4156c03-05db-434b-9335-f46db086271b"},"vehicle_type_id":"4","last_reported":1700341520,"current_range_meters":4800,"station_id":"ce4bhah2rcd13ifvqej0","pricing_plan_id":"free"},{"bike_id":"e192f739-4d1f-4b39-ad59-480033fe7550","system_id":"levelo_inurba_marseille","lat":43.302759,"lon":5.400793,"is_reserved":false,"is_disabled":false,"rental_uris":{"android":"levelo://app?vid=e192f739-4d1f-4b39-ad59-480033fe7550","ios":"levelo://app?vid=e192f739-4d1f-4b39-ad59-480033fe7550"},"vehicle_type_id":"4","last_reported":1700341520,"current_range_meters":8400,"station_id":"ce4bgvh2rcd13ifvqcs0","pricing_plan_id":"free"},{"bike_id":"e172977f-6c2f-4f90-911c-8442b51b4347","system_id":"levelo_inurba_marseille","lat":43.290303,"lon":5.386325,"is_reserved":false,"is_disabled":false,"rental_uris":{"android":"levelo://app?vid=e172977f-6c2f-4f90-911c-8442b51b4347","ios":"levelo://app?vid=e172977f-6c2f-4f90-911c-8442b51b4347"},"vehicle_type_id":"4","last_reported":1700341520,"current_range_meters":26000,"station_id":"","pricing_plan_id":"free"},{"bike_id":"22400f4a-2b85-4182-90a4-6bdeca6f72d5","system_id":"levelo_inurba_marseille","lat":43.302759,"lon":5.400793,"is_reserved":false,"is_disabled":false,"rental_uris":{"android":"levelo://app?vid=22400f4a-2b85-4182-90a4-6bdeca6f72d5","ios":"levelo://app?vid=22400f4a-2b85-4182-90a4-6bdeca6f72d5"},"vehicle_type_id":"4","last_reported":1700341520,"current_range_meters":9600,"station_id":"ce4bgvh2rcd13ifvqcs0","pricing_plan_id":"free"},{"bike_id":"c481e3ed-bd70-4aa7-a2e1-bd468838a7f2","system_id":"levelo_inurba_marseille","lat":43.287679,"lon":5.379806,"is_reserved":false,"is_disabled":false,"rental_uris":{"android":"levelo://app?vid=c481e3ed-bd70-4aa7-a2e1-bd468838a7f2","ios":"levelo://app?vid=c481e3ed-bd70-4aa7-a2e1-bd468838a7f2"},"vehicle_type_id":"4","last_reported":1700341520,"current_range_meters":800,"station_id":"","pricing_plan_id":"free"},{"bike_id":"bd02a94e-9d32-4681-810c-9b1423c33aae","system_id":"levelo_inurba_marseille","lat":43.287185,"lon":5.379373,"is_reserved":false,"is_disabled":false,"rental_uris":{"android":"levelo://app?vid=bd02a94e-9d32-4681-810c-9b1423c33aae","ios":"levelo://app?vid=bd02a94e-9d32-4681-810c-9b1423c33aae"},"vehicle_type_id":"4","last_reported":1700341520,"current_range_meters":31200,"station_id":"ce4bh9p2rcd13ifvqec0","pricing_plan_id":"free"},{"bike_id":"0b46b1b4-f42b-4e67-9aef-2797da64a2b5","system_id":"levelo_inurba_marseille","lat":43.331114,"lon":5.396715,"is_reserved":false,"is_disabled":false,"rental_uris":{"android":"levelo://app?vid=0b46b1b4-f42b-4e67-9aef-2797da64a2b5","ios":"levelo://app?vid=0b46b1b4-f42b-4e67-9aef-2797da64a2b5"},"vehicle_type_id":"4","last_reported":1700341520,"current_range_meters":17600,"station_id":"","pricing_plan_id":"free"},{"bike_id":"b7ad751d-a1b7-4070-89be-c0edf6146a62","system_id":"levelo_inurba_marseille","lat":43.284538,"lon":5.358657,"is_reserved":false,"is_disabled":false,"rental_uris":{"android":"levelo://app?vid=b7ad751d-a1b7-4070-89be-c0edf6146a62","ios":"levelo://app?vid=b7ad751d-a1b7-4070-89be-c0edf6146a62"},"vehicle_type_id":"4","last_reported":1700341520,"current_range_meters":0,"station_id":"ce4bhah2rcd13ifvqei0","pricing_plan_id":"free"},{"bike_id":"99de5e8e-71b0-4ad2-b517-84e912871ac8","system_id":"levelo_inurba_marseille","lat":43.284538,"lon":5.358657,"is_reserved":false,"is_disabled":false,"rental_uris":{"android":"levelo://app?vid=99de5e8e-71b0-4ad2-b517-84e912871ac8","ios":"levelo://app?vid=99de5e8e-71b0-4ad2-b517-84e912871ac8"},"vehicle_type_id":"4","last_reported":1700341520,"current_range_meters":2000,"station_id":"ce4bhah2rcd13ifvqei0","pricing_plan_id":"free"},{"bike_id":"4a96ea9f-08d4-4c56-8260-57216b0fc889","system_id":"levelo_inurba_marseille","lat":43.284538,"lon":5.358657,"is_reserved":false,"is_disabled":false,"rental_uris":{"android":"levelo://app?vid=4a96ea9f-08d4-4c56-8260-57216b0fc889","ios":"levelo://app?vid=4a96ea9f-08d4-4c56-8260-57216b0fc889"},"vehicle_type_id":"4","last_reported":1700341520,"current_range_meters":2800,"station_id":"ce4bhah2rcd13ifvqei0","pricing_plan_id":"free"},{"bike_id":"5ad3762e-98c7-4713-b667-13446714c1da","system_id":"levelo_inurba_marseille","lat":43.28617,"lon":5.35105,"is_reserved":false,"is_disabled":false,"rental_uris":{"android":"levelo://app?vid=5ad3762e-98c7-4713-b667-13446714c1da","ios":"levelo://app?vid=5ad3762e-98c7-4713-b667-13446714c1da"},"vehicle_type_id":"4","last_reported":1700341520,"current_range_meters":24800,"station_id":"ce4bhch2rcd13ifvqeug","pricing_plan_id":"free"},{"bike_id":"4c06bf48-1cfd-4969-b1c4-02ef6fb94e9f","system_id":"levelo_inurba_marseille","lat":43.283998,"lon":5.375062,"is_reserved":false,"is_disabled":false,"rental_uris":{"android":"levelo://app?vid=4c06bf48-1cfd-4969-b1c4-02ef6fb94e9f","ios":"levelo://app?vid=4c06bf48-1cfd-4969-b1c4-02ef6fb94e9f"},"vehicle_type_id":"4","last_reported":1700341520,"current_range_meters":14800,"station_id":"ce4bh412rcd13ifvqds0","pricing_plan_id":"free"},{"bike_id":"f5e7e833-7ea8-49ac-aa98-6ce0b2839956","system_id":"levelo_inurba_marseille","lat":43.283998,"lon":5.375062,"is_reserved":false,"is_disabled":false,"rental_uris":{"android":"levelo://app?vid=f5e7e833-7ea8-49ac-aa98-6ce0b2839956","ios":"levelo://app?vid=f5e7e833-7ea8-49ac-aa98-6ce0b2839956"},"vehicle_type_id":"4","last_reported":1700341520,"current_range_meters":2800,"station_id":"ce4bh412rcd13ifvqds0","pricing_plan_id":"free"},{"bike_id":"aec7761e-f697-4df3-bfcb-d96238ee77d3","system_id":"levelo_inurba_marseille","lat":43.284102,"lon":5.375095,"is_reserved":false,"is_disabled":false,"rental_uris":{"android":"levelo://app?vid=aec7761e-f697-4df3-bfcb-d96238ee77d3","ios":"levelo://app?vid=aec7761e-f697-4df3-bfcb-d96238ee77d3"},"vehicle_type_id":"4","last_reported":1700341520,"current_range_meters":23200,"station_id":"","pricing_plan_id":"free"},{"bike_id":"d94dfb15-e572-4e59-af3c-ee7cbd62cef5","system_id":"levelo_inurba_marseille","lat":43.295717,"lon":5.399697,"is_reserved":false,"is_disabled":false,"rental_uris":{"android":"levelo://app?vid=d94dfb15-e572-4e59-af3c-ee7cbd62cef5","ios":"levelo://app?vid=d94dfb15-e572-4e59-af3c-ee7cbd62cef5"},"vehicle_type_id":"4","last_reported":1700341520,"current_range_meters":12800,"station_id":"","pricing_plan_id":"free"},{"bike_id":"fe9e64b3-9460-404c-b9e5-3996f63f9fbd","system_id":"levelo_inurba_marseille","lat":43.28404,"lon":5.37524,"is_reserved":false,"is_disabled":false,"rental_uris":{"android":"levelo://app?vid=fe9e64b3-9460-404c-b9e5-3996f63f9fbd","ios":"levelo://app?vid=fe9e64b3-9460-404c-b9e5-3996f63f9fbd"},"vehicle_type_id":"4","last_reported":1700341520,"current_range_meters":5200,"station_id":"ce4bh412rcd13ifvqds0","pricing_plan_id":"free"},{"bike_id":"83817918-40fc-48a0-b4d2-4ca9f198594c","system_id":"levelo_inurba_marseille","lat":43.294538,"lon":5.39855,"is_reserved":false,"is_disabled":false,"rental_uris":{"android":"levelo://app?vid=83817918-40fc-48a0-b4d2-4ca9f198594c","ios":"levelo://app?vid=83817918-40fc-48a0-b4d2-4ca9f198594c"},"vehicle_type_id":"4","last_reported":1700341520,"current_range_meters":0,"station_id":"","pricing_plan_id":"free"},{"bike_id":"a5f72f03-421b-4a89-a964-d904aa6a0c23","system_id":"levelo_inurba_marseille","lat":43.28401,"lon":5.37519,"is_reserved":false,"is_disabled":false,"rental_uris":{"android":"levelo://app?vid=a5f72f03-421b-4a89-a964-d904aa6a0c23","ios":"levelo://app?vid=a5f72f03-421b-4a89-a964-d904aa6a0c23"},"vehicle_type_id":"4","last_reported":1700341520,"current_range_meters":28000,"station_id":"ce4bh412rcd13ifvqds0","pricing_plan_id":"free"},{"bike_id":"50f0e06e-acd0-4483-9b63-a91536ddcd35","system_id":"levelo_inurba_marseille","lat":43.28398,"lon":5.37524,"is_reserved":false,"is_disabled":false,"rental_uris":{"android":"levelo://app?vid=50f0e06e-acd0-4483-9b63-a91536ddcd35","ios":"levelo://app?vid=50f0e06e-acd0-4483-9b63-a91536ddcd35"},"vehicle_type_id":"4","last_reported":1700341520,"current_range_meters":2800,"station_id":"ce4bh412rcd13ifvqds0","pricing_plan_id":"free"},{"bike_id":"fa37f1fa-6821-4fd8-820b-b85152e80cf4","system_id":"levelo_inurba_marseille","lat":43.319179,"lon":5.407725,"is_reserved":false,"is_disabled":false,"rental_uris":{"android":"levelo://app?vid=fa37f1fa-6821-4fd8-820b-b85152e80cf4","ios":"levelo://app?vid=fa37f1fa-6821-4fd8-820b-b85152e80cf4"},"vehicle_type_id":"4","last_reported":1700341520,"current_range_meters":11600,"station_id":"ce4bhq12rcd13ifvqhig","pricing_plan_id":"free"},{"bike_id":"5974ad3b-da81-42ca-a08b-1b3632a47afa","system_id":"levelo_inurba_marseille","lat":43.33237,"lon":5.3985,"is_reserved":false,"is_disabled":false,"rental_uris":{"android":"levelo://app?vid=5974ad3b-da81-42ca-a08b-1b3632a47afa","ios":"levelo://app?vid=5974ad3b-da81-42ca-a08b-1b3632a47afa"},"vehicle_type_id":"4","last_reported":1700341520,"current_range_meters":4000,"station_id":"","pricing_plan_id":"free"},{"bike_id":"f0817559-1fd9-42b1-a032-7eb3bb4fd162","system_id":"levelo_inurba_marseille","lat":43.284534,"lon":5.358662,"is_reserved":false,"is_disabled":false,"rental_uris":{"android":"levelo://app?vid=f0817559-1fd9-42b1-a032-7eb3bb4fd162","ios":"levelo://app?vid=f0817559-1fd9-42b1-a032-7eb3bb4fd162"},"vehicle_type_id":"4","last_reported":1700341520,"current_range_meters":9600,"station_id":"ce4bhah2rcd13ifvqei0","pricing_plan_id":"free"},{"bike_id":"6364147f-5b0d-4e52-9491-e43b350f5c7a","system_id":"levelo_inurba_marseille","lat":43.33717,"lon":5.391857,"is_reserved":false,"is_disabled":false,"rental_uris":{"android":"levelo://app?vid=6364147f-5b0d-4e52-9491-e43b350f5c7a","ios":"levelo://app?vid=6364147f-5b0d-4e52-9491-e43b350f5c7a"},"vehicle_type_id":"4","last_reported":1700341520,"current_range_meters":27600,"station_id":"ce4bhr92rcd13ifvqhsg","pricing_plan_id":"free"},{"bike_id":"3602b74d-bc5d-4276-85ce-c45681ab1737","system_id":"levelo_inurba_marseille","lat":43.33717,"lon":5.391857,"is_reserved":false,"is_disabled":false,"rental_uris":{"android":"levelo://app?vid=3602b74d-bc5d-4276-85ce-c45681ab1737","ios":"levelo://app?vid=3602b74d-bc5d-4276-85ce-c45681ab1737"},"vehicle_type_id":"4","last_reported":1700341520,"current_range_meters":28000,"station_id":"ce4bhr92rcd13ifvqhsg","pricing_plan_id":"free"},{"bike_id":"ea3b5648-f090-41e6-b2bb-8c8be19c5099","system_id":"levelo_inurba_marseille","lat":43.323464,"lon":5.406297,"is_reserved":false,"is_disabled":false,"rental_uris":{"android":"levelo://app?vid=ea3b5648-f090-41e6-b2bb-8c8be19c5099","ios":"levelo://app?vid=ea3b5648-f090-41e6-b2bb-8c8be19c5099"},"vehicle_type_id":"4","last_reported":1700341520,"current_range_meters":24000,"station_id":"ce4bhq92rcd13ifvqhjg","pricing_plan_id":"free"},{"bike_id":"d3dd3e3d-57b0-4c9e-949f-fddd56c2349c","system_id":"levelo_inurba_marseille","lat":43.32521,"lon":5.40575,"is_reserved":false,"is_disabled":false,"rental_uris":{"android":"levelo://app?vid=d3dd3e3d-57b0-4c9e-949f-fddd56c2349c","ios":"levelo://app?vid=d3dd3e3d-57b0-4c9e-949f-fddd56c2349c"},"vehicle_type_id":"4","last_reported":1700341520,"current_range_meters":1200,"station_id":"","pricing_plan_id":"free"},{"bike_id":"dea62d53-244b-4632-ba29-78193f381bcc","system_id":"levelo_inurba_marseille","lat":43.289363,"lon":5.396322,"is_reserved":false,"is_disabled":false,"rental_uris":{"android":"levelo://app?vid=dea62d53-244b-4632-ba29-78193f381bcc","ios":"levelo://app?vid=dea62d53-244b-4632-ba29-78193f381bcc"},"vehicle_type_id":"4","last_reported":1700341520,"current_range_meters":2800,"station_id":"ce4bh3h2rcd13ifvqdn0","pricing_plan_id":"free"},{"bike_id":"e1e4f5fb-3a5b-4168-bc63-7ccb4aa7775f","system_id":"levelo_inurba_marseille","lat":43.28941,"lon":5.3964,"is_reserved":false,"is_disabled":false,"rental_uris":{"android":"levelo://app?vid=e1e4f5fb-3a5b-4168-bc63-7ccb4aa7775f","ios":"levelo://app?vid=e1e4f5fb-3a5b-4168-bc63-7ccb4aa7775f"},"vehicle_type_id":"4","last_reported":1700341520,"current_range_meters":27600,"station_id":"ce4bh3h2rcd13ifvqdn0","pricing_plan_id":"free"},{"bike_id":"b54a5be1-3206-463d-a51e-a2c085cd81c5","system_id":"levelo_inurba_marseille","lat":43.282719,"lon":5.350656,"is_reserved":false,"is_disabled":false,"rental_uris":{"android":"levelo://app?vid=b54a5be1-3206-463d-a51e-a2c085cd81c5","ios":"levelo://app?vid=b54a5be1-3206-463d-a51e-a2c085cd81c5"},"vehicle_type_id":"4","last_reported":1700341520,"current_range_meters":0,"station_id":"ce4bhbp2rcd13ifvqerg","pricing_plan_id":"free"},{"bike_id":"809faf2e-ae75-40ff-941f-f1d697814f21","system_id":"levelo_inurba_marseille","lat":43.280382,"lon":5.369291,"is_reserved":false,"is_disabled":false,"rental_uris":{"android":"levelo://app?vid=809faf2e-ae75-40ff-941f-f1d697814f21","ios":"levelo://app?vid=809faf2e-ae75-40ff-941f-f1d697814f21"},"vehicle_type_id":"4","last_reported":1700341520,"current_range_meters":17200,"station_id":"ce4bha12rcd13ifvqef0","pricing_plan_id":"free"},{"bike_id":"df348ccf-7ffc-4253-95f7-bf3beb0b8892","system_id":"levelo_inurba_marseille","lat":43.280382,"lon":5.369291,"is_reserved":false,"is_disabled":false,"rental_uris":{"android":"levelo://app?vid=df348ccf-7ffc-4253-95f7-bf3beb0b8892","ios":"levelo://app?vid=df348ccf-7ffc-4253-95f7-bf3beb0b8892"},"vehicle_type_id":"4","last_reported":1700341520,"current_range_meters":20000,"station_id":"ce4bha12rcd13ifvqef0","pricing_plan_id":"free"},{"bike_id":"4b1b66f1-ca77-4e1f-a4b1-049d31d68d81","system_id":"levelo_inurba_marseille","lat":43.280382,"lon":5.369291,"is_reserved":false,"is_disabled":false,"rental_uris":{"android":"levelo://app?vid=4b1b66f1-ca77-4e1f-a4b1-049d31d68d81","ios":"levelo://app?vid=4b1b66f1-ca77-4e1f-a4b1-049d31d68d81"},"vehicle_type_id":"4","last_reported":1700341520,"current_range_meters":6800,"station_id":"ce4bha12rcd13ifvqef0","pricing_plan_id":"free"},{"bike_id":"dea2ab5d-c775-49f6-8dfc-0865912e50f4","system_id":"levelo_inurba_marseille","lat":43.281044,"lon":5.378308,"is_reserved":false,"is_disabled":false,"rental_uris":{"android":"levelo://app?vid=dea2ab5d-c775-49f6-8dfc-0865912e50f4","ios":"levelo://app?vid=dea2ab5d-c775-49f6-8dfc-0865912e50f4"},"vehicle_type_id":"4","last_reported":1700341520,"current_range_meters":12000,"station_id":"ce4bha12rcd13ifvqee0","pricing_plan_id":"free"},{"bike_id":"59292d2b-610d-4359-a2f6-f973d9afe39d","system_id":"levelo_inurba_marseille","lat":43.296263,"lon":5.40601,"is_reserved":false,"is_disabled":false,"rental_uris":{"android":"levelo://app?vid=59292d2b-610d-4359-a2f6-f973d9afe39d","ios":"levelo://app?vid=59292d2b-610d-4359-a2f6-f973d9afe39d"},"vehicle_type_id":"4","last_reported":1700341520,"current_range_meters":2400,"station_id":"ce4bh0h2rcd13ifvqd60","pricing_plan_id":"free"},{"bike_id":"ccf9b17e-2fb6-47d5-b5cb-73ea08fcb6e5","system_id":"levelo_inurba_marseille","lat":43.28575,"lon":5.39498,"is_reserved":false,"is_disabled":false,"rental_uris":{"android":"levelo://app?vid=ccf9b17e-2fb6-47d5-b5cb-73ea08fcb6e5","ios":"levelo://app?vid=ccf9b17e-2fb6-47d5-b5cb-73ea08fcb6e5"},"vehicle_type_id":"4","last_reported":1700341520,"current_range_meters":0,"station_id":"ce4bh292rcd13ifvqdg0","pricing_plan_id":"free"},{"bike_id":"feca28d2-7019-4e39-96be-d7938cc29597","system_id":"levelo_inurba_marseille","lat":43.32435,"lon":5.4137,"is_reserved":false,"is_disabled":false,"rental_uris":{"android":"levelo://app?vid=feca28d2-7019-4e39-96be-d7938cc29597","ios":"levelo://app?vid=feca28d2-7019-4e39-96be-d7938cc29597"},"vehicle_type_id":"4","last_reported":1700341520,"current_range_meters":0,"station_id":"","pricing_plan_id":"free"},{"bike_id":"92fbbf8c-71b6-4e9c-b10e-70a690f0010a","system_id":"levelo_inurba_marseille","lat":43.320398,"lon":5.4156,"is_reserved":false,"is_disabled":false,"rental_uris":{"android":"levelo://app?vid=92fbbf8c-71b6-4e9c-b10e-70a690f0010a","ios":"levelo://app?vid=92fbbf8c-71b6-4e9c-b10e-70a690f0010a"},"vehicle_type_id":"4","last_reported":1700341520,"current_range_meters":0,"station_id":"ce4bhq92rcd13ifvqhkg","pricing_plan_id":"free"},{"bike_id":"06e55444-8c7b-4286-8721-edc4e2df61d8","system_id":"levelo_inurba_marseille","lat":43.27962,"lon":5.38713,"is_reserved":false,"is_disabled":false,"rental_uris":{"android":"levelo://app?vid=06e55444-8c7b-4286-8721-edc4e2df61d8","ios":"levelo://app?vid=06e55444-8c7b-4286-8721-edc4e2df61d8"},"vehicle_type_id":"4","last_reported":1700341520,"current_range_meters":0,"station_id":"ce4bhg12rcd13ifvqf80","pricing_plan_id":"free"},{"bike_id":"e55930c5-58c3-4a3e-8b97-52558b02a214","system_id":"levelo_inurba_marseille","lat":43.279742,"lon":5.38744,"is_reserved":false,"is_disabled":false,"rental_uris":{"android":"levelo://app?vid=e55930c5-58c3-4a3e-8b97-52558b02a214","ios":"levelo://app?vid=e55930c5-58c3-4a3e-8b97-52558b02a214"},"vehicle_type_id":"4","last_reported":1700341520,"current_range_meters":4000,"station_id":"ce4bhg12rcd13ifvqf80","pricing_plan_id":"free"},{"bike_id":"e60a3918-77dc-427b-8a43-02ba89e68286","system_id":"levelo_inurba_marseille","lat":43.292571,"lon":5.409107,"is_reserved":false,"is_disabled":false,"rental_uris":{"android":"levelo://app?vid=e60a3918-77dc-427b-8a43-02ba89e68286","ios":"levelo://app?vid=e60a3918-77dc-427b-8a43-02ba89e68286"},"vehicle_type_id":"4","last_reported":1700341520,"current_range_meters":21200,"station_id":"ce4bh192rcd13ifvqdc0","pricing_plan_id":"free"},{"bike_id":"3a34ab10-d5a5-454b-aa99-068a762dd74b","system_id":"levelo_inurba_marseille","lat":43.292569,"lon":5.409107,"is_reserved":false,"is_disabled":false,"rental_uris":{"android":"levelo://app?vid=3a34ab10-d5a5-454b-aa99-068a762dd74b","ios":"levelo://app?vid=3a34ab10-d5a5-454b-aa99-068a762dd74b"},"vehicle_type_id":"4","last_reported":1700341520,"current_range_meters":1200,"station_id":"ce4bh192rcd13ifvqdc0","pricing_plan_id":"free"},{"bike_id":"9d813253-84b6-4a8e-9ccb-76b69888cab3","system_id":"levelo_inurba_marseille","lat":43.325233,"lon":5.414318,"is_reserved":false,"is_disabled":false,"rental_uris":{"android":"levelo://app?vid=9d813253-84b6-4a8e-9ccb-76b69888cab3","ios":"levelo://app?vid=9d813253-84b6-4a8e-9ccb-76b69888cab3"},"vehicle_type_id":"4","last_reported":1700341520,"current_range_meters":29600,"station_id":"ce4bhq12rcd13ifvqhhg","pricing_plan_id":"free"},{"bike_id":"55118acd-67a3-4650-a017-364909cf9c18","system_id":"levelo_inurba_marseille","lat":43.277393,"lon":5.383603,"is_reserved":false,"is_disabled":false,"rental_uris":{"android":"levelo://app?vid=55118acd-67a3-4650-a017-364909cf9c18","ios":"levelo://app?vid=55118acd-67a3-4650-a017-364909cf9c18"},"vehicle_type_id":"4","last_reported":1700341520,"current_range_meters":0,"station_id":"","pricing_plan_id":"free"},{"bike_id":"6d844257-b09d-4592-bcec-a60aff98cb4a","system_id":"levelo_inurba_marseille","lat":43.299579,"lon":5.413255,"is_reserved":false,"is_disabled":false,"rental_uris":{"android":"levelo://app?vid=6d844257-b09d-4592-bcec-a60aff98cb4a","ios":"levelo://app?vid=6d844257-b09d-4592-bcec-a60aff98cb4a"},"vehicle_type_id":"4","last_reported":1700341520,"current_range_meters":25200,"station_id":"ce4bhp12rcd13ifvqh9g","pricing_plan_id":"free"},{"bike_id":"aba18ede-dbdc-467d-a9b0-d6bfc986572d","system_id":"levelo_inurba_marseille","lat":43.280784,"lon":5.396622,"is_reserved":false,"is_disabled":false,"rental_uris":{"android":"levelo://app?vid=aba18ede-dbdc-467d-a9b0-d6bfc986572d","ios":"levelo://app?vid=aba18ede-dbdc-467d-a9b0-d6bfc986572d"},"vehicle_type_id":"4","last_reported":1700341520,"current_range_meters":21600,"station_id":"ce4bho12rcd13ifvqh2g","pricing_plan_id":"free"},{"bike_id":"f9e05f08-87e9-40de-93d7-e360681eb739","system_id":"levelo_inurba_marseille","lat":43.303837,"lon":5.418724,"is_reserved":false,"is_disabled":false,"rental_uris":{"android":"levelo://app?vid=f9e05f08-87e9-40de-93d7-e360681eb739","ios":"levelo://app?vid=f9e05f08-87e9-40de-93d7-e360681eb739"},"vehicle_type_id":"4","last_reported":1700341520,"current_range_meters":2000,"station_id":"ce4bhop2rcd13ifvqh7g","pricing_plan_id":"free"},{"bike_id":"ff5bde1e-7f62-4cd6-9717-b4b13567f6b8","system_id":"levelo_inurba_marseille","lat":43.278399,"lon":5.392139,"is_reserved":false,"is_disabled":false,"rental_uris":{"android":"levelo://app?vid=ff5bde1e-7f62-4cd6-9717-b4b13567f6b8","ios":"levelo://app?vid=ff5bde1e-7f62-4cd6-9717-b4b13567f6b8"},"vehicle_type_id":"4","last_reported":1700341520,"current_range_meters":14800,"station_id":"ce4bhjp2rcd13ifvqga0","pricing_plan_id":"free"},{"bike_id":"9f0756b9-e3ea-4109-95ce-705c7afe44e4","system_id":"levelo_inurba_marseille","lat":43.278399,"lon":5.392139,"is_reserved":false,"is_disabled":false,"rental_uris":{"android":"levelo://app?vid=9f0756b9-e3ea-4109-95ce-705c7afe44e4","ios":"levelo://app?vid=9f0756b9-e3ea-4109-95ce-705c7afe44e4"},"vehicle_type_id":"4","last_reported":1700341520,"current_range_meters":25600,"station_id":"ce4bhjp2rcd13ifvqga0","pricing_plan_id":"free"},{"bike_id":"92c96367-6fa3-4bd7-8c7c-5214b7d78a38","system_id":"levelo_inurba_marseille","lat":43.336148,"lon":5.410349,"is_reserved":false,"is_disabled":false,"rental_uris":{"android":"levelo://app?vid=92c96367-6fa3-4bd7-8c7c-5214b7d78a38","ios":"levelo://app?vid=92c96367-6fa3-4bd7-8c7c-5214b7d78a38"},"vehicle_type_id":"4","last_reported":1700341520,"current_range_meters":7200,"station_id":"ce4bhqh2rcd13ifvqhmg","pricing_plan_id":"free"},{"bike_id":"1c489e8f-9c52-4563-a1a2-18535a1743aa","system_id":"levelo_inurba_marseille","lat":43.28002,"lon":5.40003,"is_reserved":false,"is_disabled":false,"rental_uris":{"android":"levelo://app?vid=1c489e8f-9c52-4563-a1a2-18535a1743aa","ios":"levelo://app?vid=1c489e8f-9c52-4563-a1a2-18535a1743aa"},"vehicle_type_id":"4","last_reported":1700341520,"current_range_meters":32000,"station_id":"ce4bho92rcd13ifvqh4g","pricing_plan_id":"free"},{"bike_id":"e6d4981d-66fd-40f8-9520-f7addfae3aee","system_id":"levelo_inurba_marseille","lat":43.280018,"lon":5.400082,"is_reserved":false,"is_disabled":false,"rental_uris":{"android":"levelo://app?vid=e6d4981d-66fd-40f8-9520-f7addfae3aee","ios":"levelo://app?vid=e6d4981d-66fd-40f8-9520-f7addfae3aee"},"vehicle_type_id":"4","last_reported":1700341520,"current_range_meters":15600,"station_id":"ce4bho92rcd13ifvqh4g","pricing_plan_id":"free"},{"bike_id":"afc0c8e9-55e8-458c-a8cc-ad2f68146d69","system_id":"levelo_inurba_marseille","lat":43.279943,"lon":5.400045,"is_reserved":false,"is_disabled":false,"rental_uris":{"android":"levelo://app?vid=afc0c8e9-55e8-458c-a8cc-ad2f68146d69","ios":"levelo://app?vid=afc0c8e9-55e8-458c-a8cc-ad2f68146d69"},"vehicle_type_id":"4","last_reported":1700341520,"current_range_meters":3200,"station_id":"ce4bho92rcd13ifvqh4g","pricing_plan_id":"free"},{"bike_id":"18d269e8-2e40-4f1f-8cc3-732ff54d70ea","system_id":"levelo_inurba_marseille","lat":43.27992,"lon":5.40021,"is_reserved":false,"is_disabled":false,"rental_uris":{"android":"levelo://app?vid=18d269e8-2e40-4f1f-8cc3-732ff54d70ea","ios":"levelo://app?vid=18d269e8-2e40-4f1f-8cc3-732ff54d70ea"},"vehicle_type_id":"4","last_reported":1700341520,"current_range_meters":32000,"station_id":"ce4bho92rcd13ifvqh4g","pricing_plan_id":"free"},{"bike_id":"8cb3fbde-a7e5-41de-94f3-c33c37555f74","system_id":"levelo_inurba_marseille","lat":43.317121,"lon":5.423936,"is_reserved":false,"is_disabled":false,"rental_uris":{"android":"levelo://app?vid=8cb3fbde-a7e5-41de-94f3-c33c37555f74","ios":"levelo://app?vid=8cb3fbde-a7e5-41de-94f3-c33c37555f74"},"vehicle_type_id":"4","last_reported":1700341520,"current_range_meters":28400,"station_id":"ce4bhp92rcd13ifvqhbg","pricing_plan_id":"free"},{"bike_id":"6a1ac488-0f01-4556-994b-33b4d135c8c9","system_id":"levelo_inurba_marseille","lat":43.310785,"lon":5.424305,"is_reserved":false,"is_disabled":false,"rental_uris":{"android":"levelo://app?vid=6a1ac488-0f01-4556-994b-33b4d135c8c9","ios":"levelo://app?vid=6a1ac488-0f01-4556-994b-33b4d135c8c9"},"vehicle_type_id":"4","last_reported":1700341520,"current_range_meters":7200,"station_id":"ce4bhp92rcd13ifvqhag","pricing_plan_id":"free"},{"bike_id":"1cd994da-f57f-48ef-9031-dcc2fe311f8c","system_id":"levelo_inurba_marseille","lat":43.340804,"lon":5.410219,"is_reserved":false,"is_disabled":false,"rental_uris":{"android":"levelo://app?vid=1cd994da-f57f-48ef-9031-dcc2fe311f8c","ios":"levelo://app?vid=1cd994da-f57f-48ef-9031-dcc2fe311f8c"},"vehicle_type_id":"4","last_reported":1700341520,"current_range_meters":13600,"station_id":"ce4bhqh2rcd13ifvqhlg","pricing_plan_id":"free"},{"bike_id":"d14e2bd4-0bf5-4c65-8eee-5823a764ec83","system_id":"levelo_inurba_marseille","lat":43.340804,"lon":5.410219,"is_reserved":false,"is_disabled":false,"rental_uris":{"android":"levelo://app?vid=d14e2bd4-0bf5-4c65-8eee-5823a764ec83","ios":"levelo://app?vid=d14e2bd4-0bf5-4c65-8eee-5823a764ec83"},"vehicle_type_id":"4","last_reported":1700341520,"current_range_meters":6400,"station_id":"ce4bhqh2rcd13ifvqhlg","pricing_plan_id":"free"},{"bike_id":"d2840ce7-777c-4c0a-8d16-8870e8cac5a8","system_id":"levelo_inurba_marseille","lat":43.304096,"lon":5.425385,"is_reserved":false,"is_disabled":false,"rental_uris":{"android":"levelo://app?vid=d2840ce7-777c-4c0a-8d16-8870e8cac5a8","ios":"levelo://app?vid=d2840ce7-777c-4c0a-8d16-8870e8cac5a8"},"vehicle_type_id":"4","last_reported":1700341520,"current_range_meters":0,"station_id":"ce4bhoh2rcd13ifvqh6g","pricing_plan_id":"free"},{"bike_id":"f8f5619a-a183-461d-b100-453fb972fcd4","system_id":"levelo_inurba_marseille","lat":43.272118,"lon":5.391758,"is_reserved":false,"is_disabled":false,"rental_uris":{"android":"levelo://app?vid=f8f5619a-a183-461d-b100-453fb972fcd4","ios":"levelo://app?vid=f8f5619a-a183-461d-b100-453fb972fcd4"},"vehicle_type_id":"4","last_reported":1700341520,"current_range_meters":24800,"station_id":"ce4bhhp2rcd13ifvqfm0","pricing_plan_id":"free"},{"bike_id":"139753b1-0b83-4c3a-80f1-5052bac15461","system_id":"levelo_inurba_marseille","lat":43.272099,"lon":5.392668,"is_reserved":false,"is_disabled":false,"rental_uris":{"android":"levelo://app?vid=139753b1-0b83-4c3a-80f1-5052bac15461","ios":"levelo://app?vid=139753b1-0b83-4c3a-80f1-5052bac15461"},"vehicle_type_id":"4","last_reported":1700341520,"current_range_meters":9600,"station_id":"","pricing_plan_id":"free"},{"bike_id":"fe139271-7817-4645-9ec4-f7eee743e805","system_id":"levelo_inurba_marseille","lat":43.271896,"lon":5.392307,"is_reserved":false,"is_disabled":false,"rental_uris":{"android":"levelo://app?vid=fe139271-7817-4645-9ec4-f7eee743e805","ios":"levelo://app?vid=fe139271-7817-4645-9ec4-f7eee743e805"},"vehicle_type_id":"4","last_reported":1700341520,"current_range_meters":0,"station_id":"ce4bhhp2rcd13ifvqfm0","pricing_plan_id":"free"},{"bike_id":"f0ed4531-078e-42fb-a007-3ed80505eb54","system_id":"levelo_inurba_marseille","lat":43.271891,"lon":5.392412,"is_reserved":false,"is_disabled":false,"rental_uris":{"android":"levelo://app?vid=f0ed4531-078e-42fb-a007-3ed80505eb54","ios":"levelo://app?vid=f0ed4531-078e-42fb-a007-3ed80505eb54"},"vehicle_type_id":"4","last_reported":1700341520,"current_range_meters":5600,"station_id":"","pricing_plan_id":"free"},{"bike_id":"f9aa93c7-ef9b-4c09-b88b-3c4a52c1051f","system_id":"levelo_inurba_marseille","lat":43.278128,"lon":5.407195,"is_reserved":false,"is_disabled":false,"rental_uris":{"android":"levelo://app?vid=f9aa93c7-ef9b-4c09-b88b-3c4a52c1051f","ios":"levelo://app?vid=f9aa93c7-ef9b-4c09-b88b-3c4a52c1051f"},"vehicle_type_id":"4","last_reported":1700341520,"current_range_meters":30000,"station_id":"ce4bhnh2rcd13ifvqgtg","pricing_plan_id":"free"},{"bike_id":"3b52f128-fd97-485c-8434-08a3d5c33435","system_id":"levelo_inurba_marseille","lat":43.269467,"lon":5.386439,"is_reserved":false,"is_disabled":false,"rental_uris":{"android":"levelo://app?vid=3b52f128-fd97-485c-8434-08a3d5c33435","ios":"levelo://app?vid=3b52f128-fd97-485c-8434-08a3d5c33435"},"vehicle_type_id":"4","last_reported":1700341520,"current_range_meters":5600,"station_id":"ce4bhh92rcd13ifvqfh0","pricing_plan_id":"free"},{"bike_id":"462126be-b935-4202-aab0-db26edf447e2","system_id":"levelo_inurba_marseille","lat":43.326111,"lon":5.427105,"is_reserved":false,"is_disabled":false,"rental_uris":{"android":"levelo://app?vid=462126be-b935-4202-aab0-db26edf447e2","ios":"levelo://app?vid=462126be-b935-4202-aab0-db26edf447e2"},"vehicle_type_id":"4","last_reported":1700341520,"current_range_meters":10400,"station_id":"","pricing_plan_id":"free"},{"bike_id":"f43d9a9c-5cec-49e0-a18d-9b539aa37375","system_id":"levelo_inurba_marseille","lat":43.279465,"lon":5.410561,"is_reserved":false,"is_disabled":false,"rental_uris":{"android":"levelo://app?vid=f43d9a9c-5cec-49e0-a18d-9b539aa37375","ios":"levelo://app?vid=f43d9a9c-5cec-49e0-a18d-9b539aa37375"},"vehicle_type_id":"4","last_reported":1700341520,"current_range_meters":20000,"station_id":"ce4bhnp2rcd13ifvqh0g","pricing_plan_id":"free"},{"bike_id":"9be3c65f-f0ea-411a-9ecf-69a02f959f57","system_id":"levelo_inurba_marseille","lat":43.279465,"lon":5.410561,"is_reserved":false,"is_disabled":false,"rental_uris":{"android":"levelo://app?vid=9be3c65f-f0ea-411a-9ecf-69a02f959f57","ios":"levelo://app?vid=9be3c65f-f0ea-411a-9ecf-69a02f959f57"},"vehicle_type_id":"4","last_reported":1700341520,"current_range_meters":17600,"station_id":"ce4bhnp2rcd13ifvqh0g","pricing_plan_id":"free"},{"bike_id":"474f0885-4fc1-42fc-bc31-2d07f8c6b7dc","system_id":"levelo_inurba_marseille","lat":43.269319,"lon":5.389397,"is_reserved":false,"is_disabled":false,"rental_uris":{"android":"levelo://app?vid=474f0885-4fc1-42fc-bc31-2d07f8c6b7dc","ios":"levelo://app?vid=474f0885-4fc1-42fc-bc31-2d07f8c6b7dc"},"vehicle_type_id":"4","last_reported":1700341520,"current_range_meters":0,"station_id":"ce4bhhh2rcd13ifvqfl0","pricing_plan_id":"free"},{"bike_id":"c66ddc89-f5f8-4891-a146-125b11f6fdcb","system_id":"levelo_inurba_marseille","lat":43.29677,"lon":5.42785,"is_reserved":false,"is_disabled":false,"rental_uris":{"android":"levelo://app?vid=c66ddc89-f5f8-4891-a146-125b11f6fdcb","ios":"levelo://app?vid=c66ddc89-f5f8-4891-a146-125b11f6fdcb"},"vehicle_type_id":"4","last_reported":1700341520,"current_range_meters":20000,"station_id":"","pricing_plan_id":"free"},{"bike_id":"2ef0e9d9-3bb8-497e-b612-12a22578d5aa","system_id":"levelo_inurba_marseille","lat":43.265714,"lon":5.372891,"is_reserved":false,"is_disabled":false,"rental_uris":{"android":"levelo://app?vid=2ef0e9d9-3bb8-497e-b612-12a22578d5aa","ios":"levelo://app?vid=2ef0e9d9-3bb8-497e-b612-12a22578d5aa"},"vehicle_type_id":"4","last_reported":1700341520,"current_range_meters":2400,"station_id":"ce4bhg12rcd13ifvqf70","pricing_plan_id":"free"},{"bike_id":"5e9c6dd7-6870-4371-984b-4dd18f2dfef1","system_id":"levelo_inurba_marseille","lat":43.265714,"lon":5.372891,"is_reserved":false,"is_disabled":false,"rental_uris":{"android":"levelo://app?vid=5e9c6dd7-6870-4371-984b-4dd18f2dfef1","ios":"levelo://app?vid=5e9c6dd7-6870-4371-984b-4dd18f2dfef1"},"vehicle_type_id":"4","last_reported":1700341520,"current_range_meters":10000,"station_id":"ce4bhg12rcd13ifvqf70","pricing_plan_id":"free"},{"bike_id":"c7758cb2-2a45-4f89-aa5c-0e391d845c76","system_id":"levelo_inurba_marseille","lat":43.326053,"lon":5.429943,"is_reserved":false,"is_disabled":false,"rental_uris":{"android":"levelo://app?vid=c7758cb2-2a45-4f89-aa5c-0e391d845c76","ios":"levelo://app?vid=c7758cb2-2a45-4f89-aa5c-0e391d845c76"},"vehicle_type_id":"4","last_reported":1700341520,"current_range_meters":2800,"station_id":"","pricing_plan_id":"free"},{"bike_id":"42871d3b-8c03-490f-baf1-f4b57c44a331","system_id":"levelo_inurba_marseille","lat":43.326569,"lon":5.430586,"is_reserved":false,"is_disabled":false,"rental_uris":{"android":"levelo://app?vid=42871d3b-8c03-490f-baf1-f4b57c44a331","ios":"levelo://app?vid=42871d3b-8c03-490f-baf1-f4b57c44a331"},"vehicle_type_id":"4","last_reported":1700341520,"current_range_meters":16800,"station_id":"","pricing_plan_id":"free"},{"bike_id":"f074eb09-a5e9-4b3f-ac41-0b94114726fa","system_id":"levelo_inurba_marseille","lat":43.27996,"lon":5.416624,"is_reserved":false,"is_disabled":false,"rental_uris":{"android":"levelo://app?vid=f074eb09-a5e9-4b3f-ac41-0b94114726fa","ios":"levelo://app?vid=f074eb09-a5e9-4b3f-ac41-0b94114726fa"},"vehicle_type_id":"4","last_reported":1700341520,"current_range_meters":24400,"station_id":"ce4bho12rcd13ifvqh1g","pricing_plan_id":"free"},{"bike_id":"fb0f8f02-5c4d-4282-bd1c-d6f69569b453","system_id":"levelo_inurba_marseille","lat":43.27996,"lon":5.416624,"is_reserved":false,"is_disabled":false,"rental_uris":{"android":"levelo://app?vid=fb0f8f02-5c4d-4282-bd1c-d6f69569b453","ios":"levelo://app?vid=fb0f8f02-5c4d-4282-bd1c-d6f69569b453"},"vehicle_type_id":"4","last_reported":1700341520,"current_range_meters":17200,"station_id":"ce4bho12rcd13ifvqh1g","pricing_plan_id":"free"},{"bike_id":"1a6d06e2-c6a7-4a09-88b1-48d139c6706f","system_id":"levelo_inurba_marseille","lat":43.308051,"lon":5.43527,"is_reserved":false,"is_disabled":false,"rental_uris":{"android":"levelo://app?vid=1a6d06e2-c6a7-4a09-88b1-48d139c6706f","ios":"levelo://app?vid=1a6d06e2-c6a7-4a09-88b1-48d139c6706f"},"vehicle_type_id":"4","last_reported":1700341520,"current_range_meters":23200,"station_id":"ce4bhph2rcd13ifvqheg","pricing_plan_id":"free"},{"bike_id":"50b5ce5c-91ea-4085-a38a-02a5598c4e23","system_id":"levelo_inurba_marseille","lat":43.26565,"lon":5.390183,"is_reserved":false,"is_disabled":false,"rental_uris":{"android":"levelo://app?vid=50b5ce5c-91ea-4085-a38a-02a5598c4e23","ios":"levelo://app?vid=50b5ce5c-91ea-4085-a38a-02a5598c4e23"},"vehicle_type_id":"4","last_reported":1700341520,"current_range_meters":15200,"station_id":"ce4bhe12rcd13ifvqf30","pricing_plan_id":"free"},{"bike_id":"6db8fb69-0626-4574-bb1e-0b47b0dacfba","system_id":"levelo_inurba_marseille","lat":43.269422,"lon":5.402432,"is_reserved":false,"is_disabled":false,"rental_uris":{"android":"levelo://app?vid=6db8fb69-0626-4574-bb1e-0b47b0dacfba","ios":"levelo://app?vid=6db8fb69-0626-4574-bb1e-0b47b0dacfba"},"vehicle_type_id":"4","last_reported":1700341520,"current_range_meters":0,"station_id":"cjm6bp8fraef2m0cb0m0","pricing_plan_id":"free"},{"bike_id":"99f25bbf-5ae2-4db7-9d8f-d035ab1cf052","system_id":"levelo_inurba_marseille","lat":43.261782,"lon":5.374515,"is_reserved":false,"is_disabled":false,"rental_uris":{"android":"levelo://app?vid=99f25bbf-5ae2-4db7-9d8f-d035ab1cf052","ios":"levelo://app?vid=99f25bbf-5ae2-4db7-9d8f-d035ab1cf052"},"vehicle_type_id":"4","last_reported":1700341520,"current_range_meters":15600,"station_id":"ce4bhgp2rcd13ifvqfc0","pricing_plan_id":"free"},{"bike_id":"2f5eec04-c4fb-417a-918c-615c5d9564b5","system_id":"levelo_inurba_marseille","lat":43.261782,"lon":5.374515,"is_reserved":false,"is_disabled":false,"rental_uris":{"android":"levelo://app?vid=2f5eec04-c4fb-417a-918c-615c5d9564b5","ios":"levelo://app?vid=2f5eec04-c4fb-417a-918c-615c5d9564b5"},"vehicle_type_id":"4","last_reported":1700341520,"current_range_meters":0,"station_id":"ce4bhgp2rcd13ifvqfc0","pricing_plan_id":"free"},{"bike_id":"7bf7502f-8a1e-4c6b-8330-76cb45e79340","system_id":"levelo_inurba_marseille","lat":43.31707,"lon":5.43702,"is_reserved":false,"is_disabled":false,"rental_uris":{"android":"levelo://app?vid=7bf7502f-8a1e-4c6b-8330-76cb45e79340","ios":"levelo://app?vid=7bf7502f-8a1e-4c6b-8330-76cb45e79340"},"vehicle_type_id":"4","last_reported":1700341520,"current_range_meters":3600,"station_id":"ce4bhp92rcd13ifvqhcg","pricing_plan_id":"free"},{"bike_id":"d077710c-062f-4bb5-bc07-f925193fbbe9","system_id":"levelo_inurba_marseille","lat":43.31711,"lon":5.43706,"is_reserved":false,"is_disabled":false,"rental_uris":{"android":"levelo://app?vid=d077710c-062f-4bb5-bc07-f925193fbbe9","ios":"levelo://app?vid=d077710c-062f-4bb5-bc07-f925193fbbe9"},"vehicle_type_id":"4","last_reported":1700341520,"current_range_meters":5600,"station_id":"ce4bhp92rcd13ifvqhcg","pricing_plan_id":"free"},{"bike_id":"584c5199-357e-4900-bd58-cb216b28e7ac","system_id":"levelo_inurba_marseille","lat":43.317104,"lon":5.436818,"is_reserved":false,"is_disabled":false,"rental_uris":{"android":"levelo://app?vid=584c5199-357e-4900-bd58-cb216b28e7ac","ios":"levelo://app?vid=584c5199-357e-4900-bd58-cb216b28e7ac"},"vehicle_type_id":"4","last_reported":1700341520,"current_range_meters":31600,"station_id":"ce4bhp92rcd13ifvqhcg","pricing_plan_id":"free"},{"bike_id":"e385e82b-cb70-4075-9de3-db04e7bc1c06","system_id":"levelo_inurba_marseille","lat":43.31709,"lon":5.43707,"is_reserved":false,"is_disabled":false,"rental_uris":{"android":"levelo://app?vid=e385e82b-cb70-4075-9de3-db04e7bc1c06","ios":"levelo://app?vid=e385e82b-cb70-4075-9de3-db04e7bc1c06"},"vehicle_type_id":"4","last_reported":1700341520,"current_range_meters":14000,"station_id":"ce4bhp92rcd13ifvqhcg","pricing_plan_id":"free"},{"bike_id":"4c81f13a-58ee-48ed-9180-8cfd8dabeace","system_id":"levelo_inurba_marseille","lat":43.3171,"lon":5.43707,"is_reserved":false,"is_disabled":false,"rental_uris":{"android":"levelo://app?vid=4c81f13a-58ee-48ed-9180-8cfd8dabeace","ios":"levelo://app?vid=4c81f13a-58ee-48ed-9180-8cfd8dabeace"},"vehicle_type_id":"4","last_reported":1700341520,"current_range_meters":25200,"station_id":"ce4bhp92rcd13ifvqhcg","pricing_plan_id":"free"},{"bike_id":"4eb3ca55-8582-4005-8d50-08c98619b69a","system_id":"levelo_inurba_marseille","lat":43.317104,"lon":5.436818,"is_reserved":false,"is_disabled":false,"rental_uris":{"android":"levelo://app?vid=4eb3ca55-8582-4005-8d50-08c98619b69a","ios":"levelo://app?vid=4eb3ca55-8582-4005-8d50-08c98619b69a"},"vehicle_type_id":"4","last_reported":1700341520,"current_range_meters":2800,"station_id":"ce4bhp92rcd13ifvqhcg","pricing_plan_id":"free"},{"bike_id":"e8766bd2-dbc5-4fac-9fd5-8196dc51357d","system_id":"levelo_inurba_marseille","lat":43.271368,"lon":5.40928,"is_reserved":false,"is_disabled":false,"rental_uris":{"android":"levelo://app?vid=e8766bd2-dbc5-4fac-9fd5-8196dc51357d","ios":"levelo://app?vid=e8766bd2-dbc5-4fac-9fd5-8196dc51357d"},"vehicle_type_id":"4","last_reported":1700341520,"current_range_meters":8800,"station_id":"ce4bhl12rcd13ifvqgf0","pricing_plan_id":"free"},{"bike_id":"6678d850-aeac-4b4e-99a0-10ec8de012c5","system_id":"levelo_inurba_marseille","lat":43.271368,"lon":5.40928,"is_reserved":false,"is_disabled":false,"rental_uris":{"android":"levelo://app?vid=6678d850-aeac-4b4e-99a0-10ec8de012c5","ios":"levelo://app?vid=6678d850-aeac-4b4e-99a0-10ec8de012c5"},"vehicle_type_id":"4","last_reported":1700341520,"current_range_meters":7600,"station_id":"ce4bhl12rcd13ifvqgf0","pricing_plan_id":"free"},{"bike_id":"0fc44dcc-7efb-444a-ada4-1b34b8557063","system_id":"levelo_inurba_marseille","lat":43.267959,"lon":5.402687,"is_reserved":false,"is_disabled":false,"rental_uris":{"android":"levelo://app?vid=0fc44dcc-7efb-444a-ada4-1b34b8557063","ios":"levelo://app?vid=0fc44dcc-7efb-444a-ada4-1b34b8557063"},"vehicle_type_id":"4","last_reported":1700341520,"current_range_meters":21600,"station_id":"ce501612rcd8frsf0b60","pricing_plan_id":"free"},{"bike_id":"74ce853b-0d8b-42c9-81c8-17a7564a4b34","system_id":"levelo_inurba_marseille","lat":43.31725,"lon":5.43786,"is_reserved":false,"is_disabled":false,"rental_uris":{"android":"levelo://app?vid=74ce853b-0d8b-42c9-81c8-17a7564a4b34","ios":"levelo://app?vid=74ce853b-0d8b-42c9-81c8-17a7564a4b34"},"vehicle_type_id":"4","last_reported":1700341520,"current_range_meters":17200,"station_id":"","pricing_plan_id":"free"},{"bike_id":"1046635b-c1e6-41f1-8dbc-d28bbd202581","system_id":"levelo_inurba_marseille","lat":43.298768,"lon":5.43643,"is_reserved":false,"is_disabled":false,"rental_uris":{"android":"levelo://app?vid=1046635b-c1e6-41f1-8dbc-d28bbd202581","ios":"levelo://app?vid=1046635b-c1e6-41f1-8dbc-d28bbd202581"},"vehicle_type_id":"4","last_reported":1700341520,"current_range_meters":28800,"station_id":"ce4bhpp2rcd13ifvqhfg","pricing_plan_id":"free"},{"bike_id":"080343fe-0b44-49d6-891f-b4e59d6a5c68","system_id":"levelo_inurba_marseille","lat":43.260219,"lon":5.37546,"is_reserved":false,"is_disabled":false,"rental_uris":{"android":"levelo://app?vid=080343fe-0b44-49d6-891f-b4e59d6a5c68","ios":"levelo://app?vid=080343fe-0b44-49d6-891f-b4e59d6a5c68"},"vehicle_type_id":"4","last_reported":1700341520,"current_range_meters":21600,"station_id":"ce4bhgh2rcd13ifvqfa0","pricing_plan_id":"free"},{"bike_id":"52c2449e-ba19-42b2-a2b7-5e9532985598","system_id":"levelo_inurba_marseille","lat":43.32279,"lon":5.43926,"is_reserved":false,"is_disabled":false,"rental_uris":{"android":"levelo://app?vid=52c2449e-ba19-42b2-a2b7-5e9532985598","ios":"levelo://app?vid=52c2449e-ba19-42b2-a2b7-5e9532985598"},"vehicle_type_id":"4","last_reported":1700341520,"current_range_meters":15200,"station_id":"","pricing_plan_id":"free"},{"bike_id":"d88b6a73-531b-425a-9e55-b97c354f59a2","system_id":"levelo_inurba_marseille","lat":43.32279,"lon":5.43934,"is_reserved":false,"is_disabled":false,"rental_uris":{"android":"levelo://app?vid=d88b6a73-531b-425a-9e55-b97c354f59a2","ios":"levelo://app?vid=d88b6a73-531b-425a-9e55-b97c354f59a2"},"vehicle_type_id":"4","last_reported":1700341520,"current_range_meters":28400,"station_id":"","pricing_plan_id":"free"},{"bike_id":"8e73a0a2-0af6-4d10-9371-e08a34a82a33","system_id":"levelo_inurba_marseille","lat":43.26451,"lon":5.40404,"is_reserved":false,"is_disabled":false,"rental_uris":{"android":"levelo://app?vid=8e73a0a2-0af6-4d10-9371-e08a34a82a33","ios":"levelo://app?vid=8e73a0a2-0af6-4d10-9371-e08a34a82a33"},"vehicle_type_id":"4","last_reported":1700341520,"current_range_meters":4000,"station_id":"","pricing_plan_id":"free"},{"bike_id":"29611ddf-2142-42d8-a93f-205ca8309b2b","system_id":"levelo_inurba_marseille","lat":43.260909,"lon":5.397591,"is_reserved":false,"is_disabled":false,"rental_uris":{"android":"levelo://app?vid=29611ddf-2142-42d8-a93f-205ca8309b2b","ios":"levelo://app?vid=29611ddf-2142-42d8-a93f-205ca8309b2b"},"vehicle_type_id":"4","last_reported":1700341520,"current_range_meters":0,"station_id":"ce4bhi12rcd13ifvqfq0","pricing_plan_id":"free"},{"bike_id":"1aaf1d72-482d-4a4a-9137-926de2425109","system_id":"levelo_inurba_marseille","lat":43.2558,"lon":5.38236,"is_reserved":false,"is_disabled":false,"rental_uris":{"android":"levelo://app?vid=1aaf1d72-482d-4a4a-9137-926de2425109","ios":"levelo://app?vid=1aaf1d72-482d-4a4a-9137-926de2425109"},"vehicle_type_id":"4","last_reported":1700341520,"current_range_meters":0,"station_id":"ce4bhih2rcd13ifvqfs0","pricing_plan_id":"free"},{"bike_id":"fd26a74e-8f85-4036-b8c6-9ebb0cafe1c7","system_id":"levelo_inurba_marseille","lat":43.254947,"lon":5.376454,"is_reserved":false,"is_disabled":false,"rental_uris":{"android":"levelo://app?vid=fd26a74e-8f85-4036-b8c6-9ebb0cafe1c7","ios":"levelo://app?vid=fd26a74e-8f85-4036-b8c6-9ebb0cafe1c7"},"vehicle_type_id":"4","last_reported":1700341520,"current_range_meters":21600,"station_id":"ce4bhh12rcd13ifvqff0","pricing_plan_id":"free"},{"bike_id":"4e2deaef-cc16-4b62-92cc-5cbf1fa9c908","system_id":"levelo_inurba_marseille","lat":43.254947,"lon":5.376454,"is_reserved":false,"is_disabled":false,"rental_uris":{"android":"levelo://app?vid=4e2deaef-cc16-4b62-92cc-5cbf1fa9c908","ios":"levelo://app?vid=4e2deaef-cc16-4b62-92cc-5cbf1fa9c908"},"vehicle_type_id":"4","last_reported":1700341520,"current_range_meters":1200,"station_id":"ce4bhh12rcd13ifvqff0","pricing_plan_id":"free"},{"bike_id":"956f93f8-b714-4b88-a26b-a27fe26a895d","system_id":"levelo_inurba_marseille","lat":43.270721,"lon":5.422764,"is_reserved":false,"is_disabled":false,"rental_uris":{"android":"levelo://app?vid=956f93f8-b714-4b88-a26b-a27fe26a895d","ios":"levelo://app?vid=956f93f8-b714-4b88-a26b-a27fe26a895d"},"vehicle_type_id":"4","last_reported":1700341520,"current_range_meters":8000,"station_id":"ce4bhk92rcd13ifvqgb0","pricing_plan_id":"free"},{"bike_id":"1aad1190-3717-48c1-b218-3940ae3995c4","system_id":"levelo_inurba_marseille","lat":43.270721,"lon":5.422764,"is_reserved":false,"is_disabled":false,"rental_uris":{"android":"levelo://app?vid=1aad1190-3717-48c1-b218-3940ae3995c4","ios":"levelo://app?vid=1aad1190-3717-48c1-b218-3940ae3995c4"},"vehicle_type_id":"4","last_reported":1700341520,"current_range_meters":23200,"station_id":"ce4bhk92rcd13ifvqgb0","pricing_plan_id":"free"},{"bike_id":"7ad27884-6005-4573-b788-863e7849e691","system_id":"levelo_inurba_marseille","lat":43.257079,"lon":5.411051,"is_reserved":false,"is_disabled":false,"rental_uris":{"android":"levelo://app?vid=7ad27884-6005-4573-b788-863e7849e691","ios":"levelo://app?vid=7ad27884-6005-4573-b788-863e7849e691"},"vehicle_type_id":"4","last_reported":1700341520,"current_range_meters":1600,"station_id":"ce4bhkp2rcd13ifvqgd0","pricing_plan_id":"free"},{"bike_id":"268e7890-750e-4202-904d-61f2525519c6","system_id":"levelo_inurba_marseille","lat":43.257079,"lon":5.411051,"is_reserved":false,"is_disabled":false,"rental_uris":{"android":"levelo://app?vid=268e7890-750e-4202-904d-61f2525519c6","ios":"levelo://app?vid=268e7890-750e-4202-904d-61f2525519c6"},"vehicle_type_id":"4","last_reported":1700341520,"current_range_meters":14000,"station_id":"ce4bhkp2rcd13ifvqgd0","pricing_plan_id":"free"},{"bike_id":"c066fd2a-8fee-4202-8f47-33f36da84f5d","system_id":"levelo_inurba_marseille","lat":43.257079,"lon":5.411051,"is_reserved":false,"is_disabled":false,"rental_uris":{"android":"levelo://app?vid=c066fd2a-8fee-4202-8f47-33f36da84f5d","ios":"levelo://app?vid=c066fd2a-8fee-4202-8f47-33f36da84f5d"},"vehicle_type_id":"4","last_reported":1700341520,"current_range_meters":31600,"station_id":"ce4bhkp2rcd13ifvqgd0","pricing_plan_id":"free"},{"bike_id":"44f08415-9b06-48c1-9eeb-6c227f27cac1","system_id":"levelo_inurba_marseille","lat":43.257079,"lon":5.411051,"is_reserved":false,"is_disabled":false,"rental_uris":{"android":"levelo://app?vid=44f08415-9b06-48c1-9eeb-6c227f27cac1","ios":"levelo://app?vid=44f08415-9b06-48c1-9eeb-6c227f27cac1"},"vehicle_type_id":"4","last_reported":1700341520,"current_range_meters":8400,"station_id":"ce4bhkp2rcd13ifvqgd0","pricing_plan_id":"free"},{"bike_id":"961fc85e-a432-471f-b1c4-71f9c8f489a3","system_id":"levelo_inurba_marseille","lat":43.25115,"lon":5.40318,"is_reserved":false,"is_disabled":false,"rental_uris":{"android":"levelo://app?vid=961fc85e-a432-471f-b1c4-71f9c8f489a3","ios":"levelo://app?vid=961fc85e-a432-471f-b1c4-71f9c8f489a3"},"vehicle_type_id":"4","last_reported":1700341520,"current_range_meters":0,"station_id":"ce4bhlh2rcd13ifvqgig","pricing_plan_id":"free"},{"bike_id":"7dfbe2e2-1c77-43cd-bf80-ef2dd0692863","system_id":"levelo_inurba_marseille","lat":43.243884,"lon":5.370737,"is_reserved":false,"is_disabled":false,"rental_uris":{"android":"levelo://app?vid=7dfbe2e2-1c77-43cd-bf80-ef2dd0692863","ios":"levelo://app?vid=7dfbe2e2-1c77-43cd-bf80-ef2dd0692863"},"vehicle_type_id":"4","last_reported":1700341520,"current_range_meters":22400,"station_id":"ce4bhhh2rcd13ifvqfk0","pricing_plan_id":"free"},{"bike_id":"93dc94b0-b371-41cb-a3ad-83444bc01171","system_id":"levelo_inurba_marseille","lat":43.24546,"lon":5.39526,"is_reserved":false,"is_disabled":false,"rental_uris":{"android":"levelo://app?vid=93dc94b0-b371-41cb-a3ad-83444bc01171","ios":"levelo://app?vid=93dc94b0-b371-41cb-a3ad-83444bc01171"},"vehicle_type_id":"4","last_reported":1700341520,"current_range_meters":0,"station_id":"ce4bhlp2rcd13ifvqgjg","pricing_plan_id":"free"},{"bike_id":"08f996b4-c32d-4eea-b86e-7af65b7cc749","system_id":"levelo_inurba_marseille","lat":43.24546,"lon":5.39527,"is_reserved":false,"is_disabled":false,"rental_uris":{"android":"levelo://app?vid=08f996b4-c32d-4eea-b86e-7af65b7cc749","ios":"levelo://app?vid=08f996b4-c32d-4eea-b86e-7af65b7cc749"},"vehicle_type_id":"4","last_reported":1700341520,"current_range_meters":29600,"station_id":"ce4bhlp2rcd13ifvqgjg","pricing_plan_id":"free"},{"bike_id":"ed419b13-266f-407c-bf9b-711a3ecbb865","system_id":"levelo_inurba_marseille","lat":43.240623,"lon":5.377642,"is_reserved":false,"is_disabled":false,"rental_uris":{"android":"levelo://app?vid=ed419b13-266f-407c-bf9b-711a3ecbb865","ios":"levelo://app?vid=ed419b13-266f-407c-bf9b-711a3ecbb865"},"vehicle_type_id":"4","last_reported":1700341520,"current_range_meters":22800,"station_id":"ce4bhnp2rcd13ifvqgvg","pricing_plan_id":"free"},{"bike_id":"b328869e-b700-47d0-905d-19f08fd5ecd8","system_id":"levelo_inurba_marseille","lat":43.24068,"lon":5.37768,"is_reserved":false,"is_disabled":false,"rental_uris":{"android":"levelo://app?vid=b328869e-b700-47d0-905d-19f08fd5ecd8","ios":"levelo://app?vid=b328869e-b700-47d0-905d-19f08fd5ecd8"},"vehicle_type_id":"4","last_reported":1700341520,"current_range_meters":28400,"station_id":"ce4bhnp2rcd13ifvqgvg","pricing_plan_id":"free"},{"bike_id":"5d885cb0-8f85-473f-a9ad-af52a4dd621c","system_id":"levelo_inurba_marseille","lat":43.24184,"lon":5.3972,"is_reserved":false,"is_disabled":false,"rental_uris":{"android":"levelo://app?vid=5d885cb0-8f85-473f-a9ad-af52a4dd621c","ios":"levelo://app?vid=5d885cb0-8f85-473f-a9ad-af52a4dd621c"},"vehicle_type_id":"4","last_reported":1700341520,"current_range_meters":5200,"station_id":"ce4bhn12rcd13ifvqgpg","pricing_plan_id":"free"},{"bike_id":"7a968926-db99-4b95-ac83-d11f6fb36aeb","system_id":"levelo_inurba_marseille","lat":43.24186,"lon":5.39734,"is_reserved":false,"is_disabled":false,"rental_uris":{"android":"levelo://app?vid=7a968926-db99-4b95-ac83-d11f6fb36aeb","ios":"levelo://app?vid=7a968926-db99-4b95-ac83-d11f6fb36aeb"},"vehicle_type_id":"4","last_reported":1700341520,"current_range_meters":1200,"station_id":"ce4bhn12rcd13ifvqgpg","pricing_plan_id":"free"},{"bike_id":"24a1bb83-f44f-4d17-aa66-2ebe98122d38","system_id":"levelo_inurba_marseille","lat":43.24184,"lon":5.39726,"is_reserved":false,"is_disabled":false,"rental_uris":{"android":"levelo://app?vid=24a1bb83-f44f-4d17-aa66-2ebe98122d38","ios":"levelo://app?vid=24a1bb83-f44f-4d17-aa66-2ebe98122d38"},"vehicle_type_id":"4","last_reported":1700341520,"current_range_meters":1200,"station_id":"ce4bhn12rcd13ifvqgpg","pricing_plan_id":"free"},{"bike_id":"4370869b-0c59-4e1b-b4c7-59bf3a7bc50e","system_id":"levelo_inurba_marseille","lat":43.24179,"lon":5.39719,"is_reserved":false,"is_disabled":false,"rental_uris":{"android":"levelo://app?vid=4370869b-0c59-4e1b-b4c7-59bf3a7bc50e","ios":"levelo://app?vid=4370869b-0c59-4e1b-b4c7-59bf3a7bc50e"},"vehicle_type_id":"4","last_reported":1700341520,"current_range_meters":17200,"station_id":"ce4bhn12rcd13ifvqgpg","pricing_plan_id":"free"},{"bike_id":"07e8793f-b5c8-4815-95b2-cfd73adfc584","system_id":"levelo_inurba_marseille","lat":43.24179,"lon":5.39727,"is_reserved":false,"is_disabled":false,"rental_uris":{"android":"levelo://app?vid=07e8793f-b5c8-4815-95b2-cfd73adfc584","ios":"levelo://app?vid=07e8793f-b5c8-4815-95b2-cfd73adfc584"},"vehicle_type_id":"4","last_reported":1700341520,"current_range_meters":26800,"station_id":"ce4bhn12rcd13ifvqgpg","pricing_plan_id":"free"},{"bike_id":"4f5534b5-aefd-49d1-810b-7263e1241940","system_id":"levelo_inurba_marseille","lat":43.241782,"lon":5.397261,"is_reserved":false,"is_disabled":false,"rental_uris":{"android":"levelo://app?vid=4f5534b5-aefd-49d1-810b-7263e1241940","ios":"levelo://app?vid=4f5534b5-aefd-49d1-810b-7263e1241940"},"vehicle_type_id":"4","last_reported":1700341520,"current_range_meters":31200,"station_id":"ce4bhn12rcd13ifvqgpg","pricing_plan_id":"free"},{"bike_id":"c2f60803-3cb5-46d9-a585-43ffdbe1feb4","system_id":"levelo_inurba_marseille","lat":43.241782,"lon":5.397261,"is_reserved":false,"is_disabled":false,"rental_uris":{"android":"levelo://app?vid=c2f60803-3cb5-46d9-a585-43ffdbe1feb4","ios":"levelo://app?vid=c2f60803-3cb5-46d9-a585-43ffdbe1feb4"},"vehicle_type_id":"4","last_reported":1700341520,"current_range_meters":30400,"station_id":"ce4bhn12rcd13ifvqgpg","pricing_plan_id":"free"},{"bike_id":"99cc6b38-3aad-4c65-a2a0-1c4ce9965de4","system_id":"levelo_inurba_marseille","lat":43.241782,"lon":5.397261,"is_reserved":false,"is_disabled":false,"rental_uris":{"android":"levelo://app?vid=99cc6b38-3aad-4c65-a2a0-1c4ce9965de4","ios":"levelo://app?vid=99cc6b38-3aad-4c65-a2a0-1c4ce9965de4"},"vehicle_type_id":"4","last_reported":1700341520,"current_range_meters":26400,"station_id":"ce4bhn12rcd13ifvqgpg","pricing_plan_id":"free"},{"bike_id":"fb647ab6-bdfe-4d43-8021-469b840e3f01","system_id":"levelo_inurba_marseille","lat":43.231794,"lon":5.400052,"is_reserved":false,"is_disabled":false,"rental_uris":{"android":"levelo://app?vid=fb647ab6-bdfe-4d43-8021-469b840e3f01","ios":"levelo://app?vid=fb647ab6-bdfe-4d43-8021-469b840e3f01"},"vehicle_type_id":"4","last_reported":1700341520,"current_range_meters":28400,"station_id":"ce4bhn12rcd13ifvqgqg","pricing_plan_id":"free"},{"bike_id":"adac1971-5e73-41e6-9ade-b5ded0f026e7","system_id":"levelo_inurba_marseille","lat":43.231793,"lon":5.400044,"is_reserved":false,"is_disabled":false,"rental_uris":{"android":"levelo://app?vid=adac1971-5e73-41e6-9ade-b5ded0f026e7","ios":"levelo://app?vid=adac1971-5e73-41e6-9ade-b5ded0f026e7"},"vehicle_type_id":"4","last_reported":1700341520,"current_range_meters":31200,"station_id":"ce4bhn12rcd13ifvqgqg","pricing_plan_id":"free"},{"bike_id":"ad9d26be-fd61-4954-b04a-614ee9d33f7d","system_id":"levelo_inurba_marseille","lat":43.231794,"lon":5.400052,"is_reserved":false,"is_disabled":false,"rental_uris":{"android":"levelo://app?vid=ad9d26be-fd61-4954-b04a-614ee9d33f7d","ios":"levelo://app?vid=ad9d26be-fd61-4954-b04a-614ee9d33f7d"},"vehicle_type_id":"4","last_reported":1700341520,"current_range_meters":31200,"station_id":"ce4bhn12rcd13ifvqgqg","pricing_plan_id":"free"},{"bike_id":"486fecf0-765d-4eee-9a85-898f8aa27175","system_id":"levelo_inurba_marseille","lat":43.231793,"lon":5.400044,"is_reserved":false,"is_disabled":false,"rental_uris":{"android":"levelo://app?vid=486fecf0-765d-4eee-9a85-898f8aa27175","ios":"levelo://app?vid=486fecf0-765d-4eee-9a85-898f8aa27175"},"vehicle_type_id":"4","last_reported":1700341520,"current_range_meters":30400,"station_id":"ce4bhn12rcd13ifvqgqg","pricing_plan_id":"free"},{"bike_id":"f4a8cd9e-70db-4af1-b4c0-7aa0a7fac3fa","system_id":"levelo_inurba_marseille","lat":43.23186,"lon":5.399874,"is_reserved":false,"is_disabled":false,"rental_uris":{"android":"levelo://app?vid=f4a8cd9e-70db-4af1-b4c0-7aa0a7fac3fa","ios":"levelo://app?vid=f4a8cd9e-70db-4af1-b4c0-7aa0a7fac3fa"},"vehicle_type_id":"4","last_reported":1700341520,"current_range_meters":30400,"station_id":"ce4bhn12rcd13ifvqgqg","pricing_plan_id":"free"},{"bike_id":"efc139d5-8bb1-4a6b-b437-01d31830d455","system_id":"levelo_inurba_marseille","lat":43.231794,"lon":5.400052,"is_reserved":false,"is_disabled":false,"rental_uris":{"android":"levelo://app?vid=efc139d5-8bb1-4a6b-b437-01d31830d455","ios":"levelo://app?vid=efc139d5-8bb1-4a6b-b437-01d31830d455"},"vehicle_type_id":"4","last_reported":1700341520,"current_range_meters":31200,"station_id":"ce4bhn12rcd13ifvqgqg","pricing_plan_id":"free"},{"bike_id":"fa9cc91c-c78c-4cb3-ab2e-3cc3c66a937c","system_id":"levelo_inurba_marseille","lat":43.23184,"lon":5.39989,"is_reserved":false,"is_disabled":false,"rental_uris":{"android":"levelo://app?vid=fa9cc91c-c78c-4cb3-ab2e-3cc3c66a937c","ios":"levelo://app?vid=fa9cc91c-c78c-4cb3-ab2e-3cc3c66a937c"},"vehicle_type_id":"4","last_reported":1700341520,"current_range_meters":21200,"station_id":"ce4bhn12rcd13ifvqgqg","pricing_plan_id":"free"},{"bike_id":"a77536b5-5a4a-4d26-b9d3-350ffe3416bd","system_id":"levelo_inurba_marseille","lat":43.231793,"lon":5.400044,"is_reserved":false,"is_disabled":false,"rental_uris":{"android":"levelo://app?vid=a77536b5-5a4a-4d26-b9d3-350ffe3416bd","ios":"levelo://app?vid=a77536b5-5a4a-4d26-b9d3-350ffe3416bd"},"vehicle_type_id":"4","last_reported":1700341520,"current_range_meters":10400,"station_id":"ce4bhn12rcd13ifvqgqg","pricing_plan_id":"free"},{"bike_id":"7bc95a0e-72f8-4232-b877-46fe8e7f9e0c","system_id":"levelo_inurba_marseille","lat":43.231794,"lon":5.400052,"is_reserved":false,"is_disabled":false,"rental_uris":{"android":"levelo://app?vid=7bc95a0e-72f8-4232-b877-46fe8e7f9e0c","ios":"levelo://app?vid=7bc95a0e-72f8-4232-b877-46fe8e7f9e0c"},"vehicle_type_id":"4","last_reported":1700341520,"current_range_meters":31200,"station_id":"ce4bhn12rcd13ifvqgqg","pricing_plan_id":"free"},{"bike_id":"5d8316f4-9b3b-4f22-8b0a-d975b6faa1c0","system_id":"levelo_inurba_marseille","lat":43.231793,"lon":5.400044,"is_reserved":false,"is_disabled":false,"rental_uris":{"android":"levelo://app?vid=5d8316f4-9b3b-4f22-8b0a-d975b6faa1c0","ios":"levelo://app?vid=5d8316f4-9b3b-4f22-8b0a-d975b6faa1c0"},"vehicle_type_id":"4","last_reported":1700341520,"current_range_meters":18400,"station_id":"ce4bhn12rcd13ifvqgqg","pricing_plan_id":"free"},{"bike_id":"adaed5b2-5df4-4ff5-a8ef-af36cdca2a2f","system_id":"levelo_inurba_marseille","lat":43.23178,"lon":5.39994,"is_reserved":false,"is_disabled":false,"rental_uris":{"android":"levelo://app?vid=adaed5b2-5df4-4ff5-a8ef-af36cdca2a2f","ios":"levelo://app?vid=adaed5b2-5df4-4ff5-a8ef-af36cdca2a2f"},"vehicle_type_id":"4","last_reported":1700341520,"current_range_meters":2400,"station_id":"ce4bhn12rcd13ifvqgqg","pricing_plan_id":"free"},{"bike_id":"783c2926-1dc2-4ed5-9fa1-46c3c02b6534","system_id":"levelo_inurba_marseille","lat":43.231562,"lon":5.436933,"is_reserved":false,"is_disabled":false,"rental_uris":{"android":"levelo://app?vid=783c2926-1dc2-4ed5-9fa1-46c3c02b6534","ios":"levelo://app?vid=783c2926-1dc2-4ed5-9fa1-46c3c02b6534"},"vehicle_type_id":"4","last_reported":1700341520,"current_range_meters":16400,"station_id":"ce4bhmp2rcd13ifvqgog","pricing_plan_id":"free"}]}}