{"last_updated":1725577757,"ttl":30,"version":"2.2","data":{"bikes":[{"bike_id":"97da6ed8-6d49-4fcb-ad11-a870a11abd18","system_id":"levelo_inurba_marseille","lat":43.31341,"lon":5.367098,"is_reserved":false,"is_disabled":false,"rental_uris":{"android":"levelo://app?vid=97da6ed8-6d49-4fcb-ad11-a870a11abd18","ios":"levelo://app?vid=97da6ed8-6d49-4fcb-ad11-a870a11abd18"},"vehicle_type_id":"4","last_reported":1725577757,"current_range_meters":28000,"station_id":"ce4bgr92rcd13ifvqc6g","pricing_plan_id":"cebpf4jnsgd1na2vs0mg"},{"bike_id":"0ff382e9-18a4-4051-b062-477231c56762","system_id":"levelo_inurba_marseille","lat":43.312239,"lon":5.368562,"is_reserved":false,"is_disabled":false,"rental_uris":{"android":"levelo://app?vid=0ff382e9-18a4-4051-b062-477231c56762","ios":"levelo://app?vid=0ff382e9-18a4-4051-b062-477231c56762"},"vehicle_type_id":"4","last_reported":1725577757,"current_range_meters":8000,"station_id":"ce4bgl92rcd13ifvqbq0","pricing_plan_id":"cebpf4jnsgd1na2vs0mg"},{"bike_id":"d1eea3e8-12a8-4584-81ac-721ab0cd7634","system_id":"levelo_inurba_marseille","lat":43.309076,"lon":5.368465,"is_reserved":false,"is_disabled":false,"rental_uris":{"android":"levelo://app?vid=d1eea3e8-12a8-4584-81ac-721ab0cd7634","ios":"levelo://app?vid=d1eea3e8-12a8-4584-81ac-721ab0cd7634"},"vehicle_type_id":"4","last_reported":1725577757,"current_range_meters":2800,"station_id":"ce4bgn92rcd13ifvqbvg","pricing_plan_id":"cebpf4jnsgd1na2vs0mg"},{"bike_id":"70194630-1a10-4d6a-a88a-c1fd2fcd49c0","system_id":"levelo_inurba_marseille","lat":43.309076,"lon":5.368465,"is_reserved":false,"is_disabled":false,"rental_uris":{"android":"levelo://app?vid=70194630-1a10-4d6a-a88a-c1fd2fcd49c0","ios":"levelo://app?vid=70194630-1a10-4d6a-a88a-c1fd2fcd49c0"},"vehicle_type_id":"4","last_reported":1725577757,"current_range_meters":9200,"station_id":"ce4bgn92rcd13ifvqbvg","pricing_plan_id":"cebpf4jnsgd1na2vs0mg"},{"bike_id":"a2e38771-2b28-4ff6-ae14-763499422f70","system_id":"levelo_inurba_marseille","lat":43.311665,"lon":5.373337,"is_reserved":false,"is_disabled":false,"rental_uris":{"android":"levelo://app?vid=a2e38771-2b28-4ff6-ae14-763499422f70","ios":"levelo://app?vid=a2e38771-2b28-4ff6-ae14-763499422f70"},"vehicle_type_id":"4","last_reported":1725577757,"current_range_meters":14000,"station_id":"","pricing_plan_id":"cebpf4jnsgd1na2vs0mg"},{"bike_id":"bbd33773-a143-4554-96ec-a7967a6b54bb","system_id":"levelo_inurba_marseille","lat":43.31484,"lon":5.37295,"is_reserved":false,"is_disabled":false,"rental_uris":{"android":"levelo://app?vid=bbd33773-a143-4554-96ec-a7967a6b54bb","ios":"levelo://app?vid=bbd33773-a143-4554-96ec-a7967a6b54bb"},"vehicle_type_id":"4","last_reported":1725577757,"current_range_meters":22000,"station_id":"ce4bgt12rcd13ifvqcd0","pricing_plan_id":"cebpf4jnsgd1na2vs0mg"},{"bike_id":"37b2a220-dd1f-4e8e-9d92-2c180faa7554","system_id":"levelo_inurba_marseille","lat":43.314811,"lon":5.373104,"is_reserved":false,"is_disabled":false,"rental_uris":{"android":"levelo://app?vid=37b2a220-dd1f-4e8e-9d92-2c180faa7554","ios":"levelo://app?vid=37b2a220-dd1f-4e8e-9d92-2c180faa7554"},"vehicle_type_id":"4","last_reported":1725577757,"current_range_meters":11600,"station_id":"ce4bgt12rcd13ifvqcd0","pricing_plan_id":"cebpf4jnsgd1na2vs0mg"},{"bike_id":"bbfb064c-6422-42e5-91d9-b6b7ec59fa23","system_id":"levelo_inurba_marseille","lat":43.314811,"lon":5.373103,"is_reserved":false,"is_disabled":false,"rental_uris":{"android":"levelo://app?vid=bbfb064c-6422-42e5-91d9-b6b7ec59fa23","ios":"levelo://app?vid=bbfb064c-6422-42e5-91d9-b6b7ec59fa23"},"vehicle_type_id":"4","last_reported":1725577757,"current_range_meters":23600,"station_id":"ce4bgt12rcd13ifvqcd0","pricing_plan_id":"cebpf4jnsgd1na2vs0mg"},{"bike_id":"b8015950-b146-4b5c-a7d9-3db38a50effb","system_id":"levelo_inurba_marseille","lat":43.314811,"lon":5.373103,"is_reserved":false,"is_disabled":false,"rental_uris":{"android":"levelo://app?vid=b8015950-b146-4b5c-a7d9-3db38a50effb","ios":"levelo://app?vid=b8015950-b146-4b5c-a7d9-3db38a50effb"},"vehicle_type_id":"4","last_reported":1725577757,"current_range_meters":10000,"station_id":"ce4bgt12rcd13ifvqcd0","pricing_plan_id":"cebpf4jnsgd1na2vs0mg"},{"bike_id":"e5526f0f-b346-4b79-882d-35c20cd271c2","system_id":"levelo_inurba_marseille","lat":43.314811,"lon":5.373103,"is_reserved":false,"is_disabled":false,"rental_uris":{"android":"levelo://app?vid=e5526f0f-b346-4b79-882d-35c20cd271c2","ios":"levelo://app?vid=e5526f0f-b346-4b79-882d-35c20cd271c2"},"vehicle_type_id":"4","last_reported":1725577757,"current_range_meters":20400,"station_id":"ce4bgt12rcd13ifvqcd0","pricing_plan_id":"cebpf4jnsgd1na2vs0mg"},{"bike_id":"ab1d0d94-cfc1-49bc-bf44-cacb514db373","system_id":"levelo_inurba_marseille","lat":43.314811,"lon":5.373103,"is_reserved":false,"is_disabled":false,"rental_uris":{"android":"levelo://app?vid=ab1d0d94-cfc1-49bc-bf44-cacb514db373","ios":"levelo://app?vid=ab1d0d94-cfc1-49bc-bf44-cacb514db373"},"vehicle_type_id":"4","last_reported":1725577757,"current_range_meters":16800,"station_id":"ce4bgt12rcd13ifvqcd0","pricing_plan_id":"cebpf4jnsgd1na2vs0mg"},{"bike_id":"02d916c7-4235-4f3e-a593-d1d166e13b05","system_id":"levelo_inurba_marseille","lat":43.314811,"lon":5.373103,"is_reserved":false,"is_disabled":false,"rental_uris":{"android":"levelo://app?vid=02d916c7-4235-4f3e-a593-d1d166e13b05","ios":"levelo://app?vid=02d916c7-4235-4f3e-a593-d1d166e13b05"},"vehicle_type_id":"4","last_reported":1725577757,"current_range_meters":19200,"station_id":"ce4bgt12rcd13ifvqcd0","pricing_plan_id":"cebpf4jnsgd1na2vs0mg"},{"bike_id":"e9dfb902-5694-4670-8c54-53213cf4b087","system_id":"levelo_inurba_marseille","lat":43.30895,"lon":5.3718,"is_reserved":false,"is_disabled":false,"rental_uris":{"android":"levelo://app?vid=e9dfb902-5694-4670-8c54-53213cf4b087","ios":"levelo://app?vid=e9dfb902-5694-4670-8c54-53213cf4b087"},"vehicle_type_id":"4","last_reported":1725577757,"current_range_meters":2000,"station_id":"ce4bguh2rcd13ifvqckg","pricing_plan_id":"cebpf4jnsgd1na2vs0mg"},{"bike_id":"9f6b6ff9-0c3e-4037-95c8-8276a4f04403","system_id":"levelo_inurba_marseille","lat":43.309034,"lon":5.371783,"is_reserved":false,"is_disabled":false,"rental_uris":{"android":"levelo://app?vid=9f6b6ff9-0c3e-4037-95c8-8276a4f04403","ios":"levelo://app?vid=9f6b6ff9-0c3e-4037-95c8-8276a4f04403"},"vehicle_type_id":"4","last_reported":1725577757,"current_range_meters":13600,"station_id":"ce4bguh2rcd13ifvqckg","pricing_plan_id":"cebpf4jnsgd1na2vs0mg"},{"bike_id":"ebc14089-2949-46ef-9600-021cefca6266","system_id":"levelo_inurba_marseille","lat":43.31443,"lon":5.3738,"is_reserved":false,"is_disabled":false,"rental_uris":{"android":"levelo://app?vid=ebc14089-2949-46ef-9600-021cefca6266","ios":"levelo://app?vid=ebc14089-2949-46ef-9600-021cefca6266"},"vehicle_type_id":"4","last_reported":1725577757,"current_range_meters":26400,"station_id":"","pricing_plan_id":"cebpf4jnsgd1na2vs0mg"},{"bike_id":"d2c81b9b-4e65-4db4-ba85-402d3840ad5a","system_id":"levelo_inurba_marseille","lat":43.30537,"lon":5.367345,"is_reserved":false,"is_disabled":false,"rental_uris":{"android":"levelo://app?vid=d2c81b9b-4e65-4db4-ba85-402d3840ad5a","ios":"levelo://app?vid=d2c81b9b-4e65-4db4-ba85-402d3840ad5a"},"vehicle_type_id":"4","last_reported":1725577757,"current_range_meters":14400,"station_id":"ce4bgrp2rcd13ifvqc9g","pricing_plan_id":"cebpf4jnsgd1na2vs0mg"},{"bike_id":"612bffa5-377c-4483-a15e-5e213df6d810","system_id":"levelo_inurba_marseille","lat":43.30522,"lon":5.3659,"is_reserved":false,"is_disabled":false,"rental_uris":{"android":"levelo://app?vid=612bffa5-377c-4483-a15e-5e213df6d810","ios":"levelo://app?vid=612bffa5-377c-4483-a15e-5e213df6d810"},"vehicle_type_id":"4","last_reported":1725577757,"current_range_meters":15600,"station_id":"","pricing_plan_id":"cebpf4jnsgd1na2vs0mg"},{"bike_id":"bc77c15e-86a1-46f7-be5a-b11e7769b354","system_id":"levelo_inurba_marseille","lat":43.31282,"lon":5.37743,"is_reserved":false,"is_disabled":false,"rental_uris":{"android":"levelo://app?vid=bc77c15e-86a1-46f7-be5a-b11e7769b354","ios":"levelo://app?vid=bc77c15e-86a1-46f7-be5a-b11e7769b354"},"vehicle_type_id":"4","last_reported":1725577757,"current_range_meters":4800,"station_id":"","pricing_plan_id":"cebpf4jnsgd1na2vs0mg"},{"bike_id":"23ca9993-29e0-4717-bca1-e6bfb81b63b2","system_id":"levelo_inurba_marseille","lat":43.305989,"lon":5.37225,"is_reserved":false,"is_disabled":false,"rental_uris":{"android":"levelo://app?vid=23ca9993-29e0-4717-bca1-e6bfb81b63b2","ios":"levelo://app?vid=23ca9993-29e0-4717-bca1-e6bfb81b63b2"},"vehicle_type_id":"4","last_reported":1725577757,"current_range_meters":28000,"station_id":"ce4bgqh2rcd13ifvqc4g","pricing_plan_id":"cebpf4jnsgd1na2vs0mg"},{"bike_id":"f1f85b7f-81c3-43a7-a586-e53a5909495c","system_id":"levelo_inurba_marseille","lat":43.305989,"lon":5.37225,"is_reserved":false,"is_disabled":false,"rental_uris":{"android":"levelo://app?vid=f1f85b7f-81c3-43a7-a586-e53a5909495c","ios":"levelo://app?vid=f1f85b7f-81c3-43a7-a586-e53a5909495c"},"vehicle_type_id":"4","last_reported":1725577757,"current_range_meters":31200,"station_id":"ce4bgqh2rcd13ifvqc4g","pricing_plan_id":"cebpf4jnsgd1na2vs0mg"},{"bike_id":"8b46e7b8-ec20-4006-8602-d99cf4715e45","system_id":"levelo_inurba_marseille","lat":43.305989,"lon":5.37225,"is_reserved":false,"is_disabled":false,"rental_uris":{"android":"levelo://app?vid=8b46e7b8-ec20-4006-8602-d99cf4715e45","ios":"levelo://app?vid=8b46e7b8-ec20-4006-8602-d99cf4715e45"},"vehicle_type_id":"4","last_reported":1725577757,"current_range_meters":31200,"station_id":"ce4bgqh2rcd13ifvqc4g","pricing_plan_id":"cebpf4jnsgd1na2vs0mg"},{"bike_id":"ba2a36a7-dacc-40f8-ae00-d9fa6e9d4b2d","system_id":"levelo_inurba_marseille","lat":43.305989,"lon":5.37225,"is_reserved":false,"is_disabled":false,"rental_uris":{"android":"levelo://app?vid=ba2a36a7-dacc-40f8-ae00-d9fa6e9d4b2d","ios":"levelo://app?vid=ba2a36a7-dacc-40f8-ae00-d9fa6e9d4b2d"},"vehicle_type_id":"4","last_reported":1725577757,"current_range_meters":24800,"station_id":"ce4bgqh2rcd13ifvqc4g","pricing_plan_id":"cebpf4jnsgd1na2vs0mg"},{"bike_id":"fec10f17-7afc-42e9-a0a4-f88805c940d6","system_id":"levelo_inurba_marseille","lat":43.305989,"lon":5.37225,"is_reserved":false,"is_disabled":false,"rental_uris":{"android":"levelo://app?vid=fec10f17-7afc-42e9-a0a4-f88805c940d6","ios":"levelo://app?vid=fec10f17-7afc-42e9-a0a4-f88805c940d6"},"vehicle_type_id":"4","last_reported":1725577757,"current_range_meters":27200,"station_id":"ce4bgqh2rcd13ifvqc4g","pricing_plan_id":"cebpf4jnsgd1na2vs0mg"},{"bike_id":"8012652a-326f-43ac-ba2d-159e912ab3bc","system_id":"levelo_inurba_marseille","lat":43.305989,"lon":5.37225,"is_reserved":false,"is_disabled":false,"rental_uris":{"android":"levelo://app?vid=8012652a-326f-43ac-ba2d-159e912ab3bc","ios":"levelo://app?vid=8012652a-326f-43ac-ba2d-159e912ab3bc"},"vehicle_type_id":"4","last_reported":1725577757,"current_range_meters":9200,"station_id":"ce4bgqh2rcd13ifvqc4g","pricing_plan_id":"cebpf4jnsgd1na2vs0mg"},{"bike_id":"07470982-aa13-418f-ae20-5651a3ac3b19","system_id":"levelo_inurba_marseille","lat":43.305989,"lon":5.37225,"is_reserved":false,"is_disabled":false,"rental_uris":{"android":"levelo://app?vid=07470982-aa13-418f-ae20-5651a3ac3b19","ios":"levelo://app?vid=07470982-aa13-418f-ae20-5651a3ac3b19"},"vehicle_type_id":"4","last_reported":1725577757,"current_range_meters":15600,"station_id":"ce4bgqh2rcd13ifvqc4g","pricing_plan_id":"cebpf4jnsgd1na2vs0mg"},{"bike_id":"43bf2ae2-f68b-454b-8923-75ffd6e96901","system_id":"levelo_inurba_marseille","lat":43.311125,"lon":5.377624,"is_reserved":false,"is_disabled":false,"rental_uris":{"android":"levelo://app?vid=43bf2ae2-f68b-454b-8923-75ffd6e96901","ios":"levelo://app?vid=43bf2ae2-f68b-454b-8923-75ffd6e96901"},"vehicle_type_id":"4","last_reported":1725577757,"current_range_meters":18800,"station_id":"ce4bgt92rcd13ifvqcg0","pricing_plan_id":"cebpf4jnsgd1na2vs0mg"},{"bike_id":"c5892d22-f928-44d6-95a7-d9827b4b3041","system_id":"levelo_inurba_marseille","lat":43.311125,"lon":5.377624,"is_reserved":false,"is_disabled":false,"rental_uris":{"android":"levelo://app?vid=c5892d22-f928-44d6-95a7-d9827b4b3041","ios":"levelo://app?vid=c5892d22-f928-44d6-95a7-d9827b4b3041"},"vehicle_type_id":"4","last_reported":1725577757,"current_range_meters":1600,"station_id":"ce4bgt92rcd13ifvqcg0","pricing_plan_id":"cebpf4jnsgd1na2vs0mg"},{"bike_id":"71acf66b-4693-4406-8e2a-43be732de8a6","system_id":"levelo_inurba_marseille","lat":43.311125,"lon":5.377624,"is_reserved":false,"is_disabled":false,"rental_uris":{"android":"levelo://app?vid=71acf66b-4693-4406-8e2a-43be732de8a6","ios":"levelo://app?vid=71acf66b-4693-4406-8e2a-43be732de8a6"},"vehicle_type_id":"4","last_reported":1725577757,"current_range_meters":19600,"station_id":"ce4bgt92rcd13ifvqcg0","pricing_plan_id":"cebpf4jnsgd1na2vs0mg"},{"bike_id":"0c20af45-31f1-40c2-b898-26d36bda4ca9","system_id":"levelo_inurba_marseille","lat":43.311125,"lon":5.377624,"is_reserved":false,"is_disabled":false,"rental_uris":{"android":"levelo://app?vid=0c20af45-31f1-40c2-b898-26d36bda4ca9","ios":"levelo://app?vid=0c20af45-31f1-40c2-b898-26d36bda4ca9"},"vehicle_type_id":"4","last_reported":1725577757,"current_range_meters":4000,"station_id":"ce4bgt92rcd13ifvqcg0","pricing_plan_id":"cebpf4jnsgd1na2vs0mg"},{"bike_id":"da64d949-77fe-4cd6-9ae3-df977b074a7c","system_id":"levelo_inurba_marseille","lat":43.311125,"lon":5.377624,"is_reserved":false,"is_disabled":false,"rental_uris":{"android":"levelo://app?vid=da64d949-77fe-4cd6-9ae3-df977b074a7c","ios":"levelo://app?vid=da64d949-77fe-4cd6-9ae3-df977b074a7c"},"vehicle_type_id":"4","last_reported":1725577757,"current_range_meters":30800,"station_id":"ce4bgt92rcd13ifvqcg0","pricing_plan_id":"cebpf4jnsgd1na2vs0mg"},{"bike_id":"d0f413f9-e42a-4e29-97db-8fe06bf2c23a","system_id":"levelo_inurba_marseille","lat":43.307945,"lon":5.376487,"is_reserved":false,"is_disabled":false,"rental_uris":{"android":"levelo://app?vid=d0f413f9-e42a-4e29-97db-8fe06bf2c23a","ios":"levelo://app?vid=d0f413f9-e42a-4e29-97db-8fe06bf2c23a"},"vehicle_type_id":"4","last_reported":1725577757,"current_range_meters":6000,"station_id":"ce4bgv92rcd13ifvqcq0","pricing_plan_id":"cebpf4jnsgd1na2vs0mg"},{"bike_id":"bdca0f84-a8a7-4805-b19e-c15ddf6a7128","system_id":"levelo_inurba_marseille","lat":43.307945,"lon":5.376487,"is_reserved":false,"is_disabled":false,"rental_uris":{"android":"levelo://app?vid=bdca0f84-a8a7-4805-b19e-c15ddf6a7128","ios":"levelo://app?vid=bdca0f84-a8a7-4805-b19e-c15ddf6a7128"},"vehicle_type_id":"4","last_reported":1725577757,"current_range_meters":21200,"station_id":"ce4bgv92rcd13ifvqcq0","pricing_plan_id":"cebpf4jnsgd1na2vs0mg"},{"bike_id":"0e6edb55-6f8f-4f72-9424-1cd770096896","system_id":"levelo_inurba_marseille","lat":43.307945,"lon":5.376487,"is_reserved":false,"is_disabled":false,"rental_uris":{"android":"levelo://app?vid=0e6edb55-6f8f-4f72-9424-1cd770096896","ios":"levelo://app?vid=0e6edb55-6f8f-4f72-9424-1cd770096896"},"vehicle_type_id":"4","last_reported":1725577757,"current_range_meters":14400,"station_id":"ce4bgv92rcd13ifvqcq0","pricing_plan_id":"cebpf4jnsgd1na2vs0mg"},{"bike_id":"dda71786-fadf-435a-800d-b4b1f93574ad","system_id":"levelo_inurba_marseille","lat":43.307945,"lon":5.376487,"is_reserved":false,"is_disabled":false,"rental_uris":{"android":"levelo://app?vid=dda71786-fadf-435a-800d-b4b1f93574ad","ios":"levelo://app?vid=dda71786-fadf-435a-800d-b4b1f93574ad"},"vehicle_type_id":"4","last_reported":1725577757,"current_range_meters":30000,"station_id":"ce4bgv92rcd13ifvqcq0","pricing_plan_id":"cebpf4jnsgd1na2vs0mg"},{"bike_id":"39e97c19-02ba-4cdc-92ac-f9787e94be92","system_id":"levelo_inurba_marseille","lat":43.307945,"lon":5.376487,"is_reserved":false,"is_disabled":false,"rental_uris":{"android":"levelo://app?vid=39e97c19-02ba-4cdc-92ac-f9787e94be92","ios":"levelo://app?vid=39e97c19-02ba-4cdc-92ac-f9787e94be92"},"vehicle_type_id":"4","last_reported":1725577757,"current_range_meters":30800,"station_id":"ce4bgv92rcd13ifvqcq0","pricing_plan_id":"cebpf4jnsgd1na2vs0mg"},{"bike_id":"b7a6f56f-1b05-4097-b70c-a93faf7c7b17","system_id":"levelo_inurba_marseille","lat":43.30783,"lon":5.376543,"is_reserved":false,"is_disabled":false,"rental_uris":{"android":"levelo://app?vid=b7a6f56f-1b05-4097-b70c-a93faf7c7b17","ios":"levelo://app?vid=b7a6f56f-1b05-4097-b70c-a93faf7c7b17"},"vehicle_type_id":"4","last_reported":1725577757,"current_range_meters":16000,"station_id":"ce4bgv92rcd13ifvqcq0","pricing_plan_id":"cebpf4jnsgd1na2vs0mg"},{"bike_id":"042f67cd-e16a-49d7-9367-160a4aba85c5","system_id":"levelo_inurba_marseille","lat":43.307945,"lon":5.376487,"is_reserved":false,"is_disabled":false,"rental_uris":{"android":"levelo://app?vid=042f67cd-e16a-49d7-9367-160a4aba85c5","ios":"levelo://app?vid=042f67cd-e16a-49d7-9367-160a4aba85c5"},"vehicle_type_id":"4","last_reported":1725577757,"current_range_meters":14400,"station_id":"ce4bgv92rcd13ifvqcq0","pricing_plan_id":"cebpf4jnsgd1na2vs0mg"},{"bike_id":"ea51688d-e5db-4e7c-a87d-908494a9761c","system_id":"levelo_inurba_marseille","lat":43.3078,"lon":5.37654,"is_reserved":false,"is_disabled":false,"rental_uris":{"android":"levelo://app?vid=ea51688d-e5db-4e7c-a87d-908494a9761c","ios":"levelo://app?vid=ea51688d-e5db-4e7c-a87d-908494a9761c"},"vehicle_type_id":"4","last_reported":1725577757,"current_range_meters":31200,"station_id":"ce4bgv92rcd13ifvqcq0","pricing_plan_id":"cebpf4jnsgd1na2vs0mg"},{"bike_id":"8f652895-1881-48ae-8d0a-fd88181f7dc5","system_id":"levelo_inurba_marseille","lat":43.307945,"lon":5.376487,"is_reserved":false,"is_disabled":false,"rental_uris":{"android":"levelo://app?vid=8f652895-1881-48ae-8d0a-fd88181f7dc5","ios":"levelo://app?vid=8f652895-1881-48ae-8d0a-fd88181f7dc5"},"vehicle_type_id":"4","last_reported":1725577757,"current_range_meters":31600,"station_id":"ce4bgv92rcd13ifvqcq0","pricing_plan_id":"cebpf4jnsgd1na2vs0mg"},{"bike_id":"e560663c-08e7-487b-8b09-4332b50472ec","system_id":"levelo_inurba_marseille","lat":43.307945,"lon":5.376487,"is_reserved":false,"is_disabled":false,"rental_uris":{"android":"levelo://app?vid=e560663c-08e7-487b-8b09-4332b50472ec","ios":"levelo://app?vid=e560663c-08e7-487b-8b09-4332b50472ec"},"vehicle_type_id":"4","last_reported":1725577757,"current_range_meters":19600,"station_id":"ce4bgv92rcd13ifvqcq0","pricing_plan_id":"cebpf4jnsgd1na2vs0mg"},{"bike_id":"edd1ba58-193d-40c9-8269-907714fa0060","system_id":"levelo_inurba_marseille","lat":43.307945,"lon":5.376487,"is_reserved":false,"is_disabled":false,"rental_uris":{"android":"levelo://app?vid=edd1ba58-193d-40c9-8269-907714fa0060","ios":"levelo://app?vid=edd1ba58-193d-40c9-8269-907714fa0060"},"vehicle_type_id":"4","last_reported":1725577757,"current_range_meters":30800,"station_id":"ce4bgv92rcd13ifvqcq0","pricing_plan_id":"cebpf4jnsgd1na2vs0mg"},{"bike_id":"9c327a20-65e6-4cf7-8165-169bb977067e","system_id":"levelo_inurba_marseille","lat":43.301396,"lon":5.387812,"is_reserved":false,"is_disabled":false,"rental_uris":{"android":"levelo://app?vid=9c327a20-65e6-4cf7-8165-169bb977067e","ios":"levelo://app?vid=9c327a20-65e6-4cf7-8165-169bb977067e"},"vehicle_type_id":"4","last_reported":1725577757,"current_range_meters":400,"station_id":"ce4bghh2rcd13ifvqb60","pricing_plan_id":"cebpf4jnsgd1na2vs0mg"},{"bike_id":"5b87adc2-93d2-4c83-8e15-8cbb846b94f0","system_id":"levelo_inurba_marseille","lat":43.317075,"lon":5.377367,"is_reserved":false,"is_disabled":false,"rental_uris":{"android":"levelo://app?vid=5b87adc2-93d2-4c83-8e15-8cbb846b94f0","ios":"levelo://app?vid=5b87adc2-93d2-4c83-8e15-8cbb846b94f0"},"vehicle_type_id":"4","last_reported":1725577757,"current_range_meters":8400,"station_id":"ce4bgth2rcd13ifvqch0","pricing_plan_id":"cebpf4jnsgd1na2vs0mg"},{"bike_id":"e74d164b-04f8-4d79-ab35-6ca3df30a7d6","system_id":"levelo_inurba_marseille","lat":43.317075,"lon":5.377367,"is_reserved":false,"is_disabled":false,"rental_uris":{"android":"levelo://app?vid=e74d164b-04f8-4d79-ab35-6ca3df30a7d6","ios":"levelo://app?vid=e74d164b-04f8-4d79-ab35-6ca3df30a7d6"},"vehicle_type_id":"4","last_reported":1725577757,"current_range_meters":7600,"station_id":"ce4bgth2rcd13ifvqch0","pricing_plan_id":"cebpf4jnsgd1na2vs0mg"},{"bike_id":"b3729d11-4c4c-450c-8d92-7fe4bb08d079","system_id":"levelo_inurba_marseille","lat":43.317046,"lon":5.377604,"is_reserved":false,"is_disabled":false,"rental_uris":{"android":"levelo://app?vid=b3729d11-4c4c-450c-8d92-7fe4bb08d079","ios":"levelo://app?vid=b3729d11-4c4c-450c-8d92-7fe4bb08d079"},"vehicle_type_id":"4","last_reported":1725577757,"current_range_meters":24000,"station_id":"ce4bgth2rcd13ifvqch0","pricing_plan_id":"cebpf4jnsgd1na2vs0mg"},{"bike_id":"1307552c-9a92-48f5-ab96-efc57e56844b","system_id":"levelo_inurba_marseille","lat":43.317075,"lon":5.377367,"is_reserved":false,"is_disabled":false,"rental_uris":{"android":"levelo://app?vid=1307552c-9a92-48f5-ab96-efc57e56844b","ios":"levelo://app?vid=1307552c-9a92-48f5-ab96-efc57e56844b"},"vehicle_type_id":"4","last_reported":1725577757,"current_range_meters":15200,"station_id":"ce4bgth2rcd13ifvqch0","pricing_plan_id":"cebpf4jnsgd1na2vs0mg"},{"bike_id":"7130411f-4162-418a-b675-8ebf992fce4c","system_id":"levelo_inurba_marseille","lat":43.317075,"lon":5.377367,"is_reserved":false,"is_disabled":false,"rental_uris":{"android":"levelo://app?vid=7130411f-4162-418a-b675-8ebf992fce4c","ios":"levelo://app?vid=7130411f-4162-418a-b675-8ebf992fce4c"},"vehicle_type_id":"4","last_reported":1725577757,"current_range_meters":14800,"station_id":"ce4bgth2rcd13ifvqch0","pricing_plan_id":"cebpf4jnsgd1na2vs0mg"},{"bike_id":"5a020569-723f-42b3-b06c-47d0d5479c88","system_id":"levelo_inurba_marseille","lat":43.317072,"lon":5.377634,"is_reserved":false,"is_disabled":false,"rental_uris":{"android":"levelo://app?vid=5a020569-723f-42b3-b06c-47d0d5479c88","ios":"levelo://app?vid=5a020569-723f-42b3-b06c-47d0d5479c88"},"vehicle_type_id":"4","last_reported":1725577757,"current_range_meters":9200,"station_id":"ce4bgth2rcd13ifvqch0","pricing_plan_id":"cebpf4jnsgd1na2vs0mg"},{"bike_id":"83581d8e-3dce-4c11-9397-9e95ab85a5f3","system_id":"levelo_inurba_marseille","lat":43.311343,"lon":5.379935,"is_reserved":false,"is_disabled":false,"rental_uris":{"android":"levelo://app?vid=83581d8e-3dce-4c11-9397-9e95ab85a5f3","ios":"levelo://app?vid=83581d8e-3dce-4c11-9397-9e95ab85a5f3"},"vehicle_type_id":"4","last_reported":1725577757,"current_range_meters":10400,"station_id":"","pricing_plan_id":"cebpf4jnsgd1na2vs0mg"},{"bike_id":"bf3df9a6-ce2d-4d5c-92db-96e434c1c308","system_id":"levelo_inurba_marseille","lat":43.315289,"lon":5.380349,"is_reserved":false,"is_disabled":false,"rental_uris":{"android":"levelo://app?vid=bf3df9a6-ce2d-4d5c-92db-96e434c1c308","ios":"levelo://app?vid=bf3df9a6-ce2d-4d5c-92db-96e434c1c308"},"vehicle_type_id":"4","last_reported":1725577757,"current_range_meters":17200,"station_id":"ce4bhsp2rcd13ifvqi50","pricing_plan_id":"cebpf4jnsgd1na2vs0mg"},{"bike_id":"6f06e032-4694-4ae6-a69f-3d5ca404590a","system_id":"levelo_inurba_marseille","lat":43.315289,"lon":5.380349,"is_reserved":false,"is_disabled":false,"rental_uris":{"android":"levelo://app?vid=6f06e032-4694-4ae6-a69f-3d5ca404590a","ios":"levelo://app?vid=6f06e032-4694-4ae6-a69f-3d5ca404590a"},"vehicle_type_id":"4","last_reported":1725577757,"current_range_meters":6000,"station_id":"ce4bhsp2rcd13ifvqi50","pricing_plan_id":"cebpf4jnsgd1na2vs0mg"},{"bike_id":"94e5e356-6b2d-4914-8089-f68eb79c9945","system_id":"levelo_inurba_marseille","lat":43.315289,"lon":5.380349,"is_reserved":false,"is_disabled":false,"rental_uris":{"android":"levelo://app?vid=94e5e356-6b2d-4914-8089-f68eb79c9945","ios":"levelo://app?vid=94e5e356-6b2d-4914-8089-f68eb79c9945"},"vehicle_type_id":"4","last_reported":1725577757,"current_range_meters":14000,"station_id":"ce4bhsp2rcd13ifvqi50","pricing_plan_id":"cebpf4jnsgd1na2vs0mg"},{"bike_id":"91040f8c-ef78-4e9f-9f7d-30b539f83bdc","system_id":"levelo_inurba_marseille","lat":43.315289,"lon":5.380349,"is_reserved":false,"is_disabled":false,"rental_uris":{"android":"levelo://app?vid=91040f8c-ef78-4e9f-9f7d-30b539f83bdc","ios":"levelo://app?vid=91040f8c-ef78-4e9f-9f7d-30b539f83bdc"},"vehicle_type_id":"4","last_reported":1725577757,"current_range_meters":0,"station_id":"ce4bhsp2rcd13ifvqi50","pricing_plan_id":"cebpf4jnsgd1na2vs0mg"},{"bike_id":"f85a9ce4-e2b5-4193-81ed-9a882dfdaadf","system_id":"levelo_inurba_marseille","lat":43.315289,"lon":5.380349,"is_reserved":false,"is_disabled":false,"rental_uris":{"android":"levelo://app?vid=f85a9ce4-e2b5-4193-81ed-9a882dfdaadf","ios":"levelo://app?vid=f85a9ce4-e2b5-4193-81ed-9a882dfdaadf"},"vehicle_type_id":"4","last_reported":1725577757,"current_range_meters":13600,"station_id":"ce4bhsp2rcd13ifvqi50","pricing_plan_id":"cebpf4jnsgd1na2vs0mg"},{"bike_id":"4d613b6e-7401-4476-a6bd-1add5fd96940","system_id":"levelo_inurba_marseille","lat":43.315289,"lon":5.380349,"is_reserved":false,"is_disabled":false,"rental_uris":{"android":"levelo://app?vid=4d613b6e-7401-4476-a6bd-1add5fd96940","ios":"levelo://app?vid=4d613b6e-7401-4476-a6bd-1add5fd96940"},"vehicle_type_id":"4","last_reported":1725577757,"current_range_meters":14400,"station_id":"ce4bhsp2rcd13ifvqi50","pricing_plan_id":"cebpf4jnsgd1na2vs0mg"},{"bike_id":"d94123c0-7eee-4c96-886d-8169ea2a4012","system_id":"levelo_inurba_marseille","lat":43.315289,"lon":5.380349,"is_reserved":false,"is_disabled":false,"rental_uris":{"android":"levelo://app?vid=d94123c0-7eee-4c96-886d-8169ea2a4012","ios":"levelo://app?vid=d94123c0-7eee-4c96-886d-8169ea2a4012"},"vehicle_type_id":"4","last_reported":1725577757,"current_range_meters":31200,"station_id":"ce4bhsp2rcd13ifvqi50","pricing_plan_id":"cebpf4jnsgd1na2vs0mg"},{"bike_id":"7179ee0b-872b-412e-8e44-b3f5a99ccad8","system_id":"levelo_inurba_marseille","lat":43.315289,"lon":5.380349,"is_reserved":false,"is_disabled":false,"rental_uris":{"android":"levelo://app?vid=7179ee0b-872b-412e-8e44-b3f5a99ccad8","ios":"levelo://app?vid=7179ee0b-872b-412e-8e44-b3f5a99ccad8"},"vehicle_type_id":"4","last_reported":1725577757,"current_range_meters":22400,"station_id":"ce4bhsp2rcd13ifvqi50","pricing_plan_id":"cebpf4jnsgd1na2vs0mg"},{"bike_id":"7989ef98-2242-45e7-92eb-92d8f54210f6","system_id":"levelo_inurba_marseille","lat":43.301939,"lon":5.366286,"is_reserved":false,"is_disabled":false,"rental_uris":{"android":"levelo://app?vid=7989ef98-2242-45e7-92eb-92d8f54210f6","ios":"levelo://app?vid=7989ef98-2242-45e7-92eb-92d8f54210f6"},"vehicle_type_id":"4","last_reported":1725577757,"current_range_meters":0,"station_id":"ce4bgrh2rcd13ifvqc8g","pricing_plan_id":"cebpf4jnsgd1na2vs0mg"},{"bike_id":"eaf34d03-eec2-4c3f-a39f-e50f927728cf","system_id":"levelo_inurba_marseille","lat":43.308012,"lon":5.381511,"is_reserved":false,"is_disabled":false,"rental_uris":{"android":"levelo://app?vid=eaf34d03-eec2-4c3f-a39f-e50f927728cf","ios":"levelo://app?vid=eaf34d03-eec2-4c3f-a39f-e50f927728cf"},"vehicle_type_id":"4","last_reported":1725577757,"current_range_meters":22400,"station_id":"ce4bgt12rcd13ifvqce0","pricing_plan_id":"cebpf4jnsgd1na2vs0mg"},{"bike_id":"409f0860-da8a-4d3e-b1cf-192136a7a9e2","system_id":"levelo_inurba_marseille","lat":43.308012,"lon":5.381511,"is_reserved":false,"is_disabled":false,"rental_uris":{"android":"levelo://app?vid=409f0860-da8a-4d3e-b1cf-192136a7a9e2","ios":"levelo://app?vid=409f0860-da8a-4d3e-b1cf-192136a7a9e2"},"vehicle_type_id":"4","last_reported":1725577757,"current_range_meters":24400,"station_id":"ce4bgt12rcd13ifvqce0","pricing_plan_id":"cebpf4jnsgd1na2vs0mg"},{"bike_id":"c6f39728-12ef-41bb-988d-c634907c0ecf","system_id":"levelo_inurba_marseille","lat":43.308012,"lon":5.381511,"is_reserved":false,"is_disabled":false,"rental_uris":{"android":"levelo://app?vid=c6f39728-12ef-41bb-988d-c634907c0ecf","ios":"levelo://app?vid=c6f39728-12ef-41bb-988d-c634907c0ecf"},"vehicle_type_id":"4","last_reported":1725577757,"current_range_meters":14400,"station_id":"ce4bgt12rcd13ifvqce0","pricing_plan_id":"cebpf4jnsgd1na2vs0mg"},{"bike_id":"dc1b7235-2bd8-4c01-a3f5-2a995eaf2b51","system_id":"levelo_inurba_marseille","lat":43.308012,"lon":5.381511,"is_reserved":false,"is_disabled":false,"rental_uris":{"android":"levelo://app?vid=dc1b7235-2bd8-4c01-a3f5-2a995eaf2b51","ios":"levelo://app?vid=dc1b7235-2bd8-4c01-a3f5-2a995eaf2b51"},"vehicle_type_id":"4","last_reported":1725577757,"current_range_meters":11600,"station_id":"ce4bgt12rcd13ifvqce0","pricing_plan_id":"cebpf4jnsgd1na2vs0mg"},{"bike_id":"0e3cefd9-bd02-42e8-aeb7-7b8896e5c339","system_id":"levelo_inurba_marseille","lat":43.308012,"lon":5.381511,"is_reserved":false,"is_disabled":false,"rental_uris":{"android":"levelo://app?vid=0e3cefd9-bd02-42e8-aeb7-7b8896e5c339","ios":"levelo://app?vid=0e3cefd9-bd02-42e8-aeb7-7b8896e5c339"},"vehicle_type_id":"4","last_reported":1725577757,"current_range_meters":24800,"station_id":"ce4bgt12rcd13ifvqce0","pricing_plan_id":"cebpf4jnsgd1na2vs0mg"},{"bike_id":"b5604811-c43b-4ff9-8204-b11c1d966f5b","system_id":"levelo_inurba_marseille","lat":43.308012,"lon":5.381511,"is_reserved":false,"is_disabled":false,"rental_uris":{"android":"levelo://app?vid=b5604811-c43b-4ff9-8204-b11c1d966f5b","ios":"levelo://app?vid=b5604811-c43b-4ff9-8204-b11c1d966f5b"},"vehicle_type_id":"4","last_reported":1725577757,"current_range_meters":19200,"station_id":"ce4bgt12rcd13ifvqce0","pricing_plan_id":"cebpf4jnsgd1na2vs0mg"},{"bike_id":"cdca5564-bc81-47c9-9ade-14f588656665","system_id":"levelo_inurba_marseille","lat":43.308012,"lon":5.381511,"is_reserved":false,"is_disabled":false,"rental_uris":{"android":"levelo://app?vid=cdca5564-bc81-47c9-9ade-14f588656665","ios":"levelo://app?vid=cdca5564-bc81-47c9-9ade-14f588656665"},"vehicle_type_id":"4","last_reported":1725577757,"current_range_meters":26800,"station_id":"ce4bgt12rcd13ifvqce0","pricing_plan_id":"cebpf4jnsgd1na2vs0mg"},{"bike_id":"65c0cac6-e2ac-4ea2-8fe6-eb2ee6f8f007","system_id":"levelo_inurba_marseille","lat":43.308012,"lon":5.381511,"is_reserved":false,"is_disabled":false,"rental_uris":{"android":"levelo://app?vid=65c0cac6-e2ac-4ea2-8fe6-eb2ee6f8f007","ios":"levelo://app?vid=65c0cac6-e2ac-4ea2-8fe6-eb2ee6f8f007"},"vehicle_type_id":"4","last_reported":1725577757,"current_range_meters":10000,"station_id":"ce4bgt12rcd13ifvqce0","pricing_plan_id":"cebpf4jnsgd1na2vs0mg"},{"bike_id":"6c1641ac-87c8-42cf-9ad6-8a9a422575ea","system_id":"levelo_inurba_marseille","lat":43.308012,"lon":5.381511,"is_reserved":false,"is_disabled":false,"rental_uris":{"android":"levelo://app?vid=6c1641ac-87c8-42cf-9ad6-8a9a422575ea","ios":"levelo://app?vid=6c1641ac-87c8-42cf-9ad6-8a9a422575ea"},"vehicle_type_id":"4","last_reported":1725577757,"current_range_meters":30400,"station_id":"ce4bgt12rcd13ifvqce0","pricing_plan_id":"cebpf4jnsgd1na2vs0mg"},{"bike_id":"a0b65f39-044f-46a3-a224-5abcc5e9cb1d","system_id":"levelo_inurba_marseille","lat":43.308012,"lon":5.381511,"is_reserved":false,"is_disabled":false,"rental_uris":{"android":"levelo://app?vid=a0b65f39-044f-46a3-a224-5abcc5e9cb1d","ios":"levelo://app?vid=a0b65f39-044f-46a3-a224-5abcc5e9cb1d"},"vehicle_type_id":"4","last_reported":1725577757,"current_range_meters":13600,"station_id":"ce4bgt12rcd13ifvqce0","pricing_plan_id":"cebpf4jnsgd1na2vs0mg"},{"bike_id":"797a3b27-82ab-4314-8a3c-f6adab1f411d","system_id":"levelo_inurba_marseille","lat":43.308012,"lon":5.381511,"is_reserved":false,"is_disabled":false,"rental_uris":{"android":"levelo://app?vid=797a3b27-82ab-4314-8a3c-f6adab1f411d","ios":"levelo://app?vid=797a3b27-82ab-4314-8a3c-f6adab1f411d"},"vehicle_type_id":"4","last_reported":1725577757,"current_range_meters":11200,"station_id":"ce4bgt12rcd13ifvqce0","pricing_plan_id":"cebpf4jnsgd1na2vs0mg"},{"bike_id":"3e4382d3-11bf-49ea-84b2-c5c19b5e6069","system_id":"levelo_inurba_marseille","lat":43.308012,"lon":5.381511,"is_reserved":false,"is_disabled":false,"rental_uris":{"android":"levelo://app?vid=3e4382d3-11bf-49ea-84b2-c5c19b5e6069","ios":"levelo://app?vid=3e4382d3-11bf-49ea-84b2-c5c19b5e6069"},"vehicle_type_id":"4","last_reported":1725577757,"current_range_meters":24400,"station_id":"ce4bgt12rcd13ifvqce0","pricing_plan_id":"cebpf4jnsgd1na2vs0mg"},{"bike_id":"08f229de-35ee-45b5-82ce-5d660fce8e53","system_id":"levelo_inurba_marseille","lat":43.308012,"lon":5.381511,"is_reserved":false,"is_disabled":false,"rental_uris":{"android":"levelo://app?vid=08f229de-35ee-45b5-82ce-5d660fce8e53","ios":"levelo://app?vid=08f229de-35ee-45b5-82ce-5d660fce8e53"},"vehicle_type_id":"4","last_reported":1725577757,"current_range_meters":31200,"station_id":"ce4bgt12rcd13ifvqce0","pricing_plan_id":"cebpf4jnsgd1na2vs0mg"},{"bike_id":"9932f13a-d818-4211-8a41-da69a9fd8ce9","system_id":"levelo_inurba_marseille","lat":43.308012,"lon":5.381511,"is_reserved":false,"is_disabled":false,"rental_uris":{"android":"levelo://app?vid=9932f13a-d818-4211-8a41-da69a9fd8ce9","ios":"levelo://app?vid=9932f13a-d818-4211-8a41-da69a9fd8ce9"},"vehicle_type_id":"4","last_reported":1725577757,"current_range_meters":28800,"station_id":"ce4bgt12rcd13ifvqce0","pricing_plan_id":"cebpf4jnsgd1na2vs0mg"},{"bike_id":"1db48457-998b-452a-b768-b6f39b2d3006","system_id":"levelo_inurba_marseille","lat":43.324771,"lon":5.36557,"is_reserved":false,"is_disabled":false,"rental_uris":{"android":"levelo://app?vid=1db48457-998b-452a-b768-b6f39b2d3006","ios":"levelo://app?vid=1db48457-998b-452a-b768-b6f39b2d3006"},"vehicle_type_id":"4","last_reported":1725577757,"current_range_meters":13200,"station_id":"ce4bhs12rcd13ifvqhvg","pricing_plan_id":"cebpf4jnsgd1na2vs0mg"},{"bike_id":"356f2db7-0c51-4e87-8814-66e6b4095df0","system_id":"levelo_inurba_marseille","lat":43.324771,"lon":5.36557,"is_reserved":false,"is_disabled":false,"rental_uris":{"android":"levelo://app?vid=356f2db7-0c51-4e87-8814-66e6b4095df0","ios":"levelo://app?vid=356f2db7-0c51-4e87-8814-66e6b4095df0"},"vehicle_type_id":"4","last_reported":1725577757,"current_range_meters":20000,"station_id":"ce4bhs12rcd13ifvqhvg","pricing_plan_id":"cebpf4jnsgd1na2vs0mg"},{"bike_id":"44bc3cf4-a447-4359-9d7f-d7c3681c66f1","system_id":"levelo_inurba_marseille","lat":43.324771,"lon":5.36557,"is_reserved":false,"is_disabled":false,"rental_uris":{"android":"levelo://app?vid=44bc3cf4-a447-4359-9d7f-d7c3681c66f1","ios":"levelo://app?vid=44bc3cf4-a447-4359-9d7f-d7c3681c66f1"},"vehicle_type_id":"4","last_reported":1725577757,"current_range_meters":13600,"station_id":"ce4bhs12rcd13ifvqhvg","pricing_plan_id":"cebpf4jnsgd1na2vs0mg"},{"bike_id":"69ec441a-3327-4912-a3da-2182de162d2a","system_id":"levelo_inurba_marseille","lat":43.324771,"lon":5.36557,"is_reserved":false,"is_disabled":false,"rental_uris":{"android":"levelo://app?vid=69ec441a-3327-4912-a3da-2182de162d2a","ios":"levelo://app?vid=69ec441a-3327-4912-a3da-2182de162d2a"},"vehicle_type_id":"4","last_reported":1725577757,"current_range_meters":17600,"station_id":"ce4bhs12rcd13ifvqhvg","pricing_plan_id":"cebpf4jnsgd1na2vs0mg"},{"bike_id":"8c268217-9049-41c9-9cfd-591a10ef6766","system_id":"levelo_inurba_marseille","lat":43.310741,"lon":5.38346,"is_reserved":false,"is_disabled":false,"rental_uris":{"android":"levelo://app?vid=8c268217-9049-41c9-9cfd-591a10ef6766","ios":"levelo://app?vid=8c268217-9049-41c9-9cfd-591a10ef6766"},"vehicle_type_id":"4","last_reported":1725577757,"current_range_meters":30800,"station_id":"ce4bgv92rcd13ifvqcr0","pricing_plan_id":"cebpf4jnsgd1na2vs0mg"},{"bike_id":"69457610-5d57-4819-af81-42077e4abb6b","system_id":"levelo_inurba_marseille","lat":43.302784,"lon":5.377158,"is_reserved":false,"is_disabled":false,"rental_uris":{"android":"levelo://app?vid=69457610-5d57-4819-af81-42077e4abb6b","ios":"levelo://app?vid=69457610-5d57-4819-af81-42077e4abb6b"},"vehicle_type_id":"4","last_reported":1725577757,"current_range_meters":31200,"station_id":"ce4bguh2rcd13ifvqcj0","pricing_plan_id":"cebpf4jnsgd1na2vs0mg"},{"bike_id":"216b5f70-b2d2-46f6-adde-84cb07ec6186","system_id":"levelo_inurba_marseille","lat":43.310804,"lon":5.38359,"is_reserved":false,"is_disabled":false,"rental_uris":{"android":"levelo://app?vid=216b5f70-b2d2-46f6-adde-84cb07ec6186","ios":"levelo://app?vid=216b5f70-b2d2-46f6-adde-84cb07ec6186"},"vehicle_type_id":"4","last_reported":1725577757,"current_range_meters":2800,"station_id":"ce4bgv92rcd13ifvqcr0","pricing_plan_id":"cebpf4jnsgd1na2vs0mg"},{"bike_id":"3cd1fc3b-ced4-429a-a59d-f716991d0e29","system_id":"levelo_inurba_marseille","lat":43.310804,"lon":5.38359,"is_reserved":false,"is_disabled":false,"rental_uris":{"android":"levelo://app?vid=3cd1fc3b-ced4-429a-a59d-f716991d0e29","ios":"levelo://app?vid=3cd1fc3b-ced4-429a-a59d-f716991d0e29"},"vehicle_type_id":"4","last_reported":1725577757,"current_range_meters":29600,"station_id":"ce4bgv92rcd13ifvqcr0","pricing_plan_id":"cebpf4jnsgd1na2vs0mg"},{"bike_id":"7a93f2f5-45a9-459a-ace8-3b07e1364a76","system_id":"levelo_inurba_marseille","lat":43.310804,"lon":5.38359,"is_reserved":false,"is_disabled":false,"rental_uris":{"android":"levelo://app?vid=7a93f2f5-45a9-459a-ace8-3b07e1364a76","ios":"levelo://app?vid=7a93f2f5-45a9-459a-ace8-3b07e1364a76"},"vehicle_type_id":"4","last_reported":1725577757,"current_range_meters":0,"station_id":"ce4bgv92rcd13ifvqcr0","pricing_plan_id":"cebpf4jnsgd1na2vs0mg"},{"bike_id":"fac4c210-0868-4c71-8b6c-7f53f41e3b8c","system_id":"levelo_inurba_marseille","lat":43.310804,"lon":5.38359,"is_reserved":false,"is_disabled":false,"rental_uris":{"android":"levelo://app?vid=fac4c210-0868-4c71-8b6c-7f53f41e3b8c","ios":"levelo://app?vid=fac4c210-0868-4c71-8b6c-7f53f41e3b8c"},"vehicle_type_id":"4","last_reported":1725577757,"current_range_meters":6400,"station_id":"ce4bgv92rcd13ifvqcr0","pricing_plan_id":"cebpf4jnsgd1na2vs0mg"},{"bike_id":"d2950d4e-49c5-428d-a9fe-e49a4b34e81f","system_id":"levelo_inurba_marseille","lat":43.310804,"lon":5.38359,"is_reserved":false,"is_disabled":false,"rental_uris":{"android":"levelo://app?vid=d2950d4e-49c5-428d-a9fe-e49a4b34e81f","ios":"levelo://app?vid=d2950d4e-49c5-428d-a9fe-e49a4b34e81f"},"vehicle_type_id":"4","last_reported":1725577757,"current_range_meters":4800,"station_id":"ce4bgv92rcd13ifvqcr0","pricing_plan_id":"cebpf4jnsgd1na2vs0mg"},{"bike_id":"fa78f74b-52f0-407b-bd73-50765e677004","system_id":"levelo_inurba_marseille","lat":43.319935,"lon":5.381699,"is_reserved":false,"is_disabled":false,"rental_uris":{"android":"levelo://app?vid=fa78f74b-52f0-407b-bd73-50765e677004","ios":"levelo://app?vid=fa78f74b-52f0-407b-bd73-50765e677004"},"vehicle_type_id":"4","last_reported":1725577757,"current_range_meters":26800,"station_id":"ce4bhr12rcd13ifvqhpg","pricing_plan_id":"cebpf4jnsgd1na2vs0mg"},{"bike_id":"929ea1c6-0090-443e-9596-34c3e2d9fcb1","system_id":"levelo_inurba_marseille","lat":43.319935,"lon":5.381699,"is_reserved":false,"is_disabled":false,"rental_uris":{"android":"levelo://app?vid=929ea1c6-0090-443e-9596-34c3e2d9fcb1","ios":"levelo://app?vid=929ea1c6-0090-443e-9596-34c3e2d9fcb1"},"vehicle_type_id":"4","last_reported":1725577757,"current_range_meters":14800,"station_id":"ce4bhr12rcd13ifvqhpg","pricing_plan_id":"cebpf4jnsgd1na2vs0mg"},{"bike_id":"b35479d5-2b38-420a-8d62-268ab9360bda","system_id":"levelo_inurba_marseille","lat":43.319935,"lon":5.381699,"is_reserved":false,"is_disabled":false,"rental_uris":{"android":"levelo://app?vid=b35479d5-2b38-420a-8d62-268ab9360bda","ios":"levelo://app?vid=b35479d5-2b38-420a-8d62-268ab9360bda"},"vehicle_type_id":"4","last_reported":1725577757,"current_range_meters":16400,"station_id":"ce4bhr12rcd13ifvqhpg","pricing_plan_id":"cebpf4jnsgd1na2vs0mg"},{"bike_id":"8938212a-57c1-4a95-87ca-828c2722ee6b","system_id":"levelo_inurba_marseille","lat":43.319935,"lon":5.381699,"is_reserved":false,"is_disabled":false,"rental_uris":{"android":"levelo://app?vid=8938212a-57c1-4a95-87ca-828c2722ee6b","ios":"levelo://app?vid=8938212a-57c1-4a95-87ca-828c2722ee6b"},"vehicle_type_id":"4","last_reported":1725577757,"current_range_meters":31600,"station_id":"ce4bhr12rcd13ifvqhpg","pricing_plan_id":"cebpf4jnsgd1na2vs0mg"},{"bike_id":"4f1e12d3-7e5d-49ba-9ab0-2a1e6053480e","system_id":"levelo_inurba_marseille","lat":43.319935,"lon":5.381699,"is_reserved":false,"is_disabled":false,"rental_uris":{"android":"levelo://app?vid=4f1e12d3-7e5d-49ba-9ab0-2a1e6053480e","ios":"levelo://app?vid=4f1e12d3-7e5d-49ba-9ab0-2a1e6053480e"},"vehicle_type_id":"4","last_reported":1725577757,"current_range_meters":16800,"station_id":"ce4bhr12rcd13ifvqhpg","pricing_plan_id":"cebpf4jnsgd1na2vs0mg"},{"bike_id":"fb53a75e-de10-4bef-ba75-9a23fe4a4754","system_id":"levelo_inurba_marseille","lat":43.319935,"lon":5.381699,"is_reserved":false,"is_disabled":false,"rental_uris":{"android":"levelo://app?vid=fb53a75e-de10-4bef-ba75-9a23fe4a4754","ios":"levelo://app?vid=fb53a75e-de10-4bef-ba75-9a23fe4a4754"},"vehicle_type_id":"4","last_reported":1725577757,"current_range_meters":31200,"station_id":"ce4bhr12rcd13ifvqhpg","pricing_plan_id":"cebpf4jnsgd1na2vs0mg"},{"bike_id":"92a97b6a-e538-4de4-a87c-ae8d31fac080","system_id":"levelo_inurba_marseille","lat":43.319935,"lon":5.381699,"is_reserved":false,"is_disabled":false,"rental_uris":{"android":"levelo://app?vid=92a97b6a-e538-4de4-a87c-ae8d31fac080","ios":"levelo://app?vid=92a97b6a-e538-4de4-a87c-ae8d31fac080"},"vehicle_type_id":"4","last_reported":1725577757,"current_range_meters":28000,"station_id":"ce4bhr12rcd13ifvqhpg","pricing_plan_id":"cebpf4jnsgd1na2vs0mg"},{"bike_id":"16e71d91-855d-4b7c-b199-83a75fe29149","system_id":"levelo_inurba_marseille","lat":43.319935,"lon":5.381699,"is_reserved":false,"is_disabled":false,"rental_uris":{"android":"levelo://app?vid=16e71d91-855d-4b7c-b199-83a75fe29149","ios":"levelo://app?vid=16e71d91-855d-4b7c-b199-83a75fe29149"},"vehicle_type_id":"4","last_reported":1725577757,"current_range_meters":800,"station_id":"ce4bhr12rcd13ifvqhpg","pricing_plan_id":"cebpf4jnsgd1na2vs0mg"},{"bike_id":"4ce7e0da-722a-4530-afa1-7e0b61215887","system_id":"levelo_inurba_marseille","lat":43.313571,"lon":5.384829,"is_reserved":false,"is_disabled":false,"rental_uris":{"android":"levelo://app?vid=4ce7e0da-722a-4530-afa1-7e0b61215887","ios":"levelo://app?vid=4ce7e0da-722a-4530-afa1-7e0b61215887"},"vehicle_type_id":"4","last_reported":1725577757,"current_range_meters":31600,"station_id":"ce4bgt92rcd13ifvqcf0","pricing_plan_id":"cebpf4jnsgd1na2vs0mg"},{"bike_id":"12268dfb-29c1-4ff0-88da-41ec6bde6b2a","system_id":"levelo_inurba_marseille","lat":43.313571,"lon":5.384829,"is_reserved":false,"is_disabled":false,"rental_uris":{"android":"levelo://app?vid=12268dfb-29c1-4ff0-88da-41ec6bde6b2a","ios":"levelo://app?vid=12268dfb-29c1-4ff0-88da-41ec6bde6b2a"},"vehicle_type_id":"4","last_reported":1725577757,"current_range_meters":12400,"station_id":"ce4bgt92rcd13ifvqcf0","pricing_plan_id":"cebpf4jnsgd1na2vs0mg"},{"bike_id":"674ca80f-4d88-4305-90a2-50a09fe47b9a","system_id":"levelo_inurba_marseille","lat":43.313571,"lon":5.384829,"is_reserved":false,"is_disabled":false,"rental_uris":{"android":"levelo://app?vid=674ca80f-4d88-4305-90a2-50a09fe47b9a","ios":"levelo://app?vid=674ca80f-4d88-4305-90a2-50a09fe47b9a"},"vehicle_type_id":"4","last_reported":1725577757,"current_range_meters":31600,"station_id":"ce4bgt92rcd13ifvqcf0","pricing_plan_id":"cebpf4jnsgd1na2vs0mg"},{"bike_id":"b5065969-25df-4ef5-a5b7-880c135c99be","system_id":"levelo_inurba_marseille","lat":43.313645,"lon":5.384933,"is_reserved":false,"is_disabled":false,"rental_uris":{"android":"levelo://app?vid=b5065969-25df-4ef5-a5b7-880c135c99be","ios":"levelo://app?vid=b5065969-25df-4ef5-a5b7-880c135c99be"},"vehicle_type_id":"4","last_reported":1725577757,"current_range_meters":16800,"station_id":"ce4bgt92rcd13ifvqcf0","pricing_plan_id":"cebpf4jnsgd1na2vs0mg"},{"bike_id":"60f47d54-362a-4de8-bd86-e1bf3dca2c4a","system_id":"levelo_inurba_marseille","lat":43.313571,"lon":5.384829,"is_reserved":false,"is_disabled":false,"rental_uris":{"android":"levelo://app?vid=60f47d54-362a-4de8-bd86-e1bf3dca2c4a","ios":"levelo://app?vid=60f47d54-362a-4de8-bd86-e1bf3dca2c4a"},"vehicle_type_id":"4","last_reported":1725577757,"current_range_meters":6800,"station_id":"ce4bgt92rcd13ifvqcf0","pricing_plan_id":"cebpf4jnsgd1na2vs0mg"},{"bike_id":"b7dfedf2-0889-4ad3-8d73-e1d9b3bfdbab","system_id":"levelo_inurba_marseille","lat":43.31369,"lon":5.38494,"is_reserved":false,"is_disabled":false,"rental_uris":{"android":"levelo://app?vid=b7dfedf2-0889-4ad3-8d73-e1d9b3bfdbab","ios":"levelo://app?vid=b7dfedf2-0889-4ad3-8d73-e1d9b3bfdbab"},"vehicle_type_id":"4","last_reported":1725577757,"current_range_meters":2400,"station_id":"ce4bgt92rcd13ifvqcf0","pricing_plan_id":"cebpf4jnsgd1na2vs0mg"},{"bike_id":"e873bf9d-59b1-4c88-b420-ef7c15b2fd2a","system_id":"levelo_inurba_marseille","lat":43.31373,"lon":5.38494,"is_reserved":false,"is_disabled":false,"rental_uris":{"android":"levelo://app?vid=e873bf9d-59b1-4c88-b420-ef7c15b2fd2a","ios":"levelo://app?vid=e873bf9d-59b1-4c88-b420-ef7c15b2fd2a"},"vehicle_type_id":"4","last_reported":1725577757,"current_range_meters":6800,"station_id":"ce4bgt92rcd13ifvqcf0","pricing_plan_id":"cebpf4jnsgd1na2vs0mg"},{"bike_id":"8af2ef14-2df8-45ba-abc3-febe2ce3c4a4","system_id":"levelo_inurba_marseille","lat":43.31358,"lon":5.38497,"is_reserved":false,"is_disabled":false,"rental_uris":{"android":"levelo://app?vid=8af2ef14-2df8-45ba-abc3-febe2ce3c4a4","ios":"levelo://app?vid=8af2ef14-2df8-45ba-abc3-febe2ce3c4a4"},"vehicle_type_id":"4","last_reported":1725577757,"current_range_meters":19600,"station_id":"ce4bgt92rcd13ifvqcf0","pricing_plan_id":"cebpf4jnsgd1na2vs0mg"},{"bike_id":"aea014cf-57b6-4930-9bdb-c04031a995d3","system_id":"levelo_inurba_marseille","lat":43.313571,"lon":5.384829,"is_reserved":false,"is_disabled":false,"rental_uris":{"android":"levelo://app?vid=aea014cf-57b6-4930-9bdb-c04031a995d3","ios":"levelo://app?vid=aea014cf-57b6-4930-9bdb-c04031a995d3"},"vehicle_type_id":"4","last_reported":1725577757,"current_range_meters":31200,"station_id":"ce4bgt92rcd13ifvqcf0","pricing_plan_id":"cebpf4jnsgd1na2vs0mg"},{"bike_id":"382e43f4-9c2c-468b-9717-7bfa7e1882ac","system_id":"levelo_inurba_marseille","lat":43.313571,"lon":5.384829,"is_reserved":false,"is_disabled":false,"rental_uris":{"android":"levelo://app?vid=382e43f4-9c2c-468b-9717-7bfa7e1882ac","ios":"levelo://app?vid=382e43f4-9c2c-468b-9717-7bfa7e1882ac"},"vehicle_type_id":"4","last_reported":1725577757,"current_range_meters":13600,"station_id":"ce4bgt92rcd13ifvqcf0","pricing_plan_id":"cebpf4jnsgd1na2vs0mg"},{"bike_id":"695b0140-a4fa-4532-b720-654e741b9022","system_id":"levelo_inurba_marseille","lat":43.31377,"lon":5.38498,"is_reserved":false,"is_disabled":false,"rental_uris":{"android":"levelo://app?vid=695b0140-a4fa-4532-b720-654e741b9022","ios":"levelo://app?vid=695b0140-a4fa-4532-b720-654e741b9022"},"vehicle_type_id":"4","last_reported":1725577757,"current_range_meters":15600,"station_id":"ce4bgt92rcd13ifvqcf0","pricing_plan_id":"cebpf4jnsgd1na2vs0mg"},{"bike_id":"e2dc8e5a-d8ad-4e64-a125-7bcfb025b0dd","system_id":"levelo_inurba_marseille","lat":43.313715,"lon":5.384992,"is_reserved":false,"is_disabled":false,"rental_uris":{"android":"levelo://app?vid=e2dc8e5a-d8ad-4e64-a125-7bcfb025b0dd","ios":"levelo://app?vid=e2dc8e5a-d8ad-4e64-a125-7bcfb025b0dd"},"vehicle_type_id":"4","last_reported":1725577757,"current_range_meters":22000,"station_id":"ce4bgt92rcd13ifvqcf0","pricing_plan_id":"cebpf4jnsgd1na2vs0mg"},{"bike_id":"aa33061a-c9c6-4a0a-a742-209227c02caa","system_id":"levelo_inurba_marseille","lat":43.313611,"lon":5.385005,"is_reserved":false,"is_disabled":false,"rental_uris":{"android":"levelo://app?vid=aa33061a-c9c6-4a0a-a742-209227c02caa","ios":"levelo://app?vid=aa33061a-c9c6-4a0a-a742-209227c02caa"},"vehicle_type_id":"4","last_reported":1725577757,"current_range_meters":18400,"station_id":"ce4bgt92rcd13ifvqcf0","pricing_plan_id":"cebpf4jnsgd1na2vs0mg"},{"bike_id":"7cb528b3-e04f-45a8-b979-6a8692f33a02","system_id":"levelo_inurba_marseille","lat":43.313606,"lon":5.385012,"is_reserved":false,"is_disabled":false,"rental_uris":{"android":"levelo://app?vid=7cb528b3-e04f-45a8-b979-6a8692f33a02","ios":"levelo://app?vid=7cb528b3-e04f-45a8-b979-6a8692f33a02"},"vehicle_type_id":"4","last_reported":1725577757,"current_range_meters":30800,"station_id":"ce4bgt92rcd13ifvqcf0","pricing_plan_id":"cebpf4jnsgd1na2vs0mg"},{"bike_id":"c5e7cf0b-1e78-44cc-b61f-256280e18123","system_id":"levelo_inurba_marseille","lat":43.31371,"lon":5.385012,"is_reserved":false,"is_disabled":false,"rental_uris":{"android":"levelo://app?vid=c5e7cf0b-1e78-44cc-b61f-256280e18123","ios":"levelo://app?vid=c5e7cf0b-1e78-44cc-b61f-256280e18123"},"vehicle_type_id":"4","last_reported":1725577757,"current_range_meters":18000,"station_id":"ce4bgt92rcd13ifvqcf0","pricing_plan_id":"cebpf4jnsgd1na2vs0mg"},{"bike_id":"48b36ce5-f8ab-4e4e-89e9-d26f8b6901b7","system_id":"levelo_inurba_marseille","lat":43.31362,"lon":5.385028,"is_reserved":false,"is_disabled":false,"rental_uris":{"android":"levelo://app?vid=48b36ce5-f8ab-4e4e-89e9-d26f8b6901b7","ios":"levelo://app?vid=48b36ce5-f8ab-4e4e-89e9-d26f8b6901b7"},"vehicle_type_id":"4","last_reported":1725577757,"current_range_meters":31200,"station_id":"ce4bgt92rcd13ifvqcf0","pricing_plan_id":"cebpf4jnsgd1na2vs0mg"},{"bike_id":"ac935c90-8cfc-4896-84d0-f051aa54b060","system_id":"levelo_inurba_marseille","lat":43.299724,"lon":5.371829,"is_reserved":false,"is_disabled":false,"rental_uris":{"android":"levelo://app?vid=ac935c90-8cfc-4896-84d0-f051aa54b060","ios":"levelo://app?vid=ac935c90-8cfc-4896-84d0-f051aa54b060"},"vehicle_type_id":"4","last_reported":1725577757,"current_range_meters":31200,"station_id":"ce4bgr92rcd13ifvqc7g","pricing_plan_id":"cebpf4jnsgd1na2vs0mg"},{"bike_id":"445272eb-bf9e-4e9d-b516-ae73c43371dc","system_id":"levelo_inurba_marseille","lat":43.299724,"lon":5.371829,"is_reserved":false,"is_disabled":false,"rental_uris":{"android":"levelo://app?vid=445272eb-bf9e-4e9d-b516-ae73c43371dc","ios":"levelo://app?vid=445272eb-bf9e-4e9d-b516-ae73c43371dc"},"vehicle_type_id":"4","last_reported":1725577757,"current_range_meters":13600,"station_id":"ce4bgr92rcd13ifvqc7g","pricing_plan_id":"cebpf4jnsgd1na2vs0mg"},{"bike_id":"9654e97a-c85d-4400-975a-de881c8a02b9","system_id":"levelo_inurba_marseille","lat":43.29941,"lon":5.36555,"is_reserved":false,"is_disabled":false,"rental_uris":{"android":"levelo://app?vid=9654e97a-c85d-4400-975a-de881c8a02b9","ios":"levelo://app?vid=9654e97a-c85d-4400-975a-de881c8a02b9"},"vehicle_type_id":"4","last_reported":1725577757,"current_range_meters":22000,"station_id":"","pricing_plan_id":"cebpf4jnsgd1na2vs0mg"},{"bike_id":"21ddae8a-f7cd-4743-a3b8-fee0b290e78d","system_id":"levelo_inurba_marseille","lat":43.299724,"lon":5.371829,"is_reserved":false,"is_disabled":false,"rental_uris":{"android":"levelo://app?vid=21ddae8a-f7cd-4743-a3b8-fee0b290e78d","ios":"levelo://app?vid=21ddae8a-f7cd-4743-a3b8-fee0b290e78d"},"vehicle_type_id":"4","last_reported":1725577757,"current_range_meters":31600,"station_id":"ce4bgr92rcd13ifvqc7g","pricing_plan_id":"cebpf4jnsgd1na2vs0mg"},{"bike_id":"da729692-ef5b-4cbb-abf2-c93747f07638","system_id":"levelo_inurba_marseille","lat":43.299724,"lon":5.371829,"is_reserved":false,"is_disabled":false,"rental_uris":{"android":"levelo://app?vid=da729692-ef5b-4cbb-abf2-c93747f07638","ios":"levelo://app?vid=da729692-ef5b-4cbb-abf2-c93747f07638"},"vehicle_type_id":"4","last_reported":1725577757,"current_range_meters":29200,"station_id":"ce4bgr92rcd13ifvqc7g","pricing_plan_id":"cebpf4jnsgd1na2vs0mg"},{"bike_id":"7bf8ba33-9caa-4a2e-a8d9-926e4b080cb6","system_id":"levelo_inurba_marseille","lat":43.299724,"lon":5.371829,"is_reserved":false,"is_disabled":false,"rental_uris":{"android":"levelo://app?vid=7bf8ba33-9caa-4a2e-a8d9-926e4b080cb6","ios":"levelo://app?vid=7bf8ba33-9caa-4a2e-a8d9-926e4b080cb6"},"vehicle_type_id":"4","last_reported":1725577757,"current_range_meters":29600,"station_id":"ce4bgr92rcd13ifvqc7g","pricing_plan_id":"cebpf4jnsgd1na2vs0mg"},{"bike_id":"acf699b1-7fc2-4462-a9e5-14b65aab339f","system_id":"levelo_inurba_marseille","lat":43.299724,"lon":5.371829,"is_reserved":false,"is_disabled":false,"rental_uris":{"android":"levelo://app?vid=acf699b1-7fc2-4462-a9e5-14b65aab339f","ios":"levelo://app?vid=acf699b1-7fc2-4462-a9e5-14b65aab339f"},"vehicle_type_id":"4","last_reported":1725577757,"current_range_meters":30800,"station_id":"ce4bgr92rcd13ifvqc7g","pricing_plan_id":"cebpf4jnsgd1na2vs0mg"},{"bike_id":"04de9be6-4de6-4f20-bc79-72a443259e84","system_id":"levelo_inurba_marseille","lat":43.299724,"lon":5.371829,"is_reserved":false,"is_disabled":false,"rental_uris":{"android":"levelo://app?vid=04de9be6-4de6-4f20-bc79-72a443259e84","ios":"levelo://app?vid=04de9be6-4de6-4f20-bc79-72a443259e84"},"vehicle_type_id":"4","last_reported":1725577757,"current_range_meters":5600,"station_id":"ce4bgr92rcd13ifvqc7g","pricing_plan_id":"cebpf4jnsgd1na2vs0mg"},{"bike_id":"1dbab1ec-e8aa-4ffb-a34c-f07b87756a74","system_id":"levelo_inurba_marseille","lat":43.305364,"lon":5.384119,"is_reserved":false,"is_disabled":false,"rental_uris":{"android":"levelo://app?vid=1dbab1ec-e8aa-4ffb-a34c-f07b87756a74","ios":"levelo://app?vid=1dbab1ec-e8aa-4ffb-a34c-f07b87756a74"},"vehicle_type_id":"4","last_reported":1725577757,"current_range_meters":9600,"station_id":"ce4bgg92rcd13ifvqb30","pricing_plan_id":"cebpf4jnsgd1na2vs0mg"},{"bike_id":"1b0b0559-6b1a-4209-bc48-9fb9df48a293","system_id":"levelo_inurba_marseille","lat":43.305364,"lon":5.384119,"is_reserved":false,"is_disabled":false,"rental_uris":{"android":"levelo://app?vid=1b0b0559-6b1a-4209-bc48-9fb9df48a293","ios":"levelo://app?vid=1b0b0559-6b1a-4209-bc48-9fb9df48a293"},"vehicle_type_id":"4","last_reported":1725577757,"current_range_meters":10000,"station_id":"ce4bgg92rcd13ifvqb30","pricing_plan_id":"cebpf4jnsgd1na2vs0mg"},{"bike_id":"20a62a0a-a569-4bd6-a074-11abdbb86727","system_id":"levelo_inurba_marseille","lat":43.305364,"lon":5.384119,"is_reserved":false,"is_disabled":false,"rental_uris":{"android":"levelo://app?vid=20a62a0a-a569-4bd6-a074-11abdbb86727","ios":"levelo://app?vid=20a62a0a-a569-4bd6-a074-11abdbb86727"},"vehicle_type_id":"4","last_reported":1725577757,"current_range_meters":22800,"station_id":"ce4bgg92rcd13ifvqb30","pricing_plan_id":"cebpf4jnsgd1na2vs0mg"},{"bike_id":"5522ea62-bb0a-4815-8537-9bd131ebb642","system_id":"levelo_inurba_marseille","lat":43.305364,"lon":5.384119,"is_reserved":false,"is_disabled":false,"rental_uris":{"android":"levelo://app?vid=5522ea62-bb0a-4815-8537-9bd131ebb642","ios":"levelo://app?vid=5522ea62-bb0a-4815-8537-9bd131ebb642"},"vehicle_type_id":"4","last_reported":1725577757,"current_range_meters":4800,"station_id":"ce4bgg92rcd13ifvqb30","pricing_plan_id":"cebpf4jnsgd1na2vs0mg"},{"bike_id":"86ef9668-5f54-4a84-8aa9-d06292b0407b","system_id":"levelo_inurba_marseille","lat":43.30537,"lon":5.38424,"is_reserved":false,"is_disabled":false,"rental_uris":{"android":"levelo://app?vid=86ef9668-5f54-4a84-8aa9-d06292b0407b","ios":"levelo://app?vid=86ef9668-5f54-4a84-8aa9-d06292b0407b"},"vehicle_type_id":"4","last_reported":1725577757,"current_range_meters":10400,"station_id":"ce4bgg92rcd13ifvqb30","pricing_plan_id":"cebpf4jnsgd1na2vs0mg"},{"bike_id":"a90dc5ef-25b0-42da-a5a9-467e4e08f0ff","system_id":"levelo_inurba_marseille","lat":43.305364,"lon":5.384119,"is_reserved":false,"is_disabled":false,"rental_uris":{"android":"levelo://app?vid=a90dc5ef-25b0-42da-a5a9-467e4e08f0ff","ios":"levelo://app?vid=a90dc5ef-25b0-42da-a5a9-467e4e08f0ff"},"vehicle_type_id":"4","last_reported":1725577757,"current_range_meters":8000,"station_id":"ce4bgg92rcd13ifvqb30","pricing_plan_id":"cebpf4jnsgd1na2vs0mg"},{"bike_id":"51cc7ae2-76a1-4143-afe4-1a5e222e9ba5","system_id":"levelo_inurba_marseille","lat":43.326138,"lon":5.375101,"is_reserved":false,"is_disabled":false,"rental_uris":{"android":"levelo://app?vid=51cc7ae2-76a1-4143-afe4-1a5e222e9ba5","ios":"levelo://app?vid=51cc7ae2-76a1-4143-afe4-1a5e222e9ba5"},"vehicle_type_id":"4","last_reported":1725577757,"current_range_meters":28000,"station_id":"","pricing_plan_id":"cebpf4jnsgd1na2vs0mg"},{"bike_id":"2f64efe5-0d91-4824-840b-f8b6165d25de","system_id":"levelo_inurba_marseille","lat":43.305364,"lon":5.384119,"is_reserved":false,"is_disabled":false,"rental_uris":{"android":"levelo://app?vid=2f64efe5-0d91-4824-840b-f8b6165d25de","ios":"levelo://app?vid=2f64efe5-0d91-4824-840b-f8b6165d25de"},"vehicle_type_id":"4","last_reported":1725577757,"current_range_meters":14000,"station_id":"ce4bgg92rcd13ifvqb30","pricing_plan_id":"cebpf4jnsgd1na2vs0mg"},{"bike_id":"8e23dffd-1c63-43c6-a2c9-62eff574d2bb","system_id":"levelo_inurba_marseille","lat":43.305364,"lon":5.384119,"is_reserved":false,"is_disabled":false,"rental_uris":{"android":"levelo://app?vid=8e23dffd-1c63-43c6-a2c9-62eff574d2bb","ios":"levelo://app?vid=8e23dffd-1c63-43c6-a2c9-62eff574d2bb"},"vehicle_type_id":"4","last_reported":1725577757,"current_range_meters":27200,"station_id":"ce4bgg92rcd13ifvqb30","pricing_plan_id":"cebpf4jnsgd1na2vs0mg"},{"bike_id":"529f0888-c1d5-4254-9614-e050f3ded03a","system_id":"levelo_inurba_marseille","lat":43.305364,"lon":5.384119,"is_reserved":false,"is_disabled":false,"rental_uris":{"android":"levelo://app?vid=529f0888-c1d5-4254-9614-e050f3ded03a","ios":"levelo://app?vid=529f0888-c1d5-4254-9614-e050f3ded03a"},"vehicle_type_id":"4","last_reported":1725577757,"current_range_meters":19600,"station_id":"ce4bgg92rcd13ifvqb30","pricing_plan_id":"cebpf4jnsgd1na2vs0mg"},{"bike_id":"1f277ff2-7085-4ed8-940d-e4f160f3cca2","system_id":"levelo_inurba_marseille","lat":43.31182,"lon":5.38708,"is_reserved":false,"is_disabled":false,"rental_uris":{"android":"levelo://app?vid=1f277ff2-7085-4ed8-940d-e4f160f3cca2","ios":"levelo://app?vid=1f277ff2-7085-4ed8-940d-e4f160f3cca2"},"vehicle_type_id":"4","last_reported":1725577757,"current_range_meters":6400,"station_id":"ce4bgv12rcd13ifvqcp0","pricing_plan_id":"cebpf4jnsgd1na2vs0mg"},{"bike_id":"3ba73f4e-7aac-400e-9603-55802ef1f3f3","system_id":"levelo_inurba_marseille","lat":43.31187,"lon":5.38709,"is_reserved":false,"is_disabled":false,"rental_uris":{"android":"levelo://app?vid=3ba73f4e-7aac-400e-9603-55802ef1f3f3","ios":"levelo://app?vid=3ba73f4e-7aac-400e-9603-55802ef1f3f3"},"vehicle_type_id":"4","last_reported":1725577757,"current_range_meters":0,"station_id":"ce4bgv12rcd13ifvqcp0","pricing_plan_id":"cebpf4jnsgd1na2vs0mg"},{"bike_id":"8ee228c3-d3c7-4bab-80c1-b2c867c6b7f2","system_id":"levelo_inurba_marseille","lat":43.311722,"lon":5.387247,"is_reserved":false,"is_disabled":false,"rental_uris":{"android":"levelo://app?vid=8ee228c3-d3c7-4bab-80c1-b2c867c6b7f2","ios":"levelo://app?vid=8ee228c3-d3c7-4bab-80c1-b2c867c6b7f2"},"vehicle_type_id":"4","last_reported":1725577757,"current_range_meters":24000,"station_id":"ce4bgv12rcd13ifvqcp0","pricing_plan_id":"cebpf4jnsgd1na2vs0mg"},{"bike_id":"4ed39b4b-f8a2-453d-a402-f26cce27ccab","system_id":"levelo_inurba_marseille","lat":43.311722,"lon":5.387247,"is_reserved":false,"is_disabled":false,"rental_uris":{"android":"levelo://app?vid=4ed39b4b-f8a2-453d-a402-f26cce27ccab","ios":"levelo://app?vid=4ed39b4b-f8a2-453d-a402-f26cce27ccab"},"vehicle_type_id":"4","last_reported":1725577757,"current_range_meters":26800,"station_id":"ce4bgv12rcd13ifvqcp0","pricing_plan_id":"cebpf4jnsgd1na2vs0mg"},{"bike_id":"68831566-432f-402e-a6ce-bed13e8e1097","system_id":"levelo_inurba_marseille","lat":43.311722,"lon":5.387247,"is_reserved":false,"is_disabled":false,"rental_uris":{"android":"levelo://app?vid=68831566-432f-402e-a6ce-bed13e8e1097","ios":"levelo://app?vid=68831566-432f-402e-a6ce-bed13e8e1097"},"vehicle_type_id":"4","last_reported":1725577757,"current_range_meters":12800,"station_id":"ce4bgv12rcd13ifvqcp0","pricing_plan_id":"cebpf4jnsgd1na2vs0mg"},{"bike_id":"1e9a2778-e63d-4ecd-88e6-cbb2557a0950","system_id":"levelo_inurba_marseille","lat":43.311722,"lon":5.387247,"is_reserved":false,"is_disabled":false,"rental_uris":{"android":"levelo://app?vid=1e9a2778-e63d-4ecd-88e6-cbb2557a0950","ios":"levelo://app?vid=1e9a2778-e63d-4ecd-88e6-cbb2557a0950"},"vehicle_type_id":"4","last_reported":1725577757,"current_range_meters":15200,"station_id":"ce4bgv12rcd13ifvqcp0","pricing_plan_id":"cebpf4jnsgd1na2vs0mg"},{"bike_id":"23348638-c263-412e-b9e0-9c53c8768fcc","system_id":"levelo_inurba_marseille","lat":43.31172,"lon":5.38714,"is_reserved":false,"is_disabled":false,"rental_uris":{"android":"levelo://app?vid=23348638-c263-412e-b9e0-9c53c8768fcc","ios":"levelo://app?vid=23348638-c263-412e-b9e0-9c53c8768fcc"},"vehicle_type_id":"4","last_reported":1725577757,"current_range_meters":28000,"station_id":"ce4bgv12rcd13ifvqcp0","pricing_plan_id":"cebpf4jnsgd1na2vs0mg"},{"bike_id":"b3ca412f-d8c3-4f2c-9cca-55497374d9cd","system_id":"levelo_inurba_marseille","lat":43.311722,"lon":5.387247,"is_reserved":false,"is_disabled":false,"rental_uris":{"android":"levelo://app?vid=b3ca412f-d8c3-4f2c-9cca-55497374d9cd","ios":"levelo://app?vid=b3ca412f-d8c3-4f2c-9cca-55497374d9cd"},"vehicle_type_id":"4","last_reported":1725577757,"current_range_meters":31600,"station_id":"ce4bgv12rcd13ifvqcp0","pricing_plan_id":"cebpf4jnsgd1na2vs0mg"},{"bike_id":"3537f6fb-f797-47c8-aca7-0d0cbab5d163","system_id":"levelo_inurba_marseille","lat":43.31169,"lon":5.38722,"is_reserved":false,"is_disabled":false,"rental_uris":{"android":"levelo://app?vid=3537f6fb-f797-47c8-aca7-0d0cbab5d163","ios":"levelo://app?vid=3537f6fb-f797-47c8-aca7-0d0cbab5d163"},"vehicle_type_id":"4","last_reported":1725577757,"current_range_meters":10800,"station_id":"ce4bgv12rcd13ifvqcp0","pricing_plan_id":"cebpf4jnsgd1na2vs0mg"},{"bike_id":"ca8a33e9-052a-4a9b-b9fc-06da37c3bba3","system_id":"levelo_inurba_marseille","lat":43.31165,"lon":5.38722,"is_reserved":false,"is_disabled":false,"rental_uris":{"android":"levelo://app?vid=ca8a33e9-052a-4a9b-b9fc-06da37c3bba3","ios":"levelo://app?vid=ca8a33e9-052a-4a9b-b9fc-06da37c3bba3"},"vehicle_type_id":"4","last_reported":1725577757,"current_range_meters":8800,"station_id":"ce4bgv12rcd13ifvqcp0","pricing_plan_id":"cebpf4jnsgd1na2vs0mg"},{"bike_id":"5969c6a2-a956-4d21-b723-dddb1ce0ed3d","system_id":"levelo_inurba_marseille","lat":43.31181,"lon":5.38725,"is_reserved":false,"is_disabled":false,"rental_uris":{"android":"levelo://app?vid=5969c6a2-a956-4d21-b723-dddb1ce0ed3d","ios":"levelo://app?vid=5969c6a2-a956-4d21-b723-dddb1ce0ed3d"},"vehicle_type_id":"4","last_reported":1725577757,"current_range_meters":23200,"station_id":"ce4bgv12rcd13ifvqcp0","pricing_plan_id":"cebpf4jnsgd1na2vs0mg"},{"bike_id":"8e06a43f-4ba6-4744-91bb-233b75674778","system_id":"levelo_inurba_marseille","lat":43.31165,"lon":5.38728,"is_reserved":false,"is_disabled":false,"rental_uris":{"android":"levelo://app?vid=8e06a43f-4ba6-4744-91bb-233b75674778","ios":"levelo://app?vid=8e06a43f-4ba6-4744-91bb-233b75674778"},"vehicle_type_id":"4","last_reported":1725577757,"current_range_meters":5200,"station_id":"ce4bgv12rcd13ifvqcp0","pricing_plan_id":"cebpf4jnsgd1na2vs0mg"},{"bike_id":"48ea2b0a-a59c-4104-a312-402714cf899e","system_id":"levelo_inurba_marseille","lat":43.311722,"lon":5.387247,"is_reserved":false,"is_disabled":false,"rental_uris":{"android":"levelo://app?vid=48ea2b0a-a59c-4104-a312-402714cf899e","ios":"levelo://app?vid=48ea2b0a-a59c-4104-a312-402714cf899e"},"vehicle_type_id":"4","last_reported":1725577757,"current_range_meters":24400,"station_id":"ce4bgv12rcd13ifvqcp0","pricing_plan_id":"cebpf4jnsgd1na2vs0mg"},{"bike_id":"9d4d4ad3-9fa4-4394-8995-8a5887e80cc8","system_id":"levelo_inurba_marseille","lat":43.322872,"lon":5.382756,"is_reserved":false,"is_disabled":false,"rental_uris":{"android":"levelo://app?vid=9d4d4ad3-9fa4-4394-8995-8a5887e80cc8","ios":"levelo://app?vid=9d4d4ad3-9fa4-4394-8995-8a5887e80cc8"},"vehicle_type_id":"4","last_reported":1725577757,"current_range_meters":19200,"station_id":"ce4bhr12rcd13ifvqhqg","pricing_plan_id":"cebpf4jnsgd1na2vs0mg"},{"bike_id":"8720a550-f2c6-4762-967e-79b5151a6f6b","system_id":"levelo_inurba_marseille","lat":43.322872,"lon":5.382756,"is_reserved":false,"is_disabled":false,"rental_uris":{"android":"levelo://app?vid=8720a550-f2c6-4762-967e-79b5151a6f6b","ios":"levelo://app?vid=8720a550-f2c6-4762-967e-79b5151a6f6b"},"vehicle_type_id":"4","last_reported":1725577757,"current_range_meters":31200,"station_id":"ce4bhr12rcd13ifvqhqg","pricing_plan_id":"cebpf4jnsgd1na2vs0mg"},{"bike_id":"738a9119-88e9-4a93-acd0-26460ccaa111","system_id":"levelo_inurba_marseille","lat":43.322872,"lon":5.382756,"is_reserved":false,"is_disabled":false,"rental_uris":{"android":"levelo://app?vid=738a9119-88e9-4a93-acd0-26460ccaa111","ios":"levelo://app?vid=738a9119-88e9-4a93-acd0-26460ccaa111"},"vehicle_type_id":"4","last_reported":1725577757,"current_range_meters":31200,"station_id":"ce4bhr12rcd13ifvqhqg","pricing_plan_id":"cebpf4jnsgd1na2vs0mg"},{"bike_id":"baad5688-8c57-40e1-829a-381fb423753e","system_id":"levelo_inurba_marseille","lat":43.322872,"lon":5.382756,"is_reserved":false,"is_disabled":false,"rental_uris":{"android":"levelo://app?vid=baad5688-8c57-40e1-829a-381fb423753e","ios":"levelo://app?vid=baad5688-8c57-40e1-829a-381fb423753e"},"vehicle_type_id":"4","last_reported":1725577757,"current_range_meters":31200,"station_id":"ce4bhr12rcd13ifvqhqg","pricing_plan_id":"cebpf4jnsgd1na2vs0mg"},{"bike_id":"b7fb226a-cada-4b80-8f1b-74f54adecbc1","system_id":"levelo_inurba_marseille","lat":43.322872,"lon":5.382756,"is_reserved":false,"is_disabled":false,"rental_uris":{"android":"levelo://app?vid=b7fb226a-cada-4b80-8f1b-74f54adecbc1","ios":"levelo://app?vid=b7fb226a-cada-4b80-8f1b-74f54adecbc1"},"vehicle_type_id":"4","last_reported":1725577757,"current_range_meters":4400,"station_id":"ce4bhr12rcd13ifvqhqg","pricing_plan_id":"cebpf4jnsgd1na2vs0mg"},{"bike_id":"78abea18-5143-470f-8ced-84a677316546","system_id":"levelo_inurba_marseille","lat":43.322971,"lon":5.38271,"is_reserved":false,"is_disabled":false,"rental_uris":{"android":"levelo://app?vid=78abea18-5143-470f-8ced-84a677316546","ios":"levelo://app?vid=78abea18-5143-470f-8ced-84a677316546"},"vehicle_type_id":"4","last_reported":1725577757,"current_range_meters":4000,"station_id":"ce4bhr12rcd13ifvqhqg","pricing_plan_id":"cebpf4jnsgd1na2vs0mg"},{"bike_id":"71a00331-0444-4dc6-9b9a-8be26ebdcaa8","system_id":"levelo_inurba_marseille","lat":43.322935,"lon":5.382757,"is_reserved":false,"is_disabled":false,"rental_uris":{"android":"levelo://app?vid=71a00331-0444-4dc6-9b9a-8be26ebdcaa8","ios":"levelo://app?vid=71a00331-0444-4dc6-9b9a-8be26ebdcaa8"},"vehicle_type_id":"4","last_reported":1725577757,"current_range_meters":5600,"station_id":"ce4bhr12rcd13ifvqhqg","pricing_plan_id":"cebpf4jnsgd1na2vs0mg"},{"bike_id":"d28e36b9-6d10-4aaf-b4de-1bd92b48383d","system_id":"levelo_inurba_marseille","lat":43.322872,"lon":5.382756,"is_reserved":false,"is_disabled":false,"rental_uris":{"android":"levelo://app?vid=d28e36b9-6d10-4aaf-b4de-1bd92b48383d","ios":"levelo://app?vid=d28e36b9-6d10-4aaf-b4de-1bd92b48383d"},"vehicle_type_id":"4","last_reported":1725577757,"current_range_meters":29600,"station_id":"ce4bhr12rcd13ifvqhqg","pricing_plan_id":"cebpf4jnsgd1na2vs0mg"},{"bike_id":"a9b962ba-226c-466c-9b09-89e48831ffd5","system_id":"levelo_inurba_marseille","lat":43.322872,"lon":5.382756,"is_reserved":false,"is_disabled":false,"rental_uris":{"android":"levelo://app?vid=a9b962ba-226c-466c-9b09-89e48831ffd5","ios":"levelo://app?vid=a9b962ba-226c-466c-9b09-89e48831ffd5"},"vehicle_type_id":"4","last_reported":1725577757,"current_range_meters":30800,"station_id":"ce4bhr12rcd13ifvqhqg","pricing_plan_id":"cebpf4jnsgd1na2vs0mg"},{"bike_id":"2924af75-b60a-4eef-b55a-e7ae272e88e3","system_id":"levelo_inurba_marseille","lat":43.297163,"lon":5.365866,"is_reserved":false,"is_disabled":false,"rental_uris":{"android":"levelo://app?vid=2924af75-b60a-4eef-b55a-e7ae272e88e3","ios":"levelo://app?vid=2924af75-b60a-4eef-b55a-e7ae272e88e3"},"vehicle_type_id":"4","last_reported":1725577757,"current_range_meters":25600,"station_id":"ce4bgn12rcd13ifvqbt0","pricing_plan_id":"cebpf4jnsgd1na2vs0mg"},{"bike_id":"8a8887de-5c7d-4b1c-91b2-78e9c920b48d","system_id":"levelo_inurba_marseille","lat":43.2968,"lon":5.37291,"is_reserved":false,"is_disabled":false,"rental_uris":{"android":"levelo://app?vid=8a8887de-5c7d-4b1c-91b2-78e9c920b48d","ios":"levelo://app?vid=8a8887de-5c7d-4b1c-91b2-78e9c920b48d"},"vehicle_type_id":"4","last_reported":1725577757,"current_range_meters":28400,"station_id":"ce4bgk12rcd13ifvqbj0","pricing_plan_id":"cebpf4jnsgd1na2vs0mg"},{"bike_id":"814cfd05-034f-4483-a9f6-75de21c1688f","system_id":"levelo_inurba_marseille","lat":43.29583,"lon":5.36746,"is_reserved":false,"is_disabled":false,"rental_uris":{"android":"levelo://app?vid=814cfd05-034f-4483-a9f6-75de21c1688f","ios":"levelo://app?vid=814cfd05-034f-4483-a9f6-75de21c1688f"},"vehicle_type_id":"4","last_reported":1725577757,"current_range_meters":29600,"station_id":"ce4bgph2rcd13ifvqc2g","pricing_plan_id":"cebpf4jnsgd1na2vs0mg"},{"bike_id":"1f51b2bd-4953-4726-8ad2-5e166e221e89","system_id":"levelo_inurba_marseille","lat":43.296935,"lon":5.376544,"is_reserved":false,"is_disabled":false,"rental_uris":{"android":"levelo://app?vid=1f51b2bd-4953-4726-8ad2-5e166e221e89","ios":"levelo://app?vid=1f51b2bd-4953-4726-8ad2-5e166e221e89"},"vehicle_type_id":"4","last_reported":1725577757,"current_range_meters":10000,"station_id":"ce4bgkh2rcd13ifvqbl0","pricing_plan_id":"cebpf4jnsgd1na2vs0mg"},{"bike_id":"b61078f3-0871-4c5f-add7-bdf4cc91774a","system_id":"levelo_inurba_marseille","lat":43.29913,"lon":5.38138,"is_reserved":false,"is_disabled":false,"rental_uris":{"android":"levelo://app?vid=b61078f3-0871-4c5f-add7-bdf4cc91774a","ios":"levelo://app?vid=b61078f3-0871-4c5f-add7-bdf4cc91774a"},"vehicle_type_id":"4","last_reported":1725577757,"current_range_meters":31200,"station_id":"ce4bgj12rcd13ifvqbc0","pricing_plan_id":"cebpf4jnsgd1na2vs0mg"},{"bike_id":"eacc6a01-a132-46ba-aadd-d67e774f349e","system_id":"levelo_inurba_marseille","lat":43.296935,"lon":5.376544,"is_reserved":false,"is_disabled":false,"rental_uris":{"android":"levelo://app?vid=eacc6a01-a132-46ba-aadd-d67e774f349e","ios":"levelo://app?vid=eacc6a01-a132-46ba-aadd-d67e774f349e"},"vehicle_type_id":"4","last_reported":1725577757,"current_range_meters":29200,"station_id":"ce4bgkh2rcd13ifvqbl0","pricing_plan_id":"cebpf4jnsgd1na2vs0mg"},{"bike_id":"96c4797c-db57-40ad-8dec-ba502a79c547","system_id":"levelo_inurba_marseille","lat":43.309589,"lon":5.390258,"is_reserved":false,"is_disabled":false,"rental_uris":{"android":"levelo://app?vid=96c4797c-db57-40ad-8dec-ba502a79c547","ios":"levelo://app?vid=96c4797c-db57-40ad-8dec-ba502a79c547"},"vehicle_type_id":"4","last_reported":1725577757,"current_range_meters":9600,"station_id":"ce4bgup2rcd13ifvqco0","pricing_plan_id":"cebpf4jnsgd1na2vs0mg"},{"bike_id":"0c64059e-a801-44ff-9fe0-930b50d54881","system_id":"levelo_inurba_marseille","lat":43.317557,"lon":5.390173,"is_reserved":false,"is_disabled":false,"rental_uris":{"android":"levelo://app?vid=0c64059e-a801-44ff-9fe0-930b50d54881","ios":"levelo://app?vid=0c64059e-a801-44ff-9fe0-930b50d54881"},"vehicle_type_id":"4","last_reported":1725577757,"current_range_meters":30800,"station_id":"ce4bhqp2rcd13ifvqhng","pricing_plan_id":"cebpf4jnsgd1na2vs0mg"},{"bike_id":"2dfd7f5c-1ab0-4221-ba61-c53a54036fa7","system_id":"levelo_inurba_marseille","lat":43.317557,"lon":5.390173,"is_reserved":false,"is_disabled":false,"rental_uris":{"android":"levelo://app?vid=2dfd7f5c-1ab0-4221-ba61-c53a54036fa7","ios":"levelo://app?vid=2dfd7f5c-1ab0-4221-ba61-c53a54036fa7"},"vehicle_type_id":"4","last_reported":1725577757,"current_range_meters":29200,"station_id":"ce4bhqp2rcd13ifvqhng","pricing_plan_id":"cebpf4jnsgd1na2vs0mg"},{"bike_id":"f1b8f819-2097-4748-ae6d-698cc976bc5d","system_id":"levelo_inurba_marseille","lat":43.317557,"lon":5.390173,"is_reserved":false,"is_disabled":false,"rental_uris":{"android":"levelo://app?vid=f1b8f819-2097-4748-ae6d-698cc976bc5d","ios":"levelo://app?vid=f1b8f819-2097-4748-ae6d-698cc976bc5d"},"vehicle_type_id":"4","last_reported":1725577757,"current_range_meters":20800,"station_id":"ce4bhqp2rcd13ifvqhng","pricing_plan_id":"cebpf4jnsgd1na2vs0mg"},{"bike_id":"10f69fe8-7773-460f-8cbc-84d5043d302b","system_id":"levelo_inurba_marseille","lat":43.32253,"lon":5.387034,"is_reserved":false,"is_disabled":false,"rental_uris":{"android":"levelo://app?vid=10f69fe8-7773-460f-8cbc-84d5043d302b","ios":"levelo://app?vid=10f69fe8-7773-460f-8cbc-84d5043d302b"},"vehicle_type_id":"4","last_reported":1725577757,"current_range_meters":29200,"station_id":"","pricing_plan_id":"cebpf4jnsgd1na2vs0mg"},{"bike_id":"b43b8702-8c03-4fb9-a99e-dbf5b0d87f36","system_id":"levelo_inurba_marseille","lat":43.317557,"lon":5.390173,"is_reserved":false,"is_disabled":false,"rental_uris":{"android":"levelo://app?vid=b43b8702-8c03-4fb9-a99e-dbf5b0d87f36","ios":"levelo://app?vid=b43b8702-8c03-4fb9-a99e-dbf5b0d87f36"},"vehicle_type_id":"4","last_reported":1725577757,"current_range_meters":15200,"station_id":"ce4bhqp2rcd13ifvqhng","pricing_plan_id":"cebpf4jnsgd1na2vs0mg"},{"bike_id":"8c3744e0-633c-41ef-9fef-d3d260ad4925","system_id":"levelo_inurba_marseille","lat":43.304274,"lon":5.388873,"is_reserved":false,"is_disabled":false,"rental_uris":{"android":"levelo://app?vid=8c3744e0-633c-41ef-9fef-d3d260ad4925","ios":"levelo://app?vid=8c3744e0-633c-41ef-9fef-d3d260ad4925"},"vehicle_type_id":"4","last_reported":1725577757,"current_range_meters":16400,"station_id":"ce4bgk12rcd13ifvqbi0","pricing_plan_id":"cebpf4jnsgd1na2vs0mg"},{"bike_id":"b44a309d-6dd3-4546-9182-8fdd9ebf96af","system_id":"levelo_inurba_marseille","lat":43.304274,"lon":5.388873,"is_reserved":false,"is_disabled":false,"rental_uris":{"android":"levelo://app?vid=b44a309d-6dd3-4546-9182-8fdd9ebf96af","ios":"levelo://app?vid=b44a309d-6dd3-4546-9182-8fdd9ebf96af"},"vehicle_type_id":"4","last_reported":1725577757,"current_range_meters":24800,"station_id":"ce4bgk12rcd13ifvqbi0","pricing_plan_id":"cebpf4jnsgd1na2vs0mg"},{"bike_id":"1a71560c-182f-4417-a325-75b9d1aa8b61","system_id":"levelo_inurba_marseille","lat":43.304274,"lon":5.388873,"is_reserved":false,"is_disabled":false,"rental_uris":{"android":"levelo://app?vid=1a71560c-182f-4417-a325-75b9d1aa8b61","ios":"levelo://app?vid=1a71560c-182f-4417-a325-75b9d1aa8b61"},"vehicle_type_id":"4","last_reported":1725577757,"current_range_meters":31600,"station_id":"ce4bgk12rcd13ifvqbi0","pricing_plan_id":"cebpf4jnsgd1na2vs0mg"},{"bike_id":"dde97a71-7664-4296-8cb4-92c3e44c0ee8","system_id":"levelo_inurba_marseille","lat":43.304278,"lon":5.388868,"is_reserved":false,"is_disabled":false,"rental_uris":{"android":"levelo://app?vid=dde97a71-7664-4296-8cb4-92c3e44c0ee8","ios":"levelo://app?vid=dde97a71-7664-4296-8cb4-92c3e44c0ee8"},"vehicle_type_id":"4","last_reported":1725577757,"current_range_meters":31200,"station_id":"ce4bgk12rcd13ifvqbi0","pricing_plan_id":"cebpf4jnsgd1na2vs0mg"},{"bike_id":"8e1e7ae4-0c13-4947-af87-0bcd7ceadb52","system_id":"levelo_inurba_marseille","lat":43.304274,"lon":5.388873,"is_reserved":false,"is_disabled":false,"rental_uris":{"android":"levelo://app?vid=8e1e7ae4-0c13-4947-af87-0bcd7ceadb52","ios":"levelo://app?vid=8e1e7ae4-0c13-4947-af87-0bcd7ceadb52"},"vehicle_type_id":"4","last_reported":1725577757,"current_range_meters":0,"station_id":"ce4bgk12rcd13ifvqbi0","pricing_plan_id":"cebpf4jnsgd1na2vs0mg"},{"bike_id":"55c1c87d-1664-4914-9a94-eba928d7cc08","system_id":"levelo_inurba_marseille","lat":43.304274,"lon":5.388873,"is_reserved":false,"is_disabled":false,"rental_uris":{"android":"levelo://app?vid=55c1c87d-1664-4914-9a94-eba928d7cc08","ios":"levelo://app?vid=55c1c87d-1664-4914-9a94-eba928d7cc08"},"vehicle_type_id":"4","last_reported":1725577757,"current_range_meters":25200,"station_id":"ce4bgk12rcd13ifvqbi0","pricing_plan_id":"cebpf4jnsgd1na2vs0mg"},{"bike_id":"d1e95775-bc42-43ce-98f0-4426d84524c7","system_id":"levelo_inurba_marseille","lat":43.304274,"lon":5.388873,"is_reserved":false,"is_disabled":false,"rental_uris":{"android":"levelo://app?vid=d1e95775-bc42-43ce-98f0-4426d84524c7","ios":"levelo://app?vid=d1e95775-bc42-43ce-98f0-4426d84524c7"},"vehicle_type_id":"4","last_reported":1725577757,"current_range_meters":4800,"station_id":"ce4bgk12rcd13ifvqbi0","pricing_plan_id":"cebpf4jnsgd1na2vs0mg"},{"bike_id":"1bdf41ec-81ab-408a-9222-a510625a1872","system_id":"levelo_inurba_marseille","lat":43.304274,"lon":5.388873,"is_reserved":false,"is_disabled":false,"rental_uris":{"android":"levelo://app?vid=1bdf41ec-81ab-408a-9222-a510625a1872","ios":"levelo://app?vid=1bdf41ec-81ab-408a-9222-a510625a1872"},"vehicle_type_id":"4","last_reported":1725577757,"current_range_meters":11600,"station_id":"ce4bgk12rcd13ifvqbi0","pricing_plan_id":"cebpf4jnsgd1na2vs0mg"},{"bike_id":"b10ffb89-142f-4455-8961-b6cd5f462e69","system_id":"levelo_inurba_marseille","lat":43.304278,"lon":5.388868,"is_reserved":false,"is_disabled":false,"rental_uris":{"android":"levelo://app?vid=b10ffb89-142f-4455-8961-b6cd5f462e69","ios":"levelo://app?vid=b10ffb89-142f-4455-8961-b6cd5f462e69"},"vehicle_type_id":"4","last_reported":1725577757,"current_range_meters":26000,"station_id":"ce4bgk12rcd13ifvqbi0","pricing_plan_id":"cebpf4jnsgd1na2vs0mg"},{"bike_id":"6869fc2f-a080-47cf-9ca0-3b76059d029f","system_id":"levelo_inurba_marseille","lat":43.304274,"lon":5.388873,"is_reserved":false,"is_disabled":false,"rental_uris":{"android":"levelo://app?vid=6869fc2f-a080-47cf-9ca0-3b76059d029f","ios":"levelo://app?vid=6869fc2f-a080-47cf-9ca0-3b76059d029f"},"vehicle_type_id":"4","last_reported":1725577757,"current_range_meters":31600,"station_id":"ce4bgk12rcd13ifvqbi0","pricing_plan_id":"cebpf4jnsgd1na2vs0mg"},{"bike_id":"8d15ae30-0e49-4bb0-a439-4ff0ed934f77","system_id":"levelo_inurba_marseille","lat":43.304274,"lon":5.388873,"is_reserved":false,"is_disabled":false,"rental_uris":{"android":"levelo://app?vid=8d15ae30-0e49-4bb0-a439-4ff0ed934f77","ios":"levelo://app?vid=8d15ae30-0e49-4bb0-a439-4ff0ed934f77"},"vehicle_type_id":"4","last_reported":1725577757,"current_range_meters":20800,"station_id":"ce4bgk12rcd13ifvqbi0","pricing_plan_id":"cebpf4jnsgd1na2vs0mg"},{"bike_id":"05fe44f6-515b-4999-a6de-8fc4bd6f98e2","system_id":"levelo_inurba_marseille","lat":43.299724,"lon":5.371829,"is_reserved":false,"is_disabled":false,"rental_uris":{"android":"levelo://app?vid=05fe44f6-515b-4999-a6de-8fc4bd6f98e2","ios":"levelo://app?vid=05fe44f6-515b-4999-a6de-8fc4bd6f98e2"},"vehicle_type_id":"4","last_reported":1725577757,"current_range_meters":7200,"station_id":"ce4bgr92rcd13ifvqc7g","pricing_plan_id":"cebpf4jnsgd1na2vs0mg"},{"bike_id":"a2c0d4f4-7469-4917-80e5-3298e8f27959","system_id":"levelo_inurba_marseille","lat":43.314119,"lon":5.391979,"is_reserved":false,"is_disabled":false,"rental_uris":{"android":"levelo://app?vid=a2c0d4f4-7469-4917-80e5-3298e8f27959","ios":"levelo://app?vid=a2c0d4f4-7469-4917-80e5-3298e8f27959"},"vehicle_type_id":"4","last_reported":1725577757,"current_range_meters":6000,"station_id":"","pricing_plan_id":"cebpf4jnsgd1na2vs0mg"},{"bike_id":"1188ac83-ede2-4014-89c2-9ebc20997d23","system_id":"levelo_inurba_marseille","lat":43.299717,"lon":5.384845,"is_reserved":false,"is_disabled":false,"rental_uris":{"android":"levelo://app?vid=1188ac83-ede2-4014-89c2-9ebc20997d23","ios":"levelo://app?vid=1188ac83-ede2-4014-89c2-9ebc20997d23"},"vehicle_type_id":"4","last_reported":1725577757,"current_range_meters":10800,"station_id":"ce4bgj92rcd13ifvqbd0","pricing_plan_id":"cebpf4jnsgd1na2vs0mg"},{"bike_id":"222ab535-bada-4b36-a06c-642a0a25a1f9","system_id":"levelo_inurba_marseille","lat":43.299717,"lon":5.384845,"is_reserved":false,"is_disabled":false,"rental_uris":{"android":"levelo://app?vid=222ab535-bada-4b36-a06c-642a0a25a1f9","ios":"levelo://app?vid=222ab535-bada-4b36-a06c-642a0a25a1f9"},"vehicle_type_id":"4","last_reported":1725577757,"current_range_meters":28000,"station_id":"ce4bgj92rcd13ifvqbd0","pricing_plan_id":"cebpf4jnsgd1na2vs0mg"},{"bike_id":"d31a5aa9-26bd-4534-90d2-a679f12a3784","system_id":"levelo_inurba_marseille","lat":43.295279,"lon":5.375048,"is_reserved":false,"is_disabled":false,"rental_uris":{"android":"levelo://app?vid=d31a5aa9-26bd-4534-90d2-a679f12a3784","ios":"levelo://app?vid=d31a5aa9-26bd-4534-90d2-a679f12a3784"},"vehicle_type_id":"4","last_reported":1725577757,"current_range_meters":11200,"station_id":"ce4bgkp2rcd13ifvqbmg","pricing_plan_id":"cebpf4jnsgd1na2vs0mg"},{"bike_id":"81d0aec3-be98-41f8-bd99-eec0bf970706","system_id":"levelo_inurba_marseille","lat":43.299707,"lon":5.384859,"is_reserved":false,"is_disabled":false,"rental_uris":{"android":"levelo://app?vid=81d0aec3-be98-41f8-bd99-eec0bf970706","ios":"levelo://app?vid=81d0aec3-be98-41f8-bd99-eec0bf970706"},"vehicle_type_id":"4","last_reported":1725577757,"current_range_meters":22400,"station_id":"ce4bgj92rcd13ifvqbd0","pricing_plan_id":"cebpf4jnsgd1na2vs0mg"},{"bike_id":"721f8fc4-e982-4237-9aee-a9a6506fb124","system_id":"levelo_inurba_marseille","lat":43.299717,"lon":5.384845,"is_reserved":false,"is_disabled":false,"rental_uris":{"android":"levelo://app?vid=721f8fc4-e982-4237-9aee-a9a6506fb124","ios":"levelo://app?vid=721f8fc4-e982-4237-9aee-a9a6506fb124"},"vehicle_type_id":"4","last_reported":1725577757,"current_range_meters":11600,"station_id":"ce4bgj92rcd13ifvqbd0","pricing_plan_id":"cebpf4jnsgd1na2vs0mg"},{"bike_id":"3dcf47de-b62b-4543-8ea2-a8f32589991f","system_id":"levelo_inurba_marseille","lat":43.295279,"lon":5.375048,"is_reserved":false,"is_disabled":false,"rental_uris":{"android":"levelo://app?vid=3dcf47de-b62b-4543-8ea2-a8f32589991f","ios":"levelo://app?vid=3dcf47de-b62b-4543-8ea2-a8f32589991f"},"vehicle_type_id":"4","last_reported":1725577757,"current_range_meters":30400,"station_id":"ce4bgkp2rcd13ifvqbmg","pricing_plan_id":"cebpf4jnsgd1na2vs0mg"},{"bike_id":"d2ec57c8-028f-4f6a-83d9-4ebedcb0ee7b","system_id":"levelo_inurba_marseille","lat":43.313291,"lon":5.396838,"is_reserved":false,"is_disabled":false,"rental_uris":{"android":"levelo://app?vid=d2ec57c8-028f-4f6a-83d9-4ebedcb0ee7b","ios":"levelo://app?vid=d2ec57c8-028f-4f6a-83d9-4ebedcb0ee7b"},"vehicle_type_id":"4","last_reported":1725577757,"current_range_meters":25600,"station_id":"ce4bgvp2rcd13ifvqcu0","pricing_plan_id":"cebpf4jnsgd1na2vs0mg"},{"bike_id":"01aa472b-3102-4517-9895-d61a1c624b41","system_id":"levelo_inurba_marseille","lat":43.301396,"lon":5.387812,"is_reserved":false,"is_disabled":false,"rental_uris":{"android":"levelo://app?vid=01aa472b-3102-4517-9895-d61a1c624b41","ios":"levelo://app?vid=01aa472b-3102-4517-9895-d61a1c624b41"},"vehicle_type_id":"4","last_reported":1725577757,"current_range_meters":22000,"station_id":"ce4bghh2rcd13ifvqb60","pricing_plan_id":"cebpf4jnsgd1na2vs0mg"},{"bike_id":"1446cb20-0637-4408-b314-3a73abd8cbd9","system_id":"levelo_inurba_marseille","lat":43.32381,"lon":5.38864,"is_reserved":false,"is_disabled":false,"rental_uris":{"android":"levelo://app?vid=1446cb20-0637-4408-b314-3a73abd8cbd9","ios":"levelo://app?vid=1446cb20-0637-4408-b314-3a73abd8cbd9"},"vehicle_type_id":"4","last_reported":1725577757,"current_range_meters":20400,"station_id":"ce4bhqp2rcd13ifvqhog","pricing_plan_id":"cebpf4jnsgd1na2vs0mg"},{"bike_id":"644839bf-13a6-4332-a004-798b218bd8a3","system_id":"levelo_inurba_marseille","lat":43.32367,"lon":5.388836,"is_reserved":false,"is_disabled":false,"rental_uris":{"android":"levelo://app?vid=644839bf-13a6-4332-a004-798b218bd8a3","ios":"levelo://app?vid=644839bf-13a6-4332-a004-798b218bd8a3"},"vehicle_type_id":"4","last_reported":1725577757,"current_range_meters":20000,"station_id":"ce4bhqp2rcd13ifvqhog","pricing_plan_id":"cebpf4jnsgd1na2vs0mg"},{"bike_id":"2e2fbfb3-b8bd-45de-8ff6-e928679e6b5d","system_id":"levelo_inurba_marseille","lat":43.32367,"lon":5.388836,"is_reserved":false,"is_disabled":false,"rental_uris":{"android":"levelo://app?vid=2e2fbfb3-b8bd-45de-8ff6-e928679e6b5d","ios":"levelo://app?vid=2e2fbfb3-b8bd-45de-8ff6-e928679e6b5d"},"vehicle_type_id":"4","last_reported":1725577757,"current_range_meters":22000,"station_id":"ce4bhqp2rcd13ifvqhog","pricing_plan_id":"cebpf4jnsgd1na2vs0mg"},{"bike_id":"a3b2a2fe-3401-4a1a-91f8-558f8d6c1276","system_id":"levelo_inurba_marseille","lat":43.32367,"lon":5.388836,"is_reserved":false,"is_disabled":false,"rental_uris":{"android":"levelo://app?vid=a3b2a2fe-3401-4a1a-91f8-558f8d6c1276","ios":"levelo://app?vid=a3b2a2fe-3401-4a1a-91f8-558f8d6c1276"},"vehicle_type_id":"4","last_reported":1725577757,"current_range_meters":29200,"station_id":"ce4bhqp2rcd13ifvqhog","pricing_plan_id":"cebpf4jnsgd1na2vs0mg"},{"bike_id":"f26091e4-54d8-42fa-88e5-083b636b67cd","system_id":"levelo_inurba_marseille","lat":43.32369,"lon":5.38887,"is_reserved":false,"is_disabled":false,"rental_uris":{"android":"levelo://app?vid=f26091e4-54d8-42fa-88e5-083b636b67cd","ios":"levelo://app?vid=f26091e4-54d8-42fa-88e5-083b636b67cd"},"vehicle_type_id":"4","last_reported":1725577757,"current_range_meters":9200,"station_id":"ce4bhqp2rcd13ifvqhog","pricing_plan_id":"cebpf4jnsgd1na2vs0mg"},{"bike_id":"55d137d3-213d-40fd-8461-ae5e576cf512","system_id":"levelo_inurba_marseille","lat":43.32374,"lon":5.38887,"is_reserved":false,"is_disabled":false,"rental_uris":{"android":"levelo://app?vid=55d137d3-213d-40fd-8461-ae5e576cf512","ios":"levelo://app?vid=55d137d3-213d-40fd-8461-ae5e576cf512"},"vehicle_type_id":"4","last_reported":1725577757,"current_range_meters":11600,"station_id":"ce4bhqp2rcd13ifvqhog","pricing_plan_id":"cebpf4jnsgd1na2vs0mg"},{"bike_id":"ba74d354-de97-441f-9f08-cca3865d5096","system_id":"levelo_inurba_marseille","lat":43.323701,"lon":5.388911,"is_reserved":false,"is_disabled":false,"rental_uris":{"android":"levelo://app?vid=ba74d354-de97-441f-9f08-cca3865d5096","ios":"levelo://app?vid=ba74d354-de97-441f-9f08-cca3865d5096"},"vehicle_type_id":"4","last_reported":1725577757,"current_range_meters":4000,"station_id":"ce4bhqp2rcd13ifvqhog","pricing_plan_id":"cebpf4jnsgd1na2vs0mg"},{"bike_id":"c6805463-a1eb-4443-83eb-8c49c52bfd0c","system_id":"levelo_inurba_marseille","lat":43.32367,"lon":5.388836,"is_reserved":false,"is_disabled":false,"rental_uris":{"android":"levelo://app?vid=c6805463-a1eb-4443-83eb-8c49c52bfd0c","ios":"levelo://app?vid=c6805463-a1eb-4443-83eb-8c49c52bfd0c"},"vehicle_type_id":"4","last_reported":1725577757,"current_range_meters":6400,"station_id":"ce4bhqp2rcd13ifvqhog","pricing_plan_id":"cebpf4jnsgd1na2vs0mg"},{"bike_id":"80218487-46f9-4b5d-b391-d120b9b8d272","system_id":"levelo_inurba_marseille","lat":43.295883,"lon":5.381438,"is_reserved":false,"is_disabled":false,"rental_uris":{"android":"levelo://app?vid=80218487-46f9-4b5d-b391-d120b9b8d272","ios":"levelo://app?vid=80218487-46f9-4b5d-b391-d120b9b8d272"},"vehicle_type_id":"4","last_reported":1725577757,"current_range_meters":14400,"station_id":"ce4bgl12rcd13ifvqbo0","pricing_plan_id":"cebpf4jnsgd1na2vs0mg"},{"bike_id":"943ff430-1407-4a66-8fcd-68e022d00e77","system_id":"levelo_inurba_marseille","lat":43.293259,"lon":5.371586,"is_reserved":false,"is_disabled":false,"rental_uris":{"android":"levelo://app?vid=943ff430-1407-4a66-8fcd-68e022d00e77","ios":"levelo://app?vid=943ff430-1407-4a66-8fcd-68e022d00e77"},"vehicle_type_id":"4","last_reported":1725577757,"current_range_meters":0,"station_id":"ce4bgh92rcd13ifvqb40","pricing_plan_id":"cebpf4jnsgd1na2vs0mg"},{"bike_id":"6d48f49a-4791-41e2-b0a8-c360b1eadbf5","system_id":"levelo_inurba_marseille","lat":43.29299,"lon":5.37188,"is_reserved":false,"is_disabled":false,"rental_uris":{"android":"levelo://app?vid=6d48f49a-4791-41e2-b0a8-c360b1eadbf5","ios":"levelo://app?vid=6d48f49a-4791-41e2-b0a8-c360b1eadbf5"},"vehicle_type_id":"4","last_reported":1725577757,"current_range_meters":27600,"station_id":"ce4bgh92rcd13ifvqb40","pricing_plan_id":"cebpf4jnsgd1na2vs0mg"},{"bike_id":"7dcea16f-ac26-4bb2-875d-e2ad29a8e832","system_id":"levelo_inurba_marseille","lat":43.292749,"lon":5.368402,"is_reserved":false,"is_disabled":false,"rental_uris":{"android":"levelo://app?vid=7dcea16f-ac26-4bb2-875d-e2ad29a8e832","ios":"levelo://app?vid=7dcea16f-ac26-4bb2-875d-e2ad29a8e832"},"vehicle_type_id":"4","last_reported":1725577757,"current_range_meters":30800,"station_id":"ce4bhbp2rcd13ifvqesg","pricing_plan_id":"cebpf4jnsgd1na2vs0mg"},{"bike_id":"8001ec15-5c55-459b-8f2a-d3c3223330f1","system_id":"levelo_inurba_marseille","lat":43.2936,"lon":5.37835,"is_reserved":false,"is_disabled":false,"rental_uris":{"android":"levelo://app?vid=8001ec15-5c55-459b-8f2a-d3c3223330f1","ios":"levelo://app?vid=8001ec15-5c55-459b-8f2a-d3c3223330f1"},"vehicle_type_id":"4","last_reported":1725577757,"current_range_meters":20400,"station_id":"ce4bgjh2rcd13ifvqbf0","pricing_plan_id":"cebpf4jnsgd1na2vs0mg"},{"bike_id":"99f937f2-1031-4449-9642-c4c6890c788e","system_id":"levelo_inurba_marseille","lat":43.2936,"lon":5.37835,"is_reserved":false,"is_disabled":false,"rental_uris":{"android":"levelo://app?vid=99f937f2-1031-4449-9642-c4c6890c788e","ios":"levelo://app?vid=99f937f2-1031-4449-9642-c4c6890c788e"},"vehicle_type_id":"4","last_reported":1725577757,"current_range_meters":19200,"station_id":"ce4bgjh2rcd13ifvqbf0","pricing_plan_id":"cebpf4jnsgd1na2vs0mg"},{"bike_id":"0594fd80-9010-40fe-aa8f-3a8ce369a96a","system_id":"levelo_inurba_marseille","lat":43.2936,"lon":5.37835,"is_reserved":false,"is_disabled":false,"rental_uris":{"android":"levelo://app?vid=0594fd80-9010-40fe-aa8f-3a8ce369a96a","ios":"levelo://app?vid=0594fd80-9010-40fe-aa8f-3a8ce369a96a"},"vehicle_type_id":"4","last_reported":1725577757,"current_range_meters":2800,"station_id":"ce4bgjh2rcd13ifvqbf0","pricing_plan_id":"cebpf4jnsgd1na2vs0mg"},{"bike_id":"ae0aa417-702e-4dd4-a902-ee7c3425a585","system_id":"levelo_inurba_marseille","lat":43.30104,"lon":5.39083,"is_reserved":false,"is_disabled":false,"rental_uris":{"android":"levelo://app?vid=ae0aa417-702e-4dd4-a902-ee7c3425a585","ios":"levelo://app?vid=ae0aa417-702e-4dd4-a902-ee7c3425a585"},"vehicle_type_id":"4","last_reported":1725577757,"current_range_meters":24800,"station_id":"ce4bh192rcd13ifvqdb0","pricing_plan_id":"cebpf4jnsgd1na2vs0mg"},{"bike_id":"cefee174-9e87-4dfe-a37e-937b81dcbca7","system_id":"levelo_inurba_marseille","lat":43.30087,"lon":5.39091,"is_reserved":false,"is_disabled":false,"rental_uris":{"android":"levelo://app?vid=cefee174-9e87-4dfe-a37e-937b81dcbca7","ios":"levelo://app?vid=cefee174-9e87-4dfe-a37e-937b81dcbca7"},"vehicle_type_id":"4","last_reported":1725577757,"current_range_meters":31200,"station_id":"ce4bh192rcd13ifvqdb0","pricing_plan_id":"cebpf4jnsgd1na2vs0mg"},{"bike_id":"12d47d2b-a426-43a6-982f-a9b5f0810ee9","system_id":"levelo_inurba_marseille","lat":43.294053,"lon":5.380418,"is_reserved":false,"is_disabled":false,"rental_uris":{"android":"levelo://app?vid=12d47d2b-a426-43a6-982f-a9b5f0810ee9","ios":"levelo://app?vid=12d47d2b-a426-43a6-982f-a9b5f0810ee9"},"vehicle_type_id":"4","last_reported":1725577757,"current_range_meters":23600,"station_id":"","pricing_plan_id":"cebpf4jnsgd1na2vs0mg"},{"bike_id":"fa12d24b-7216-4314-a8d4-2fac2ef47b95","system_id":"levelo_inurba_marseille","lat":43.291671,"lon":5.371575,"is_reserved":false,"is_disabled":false,"rental_uris":{"android":"levelo://app?vid=fa12d24b-7216-4314-a8d4-2fac2ef47b95","ios":"levelo://app?vid=fa12d24b-7216-4314-a8d4-2fac2ef47b95"},"vehicle_type_id":"4","last_reported":1725577757,"current_range_meters":28800,"station_id":"ce4bha92rcd13ifvqeh0","pricing_plan_id":"cebpf4jnsgd1na2vs0mg"},{"bike_id":"8aeae09a-1f67-45ae-9c7f-5301f8f19833","system_id":"levelo_inurba_marseille","lat":43.309047,"lon":5.396551,"is_reserved":false,"is_disabled":false,"rental_uris":{"android":"levelo://app?vid=8aeae09a-1f67-45ae-9c7f-5301f8f19833","ios":"levelo://app?vid=8aeae09a-1f67-45ae-9c7f-5301f8f19833"},"vehicle_type_id":"4","last_reported":1725577757,"current_range_meters":20000,"station_id":"ce4bh012rcd13ifvqcv0","pricing_plan_id":"cebpf4jnsgd1na2vs0mg"},{"bike_id":"29640476-720d-462f-8ad1-5990ba519f4a","system_id":"levelo_inurba_marseille","lat":43.309038,"lon":5.396546,"is_reserved":false,"is_disabled":false,"rental_uris":{"android":"levelo://app?vid=29640476-720d-462f-8ad1-5990ba519f4a","ios":"levelo://app?vid=29640476-720d-462f-8ad1-5990ba519f4a"},"vehicle_type_id":"4","last_reported":1725577757,"current_range_meters":2000,"station_id":"ce4bh012rcd13ifvqcv0","pricing_plan_id":"cebpf4jnsgd1na2vs0mg"},{"bike_id":"37f1d443-3b3c-4007-b0bd-a6da672e7be6","system_id":"levelo_inurba_marseille","lat":43.309038,"lon":5.396546,"is_reserved":false,"is_disabled":false,"rental_uris":{"android":"levelo://app?vid=37f1d443-3b3c-4007-b0bd-a6da672e7be6","ios":"levelo://app?vid=37f1d443-3b3c-4007-b0bd-a6da672e7be6"},"vehicle_type_id":"4","last_reported":1725577757,"current_range_meters":7600,"station_id":"ce4bh012rcd13ifvqcv0","pricing_plan_id":"cebpf4jnsgd1na2vs0mg"},{"bike_id":"1393fefe-196b-4e81-a9c7-e52a34f72c7d","system_id":"levelo_inurba_marseille","lat":43.30894,"lon":5.396363,"is_reserved":false,"is_disabled":false,"rental_uris":{"android":"levelo://app?vid=1393fefe-196b-4e81-a9c7-e52a34f72c7d","ios":"levelo://app?vid=1393fefe-196b-4e81-a9c7-e52a34f72c7d"},"vehicle_type_id":"4","last_reported":1725577757,"current_range_meters":31200,"station_id":"ce4bh012rcd13ifvqcv0","pricing_plan_id":"cebpf4jnsgd1na2vs0mg"},{"bike_id":"0f86b4ae-c457-48bb-a90d-58a98fdee553","system_id":"levelo_inurba_marseille","lat":43.309047,"lon":5.396551,"is_reserved":false,"is_disabled":false,"rental_uris":{"android":"levelo://app?vid=0f86b4ae-c457-48bb-a90d-58a98fdee553","ios":"levelo://app?vid=0f86b4ae-c457-48bb-a90d-58a98fdee553"},"vehicle_type_id":"4","last_reported":1725577757,"current_range_meters":21600,"station_id":"ce4bh012rcd13ifvqcv0","pricing_plan_id":"cebpf4jnsgd1na2vs0mg"},{"bike_id":"d12764f5-fd25-4fee-a90f-4c6b44f258ee","system_id":"levelo_inurba_marseille","lat":43.31329,"lon":5.39684,"is_reserved":false,"is_disabled":false,"rental_uris":{"android":"levelo://app?vid=d12764f5-fd25-4fee-a90f-4c6b44f258ee","ios":"levelo://app?vid=d12764f5-fd25-4fee-a90f-4c6b44f258ee"},"vehicle_type_id":"4","last_reported":1725577757,"current_range_meters":26000,"station_id":"ce4bgvp2rcd13ifvqcu0","pricing_plan_id":"cebpf4jnsgd1na2vs0mg"},{"bike_id":"40656f33-a2b4-4f33-b53f-47e4aaea5485","system_id":"levelo_inurba_marseille","lat":43.292005,"lon":5.357875,"is_reserved":false,"is_disabled":false,"rental_uris":{"android":"levelo://app?vid=40656f33-a2b4-4f33-b53f-47e4aaea5485","ios":"levelo://app?vid=40656f33-a2b4-4f33-b53f-47e4aaea5485"},"vehicle_type_id":"4","last_reported":1725577757,"current_range_meters":29600,"station_id":"ce4bhb12rcd13ifvqel0","pricing_plan_id":"cebpf4jnsgd1na2vs0mg"},{"bike_id":"72d802bc-4d64-4b42-9b19-0247e3197aed","system_id":"levelo_inurba_marseille","lat":43.309047,"lon":5.396551,"is_reserved":false,"is_disabled":false,"rental_uris":{"android":"levelo://app?vid=72d802bc-4d64-4b42-9b19-0247e3197aed","ios":"levelo://app?vid=72d802bc-4d64-4b42-9b19-0247e3197aed"},"vehicle_type_id":"4","last_reported":1725577757,"current_range_meters":2400,"station_id":"ce4bh012rcd13ifvqcv0","pricing_plan_id":"cebpf4jnsgd1na2vs0mg"},{"bike_id":"46cf4cd9-7963-43ec-938c-fafde8e7772d","system_id":"levelo_inurba_marseille","lat":43.308903,"lon":5.396397,"is_reserved":false,"is_disabled":false,"rental_uris":{"android":"levelo://app?vid=46cf4cd9-7963-43ec-938c-fafde8e7772d","ios":"levelo://app?vid=46cf4cd9-7963-43ec-938c-fafde8e7772d"},"vehicle_type_id":"4","last_reported":1725577757,"current_range_meters":0,"station_id":"ce4bh012rcd13ifvqcv0","pricing_plan_id":"cebpf4jnsgd1na2vs0mg"},{"bike_id":"c4120240-009e-4cec-86d5-145d3453fc99","system_id":"levelo_inurba_marseille","lat":43.313291,"lon":5.396838,"is_reserved":false,"is_disabled":false,"rental_uris":{"android":"levelo://app?vid=c4120240-009e-4cec-86d5-145d3453fc99","ios":"levelo://app?vid=c4120240-009e-4cec-86d5-145d3453fc99"},"vehicle_type_id":"4","last_reported":1725577757,"current_range_meters":30400,"station_id":"ce4bgvp2rcd13ifvqcu0","pricing_plan_id":"cebpf4jnsgd1na2vs0mg"},{"bike_id":"a58e8dd8-f569-449f-a8fe-1bdd038e7c77","system_id":"levelo_inurba_marseille","lat":43.29192,"lon":5.35806,"is_reserved":false,"is_disabled":false,"rental_uris":{"android":"levelo://app?vid=a58e8dd8-f569-449f-a8fe-1bdd038e7c77","ios":"levelo://app?vid=a58e8dd8-f569-449f-a8fe-1bdd038e7c77"},"vehicle_type_id":"4","last_reported":1725577757,"current_range_meters":21200,"station_id":"ce4bhb12rcd13ifvqel0","pricing_plan_id":"cebpf4jnsgd1na2vs0mg"},{"bike_id":"ecc7b572-0517-4788-ac9d-d2dcf46e2678","system_id":"levelo_inurba_marseille","lat":43.309038,"lon":5.396546,"is_reserved":false,"is_disabled":false,"rental_uris":{"android":"levelo://app?vid=ecc7b572-0517-4788-ac9d-d2dcf46e2678","ios":"levelo://app?vid=ecc7b572-0517-4788-ac9d-d2dcf46e2678"},"vehicle_type_id":"4","last_reported":1725577757,"current_range_meters":26800,"station_id":"ce4bh012rcd13ifvqcv0","pricing_plan_id":"cebpf4jnsgd1na2vs0mg"},{"bike_id":"b0c5d357-be0a-4f37-a39f-6f0e914ab43e","system_id":"levelo_inurba_marseille","lat":43.313291,"lon":5.396838,"is_reserved":false,"is_disabled":false,"rental_uris":{"android":"levelo://app?vid=b0c5d357-be0a-4f37-a39f-6f0e914ab43e","ios":"levelo://app?vid=b0c5d357-be0a-4f37-a39f-6f0e914ab43e"},"vehicle_type_id":"4","last_reported":1725577757,"current_range_meters":18800,"station_id":"ce4bgvp2rcd13ifvqcu0","pricing_plan_id":"cebpf4jnsgd1na2vs0mg"},{"bike_id":"e2d67884-9cbd-4687-8bd6-68ce3c25127b","system_id":"levelo_inurba_marseille","lat":43.30888,"lon":5.39643,"is_reserved":false,"is_disabled":false,"rental_uris":{"android":"levelo://app?vid=e2d67884-9cbd-4687-8bd6-68ce3c25127b","ios":"levelo://app?vid=e2d67884-9cbd-4687-8bd6-68ce3c25127b"},"vehicle_type_id":"4","last_reported":1725577757,"current_range_meters":0,"station_id":"ce4bh012rcd13ifvqcv0","pricing_plan_id":"cebpf4jnsgd1na2vs0mg"},{"bike_id":"0e4099b0-6476-4167-9b10-ff74817e91c7","system_id":"levelo_inurba_marseille","lat":43.313291,"lon":5.396838,"is_reserved":false,"is_disabled":false,"rental_uris":{"android":"levelo://app?vid=0e4099b0-6476-4167-9b10-ff74817e91c7","ios":"levelo://app?vid=0e4099b0-6476-4167-9b10-ff74817e91c7"},"vehicle_type_id":"4","last_reported":1725577757,"current_range_meters":20000,"station_id":"ce4bgvp2rcd13ifvqcu0","pricing_plan_id":"cebpf4jnsgd1na2vs0mg"},{"bike_id":"a3ca30fd-04f6-47ec-a8f0-bfd8d51b0a13","system_id":"levelo_inurba_marseille","lat":43.31325,"lon":5.39691,"is_reserved":false,"is_disabled":false,"rental_uris":{"android":"levelo://app?vid=a3ca30fd-04f6-47ec-a8f0-bfd8d51b0a13","ios":"levelo://app?vid=a3ca30fd-04f6-47ec-a8f0-bfd8d51b0a13"},"vehicle_type_id":"4","last_reported":1725577757,"current_range_meters":1200,"station_id":"ce4bgvp2rcd13ifvqcu0","pricing_plan_id":"cebpf4jnsgd1na2vs0mg"},{"bike_id":"03258cfe-950d-4c26-93a5-61791f2ebc14","system_id":"levelo_inurba_marseille","lat":43.313291,"lon":5.396838,"is_reserved":false,"is_disabled":false,"rental_uris":{"android":"levelo://app?vid=03258cfe-950d-4c26-93a5-61791f2ebc14","ios":"levelo://app?vid=03258cfe-950d-4c26-93a5-61791f2ebc14"},"vehicle_type_id":"4","last_reported":1725577757,"current_range_meters":12800,"station_id":"ce4bgvp2rcd13ifvqcu0","pricing_plan_id":"cebpf4jnsgd1na2vs0mg"},{"bike_id":"758bd26a-b5a9-40c9-bcac-1746bf7d950b","system_id":"levelo_inurba_marseille","lat":43.313291,"lon":5.396838,"is_reserved":false,"is_disabled":false,"rental_uris":{"android":"levelo://app?vid=758bd26a-b5a9-40c9-bcac-1746bf7d950b","ios":"levelo://app?vid=758bd26a-b5a9-40c9-bcac-1746bf7d950b"},"vehicle_type_id":"4","last_reported":1725577757,"current_range_meters":26800,"station_id":"ce4bgvp2rcd13ifvqcu0","pricing_plan_id":"cebpf4jnsgd1na2vs0mg"},{"bike_id":"119699a6-0754-4a20-ad5b-9dc3faf4204a","system_id":"levelo_inurba_marseille","lat":43.313291,"lon":5.396838,"is_reserved":false,"is_disabled":false,"rental_uris":{"android":"levelo://app?vid=119699a6-0754-4a20-ad5b-9dc3faf4204a","ios":"levelo://app?vid=119699a6-0754-4a20-ad5b-9dc3faf4204a"},"vehicle_type_id":"4","last_reported":1725577757,"current_range_meters":31200,"station_id":"ce4bgvp2rcd13ifvqcu0","pricing_plan_id":"cebpf4jnsgd1na2vs0mg"},