{"last_updated":1758056915,"ttl":60,"version":"2.2","data":{"bikes":[{"bike_id":"54ec36b0-7cbc-4345-8d08-d52d176caba9","system_id":"levelo_inurba_marseille","lat":43.30126,"lon":5.39852,"is_reserved":false,"is_disabled":false,"rental_uris":{"android":"levelo://app?vid=54ec36b0-7cbc-4345-8d08-d52d176caba9","ios":"levelo://app?vid=54ec36b0-7cbc-4345-8d08-d52d176caba9"},"vehicle_type_id":"4","last_reported":1758056915,"current_range_meters":2800,"station_id":"ce4bh0h2rcd13ifvqd40","pricing_plan_id":"cebpf4jnsgd1na2vs0mg"},{"bike_id":"0ebbba07-8e7a-4af1-8c69-fa2986aa60f3","system_id":"levelo_inurba_marseille","lat":43.2512,"lon":5.40365,"is_reserved":false,"is_disabled":false,"rental_uris":{"android":"levelo://app?vid=0ebbba07-8e7a-4af1-8c69-fa2986aa60f3","ios":"levelo://app?vid=0ebbba07-8e7a-4af1-8c69-fa2986aa60f3"},"vehicle_type_id":"4","last_reported":1758056915,"current_range_meters":2800,"station_id":"ce4bhlh2rcd13ifvqgig","pricing_plan_id":"cebpf4jnsgd1na2vs0mg"},{"bike_id":"c563de25-ab6b-4134-8273-3e6cde21e393","system_id":"levelo_inurba_marseille","lat":43.26549,"lon":5.37276,"is_reserved":false,"is_disabled":false,"rental_uris":{"android":"levelo://app?vid=c563de25-ab6b-4134-8273-3e6cde21e393","ios":"levelo://app?vid=c563de25-ab6b-4134-8273-3e6cde21e393"},"vehicle_type_id":"4","last_reported":1758056915,"current_range_meters":2800,"station_id":"ce4bhg12rcd13ifvqf70","pricing_plan_id":"cebpf4jnsgd1na2vs0mg"},{"bike_id":"03809294-3a3e-4efa-afda-0ac11dcf72fc","system_id":"levelo_inurba_marseille","lat":43.33769,"lon":5.37475,"is_reserved":false,"is_disabled":false,"rental_uris":{"android":"levelo://app?vid=03809294-3a3e-4efa-afda-0ac11dcf72fc","ios":"levelo://app?vid=03809294-3a3e-4efa-afda-0ac11dcf72fc"},"vehicle_type_id":"4","last_reported":1758056915,"current_range_meters":2800,"station_id":"","pricing_plan_id":"cebpf4jnsgd1na2vs0mg"},{"bike_id":"d765e876-dc94-417e-ad8c-0ac49bf5261a","system_id":"levelo_inurba_marseille","lat":43.33435,"lon":5.36386,"is_reserved":false,"is_disabled":false,"rental_uris":{"android":"levelo://app?vid=d765e876-dc94-417e-ad8c-0ac49bf5261a","ios":"levelo://app?vid=d765e876-dc94-417e-ad8c-0ac49bf5261a"},"vehicle_type_id":"4","last_reported":1758056915,"current_range_meters":3200,"station_id":"","pricing_plan_id":"cebpf4jnsgd1na2vs0mg"},{"bike_id":"2828e058-9171-4ab9-9e16-ce6b889ec301","system_id":"levelo_inurba_marseille","lat":43.21185,"lon":5.3508,"is_reserved":false,"is_disabled":false,"rental_uris":{"android":"levelo://app?vid=2828e058-9171-4ab9-9e16-ce6b889ec301","ios":"levelo://app?vid=2828e058-9171-4ab9-9e16-ce6b889ec301"},"vehicle_type_id":"4","last_reported":1758056915,"current_range_meters":3200,"station_id":"st_cvj6sg6p6f1abm77japg","pricing_plan_id":"cebpf4jnsgd1na2vs0mg"},{"bike_id":"df21a0d7-45f7-45b6-a422-9d3af9d10d2f","system_id":"levelo_inurba_marseille","lat":43.251249,"lon":5.403045,"is_reserved":false,"is_disabled":true,"rental_uris":{"android":"levelo://app?vid=df21a0d7-45f7-45b6-a422-9d3af9d10d2f","ios":"levelo://app?vid=df21a0d7-45f7-45b6-a422-9d3af9d10d2f"},"vehicle_type_id":"4","last_reported":1758056915,"current_range_meters":3200,"station_id":"","pricing_plan_id":"cebpf4jnsgd1na2vs0mg"},{"bike_id":"a9836d41-7aec-4530-b1b5-5c8b9ca9864c","system_id":"levelo_inurba_marseille","lat":43.31884,"lon":5.40742,"is_reserved":false,"is_disabled":false,"rental_uris":{"android":"levelo://app?vid=a9836d41-7aec-4530-b1b5-5c8b9ca9864c","ios":"levelo://app?vid=a9836d41-7aec-4530-b1b5-5c8b9ca9864c"},"vehicle_type_id":"4","last_reported":1758056915,"current_range_meters":3200,"station_id":"ce4bhq12rcd13ifvqhig","pricing_plan_id":"cebpf4jnsgd1na2vs0mg"},{"bike_id":"33bb1785-d459-4f3b-9518-672a188c6a87","system_id":"levelo_inurba_marseille","lat":43.337444,"lon":5.374475,"is_reserved":false,"is_disabled":false,"rental_uris":{"android":"levelo://app?vid=33bb1785-d459-4f3b-9518-672a188c6a87","ios":"levelo://app?vid=33bb1785-d459-4f3b-9518-672a188c6a87"},"vehicle_type_id":"4","last_reported":1758056915,"current_range_meters":3200,"station_id":"","pricing_plan_id":"cebpf4jnsgd1na2vs0mg"},{"bike_id":"e8fd5cd5-c9f1-42ae-a40a-c3e25d4366d2","system_id":"levelo_inurba_marseille","lat":43.28875,"lon":5.35819,"is_reserved":false,"is_disabled":true,"rental_uris":{"android":"levelo://app?vid=e8fd5cd5-c9f1-42ae-a40a-c3e25d4366d2","ios":"levelo://app?vid=e8fd5cd5-c9f1-42ae-a40a-c3e25d4366d2"},"vehicle_type_id":"4","last_reported":1758056915,"current_range_meters":3200,"station_id":"ce4bhb12rcd13ifvqem0","pricing_plan_id":"cebpf4jnsgd1na2vs0mg"},{"bike_id":"a234c8d6-1e23-409a-95bc-672a869cb12e","system_id":"levelo_inurba_marseille","lat":43.32656,"lon":5.40319,"is_reserved":false,"is_disabled":false,"rental_uris":{"android":"levelo://app?vid=a234c8d6-1e23-409a-95bc-672a869cb12e","ios":"levelo://app?vid=a234c8d6-1e23-409a-95bc-672a869cb12e"},"vehicle_type_id":"4","last_reported":1758056915,"current_range_meters":3200,"station_id":"","pricing_plan_id":"cebpf4jnsgd1na2vs0mg"},{"bike_id":"63c2bec2-56ae-42d4-a965-91defc1f04e9","system_id":"levelo_inurba_marseille","lat":43.29697,"lon":5.38016,"is_reserved":false,"is_disabled":false,"rental_uris":{"android":"levelo://app?vid=63c2bec2-56ae-42d4-a965-91defc1f04e9","ios":"levelo://app?vid=63c2bec2-56ae-42d4-a965-91defc1f04e9"},"vehicle_type_id":"4","last_reported":1758056915,"current_range_meters":3600,"station_id":"","pricing_plan_id":"cebpf4jnsgd1na2vs0mg"},{"bike_id":"05253016-a455-4ac1-a606-724a3ef355ab","system_id":"levelo_inurba_marseille","lat":43.30099,"lon":5.39084,"is_reserved":false,"is_disabled":true,"rental_uris":{"android":"levelo://app?vid=05253016-a455-4ac1-a606-724a3ef355ab","ios":"levelo://app?vid=05253016-a455-4ac1-a606-724a3ef355ab"},"vehicle_type_id":"4","last_reported":1758056915,"current_range_meters":3600,"station_id":"ce4bh192rcd13ifvqdb0","pricing_plan_id":"cebpf4jnsgd1na2vs0mg"},{"bike_id":"dd32f779-e928-424d-999f-b730cf475fa7","system_id":"levelo_inurba_marseille","lat":43.22399,"lon":5.34657,"is_reserved":false,"is_disabled":false,"rental_uris":{"android":"levelo://app?vid=dd32f779-e928-424d-999f-b730cf475fa7","ios":"levelo://app?vid=dd32f779-e928-424d-999f-b730cf475fa7"},"vehicle_type_id":"4","last_reported":1758056915,"current_range_meters":4000,"station_id":"","pricing_plan_id":"cebpf4jnsgd1na2vs0mg"},{"bike_id":"e68c17f8-0de1-4195-8947-1a1cdd46996d","system_id":"levelo_inurba_marseille","lat":43.2803,"lon":5.36955,"is_reserved":false,"is_disabled":false,"rental_uris":{"android":"levelo://app?vid=e68c17f8-0de1-4195-8947-1a1cdd46996d","ios":"levelo://app?vid=e68c17f8-0de1-4195-8947-1a1cdd46996d"},"vehicle_type_id":"4","last_reported":1758056915,"current_range_meters":4000,"station_id":"ce4bha12rcd13ifvqef0","pricing_plan_id":"cebpf4jnsgd1na2vs0mg"},{"bike_id":"f66ac874-8ff7-496a-b627-70e4defdd5ce","system_id":"levelo_inurba_marseille","lat":43.30116,"lon":5.36525,"is_reserved":false,"is_disabled":false,"rental_uris":{"android":"levelo://app?vid=f66ac874-8ff7-496a-b627-70e4defdd5ce","ios":"levelo://app?vid=f66ac874-8ff7-496a-b627-70e4defdd5ce"},"vehicle_type_id":"4","last_reported":1758056915,"current_range_meters":4000,"station_id":"","pricing_plan_id":"cebpf4jnsgd1na2vs0mg"},{"bike_id":"5faa487d-937d-428f-a124-99d68817af9c","system_id":"levelo_inurba_marseille","lat":43.30277,"lon":5.4012,"is_reserved":false,"is_disabled":false,"rental_uris":{"android":"levelo://app?vid=5faa487d-937d-428f-a124-99d68817af9c","ios":"levelo://app?vid=5faa487d-937d-428f-a124-99d68817af9c"},"vehicle_type_id":"4","last_reported":1758056915,"current_range_meters":4000,"station_id":"ce4bgvh2rcd13ifvqcs0","pricing_plan_id":"cebpf4jnsgd1na2vs0mg"},{"bike_id":"d95e325f-daf4-40d6-82b8-221bb4d0f5d2","system_id":"levelo_inurba_marseille","lat":43.31107,"lon":5.3777,"is_reserved":false,"is_disabled":false,"rental_uris":{"android":"levelo://app?vid=d95e325f-daf4-40d6-82b8-221bb4d0f5d2","ios":"levelo://app?vid=d95e325f-daf4-40d6-82b8-221bb4d0f5d2"},"vehicle_type_id":"4","last_reported":1758056915,"current_range_meters":4400,"station_id":"ce4bgt92rcd13ifvqcg0","pricing_plan_id":"cebpf4jnsgd1na2vs0mg"},{"bike_id":"61cff923-fb90-438a-bc63-9c59ec5c3162","system_id":"levelo_inurba_marseille","lat":43.29892,"lon":5.38897,"is_reserved":false,"is_disabled":false,"rental_uris":{"android":"levelo://app?vid=61cff923-fb90-438a-bc63-9c59ec5c3162","ios":"levelo://app?vid=61cff923-fb90-438a-bc63-9c59ec5c3162"},"vehicle_type_id":"4","last_reported":1758056915,"current_range_meters":4400,"station_id":"ce4bh392rcd13ifvqdl0","pricing_plan_id":"cebpf4jnsgd1na2vs0mg"},{"bike_id":"661752dc-e618-4683-81fb-8430ee8fda8f","system_id":"levelo_inurba_marseille","lat":43.25331,"lon":5.42189,"is_reserved":false,"is_disabled":false,"rental_uris":{"android":"levelo://app?vid=661752dc-e618-4683-81fb-8430ee8fda8f","ios":"levelo://app?vid=661752dc-e618-4683-81fb-8430ee8fda8f"},"vehicle_type_id":"4","last_reported":1758056915,"current_range_meters":4800,"station_id":"st_d2m65c5bi1j21697t3ng","pricing_plan_id":"cebpf4jnsgd1na2vs0mg"},{"bike_id":"6cdcfaa0-e9ca-4f74-96f8-ed68af19db14","system_id":"levelo_inurba_marseille","lat":43.32657,"lon":5.40999,"is_reserved":false,"is_disabled":false,"rental_uris":{"android":"levelo://app?vid=6cdcfaa0-e9ca-4f74-96f8-ed68af19db14","ios":"levelo://app?vid=6cdcfaa0-e9ca-4f74-96f8-ed68af19db14"},"vehicle_type_id":"4","last_reported":1758056915,"current_range_meters":4800,"station_id":"ce4bhpp2rcd13ifvqhgg","pricing_plan_id":"cebpf4jnsgd1na2vs0mg"},{"bike_id":"1142c08a-9723-486f-819a-3aaa16736cb7","system_id":"levelo_inurba_marseille","lat":43.28252,"lon":5.43924,"is_reserved":false,"is_disabled":false,"rental_uris":{"android":"levelo://app?vid=1142c08a-9723-486f-819a-3aaa16736cb7","ios":"levelo://app?vid=1142c08a-9723-486f-819a-3aaa16736cb7"},"vehicle_type_id":"4","last_reported":1758056915,"current_range_meters":4800,"station_id":"","pricing_plan_id":"cebpf4jnsgd1na2vs0mg"},{"bike_id":"9ae04904-60d4-4afb-85fe-ffc6bcf0dd7f","system_id":"levelo_inurba_marseille","lat":43.2903,"lon":5.38652,"is_reserved":false,"is_disabled":false,"rental_uris":{"android":"levelo://app?vid=9ae04904-60d4-4afb-85fe-ffc6bcf0dd7f","ios":"levelo://app?vid=9ae04904-60d4-4afb-85fe-ffc6bcf0dd7f"},"vehicle_type_id":"4","last_reported":1758056915,"current_range_meters":4800,"station_id":"ce4bh4p2rcd13ifvqe0g","pricing_plan_id":"cebpf4jnsgd1na2vs0mg"},{"bike_id":"09726e14-761d-46bb-9b2b-aa4ac3f92fec","system_id":"levelo_inurba_marseille","lat":43.29621,"lon":5.37892,"is_reserved":false,"is_disabled":false,"rental_uris":{"android":"levelo://app?vid=09726e14-761d-46bb-9b2b-aa4ac3f92fec","ios":"levelo://app?vid=09726e14-761d-46bb-9b2b-aa4ac3f92fec"},"vehicle_type_id":"4","last_reported":1758056915,"current_range_meters":4800,"station_id":"","pricing_plan_id":"cebpf4jnsgd1na2vs0mg"},{"bike_id":"27bc6b0c-c22e-494b-ab92-4e390584592b","system_id":"levelo_inurba_marseille","lat":43.33743,"lon":5.37479,"is_reserved":false,"is_disabled":false,"rental_uris":{"android":"levelo://app?vid=27bc6b0c-c22e-494b-ab92-4e390584592b","ios":"levelo://app?vid=27bc6b0c-c22e-494b-ab92-4e390584592b"},"vehicle_type_id":"4","last_reported":1758056915,"current_range_meters":4800,"station_id":"","pricing_plan_id":"cebpf4jnsgd1na2vs0mg"},{"bike_id":"a8f4d907-45f3-47b0-bf4e-d5f44ae6f365","system_id":"levelo_inurba_marseille","lat":43.30148,"lon":5.38086,"is_reserved":false,"is_disabled":false,"rental_uris":{"android":"levelo://app?vid=a8f4d907-45f3-47b0-bf4e-d5f44ae6f365","ios":"levelo://app?vid=a8f4d907-45f3-47b0-bf4e-d5f44ae6f365"},"vehicle_type_id":"4","last_reported":1758056915,"current_range_meters":5600,"station_id":"ce4bgjp2rcd13ifvqbh0","pricing_plan_id":"cebpf4jnsgd1na2vs0mg"},{"bike_id":"7612b25b-0664-4740-842c-ad0d4dc90925","system_id":"levelo_inurba_marseille","lat":43.28902,"lon":5.3642,"is_reserved":false,"is_disabled":false,"rental_uris":{"android":"levelo://app?vid=7612b25b-0664-4740-842c-ad0d4dc90925","ios":"levelo://app?vid=7612b25b-0664-4740-842c-ad0d4dc90925"},"vehicle_type_id":"4","last_reported":1758056915,"current_range_meters":5600,"station_id":"","pricing_plan_id":"cebpf4jnsgd1na2vs0mg"},{"bike_id":"aca8125c-2d53-48e4-9d06-dbbe1de7911b","system_id":"levelo_inurba_marseille","lat":43.28156,"lon":5.42647,"is_reserved":false,"is_disabled":false,"rental_uris":{"android":"levelo://app?vid=aca8125c-2d53-48e4-9d06-dbbe1de7911b","ios":"levelo://app?vid=aca8125c-2d53-48e4-9d06-dbbe1de7911b"},"vehicle_type_id":"4","last_reported":1758056915,"current_range_meters":5600,"station_id":"ce4bhnh2rcd13ifvqgug","pricing_plan_id":"cebpf4jnsgd1na2vs0mg"},{"bike_id":"f43ab4d4-8a36-4b97-8221-0c5f42c36023","system_id":"levelo_inurba_marseille","lat":43.240779,"lon":5.377473,"is_reserved":false,"is_disabled":true,"rental_uris":{"android":"levelo://app?vid=f43ab4d4-8a36-4b97-8221-0c5f42c36023","ios":"levelo://app?vid=f43ab4d4-8a36-4b97-8221-0c5f42c36023"},"vehicle_type_id":"4","last_reported":1758056915,"current_range_meters":5600,"station_id":"","pricing_plan_id":"cebpf4jnsgd1na2vs0mg"},{"bike_id":"8c32f4b7-77fe-4371-b162-18ad021eb8b2","system_id":"levelo_inurba_marseille","lat":43.2174,"lon":5.34606,"is_reserved":false,"is_disabled":false,"rental_uris":{"android":"levelo://app?vid=8c32f4b7-77fe-4371-b162-18ad021eb8b2","ios":"levelo://app?vid=8c32f4b7-77fe-4371-b162-18ad021eb8b2"},"vehicle_type_id":"4","last_reported":1758056915,"current_range_meters":5600,"station_id":"st_cvj6r9ubvosntc0bgbag","pricing_plan_id":"cebpf4jnsgd1na2vs0mg"},{"bike_id":"0e6d0518-c654-4728-9753-7f7af24547f9","system_id":"levelo_inurba_marseille","lat":43.289433,"lon":5.39632,"is_reserved":false,"is_disabled":false,"rental_uris":{"android":"levelo://app?vid=0e6d0518-c654-4728-9753-7f7af24547f9","ios":"levelo://app?vid=0e6d0518-c654-4728-9753-7f7af24547f9"},"vehicle_type_id":"4","last_reported":1758056915,"current_range_meters":5600,"station_id":"ce4bh3h2rcd13ifvqdn0","pricing_plan_id":"cebpf4jnsgd1na2vs0mg"},{"bike_id":"57127154-7e15-4346-89ed-ab9d76ef9c2c","system_id":"levelo_inurba_marseille","lat":43.28838,"lon":5.36326,"is_reserved":false,"is_disabled":false,"rental_uris":{"android":"levelo://app?vid=57127154-7e15-4346-89ed-ab9d76ef9c2c","ios":"levelo://app?vid=57127154-7e15-4346-89ed-ab9d76ef9c2c"},"vehicle_type_id":"4","last_reported":1758056915,"current_range_meters":5600,"station_id":"","pricing_plan_id":"cebpf4jnsgd1na2vs0mg"},{"bike_id":"bcbbc77c-b551-4e2d-a87e-a1c586dc51d6","system_id":"levelo_inurba_marseille","lat":43.251009,"lon":5.3951,"is_reserved":false,"is_disabled":false,"rental_uris":{"android":"levelo://app?vid=bcbbc77c-b551-4e2d-a87e-a1c586dc51d6","ios":"levelo://app?vid=bcbbc77c-b551-4e2d-a87e-a1c586dc51d6"},"vehicle_type_id":"4","last_reported":1758056915,"current_range_meters":6000,"station_id":"ce4bhm12rcd13ifvqgkg","pricing_plan_id":"cebpf4jnsgd1na2vs0mg"},{"bike_id":"e7a329bd-ed66-4ac7-aaba-63f2810ddd86","system_id":"levelo_inurba_marseille","lat":43.31859,"lon":5.37206,"is_reserved":false,"is_disabled":true,"rental_uris":{"android":"levelo://app?vid=e7a329bd-ed66-4ac7-aaba-63f2810ddd86","ios":"levelo://app?vid=e7a329bd-ed66-4ac7-aaba-63f2810ddd86"},"vehicle_type_id":"4","last_reported":1758056915,"current_range_meters":6000,"station_id":"","pricing_plan_id":"cebpf4jnsgd1na2vs0mg"},{"bike_id":"32f707fb-5a05-4b66-9f3f-4a1498fea94b","system_id":"levelo_inurba_marseille","lat":43.28699,"lon":5.37389,"is_reserved":false,"is_disabled":false,"rental_uris":{"android":"levelo://app?vid=32f707fb-5a05-4b66-9f3f-4a1498fea94b","ios":"levelo://app?vid=32f707fb-5a05-4b66-9f3f-4a1498fea94b"},"vehicle_type_id":"4","last_reported":1758056915,"current_range_meters":6000,"station_id":"ce4bh3p2rcd13ifvqdq0","pricing_plan_id":"cebpf4jnsgd1na2vs0mg"},{"bike_id":"1edc51f4-12c5-4f10-840a-add825d97273","system_id":"levelo_inurba_marseille","lat":43.25109,"lon":5.40346,"is_reserved":false,"is_disabled":true,"rental_uris":{"android":"levelo://app?vid=1edc51f4-12c5-4f10-840a-add825d97273","ios":"levelo://app?vid=1edc51f4-12c5-4f10-840a-add825d97273"},"vehicle_type_id":"4","last_reported":1758056915,"current_range_meters":6400,"station_id":"ce4bhlh2rcd13ifvqgig","pricing_plan_id":"cebpf4jnsgd1na2vs0mg"},{"bike_id":"a53016a1-528f-49a5-ab23-30927da549a0","system_id":"levelo_inurba_marseille","lat":43.25107,"lon":5.40329,"is_reserved":false,"is_disabled":true,"rental_uris":{"android":"levelo://app?vid=a53016a1-528f-49a5-ab23-30927da549a0","ios":"levelo://app?vid=a53016a1-528f-49a5-ab23-30927da549a0"},"vehicle_type_id":"4","last_reported":1758056915,"current_range_meters":6400,"station_id":"ce4bhlh2rcd13ifvqgig","pricing_plan_id":"cebpf4jnsgd1na2vs0mg"},{"bike_id":"17c3bd62-3e61-43d4-b2c3-418a15e697dc","system_id":"levelo_inurba_marseille","lat":43.29866,"lon":5.39739,"is_reserved":false,"is_disabled":false,"rental_uris":{"android":"levelo://app?vid=17c3bd62-3e61-43d4-b2c3-418a15e697dc","ios":"levelo://app?vid=17c3bd62-3e61-43d4-b2c3-418a15e697dc"},"vehicle_type_id":"4","last_reported":1758056915,"current_range_meters":6400,"station_id":"ce4bh0h2rcd13ifvqd50","pricing_plan_id":"cebpf4jnsgd1na2vs0mg"},{"bike_id":"5014881f-56b2-4dbc-965e-3bd258011b45","system_id":"levelo_inurba_marseille","lat":43.21751,"lon":5.34605,"is_reserved":false,"is_disabled":true,"rental_uris":{"android":"levelo://app?vid=5014881f-56b2-4dbc-965e-3bd258011b45","ios":"levelo://app?vid=5014881f-56b2-4dbc-965e-3bd258011b45"},"vehicle_type_id":"4","last_reported":1758056915,"current_range_meters":6400,"station_id":"st_cvj6r9ubvosntc0bgbag","pricing_plan_id":"cebpf4jnsgd1na2vs0mg"},{"bike_id":"97be02f7-d369-4350-81aa-5f5395faa1d7","system_id":"levelo_inurba_marseille","lat":43.31073,"lon":5.38349,"is_reserved":false,"is_disabled":false,"rental_uris":{"android":"levelo://app?vid=97be02f7-d369-4350-81aa-5f5395faa1d7","ios":"levelo://app?vid=97be02f7-d369-4350-81aa-5f5395faa1d7"},"vehicle_type_id":"4","last_reported":1758056915,"current_range_meters":6400,"station_id":"ce4bgv92rcd13ifvqcr0","pricing_plan_id":"cebpf4jnsgd1na2vs0mg"},{"bike_id":"bbee5005-446b-4e50-a42c-c53ec9efffb2","system_id":"levelo_inurba_marseille","lat":43.27055,"lon":5.40264,"is_reserved":false,"is_disabled":false,"rental_uris":{"android":"levelo://app?vid=bbee5005-446b-4e50-a42c-c53ec9efffb2","ios":"levelo://app?vid=bbee5005-446b-4e50-a42c-c53ec9efffb2"},"vehicle_type_id":"4","last_reported":1758056915,"current_range_meters":6400,"station_id":"ce4bhk92rcd13ifvqgc0","pricing_plan_id":"cebpf4jnsgd1na2vs0mg"},{"bike_id":"9a9fa97a-cca6-4f06-a789-047031964121","system_id":"levelo_inurba_marseille","lat":43.27204,"lon":5.39193,"is_reserved":false,"is_disabled":false,"rental_uris":{"android":"levelo://app?vid=9a9fa97a-cca6-4f06-a789-047031964121","ios":"levelo://app?vid=9a9fa97a-cca6-4f06-a789-047031964121"},"vehicle_type_id":"4","last_reported":1758056915,"current_range_meters":6400,"station_id":"ce4bhhp2rcd13ifvqfm0","pricing_plan_id":"cebpf4jnsgd1na2vs0mg"},{"bike_id":"13d32666-d94f-41f6-83eb-f3a1e138579e","system_id":"levelo_inurba_marseille","lat":43.28134,"lon":5.35025,"is_reserved":false,"is_disabled":false,"rental_uris":{"android":"levelo://app?vid=13d32666-d94f-41f6-83eb-f3a1e138579e","ios":"levelo://app?vid=13d32666-d94f-41f6-83eb-f3a1e138579e"},"vehicle_type_id":"4","last_reported":1758056915,"current_range_meters":6400,"station_id":"","pricing_plan_id":"cebpf4jnsgd1na2vs0mg"},{"bike_id":"e9d42c5b-2eeb-4956-bf69-1565cbf09cc0","system_id":"levelo_inurba_marseille","lat":43.286876,"lon":5.374102,"is_reserved":false,"is_disabled":true,"rental_uris":{"android":"levelo://app?vid=e9d42c5b-2eeb-4956-bf69-1565cbf09cc0","ios":"levelo://app?vid=e9d42c5b-2eeb-4956-bf69-1565cbf09cc0"},"vehicle_type_id":"4","last_reported":1758056915,"current_range_meters":6400,"station_id":"ce4bh3p2rcd13ifvqdq0","pricing_plan_id":"cebpf4jnsgd1na2vs0mg"},{"bike_id":"c2f29fbc-79f0-429d-8349-a08db42d0db5","system_id":"levelo_inurba_marseille","lat":43.2929,"lon":5.36838,"is_reserved":false,"is_disabled":false,"rental_uris":{"android":"levelo://app?vid=c2f29fbc-79f0-429d-8349-a08db42d0db5","ios":"levelo://app?vid=c2f29fbc-79f0-429d-8349-a08db42d0db5"},"vehicle_type_id":"4","last_reported":1758056915,"current_range_meters":6800,"station_id":"ce4bhbp2rcd13ifvqesg","pricing_plan_id":"cebpf4jnsgd1na2vs0mg"},{"bike_id":"40344a7c-3353-41d0-8493-2bab328aab55","system_id":"levelo_inurba_marseille","lat":43.30139,"lon":5.4172,"is_reserved":false,"is_disabled":false,"rental_uris":{"android":"levelo://app?vid=40344a7c-3353-41d0-8493-2bab328aab55","ios":"levelo://app?vid=40344a7c-3353-41d0-8493-2bab328aab55"},"vehicle_type_id":"4","last_reported":1758056915,"current_range_meters":6800,"station_id":"","pricing_plan_id":"cebpf4jnsgd1na2vs0mg"},{"bike_id":"322c1f5a-85db-4ef6-bcd4-1b5c417c8ee0","system_id":"levelo_inurba_marseille","lat":43.3377,"lon":5.37488,"is_reserved":false,"is_disabled":false,"rental_uris":{"android":"levelo://app?vid=322c1f5a-85db-4ef6-bcd4-1b5c417c8ee0","ios":"levelo://app?vid=322c1f5a-85db-4ef6-bcd4-1b5c417c8ee0"},"vehicle_type_id":"4","last_reported":1758056915,"current_range_meters":6800,"station_id":"","pricing_plan_id":"cebpf4jnsgd1na2vs0mg"},{"bike_id":"7445310a-ff4f-4598-8b34-eeab134b239e","system_id":"levelo_inurba_marseille","lat":43.28022,"lon":5.40582,"is_reserved":false,"is_disabled":false,"rental_uris":{"android":"levelo://app?vid=7445310a-ff4f-4598-8b34-eeab134b239e","ios":"levelo://app?vid=7445310a-ff4f-4598-8b34-eeab134b239e"},"vehicle_type_id":"4","last_reported":1758056915,"current_range_meters":7200,"station_id":"ce4bgi92rcd13ifvqb90","pricing_plan_id":"cebpf4jnsgd1na2vs0mg"},{"bike_id":"c04d72e3-5c88-4cf4-aa8f-431f1368e03a","system_id":"levelo_inurba_marseille","lat":43.23177,"lon":5.39992,"is_reserved":false,"is_disabled":false,"rental_uris":{"android":"levelo://app?vid=c04d72e3-5c88-4cf4-aa8f-431f1368e03a","ios":"levelo://app?vid=c04d72e3-5c88-4cf4-aa8f-431f1368e03a"},"vehicle_type_id":"4","last_reported":1758056915,"current_range_meters":7200,"station_id":"ce4bhn12rcd13ifvqgqg","pricing_plan_id":"cebpf4jnsgd1na2vs0mg"},{"bike_id":"07bf9eb9-ca92-489d-9e58-9e6bd216a1df","system_id":"levelo_inurba_marseille","lat":43.27676,"lon":5.38874,"is_reserved":false,"is_disabled":false,"rental_uris":{"android":"levelo://app?vid=07bf9eb9-ca92-489d-9e58-9e6bd216a1df","ios":"levelo://app?vid=07bf9eb9-ca92-489d-9e58-9e6bd216a1df"},"vehicle_type_id":"4","last_reported":1758056915,"current_range_meters":7200,"station_id":"ce4bhi12rcd13ifvqfo0","pricing_plan_id":"cebpf4jnsgd1na2vs0mg"},{"bike_id":"9aea86b6-d130-4538-9553-025ebd17d13e","system_id":"levelo_inurba_marseille","lat":43.295202,"lon":5.38542,"is_reserved":false,"is_disabled":false,"rental_uris":{"android":"levelo://app?vid=9aea86b6-d130-4538-9553-025ebd17d13e","ios":"levelo://app?vid=9aea86b6-d130-4538-9553-025ebd17d13e"},"vehicle_type_id":"4","last_reported":1758056915,"current_range_meters":7200,"station_id":"ce4bgih2rcd13ifvqba0","pricing_plan_id":"cebpf4jnsgd1na2vs0mg"},{"bike_id":"7afe80f9-0689-400e-806c-aaf75c85a06a","system_id":"levelo_inurba_marseille","lat":43.295442,"lon":5.394026,"is_reserved":false,"is_disabled":false,"rental_uris":{"android":"levelo://app?vid=7afe80f9-0689-400e-806c-aaf75c85a06a","ios":"levelo://app?vid=7afe80f9-0689-400e-806c-aaf75c85a06a"},"vehicle_type_id":"4","last_reported":1758056915,"current_range_meters":7200,"station_id":"ce4bh312rcd13ifvqdj0","pricing_plan_id":"cebpf4jnsgd1na2vs0mg"},{"bike_id":"04c266fc-3c2c-450f-bc6b-03b1fd6b6666","system_id":"levelo_inurba_marseille","lat":43.29053,"lon":5.37158,"is_reserved":false,"is_disabled":true,"rental_uris":{"android":"levelo://app?vid=04c266fc-3c2c-450f-bc6b-03b1fd6b6666","ios":"levelo://app?vid=04c266fc-3c2c-450f-bc6b-03b1fd6b6666"},"vehicle_type_id":"4","last_reported":1758056915,"current_range_meters":8000,"station_id":"ce4bh5p2rcd13ifvqe4g","pricing_plan_id":"cebpf4jnsgd1na2vs0mg"},{"bike_id":"5cb63f0c-0bd0-4208-890d-e7ce6baab8ce","system_id":"levelo_inurba_marseille","lat":43.30769,"lon":5.3765,"is_reserved":false,"is_disabled":false,"rental_uris":{"android":"levelo://app?vid=5cb63f0c-0bd0-4208-890d-e7ce6baab8ce","ios":"levelo://app?vid=5cb63f0c-0bd0-4208-890d-e7ce6baab8ce"},"vehicle_type_id":"4","last_reported":1758056915,"current_range_meters":8000,"station_id":"ce4bgv92rcd13ifvqcq0","pricing_plan_id":"cebpf4jnsgd1na2vs0mg"},{"bike_id":"5abbb84d-d295-46ce-9a20-7358cca90f09","system_id":"levelo_inurba_marseille","lat":43.27499,"lon":5.42446,"is_reserved":false,"is_disabled":false,"rental_uris":{"android":"levelo://app?vid=5abbb84d-d295-46ce-9a20-7358cca90f09","ios":"levelo://app?vid=5abbb84d-d295-46ce-9a20-7358cca90f09"},"vehicle_type_id":"4","last_reported":1758056915,"current_range_meters":8000,"station_id":"ce4bhn92rcd13ifvqgrg","pricing_plan_id":"cebpf4jnsgd1na2vs0mg"},{"bike_id":"d818ffce-d6c4-4f39-ae87-10e02446a46c","system_id":"levelo_inurba_marseille","lat":43.24053,"lon":5.37598,"is_reserved":false,"is_disabled":true,"rental_uris":{"android":"levelo://app?vid=d818ffce-d6c4-4f39-ae87-10e02446a46c","ios":"levelo://app?vid=d818ffce-d6c4-4f39-ae87-10e02446a46c"},"vehicle_type_id":"4","last_reported":1758056915,"current_range_meters":8000,"station_id":"","pricing_plan_id":"cebpf4jnsgd1na2vs0mg"},{"bike_id":"94de20bb-3414-4281-a64d-6d2c5e6e35a1","system_id":"levelo_inurba_marseille","lat":43.30267,"lon":5.37721,"is_reserved":false,"is_disabled":false,"rental_uris":{"android":"levelo://app?vid=94de20bb-3414-4281-a64d-6d2c5e6e35a1","ios":"levelo://app?vid=94de20bb-3414-4281-a64d-6d2c5e6e35a1"},"vehicle_type_id":"4","last_reported":1758056915,"current_range_meters":8400,"station_id":"ce4bguh2rcd13ifvqcj0","pricing_plan_id":"cebpf4jnsgd1na2vs0mg"},{"bike_id":"c428648a-d57d-4969-8ede-5bd29b711fcb","system_id":"levelo_inurba_marseille","lat":43.28713,"lon":5.37386,"is_reserved":false,"is_disabled":false,"rental_uris":{"android":"levelo://app?vid=c428648a-d57d-4969-8ede-5bd29b711fcb","ios":"levelo://app?vid=c428648a-d57d-4969-8ede-5bd29b711fcb"},"vehicle_type_id":"4","last_reported":1758056915,"current_range_meters":8400,"station_id":"ce4bh3p2rcd13ifvqdq0","pricing_plan_id":"cebpf4jnsgd1na2vs0mg"},{"bike_id":"2fc6780e-7c53-4103-901f-d3fe693009c1","system_id":"levelo_inurba_marseille","lat":43.28558,"lon":5.39518,"is_reserved":false,"is_disabled":false,"rental_uris":{"android":"levelo://app?vid=2fc6780e-7c53-4103-901f-d3fe693009c1","ios":"levelo://app?vid=2fc6780e-7c53-4103-901f-d3fe693009c1"},"vehicle_type_id":"4","last_reported":1758056915,"current_range_meters":8400,"station_id":"ce4bh292rcd13ifvqdg0","pricing_plan_id":"cebpf4jnsgd1na2vs0mg"},{"bike_id":"3f31a35f-aac4-41ef-9e0e-acd3c3fdd234","system_id":"levelo_inurba_marseille","lat":43.28691,"lon":5.38825,"is_reserved":false,"is_disabled":false,"rental_uris":{"android":"levelo://app?vid=3f31a35f-aac4-41ef-9e0e-acd3c3fdd234","ios":"levelo://app?vid=3f31a35f-aac4-41ef-9e0e-acd3c3fdd234"},"vehicle_type_id":"4","last_reported":1758056915,"current_range_meters":8400,"station_id":"","pricing_plan_id":"cebpf4jnsgd1na2vs0mg"},{"bike_id":"0567afe0-3916-44f4-871a-0975705e1d9f","system_id":"levelo_inurba_marseille","lat":43.305239,"lon":5.400997,"is_reserved":false,"is_disabled":false,"rental_uris":{"android":"levelo://app?vid=0567afe0-3916-44f4-871a-0975705e1d9f","ios":"levelo://app?vid=0567afe0-3916-44f4-871a-0975705e1d9f"},"vehicle_type_id":"4","last_reported":1758056915,"current_range_meters":8400,"station_id":"ce4bgvp2rcd13ifvqct0","pricing_plan_id":"cebpf4jnsgd1na2vs0mg"},{"bike_id":"34539d66-9bce-4d1c-8b94-78e2e11c6e1a","system_id":"levelo_inurba_marseille","lat":43.288629,"lon":5.425148,"is_reserved":false,"is_disabled":false,"rental_uris":{"android":"levelo://app?vid=34539d66-9bce-4d1c-8b94-78e2e11c6e1a","ios":"levelo://app?vid=34539d66-9bce-4d1c-8b94-78e2e11c6e1a"},"vehicle_type_id":"4","last_reported":1758056915,"current_range_meters":8400,"station_id":"","pricing_plan_id":"cebpf4jnsgd1na2vs0mg"},{"bike_id":"24134c4f-7420-49cc-a4b9-fce39e8b3a82","system_id":"levelo_inurba_marseille","lat":43.2703,"lon":5.4027,"is_reserved":false,"is_disabled":true,"rental_uris":{"android":"levelo://app?vid=24134c4f-7420-49cc-a4b9-fce39e8b3a82","ios":"levelo://app?vid=24134c4f-7420-49cc-a4b9-fce39e8b3a82"},"vehicle_type_id":"4","last_reported":1758056915,"current_range_meters":8400,"station_id":"ce4bhk92rcd13ifvqgc0","pricing_plan_id":"cebpf4jnsgd1na2vs0mg"},{"bike_id":"3527d769-2f6d-49eb-a98f-6626144e3c63","system_id":"levelo_inurba_marseille","lat":43.29184,"lon":5.3933,"is_reserved":false,"is_disabled":false,"rental_uris":{"android":"levelo://app?vid=3527d769-2f6d-49eb-a98f-6626144e3c63","ios":"levelo://app?vid=3527d769-2f6d-49eb-a98f-6626144e3c63"},"vehicle_type_id":"4","last_reported":1758056915,"current_range_meters":8400,"station_id":"ce4bh192rcd13ifvqdd0","pricing_plan_id":"cebpf4jnsgd1na2vs0mg"},{"bike_id":"a03685f3-ce2a-4173-938f-bac43a1ac1f6","system_id":"levelo_inurba_marseille","lat":43.29515,"lon":5.38546,"is_reserved":false,"is_disabled":false,"rental_uris":{"android":"levelo://app?vid=a03685f3-ce2a-4173-938f-bac43a1ac1f6","ios":"levelo://app?vid=a03685f3-ce2a-4173-938f-bac43a1ac1f6"},"vehicle_type_id":"4","last_reported":1758056915,"current_range_meters":8400,"station_id":"ce4bgih2rcd13ifvqba0","pricing_plan_id":"cebpf4jnsgd1na2vs0mg"},{"bike_id":"c3a340e9-a793-4c2b-af94-631573890243","system_id":"levelo_inurba_marseille","lat":43.30322,"lon":5.40436,"is_reserved":false,"is_disabled":false,"rental_uris":{"android":"levelo://app?vid=c3a340e9-a793-4c2b-af94-631573890243","ios":"levelo://app?vid=c3a340e9-a793-4c2b-af94-631573890243"},"vehicle_type_id":"4","last_reported":1758056915,"current_range_meters":8400,"station_id":"ce4bh012rcd13ifvqd10","pricing_plan_id":"cebpf4jnsgd1na2vs0mg"},{"bike_id":"cad68888-522f-4a12-a112-00c23287c99f","system_id":"levelo_inurba_marseille","lat":43.31332,"lon":5.39698,"is_reserved":false,"is_disabled":false,"rental_uris":{"android":"levelo://app?vid=cad68888-522f-4a12-a112-00c23287c99f","ios":"levelo://app?vid=cad68888-522f-4a12-a112-00c23287c99f"},"vehicle_type_id":"4","last_reported":1758056915,"current_range_meters":8400,"station_id":"ce4bgvp2rcd13ifvqcu0","pricing_plan_id":"cebpf4jnsgd1na2vs0mg"},{"bike_id":"c07e7a2d-d8a6-4efd-8723-e965be4d1a74","system_id":"levelo_inurba_marseille","lat":43.22533,"lon":5.348367,"is_reserved":false,"is_disabled":false,"rental_uris":{"android":"levelo://app?vid=c07e7a2d-d8a6-4efd-8723-e965be4d1a74","ios":"levelo://app?vid=c07e7a2d-d8a6-4efd-8723-e965be4d1a74"},"vehicle_type_id":"4","last_reported":1758056915,"current_range_meters":8400,"station_id":"","pricing_plan_id":"cebpf4jnsgd1na2vs0mg"},{"bike_id":"8e8089f6-a97e-46c3-b7c0-3b7c4482a2cb","system_id":"levelo_inurba_marseille","lat":43.29798,"lon":5.39349,"is_reserved":false,"is_disabled":true,"rental_uris":{"android":"levelo://app?vid=8e8089f6-a97e-46c3-b7c0-3b7c4482a2cb","ios":"levelo://app?vid=8e8089f6-a97e-46c3-b7c0-3b7c4482a2cb"},"vehicle_type_id":"4","last_reported":1758056915,"current_range_meters":8800,"station_id":"chh1huq6cuj3fo74tm60","pricing_plan_id":"cebpf4jnsgd1na2vs0mg"},{"bike_id":"cd02c080-8936-4e2b-af4d-301cbe8eb8f1","system_id":"levelo_inurba_marseille","lat":43.30065,"lon":5.40398,"is_reserved":false,"is_disabled":false,"rental_uris":{"android":"levelo://app?vid=cd02c080-8936-4e2b-af4d-301cbe8eb8f1","ios":"levelo://app?vid=cd02c080-8936-4e2b-af4d-301cbe8eb8f1"},"vehicle_type_id":"4","last_reported":1758056915,"current_range_meters":8800,"station_id":"","pricing_plan_id":"cebpf4jnsgd1na2vs0mg"},{"bike_id":"a9f13996-cedb-42ef-8189-8cba3aa4b434","system_id":"levelo_inurba_marseille","lat":43.212,"lon":5.3507,"is_reserved":false,"is_disabled":false,"rental_uris":{"android":"levelo://app?vid=a9f13996-cedb-42ef-8189-8cba3aa4b434","ios":"levelo://app?vid=a9f13996-cedb-42ef-8189-8cba3aa4b434"},"vehicle_type_id":"4","last_reported":1758056915,"current_range_meters":8800,"station_id":"st_cvj6sg6p6f1abm77japg","pricing_plan_id":"cebpf4jnsgd1na2vs0mg"},{"bike_id":"81317c48-8fc4-4079-9afb-f285f895d741","system_id":"levelo_inurba_marseille","lat":43.28269,"lon":5.35059,"is_reserved":false,"is_disabled":false,"rental_uris":{"android":"levelo://app?vid=81317c48-8fc4-4079-9afb-f285f895d741","ios":"levelo://app?vid=81317c48-8fc4-4079-9afb-f285f895d741"},"vehicle_type_id":"4","last_reported":1758056915,"current_range_meters":9200,"station_id":"ce4bhbp2rcd13ifvqerg","pricing_plan_id":"cebpf4jnsgd1na2vs0mg"},{"bike_id":"9134a1cd-6e76-4d49-8d31-e09d959cfa5a","system_id":"levelo_inurba_marseille","lat":43.30768,"lon":5.37648,"is_reserved":false,"is_disabled":false,"rental_uris":{"android":"levelo://app?vid=9134a1cd-6e76-4d49-8d31-e09d959cfa5a","ios":"levelo://app?vid=9134a1cd-6e76-4d49-8d31-e09d959cfa5a"},"vehicle_type_id":"4","last_reported":1758056915,"current_range_meters":9200,"station_id":"ce4bgv92rcd13ifvqcq0","pricing_plan_id":"cebpf4jnsgd1na2vs0mg"},{"bike_id":"a05fdb49-e038-4a84-8ea1-52f3eaaf07b1","system_id":"levelo_inurba_marseille","lat":43.22559,"lon":5.41625,"is_reserved":false,"is_disabled":false,"rental_uris":{"android":"levelo://app?vid=a05fdb49-e038-4a84-8ea1-52f3eaaf07b1","ios":"levelo://app?vid=a05fdb49-e038-4a84-8ea1-52f3eaaf07b1"},"vehicle_type_id":"4","last_reported":1758056915,"current_range_meters":9200,"station_id":"st_d2o4gvlbi1j2169b742g","pricing_plan_id":"cebpf4jnsgd1na2vs0mg"},{"bike_id":"230a20b6-5de1-4d36-b3e3-23a65ec0931a","system_id":"levelo_inurba_marseille","lat":43.29523,"lon":5.39028,"is_reserved":false,"is_disabled":false,"rental_uris":{"android":"levelo://app?vid=230a20b6-5de1-4d36-b3e3-23a65ec0931a","ios":"levelo://app?vid=230a20b6-5de1-4d36-b3e3-23a65ec0931a"},"vehicle_type_id":"4","last_reported":1758056915,"current_range_meters":9200,"station_id":"ce4bh3p2rcd13ifvqdp0","pricing_plan_id":"cebpf4jnsgd1na2vs0mg"},{"bike_id":"a2670bdf-dc61-4f87-affe-1e328fcb9a73","system_id":"levelo_inurba_marseille","lat":43.24809,"lon":5.37461,"is_reserved":false,"is_disabled":false,"rental_uris":{"android":"levelo://app?vid=a2670bdf-dc61-4f87-affe-1e328fcb9a73","ios":"levelo://app?vid=a2670bdf-dc61-4f87-affe-1e328fcb9a73"},"vehicle_type_id":"4","last_reported":1758056915,"current_range_meters":9200,"station_id":"ce4bhgh2rcd13ifvqfb0","pricing_plan_id":"cebpf4jnsgd1na2vs0mg"},{"bike_id":"166d0740-551f-4b41-ba2a-cb7a6a98d02c","system_id":"levelo_inurba_marseille","lat":43.24682,"lon":5.40278,"is_reserved":false,"is_disabled":false,"rental_uris":{"android":"levelo://app?vid=166d0740-551f-4b41-ba2a-cb7a6a98d02c","ios":"levelo://app?vid=166d0740-551f-4b41-ba2a-cb7a6a98d02c"},"vehicle_type_id":"4","last_reported":1758056915,"current_range_meters":9200,"station_id":"","pricing_plan_id":"cebpf4jnsgd1na2vs0mg"},{"bike_id":"f7825ce6-de89-45bf-831f-3599d0d91c3c","system_id":"levelo_inurba_marseille","lat":43.3107,"lon":5.40076,"is_reserved":false,"is_disabled":true,"rental_uris":{"android":"levelo://app?vid=f7825ce6-de89-45bf-831f-3599d0d91c3c","ios":"levelo://app?vid=f7825ce6-de89-45bf-831f-3599d0d91c3c"},"vehicle_type_id":"4","last_reported":1758056915,"current_range_meters":9200,"station_id":"","pricing_plan_id":"cebpf4jnsgd1na2vs0mg"},{"bike_id":"2692a4d1-a321-4185-9cd2-1faeace4d6e2","system_id":"levelo_inurba_marseille","lat":43.28189,"lon":5.40422,"is_reserved":false,"is_disabled":false,"rental_uris":{"android":"levelo://app?vid=2692a4d1-a321-4185-9cd2-1faeace4d6e2","ios":"levelo://app?vid=2692a4d1-a321-4185-9cd2-1faeace4d6e2"},"vehicle_type_id":"4","last_reported":1758056915,"current_range_meters":9200,"station_id":"","pricing_plan_id":"cebpf4jnsgd1na2vs0mg"},{"bike_id":"dfd24ab1-2794-42de-87f8-4ea6fe56e7e5","system_id":"levelo_inurba_marseille","lat":43.28926,"lon":5.364036,"is_reserved":false,"is_disabled":false,"rental_uris":{"android":"levelo://app?vid=dfd24ab1-2794-42de-87f8-4ea6fe56e7e5","ios":"levelo://app?vid=dfd24ab1-2794-42de-87f8-4ea6fe56e7e5"},"vehicle_type_id":"4","last_reported":1758056915,"current_range_meters":9200,"station_id":"ce4bhc92rcd13ifvqetg","pricing_plan_id":"cebpf4jnsgd1na2vs0mg"},{"bike_id":"5161c147-9a77-48ce-ab1f-7473ab4d7b0d","system_id":"levelo_inurba_marseille","lat":43.29528,"lon":5.38533,"is_reserved":false,"is_disabled":false,"rental_uris":{"android":"levelo://app?vid=5161c147-9a77-48ce-ab1f-7473ab4d7b0d","ios":"levelo://app?vid=5161c147-9a77-48ce-ab1f-7473ab4d7b0d"},"vehicle_type_id":"4","last_reported":1758056915,"current_range_meters":9200,"station_id":"ce4bgih2rcd13ifvqba0","pricing_plan_id":"cebpf4jnsgd1na2vs0mg"},{"bike_id":"77246e06-46b3-406d-9b69-b9b3e2cbdee1","system_id":"levelo_inurba_marseille","lat":43.28078,"lon":5.38653,"is_reserved":false,"is_disabled":false,"rental_uris":{"android":"levelo://app?vid=77246e06-46b3-406d-9b69-b9b3e2cbdee1","ios":"levelo://app?vid=77246e06-46b3-406d-9b69-b9b3e2cbdee1"},"vehicle_type_id":"4","last_reported":1758056915,"current_range_meters":9200,"station_id":"","pricing_plan_id":"cebpf4jnsgd1na2vs0mg"},{"bike_id":"6dee75c1-5723-4dfc-88ce-64411d4c992e","system_id":"levelo_inurba_marseille","lat":43.29526,"lon":5.38543,"is_reserved":false,"is_disabled":false,"rental_uris":{"android":"levelo://app?vid=6dee75c1-5723-4dfc-88ce-64411d4c992e","ios":"levelo://app?vid=6dee75c1-5723-4dfc-88ce-64411d4c992e"},"vehicle_type_id":"4","last_reported":1758056915,"current_range_meters":9200,"station_id":"ce4bgih2rcd13ifvqba0","pricing_plan_id":"cebpf4jnsgd1na2vs0mg"},{"bike_id":"e5c0f9fa-aa79-401b-ac6b-a846850c5345","system_id":"levelo_inurba_marseille","lat":43.27852,"lon":5.38516,"is_reserved":false,"is_disabled":false,"rental_uris":{"android":"levelo://app?vid=e5c0f9fa-aa79-401b-ac6b-a846850c5345","ios":"levelo://app?vid=e5c0f9fa-aa79-401b-ac6b-a846850c5345"},"vehicle_type_id":"4","last_reported":1758056915,"current_range_meters":9200,"station_id":"","pricing_plan_id":"cebpf4jnsgd1na2vs0mg"},{"bike_id":"775fd7ff-306e-4485-b258-425baf86d01a","system_id":"levelo_inurba_marseille","lat":43.28487,"lon":5.38425,"is_reserved":false,"is_disabled":false,"rental_uris":{"android":"levelo://app?vid=775fd7ff-306e-4485-b258-425baf86d01a","ios":"levelo://app?vid=775fd7ff-306e-4485-b258-425baf86d01a"},"vehicle_type_id":"4","last_reported":1758056915,"current_range_meters":9600,"station_id":"ce4bh512rcd13ifvqe3g","pricing_plan_id":"cebpf4jnsgd1na2vs0mg"},{"bike_id":"d6aff290-2093-4ceb-b4e8-ea71f4559c84","system_id":"levelo_inurba_marseille","lat":43.29279,"lon":5.4013,"is_reserved":false,"is_disabled":false,"rental_uris":{"android":"levelo://app?vid=d6aff290-2093-4ceb-b4e8-ea71f4559c84","ios":"levelo://app?vid=d6aff290-2093-4ceb-b4e8-ea71f4559c84"},"vehicle_type_id":"4","last_reported":1758056915,"current_range_meters":9600,"station_id":"ce4bh312rcd13ifvqdk0","pricing_plan_id":"cebpf4jnsgd1na2vs0mg"},{"bike_id":"e824d254-16a6-4ae4-983a-05af083f4c81","system_id":"levelo_inurba_marseille","lat":43.21753,"lon":5.34607,"is_reserved":false,"is_disabled":false,"rental_uris":{"android":"levelo://app?vid=e824d254-16a6-4ae4-983a-05af083f4c81","ios":"levelo://app?vid=e824d254-16a6-4ae4-983a-05af083f4c81"},"vehicle_type_id":"4","last_reported":1758056915,"current_range_meters":9600,"station_id":"","pricing_plan_id":"cebpf4jnsgd1na2vs0mg"},{"bike_id":"d7b053ab-2912-4f16-abf7-c47be8c4e15a","system_id":"levelo_inurba_marseille","lat":43.26555,"lon":5.37301,"is_reserved":false,"is_disabled":true,"rental_uris":{"android":"levelo://app?vid=d7b053ab-2912-4f16-abf7-c47be8c4e15a","ios":"levelo://app?vid=d7b053ab-2912-4f16-abf7-c47be8c4e15a"},"vehicle_type_id":"4","last_reported":1758056915,"current_range_meters":9600,"station_id":"ce4bhg12rcd13ifvqf70","pricing_plan_id":"cebpf4jnsgd1na2vs0mg"},{"bike_id":"8ef8bf7d-8a91-4724-8c2e-ddeef723e28a","system_id":"levelo_inurba_marseille","lat":43.27032,"lon":5.37934,"is_reserved":false,"is_disabled":false,"rental_uris":{"android":"levelo://app?vid=8ef8bf7d-8a91-4724-8c2e-ddeef723e28a","ios":"levelo://app?vid=8ef8bf7d-8a91-4724-8c2e-ddeef723e28a"},"vehicle_type_id":"4","last_reported":1758056915,"current_range_meters":9600,"station_id":"","pricing_plan_id":"cebpf4jnsgd1na2vs0mg"},{"bike_id":"f70322af-4699-465a-b038-2fd5e04a1424","system_id":"levelo_inurba_marseille","lat":43.28368,"lon":5.38127,"is_reserved":false,"is_disabled":false,"rental_uris":{"android":"levelo://app?vid=f70322af-4699-465a-b038-2fd5e04a1424","ios":"levelo://app?vid=f70322af-4699-465a-b038-2fd5e04a1424"},"vehicle_type_id":"4","last_reported":1758056915,"current_range_meters":9600,"station_id":"ce4bh412rcd13ifvqdr0","pricing_plan_id":"cebpf4jnsgd1na2vs0mg"},{"bike_id":"fbbbeb67-1bf9-4cea-84cf-0ad9055f2756","system_id":"levelo_inurba_marseille","lat":43.29505,"lon":5.38541,"is_reserved":false,"is_disabled":false,"rental_uris":{"android":"levelo://app?vid=fbbbeb67-1bf9-4cea-84cf-0ad9055f2756","ios":"levelo://app?vid=fbbbeb67-1bf9-4cea-84cf-0ad9055f2756"},"vehicle_type_id":"4","last_reported":1758056915,"current_range_meters":9600,"station_id":"ce4bgih2rcd13ifvqba0","pricing_plan_id":"cebpf4jnsgd1na2vs0mg"},{"bike_id":"294809ad-9af5-468a-b4ce-8bfd06f46cec","system_id":"levelo_inurba_marseille","lat":43.29638,"lon":5.40611,"is_reserved":false,"is_disabled":false,"rental_uris":{"android":"levelo://app?vid=294809ad-9af5-468a-b4ce-8bfd06f46cec","ios":"levelo://app?vid=294809ad-9af5-468a-b4ce-8bfd06f46cec"},"vehicle_type_id":"4","last_reported":1758056915,"current_range_meters":10000,"station_id":"ce4bh0h2rcd13ifvqd60","pricing_plan_id":"cebpf4jnsgd1na2vs0mg"},{"bike_id":"cea0a1e2-df7e-4cb1-be5d-ab30e9212317","system_id":"levelo_inurba_marseille","lat":43.21769,"lon":5.34593,"is_reserved":false,"is_disabled":false,"rental_uris":{"android":"levelo://app?vid=cea0a1e2-df7e-4cb1-be5d-ab30e9212317","ios":"levelo://app?vid=cea0a1e2-df7e-4cb1-be5d-ab30e9212317"},"vehicle_type_id":"4","last_reported":1758056915,"current_range_meters":10000,"station_id":"","pricing_plan_id":"cebpf4jnsgd1na2vs0mg"},{"bike_id":"4144b63d-19a1-458a-8b36-d33687e6047d","system_id":"levelo_inurba_marseille","lat":43.292532,"lon":5.384365,"is_reserved":false,"is_disabled":false,"rental_uris":{"android":"levelo://app?vid=4144b63d-19a1-458a-8b36-d33687e6047d","ios":"levelo://app?vid=4144b63d-19a1-458a-8b36-d33687e6047d"},"vehicle_type_id":"4","last_reported":1758056915,"current_range_meters":10000,"station_id":"ce4bh692rcd13ifvqea0","pricing_plan_id":"cebpf4jnsgd1na2vs0mg"},{"bike_id":"336c74d9-d9c9-46d7-a94b-134b36ad023a","system_id":"levelo_inurba_marseille","lat":43.298542,"lon":5.378389,"is_reserved":false,"is_disabled":false,"rental_uris":{"android":"levelo://app?vid=336c74d9-d9c9-46d7-a94b-134b36ad023a","ios":"levelo://app?vid=336c74d9-d9c9-46d7-a94b-134b36ad023a"},"vehicle_type_id":"4","last_reported":1758056915,"current_range_meters":10000,"station_id":"","pricing_plan_id":"cebpf4jnsgd1na2vs0mg"},{"bike_id":"9a3b79ed-471b-4eb3-bc93-f3b4aea6352e","system_id":"levelo_inurba_marseille","lat":43.27835,"lon":5.39206,"is_reserved":false,"is_disabled":false,"rental_uris":{"android":"levelo://app?vid=9a3b79ed-471b-4eb3-bc93-f3b4aea6352e","ios":"levelo://app?vid=9a3b79ed-471b-4eb3-bc93-f3b4aea6352e"},"vehicle_type_id":"4","last_reported":1758056915,"current_range_meters":10000,"station_id":"ce4bhjp2rcd13ifvqga0","pricing_plan_id":"cebpf4jnsgd1na2vs0mg"},{"bike_id":"87357c03-012e-432e-b77d-d78a4bfb3c61","system_id":"levelo_inurba_marseille","lat":43.306,"lon":5.37242,"is_reserved":false,"is_disabled":false,"rental_uris":{"android":"levelo://app?vid=87357c03-012e-432e-b77d-d78a4bfb3c61","ios":"levelo://app?vid=87357c03-012e-432e-b77d-d78a4bfb3c61"},"vehicle_type_id":"4","last_reported":1758056915,"current_range_meters":10000,"station_id":"ce4bgqh2rcd13ifvqc4g","pricing_plan_id":"cebpf4jnsgd1na2vs0mg"},{"bike_id":"cdf173a5-9991-4c54-bee7-fba08da0ee50","system_id":"levelo_inurba_marseille","lat":43.30634,"lon":5.40095,"is_reserved":false,"is_disabled":false,"rental_uris":{"android":"levelo://app?vid=cdf173a5-9991-4c54-bee7-fba08da0ee50","ios":"levelo://app?vid=cdf173a5-9991-4c54-bee7-fba08da0ee50"},"vehicle_type_id":"4","last_reported":1758056915,"current_range_meters":10000,"station_id":"ce4bh112rcd13ifvqda0","pricing_plan_id":"cebpf4jnsgd1na2vs0mg"},{"bike_id":"b5ea69d3-4d29-4959-bfe8-3c5eb47ae650","system_id":"levelo_inurba_marseille","lat":43.31486,"lon":5.37307,"is_reserved":false,"is_disabled":false,"rental_uris":{"android":"levelo://app?vid=b5ea69d3-4d29-4959-bfe8-3c5eb47ae650","ios":"levelo://app?vid=b5ea69d3-4d29-4959-bfe8-3c5eb47ae650"},"vehicle_type_id":"4","last_reported":1758056915,"current_range_meters":8800,"station_id":"ce4bgt12rcd13ifvqcd0","pricing_plan_id":"cebpf4jnsgd1na2vs0mg"},{"bike_id":"a2f2c025-56ab-41f2-a09b-002038c6b181","system_id":"levelo_inurba_marseille","lat":43.28162,"lon":5.40407,"is_reserved":false,"is_disabled":false,"rental_uris":{"android":"levelo://app?vid=a2f2c025-56ab-41f2-a09b-002038c6b181","ios":"levelo://app?vid=a2f2c025-56ab-41f2-a09b-002038c6b181"},"vehicle_type_id":"4","last_reported":1758056915,"current_range_meters":10800,"station_id":"","pricing_plan_id":"cebpf4jnsgd1na2vs0mg"},{"bike_id":"3533a8d6-e5c3-4f95-81b6-96cdb8a694e2","system_id":"levelo_inurba_marseille","lat":43.28405,"lon":5.3754,"is_reserved":false,"is_disabled":false,"rental_uris":{"android":"levelo://app?vid=3533a8d6-e5c3-4f95-81b6-96cdb8a694e2","ios":"levelo://app?vid=3533a8d6-e5c3-4f95-81b6-96cdb8a694e2"},"vehicle_type_id":"4","last_reported":1758056915,"current_range_meters":10800,"station_id":"ce4bh412rcd13ifvqds0","pricing_plan_id":"cebpf4jnsgd1na2vs0mg"},{"bike_id":"2bed0138-9ac3-4164-90ee-5bfaf418733f","system_id":"levelo_inurba_marseille","lat":43.28925,"lon":5.38395,"is_reserved":false,"is_disabled":true,"rental_uris":{"android":"levelo://app?vid=2bed0138-9ac3-4164-90ee-5bfaf418733f","ios":"levelo://app?vid=2bed0138-9ac3-4164-90ee-5bfaf418733f"},"vehicle_type_id":"4","last_reported":1758056915,"current_range_meters":10800,"station_id":"ce4bh612rcd13ifvqe6g","pricing_plan_id":"cebpf4jnsgd1na2vs0mg"},{"bike_id":"306fdb53-d761-456b-bed2-711fe8835a9e","system_id":"levelo_inurba_marseille","lat":43.29532,"lon":5.3854,"is_reserved":false,"is_disabled":false,"rental_uris":{"android":"levelo://app?vid=306fdb53-d761-456b-bed2-711fe8835a9e","ios":"levelo://app?vid=306fdb53-d761-456b-bed2-711fe8835a9e"},"vehicle_type_id":"4","last_reported":1758056915,"current_range_meters":10800,"station_id":"ce4bgih2rcd13ifvqba0","pricing_plan_id":"cebpf4jnsgd1na2vs0mg"},{"bike_id":"b5294393-b939-4022-b1c4-531d88c81673","system_id":"levelo_inurba_marseille","lat":43.29271,"lon":5.38435,"is_reserved":false,"is_disabled":false,"rental_uris":{"android":"levelo://app?vid=b5294393-b939-4022-b1c4-531d88c81673","ios":"levelo://app?vid=b5294393-b939-4022-b1c4-531d88c81673"},"vehicle_type_id":"4","last_reported":1758056915,"current_range_meters":10800,"station_id":"ce4bh692rcd13ifvqea0","pricing_plan_id":"cebpf4jnsgd1na2vs0mg"},{"bike_id":"1b6a995d-34ac-45d5-9528-44d2f8bbd183","system_id":"levelo_inurba_marseille","lat":43.28474,"lon":5.35913,"is_reserved":false,"is_disabled":false,"rental_uris":{"android":"levelo://app?vid=1b6a995d-34ac-45d5-9528-44d2f8bbd183","ios":"levelo://app?vid=1b6a995d-34ac-45d5-9528-44d2f8bbd183"},"vehicle_type_id":"4","last_reported":1758056915,"current_range_meters":11200,"station_id":"ce4bhah2rcd13ifvqei0","pricing_plan_id":"cebpf4jnsgd1na2vs0mg"},{"bike_id":"cbc490be-1d21-4033-923b-51ca4cb2d68a","system_id":"levelo_inurba_marseille","lat":43.296229,"lon":5.376965,"is_reserved":false,"is_disabled":false,"rental_uris":{"android":"levelo://app?vid=cbc490be-1d21-4033-923b-51ca4cb2d68a","ios":"levelo://app?vid=cbc490be-1d21-4033-923b-51ca4cb2d68a"},"vehicle_type_id":"4","last_reported":1758056915,"current_range_meters":11200,"station_id":"ce4bgi92rcd13ifvqb90","pricing_plan_id":"cebpf4jnsgd1na2vs0mg"},{"bike_id":"60bc1c8b-2db7-4863-9bba-ad65f355e511","system_id":"levelo_inurba_marseille","lat":43.2866,"lon":5.36317,"is_reserved":false,"is_disabled":false,"rental_uris":{"android":"levelo://app?vid=60bc1c8b-2db7-4863-9bba-ad65f355e511","ios":"levelo://app?vid=60bc1c8b-2db7-4863-9bba-ad65f355e511"},"vehicle_type_id":"4","last_reported":1758056915,"current_range_meters":11200,"station_id":"ce4bhah2rcd13ifvqej0","pricing_plan_id":"cebpf4jnsgd1na2vs0mg"},{"bike_id":"211b3a8d-3dad-41c7-9655-0aa404bc6c5d","system_id":"levelo_inurba_marseille","lat":43.326579,"lon":5.409949,"is_reserved":false,"is_disabled":false,"rental_uris":{"android":"levelo://app?vid=211b3a8d-3dad-41c7-9655-0aa404bc6c5d","ios":"levelo://app?vid=211b3a8d-3dad-41c7-9655-0aa404bc6c5d"},"vehicle_type_id":"4","last_reported":1758056915,"current_range_meters":11200,"station_id":"ce4bhpp2rcd13ifvqhgg","pricing_plan_id":"cebpf4jnsgd1na2vs0mg"},{"bike_id":"19dee3b1-6bf6-4757-9070-d9b5c57ee446","system_id":"levelo_inurba_marseille","lat":43.30143,"lon":5.37434,"is_reserved":false,"is_disabled":false,"rental_uris":{"android":"levelo://app?vid=19dee3b1-6bf6-4757-9070-d9b5c57ee446","ios":"levelo://app?vid=19dee3b1-6bf6-4757-9070-d9b5c57ee446"},"vehicle_type_id":"4","last_reported":1758056915,"current_range_meters":11200,"station_id":"ce4bgs92rcd13ifvqcc0","pricing_plan_id":"cebpf4jnsgd1na2vs0mg"},{"bike_id":"04ff2da8-c3e8-43f4-9f33-e8bc4c06182d","system_id":"levelo_inurba_marseille","lat":43.30265,"lon":5.40053,"is_reserved":false,"is_disabled":false,"rental_uris":{"android":"levelo://app?vid=04ff2da8-c3e8-43f4-9f33-e8bc4c06182d","ios":"levelo://app?vid=04ff2da8-c3e8-43f4-9f33-e8bc4c06182d"},"vehicle_type_id":"4","last_reported":1758056915,"current_range_meters":11200,"station_id":"ce4bgvh2rcd13ifvqcs0","pricing_plan_id":"cebpf4jnsgd1na2vs0mg"},{"bike_id":"4c70b6ba-1376-4775-8247-c41b9ccd75f0","system_id":"levelo_inurba_marseille","lat":43.29251,"lon":5.40915,"is_reserved":false,"is_disabled":true,"rental_uris":{"android":"levelo://app?vid=4c70b6ba-1376-4775-8247-c41b9ccd75f0","ios":"levelo://app?vid=4c70b6ba-1376-4775-8247-c41b9ccd75f0"},"vehicle_type_id":"4","last_reported":1758056915,"current_range_meters":11600,"station_id":"ce4bh192rcd13ifvqdc0","pricing_plan_id":"cebpf4jnsgd1na2vs0mg"},{"bike_id":"6cb8e7ae-01ac-46ee-adbb-1df46ceb4d16","system_id":"levelo_inurba_marseille","lat":43.24385,"lon":5.37055,"is_reserved":false,"is_disabled":false,"rental_uris":{"android":"levelo://app?vid=6cb8e7ae-01ac-46ee-adbb-1df46ceb4d16","ios":"levelo://app?vid=6cb8e7ae-01ac-46ee-adbb-1df46ceb4d16"},"vehicle_type_id":"4","last_reported":1758056915,"current_range_meters":11600,"station_id":"ce4bhhh2rcd13ifvqfk0","pricing_plan_id":"cebpf4jnsgd1na2vs0mg"},{"bike_id":"6a1665e1-806c-429c-a084-950fd9b4265a","system_id":"levelo_inurba_marseille","lat":43.29515,"lon":5.38545,"is_reserved":false,"is_disabled":false,"rental_uris":{"android":"levelo://app?vid=6a1665e1-806c-429c-a084-950fd9b4265a","ios":"levelo://app?vid=6a1665e1-806c-429c-a084-950fd9b4265a"},"vehicle_type_id":"4","last_reported":1758056915,"current_range_meters":11600,"station_id":"ce4bgih2rcd13ifvqba0","pricing_plan_id":"cebpf4jnsgd1na2vs0mg"},{"bike_id":"15bce6cf-7898-43f9-a31c-e32126d8f8a1","system_id":"levelo_inurba_marseille","lat":43.252198,"lon":5.424895,"is_reserved":false,"is_disabled":false,"rental_uris":{"android":"levelo://app?vid=15bce6cf-7898-43f9-a31c-e32126d8f8a1","ios":"levelo://app?vid=15bce6cf-7898-43f9-a31c-e32126d8f8a1"},"vehicle_type_id":"4","last_reported":1758056915,"current_range_meters":11600,"station_id":"","pricing_plan_id":"cebpf4jnsgd1na2vs0mg"},{"bike_id":"23e1572e-7ccb-4eea-8020-599035749c9e","system_id":"levelo_inurba_marseille","lat":43.23838,"lon":5.36554,"is_reserved":false,"is_disabled":false,"rental_uris":{"android":"levelo://app?vid=23e1572e-7ccb-4eea-8020-599035749c9e","ios":"levelo://app?vid=23e1572e-7ccb-4eea-8020-599035749c9e"},"vehicle_type_id":"4","last_reported":1758056915,"current_range_meters":11600,"station_id":"","pricing_plan_id":"cebpf4jnsgd1na2vs0mg"},{"bike_id":"3b26aa0d-3679-4b4c-9b55-1096f6d08a9d","system_id":"levelo_inurba_marseille","lat":43.31295,"lon":5.39391,"is_reserved":false,"is_disabled":false,"rental_uris":{"android":"levelo://app?vid=3b26aa0d-3679-4b4c-9b55-1096f6d08a9d","ios":"levelo://app?vid=3b26aa0d-3679-4b4c-9b55-1096f6d08a9d"},"vehicle_type_id":"4","last_reported":1758056915,"current_range_meters":11600,"station_id":"","pricing_plan_id":"cebpf4jnsgd1na2vs0mg"},{"bike_id":"c50a0999-b29a-4ac5-b75a-cac647e688c8","system_id":"levelo_inurba_marseille","lat":43.27951,"lon":5.41051,"is_reserved":false,"is_disabled":false,"rental_uris":{"android":"levelo://app?vid=c50a0999-b29a-4ac5-b75a-cac647e688c8","ios":"levelo://app?vid=c50a0999-b29a-4ac5-b75a-cac647e688c8"},"vehicle_type_id":"4","last_reported":1758056915,"current_range_meters":11600,"station_id":"ce4bhnp2rcd13ifvqh0g","pricing_plan_id":"cebpf4jnsgd1na2vs0mg"},{"bike_id":"0b530ca0-5abe-456a-80f2-061626fcc9b1","system_id":"levelo_inurba_marseille","lat":43.29977,"lon":5.38219,"is_reserved":false,"is_disabled":false,"rental_uris":{"android":"levelo://app?vid=0b530ca0-5abe-456a-80f2-061626fcc9b1","ios":"levelo://app?vid=0b530ca0-5abe-456a-80f2-061626fcc9b1"},"vehicle_type_id":"4","last_reported":1758056915,"current_range_meters":11600,"station_id":"","pricing_plan_id":"cebpf4jnsgd1na2vs0mg"},{"bike_id":"c3830524-ee6d-475c-88e3-0ff4ec0f7a95","system_id":"levelo_inurba_marseille","lat":43.29229,"lon":5.38455,"is_reserved":false,"is_disabled":false,"rental_uris":{"android":"levelo://app?vid=c3830524-ee6d-475c-88e3-0ff4ec0f7a95","ios":"levelo://app?vid=c3830524-ee6d-475c-88e3-0ff4ec0f7a95"},"vehicle_type_id":"4","last_reported":1758056915,"current_range_meters":11600,"station_id":"ce4bh692rcd13ifvqea0","pricing_plan_id":"cebpf4jnsgd1na2vs0mg"},{"bike_id":"1232d8b9-b6fc-4292-aec4-77ec849a4503","system_id":"levelo_inurba_marseille","lat":43.29513,"lon":5.38538,"is_reserved":false,"is_disabled":false,"rental_uris":{"android":"levelo://app?vid=1232d8b9-b6fc-4292-aec4-77ec849a4503","ios":"levelo://app?vid=1232d8b9-b6fc-4292-aec4-77ec849a4503"},"vehicle_type_id":"4","last_reported":1758056915,"current_range_meters":11600,"station_id":"ce4bgih2rcd13ifvqba0","pricing_plan_id":"cebpf4jnsgd1na2vs0mg"},{"bike_id":"8dfab9d7-67ba-4876-9932-de073df6edde","system_id":"levelo_inurba_marseille","lat":43.27495,"lon":5.42446,"is_reserved":false,"is_disabled":false,"rental_uris":{"android":"levelo://app?vid=8dfab9d7-67ba-4876-9932-de073df6edde","ios":"levelo://app?vid=8dfab9d7-67ba-4876-9932-de073df6edde"},"vehicle_type_id":"4","last_reported":1758056915,"current_range_meters":11600,"station_id":"ce4bhn92rcd13ifvqgrg","pricing_plan_id":"cebpf4jnsgd1na2vs0mg"},{"bike_id":"381bcc38-d62f-4c50-ac40-644b8b611064","system_id":"levelo_inurba_marseille","lat":43.32038,"lon":5.41567,"is_reserved":false,"is_disabled":false,"rental_uris":{"android":"levelo://app?vid=381bcc38-d62f-4c50-ac40-644b8b611064","ios":"levelo://app?vid=381bcc38-d62f-4c50-ac40-644b8b611064"},"vehicle_type_id":"4","last_reported":1758056915,"current_range_meters":11600,"station_id":"ce4bhq92rcd13ifvqhkg","pricing_plan_id":"cebpf4jnsgd1na2vs0mg"},{"bike_id":"5a5606fd-01a5-4dbc-bd10-3c489d48ab6a","system_id":"levelo_inurba_marseille","lat":43.28857,"lon":5.3932,"is_reserved":false,"is_disabled":false,"rental_uris":{"android":"levelo://app?vid=5a5606fd-01a5-4dbc-bd10-3c489d48ab6a","ios":"levelo://app?vid=5a5606fd-01a5-4dbc-bd10-3c489d48ab6a"},"vehicle_type_id":"4","last_reported":1758056915,"current_range_meters":11600,"station_id":"ce4bh2p2rcd13ifvqdi0","pricing_plan_id":"cebpf4jnsgd1na2vs0mg"},{"bike_id":"547e1cba-0553-4b92-8da6-5f885a7b1b67","system_id":"levelo_inurba_marseille","lat":43.31884,"lon":5.40741,"is_reserved":false,"is_disabled":false,"rental_uris":{"android":"levelo://app?vid=547e1cba-0553-4b92-8da6-5f885a7b1b67","ios":"levelo://app?vid=547e1cba-0553-4b92-8da6-5f885a7b1b67"},"vehicle_type_id":"4","last_reported":1758056915,"current_range_meters":12000,"station_id":"ce4bhq12rcd13ifvqhig","pricing_plan_id":"cebpf4jnsgd1na2vs0mg"},{"bike_id":"3780f8a4-d5f2-441c-af36-d971584876a5","system_id":"levelo_inurba_marseille","lat":43.29532,"lon":5.38533,"is_reserved":false,"is_disabled":false,"rental_uris":{"android":"levelo://app?vid=3780f8a4-d5f2-441c-af36-d971584876a5","ios":"levelo://app?vid=3780f8a4-d5f2-441c-af36-d971584876a5"},"vehicle_type_id":"4","last_reported":1758056915,"current_range_meters":12000,"station_id":"ce4bgih2rcd13ifvqba0","pricing_plan_id":"cebpf4jnsgd1na2vs0mg"},{"bike_id":"ad829823-d8e1-44a9-84f1-7d24f22ffc17","system_id":"levelo_inurba_marseille","lat":43.23179,"lon":5.39983,"is_reserved":false,"is_disabled":false,"rental_uris":{"android":"levelo://app?vid=ad829823-d8e1-44a9-84f1-7d24f22ffc17","ios":"levelo://app?vid=ad829823-d8e1-44a9-84f1-7d24f22ffc17"},"vehicle_type_id":"4","last_reported":1758056915,"current_range_meters":12000,"station_id":"ce4bhn12rcd13ifvqgqg","pricing_plan_id":"cebpf4jnsgd1na2vs0mg"},{"bike_id":"7203b3b1-b3b4-4f88-8515-e1f40e950399","system_id":"levelo_inurba_marseille","lat":43.2978,"lon":5.39358,"is_reserved":false,"is_disabled":false,"rental_uris":{"android":"levelo://app?vid=7203b3b1-b3b4-4f88-8515-e1f40e950399","ios":"levelo://app?vid=7203b3b1-b3b4-4f88-8515-e1f40e950399"},"vehicle_type_id":"4","last_reported":1758056915,"current_range_meters":12000,"station_id":"chh1huq6cuj3fo74tm60","pricing_plan_id":"cebpf4jnsgd1na2vs0mg"},{"bike_id":"738e9474-7fa1-477d-95be-2b35ede9d3f0","system_id":"levelo_inurba_marseille","lat":43.22566,"lon":5.41628,"is_reserved":false,"is_disabled":false,"rental_uris":{"android":"levelo://app?vid=738e9474-7fa1-477d-95be-2b35ede9d3f0","ios":"levelo://app?vid=738e9474-7fa1-477d-95be-2b35ede9d3f0"},"vehicle_type_id":"4","last_reported":1758056915,"current_range_meters":12000,"station_id":"st_d2o4gvlbi1j2169b742g","pricing_plan_id":"cebpf4jnsgd1na2vs0mg"},{"bike_id":"0ede21be-37d9-4495-b672-80274a6292be","system_id":"levelo_inurba_marseille","lat":43.3504,"lon":5.3407,"is_reserved":false,"is_disabled":false,"rental_uris":{"android":"levelo://app?vid=0ede21be-37d9-4495-b672-80274a6292be","ios":"levelo://app?vid=0ede21be-37d9-4495-b672-80274a6292be"},"vehicle_type_id":"4","last_reported":1758056915,"current_range_meters":12000,"station_id":"","pricing_plan_id":"cebpf4jnsgd1na2vs0mg"},{"bike_id":"5604b900-2ada-43e3-a7cd-5f8ad1472e30","system_id":"levelo_inurba_marseille","lat":43.33609,"lon":5.41031,"is_reserved":false,"is_disabled":false,"rental_uris":{"android":"levelo://app?vid=5604b900-2ada-43e3-a7cd-5f8ad1472e30","ios":"levelo://app?vid=5604b900-2ada-43e3-a7cd-5f8ad1472e30"},"vehicle_type_id":"4","last_reported":1758056915,"current_range_meters":12000,"station_id":"ce4bhqh2rcd13ifvqhmg","pricing_plan_id":"cebpf4jnsgd1na2vs0mg"},{"bike_id":"583c2900-00f5-4b70-9599-2842868f2f31","system_id":"levelo_inurba_marseille","lat":43.29508,"lon":5.3904,"is_reserved":false,"is_disabled":false,"rental_uris":{"android":"levelo://app?vid=583c2900-00f5-4b70-9599-2842868f2f31","ios":"levelo://app?vid=583c2900-00f5-4b70-9599-2842868f2f31"},"vehicle_type_id":"4","last_reported":1758056915,"current_range_meters":12000,"station_id":"ce4bh3p2rcd13ifvqdp0","pricing_plan_id":"cebpf4jnsgd1na2vs0mg"},{"bike_id":"ece07351-e21d-4c48-bd8e-d6076d0d6379","system_id":"levelo_inurba_marseille","lat":43.2849,"lon":5.37496,"is_reserved":false,"is_disabled":false,"rental_uris":{"android":"levelo://app?vid=ece07351-e21d-4c48-bd8e-d6076d0d6379","ios":"levelo://app?vid=ece07351-e21d-4c48-bd8e-d6076d0d6379"},"vehicle_type_id":"4","last_reported":1758056915,"current_range_meters":12400,"station_id":"","pricing_plan_id":"cebpf4jnsgd1na2vs0mg"},{"bike_id":"814c412d-594a-4460-96c5-b8b413a8e0e2","system_id":"levelo_inurba_marseille","lat":43.30783,"lon":5.37646,"is_reserved":false,"is_disabled":false,"rental_uris":{"android":"levelo://app?vid=814c412d-594a-4460-96c5-b8b413a8e0e2","ios":"levelo://app?vid=814c412d-594a-4460-96c5-b8b413a8e0e2"},"vehicle_type_id":"4","last_reported":1758056915,"current_range_meters":12400,"station_id":"ce4bgv92rcd13ifvqcq0","pricing_plan_id":"cebpf4jnsgd1na2vs0mg"},{"bike_id":"c4ad9b1c-67e0-470c-9662-d5b3cf07580a","system_id":"levelo_inurba_marseille","lat":43.29515,"lon":5.38543,"is_reserved":false,"is_disabled":false,"rental_uris":{"android":"levelo://app?vid=c4ad9b1c-67e0-470c-9662-d5b3cf07580a","ios":"levelo://app?vid=c4ad9b1c-67e0-470c-9662-d5b3cf07580a"},"vehicle_type_id":"4","last_reported":1758056915,"current_range_meters":12400,"station_id":"ce4bgih2rcd13ifvqba0","pricing_plan_id":"cebpf4jnsgd1na2vs0mg"},{"bike_id":"034ffc90-630a-49f2-982c-234e27cedb9e","system_id":"levelo_inurba_marseille","lat":43.29529,"lon":5.38538,"is_reserved":false,"is_disabled":false,"rental_uris":{"android":"levelo://app?vid=034ffc90-630a-49f2-982c-234e27cedb9e","ios":"levelo://app?vid=034ffc90-630a-49f2-982c-234e27cedb9e"},"vehicle_type_id":"4","last_reported":1758056915,"current_range_meters":12400,"station_id":"ce4bgih2rcd13ifvqba0","pricing_plan_id":"cebpf4jnsgd1na2vs0mg"},{"bike_id":"aac290ee-25e3-4d46-b215-5cd8d9f9f657","system_id":"levelo_inurba_marseille","lat":43.29529,"lon":5.38527,"is_reserved":false,"is_disabled":false,"rental_uris":{"android":"levelo://app?vid=aac290ee-25e3-4d46-b215-5cd8d9f9f657","ios":"levelo://app?vid=aac290ee-25e3-4d46-b215-5cd8d9f9f657"},"vehicle_type_id":"4","last_reported":1758056915,"current_range_meters":12400,"station_id":"ce4bgih2rcd13ifvqba0","pricing_plan_id":"cebpf4jnsgd1na2vs0mg"},{"bike_id":"0e7f7e2e-fba0-497e-bca2-12fa80a7500f","system_id":"levelo_inurba_marseille","lat":43.30178,"lon":5.39821,"is_reserved":false,"is_disabled":false,"rental_uris":{"android":"levelo://app?vid=0e7f7e2e-fba0-497e-bca2-12fa80a7500f","ios":"levelo://app?vid=0e7f7e2e-fba0-497e-bca2-12fa80a7500f"},"vehicle_type_id":"4","last_reported":1758056915,"current_range_meters":12400,"station_id":"","pricing_plan_id":"cebpf4jnsgd1na2vs0mg"},{"bike_id":"bea6d849-bea2-4199-81a6-3d126be6a2e6","system_id":"levelo_inurba_marseille","lat":43.29536,"lon":5.3853,"is_reserved":false,"is_disabled":false,"rental_uris":{"android":"levelo://app?vid=bea6d849-bea2-4199-81a6-3d126be6a2e6","ios":"levelo://app?vid=bea6d849-bea2-4199-81a6-3d126be6a2e6"},"vehicle_type_id":"4","last_reported":1758056915,"current_range_meters":12400,"station_id":"ce4bgih2rcd13ifvqba0","pricing_plan_id":"cebpf4jnsgd1na2vs0mg"},{"bike_id":"a20305c3-1291-4951-91c0-102694e33104","system_id":"levelo_inurba_marseille","lat":43.25826,"lon":5.3942,"is_reserved":false,"is_disabled":false,"rental_uris":{"android":"levelo://app?vid=a20305c3-1291-4951-91c0-102694e33104","ios":"levelo://app?vid=a20305c3-1291-4951-91c0-102694e33104"},"vehicle_type_id":"4","last_reported":1758056915,"current_range_meters":12400,"station_id":"ce4bhip2rcd13ifvqft0","pricing_plan_id":"cebpf4jnsgd1na2vs0mg"},{"bike_id":"d4840bf7-f3f4-4875-b6cb-8fbd85b2aad6","system_id":"levelo_inurba_marseille","lat":43.30247,"lon":5.40083,"is_reserved":false,"is_disabled":false,"rental_uris":{"android":"levelo://app?vid=d4840bf7-f3f4-4875-b6cb-8fbd85b2aad6","ios":"levelo://app?vid=d4840bf7-f3f4-4875-b6cb-8fbd85b2aad6"},"vehicle_type_id":"4","last_reported":1758056915,"current_range_meters":12400,"station_id":"ce4bgvh2rcd13ifvqcs0","pricing_plan_id":"cebpf4jnsgd1na2vs0mg"},{"bike_id":"33402864-f5e0-47e4-8687-c925adfc3d24","system_id":"levelo_inurba_marseille","lat":43.24164,"lon":5.36399,"is_reserved":false,"is_disabled":false,"rental_uris":{"android":"levelo://app?vid=33402864-f5e0-47e4-8687-c925adfc3d24","ios":"levelo://app?vid=33402864-f5e0-47e4-8687-c925adfc3d24"},"vehicle_type_id":"4","last_reported":1758056915,"current_range_meters":12400,"station_id":"cpo36qri1sfpv3e86is0","pricing_plan_id":"cebpf4jnsgd1na2vs0mg"},{"bike_id":"99b1f494-78e2-48ab-b861-45d187280170","system_id":"levelo_inurba_marseille","lat":43.23175,"lon":5.39987,"is_reserved":false,"is_disabled":false,"rental_uris":{"android":"levelo://app?vid=99b1f494-78e2-48ab-b861-45d187280170","ios":"levelo://app?vid=99b1f494-78e2-48ab-b861-45d187280170"},"vehicle_type_id":"4","last_reported":1758056915,"current_range_meters":12800,"station_id":"ce4bhn12rcd13ifvqgqg","pricing_plan_id":"cebpf4jnsgd1na2vs0mg"},{"bike_id":"06707ba8-bbb4-425d-bc1e-4e105f447755","system_id":"levelo_inurba_marseille","lat":43.25073,"lon":5.39532,"is_reserved":false,"is_disabled":false,"rental_uris":{"android":"levelo://app?vid=06707ba8-bbb4-425d-bc1e-4e105f447755","ios":"levelo://app?vid=06707ba8-bbb4-425d-bc1e-4e105f447755"},"vehicle_type_id":"4","last_reported":1758056915,"current_range_meters":12800,"station_id":"ce4bhm12rcd13ifvqgkg","pricing_plan_id":"cebpf4jnsgd1na2vs0mg"},{"bike_id":"4b9f01bc-6bbd-43c9-a5f1-6b904f234f88","system_id":"levelo_inurba_marseille","lat":43.32068,"lon":5.41537,"is_reserved":false,"is_disabled":false,"rental_uris":{"android":"levelo://app?vid=4b9f01bc-6bbd-43c9-a5f1-6b904f234f88","ios":"levelo://app?vid=4b9f01bc-6bbd-43c9-a5f1-6b904f234f88"},"vehicle_type_id":"4","last_reported":1758056915,"current_range_meters":12800,"station_id":"ce4bhq92rcd13ifvqhkg","pricing_plan_id":"cebpf4jnsgd1na2vs0mg"},{"bike_id":"6f3e1b0b-8bcb-49e4-a386-3d051d62764b","system_id":"levelo_inurba_marseille","lat":43.31489,"lon":5.39089,"is_reserved":false,"is_disabled":false,"rental_uris":{"android":"levelo://app?vid=6f3e1b0b-8bcb-49e4-a386-3d051d62764b","ios":"levelo://app?vid=6f3e1b0b-8bcb-49e4-a386-3d051d62764b"},"vehicle_type_id":"4","last_reported":1758056915,"current_range_meters":12800,"station_id":"","pricing_plan_id":"cebpf4jnsgd1na2vs0mg"},{"bike_id":"64b1deee-ef02-45e9-a66a-3e5e20b8d612","system_id":"levelo_inurba_marseille","lat":43.299284,"lon":5.385203,"is_reserved":false,"is_disabled":false,"rental_uris":{"android":"levelo://app?vid=64b1deee-ef02-45e9-a66a-3e5e20b8d612","ios":"levelo://app?vid=64b1deee-ef02-45e9-a66a-3e5e20b8d612"},"vehicle_type_id":"4","last_reported":1758056915,"current_range_meters":12800,"station_id":"ce4bgop2rcd13ifvqc1g","pricing_plan_id":"cebpf4jnsgd1na2vs0mg"},{"bike_id":"ebc774b2-3d65-43cb-99f0-e411d1a8a060","system_id":"levelo_inurba_marseille","lat":43.30253,"lon":5.40049,"is_reserved":false,"is_disabled":false,"rental_uris":{"android":"levelo://app?vid=ebc774b2-3d65-43cb-99f0-e411d1a8a060","ios":"levelo://app?vid=ebc774b2-3d65-43cb-99f0-e411d1a8a060"},"vehicle_type_id":"4","last_reported":1758056915,"current_range_meters":12800,"station_id":"ce4bgvh2rcd13ifvqcs0","pricing_plan_id":"cebpf4jnsgd1na2vs0mg"},{"bike_id":"76e349fa-bc9b-47a4-9c39-43f8ccd1efae","system_id":"levelo_inurba_marseille","lat":43.28051,"lon":5.36951,"is_reserved":false,"is_disabled":true,"rental_uris":{"android":"levelo://app?vid=76e349fa-bc9b-47a4-9c39-43f8ccd1efae","ios":"levelo://app?vid=76e349fa-bc9b-47a4-9c39-43f8ccd1efae"},"vehicle_type_id":"4","last_reported":1758056915,"current_range_meters":12800,"station_id":"ce4bha12rcd13ifvqef0","pricing_plan_id":"cebpf4jnsgd1na2vs0mg"},{"bike_id":"31f511c7-5088-4534-9bd5-9cce0442d874","system_id":"levelo_inurba_marseille","lat":43.25331,"lon":5.42178,"is_reserved":false,"is_disabled":false,"rental_uris":{"android":"levelo://app?vid=31f511c7-5088-4534-9bd5-9cce0442d874","ios":"levelo://app?vid=31f511c7-5088-4534-9bd5-9cce0442d874"},"vehicle_type_id":"4","last_reported":1758056915,"current_range_meters":12800,"station_id":"st_d2m65c5bi1j21697t3ng","pricing_plan_id":"cebpf4jnsgd1na2vs0mg"},{"bike_id":"d0d9776b-f7fb-40d0-bc58-d51cea3dc27c","system_id":"levelo_inurba_marseille","lat":43.28436,"lon":5.395662,"is_reserved":false,"is_disabled":false,"rental_uris":{"android":"levelo://app?vid=d0d9776b-f7fb-40d0-bc58-d51cea3dc27c","ios":"levelo://app?vid=d0d9776b-f7fb-40d0-bc58-d51cea3dc27c"},"vehicle_type_id":"4","last_reported":1758056915,"current_range_meters":12800,"station_id":"ce4bh292rcd13ifvqdg0","pricing_plan_id":"cebpf4jnsgd1na2vs0mg"},{"bike_id":"470b05e2-7b4a-45e6-b88b-ba7c4c5bd1d7","system_id":"levelo_inurba_marseille","lat":43.28411,"lon":5.3752,"is_reserved":false,"is_disabled":false,"rental_uris":{"android":"levelo://app?vid=470b05e2-7b4a-45e6-b88b-ba7c4c5bd1d7","ios":"levelo://app?vid=470b05e2-7b4a-45e6-b88b-ba7c4c5bd1d7"},"vehicle_type_id":"4","last_reported":1758056915,"current_range_meters":12800,"station_id":"ce4bh412rcd13ifvqds0","pricing_plan_id":"cebpf4jnsgd1na2vs0mg"},{"bike_id":"d93a2c0d-1d4c-48ef-81f1-65d5a13e58f0","system_id":"levelo_inurba_marseille","lat":43.273118,"lon":5.391101,"is_reserved":false,"is_disabled":false,"rental_uris":{"android":"levelo://app?vid=d93a2c0d-1d4c-48ef-81f1-65d5a13e58f0","ios":"levelo://app?vid=d93a2c0d-1d4c-48ef-81f1-65d5a13e58f0"},"vehicle_type_id":"4","last_reported":1758056915,"current_range_meters":13600,"station_id":"","pricing_plan_id":"cebpf4jnsgd1na2vs0mg"},{"bike_id":"14debadb-7e1e-4275-a3de-829f1bd2403f","system_id":"levelo_inurba_marseille","lat":43.31051,"lon":5.38348,"is_reserved":false,"is_disabled":true,"rental_uris":{"android":"levelo://app?vid=14debadb-7e1e-4275-a3de-829f1bd2403f","ios":"levelo://app?vid=14debadb-7e1e-4275-a3de-829f1bd2403f"},"vehicle_type_id":"4","last_reported":1758056915,"current_range_meters":13600,"station_id":"ce4bgv92rcd13ifvqcr0","pricing_plan_id":"cebpf4jnsgd1na2vs0mg"},{"bike_id":"56ec33ee-2816-4e06-b9ec-7c2237ee5a0c","system_id":"levelo_inurba_marseille","lat":43.28705,"lon":5.37391,"is_reserved":false,"is_disabled":false,"rental_uris":{"android":"levelo://app?vid=56ec33ee-2816-4e06-b9ec-7c2237ee5a0c","ios":"levelo://app?vid=56ec33ee-2816-4e06-b9ec-7c2237ee5a0c"},"vehicle_type_id":"4","last_reported":1758056915,"current_range_meters":13600,"station_id":"ce4bh3p2rcd13ifvqdq0","pricing_plan_id":"cebpf4jnsgd1na2vs0mg"},{"bike_id":"fa21e73d-c8aa-4f36-8ba1-a3558c27b218","system_id":"levelo_inurba_marseille","lat":43.28418,"lon":5.3753,"is_reserved":false,"is_disabled":false,"rental_uris":{"android":"levelo://app?vid=fa21e73d-c8aa-4f36-8ba1-a3558c27b218","ios":"levelo://app?vid=fa21e73d-c8aa-4f36-8ba1-a3558c27b218"},"vehicle_type_id":"4","last_reported":1758056915,"current_range_meters":13600,"station_id":"ce4bh412rcd13ifvqds0","pricing_plan_id":"cebpf4jnsgd1na2vs0mg"},{"bike_id":"a49fbe9b-abaf-4300-9a30-65ac548c966e","system_id":"levelo_inurba_marseille","lat":43.27173,"lon":5.41004,"is_reserved":false,"is_disabled":false,"rental_uris":{"android":"levelo://app?vid=a49fbe9b-abaf-4300-9a30-65ac548c966e","ios":"levelo://app?vid=a49fbe9b-abaf-4300-9a30-65ac548c966e"},"vehicle_type_id":"4","last_reported":1758056915,"current_range_meters":13600,"station_id":"ce4bhl12rcd13ifvqgf0","pricing_plan_id":"cebpf4jnsgd1na2vs0mg"},{"bike_id":"02b3f03e-bee3-4f33-9cf3-1044467ce1db","system_id":"levelo_inurba_marseille","lat":43.31697,"lon":5.37762,"is_reserved":false,"is_disabled":false,"rental_uris":{"android":"levelo://app?vid=02b3f03e-bee3-4f33-9cf3-1044467ce1db","ios":"levelo://app?vid=02b3f03e-bee3-4f33-9cf3-1044467ce1db"},"vehicle_type_id":"4","last_reported":1758056915,"current_range_meters":13600,"station_id":"ce4bgth2rcd13ifvqch0","pricing_plan_id":"cebpf4jnsgd1na2vs0mg"},{"bike_id":"c8298fe6-8a38-4cbe-8fc1-5b4bd0e2bb06","system_id":"levelo_inurba_marseille","lat":43.22933,"lon":5.35381,"is_reserved":false,"is_disabled":false,"rental_uris":{"android":"levelo://app?vid=c8298fe6-8a38-4cbe-8fc1-5b4bd0e2bb06","ios":"levelo://app?vid=c8298fe6-8a38-4cbe-8fc1-5b4bd0e2bb06"},"vehicle_type_id":"4","last_reported":1758056915,"current_range_meters":13600,"station_id":"cpo3532slgdg3j2ikp40","pricing_plan_id":"cebpf4jnsgd1na2vs0mg"},{"bike_id":"41d60169-96e0-4d91-a133-20ac05fc74ed","system_id":"levelo_inurba_marseille","lat":43.28701,"lon":5.37394,"is_reserved":false,"is_disabled":false,"rental_uris":{"android":"levelo://app?vid=41d60169-96e0-4d91-a133-20ac05fc74ed","ios":"levelo://app?vid=41d60169-96e0-4d91-a133-20ac05fc74ed"},"vehicle_type_id":"4","last_reported":1758056915,"current_range_meters":14000,"station_id":"ce4bh3p2rcd13ifvqdq0","pricing_plan_id":"cebpf4jnsgd1na2vs0mg"},{"bike_id":"5c0b2341-c41a-4f62-9e5f-92e6a593fad9","system_id":"levelo_inurba_marseille","lat":43.33793,"lon":5.37429,"is_reserved":false,"is_disabled":false,"rental_uris":{"android":"levelo://app?vid=5c0b2341-c41a-4f62-9e5f-92e6a593fad9","ios":"levelo://app?vid=5c0b2341-c41a-4f62-9e5f-92e6a593fad9"},"vehicle_type_id":"4","last_reported":1758056915,"current_range_meters":14000,"station_id":"","pricing_plan_id":"cebpf4jnsgd1na2vs0mg"},{"bike_id":"11555ead-152a-4e2f-ac3e-7aaa852c50e5","system_id":"levelo_inurba_marseille","lat":43.225326,"lon":5.348358,"is_reserved":false,"is_disabled":false,"rental_uris":{"android":"levelo://app?vid=11555ead-152a-4e2f-ac3e-7aaa852c50e5","ios":"levelo://app?vid=11555ead-152a-4e2f-ac3e-7aaa852c50e5"},"vehicle_type_id":"4","last_reported":1758056915,"current_range_meters":14000,"station_id":"","pricing_plan_id":"cebpf4jnsgd1na2vs0mg"},{"bike_id":"40495e59-b743-486e-987c-cb0c3ab2f191","system_id":"levelo_inurba_marseille","lat":43.332174,"lon":5.411177,"is_reserved":false,"is_disabled":false,"rental_uris":{"android":"levelo://app?vid=40495e59-b743-486e-987c-cb0c3ab2f191","ios":"levelo://app?vid=40495e59-b743-486e-987c-cb0c3ab2f191"},"vehicle_type_id":"4","last_reported":1758056915,"current_range_meters":14000,"station_id":"","pricing_plan_id":"cebpf4jnsgd1na2vs0mg"},{"bike_id":"dcea72f3-d283-4312-95f5-842667305bd4","system_id":"levelo_inurba_marseille","lat":43.31184,"lon":5.38712,"is_reserved":false,"is_disabled":false,"rental_uris":{"android":"levelo://app?vid=dcea72f3-d283-4312-95f5-842667305bd4","ios":"levelo://app?vid=dcea72f3-d283-4312-95f5-842667305bd4"},"vehicle_type_id":"4","last_reported":1758056915,"current_range_meters":14000,"station_id":"ce4bgv12rcd13ifvqcp0","pricing_plan_id":"cebpf4jnsgd1na2vs0mg"},{"bike_id":"f7b22c37-bd94-4dde-8673-24aeb78b0e6f","system_id":"levelo_inurba_marseille","lat":43.28941,"lon":5.36637,"is_reserved":false,"is_disabled":false,"rental_uris":{"android":"levelo://app?vid=f7b22c37-bd94-4dde-8673-24aeb78b0e6f","ios":"levelo://app?vid=f7b22c37-bd94-4dde-8673-24aeb78b0e6f"},"vehicle_type_id":"4","last_reported":1758056915,"current_range_meters":14000,"station_id":"ce4bhap2rcd13ifvqek0","pricing_plan_id":"cebpf4jnsgd1na2vs0mg"},{"bike_id":"9777702b-31a3-409e-bae4-3d33ac8fe367","system_id":"levelo_inurba_marseille","lat":43.31329,"lon":5.39695,"is_reserved":false,"is_disabled":false,"rental_uris":{"android":"levelo://app?vid=9777702b-31a3-409e-bae4-3d33ac8fe367","ios":"levelo://app?vid=9777702b-31a3-409e-bae4-3d33ac8fe367"},"vehicle_type_id":"4","last_reported":1758056915,"current_range_meters":14400,"station_id":"ce4bgvp2rcd13ifvqcu0","pricing_plan_id":"cebpf4jnsgd1na2vs0mg"},{"bike_id":"003515e8-8117-44bb-979d-5f47e8d50fda","system_id":"levelo_inurba_marseille","lat":43.30616,"lon":5.37578,"is_reserved":false,"is_disabled":false,"rental_uris":{"android":"levelo://app?vid=003515e8-8117-44bb-979d-5f47e8d50fda","ios":"levelo://app?vid=003515e8-8117-44bb-979d-5f47e8d50fda"},"vehicle_type_id":"4","last_reported":1758056915,"current_range_meters":14400,"station_id":"","pricing_plan_id":"cebpf4jnsgd1na2vs0mg"},{"bike_id":"8f4ad0b8-766d-4695-bb86-4d7675cfc837","system_id":"levelo_inurba_marseille","lat":43.24791,"lon":5.37458,"is_reserved":false,"is_disabled":false,"rental_uris":{"android":"levelo://app?vid=8f4ad0b8-766d-4695-bb86-4d7675cfc837","ios":"levelo://app?vid=8f4ad0b8-766d-4695-bb86-4d7675cfc837"},"vehicle_type_id":"4","last_reported":1758056915,"current_range_meters":14400,"station_id":"ce4bhgh2rcd13ifvqfb0","pricing_plan_id":"cebpf4jnsgd1na2vs0mg"},{"bike_id":"eecc616e-303f-48c6-ae28-89666d732403","system_id":"levelo_inurba_marseille","lat":43.32284,"lon":5.38278,"is_reserved":false,"is_disabled":false,"rental_uris":{"android":"levelo://app?vid=eecc616e-303f-48c6-ae28-89666d732403","ios":"levelo://app?vid=eecc616e-303f-48c6-ae28-89666d732403"},"vehicle_type_id":"4","last_reported":1758056915,"current_range_meters":14800,"station_id":"ce4bhr12rcd13ifvqhqg","pricing_plan_id":"cebpf4jnsgd1na2vs0mg"},{"bike_id":"8371b5fc-3e41-4dd0-a0e0-0d00bf368ec2","system_id":"levelo_inurba_marseille","lat":43.24668,"lon":5.38162,"is_reserved":false,"is_disabled":false,"rental_uris":{"android":"levelo://app?vid=8371b5fc-3e41-4dd0-a0e0-0d00bf368ec2","ios":"levelo://app?vid=8371b5fc-3e41-4dd0-a0e0-0d00bf368ec2"},"vehicle_type_id":"4","last_reported":1758056915,"current_range_meters":14800,"station_id":"ce4bhih2rcd13ifvqfr0","pricing_plan_id":"cebpf4jnsgd1na2vs0mg"},{"bike_id":"a774ca43-dc0a-4131-9657-290ecc3ee799","system_id":"levelo_inurba_marseille","lat":43.28717,"lon":5.37947,"is_reserved":false,"is_disabled":false,"rental_uris":{"android":"levelo://app?vid=a774ca43-dc0a-4131-9657-290ecc3ee799","ios":"levelo://app?vid=a774ca43-dc0a-4131-9657-290ecc3ee799"},"vehicle_type_id":"4","last_reported":1758056915,"current_range_meters":14800,"station_id":"ce4bh9p2rcd13ifvqec0","pricing_plan_id":"cebpf4jnsgd1na2vs0mg"},{"bike_id":"96644ae3-2807-4f95-a981-fef4ac2b0e69","system_id":"levelo_inurba_marseille","lat":43.225329,"lon":5.34835,"is_reserved":false,"is_disabled":false,"rental_uris":{"android":"levelo://app?vid=96644ae3-2807-4f95-a981-fef4ac2b0e69","ios":"levelo://app?vid=96644ae3-2807-4f95-a981-fef4ac2b0e69"},"vehicle_type_id":"4","last_reported":1758056915,"current_range_meters":14800,"station_id":"","pricing_plan_id":"cebpf4jnsgd1na2vs0mg"},{"bike_id":"e5cd11ee-c0bd-47bd-b6e3-7277719d31bd","system_id":"levelo_inurba_marseille","lat":43.2791,"lon":5.39583,"is_reserved":false,"is_disabled":false,"rental_uris":{"android":"levelo://app?vid=e5cd11ee-c0bd-47bd-b6e3-7277719d31bd","ios":"levelo://app?vid=e5cd11ee-c0bd-47bd-b6e3-7277719d31bd"},"vehicle_type_id":"4","last_reported":1758056915,"current_range_meters":14800,"station_id":"ce4bhf92rcd13ifvqf40","pricing_plan_id":"cebpf4jnsgd1na2vs0mg"},{"bike_id":"7a2456e9-d21f-41d8-81f5-fe88477f4a89","system_id":"levelo_inurba_marseille","lat":43.284118,"lon":5.375129,"is_reserved":false,"is_disabled":false,"rental_uris":{"android":"levelo://app?vid=7a2456e9-d21f-41d8-81f5-fe88477f4a89","ios":"levelo://app?vid=7a2456e9-d21f-41d8-81f5-fe88477f4a89"},"vehicle_type_id":"4","last_reported":1758056915,"current_range_meters":14800,"station_id":"ce4bh412rcd13ifvqds0","pricing_plan_id":"cebpf4jnsgd1na2vs0mg"},{"bike_id":"35d9a039-4a5e-4708-afff-12e5b8c669aa","system_id":"levelo_inurba_marseille","lat":43.29526,"lon":5.39034,"is_reserved":false,"is_disabled":false,"rental_uris":{"android":"levelo://app?vid=35d9a039-4a5e-4708-afff-12e5b8c669aa","ios":"levelo://app?vid=35d9a039-4a5e-4708-afff-12e5b8c669aa"},"vehicle_type_id":"4","last_reported":1758056915,"current_range_meters":14800,"station_id":"ce4bh3p2rcd13ifvqdp0","pricing_plan_id":"cebpf4jnsgd1na2vs0mg"},{"bike_id":"db715583-f2f2-49d3-989e-2aba86bd4cce","system_id":"levelo_inurba_marseille","lat":43.29517,"lon":5.38537,"is_reserved":false,"is_disabled":false,"rental_uris":{"android":"levelo://app?vid=db715583-f2f2-49d3-989e-2aba86bd4cce","ios":"levelo://app?vid=db715583-f2f2-49d3-989e-2aba86bd4cce"},"vehicle_type_id":"4","last_reported":1758056915,"current_range_meters":14800,"station_id":"ce4bgih2rcd13ifvqba0","pricing_plan_id":"cebpf4jnsgd1na2vs0mg"},{"bike_id":"11fec970-a082-4713-8ae6-55762528a396","system_id":"levelo_inurba_marseille","lat":43.30542,"lon":5.38426,"is_reserved":false,"is_disabled":false,"rental_uris":{"android":"levelo://app?vid=11fec970-a082-4713-8ae6-55762528a396","ios":"levelo://app?vid=11fec970-a082-4713-8ae6-55762528a396"},"vehicle_type_id":"4","last_reported":1758056915,"current_range_meters":15200,"station_id":"ce4bgg92rcd13ifvqb30","pricing_plan_id":"cebpf4jnsgd1na2vs0mg"},{"bike_id":"ca5a1340-d41e-49f3-95f8-599734e0a36c","system_id":"levelo_inurba_marseille","lat":43.225336,"lon":5.348339,"is_reserved":false,"is_disabled":false,"rental_uris":{"android":"levelo://app?vid=ca5a1340-d41e-49f3-95f8-599734e0a36c","ios":"levelo://app?vid=ca5a1340-d41e-49f3-95f8-599734e0a36c"},"vehicle_type_id":"4","last_reported":1758056915,"current_range_meters":15200,"station_id":"","pricing_plan_id":"cebpf4jnsgd1na2vs0mg"},{"bike_id":"c8693833-d262-4229-8325-83d1be72f77d","system_id":"levelo_inurba_marseille","lat":43.30603,"lon":5.37207,"is_reserved":false,"is_disabled":false,"rental_uris":{"android":"levelo://app?vid=c8693833-d262-4229-8325-83d1be72f77d","ios":"levelo://app?vid=c8693833-d262-4229-8325-83d1be72f77d"},"vehicle_type_id":"4","last_reported":1758056915,"current_range_meters":15200,"station_id":"ce4bgqh2rcd13ifvqc4g","pricing_plan_id":"cebpf4jnsgd1na2vs0mg"},{"bike_id":"fcd56ccc-f0ab-49ef-a538-8c498b5ecd49","system_id":"levelo_inurba_marseille","lat":43.22563,"lon":5.41627,"is_reserved":false,"is_disabled":false,"rental_uris":{"android":"levelo://app?vid=fcd56ccc-f0ab-49ef-a538-8c498b5ecd49","ios":"levelo://app?vid=fcd56ccc-f0ab-49ef-a538-8c498b5ecd49"},"vehicle_type_id":"4","last_reported":1758056915,"current_range_meters":15200,"station_id":"st_d2o4gvlbi1j2169b742g","pricing_plan_id":"cebpf4jnsgd1na2vs0mg"},{"bike_id":"fcc75114-c56f-4b22-a04e-9eb1a64cee7f","system_id":"levelo_inurba_marseille","lat":43.30767,"lon":5.37668,"is_reserved":false,"is_disabled":false,"rental_uris":{"android":"levelo://app?vid=fcc75114-c56f-4b22-a04e-9eb1a64cee7f","ios":"levelo://app?vid=fcc75114-c56f-4b22-a04e-9eb1a64cee7f"},"vehicle_type_id":"4","last_reported":1758056915,"current_range_meters":15200,"station_id":"ce4bgv92rcd13ifvqcq0","pricing_plan_id":"cebpf4jnsgd1na2vs0mg"},{"bike_id":"6b7e857c-6b9d-4352-9992-af4324e1890c","system_id":"levelo_inurba_marseille","lat":43.29045,"lon":5.38118,"is_reserved":false,"is_disabled":true,"rental_uris":{"android":"levelo://app?vid=6b7e857c-6b9d-4352-9992-af4324e1890c","ios":"levelo://app?vid=6b7e857c-6b9d-4352-9992-af4324e1890c"},"vehicle_type_id":"4","last_reported":1758056915,"current_range_meters":15200,"station_id":"ce4bh4p2rcd13ifvqe1g","pricing_plan_id":"cebpf4jnsgd1na2vs0mg"},{"bike_id":"58923cd3-b183-4a03-a6dd-02b595904fa4","system_id":"levelo_inurba_marseille","lat":43.31246,"lon":5.40187,"is_reserved":false,"is_disabled":false,"rental_uris":{"android":"levelo://app?vid=58923cd3-b183-4a03-a6dd-02b595904fa4","ios":"levelo://app?vid=58923cd3-b183-4a03-a6dd-02b595904fa4"},"vehicle_type_id":"4","last_reported":1758056915,"current_range_meters":15200,"station_id":"ce4bh092rcd13ifvqd30","pricing_plan_id":"cebpf4jnsgd1na2vs0mg"},{"bike_id":"88a4bc06-6261-4921-890d-d133aa4606a8","system_id":"levelo_inurba_marseille","lat":43.337444,"lon":5.374475,"is_reserved":false,"is_disabled":true,"rental_uris":{"android":"levelo://app?vid=88a4bc06-6261-4921-890d-d133aa4606a8","ios":"levelo://app?vid=88a4bc06-6261-4921-890d-d133aa4606a8"},"vehicle_type_id":"4","last_reported":1758056915,"current_range_meters":16000,"station_id":"","pricing_plan_id":"cebpf4jnsgd1na2vs0mg"},{"bike_id":"e0ba5353-c2a8-456f-aa18-3c4bd31c824c","system_id":"levelo_inurba_marseille","lat":43.29426,"lon":5.39078,"is_reserved":false,"is_disabled":false,"rental_uris":{"android":"levelo://app?vid=e0ba5353-c2a8-456f-aa18-3c4bd31c824c","ios":"levelo://app?vid=e0ba5353-c2a8-456f-aa18-3c4bd31c824c"},"vehicle_type_id":"4","last_reported":1758056915,"current_range_meters":16000,"station_id":"","pricing_plan_id":"cebpf4jnsgd1na2vs0mg"},{"bike_id":"4dcb3416-9642-460f-98ec-671be878aa59","system_id":"levelo_inurba_marseille","lat":43.29519,"lon":5.38514,"is_reserved":false,"is_disabled":false,"rental_uris":{"android":"levelo://app?vid=4dcb3416-9642-460f-98ec-671be878aa59","ios":"levelo://app?vid=4dcb3416-9642-460f-98ec-671be878aa59"},"vehicle_type_id":"4","last_reported":1758056915,"current_range_meters":16000,"station_id":"ce4bgih2rcd13ifvqba0","pricing_plan_id":"cebpf4jnsgd1na2vs0mg"},{"bike_id":"3584c8e9-13a3-4904-91e3-06d644403edd","system_id":"levelo_inurba_marseille","lat":43.31296,"lon":5.36745,"is_reserved":false,"is_disabled":true,"rental_uris":{"android":"levelo://app?vid=3584c8e9-13a3-4904-91e3-06d644403edd","ios":"levelo://app?vid=3584c8e9-13a3-4904-91e3-06d644403edd"},"vehicle_type_id":"4","last_reported":1758056915,"current_range_meters":16000,"station_id":"ce4bgr92rcd13ifvqc6g","pricing_plan_id":"cebpf4jnsgd1na2vs0mg"},{"bike_id":"4cd929d1-6066-4cd3-8aa8-aee89564c9fb","system_id":"levelo_inurba_marseille","lat":43.30418,"lon":5.41292,"is_reserved":false,"is_disabled":false,"rental_uris":{"android":"levelo://app?vid=4cd929d1-6066-4cd3-8aa8-aee89564c9fb","ios":"levelo://app?vid=4cd929d1-6066-4cd3-8aa8-aee89564c9fb"},"vehicle_type_id":"4","last_reported":1758056915,"current_range_meters":16000,"station_id":"ce4bhop2rcd13ifvqh8g","pricing_plan_id":"cebpf4jnsgd1na2vs0mg"},{"bike_id":"741e34ca-cf18-440c-9652-02951968feb1","system_id":"levelo_inurba_marseille","lat":43.25871,"lon":5.39896,"is_reserved":false,"is_disabled":false,"rental_uris":{"android":"levelo://app?vid=741e34ca-cf18-440c-9652-02951968feb1","ios":"levelo://app?vid=741e34ca-cf18-440c-9652-02951968feb1"},"vehicle_type_id":"4","last_reported":1758056915,"current_range_meters":16000,"station_id":"ce4bhl92rcd13ifvqghg","pricing_plan_id":"cebpf4jnsgd1na2vs0mg"},{"bike_id":"a4c5d1da-b728-4a0a-a897-920fb50df0e1","system_id":"levelo_inurba_marseille","lat":43.21199,"lon":5.35069,"is_reserved":false,"is_disabled":false,"rental_uris":{"android":"levelo://app?vid=a4c5d1da-b728-4a0a-a897-920fb50df0e1","ios":"levelo://app?vid=a4c5d1da-b728-4a0a-a897-920fb50df0e1"},"vehicle_type_id":"4","last_reported":1758056915,"current_range_meters":16000,"station_id":"st_cvj6sg6p6f1abm77japg","pricing_plan_id":"cebpf4jnsgd1na2vs0mg"},{"bike_id":"b2b3f118-f930-4549-8d49-265a30e53939","system_id":"levelo_inurba_marseille","lat":43.24162,"lon":5.36398,"is_reserved":false,"is_disabled":false,"rental_uris":{"android":"levelo://app?vid=b2b3f118-f930-4549-8d49-265a30e53939","ios":"levelo://app?vid=b2b3f118-f930-4549-8d49-265a30e53939"},"vehicle_type_id":"4","last_reported":1758056915,"current_range_meters":16000,"station_id":"cpo36qri1sfpv3e86is0","pricing_plan_id":"cebpf4jnsgd1na2vs0mg"},{"bike_id":"42d1264d-17e4-4a37-8fcf-f3d8cdb4a24d","system_id":"levelo_inurba_marseille","lat":43.283404,"lon":5.381036,"is_reserved":false,"is_disabled":false,"rental_uris":{"android":"levelo://app?vid=42d1264d-17e4-4a37-8fcf-f3d8cdb4a24d","ios":"levelo://app?vid=42d1264d-17e4-4a37-8fcf-f3d8cdb4a24d"},"vehicle_type_id":"4","last_reported":1758056915,"current_range_meters":16000,"station_id":"ce4bh412rcd13ifvqdr0","pricing_plan_id":"cebpf4jnsgd1na2vs0mg"},{"bike_id":"d1788760-0706-4b90-8999-db00a9e42210","system_id":"levelo_inurba_marseille","lat":43.32659,"lon":5.41005,"is_reserved":false,"is_disabled":false,"rental_uris":{"android":"levelo://app?vid=d1788760-0706-4b90-8999-db00a9e42210","ios":"levelo://app?vid=d1788760-0706-4b90-8999-db00a9e42210"},"vehicle_type_id":"4","last_reported":1758056915,"current_range_meters":16000,"station_id":"","pricing_plan_id":"cebpf4jnsgd1na2vs0mg"},{"bike_id":"22f0687d-25d3-4094-9c4a-293a61e189a6","system_id":"levelo_inurba_marseille","lat":43.2403,"lon":5.40739,"is_reserved":false,"is_disabled":false,"rental_uris":{"android":"levelo://app?vid=22f0687d-25d3-4094-9c4a-293a61e189a6","ios":"levelo://app?vid=22f0687d-25d3-4094-9c4a-293a61e189a6"},"vehicle_type_id":"4","last_reported":1758056915,"current_range_meters":16000,"station_id":"","pricing_plan_id":"cebpf4jnsgd1na2vs0mg"},{"bike_id":"f132df47-1e50-495c-996d-b73ef7950d2a","system_id":"levelo_inurba_marseille","lat":43.27925,"lon":5.39595,"is_reserved":false,"is_disabled":false,"rental_uris":{"android":"levelo://app?vid=f132df47-1e50-495c-996d-b73ef7950d2a","ios":"levelo://app?vid=f132df47-1e50-495c-996d-b73ef7950d2a"},"vehicle_type_id":"4","last_reported":1758056915,"current_range_meters":16000,"station_id":"ce4bhf92rcd13ifvqf40","pricing_plan_id":"cebpf4jnsgd1na2vs0mg"},{"bike_id":"b1229b94-7b21-4317-9e4a-160c3d5ea042","system_id":"levelo_inurba_marseille","lat":43.29518,"lon":5.38549,"is_reserved":false,"is_disabled":false,"rental_uris":{"android":"levelo://app?vid=b1229b94-7b21-4317-9e4a-160c3d5ea042","ios":"levelo://app?vid=b1229b94-7b21-4317-9e4a-160c3d5ea042"},"vehicle_type_id":"4","last_reported":1758056915,"current_range_meters":16000,"station_id":"ce4bgih2rcd13ifvqba0","pricing_plan_id":"cebpf4jnsgd1na2vs0mg"},{"bike_id":"8526123a-6c04-4d25-91e8-67c9d314bb48","system_id":"levelo_inurba_marseille","lat":43.28855,"lon":5.39322,"is_reserved":false,"is_disabled":false,"rental_uris":{"android":"levelo://app?vid=8526123a-6c04-4d25-91e8-67c9d314bb48","ios":"levelo://app?vid=8526123a-6c04-4d25-91e8-67c9d314bb48"},"vehicle_type_id":"4","last_reported":1758056915,"current_range_meters":16000,"station_id":"ce4bh2p2rcd13ifvqdi0","pricing_plan_id":"cebpf4jnsgd1na2vs0mg"},{"bike_id":"3a5fd520-f5af-4229-9567-206f6f5b7a5f","system_id":"levelo_inurba_marseille","lat":43.23185,"lon":5.39993,"is_reserved":false,"is_disabled":false,"rental_uris":{"android":"levelo://app?vid=3a5fd520-f5af-4229-9567-206f6f5b7a5f","ios":"levelo://app?vid=3a5fd520-f5af-4229-9567-206f6f5b7a5f"},"vehicle_type_id":"4","last_reported":1758056915,"current_range_meters":16400,"station_id":"ce4bhn12rcd13ifvqgqg","pricing_plan_id":"cebpf4jnsgd1na2vs0mg"},{"bike_id":"9efc588f-bf91-4110-8385-808d1412a884","system_id":"levelo_inurba_marseille","lat":43.29776,"lon":5.37923,"is_reserved":false,"is_disabled":false,"rental_uris":{"android":"levelo://app?vid=9efc588f-bf91-4110-8385-808d1412a884","ios":"levelo://app?vid=9efc588f-bf91-4110-8385-808d1412a884"},"vehicle_type_id":"4","last_reported":1758056915,"current_range_meters":16400,"station_id":"","pricing_plan_id":"cebpf4jnsgd1na2vs0mg"},{"bike_id":"4d428ea9-1dcb-4a75-b622-5cb7b20a1dad","system_id":"levelo_inurba_marseille","lat":43.323612,"lon":5.367661,"is_reserved":false,"is_disabled":false,"rental_uris":{"android":"levelo://app?vid=4d428ea9-1dcb-4a75-b622-5cb7b20a1dad","ios":"levelo://app?vid=4d428ea9-1dcb-4a75-b622-5cb7b20a1dad"},"vehicle_type_id":"4","last_reported":1758056915,"current_range_meters":16400,"station_id":"ce4bhsh2rcd13ifvqi2g","pricing_plan_id":"cebpf4jnsgd1na2vs0mg"},{"bike_id":"e663857e-8822-43f7-a04c-44d17fe5c3dc","system_id":"levelo_inurba_marseille","lat":43.29035,"lon":5.39965,"is_reserved":false,"is_disabled":false,"rental_uris":{"android":"levelo://app?vid=e663857e-8822-43f7-a04c-44d17fe5c3dc","ios":"levelo://app?vid=e663857e-8822-43f7-a04c-44d17fe5c3dc"},"vehicle_type_id":"4","last_reported":1758056915,"current_range_meters":16400,"station_id":"ce4bh392rcd13ifvqdm0","pricing_plan_id":"cebpf4jnsgd1na2vs0mg"},{"bike_id":"2a5e641a-ca90-4f3a-9350-63bb94d9cebf","system_id":"levelo_inurba_marseille","lat":43.25561,"lon":5.39187,"is_reserved":false,"is_disabled":false,"rental_uris":{"android":"levelo://app?vid=2a5e641a-ca90-4f3a-9350-63bb94d9cebf","ios":"levelo://app?vid=2a5e641a-ca90-4f3a-9350-63bb94d9cebf"},"vehicle_type_id":"4","last_reported":1758056915,"current_range_meters":16400,"station_id":"","pricing_plan_id":"cebpf4jnsgd1na2vs0mg"},{"bike_id":"775af279-8ac9-4585-9121-809be9b13265","system_id":"levelo_inurba_marseille","lat":43.33808,"lon":5.3744,"is_reserved":false,"is_disabled":false,"rental_uris":{"android":"levelo://app?vid=775af279-8ac9-4585-9121-809be9b13265","ios":"levelo://app?vid=775af279-8ac9-4585-9121-809be9b13265"},"vehicle_type_id":"4","last_reported":1758056915,"current_range_meters":16400,"station_id":"","pricing_plan_id":"cebpf4jnsgd1na2vs0mg"},{"bike_id":"85216316-f842-4482-a09d-fea2462c1636","system_id":"levelo_inurba_marseille","lat":43.295242,"lon":5.385434,"is_reserved":false,"is_disabled":false,"rental_uris":{"android":"levelo://app?vid=85216316-f842-4482-a09d-fea2462c1636","ios":"levelo://app?vid=85216316-f842-4482-a09d-fea2462c1636"},"vehicle_type_id":"4","last_reported":1758056915,"current_range_meters":16400,"station_id":"ce4bgih2rcd13ifvqba0","pricing_plan_id":"cebpf4jnsgd1na2vs0mg"},{"bike_id":"f3519ada-ce52-4441-9e88-a145279a5777","system_id":"levelo_inurba_marseille","lat":43.27963,"lon":5.38729,"is_reserved":false,"is_disabled":false,"rental_uris":{"android":"levelo://app?vid=f3519ada-ce52-4441-9e88-a145279a5777","ios":"levelo://app?vid=f3519ada-ce52-4441-9e88-a145279a5777"},"vehicle_type_id":"4","last_reported":1758056915,"current_range_meters":16400,"station_id":"ce4bhg12rcd13ifvqf80","pricing_plan_id":"cebpf4jnsgd1na2vs0mg"},{"bike_id":"3254dd27-7864-45ac-91ba-0b88fa060b43","system_id":"levelo_inurba_marseille","lat":43.30299,"lon":5.38635,"is_reserved":false,"is_disabled":false,"rental_uris":{"android":"levelo://app?vid=3254dd27-7864-45ac-91ba-0b88fa060b43","ios":"levelo://app?vid=3254dd27-7864-45ac-91ba-0b88fa060b43"},"vehicle_type_id":"4","last_reported":1758056915,"current_range_meters":16800,"station_id":"","pricing_plan_id":"cebpf4jnsgd1na2vs0mg"},{"bike_id":"95649a70-b617-49f9-aed5-156f8e0e9bd8","system_id":"levelo_inurba_marseille","lat":43.29259,"lon":5.38445,"is_reserved":false,"is_disabled":false,"rental_uris":{"android":"levelo://app?vid=95649a70-b617-49f9-aed5-156f8e0e9bd8","ios":"levelo://app?vid=95649a70-b617-49f9-aed5-156f8e0e9bd8"},"vehicle_type_id":"4","last_reported":1758056915,"current_range_meters":16800,"station_id":"ce4bh692rcd13ifvqea0","pricing_plan_id":"cebpf4jnsgd1na2vs0mg"},{"bike_id":"d7ddce7e-f081-4d80-9654-c5fdce117c16","system_id":"levelo_inurba_marseille","lat":43.30605,"lon":5.37224,"is_reserved":false,"is_disabled":false,"rental_uris":{"android":"levelo://app?vid=d7ddce7e-f081-4d80-9654-c5fdce117c16","ios":"levelo://app?vid=d7ddce7e-f081-4d80-9654-c5fdce117c16"},"vehicle_type_id":"4","last_reported":1758056915,"current_range_meters":16800,"station_id":"ce4bgqh2rcd13ifvqc4g","pricing_plan_id":"cebpf4jnsgd1na2vs0mg"},{"bike_id":"a64c546d-4e98-474d-a5d4-6f578e8bf04d","system_id":"levelo_inurba_marseille","lat":43.25817,"lon":5.39427,"is_reserved":false,"is_disabled":false,"rental_uris":{"android":"levelo://app?vid=a64c546d-4e98-474d-a5d4-6f578e8bf04d","ios":"levelo://app?vid=a64c546d-4e98-474d-a5d4-6f578e8bf04d"},"vehicle_type_id":"4","last_reported":1758056915,"current_range_meters":16800,"station_id":"ce4bhip2rcd13ifvqft0","pricing_plan_id":"cebpf4jnsgd1na2vs0mg"},{"bike_id":"5701fe9c-3e98-4b9f-a910-5eb395d4e5d3","system_id":"levelo_inurba_marseille","lat":43.305389,"lon":5.384223,"is_reserved":false,"is_disabled":false,"rental_uris":{"android":"levelo://app?vid=5701fe9c-3e98-4b9f-a910-5eb395d4e5d3","ios":"levelo://app?vid=5701fe9c-3e98-4b9f-a910-5eb395d4e5d3"},"vehicle_type_id":"4","last_reported":1758056915,"current_range_meters":16800,"station_id":"","pricing_plan_id":"cebpf4jnsgd1na2vs0mg"},{"bike_id":"a8111deb-0d5b-4fb0-82dc-93f26e73c0f6","system_id":"levelo_inurba_marseille","lat":43.2792,"lon":5.39585,"is_reserved":false,"is_disabled":true,"rental_uris":{"android":"levelo://app?vid=a8111deb-0d5b-4fb0-82dc-93f26e73c0f6","ios":"levelo://app?vid=a8111deb-0d5b-4fb0-82dc-93f26e73c0f6"},"vehicle_type_id":"4","last_reported":1758056915,"current_range_meters":16800,"station_id":"ce4bhf92rcd13ifvqf40","pricing_plan_id":"cebpf4jnsgd1na2vs0mg"},{"bike_id":"d07fb776-bef7-4fd9-837c-31b64f6cced1","system_id":"levelo_inurba_marseille","lat":43.30591,"lon":5.39356,"is_reserved":false,"is_disabled":false,"rental_uris":{"android":"levelo://app?vid=d07fb776-bef7-4fd9-837c-31b64f6cced1","ios":"levelo://app?vid=d07fb776-bef7-4fd9-837c-31b64f6cced1"},"vehicle_type_id":"4","last_reported":1758056915,"current_range_meters":16400,"station_id":"ce4bh0p2rcd13ifvqd80","pricing_plan_id":"cebpf4jnsgd1na2vs0mg"},{"bike_id":"6a1fd06f-1d9c-42d4-a987-6c6317596f81","system_id":"levelo_inurba_marseille","lat":43.29256,"lon":5.38446,"is_reserved":false,"is_disabled":false,"rental_uris":{"android":"levelo://app?vid=6a1fd06f-1d9c-42d4-a987-6c6317596f81","ios":"levelo://app?vid=6a1fd06f-1d9c-42d4-a987-6c6317596f81"},"vehicle_type_id":"4","last_reported":1758056915,"current_range_meters":16800,"station_id":"ce4bh692rcd13ifvqea0","pricing_plan_id":"cebpf4jnsgd1na2vs0mg"},{"bike_id":"6abe7d63-346f-4f23-9693-5ea03398259f","system_id":"levelo_inurba_marseille","lat":43.3056,"lon":5.39384,"is_reserved":false,"is_disabled":false,"rental_uris":{"android":"levelo://app?vid=6abe7d63-346f-4f23-9693-5ea03398259f","ios":"levelo://app?vid=6abe7d63-346f-4f23-9693-5ea03398259f"},"vehicle_type_id":"4","last_reported":1758056915,"current_range_meters":16800,"station_id":"ce4bh0p2rcd13ifvqd80","pricing_plan_id":"cebpf4jnsgd1na2vs0mg"},{"bike_id":"90cdd731-9fc4-4428-9437-657a9b8f6cc8","system_id":"levelo_inurba_marseille","lat":43.24809,"lon":5.3746,"is_reserved":false,"is_disabled":false,"rental_uris":{"android":"levelo://app?vid=90cdd731-9fc4-4428-9437-657a9b8f6cc8","ios":"levelo://app?vid=90cdd731-9fc4-4428-9437-657a9b8f6cc8"},"vehicle_type_id":"4","last_reported":1758056915,"current_range_meters":17200,"station_id":"ce4bhgh2rcd13ifvqfb0","pricing_plan_id":"cebpf4jnsgd1na2vs0mg"},{"bike_id":"677645c4-53e3-475b-b807-f8f7193fc97f","system_id":"levelo_inurba_marseille","lat":43.29644,"lon":5.37702,"is_reserved":false,"is_disabled":true,"rental_uris":{"android":"levelo://app?vid=677645c4-53e3-475b-b807-f8f7193fc97f","ios":"levelo://app?vid=677645c4-53e3-475b-b807-f8f7193fc97f"},"vehicle_type_id":"4","last_reported":1758056915,"current_range_meters":17200,"station_id":"ce4bgi92rcd13ifvqb90","pricing_plan_id":"cebpf4jnsgd1na2vs0mg"},{"bike_id":"c4706891-6ce1-4440-91ff-a3ecf2ff007e","system_id":"levelo_inurba_marseille","lat":43.24382,"lon":5.37479,"is_reserved":false,"is_disabled":false,"rental_uris":{"android":"levelo://app?vid=c4706891-6ce1-4440-91ff-a3ecf2ff007e","ios":"levelo://app?vid=c4706891-6ce1-4440-91ff-a3ecf2ff007e"},"vehicle_type_id":"4","last_reported":1758056915,"current_range_meters":17200,"station_id":"","pricing_plan_id":"cebpf4jnsgd1na2vs0mg"},{"bike_id":"b3dfe67c-627c-449c-a1af-56f6177a6cba","system_id":"levelo_inurba_marseille","lat":43.29532,"lon":5.38536,"is_reserved":false,"is_disabled":false,"rental_uris":{"android":"levelo://app?vid=b3dfe67c-627c-449c-a1af-56f6177a6cba","ios":"levelo://app?vid=b3dfe67c-627c-449c-a1af-56f6177a6cba"},"vehicle_type_id":"4","last_reported":1758056915,"current_range_meters":17200,"station_id":"ce4bgih2rcd13ifvqba0","pricing_plan_id":"cebpf4jnsgd1na2vs0mg"},{"bike_id":"e76ef879-317f-45ff-b2d9-c6c8304d675f","system_id":"levelo_inurba_marseille","lat":43.22934,"lon":5.35377,"is_reserved":false,"is_disabled":false,"rental_uris":{"android":"levelo://app?vid=e76ef879-317f-45ff-b2d9-c6c8304d675f","ios":"levelo://app?vid=e76ef879-317f-45ff-b2d9-c6c8304d675f"},"vehicle_type_id":"4","last_reported":1758056915,"current_range_meters":17200,"station_id":"cpo3532slgdg3j2ikp40","pricing_plan_id":"cebpf4jnsgd1na2vs0mg"},{"bike_id":"26d32f40-abd9-41e8-ad33-e16c33cbf788","system_id":"levelo_inurba_marseille","lat":43.29954,"lon":5.3776,"is_reserved":false,"is_disabled":false,"rental_uris":{"android":"levelo://app?vid=26d32f40-abd9-41e8-ad33-e16c33cbf788","ios":"levelo://app?vid=26d32f40-abd9-41e8-ad33-e16c33cbf788"},"vehicle_type_id":"4","last_reported":1758056915,"current_range_meters":17200,"station_id":"","pricing_plan_id":"cebpf4jnsgd1na2vs0mg"},{"bike_id":"e6a25b15-a035-4c78-afca-9d2dc17c4a3f","system_id":"levelo_inurba_marseille","lat":43.284243,"lon":5.349851,"is_reserved":false,"is_disabled":true,"rental_uris":{"android":"levelo://app?vid=e6a25b15-a035-4c78-afca-9d2dc17c4a3f","ios":"levelo://app?vid=e6a25b15-a035-4c78-afca-9d2dc17c4a3f"},"vehicle_type_id":"4","last_reported":1758056915,"current_range_meters":17200,"station_id":"ce4bhbh2rcd13ifvqepg","pricing_plan_id":"cebpf4jnsgd1na2vs0mg"},{"bike_id":"e0f03e97-97df-4e81-9ea4-72d4f8d1d340","system_id":"levelo_inurba_marseille","lat":43.29524,"lon":5.38559,"is_reserved":false,"is_disabled":false,"rental_uris":{"android":"levelo://app?vid=e0f03e97-97df-4e81-9ea4-72d4f8d1d340","ios":"levelo://app?vid=e0f03e97-97df-4e81-9ea4-72d4f8d1d340"},"vehicle_type_id":"4","last_reported":1758056915,"current_range_meters":17200,"station_id":"ce4bgih2rcd13ifvqba0","pricing_plan_id":"cebpf4jnsgd1na2vs0mg"},