{"last_updated":1728976130,"ttl":60,"version":"2.2","data":{"bikes":[{"bike_id":"4d2d3838-3e01-49b8-87f8-3557b2c4b106","system_id":"levelo_inurba_marseille","lat":43.3134,"lon":5.3672,"is_reserved":false,"is_disabled":false,"rental_uris":{"android":"levelo://app?vid=4d2d3838-3e01-49b8-87f8-3557b2c4b106","ios":"levelo://app?vid=4d2d3838-3e01-49b8-87f8-3557b2c4b106"},"vehicle_type_id":"4","last_reported":1728976130,"current_range_meters":28000,"station_id":"ce4bgr92rcd13ifvqc6g","pricing_plan_id":"cebpf4jnsgd1na2vs0mg"},{"bike_id":"ac788206-ab8f-4ef0-a827-047740674c33","system_id":"levelo_inurba_marseille","lat":43.30587,"lon":5.38234,"is_reserved":false,"is_disabled":false,"rental_uris":{"android":"levelo://app?vid=ac788206-ab8f-4ef0-a827-047740674c33","ios":"levelo://app?vid=ac788206-ab8f-4ef0-a827-047740674c33"},"vehicle_type_id":"4","last_reported":1728976130,"current_range_meters":21600,"station_id":"","pricing_plan_id":"cebpf4jnsgd1na2vs0mg"},{"bike_id":"0b202908-bde3-48de-9c8a-4b68063a4c5c","system_id":"levelo_inurba_marseille","lat":43.30159,"lon":5.38076,"is_reserved":false,"is_disabled":false,"rental_uris":{"android":"levelo://app?vid=0b202908-bde3-48de-9c8a-4b68063a4c5c","ios":"levelo://app?vid=0b202908-bde3-48de-9c8a-4b68063a4c5c"},"vehicle_type_id":"4","last_reported":1728976130,"current_range_meters":36400,"station_id":"ce4bgjp2rcd13ifvqbh0","pricing_plan_id":"cebpf4jnsgd1na2vs0mg"},{"bike_id":"84ac43a6-c017-462d-9b98-ec41f06dcfea","system_id":"levelo_inurba_marseille","lat":43.30901,"lon":5.36853,"is_reserved":false,"is_disabled":false,"rental_uris":{"android":"levelo://app?vid=84ac43a6-c017-462d-9b98-ec41f06dcfea","ios":"levelo://app?vid=84ac43a6-c017-462d-9b98-ec41f06dcfea"},"vehicle_type_id":"4","last_reported":1728976130,"current_range_meters":22400,"station_id":"ce4bgn92rcd13ifvqbvg","pricing_plan_id":"cebpf4jnsgd1na2vs0mg"},{"bike_id":"a7c802af-e898-4dc8-a916-ee78713afb94","system_id":"levelo_inurba_marseille","lat":43.31353,"lon":5.36709,"is_reserved":false,"is_disabled":false,"rental_uris":{"android":"levelo://app?vid=a7c802af-e898-4dc8-a916-ee78713afb94","ios":"levelo://app?vid=a7c802af-e898-4dc8-a916-ee78713afb94"},"vehicle_type_id":"4","last_reported":1728976130,"current_range_meters":16000,"station_id":"ce4bgr92rcd13ifvqc6g","pricing_plan_id":"cebpf4jnsgd1na2vs0mg"},{"bike_id":"8c5750d0-e17d-4d8f-a561-7ed224271492","system_id":"levelo_inurba_marseille","lat":43.3019,"lon":5.36605,"is_reserved":false,"is_disabled":false,"rental_uris":{"android":"levelo://app?vid=8c5750d0-e17d-4d8f-a561-7ed224271492","ios":"levelo://app?vid=8c5750d0-e17d-4d8f-a561-7ed224271492"},"vehicle_type_id":"4","last_reported":1728976130,"current_range_meters":26800,"station_id":"ce4bgrh2rcd13ifvqc8g","pricing_plan_id":"cebpf4jnsgd1na2vs0mg"},{"bike_id":"48ce605d-1e07-4b01-b69f-0a4259aa341a","system_id":"levelo_inurba_marseille","lat":43.28722,"lon":5.3794,"is_reserved":false,"is_disabled":false,"rental_uris":{"android":"levelo://app?vid=48ce605d-1e07-4b01-b69f-0a4259aa341a","ios":"levelo://app?vid=48ce605d-1e07-4b01-b69f-0a4259aa341a"},"vehicle_type_id":"4","last_reported":1728976130,"current_range_meters":35200,"station_id":"ce4bh9p2rcd13ifvqec0","pricing_plan_id":"cebpf4jnsgd1na2vs0mg"},{"bike_id":"e0df885f-be79-47c0-95d7-f01a17a83bd7","system_id":"levelo_inurba_marseille","lat":43.30902,"lon":5.36847,"is_reserved":false,"is_disabled":false,"rental_uris":{"android":"levelo://app?vid=e0df885f-be79-47c0-95d7-f01a17a83bd7","ios":"levelo://app?vid=e0df885f-be79-47c0-95d7-f01a17a83bd7"},"vehicle_type_id":"4","last_reported":1728976130,"current_range_meters":30800,"station_id":"ce4bgn92rcd13ifvqbvg","pricing_plan_id":"cebpf4jnsgd1na2vs0mg"},{"bike_id":"2e185300-1a35-4ab1-96f9-a33c410e0d90","system_id":"levelo_inurba_marseille","lat":43.30909,"lon":5.36843,"is_reserved":false,"is_disabled":false,"rental_uris":{"android":"levelo://app?vid=2e185300-1a35-4ab1-96f9-a33c410e0d90","ios":"levelo://app?vid=2e185300-1a35-4ab1-96f9-a33c410e0d90"},"vehicle_type_id":"4","last_reported":1728976130,"current_range_meters":22800,"station_id":"ce4bgn92rcd13ifvqbvg","pricing_plan_id":"cebpf4jnsgd1na2vs0mg"},{"bike_id":"1d1a5305-93eb-48bd-aca5-91c26433821c","system_id":"levelo_inurba_marseille","lat":43.30544,"lon":5.36533,"is_reserved":false,"is_disabled":false,"rental_uris":{"android":"levelo://app?vid=1d1a5305-93eb-48bd-aca5-91c26433821c","ios":"levelo://app?vid=1d1a5305-93eb-48bd-aca5-91c26433821c"},"vehicle_type_id":"4","last_reported":1728976130,"current_range_meters":36000,"station_id":"ce4bgs12rcd13ifvqcag","pricing_plan_id":"cebpf4jnsgd1na2vs0mg"},{"bike_id":"1aab628b-6467-4722-8afc-f5f60198bb91","system_id":"levelo_inurba_marseille","lat":43.30543,"lon":5.36539,"is_reserved":false,"is_disabled":false,"rental_uris":{"android":"levelo://app?vid=1aab628b-6467-4722-8afc-f5f60198bb91","ios":"levelo://app?vid=1aab628b-6467-4722-8afc-f5f60198bb91"},"vehicle_type_id":"4","last_reported":1728976130,"current_range_meters":36400,"station_id":"ce4bgs12rcd13ifvqcag","pricing_plan_id":"cebpf4jnsgd1na2vs0mg"},{"bike_id":"329cb0c8-5abe-4f28-8e86-f2f15be47b47","system_id":"levelo_inurba_marseille","lat":43.28158,"lon":5.42647,"is_reserved":false,"is_disabled":false,"rental_uris":{"android":"levelo://app?vid=329cb0c8-5abe-4f28-8e86-f2f15be47b47","ios":"levelo://app?vid=329cb0c8-5abe-4f28-8e86-f2f15be47b47"},"vehicle_type_id":"4","last_reported":1728976130,"current_range_meters":22400,"station_id":"ce4bhnh2rcd13ifvqgug","pricing_plan_id":"cebpf4jnsgd1na2vs0mg"},{"bike_id":"770b4181-5ae9-4e74-aecc-59e1c212b00e","system_id":"levelo_inurba_marseille","lat":43.29845,"lon":5.36277,"is_reserved":false,"is_disabled":false,"rental_uris":{"android":"levelo://app?vid=770b4181-5ae9-4e74-aecc-59e1c212b00e","ios":"levelo://app?vid=770b4181-5ae9-4e74-aecc-59e1c212b00e"},"vehicle_type_id":"4","last_reported":1728976130,"current_range_meters":35200,"station_id":"ce4bgpp2rcd13ifvqc3g","pricing_plan_id":"cebpf4jnsgd1na2vs0mg"},{"bike_id":"d3c3b09c-2d13-4198-8657-d009008ec09d","system_id":"levelo_inurba_marseille","lat":43.32539,"lon":5.41432,"is_reserved":false,"is_disabled":false,"rental_uris":{"android":"levelo://app?vid=d3c3b09c-2d13-4198-8657-d009008ec09d","ios":"levelo://app?vid=d3c3b09c-2d13-4198-8657-d009008ec09d"},"vehicle_type_id":"4","last_reported":1728976130,"current_range_meters":36800,"station_id":"ce4bhq12rcd13ifvqhhg","pricing_plan_id":"cebpf4jnsgd1na2vs0mg"},{"bike_id":"215fa79c-071b-4a30-bd69-7309d6b4819a","system_id":"levelo_inurba_marseille","lat":43.27809,"lon":5.4071,"is_reserved":false,"is_disabled":false,"rental_uris":{"android":"levelo://app?vid=215fa79c-071b-4a30-bd69-7309d6b4819a","ios":"levelo://app?vid=215fa79c-071b-4a30-bd69-7309d6b4819a"},"vehicle_type_id":"4","last_reported":1728976130,"current_range_meters":16000,"station_id":"ce4bhnh2rcd13ifvqgtg","pricing_plan_id":"cebpf4jnsgd1na2vs0mg"},{"bike_id":"d935289a-499e-453d-8ee7-4dfbe4c0baf9","system_id":"levelo_inurba_marseille","lat":43.31757,"lon":5.39015,"is_reserved":false,"is_disabled":false,"rental_uris":{"android":"levelo://app?vid=d935289a-499e-453d-8ee7-4dfbe4c0baf9","ios":"levelo://app?vid=d935289a-499e-453d-8ee7-4dfbe4c0baf9"},"vehicle_type_id":"4","last_reported":1728976130,"current_range_meters":23200,"station_id":"ce4bhqp2rcd13ifvqhng","pricing_plan_id":"cebpf4jnsgd1na2vs0mg"},{"bike_id":"b63c1331-34a5-4e4a-8381-45817d02b12b","system_id":"levelo_inurba_marseille","lat":43.24072,"lon":5.37761,"is_reserved":false,"is_disabled":false,"rental_uris":{"android":"levelo://app?vid=b63c1331-34a5-4e4a-8381-45817d02b12b","ios":"levelo://app?vid=b63c1331-34a5-4e4a-8381-45817d02b12b"},"vehicle_type_id":"4","last_reported":1728976130,"current_range_meters":26800,"station_id":"ce4bhnp2rcd13ifvqgvg","pricing_plan_id":"cebpf4jnsgd1na2vs0mg"},{"bike_id":"1c9343e4-7b78-402e-b1fe-6599c269887e","system_id":"levelo_inurba_marseille","lat":43.314515,"lon":5.37384,"is_reserved":false,"is_disabled":false,"rental_uris":{"android":"levelo://app?vid=1c9343e4-7b78-402e-b1fe-6599c269887e","ios":"levelo://app?vid=1c9343e4-7b78-402e-b1fe-6599c269887e"},"vehicle_type_id":"4","last_reported":1728976130,"current_range_meters":24400,"station_id":"","pricing_plan_id":"cebpf4jnsgd1na2vs0mg"},{"bike_id":"219c8012-7a38-4be5-a341-0af90cfd6d36","system_id":"levelo_inurba_marseille","lat":43.26563,"lon":5.3901,"is_reserved":false,"is_disabled":false,"rental_uris":{"android":"levelo://app?vid=219c8012-7a38-4be5-a341-0af90cfd6d36","ios":"levelo://app?vid=219c8012-7a38-4be5-a341-0af90cfd6d36"},"vehicle_type_id":"4","last_reported":1728976130,"current_range_meters":33200,"station_id":"ce4bhe12rcd13ifvqf30","pricing_plan_id":"cebpf4jnsgd1na2vs0mg"},{"bike_id":"fd27e7bc-22d3-4ec2-8fc4-8274a100e702","system_id":"levelo_inurba_marseille","lat":43.30152,"lon":5.38074,"is_reserved":false,"is_disabled":false,"rental_uris":{"android":"levelo://app?vid=fd27e7bc-22d3-4ec2-8fc4-8274a100e702","ios":"levelo://app?vid=fd27e7bc-22d3-4ec2-8fc4-8274a100e702"},"vehicle_type_id":"4","last_reported":1728976130,"current_range_meters":32000,"station_id":"ce4bgjp2rcd13ifvqbh0","pricing_plan_id":"cebpf4jnsgd1na2vs0mg"},{"bike_id":"3dc61f36-ff10-403f-944b-20c508192708","system_id":"levelo_inurba_marseille","lat":43.3054,"lon":5.36558,"is_reserved":false,"is_disabled":false,"rental_uris":{"android":"levelo://app?vid=3dc61f36-ff10-403f-944b-20c508192708","ios":"levelo://app?vid=3dc61f36-ff10-403f-944b-20c508192708"},"vehicle_type_id":"4","last_reported":1728976130,"current_range_meters":18800,"station_id":"ce4bgs12rcd13ifvqcag","pricing_plan_id":"cebpf4jnsgd1na2vs0mg"},{"bike_id":"01278a9e-9df9-414f-9298-8fc23308687f","system_id":"levelo_inurba_marseille","lat":43.30916,"lon":5.36857,"is_reserved":false,"is_disabled":false,"rental_uris":{"android":"levelo://app?vid=01278a9e-9df9-414f-9298-8fc23308687f","ios":"levelo://app?vid=01278a9e-9df9-414f-9298-8fc23308687f"},"vehicle_type_id":"4","last_reported":1728976130,"current_range_meters":39200,"station_id":"ce4bgn92rcd13ifvqbvg","pricing_plan_id":"cebpf4jnsgd1na2vs0mg"},{"bike_id":"f9c6f96e-6cf6-4d93-9c67-60886b1ee015","system_id":"levelo_inurba_marseille","lat":43.30909,"lon":5.36849,"is_reserved":false,"is_disabled":false,"rental_uris":{"android":"levelo://app?vid=f9c6f96e-6cf6-4d93-9c67-60886b1ee015","ios":"levelo://app?vid=f9c6f96e-6cf6-4d93-9c67-60886b1ee015"},"vehicle_type_id":"4","last_reported":1728976130,"current_range_meters":39200,"station_id":"ce4bgn92rcd13ifvqbvg","pricing_plan_id":"cebpf4jnsgd1na2vs0mg"},{"bike_id":"028fce04-55e9-4ec3-b4a5-1b566b48b26b","system_id":"levelo_inurba_marseille","lat":43.3254,"lon":5.4145,"is_reserved":false,"is_disabled":false,"rental_uris":{"android":"levelo://app?vid=028fce04-55e9-4ec3-b4a5-1b566b48b26b","ios":"levelo://app?vid=028fce04-55e9-4ec3-b4a5-1b566b48b26b"},"vehicle_type_id":"4","last_reported":1728976130,"current_range_meters":23200,"station_id":"ce4bhq12rcd13ifvqhhg","pricing_plan_id":"cebpf4jnsgd1na2vs0mg"},{"bike_id":"05a48c1f-8542-4604-801f-8bcad6213878","system_id":"levelo_inurba_marseille","lat":43.34147,"lon":5.40903,"is_reserved":false,"is_disabled":false,"rental_uris":{"android":"levelo://app?vid=05a48c1f-8542-4604-801f-8bcad6213878","ios":"levelo://app?vid=05a48c1f-8542-4604-801f-8bcad6213878"},"vehicle_type_id":"4","last_reported":1728976130,"current_range_meters":17200,"station_id":"ce4bhqh2rcd13ifvqhlg","pricing_plan_id":"cebpf4jnsgd1na2vs0mg"},{"bike_id":"c1a1afd4-50c7-4a88-a370-43899b911066","system_id":"levelo_inurba_marseille","lat":43.32536,"lon":5.41448,"is_reserved":false,"is_disabled":false,"rental_uris":{"android":"levelo://app?vid=c1a1afd4-50c7-4a88-a370-43899b911066","ios":"levelo://app?vid=c1a1afd4-50c7-4a88-a370-43899b911066"},"vehicle_type_id":"4","last_reported":1728976130,"current_range_meters":4000,"station_id":"ce4bhq12rcd13ifvqhhg","pricing_plan_id":"cebpf4jnsgd1na2vs0mg"},{"bike_id":"31d120bf-8cc6-45ef-b3e1-50f1d4517b6b","system_id":"levelo_inurba_marseille","lat":43.30543,"lon":5.36699,"is_reserved":false,"is_disabled":false,"rental_uris":{"android":"levelo://app?vid=31d120bf-8cc6-45ef-b3e1-50f1d4517b6b","ios":"levelo://app?vid=31d120bf-8cc6-45ef-b3e1-50f1d4517b6b"},"vehicle_type_id":"4","last_reported":1728976130,"current_range_meters":19200,"station_id":"ce4bgrp2rcd13ifvqc9g","pricing_plan_id":"cebpf4jnsgd1na2vs0mg"},{"bike_id":"236eac17-f8e0-4e4a-bc15-bde91f02d950","system_id":"levelo_inurba_marseille","lat":43.33606,"lon":5.41024,"is_reserved":false,"is_disabled":false,"rental_uris":{"android":"levelo://app?vid=236eac17-f8e0-4e4a-bc15-bde91f02d950","ios":"levelo://app?vid=236eac17-f8e0-4e4a-bc15-bde91f02d950"},"vehicle_type_id":"4","last_reported":1728976130,"current_range_meters":27200,"station_id":"ce4bhqh2rcd13ifvqhmg","pricing_plan_id":"cebpf4jnsgd1na2vs0mg"},{"bike_id":"6463b211-00be-479e-88b7-7e1d42700d9a","system_id":"levelo_inurba_marseille","lat":43.30107,"lon":5.38814,"is_reserved":false,"is_disabled":false,"rental_uris":{"android":"levelo://app?vid=6463b211-00be-479e-88b7-7e1d42700d9a","ios":"levelo://app?vid=6463b211-00be-479e-88b7-7e1d42700d9a"},"vehicle_type_id":"4","last_reported":1728976130,"current_range_meters":25600,"station_id":"ce4bgup2rcd13ifvqco0","pricing_plan_id":"cebpf4jnsgd1na2vs0mg"},{"bike_id":"89198ecf-9ad5-429c-84dc-a279ee6e8f88","system_id":"levelo_inurba_marseille","lat":43.33736,"lon":5.37437,"is_reserved":false,"is_disabled":false,"rental_uris":{"android":"levelo://app?vid=89198ecf-9ad5-429c-84dc-a279ee6e8f88","ios":"levelo://app?vid=89198ecf-9ad5-429c-84dc-a279ee6e8f88"},"vehicle_type_id":"4","last_reported":1728976130,"current_range_meters":38000,"station_id":"","pricing_plan_id":"cebpf4jnsgd1na2vs0mg"},{"bike_id":"8fdd4147-e848-49f0-9c54-870bdb6cb1f5","system_id":"levelo_inurba_marseille","lat":43.33608,"lon":5.41027,"is_reserved":false,"is_disabled":false,"rental_uris":{"android":"levelo://app?vid=8fdd4147-e848-49f0-9c54-870bdb6cb1f5","ios":"levelo://app?vid=8fdd4147-e848-49f0-9c54-870bdb6cb1f5"},"vehicle_type_id":"4","last_reported":1728976130,"current_range_meters":36400,"station_id":"ce4bhqh2rcd13ifvqhmg","pricing_plan_id":"cebpf4jnsgd1na2vs0mg"},{"bike_id":"16108f92-6bb6-4625-8e86-043bb5e3efc3","system_id":"levelo_inurba_marseille","lat":43.33603,"lon":5.41017,"is_reserved":false,"is_disabled":false,"rental_uris":{"android":"levelo://app?vid=16108f92-6bb6-4625-8e86-043bb5e3efc3","ios":"levelo://app?vid=16108f92-6bb6-4625-8e86-043bb5e3efc3"},"vehicle_type_id":"4","last_reported":1728976130,"current_range_meters":39200,"station_id":"ce4bhqh2rcd13ifvqhmg","pricing_plan_id":"cebpf4jnsgd1na2vs0mg"},{"bike_id":"70d8c5a0-0514-401e-bb3f-6278d2b10405","system_id":"levelo_inurba_marseille","lat":43.26951,"lon":5.38634,"is_reserved":false,"is_disabled":false,"rental_uris":{"android":"levelo://app?vid=70d8c5a0-0514-401e-bb3f-6278d2b10405","ios":"levelo://app?vid=70d8c5a0-0514-401e-bb3f-6278d2b10405"},"vehicle_type_id":"4","last_reported":1728976130,"current_range_meters":38400,"station_id":"ce4bhh92rcd13ifvqfh0","pricing_plan_id":"cebpf4jnsgd1na2vs0mg"},{"bike_id":"cd28b1e0-8b21-4912-b14b-d40db8c70d20","system_id":"levelo_inurba_marseille","lat":43.30948,"lon":5.39037,"is_reserved":false,"is_disabled":false,"rental_uris":{"android":"levelo://app?vid=cd28b1e0-8b21-4912-b14b-d40db8c70d20","ios":"levelo://app?vid=cd28b1e0-8b21-4912-b14b-d40db8c70d20"},"vehicle_type_id":"4","last_reported":1728976130,"current_range_meters":33600,"station_id":"ce4bgup2rcd13ifvqco0","pricing_plan_id":"cebpf4jnsgd1na2vs0mg"},{"bike_id":"64388686-e6ba-4fb7-a4ba-5da8090b89dc","system_id":"levelo_inurba_marseille","lat":43.32341,"lon":5.40612,"is_reserved":false,"is_disabled":false,"rental_uris":{"android":"levelo://app?vid=64388686-e6ba-4fb7-a4ba-5da8090b89dc","ios":"levelo://app?vid=64388686-e6ba-4fb7-a4ba-5da8090b89dc"},"vehicle_type_id":"4","last_reported":1728976130,"current_range_meters":31200,"station_id":"ce4bhq92rcd13ifvqhjg","pricing_plan_id":"cebpf4jnsgd1na2vs0mg"},{"bike_id":"27521189-a10b-488a-82b8-973812fa95e1","system_id":"levelo_inurba_marseille","lat":43.3247,"lon":5.36567,"is_reserved":false,"is_disabled":false,"rental_uris":{"android":"levelo://app?vid=27521189-a10b-488a-82b8-973812fa95e1","ios":"levelo://app?vid=27521189-a10b-488a-82b8-973812fa95e1"},"vehicle_type_id":"4","last_reported":1728976130,"current_range_meters":36800,"station_id":"ce4bhs12rcd13ifvqhvg","pricing_plan_id":"cebpf4jnsgd1na2vs0mg"},{"bike_id":"0bd3b395-cc5f-4af8-86e7-da1a96fefdaa","system_id":"levelo_inurba_marseille","lat":43.32536,"lon":5.41445,"is_reserved":false,"is_disabled":false,"rental_uris":{"android":"levelo://app?vid=0bd3b395-cc5f-4af8-86e7-da1a96fefdaa","ios":"levelo://app?vid=0bd3b395-cc5f-4af8-86e7-da1a96fefdaa"},"vehicle_type_id":"4","last_reported":1728976130,"current_range_meters":19200,"station_id":"ce4bhq12rcd13ifvqhhg","pricing_plan_id":"cebpf4jnsgd1na2vs0mg"},{"bike_id":"4958bc6b-0611-407c-bfea-b8509e93da6b","system_id":"levelo_inurba_marseille","lat":43.26678,"lon":5.38265,"is_reserved":false,"is_disabled":false,"rental_uris":{"android":"levelo://app?vid=4958bc6b-0611-407c-bfea-b8509e93da6b","ios":"levelo://app?vid=4958bc6b-0611-407c-bfea-b8509e93da6b"},"vehicle_type_id":"4","last_reported":1728976130,"current_range_meters":18800,"station_id":"ce4bhg92rcd13ifvqf90","pricing_plan_id":"cebpf4jnsgd1na2vs0mg"},{"bike_id":"c80bffdd-5af6-417a-8b44-520a51e21254","system_id":"levelo_inurba_marseille","lat":43.3054,"lon":5.36563,"is_reserved":false,"is_disabled":false,"rental_uris":{"android":"levelo://app?vid=c80bffdd-5af6-417a-8b44-520a51e21254","ios":"levelo://app?vid=c80bffdd-5af6-417a-8b44-520a51e21254"},"vehicle_type_id":"4","last_reported":1728976130,"current_range_meters":11200,"station_id":"ce4bgs12rcd13ifvqcag","pricing_plan_id":"cebpf4jnsgd1na2vs0mg"},{"bike_id":"b6a30bfb-0d8f-4daf-89ad-facebd186d7d","system_id":"levelo_inurba_marseille","lat":43.24071,"lon":5.37763,"is_reserved":false,"is_disabled":false,"rental_uris":{"android":"levelo://app?vid=b6a30bfb-0d8f-4daf-89ad-facebd186d7d","ios":"levelo://app?vid=b6a30bfb-0d8f-4daf-89ad-facebd186d7d"},"vehicle_type_id":"4","last_reported":1728976130,"current_range_meters":35600,"station_id":"ce4bhnp2rcd13ifvqgvg","pricing_plan_id":"cebpf4jnsgd1na2vs0mg"},{"bike_id":"6b6e9f0c-a8b1-4576-ba5b-74d070b7a7e7","system_id":"levelo_inurba_marseille","lat":43.2732,"lon":5.39084,"is_reserved":false,"is_disabled":false,"rental_uris":{"android":"levelo://app?vid=6b6e9f0c-a8b1-4576-ba5b-74d070b7a7e7","ios":"levelo://app?vid=6b6e9f0c-a8b1-4576-ba5b-74d070b7a7e7"},"vehicle_type_id":"4","last_reported":1728976130,"current_range_meters":10000,"station_id":"ce4bhgp2rcd13ifvqfe0","pricing_plan_id":"cebpf4jnsgd1na2vs0mg"},{"bike_id":"7c9c0bec-f708-4cc2-b646-c610e7422c78","system_id":"levelo_inurba_marseille","lat":43.31894,"lon":5.40734,"is_reserved":false,"is_disabled":false,"rental_uris":{"android":"levelo://app?vid=7c9c0bec-f708-4cc2-b646-c610e7422c78","ios":"levelo://app?vid=7c9c0bec-f708-4cc2-b646-c610e7422c78"},"vehicle_type_id":"4","last_reported":1728976130,"current_range_meters":11200,"station_id":"ce4bhq12rcd13ifvqhig","pricing_plan_id":"cebpf4jnsgd1na2vs0mg"},{"bike_id":"f5391e51-9469-4799-828e-01c0e62dd359","system_id":"levelo_inurba_marseille","lat":43.30908,"lon":5.3685,"is_reserved":false,"is_disabled":false,"rental_uris":{"android":"levelo://app?vid=f5391e51-9469-4799-828e-01c0e62dd359","ios":"levelo://app?vid=f5391e51-9469-4799-828e-01c0e62dd359"},"vehicle_type_id":"4","last_reported":1728976130,"current_range_meters":32800,"station_id":"ce4bgn92rcd13ifvqbvg","pricing_plan_id":"cebpf4jnsgd1na2vs0mg"},{"bike_id":"79d22428-e2ae-4ce6-8f77-2cb2cdb6b054","system_id":"levelo_inurba_marseille","lat":43.26954,"lon":5.38632,"is_reserved":false,"is_disabled":false,"rental_uris":{"android":"levelo://app?vid=79d22428-e2ae-4ce6-8f77-2cb2cdb6b054","ios":"levelo://app?vid=79d22428-e2ae-4ce6-8f77-2cb2cdb6b054"},"vehicle_type_id":"4","last_reported":1728976130,"current_range_meters":38800,"station_id":"ce4bhh92rcd13ifvqfh0","pricing_plan_id":"cebpf4jnsgd1na2vs0mg"},{"bike_id":"5a21f166-c886-4c2b-8cdc-2f284466828d","system_id":"levelo_inurba_marseille","lat":43.27362,"lon":5.42404,"is_reserved":false,"is_disabled":false,"rental_uris":{"android":"levelo://app?vid=5a21f166-c886-4c2b-8cdc-2f284466828d","ios":"levelo://app?vid=5a21f166-c886-4c2b-8cdc-2f284466828d"},"vehicle_type_id":"4","last_reported":1728976130,"current_range_meters":32400,"station_id":"","pricing_plan_id":"cebpf4jnsgd1na2vs0mg"},{"bike_id":"995213a4-b0e8-4737-b0b6-5f59e564978e","system_id":"levelo_inurba_marseille","lat":43.33604,"lon":5.41022,"is_reserved":false,"is_disabled":false,"rental_uris":{"android":"levelo://app?vid=995213a4-b0e8-4737-b0b6-5f59e564978e","ios":"levelo://app?vid=995213a4-b0e8-4737-b0b6-5f59e564978e"},"vehicle_type_id":"4","last_reported":1728976130,"current_range_meters":8000,"station_id":"ce4bhqh2rcd13ifvqhmg","pricing_plan_id":"cebpf4jnsgd1na2vs0mg"},{"bike_id":"b178b062-35cd-4f92-91db-f4ae171fe0ea","system_id":"levelo_inurba_marseille","lat":43.292851,"lon":5.368404,"is_reserved":false,"is_disabled":false,"rental_uris":{"android":"levelo://app?vid=b178b062-35cd-4f92-91db-f4ae171fe0ea","ios":"levelo://app?vid=b178b062-35cd-4f92-91db-f4ae171fe0ea"},"vehicle_type_id":"4","last_reported":1728976130,"current_range_meters":11200,"station_id":"","pricing_plan_id":"cebpf4jnsgd1na2vs0mg"},{"bike_id":"4e07868a-d68e-497f-a19c-e5a2e95c71ff","system_id":"levelo_inurba_marseille","lat":43.30553,"lon":5.36711,"is_reserved":false,"is_disabled":false,"rental_uris":{"android":"levelo://app?vid=4e07868a-d68e-497f-a19c-e5a2e95c71ff","ios":"levelo://app?vid=4e07868a-d68e-497f-a19c-e5a2e95c71ff"},"vehicle_type_id":"4","last_reported":1728976130,"current_range_meters":7200,"station_id":"ce4bgrp2rcd13ifvqc9g","pricing_plan_id":"cebpf4jnsgd1na2vs0mg"},{"bike_id":"9608ff6b-d6d3-475c-8e87-168884443bd8","system_id":"levelo_inurba_marseille","lat":43.31648,"lon":5.365004,"is_reserved":false,"is_disabled":false,"rental_uris":{"android":"levelo://app?vid=9608ff6b-d6d3-475c-8e87-168884443bd8","ios":"levelo://app?vid=9608ff6b-d6d3-475c-8e87-168884443bd8"},"vehicle_type_id":"4","last_reported":1728976130,"current_range_meters":6400,"station_id":"ce4bgr92rcd13ifvqc6g","pricing_plan_id":"cebpf4jnsgd1na2vs0mg"},{"bike_id":"c8ad7eb2-0442-481d-a558-0ab6112c75fd","system_id":"levelo_inurba_marseille","lat":43.26685,"lon":5.38273,"is_reserved":false,"is_disabled":false,"rental_uris":{"android":"levelo://app?vid=c8ad7eb2-0442-481d-a558-0ab6112c75fd","ios":"levelo://app?vid=c8ad7eb2-0442-481d-a558-0ab6112c75fd"},"vehicle_type_id":"4","last_reported":1728976130,"current_range_meters":28000,"station_id":"ce4bhg92rcd13ifvqf90","pricing_plan_id":"cebpf4jnsgd1na2vs0mg"},{"bike_id":"c0670d96-b06e-446b-a07e-6b5eeebc59d7","system_id":"levelo_inurba_marseille","lat":43.274948,"lon":5.424466,"is_reserved":false,"is_disabled":false,"rental_uris":{"android":"levelo://app?vid=c0670d96-b06e-446b-a07e-6b5eeebc59d7","ios":"levelo://app?vid=c0670d96-b06e-446b-a07e-6b5eeebc59d7"},"vehicle_type_id":"4","last_reported":1728976130,"current_range_meters":13600,"station_id":"ce4bhn92rcd13ifvqgrg","pricing_plan_id":"cebpf4jnsgd1na2vs0mg"},{"bike_id":"485372db-c927-43ac-8631-871bcbd82cc0","system_id":"levelo_inurba_marseille","lat":43.2407,"lon":5.37765,"is_reserved":false,"is_disabled":false,"rental_uris":{"android":"levelo://app?vid=485372db-c927-43ac-8631-871bcbd82cc0","ios":"levelo://app?vid=485372db-c927-43ac-8631-871bcbd82cc0"},"vehicle_type_id":"4","last_reported":1728976130,"current_range_meters":12800,"station_id":"ce4bhnp2rcd13ifvqgvg","pricing_plan_id":"cebpf4jnsgd1na2vs0mg"},{"bike_id":"e90a9e82-771b-44fd-b815-fb34b11e990c","system_id":"levelo_inurba_marseille","lat":43.23152,"lon":5.43719,"is_reserved":false,"is_disabled":false,"rental_uris":{"android":"levelo://app?vid=e90a9e82-771b-44fd-b815-fb34b11e990c","ios":"levelo://app?vid=e90a9e82-771b-44fd-b815-fb34b11e990c"},"vehicle_type_id":"4","last_reported":1728976130,"current_range_meters":32800,"station_id":"ce4bhmp2rcd13ifvqgog","pricing_plan_id":"cebpf4jnsgd1na2vs0mg"},{"bike_id":"a0d3d324-fa7e-4417-aee7-85012ecab44e","system_id":"levelo_inurba_marseille","lat":43.3422,"lon":5.44544,"is_reserved":false,"is_disabled":false,"rental_uris":{"android":"levelo://app?vid=a0d3d324-fa7e-4417-aee7-85012ecab44e","ios":"levelo://app?vid=a0d3d324-fa7e-4417-aee7-85012ecab44e"},"vehicle_type_id":"4","last_reported":1728976130,"current_range_meters":24800,"station_id":"","pricing_plan_id":"cebpf4jnsgd1na2vs0mg"},{"bike_id":"724c8533-6c2a-4d58-9645-9dc7cc8cde49","system_id":"levelo_inurba_marseille","lat":43.27183,"lon":5.40993,"is_reserved":false,"is_disabled":false,"rental_uris":{"android":"levelo://app?vid=724c8533-6c2a-4d58-9645-9dc7cc8cde49","ios":"levelo://app?vid=724c8533-6c2a-4d58-9645-9dc7cc8cde49"},"vehicle_type_id":"4","last_reported":1728976130,"current_range_meters":38400,"station_id":"ce4bhl12rcd13ifvqgf0","pricing_plan_id":"cebpf4jnsgd1na2vs0mg"},{"bike_id":"e857dc67-7178-40ce-b4c7-c51d9c28d7e0","system_id":"levelo_inurba_marseille","lat":43.30592,"lon":5.372327,"is_reserved":false,"is_disabled":false,"rental_uris":{"android":"levelo://app?vid=e857dc67-7178-40ce-b4c7-c51d9c28d7e0","ios":"levelo://app?vid=e857dc67-7178-40ce-b4c7-c51d9c28d7e0"},"vehicle_type_id":"4","last_reported":1728976130,"current_range_meters":28000,"station_id":"ce4bgqh2rcd13ifvqc4g","pricing_plan_id":"cebpf4jnsgd1na2vs0mg"},{"bike_id":"9aa94fbb-4cc3-476b-bdbe-380bbae2b7ad","system_id":"levelo_inurba_marseille","lat":43.30153,"lon":5.38075,"is_reserved":false,"is_disabled":false,"rental_uris":{"android":"levelo://app?vid=9aa94fbb-4cc3-476b-bdbe-380bbae2b7ad","ios":"levelo://app?vid=9aa94fbb-4cc3-476b-bdbe-380bbae2b7ad"},"vehicle_type_id":"4","last_reported":1728976130,"current_range_meters":34000,"station_id":"ce4bgjp2rcd13ifvqbh0","pricing_plan_id":"cebpf4jnsgd1na2vs0mg"},{"bike_id":"0f231146-27df-4f00-9027-32244e4eeb81","system_id":"levelo_inurba_marseille","lat":43.29583,"lon":5.40025,"is_reserved":false,"is_disabled":false,"rental_uris":{"android":"levelo://app?vid=0f231146-27df-4f00-9027-32244e4eeb81","ios":"levelo://app?vid=0f231146-27df-4f00-9027-32244e4eeb81"},"vehicle_type_id":"4","last_reported":1728976130,"current_range_meters":28000,"station_id":"","pricing_plan_id":"cebpf4jnsgd1na2vs0mg"},{"bike_id":"2029b8e5-ceff-421f-a585-646be9909808","system_id":"levelo_inurba_marseille","lat":43.26063,"lon":5.39395,"is_reserved":false,"is_disabled":false,"rental_uris":{"android":"levelo://app?vid=2029b8e5-ceff-421f-a585-646be9909808","ios":"levelo://app?vid=2029b8e5-ceff-421f-a585-646be9909808"},"vehicle_type_id":"4","last_reported":1728976130,"current_range_meters":28400,"station_id":"ce4bhh92rcd13ifvqfj0","pricing_plan_id":"cebpf4jnsgd1na2vs0mg"},{"bike_id":"38b02232-9d79-4d46-bb91-bb581e2cc97a","system_id":"levelo_inurba_marseille","lat":43.2587,"lon":5.39902,"is_reserved":false,"is_disabled":false,"rental_uris":{"android":"levelo://app?vid=38b02232-9d79-4d46-bb91-bb581e2cc97a","ios":"levelo://app?vid=38b02232-9d79-4d46-bb91-bb581e2cc97a"},"vehicle_type_id":"4","last_reported":1728976130,"current_range_meters":24800,"station_id":"ce4bhl92rcd13ifvqghg","pricing_plan_id":"cebpf4jnsgd1na2vs0mg"},{"bike_id":"03dbe659-1ba6-435f-83e8-b5c4b1e3c404","system_id":"levelo_inurba_marseille","lat":43.30428,"lon":5.38886,"is_reserved":false,"is_disabled":false,"rental_uris":{"android":"levelo://app?vid=03dbe659-1ba6-435f-83e8-b5c4b1e3c404","ios":"levelo://app?vid=03dbe659-1ba6-435f-83e8-b5c4b1e3c404"},"vehicle_type_id":"4","last_reported":1728976130,"current_range_meters":26000,"station_id":"ce4bgk12rcd13ifvqbi0","pricing_plan_id":"cebpf4jnsgd1na2vs0mg"},{"bike_id":"4c0ed49c-901b-43c9-95a1-20b797fc5774","system_id":"levelo_inurba_marseille","lat":43.2902,"lon":5.38139,"is_reserved":false,"is_disabled":false,"rental_uris":{"android":"levelo://app?vid=4c0ed49c-901b-43c9-95a1-20b797fc5774","ios":"levelo://app?vid=4c0ed49c-901b-43c9-95a1-20b797fc5774"},"vehicle_type_id":"4","last_reported":1728976130,"current_range_meters":7200,"station_id":"ce4bh4p2rcd13ifvqe1g","pricing_plan_id":"cebpf4jnsgd1na2vs0mg"},{"bike_id":"f7073368-78cc-4d52-9aa0-52bcddfa3e2d","system_id":"levelo_inurba_marseille","lat":43.29082,"lon":5.37163,"is_reserved":false,"is_disabled":false,"rental_uris":{"android":"levelo://app?vid=f7073368-78cc-4d52-9aa0-52bcddfa3e2d","ios":"levelo://app?vid=f7073368-78cc-4d52-9aa0-52bcddfa3e2d"},"vehicle_type_id":"4","last_reported":1728976130,"current_range_meters":20400,"station_id":"ce4bh5p2rcd13ifvqe4g","pricing_plan_id":"cebpf4jnsgd1na2vs0mg"},{"bike_id":"eb93eb1a-cb16-4e9f-a872-95dbd02f5a95","system_id":"levelo_inurba_marseille","lat":43.29918,"lon":5.37475,"is_reserved":false,"is_disabled":false,"rental_uris":{"android":"levelo://app?vid=eb93eb1a-cb16-4e9f-a872-95dbd02f5a95","ios":"levelo://app?vid=eb93eb1a-cb16-4e9f-a872-95dbd02f5a95"},"vehicle_type_id":"4","last_reported":1728976130,"current_range_meters":10800,"station_id":"ce4bgjh2rcd13ifvqbg0","pricing_plan_id":"cebpf4jnsgd1na2vs0mg"},{"bike_id":"1e73027b-0c25-4e93-a48b-592f5c5b175f","system_id":"levelo_inurba_marseille","lat":43.30356,"lon":5.4187,"is_reserved":false,"is_disabled":false,"rental_uris":{"android":"levelo://app?vid=1e73027b-0c25-4e93-a48b-592f5c5b175f","ios":"levelo://app?vid=1e73027b-0c25-4e93-a48b-592f5c5b175f"},"vehicle_type_id":"4","last_reported":1728976130,"current_range_meters":32800,"station_id":"ce4bhop2rcd13ifvqh7g","pricing_plan_id":"cebpf4jnsgd1na2vs0mg"},{"bike_id":"3d581ed0-7124-4397-ae1d-5d0495554aa8","system_id":"levelo_inurba_marseille","lat":43.28401,"lon":5.37521,"is_reserved":false,"is_disabled":false,"rental_uris":{"android":"levelo://app?vid=3d581ed0-7124-4397-ae1d-5d0495554aa8","ios":"levelo://app?vid=3d581ed0-7124-4397-ae1d-5d0495554aa8"},"vehicle_type_id":"4","last_reported":1728976130,"current_range_meters":29600,"station_id":"ce4bh412rcd13ifvqds0","pricing_plan_id":"cebpf4jnsgd1na2vs0mg"},{"bike_id":"8f1473c8-5614-4fe5-9a08-5f8d5d6a0adb","system_id":"levelo_inurba_marseille","lat":43.320465,"lon":5.367513,"is_reserved":false,"is_disabled":false,"rental_uris":{"android":"levelo://app?vid=8f1473c8-5614-4fe5-9a08-5f8d5d6a0adb","ios":"levelo://app?vid=8f1473c8-5614-4fe5-9a08-5f8d5d6a0adb"},"vehicle_type_id":"4","last_reported":1728976130,"current_range_meters":24800,"station_id":"ce4bhrh2rcd13ifvqhug","pricing_plan_id":"cebpf4jnsgd1na2vs0mg"},{"bike_id":"62efa3cd-9522-490f-841e-a1ce0ad54acb","system_id":"levelo_inurba_marseille","lat":43.23155,"lon":5.43709,"is_reserved":false,"is_disabled":false,"rental_uris":{"android":"levelo://app?vid=62efa3cd-9522-490f-841e-a1ce0ad54acb","ios":"levelo://app?vid=62efa3cd-9522-490f-841e-a1ce0ad54acb"},"vehicle_type_id":"4","last_reported":1728976130,"current_range_meters":29600,"station_id":"ce4bhmp2rcd13ifvqgog","pricing_plan_id":"cebpf4jnsgd1na2vs0mg"},{"bike_id":"719944d9-6610-45e5-9687-70454c807319","system_id":"levelo_inurba_marseille","lat":43.33612,"lon":5.41037,"is_reserved":false,"is_disabled":false,"rental_uris":{"android":"levelo://app?vid=719944d9-6610-45e5-9687-70454c807319","ios":"levelo://app?vid=719944d9-6610-45e5-9687-70454c807319"},"vehicle_type_id":"4","last_reported":1728976130,"current_range_meters":19600,"station_id":"ce4bhqh2rcd13ifvqhmg","pricing_plan_id":"cebpf4jnsgd1na2vs0mg"},{"bike_id":"5f9bbca4-c275-4b1d-bb90-de4434b02e5b","system_id":"levelo_inurba_marseille","lat":43.27497,"lon":5.42451,"is_reserved":false,"is_disabled":false,"rental_uris":{"android":"levelo://app?vid=5f9bbca4-c275-4b1d-bb90-de4434b02e5b","ios":"levelo://app?vid=5f9bbca4-c275-4b1d-bb90-de4434b02e5b"},"vehicle_type_id":"4","last_reported":1728976130,"current_range_meters":38800,"station_id":"ce4bhn92rcd13ifvqgrg","pricing_plan_id":"cebpf4jnsgd1na2vs0mg"},{"bike_id":"afc6d48f-8de6-4527-a1b2-9e3e2bd866dc","system_id":"levelo_inurba_marseille","lat":43.29165,"lon":5.37167,"is_reserved":false,"is_disabled":false,"rental_uris":{"android":"levelo://app?vid=afc6d48f-8de6-4527-a1b2-9e3e2bd866dc","ios":"levelo://app?vid=afc6d48f-8de6-4527-a1b2-9e3e2bd866dc"},"vehicle_type_id":"4","last_reported":1728976130,"current_range_meters":30400,"station_id":"ce4bha92rcd13ifvqeh0","pricing_plan_id":"cebpf4jnsgd1na2vs0mg"},{"bike_id":"453ff30b-5109-4f9b-a0ee-199c4668928b","system_id":"levelo_inurba_marseille","lat":43.3136,"lon":5.3671,"is_reserved":false,"is_disabled":false,"rental_uris":{"android":"levelo://app?vid=453ff30b-5109-4f9b-a0ee-199c4668928b","ios":"levelo://app?vid=453ff30b-5109-4f9b-a0ee-199c4668928b"},"vehicle_type_id":"4","last_reported":1728976130,"current_range_meters":25600,"station_id":"ce4bgr92rcd13ifvqc6g","pricing_plan_id":"cebpf4jnsgd1na2vs0mg"},{"bike_id":"c82a5593-c1d3-4c9b-9035-430ae8cd8901","system_id":"levelo_inurba_marseille","lat":43.27324,"lon":5.39077,"is_reserved":false,"is_disabled":false,"rental_uris":{"android":"levelo://app?vid=c82a5593-c1d3-4c9b-9035-430ae8cd8901","ios":"levelo://app?vid=c82a5593-c1d3-4c9b-9035-430ae8cd8901"},"vehicle_type_id":"4","last_reported":1728976130,"current_range_meters":32800,"station_id":"ce4bhgp2rcd13ifvqfe0","pricing_plan_id":"cebpf4jnsgd1na2vs0mg"},{"bike_id":"8fff6307-2dd1-450e-9fa4-c335ee8c6e79","system_id":"levelo_inurba_marseille","lat":43.274909,"lon":5.424523,"is_reserved":false,"is_disabled":false,"rental_uris":{"android":"levelo://app?vid=8fff6307-2dd1-450e-9fa4-c335ee8c6e79","ios":"levelo://app?vid=8fff6307-2dd1-450e-9fa4-c335ee8c6e79"},"vehicle_type_id":"4","last_reported":1728976130,"current_range_meters":30400,"station_id":"ce4bhn92rcd13ifvqgrg","pricing_plan_id":"cebpf4jnsgd1na2vs0mg"},{"bike_id":"ac8db1d7-3c94-466e-a0d7-c930d8e6d191","system_id":"levelo_inurba_marseille","lat":43.30889,"lon":5.39743,"is_reserved":false,"is_disabled":false,"rental_uris":{"android":"levelo://app?vid=ac8db1d7-3c94-466e-a0d7-c930d8e6d191","ios":"levelo://app?vid=ac8db1d7-3c94-466e-a0d7-c930d8e6d191"},"vehicle_type_id":"4","last_reported":1728976130,"current_range_meters":20000,"station_id":"ce4bgrp2rcd13ifvqc9g","pricing_plan_id":"cebpf4jnsgd1na2vs0mg"},{"bike_id":"0ed0c075-e6fe-402d-bd25-ee3cc88443aa","system_id":"levelo_inurba_marseille","lat":43.25828,"lon":5.39428,"is_reserved":false,"is_disabled":false,"rental_uris":{"android":"levelo://app?vid=0ed0c075-e6fe-402d-bd25-ee3cc88443aa","ios":"levelo://app?vid=0ed0c075-e6fe-402d-bd25-ee3cc88443aa"},"vehicle_type_id":"4","last_reported":1728976130,"current_range_meters":38400,"station_id":"ce4bhip2rcd13ifvqft0","pricing_plan_id":"cebpf4jnsgd1na2vs0mg"},{"bike_id":"675d5183-f496-4ca7-82b0-64ffd16e6734","system_id":"levelo_inurba_marseille","lat":43.27491,"lon":5.42473,"is_reserved":false,"is_disabled":false,"rental_uris":{"android":"levelo://app?vid=675d5183-f496-4ca7-82b0-64ffd16e6734","ios":"levelo://app?vid=675d5183-f496-4ca7-82b0-64ffd16e6734"},"vehicle_type_id":"4","last_reported":1728976130,"current_range_meters":3200,"station_id":"ce4bhn92rcd13ifvqgrg","pricing_plan_id":"cebpf4jnsgd1na2vs0mg"},{"bike_id":"0db09599-4f78-4513-9b88-b0d7d355a4c6","system_id":"levelo_inurba_marseille","lat":43.33726,"lon":5.39186,"is_reserved":false,"is_disabled":false,"rental_uris":{"android":"levelo://app?vid=0db09599-4f78-4513-9b88-b0d7d355a4c6","ios":"levelo://app?vid=0db09599-4f78-4513-9b88-b0d7d355a4c6"},"vehicle_type_id":"4","last_reported":1728976130,"current_range_meters":30400,"station_id":"ce4bhr92rcd13ifvqhsg","pricing_plan_id":"cebpf4jnsgd1na2vs0mg"},{"bike_id":"c6bcc52a-e3cd-4bf5-bc59-c23940254dfb","system_id":"levelo_inurba_marseille","lat":43.28949,"lon":5.36407,"is_reserved":false,"is_disabled":false,"rental_uris":{"android":"levelo://app?vid=c6bcc52a-e3cd-4bf5-bc59-c23940254dfb","ios":"levelo://app?vid=c6bcc52a-e3cd-4bf5-bc59-c23940254dfb"},"vehicle_type_id":"4","last_reported":1728976130,"current_range_meters":14800,"station_id":"ce4bhc92rcd13ifvqetg","pricing_plan_id":"cebpf4jnsgd1na2vs0mg"},{"bike_id":"8d0fa919-eaa8-4285-b551-863e70fc5b6b","system_id":"levelo_inurba_marseille","lat":43.26953,"lon":5.38625,"is_reserved":false,"is_disabled":false,"rental_uris":{"android":"levelo://app?vid=8d0fa919-eaa8-4285-b551-863e70fc5b6b","ios":"levelo://app?vid=8d0fa919-eaa8-4285-b551-863e70fc5b6b"},"vehicle_type_id":"4","last_reported":1728976130,"current_range_meters":29600,"station_id":"ce4bhh92rcd13ifvqfh0","pricing_plan_id":"cebpf4jnsgd1na2vs0mg"},{"bike_id":"03abfbcc-9c7f-4ed5-bf45-b82b2b232696","system_id":"levelo_inurba_marseille","lat":43.24548,"lon":5.39523,"is_reserved":false,"is_disabled":false,"rental_uris":{"android":"levelo://app?vid=03abfbcc-9c7f-4ed5-bf45-b82b2b232696","ios":"levelo://app?vid=03abfbcc-9c7f-4ed5-bf45-b82b2b232696"},"vehicle_type_id":"4","last_reported":1728976130,"current_range_meters":39200,"station_id":"ce4bhlp2rcd13ifvqgjg","pricing_plan_id":"cebpf4jnsgd1na2vs0mg"},{"bike_id":"e043ac16-f754-4642-b077-d2e254dc22ac","system_id":"levelo_inurba_marseille","lat":43.30307,"lon":5.36869,"is_reserved":false,"is_disabled":false,"rental_uris":{"android":"levelo://app?vid=e043ac16-f754-4642-b077-d2e254dc22ac","ios":"levelo://app?vid=e043ac16-f754-4642-b077-d2e254dc22ac"},"vehicle_type_id":"4","last_reported":1728976130,"current_range_meters":19600,"station_id":"ce4bgqh2rcd13ifvqc5g","pricing_plan_id":"cebpf4jnsgd1na2vs0mg"},{"bike_id":"cc1684e5-e2b0-4b56-b26c-32a6bf19b8ea","system_id":"levelo_inurba_marseille","lat":43.26682,"lon":5.38266,"is_reserved":false,"is_disabled":false,"rental_uris":{"android":"levelo://app?vid=cc1684e5-e2b0-4b56-b26c-32a6bf19b8ea","ios":"levelo://app?vid=cc1684e5-e2b0-4b56-b26c-32a6bf19b8ea"},"vehicle_type_id":"4","last_reported":1728976130,"current_range_meters":16400,"station_id":"ce4bhg92rcd13ifvqf90","pricing_plan_id":"cebpf4jnsgd1na2vs0mg"},{"bike_id":"2db531a6-3637-4c77-bab9-19b931081490","system_id":"levelo_inurba_marseille","lat":43.258582,"lon":5.399027,"is_reserved":false,"is_disabled":false,"rental_uris":{"android":"levelo://app?vid=2db531a6-3637-4c77-bab9-19b931081490","ios":"levelo://app?vid=2db531a6-3637-4c77-bab9-19b931081490"},"vehicle_type_id":"4","last_reported":1728976130,"current_range_meters":30000,"station_id":"ce4bhl92rcd13ifvqghg","pricing_plan_id":"cebpf4jnsgd1na2vs0mg"},{"bike_id":"b80c714b-6a66-4d5c-832e-bd487c535a72","system_id":"levelo_inurba_marseille","lat":43.31109,"lon":5.38064,"is_reserved":false,"is_disabled":false,"rental_uris":{"android":"levelo://app?vid=b80c714b-6a66-4d5c-832e-bd487c535a72","ios":"levelo://app?vid=b80c714b-6a66-4d5c-832e-bd487c535a72"},"vehicle_type_id":"4","last_reported":1728976130,"current_range_meters":16400,"station_id":"ce4bgt92rcd13ifvqcf0","pricing_plan_id":"cebpf4jnsgd1na2vs0mg"},{"bike_id":"2140b6a3-5118-4150-823e-9225aeb56201","system_id":"levelo_inurba_marseille","lat":43.23195,"lon":5.3555,"is_reserved":false,"is_disabled":false,"rental_uris":{"android":"levelo://app?vid=2140b6a3-5118-4150-823e-9225aeb56201","ios":"levelo://app?vid=2140b6a3-5118-4150-823e-9225aeb56201"},"vehicle_type_id":"4","last_reported":1728976130,"current_range_meters":8400,"station_id":"ce4bhu92rcd13ifvqi70","pricing_plan_id":"cebpf4jnsgd1na2vs0mg"},{"bike_id":"ea90227c-842e-4143-b8dc-fe74683c474f","system_id":"levelo_inurba_marseille","lat":43.25937,"lon":5.40904,"is_reserved":false,"is_disabled":false,"rental_uris":{"android":"levelo://app?vid=ea90227c-842e-4143-b8dc-fe74683c474f","ios":"levelo://app?vid=ea90227c-842e-4143-b8dc-fe74683c474f"},"vehicle_type_id":"4","last_reported":1728976130,"current_range_meters":37600,"station_id":"ce4bhm92rcd13ifvqglg","pricing_plan_id":"cebpf4jnsgd1na2vs0mg"},{"bike_id":"8ce44d0f-df03-46aa-81e2-3df3f28e83b8","system_id":"levelo_inurba_marseille","lat":43.2928,"lon":5.40116,"is_reserved":false,"is_disabled":false,"rental_uris":{"android":"levelo://app?vid=8ce44d0f-df03-46aa-81e2-3df3f28e83b8","ios":"levelo://app?vid=8ce44d0f-df03-46aa-81e2-3df3f28e83b8"},"vehicle_type_id":"4","last_reported":1728976130,"current_range_meters":37600,"station_id":"ce4bh312rcd13ifvqdk0","pricing_plan_id":"cebpf4jnsgd1na2vs0mg"},{"bike_id":"4c251e63-bc87-4cd7-a975-784126679ffc","system_id":"levelo_inurba_marseille","lat":43.30535,"lon":5.36695,"is_reserved":false,"is_disabled":false,"rental_uris":{"android":"levelo://app?vid=4c251e63-bc87-4cd7-a975-784126679ffc","ios":"levelo://app?vid=4c251e63-bc87-4cd7-a975-784126679ffc"},"vehicle_type_id":"4","last_reported":1728976130,"current_range_meters":34800,"station_id":"ce4bgrp2rcd13ifvqc9g","pricing_plan_id":"cebpf4jnsgd1na2vs0mg"},{"bike_id":"35fe9c7c-a74d-4029-9dc8-b501cafc78e2","system_id":"levelo_inurba_marseille","lat":43.23153,"lon":5.43714,"is_reserved":false,"is_disabled":false,"rental_uris":{"android":"levelo://app?vid=35fe9c7c-a74d-4029-9dc8-b501cafc78e2","ios":"levelo://app?vid=35fe9c7c-a74d-4029-9dc8-b501cafc78e2"},"vehicle_type_id":"4","last_reported":1728976130,"current_range_meters":20000,"station_id":"ce4bhmp2rcd13ifvqgog","pricing_plan_id":"cebpf4jnsgd1na2vs0mg"},{"bike_id":"45047fa2-99aa-49c5-9991-34a20c62dcaf","system_id":"levelo_inurba_marseille","lat":43.23154,"lon":5.43701,"is_reserved":false,"is_disabled":false,"rental_uris":{"android":"levelo://app?vid=45047fa2-99aa-49c5-9991-34a20c62dcaf","ios":"levelo://app?vid=45047fa2-99aa-49c5-9991-34a20c62dcaf"},"vehicle_type_id":"4","last_reported":1728976130,"current_range_meters":16800,"station_id":"ce4bhmp2rcd13ifvqgog","pricing_plan_id":"cebpf4jnsgd1na2vs0mg"},{"bike_id":"ad3a8670-165f-4afc-9f01-24e092308761","system_id":"levelo_inurba_marseille","lat":43.30151,"lon":5.38079,"is_reserved":false,"is_disabled":false,"rental_uris":{"android":"levelo://app?vid=ad3a8670-165f-4afc-9f01-24e092308761","ios":"levelo://app?vid=ad3a8670-165f-4afc-9f01-24e092308761"},"vehicle_type_id":"4","last_reported":1728976130,"current_range_meters":34800,"station_id":"ce4bgjp2rcd13ifvqbh0","pricing_plan_id":"cebpf4jnsgd1na2vs0mg"},{"bike_id":"822e5772-0ab2-4531-869d-b15dc8912cf2","system_id":"levelo_inurba_marseille","lat":43.30542,"lon":5.36707,"is_reserved":false,"is_disabled":false,"rental_uris":{"android":"levelo://app?vid=822e5772-0ab2-4531-869d-b15dc8912cf2","ios":"levelo://app?vid=822e5772-0ab2-4531-869d-b15dc8912cf2"},"vehicle_type_id":"4","last_reported":1728976130,"current_range_meters":38000,"station_id":"ce4bgrp2rcd13ifvqc9g","pricing_plan_id":"cebpf4jnsgd1na2vs0mg"},{"bike_id":"5c2a1186-4cb5-4b3c-b74b-76bb8fbf9771","system_id":"levelo_inurba_marseille","lat":43.29579,"lon":5.36737,"is_reserved":false,"is_disabled":false,"rental_uris":{"android":"levelo://app?vid=5c2a1186-4cb5-4b3c-b74b-76bb8fbf9771","ios":"levelo://app?vid=5c2a1186-4cb5-4b3c-b74b-76bb8fbf9771"},"vehicle_type_id":"4","last_reported":1728976130,"current_range_meters":28800,"station_id":"ce4bgph2rcd13ifvqc2g","pricing_plan_id":"cebpf4jnsgd1na2vs0mg"},{"bike_id":"e28d33d4-52cc-4488-8e2f-c1b54db0d4b0","system_id":"levelo_inurba_marseille","lat":43.25575,"lon":5.38242,"is_reserved":false,"is_disabled":false,"rental_uris":{"android":"levelo://app?vid=e28d33d4-52cc-4488-8e2f-c1b54db0d4b0","ios":"levelo://app?vid=e28d33d4-52cc-4488-8e2f-c1b54db0d4b0"},"vehicle_type_id":"4","last_reported":1728976130,"current_range_meters":37600,"station_id":"ce4bhih2rcd13ifvqfs0","pricing_plan_id":"cebpf4jnsgd1na2vs0mg"},{"bike_id":"2eeb2c31-f04f-4a49-a703-3bd28a732a5c","system_id":"levelo_inurba_marseille","lat":43.2649,"lon":5.3954,"is_reserved":false,"is_disabled":false,"rental_uris":{"android":"levelo://app?vid=2eeb2c31-f04f-4a49-a703-3bd28a732a5c","ios":"levelo://app?vid=2eeb2c31-f04f-4a49-a703-3bd28a732a5c"},"vehicle_type_id":"4","last_reported":1728976130,"current_range_meters":30400,"station_id":"ce4bhi12rcd13ifvqfq0","pricing_plan_id":"cebpf4jnsgd1na2vs0mg"},{"bike_id":"e9d3ed7b-98ae-430f-b10a-dac3c98dbf37","system_id":"levelo_inurba_marseille","lat":43.3021,"lon":5.39476,"is_reserved":false,"is_disabled":false,"rental_uris":{"android":"levelo://app?vid=e9d3ed7b-98ae-430f-b10a-dac3c98dbf37","ios":"levelo://app?vid=e9d3ed7b-98ae-430f-b10a-dac3c98dbf37"},"vehicle_type_id":"4","last_reported":1728976130,"current_range_meters":37600,"station_id":"ce4bh0p2rcd13ifvqd70","pricing_plan_id":"cebpf4jnsgd1na2vs0mg"},{"bike_id":"e9d42937-a4b2-4a84-a233-384773796211","system_id":"levelo_inurba_marseille","lat":43.25932,"lon":5.40913,"is_reserved":false,"is_disabled":false,"rental_uris":{"android":"levelo://app?vid=e9d42937-a4b2-4a84-a233-384773796211","ios":"levelo://app?vid=e9d42937-a4b2-4a84-a233-384773796211"},"vehicle_type_id":"4","last_reported":1728976130,"current_range_meters":21600,"station_id":"ce4bhm92rcd13ifvqglg","pricing_plan_id":"cebpf4jnsgd1na2vs0mg"},{"bike_id":"7cc5db3f-7c40-48b0-ab8a-ef1e22f35aea","system_id":"levelo_inurba_marseille","lat":43.30143,"lon":5.37417,"is_reserved":false,"is_disabled":false,"rental_uris":{"android":"levelo://app?vid=7cc5db3f-7c40-48b0-ab8a-ef1e22f35aea","ios":"levelo://app?vid=7cc5db3f-7c40-48b0-ab8a-ef1e22f35aea"},"vehicle_type_id":"4","last_reported":1728976130,"current_range_meters":24400,"station_id":"ce4bgs92rcd13ifvqcc0","pricing_plan_id":"cebpf4jnsgd1na2vs0mg"},{"bike_id":"ac1802f2-e0c7-4553-8f9e-27953027561d","system_id":"levelo_inurba_marseille","lat":43.32542,"lon":5.41432,"is_reserved":false,"is_disabled":false,"rental_uris":{"android":"levelo://app?vid=ac1802f2-e0c7-4553-8f9e-27953027561d","ios":"levelo://app?vid=ac1802f2-e0c7-4553-8f9e-27953027561d"},"vehicle_type_id":"4","last_reported":1728976130,"current_range_meters":9600,"station_id":"ce4bhq12rcd13ifvqhhg","pricing_plan_id":"cebpf4jnsgd1na2vs0mg"},{"bike_id":"81005c71-8480-4978-bc63-a1e137caa2c6","system_id":"levelo_inurba_marseille","lat":43.30155,"lon":5.38078,"is_reserved":false,"is_disabled":false,"rental_uris":{"android":"levelo://app?vid=81005c71-8480-4978-bc63-a1e137caa2c6","ios":"levelo://app?vid=81005c71-8480-4978-bc63-a1e137caa2c6"},"vehicle_type_id":"4","last_reported":1728976130,"current_range_meters":27600,"station_id":"ce4bgjp2rcd13ifvqbh0","pricing_plan_id":"cebpf4jnsgd1na2vs0mg"},{"bike_id":"d47463b0-6813-4565-8760-307b0795d4e6","system_id":"levelo_inurba_marseille","lat":43.28157,"lon":5.42634,"is_reserved":false,"is_disabled":false,"rental_uris":{"android":"levelo://app?vid=d47463b0-6813-4565-8760-307b0795d4e6","ios":"levelo://app?vid=d47463b0-6813-4565-8760-307b0795d4e6"},"vehicle_type_id":"4","last_reported":1728976130,"current_range_meters":28000,"station_id":"ce4bhnh2rcd13ifvqgug","pricing_plan_id":"cebpf4jnsgd1na2vs0mg"},{"bike_id":"458e4f74-d004-4411-8472-2b2557b9f73d","system_id":"levelo_inurba_marseille","lat":43.32656,"lon":5.41001,"is_reserved":false,"is_disabled":false,"rental_uris":{"android":"levelo://app?vid=458e4f74-d004-4411-8472-2b2557b9f73d","ios":"levelo://app?vid=458e4f74-d004-4411-8472-2b2557b9f73d"},"vehicle_type_id":"4","last_reported":1728976130,"current_range_meters":8400,"station_id":"ce4bhpp2rcd13ifvqhgg","pricing_plan_id":"cebpf4jnsgd1na2vs0mg"},{"bike_id":"e01e41b6-906b-4d38-bd47-8409331ef9cb","system_id":"levelo_inurba_marseille","lat":43.24164,"lon":5.36399,"is_reserved":false,"is_disabled":false,"rental_uris":{"android":"levelo://app?vid=e01e41b6-906b-4d38-bd47-8409331ef9cb","ios":"levelo://app?vid=e01e41b6-906b-4d38-bd47-8409331ef9cb"},"vehicle_type_id":"4","last_reported":1728976130,"current_range_meters":34000,"station_id":"cpo36qri1sfpv3e86is0","pricing_plan_id":"cebpf4jnsgd1na2vs0mg"},{"bike_id":"8c3c6ea8-bf27-4d3e-9d98-02766e0d67b6","system_id":"levelo_inurba_marseille","lat":43.29963,"lon":5.4132,"is_reserved":false,"is_disabled":false,"rental_uris":{"android":"levelo://app?vid=8c3c6ea8-bf27-4d3e-9d98-02766e0d67b6","ios":"levelo://app?vid=8c3c6ea8-bf27-4d3e-9d98-02766e0d67b6"},"vehicle_type_id":"4","last_reported":1728976130,"current_range_meters":38800,"station_id":"ce4bhp12rcd13ifvqh9g","pricing_plan_id":"cebpf4jnsgd1na2vs0mg"},{"bike_id":"e3ed0c6f-17a1-4b35-bcea-8e6b56203f80","system_id":"levelo_inurba_marseille","lat":43.2594,"lon":5.40904,"is_reserved":false,"is_disabled":false,"rental_uris":{"android":"levelo://app?vid=e3ed0c6f-17a1-4b35-bcea-8e6b56203f80","ios":"levelo://app?vid=e3ed0c6f-17a1-4b35-bcea-8e6b56203f80"},"vehicle_type_id":"4","last_reported":1728976130,"current_range_meters":33200,"station_id":"ce4bhm92rcd13ifvqglg","pricing_plan_id":"cebpf4jnsgd1na2vs0mg"},{"bike_id":"89211ee2-076f-4df3-92bd-cd8885f2e76d","system_id":"levelo_inurba_marseille","lat":43.23191,"lon":5.35556,"is_reserved":false,"is_disabled":false,"rental_uris":{"android":"levelo://app?vid=89211ee2-076f-4df3-92bd-cd8885f2e76d","ios":"levelo://app?vid=89211ee2-076f-4df3-92bd-cd8885f2e76d"},"vehicle_type_id":"4","last_reported":1728976130,"current_range_meters":39200,"station_id":"ce4bhu92rcd13ifvqi70","pricing_plan_id":"cebpf4jnsgd1na2vs0mg"},{"bike_id":"987ee6e0-f71c-4600-8c08-c3f4d3822c50","system_id":"levelo_inurba_marseille","lat":43.30906,"lon":5.36855,"is_reserved":false,"is_disabled":false,"rental_uris":{"android":"levelo://app?vid=987ee6e0-f71c-4600-8c08-c3f4d3822c50","ios":"levelo://app?vid=987ee6e0-f71c-4600-8c08-c3f4d3822c50"},"vehicle_type_id":"4","last_reported":1728976130,"current_range_meters":27600,"station_id":"ce4bgn92rcd13ifvqbvg","pricing_plan_id":"cebpf4jnsgd1na2vs0mg"},{"bike_id":"7b3bddbc-ce7d-4e40-a44c-03c4bf73d175","system_id":"levelo_inurba_marseille","lat":43.26791,"lon":5.39412,"is_reserved":false,"is_disabled":false,"rental_uris":{"android":"levelo://app?vid=7b3bddbc-ce7d-4e40-a44c-03c4bf73d175","ios":"levelo://app?vid=7b3bddbc-ce7d-4e40-a44c-03c4bf73d175"},"vehicle_type_id":"4","last_reported":1728976130,"current_range_meters":8800,"station_id":"ce4bhh12rcd13ifvqfg0","pricing_plan_id":"cebpf4jnsgd1na2vs0mg"},{"bike_id":"ce9d0675-d631-4c06-b642-b36bc8ba8ca3","system_id":"levelo_inurba_marseille","lat":43.33725,"lon":5.39194,"is_reserved":false,"is_disabled":false,"rental_uris":{"android":"levelo://app?vid=ce9d0675-d631-4c06-b642-b36bc8ba8ca3","ios":"levelo://app?vid=ce9d0675-d631-4c06-b642-b36bc8ba8ca3"},"vehicle_type_id":"4","last_reported":1728976130,"current_range_meters":38000,"station_id":"ce4bhr92rcd13ifvqhsg","pricing_plan_id":"cebpf4jnsgd1na2vs0mg"},{"bike_id":"b073e0ea-df5d-466c-8974-a0212197daef","system_id":"levelo_inurba_marseille","lat":43.27606,"lon":5.3611,"is_reserved":false,"is_disabled":false,"rental_uris":{"android":"levelo://app?vid=b073e0ea-df5d-466c-8974-a0212197daef","ios":"levelo://app?vid=b073e0ea-df5d-466c-8974-a0212197daef"},"vehicle_type_id":"4","last_reported":1728976130,"current_range_meters":18000,"station_id":"ce4bgj92rcd13ifvqbe0","pricing_plan_id":"cebpf4jnsgd1na2vs0mg"},{"bike_id":"d6cafd96-8326-4379-b527-c16d3984de6b","system_id":"levelo_inurba_marseille","lat":43.24395,"lon":5.37065,"is_reserved":false,"is_disabled":false,"rental_uris":{"android":"levelo://app?vid=d6cafd96-8326-4379-b527-c16d3984de6b","ios":"levelo://app?vid=d6cafd96-8326-4379-b527-c16d3984de6b"},"vehicle_type_id":"4","last_reported":1728976130,"current_range_meters":18800,"station_id":"ce4bhhh2rcd13ifvqfk0","pricing_plan_id":"cebpf4jnsgd1na2vs0mg"},{"bike_id":"d2f93f55-1bfc-4fcf-afc0-1e2ba98f7c28","system_id":"levelo_inurba_marseille","lat":43.30531,"lon":5.36725,"is_reserved":false,"is_disabled":false,"rental_uris":{"android":"levelo://app?vid=d2f93f55-1bfc-4fcf-afc0-1e2ba98f7c28","ios":"levelo://app?vid=d2f93f55-1bfc-4fcf-afc0-1e2ba98f7c28"},"vehicle_type_id":"4","last_reported":1728976130,"current_range_meters":30800,"station_id":"ce4bgrp2rcd13ifvqc9g","pricing_plan_id":"cebpf4jnsgd1na2vs0mg"},{"bike_id":"d36ab0ff-210a-4155-855a-bdf3cca1b9af","system_id":"levelo_inurba_marseille","lat":43.259152,"lon":5.4093,"is_reserved":false,"is_disabled":false,"rental_uris":{"android":"levelo://app?vid=d36ab0ff-210a-4155-855a-bdf3cca1b9af","ios":"levelo://app?vid=d36ab0ff-210a-4155-855a-bdf3cca1b9af"},"vehicle_type_id":"4","last_reported":1728976130,"current_range_meters":26800,"station_id":"ce4bhm92rcd13ifvqglg","pricing_plan_id":"cebpf4jnsgd1na2vs0mg"},{"bike_id":"28d99f21-3c50-4348-9259-ea84a75955ca","system_id":"levelo_inurba_marseille","lat":43.30905,"lon":5.36848,"is_reserved":false,"is_disabled":false,"rental_uris":{"android":"levelo://app?vid=28d99f21-3c50-4348-9259-ea84a75955ca","ios":"levelo://app?vid=28d99f21-3c50-4348-9259-ea84a75955ca"},"vehicle_type_id":"4","last_reported":1728976130,"current_range_meters":36400,"station_id":"ce4bgn92rcd13ifvqbvg","pricing_plan_id":"cebpf4jnsgd1na2vs0mg"},{"bike_id":"9c4870ef-8189-49c9-8051-0aef7043e5cd","system_id":"levelo_inurba_marseille","lat":43.25939,"lon":5.40906,"is_reserved":false,"is_disabled":false,"rental_uris":{"android":"levelo://app?vid=9c4870ef-8189-49c9-8051-0aef7043e5cd","ios":"levelo://app?vid=9c4870ef-8189-49c9-8051-0aef7043e5cd"},"vehicle_type_id":"4","last_reported":1728976130,"current_range_meters":18000,"station_id":"ce4bhm92rcd13ifvqglg","pricing_plan_id":"cebpf4jnsgd1na2vs0mg"},{"bike_id":"d2bd3c63-940a-4d90-897f-d2ee99c57893","system_id":"levelo_inurba_marseille","lat":43.34143,"lon":5.40912,"is_reserved":false,"is_disabled":false,"rental_uris":{"android":"levelo://app?vid=d2bd3c63-940a-4d90-897f-d2ee99c57893","ios":"levelo://app?vid=d2bd3c63-940a-4d90-897f-d2ee99c57893"},"vehicle_type_id":"4","last_reported":1728976130,"current_range_meters":13600,"station_id":"ce4bhqh2rcd13ifvqhlg","pricing_plan_id":"cebpf4jnsgd1na2vs0mg"},{"bike_id":"70fc60a6-b8a1-49de-8a6e-1b532dfb0edc","system_id":"levelo_inurba_marseille","lat":43.32475,"lon":5.36575,"is_reserved":false,"is_disabled":false,"rental_uris":{"android":"levelo://app?vid=70fc60a6-b8a1-49de-8a6e-1b532dfb0edc","ios":"levelo://app?vid=70fc60a6-b8a1-49de-8a6e-1b532dfb0edc"},"vehicle_type_id":"4","last_reported":1728976130,"current_range_meters":11200,"station_id":"ce4bhs12rcd13ifvqhvg","pricing_plan_id":"cebpf4jnsgd1na2vs0mg"},{"bike_id":"b6761712-cd33-437e-83c8-811ce3c1e59f","system_id":"levelo_inurba_marseille","lat":43.23963,"lon":5.36628,"is_reserved":false,"is_disabled":false,"rental_uris":{"android":"levelo://app?vid=b6761712-cd33-437e-83c8-811ce3c1e59f","ios":"levelo://app?vid=b6761712-cd33-437e-83c8-811ce3c1e59f"},"vehicle_type_id":"4","last_reported":1728976130,"current_range_meters":32000,"station_id":"ce4bhi12rcd13ifvqfp0","pricing_plan_id":"cebpf4jnsgd1na2vs0mg"},{"bike_id":"88a28b3c-bb82-46d0-b8ad-205fdb206f2c","system_id":"levelo_inurba_marseille","lat":43.2573,"lon":5.41104,"is_reserved":false,"is_disabled":false,"rental_uris":{"android":"levelo://app?vid=88a28b3c-bb82-46d0-b8ad-205fdb206f2c","ios":"levelo://app?vid=88a28b3c-bb82-46d0-b8ad-205fdb206f2c"},"vehicle_type_id":"4","last_reported":1728976130,"current_range_meters":36800,"station_id":"ce4bhkp2rcd13ifvqgd0","pricing_plan_id":"cebpf4jnsgd1na2vs0mg"},{"bike_id":"ff96eee3-1ac8-4888-9ae7-e4b6cc8154af","system_id":"levelo_inurba_marseille","lat":43.33739,"lon":5.3746,"is_reserved":false,"is_disabled":false,"rental_uris":{"android":"levelo://app?vid=ff96eee3-1ac8-4888-9ae7-e4b6cc8154af","ios":"levelo://app?vid=ff96eee3-1ac8-4888-9ae7-e4b6cc8154af"},"vehicle_type_id":"4","last_reported":1728976130,"current_range_meters":35200,"station_id":"","pricing_plan_id":"cebpf4jnsgd1na2vs0mg"},{"bike_id":"342e1942-2d97-4b1e-a725-9986f3fd7423","system_id":"levelo_inurba_marseille","lat":43.31224,"lon":5.36876,"is_reserved":false,"is_disabled":false,"rental_uris":{"android":"levelo://app?vid=342e1942-2d97-4b1e-a725-9986f3fd7423","ios":"levelo://app?vid=342e1942-2d97-4b1e-a725-9986f3fd7423"},"vehicle_type_id":"4","last_reported":1728976130,"current_range_meters":10000,"station_id":"ce4bgl92rcd13ifvqbq0","pricing_plan_id":"cebpf4jnsgd1na2vs0mg"},{"bike_id":"23732db7-2cfe-4937-86a6-5fb46b4f6b1c","system_id":"levelo_inurba_marseille","lat":43.30464,"lon":5.37896,"is_reserved":false,"is_disabled":false,"rental_uris":{"android":"levelo://app?vid=23732db7-2cfe-4937-86a6-5fb46b4f6b1c","ios":"levelo://app?vid=23732db7-2cfe-4937-86a6-5fb46b4f6b1c"},"vehicle_type_id":"4","last_reported":1728976130,"current_range_meters":38000,"station_id":"ce4bgup2rcd13ifvqcn0","pricing_plan_id":"cebpf4jnsgd1na2vs0mg"},{"bike_id":"7f7d8c5a-41cb-4f6a-9789-5599cc78e45e","system_id":"levelo_inurba_marseille","lat":43.27492,"lon":5.42457,"is_reserved":false,"is_disabled":false,"rental_uris":{"android":"levelo://app?vid=7f7d8c5a-41cb-4f6a-9789-5599cc78e45e","ios":"levelo://app?vid=7f7d8c5a-41cb-4f6a-9789-5599cc78e45e"},"vehicle_type_id":"4","last_reported":1728976130,"current_range_meters":28000,"station_id":"ce4bhn92rcd13ifvqgrg","pricing_plan_id":"cebpf4jnsgd1na2vs0mg"},{"bike_id":"00c53683-72aa-4d58-bb91-f404eef9456a","system_id":"levelo_inurba_marseille","lat":43.26942,"lon":5.38641,"is_reserved":false,"is_disabled":false,"rental_uris":{"android":"levelo://app?vid=00c53683-72aa-4d58-bb91-f404eef9456a","ios":"levelo://app?vid=00c53683-72aa-4d58-bb91-f404eef9456a"},"vehicle_type_id":"4","last_reported":1728976130,"current_range_meters":39200,"station_id":"ce4bhh92rcd13ifvqfh0","pricing_plan_id":"cebpf4jnsgd1na2vs0mg"},{"bike_id":"124fe4c8-d877-453b-88bd-af8d62d24653","system_id":"levelo_inurba_marseille","lat":43.2465,"lon":5.38887,"is_reserved":false,"is_disabled":false,"rental_uris":{"android":"levelo://app?vid=124fe4c8-d877-453b-88bd-af8d62d24653","ios":"levelo://app?vid=124fe4c8-d877-453b-88bd-af8d62d24653"},"vehicle_type_id":"4","last_reported":1728976130,"current_range_meters":8000,"station_id":"ce4bhg12rcd13ifvqf60","pricing_plan_id":"cebpf4jnsgd1na2vs0mg"},{"bike_id":"e8e8118d-3d5e-42fd-9096-f73e58a1fa57","system_id":"levelo_inurba_marseille","lat":43.29845,"lon":5.36272,"is_reserved":false,"is_disabled":false,"rental_uris":{"android":"levelo://app?vid=e8e8118d-3d5e-42fd-9096-f73e58a1fa57","ios":"levelo://app?vid=e8e8118d-3d5e-42fd-9096-f73e58a1fa57"},"vehicle_type_id":"4","last_reported":1728976130,"current_range_meters":35200,"station_id":"ce4bgpp2rcd13ifvqc3g","pricing_plan_id":"cebpf4jnsgd1na2vs0mg"},{"bike_id":"10a515f5-de6d-4ebd-ab68-7237fe828660","system_id":"levelo_inurba_marseille","lat":43.30912,"lon":5.36862,"is_reserved":false,"is_disabled":false,"rental_uris":{"android":"levelo://app?vid=10a515f5-de6d-4ebd-ab68-7237fe828660","ios":"levelo://app?vid=10a515f5-de6d-4ebd-ab68-7237fe828660"},"vehicle_type_id":"4","last_reported":1728976130,"current_range_meters":30800,"station_id":"ce4bgn92rcd13ifvqbvg","pricing_plan_id":"cebpf4jnsgd1na2vs0mg"},{"bike_id":"50131fad-d87d-4d13-8567-6c91110985a5","system_id":"levelo_inurba_marseille","lat":43.295746,"lon":5.375215,"is_reserved":false,"is_disabled":false,"rental_uris":{"android":"levelo://app?vid=50131fad-d87d-4d13-8567-6c91110985a5","ios":"levelo://app?vid=50131fad-d87d-4d13-8567-6c91110985a5"},"vehicle_type_id":"4","last_reported":1728976130,"current_range_meters":37600,"station_id":"ce4bhb92rcd13ifvqen0","pricing_plan_id":"cebpf4jnsgd1na2vs0mg"},{"bike_id":"4f027803-c5d2-4165-9635-a9f1760ade7c","system_id":"levelo_inurba_marseille","lat":43.26564,"lon":5.39014,"is_reserved":false,"is_disabled":false,"rental_uris":{"android":"levelo://app?vid=4f027803-c5d2-4165-9635-a9f1760ade7c","ios":"levelo://app?vid=4f027803-c5d2-4165-9635-a9f1760ade7c"},"vehicle_type_id":"4","last_reported":1728976130,"current_range_meters":38400,"station_id":"ce4bhe12rcd13ifvqf30","pricing_plan_id":"cebpf4jnsgd1na2vs0mg"},{"bike_id":"c3439ad1-485f-49f1-b081-969604af9691","system_id":"levelo_inurba_marseille","lat":43.31342,"lon":5.36731,"is_reserved":false,"is_disabled":false,"rental_uris":{"android":"levelo://app?vid=c3439ad1-485f-49f1-b081-969604af9691","ios":"levelo://app?vid=c3439ad1-485f-49f1-b081-969604af9691"},"vehicle_type_id":"4","last_reported":1728976130,"current_range_meters":27200,"station_id":"ce4bgr92rcd13ifvqc6g","pricing_plan_id":"cebpf4jnsgd1na2vs0mg"},{"bike_id":"e55ce7e2-8e60-47b5-844e-977029bd08ba","system_id":"levelo_inurba_marseille","lat":43.29557,"lon":5.4228,"is_reserved":false,"is_disabled":false,"rental_uris":{"android":"levelo://app?vid=e55ce7e2-8e60-47b5-844e-977029bd08ba","ios":"levelo://app?vid=e55ce7e2-8e60-47b5-844e-977029bd08ba"},"vehicle_type_id":"4","last_reported":1728976130,"current_range_meters":40000,"station_id":"ce4bhph2rcd13ifvqhdg","pricing_plan_id":"cebpf4jnsgd1na2vs0mg"},{"bike_id":"0b45c2be-8711-4ab5-a9ef-db89f4dea598","system_id":"levelo_inurba_marseille","lat":43.30457,"lon":5.37897,"is_reserved":false,"is_disabled":false,"rental_uris":{"android":"levelo://app?vid=0b45c2be-8711-4ab5-a9ef-db89f4dea598","ios":"levelo://app?vid=0b45c2be-8711-4ab5-a9ef-db89f4dea598"},"vehicle_type_id":"4","last_reported":1728976130,"current_range_meters":34800,"station_id":"ce4bgup2rcd13ifvqcn0","pricing_plan_id":"cebpf4jnsgd1na2vs0mg"},{"bike_id":"292b9425-1372-40d4-bf0a-fe57aa779a41","system_id":"levelo_inurba_marseille","lat":43.23063,"lon":5.35495,"is_reserved":false,"is_disabled":false,"rental_uris":{"android":"levelo://app?vid=292b9425-1372-40d4-bf0a-fe57aa779a41","ios":"levelo://app?vid=292b9425-1372-40d4-bf0a-fe57aa779a41"},"vehicle_type_id":"4","last_reported":1728976130,"current_range_meters":35200,"station_id":"cpo3342slgdg3j2ifvpg","pricing_plan_id":"cebpf4jnsgd1na2vs0mg"},{"bike_id":"abaadc87-30f0-49db-8f98-c2601a7d52a7","system_id":"levelo_inurba_marseille","lat":43.30152,"lon":5.38083,"is_reserved":false,"is_disabled":false,"rental_uris":{"android":"levelo://app?vid=abaadc87-30f0-49db-8f98-c2601a7d52a7","ios":"levelo://app?vid=abaadc87-30f0-49db-8f98-c2601a7d52a7"},"vehicle_type_id":"4","last_reported":1728976130,"current_range_meters":38400,"station_id":"ce4bgjp2rcd13ifvqbh0","pricing_plan_id":"cebpf4jnsgd1na2vs0mg"},{"bike_id":"b840f3ff-15d9-40f5-a7ea-97957c85ffed","system_id":"levelo_inurba_marseille","lat":43.30905,"lon":5.36845,"is_reserved":false,"is_disabled":false,"rental_uris":{"android":"levelo://app?vid=b840f3ff-15d9-40f5-a7ea-97957c85ffed","ios":"levelo://app?vid=b840f3ff-15d9-40f5-a7ea-97957c85ffed"},"vehicle_type_id":"4","last_reported":1728976130,"current_range_meters":35600,"station_id":"ce4bgn92rcd13ifvqbvg","pricing_plan_id":"cebpf4jnsgd1na2vs0mg"},{"bike_id":"c1a23ba6-b5bd-44f8-866b-3454409f4c32","system_id":"levelo_inurba_marseille","lat":43.282837,"lon":5.350506,"is_reserved":false,"is_disabled":false,"rental_uris":{"android":"levelo://app?vid=c1a23ba6-b5bd-44f8-866b-3454409f4c32","ios":"levelo://app?vid=c1a23ba6-b5bd-44f8-866b-3454409f4c32"},"vehicle_type_id":"4","last_reported":1728976130,"current_range_meters":22400,"station_id":"ce4bhbp2rcd13ifvqerg","pricing_plan_id":"cebpf4jnsgd1na2vs0mg"},{"bike_id":"c491978b-af7e-44c3-b8c7-16d57af9b0b9","system_id":"levelo_inurba_marseille","lat":43.28934,"lon":5.384,"is_reserved":false,"is_disabled":false,"rental_uris":{"android":"levelo://app?vid=c491978b-af7e-44c3-b8c7-16d57af9b0b9","ios":"levelo://app?vid=c491978b-af7e-44c3-b8c7-16d57af9b0b9"},"vehicle_type_id":"4","last_reported":1728976130,"current_range_meters":31200,"station_id":"ce4bh612rcd13ifvqe6g","pricing_plan_id":"cebpf4jnsgd1na2vs0mg"},{"bike_id":"86f34d6f-7187-413f-9a4b-c8a0f954cb2b","system_id":"levelo_inurba_marseille","lat":43.25729,"lon":5.41109,"is_reserved":false,"is_disabled":false,"rental_uris":{"android":"levelo://app?vid=86f34d6f-7187-413f-9a4b-c8a0f954cb2b","ios":"levelo://app?vid=86f34d6f-7187-413f-9a4b-c8a0f954cb2b"},"vehicle_type_id":"4","last_reported":1728976130,"current_range_meters":26800,"station_id":"ce4bhkp2rcd13ifvqgd0","pricing_plan_id":"cebpf4jnsgd1na2vs0mg"},{"bike_id":"d0295d18-73bf-43b4-ab23-a179010b001a","system_id":"levelo_inurba_marseille","lat":43.30608,"lon":5.37227,"is_reserved":false,"is_disabled":false,"rental_uris":{"android":"levelo://app?vid=d0295d18-73bf-43b4-ab23-a179010b001a","ios":"levelo://app?vid=d0295d18-73bf-43b4-ab23-a179010b001a"},"vehicle_type_id":"4","last_reported":1728976130,"current_range_meters":32000,"station_id":"ce4bgqh2rcd13ifvqc4g","pricing_plan_id":"cebpf4jnsgd1na2vs0mg"},{"bike_id":"c294b81c-1176-4ef5-90a7-faacf8fea58b","system_id":"levelo_inurba_marseille","lat":43.30142,"lon":5.37417,"is_reserved":false,"is_disabled":false,"rental_uris":{"android":"levelo://app?vid=c294b81c-1176-4ef5-90a7-faacf8fea58b","ios":"levelo://app?vid=c294b81c-1176-4ef5-90a7-faacf8fea58b"},"vehicle_type_id":"4","last_reported":1728976130,"current_range_meters":30400,"station_id":"ce4bgs92rcd13ifvqcc0","pricing_plan_id":"cebpf4jnsgd1na2vs0mg"},{"bike_id":"11f4ad4b-7623-46af-a52a-6154289c0a47","system_id":"levelo_inurba_marseille","lat":43.28721,"lon":5.37939,"is_reserved":false,"is_disabled":false,"rental_uris":{"android":"levelo://app?vid=11f4ad4b-7623-46af-a52a-6154289c0a47","ios":"levelo://app?vid=11f4ad4b-7623-46af-a52a-6154289c0a47"},"vehicle_type_id":"4","last_reported":1728976130,"current_range_meters":18000,"station_id":"ce4bh9p2rcd13ifvqec0","pricing_plan_id":"cebpf4jnsgd1na2vs0mg"},{"bike_id":"e42a5c5b-19d2-48bc-8dfc-c8514ef28621","system_id":"levelo_inurba_marseille","lat":43.24169,"lon":5.36399,"is_reserved":false,"is_disabled":false,"rental_uris":{"android":"levelo://app?vid=e42a5c5b-19d2-48bc-8dfc-c8514ef28621","ios":"levelo://app?vid=e42a5c5b-19d2-48bc-8dfc-c8514ef28621"},"vehicle_type_id":"4","last_reported":1728976130,"current_range_meters":27200,"station_id":"cpo36qri1sfpv3e86is0","pricing_plan_id":"cebpf4jnsgd1na2vs0mg"},{"bike_id":"f2f95759-b1f7-4675-9ede-58fe26501576","system_id":"levelo_inurba_marseille","lat":43.268402,"lon":5.38882,"is_reserved":false,"is_disabled":false,"rental_uris":{"android":"levelo://app?vid=f2f95759-b1f7-4675-9ede-58fe26501576","ios":"levelo://app?vid=f2f95759-b1f7-4675-9ede-58fe26501576"},"vehicle_type_id":"4","last_reported":1728976130,"current_range_meters":9600,"station_id":"ce4bhn12rcd13ifvqgpg","pricing_plan_id":"cebpf4jnsgd1na2vs0mg"},{"bike_id":"1989161d-8386-47b1-87a5-b86d93dc477e","system_id":"levelo_inurba_marseille","lat":43.25933,"lon":5.40917,"is_reserved":false,"is_disabled":false,"rental_uris":{"android":"levelo://app?vid=1989161d-8386-47b1-87a5-b86d93dc477e","ios":"levelo://app?vid=1989161d-8386-47b1-87a5-b86d93dc477e"},"vehicle_type_id":"4","last_reported":1728976130,"current_range_meters":29600,"station_id":"ce4bhm92rcd13ifvqglg","pricing_plan_id":"cebpf4jnsgd1na2vs0mg"},{"bike_id":"4df527e7-ca37-4f32-bbd7-962887e601d8","system_id":"levelo_inurba_marseille","lat":43.30209,"lon":5.3947,"is_reserved":false,"is_disabled":false,"rental_uris":{"android":"levelo://app?vid=4df527e7-ca37-4f32-bbd7-962887e601d8","ios":"levelo://app?vid=4df527e7-ca37-4f32-bbd7-962887e601d8"},"vehicle_type_id":"4","last_reported":1728976130,"current_range_meters":32400,"station_id":"ce4bh0p2rcd13ifvqd70","pricing_plan_id":"cebpf4jnsgd1na2vs0mg"},{"bike_id":"25f4bf2b-b653-49f4-8941-e4f3e57743f7","system_id":"levelo_inurba_marseille","lat":43.30547,"lon":5.36699,"is_reserved":false,"is_disabled":false,"rental_uris":{"android":"levelo://app?vid=25f4bf2b-b653-49f4-8941-e4f3e57743f7","ios":"levelo://app?vid=25f4bf2b-b653-49f4-8941-e4f3e57743f7"},"vehicle_type_id":"4","last_reported":1728976130,"current_range_meters":35200,"station_id":"ce4bgrp2rcd13ifvqc9g","pricing_plan_id":"cebpf4jnsgd1na2vs0mg"},{"bike_id":"0bb0b55b-1db0-4f04-9cae-5decd1e52b8e","system_id":"levelo_inurba_marseille","lat":43.23157,"lon":5.4371,"is_reserved":false,"is_disabled":false,"rental_uris":{"android":"levelo://app?vid=0bb0b55b-1db0-4f04-9cae-5decd1e52b8e","ios":"levelo://app?vid=0bb0b55b-1db0-4f04-9cae-5decd1e52b8e"},"vehicle_type_id":"4","last_reported":1728976130,"current_range_meters":22800,"station_id":"ce4bhmp2rcd13ifvqgog","pricing_plan_id":"cebpf4jnsgd1na2vs0mg"},{"bike_id":"ae0bc982-9f04-47f6-9a49-7becc4cc21f9","system_id":"levelo_inurba_marseille","lat":43.31222,"lon":5.36867,"is_reserved":false,"is_disabled":false,"rental_uris":{"android":"levelo://app?vid=ae0bc982-9f04-47f6-9a49-7becc4cc21f9","ios":"levelo://app?vid=ae0bc982-9f04-47f6-9a49-7becc4cc21f9"},"vehicle_type_id":"4","last_reported":1728976130,"current_range_meters":28400,"station_id":"ce4bgl92rcd13ifvqbq0","pricing_plan_id":"cebpf4jnsgd1na2vs0mg"},{"bike_id":"fdb8ec3c-dacc-474e-9a9b-47c250b3b221","system_id":"levelo_inurba_marseille","lat":43.34149,"lon":5.40906,"is_reserved":false,"is_disabled":false,"rental_uris":{"android":"levelo://app?vid=fdb8ec3c-dacc-474e-9a9b-47c250b3b221","ios":"levelo://app?vid=fdb8ec3c-dacc-474e-9a9b-47c250b3b221"},"vehicle_type_id":"4","last_reported":1728976130,"current_range_meters":28800,"station_id":"ce4bhqh2rcd13ifvqhlg","pricing_plan_id":"cebpf4jnsgd1na2vs0mg"},{"bike_id":"1b5cd61f-8783-43f8-b628-f683e5b86f00","system_id":"levelo_inurba_marseille","lat":43.26682,"lon":5.3827,"is_reserved":false,"is_disabled":false,"rental_uris":{"android":"levelo://app?vid=1b5cd61f-8783-43f8-b628-f683e5b86f00","ios":"levelo://app?vid=1b5cd61f-8783-43f8-b628-f683e5b86f00"},"vehicle_type_id":"4","last_reported":1728976130,"current_range_meters":19600,"station_id":"ce4bhg92rcd13ifvqf90","pricing_plan_id":"cebpf4jnsgd1na2vs0mg"},{"bike_id":"d06f24f3-1961-4c39-8b26-c72733863fe9","system_id":"levelo_inurba_marseille","lat":43.33781,"lon":5.37443,"is_reserved":false,"is_disabled":false,"rental_uris":{"android":"levelo://app?vid=d06f24f3-1961-4c39-8b26-c72733863fe9","ios":"levelo://app?vid=d06f24f3-1961-4c39-8b26-c72733863fe9"},"vehicle_type_id":"4","last_reported":1728976130,"current_range_meters":25600,"station_id":"","pricing_plan_id":"cebpf4jnsgd1na2vs0mg"},{"bike_id":"35ee015f-fa4b-469f-9467-602ccd0a4196","system_id":"levelo_inurba_marseille","lat":43.31501,"lon":5.37305,"is_reserved":false,"is_disabled":false,"rental_uris":{"android":"levelo://app?vid=35ee015f-fa4b-469f-9467-602ccd0a4196","ios":"levelo://app?vid=35ee015f-fa4b-469f-9467-602ccd0a4196"},"vehicle_type_id":"4","last_reported":1728976130,"current_range_meters":36800,"station_id":"ce4bgt12rcd13ifvqcd0","pricing_plan_id":"cebpf4jnsgd1na2vs0mg"},{"bike_id":"8b795e90-f8b2-46e5-84b4-a0159dd54a22","system_id":"levelo_inurba_marseille","lat":43.29607,"lon":5.38105,"is_reserved":false,"is_disabled":false,"rental_uris":{"android":"levelo://app?vid=8b795e90-f8b2-46e5-84b4-a0159dd54a22","ios":"levelo://app?vid=8b795e90-f8b2-46e5-84b4-a0159dd54a22"},"vehicle_type_id":"4","last_reported":1728976130,"current_range_meters":30800,"station_id":"ce4bgl12rcd13ifvqbo0","pricing_plan_id":"cebpf4jnsgd1na2vs0mg"},{"bike_id":"99f9ea32-0001-413d-b7b6-a31a18932e99","system_id":"levelo_inurba_marseille","lat":43.2694,"lon":5.40274,"is_reserved":false,"is_disabled":false,"rental_uris":{"android":"levelo://app?vid=99f9ea32-0001-413d-b7b6-a31a18932e99","ios":"levelo://app?vid=99f9ea32-0001-413d-b7b6-a31a18932e99"},"vehicle_type_id":"4","last_reported":1728976130,"current_range_meters":32400,"station_id":"cjm6bp8fraef2m0cb0m0","pricing_plan_id":"cebpf4jnsgd1na2vs0mg"},{"bike_id":"673434a6-7d15-4d4c-a9c6-a53b97771ffc","system_id":"levelo_inurba_marseille","lat":43.29412,"lon":5.38622,"is_reserved":false,"is_disabled":false,"rental_uris":{"android":"levelo://app?vid=673434a6-7d15-4d4c-a9c6-a53b97771ffc","ios":"levelo://app?vid=673434a6-7d15-4d4c-a9c6-a53b97771ffc"},"vehicle_type_id":"4","last_reported":1728976130,"current_range_meters":11200,"station_id":"ce4bh2h2rcd13ifvqdh0","pricing_plan_id":"cebpf4jnsgd1na2vs0mg"},{"bike_id":"d41309ab-1a1f-4395-acaa-455483c3f8e1","system_id":"levelo_inurba_marseille","lat":43.23195,"lon":5.3555,"is_reserved":false,"is_disabled":false,"rental_uris":{"android":"levelo://app?vid=d41309ab-1a1f-4395-acaa-455483c3f8e1","ios":"levelo://app?vid=d41309ab-1a1f-4395-acaa-455483c3f8e1"},"vehicle_type_id":"4","last_reported":1728976130,"current_range_meters":34800,"station_id":"ce4bhu92rcd13ifvqi70","pricing_plan_id":"cebpf4jnsgd1na2vs0mg"},{"bike_id":"39b707b7-e53b-4ad1-be37-0df2a563b2c2","system_id":"levelo_inurba_marseille","lat":43.31357,"lon":5.36724,"is_reserved":false,"is_disabled":false,"rental_uris":{"android":"levelo://app?vid=39b707b7-e53b-4ad1-be37-0df2a563b2c2","ios":"levelo://app?vid=39b707b7-e53b-4ad1-be37-0df2a563b2c2"},"vehicle_type_id":"4","last_reported":1728976130,"current_range_meters":38800,"station_id":"ce4bgr92rcd13ifvqc6g","pricing_plan_id":"cebpf4jnsgd1na2vs0mg"},{"bike_id":"af5de2b8-3b03-4974-a710-6cda96bbbfe7","system_id":"levelo_inurba_marseille","lat":43.279139,"lon":5.414094,"is_reserved":false,"is_disabled":false,"rental_uris":{"android":"levelo://app?vid=af5de2b8-3b03-4974-a710-6cda96bbbfe7","ios":"levelo://app?vid=af5de2b8-3b03-4974-a710-6cda96bbbfe7"},"vehicle_type_id":"4","last_reported":1728976130,"current_range_meters":36800,"station_id":"","pricing_plan_id":"cebpf4jnsgd1na2vs0mg"},{"bike_id":"2f9e07cb-333a-435c-9c5b-8a578bd24d6c","system_id":"levelo_inurba_marseille","lat":43.27489,"lon":5.42455,"is_reserved":false,"is_disabled":false,"rental_uris":{"android":"levelo://app?vid=2f9e07cb-333a-435c-9c5b-8a578bd24d6c","ios":"levelo://app?vid=2f9e07cb-333a-435c-9c5b-8a578bd24d6c"},"vehicle_type_id":"4","last_reported":1728976130,"current_range_meters":19200,"station_id":"ce4bhn92rcd13ifvqgrg","pricing_plan_id":"cebpf4jnsgd1na2vs0mg"},{"bike_id":"4541705b-123e-4e6f-8dd6-ae40b6b53c55","system_id":"levelo_inurba_marseille","lat":43.28157,"lon":5.42645,"is_reserved":false,"is_disabled":false,"rental_uris":{"android":"levelo://app?vid=4541705b-123e-4e6f-8dd6-ae40b6b53c55","ios":"levelo://app?vid=4541705b-123e-4e6f-8dd6-ae40b6b53c55"},"vehicle_type_id":"4","last_reported":1728976130,"current_range_meters":8800,"station_id":"ce4bhnh2rcd13ifvqgug","pricing_plan_id":"cebpf4jnsgd1na2vs0mg"},{"bike_id":"1236bbf7-ed03-4263-9ab4-884e4d68a5c4","system_id":"levelo_inurba_marseille","lat":43.32485,"lon":5.36563,"is_reserved":false,"is_disabled":false,"rental_uris":{"android":"levelo://app?vid=1236bbf7-ed03-4263-9ab4-884e4d68a5c4","ios":"levelo://app?vid=1236bbf7-ed03-4263-9ab4-884e4d68a5c4"},"vehicle_type_id":"4","last_reported":1728976130,"current_range_meters":38800,"station_id":"ce4bhs12rcd13ifvqhvg","pricing_plan_id":"cebpf4jnsgd1na2vs0mg"},{"bike_id":"6fff0583-f63c-4656-bc6a-626d3dc3e108","system_id":"levelo_inurba_marseille","lat":43.27176,"lon":5.40993,"is_reserved":false,"is_disabled":false,"rental_uris":{"android":"levelo://app?vid=6fff0583-f63c-4656-bc6a-626d3dc3e108","ios":"levelo://app?vid=6fff0583-f63c-4656-bc6a-626d3dc3e108"},"vehicle_type_id":"4","last_reported":1728976130,"current_range_meters":35200,"station_id":"ce4bhl12rcd13ifvqgf0","pricing_plan_id":"cebpf4jnsgd1na2vs0mg"},{"bike_id":"33d4de2a-b620-4ca6-9afb-09b7b7b8998a","system_id":"levelo_inurba_marseille","lat":43.2928,"lon":5.40122,"is_reserved":false,"is_disabled":false,"rental_uris":{"android":"levelo://app?vid=33d4de2a-b620-4ca6-9afb-09b7b7b8998a","ios":"levelo://app?vid=33d4de2a-b620-4ca6-9afb-09b7b7b8998a"},"vehicle_type_id":"4","last_reported":1728976130,"current_range_meters":19600,"station_id":"ce4bh312rcd13ifvqdk0","pricing_plan_id":"cebpf4jnsgd1na2vs0mg"},{"bike_id":"f33ca04e-0fdd-4816-b4fc-80bcd342b78a","system_id":"levelo_inurba_marseille","lat":43.29548,"lon":5.42273,"is_reserved":false,"is_disabled":false,"rental_uris":{"android":"levelo://app?vid=f33ca04e-0fdd-4816-b4fc-80bcd342b78a","ios":"levelo://app?vid=f33ca04e-0fdd-4816-b4fc-80bcd342b78a"},"vehicle_type_id":"4","last_reported":1728976130,"current_range_meters":37600,"station_id":"ce4bhph2rcd13ifvqhdg","pricing_plan_id":"cebpf4jnsgd1na2vs0mg"},{"bike_id":"aa24e686-c4b3-4e16-bd17-034a8270bcf1","system_id":"levelo_inurba_marseille","lat":43.298523,"lon":5.362992,"is_reserved":false,"is_disabled":false,"rental_uris":{"android":"levelo://app?vid=aa24e686-c4b3-4e16-bd17-034a8270bcf1","ios":"levelo://app?vid=aa24e686-c4b3-4e16-bd17-034a8270bcf1"},"vehicle_type_id":"4","last_reported":1728976130,"current_range_meters":12800,"station_id":"ce4bgpp2rcd13ifvqc3g","pricing_plan_id":"cebpf4jnsgd1na2vs0mg"},{"bike_id":"42ddf1a3-c9fa-4405-9d7e-8b919329a107","system_id":"levelo_inurba_marseille","lat":43.30555,"lon":5.36533,"is_reserved":false,"is_disabled":false,"rental_uris":{"android":"levelo://app?vid=42ddf1a3-c9fa-4405-9d7e-8b919329a107","ios":"levelo://app?vid=42ddf1a3-c9fa-4405-9d7e-8b919329a107"},"vehicle_type_id":"4","last_reported":1728976130,"current_range_meters":38800,"station_id":"ce4bgs12rcd13ifvqcag","pricing_plan_id":"cebpf4jnsgd1na2vs0mg"},{"bike_id":"c7b21cf6-e6ef-4a95-b2ab-92111a1993c5","system_id":"levelo_inurba_marseille","lat":43.27501,"lon":5.4245,"is_reserved":false,"is_disabled":false,"rental_uris":{"android":"levelo://app?vid=c7b21cf6-e6ef-4a95-b2ab-92111a1993c5","ios":"levelo://app?vid=c7b21cf6-e6ef-4a95-b2ab-92111a1993c5"},"vehicle_type_id":"4","last_reported":1728976130,"current_range_meters":27600,"station_id":"ce4bhn92rcd13ifvqgrg","pricing_plan_id":"cebpf4jnsgd1na2vs0mg"},{"bike_id":"ec39797c-9936-4ad3-bc31-7509ade66d89","system_id":"levelo_inurba_marseille","lat":43.28158,"lon":5.42642,"is_reserved":false,"is_disabled":false,"rental_uris":{"android":"levelo://app?vid=ec39797c-9936-4ad3-bc31-7509ade66d89","ios":"levelo://app?vid=ec39797c-9936-4ad3-bc31-7509ade66d89"},"vehicle_type_id":"4","last_reported":1728976130,"current_range_meters":34000,"station_id":"ce4bhnh2rcd13ifvqgug","pricing_plan_id":"cebpf4jnsgd1na2vs0mg"},{"bike_id":"4c0eae8f-fb78-42e3-9cf9-594cfc4b55bc","system_id":"levelo_inurba_marseille","lat":43.24076,"lon":5.37763,"is_reserved":false,"is_disabled":false,"rental_uris":{"android":"levelo://app?vid=4c0eae8f-fb78-42e3-9cf9-594cfc4b55bc","ios":"levelo://app?vid=4c0eae8f-fb78-42e3-9cf9-594cfc4b55bc"},"vehicle_type_id":"4","last_reported":1728976130,"current_range_meters":8400,"station_id":"ce4bhnp2rcd13ifvqgvg","pricing_plan_id":"cebpf4jnsgd1na2vs0mg"},{"bike_id":"5ac4b365-d20a-45e0-acfe-e7e86ca60b8f","system_id":"levelo_inurba_marseille","lat":43.25935,"lon":5.40913,"is_reserved":false,"is_disabled":false,"rental_uris":{"android":"levelo://app?vid=5ac4b365-d20a-45e0-acfe-e7e86ca60b8f","ios":"levelo://app?vid=5ac4b365-d20a-45e0-acfe-e7e86ca60b8f"},"vehicle_type_id":"4","last_reported":1728976130,"current_range_meters":36000,"station_id":"ce4bhm92rcd13ifvqglg","pricing_plan_id":"cebpf4jnsgd1na2vs0mg"},{"bike_id":"1af2813b-98a0-4b62-aaf8-89652b30f639","system_id":"levelo_inurba_marseille","lat":43.22933,"lon":5.35381,"is_reserved":false,"is_disabled":false,"rental_uris":{"android":"levelo://app?vid=1af2813b-98a0-4b62-aaf8-89652b30f639","ios":"levelo://app?vid=1af2813b-98a0-4b62-aaf8-89652b30f639"},"vehicle_type_id":"4","last_reported":1728976130,"current_range_meters":31200,"station_id":"cpo3532slgdg3j2ikp40","pricing_plan_id":"cebpf4jnsgd1na2vs0mg"},{"bike_id":"e933622d-50e9-4399-b2c7-6b78123dd26c","system_id":"levelo_inurba_marseille","lat":43.2594,"lon":5.40907,"is_reserved":false,"is_disabled":false,"rental_uris":{"android":"levelo://app?vid=e933622d-50e9-4399-b2c7-6b78123dd26c","ios":"levelo://app?vid=e933622d-50e9-4399-b2c7-6b78123dd26c"},"vehicle_type_id":"4","last_reported":1728976130,"current_range_meters":4800,"station_id":"ce4bhm92rcd13ifvqglg","pricing_plan_id":"cebpf4jnsgd1na2vs0mg"},{"bike_id":"b6e51444-f57b-47a8-9c42-cdc3eaeef5e5","system_id":"levelo_inurba_marseille","lat":43.31361,"lon":5.36691,"is_reserved":false,"is_disabled":false,"rental_uris":{"android":"levelo://app?vid=b6e51444-f57b-47a8-9c42-cdc3eaeef5e5","ios":"levelo://app?vid=b6e51444-f57b-47a8-9c42-cdc3eaeef5e5"},"vehicle_type_id":"4","last_reported":1728976130,"current_range_meters":38800,"station_id":"ce4bgr92rcd13ifvqc6g","pricing_plan_id":"cebpf4jnsgd1na2vs0mg"},{"bike_id":"f93454e1-a669-4c63-a4ca-b572042c7971","system_id":"levelo_inurba_marseille","lat":43.23194,"lon":5.35546,"is_reserved":false,"is_disabled":false,"rental_uris":{"android":"levelo://app?vid=f93454e1-a669-4c63-a4ca-b572042c7971","ios":"levelo://app?vid=f93454e1-a669-4c63-a4ca-b572042c7971"},"vehicle_type_id":"4","last_reported":1728976130,"current_range_meters":26800,"station_id":"ce4bhu92rcd13ifvqi70","pricing_plan_id":"cebpf4jnsgd1na2vs0mg"},{"bike_id":"ab38c6ee-afe2-452b-b152-733408083f03","system_id":"levelo_inurba_marseille","lat":43.24074,"lon":5.37756,"is_reserved":false,"is_disabled":false,"rental_uris":{"android":"levelo://app?vid=ab38c6ee-afe2-452b-b152-733408083f03","ios":"levelo://app?vid=ab38c6ee-afe2-452b-b152-733408083f03"},"vehicle_type_id":"4","last_reported":1728976130,"current_range_meters":29600,"station_id":"ce4bhnp2rcd13ifvqgvg","pricing_plan_id":"cebpf4jnsgd1na2vs0mg"},{"bike_id":"d944e946-a63b-4a1b-bd3b-f717ac7d49e5","system_id":"levelo_inurba_marseille","lat":43.24077,"lon":5.3776,"is_reserved":false,"is_disabled":false,"rental_uris":{"android":"levelo://app?vid=d944e946-a63b-4a1b-bd3b-f717ac7d49e5","ios":"levelo://app?vid=d944e946-a63b-4a1b-bd3b-f717ac7d49e5"},"vehicle_type_id":"4","last_reported":1728976130,"current_range_meters":28800,"station_id":"ce4bhnp2rcd13ifvqgvg","pricing_plan_id":"cebpf4jnsgd1na2vs0mg"},{"bike_id":"57bc6541-dce3-40de-b918-ceb0411c6d81","system_id":"levelo_inurba_marseille","lat":43.23154,"lon":5.43708,"is_reserved":false,"is_disabled":false,"rental_uris":{"android":"levelo://app?vid=57bc6541-dce3-40de-b918-ceb0411c6d81","ios":"levelo://app?vid=57bc6541-dce3-40de-b918-ceb0411c6d81"},"vehicle_type_id":"4","last_reported":1728976130,"current_range_meters":14400,"station_id":"ce4bhmp2rcd13ifvqgog","pricing_plan_id":"cebpf4jnsgd1na2vs0mg"},{"bike_id":"516a7d90-8299-4605-ba97-ac5ce68cd454","system_id":"levelo_inurba_marseille","lat":43.30198,"lon":5.36634,"is_reserved":false,"is_disabled":false,"rental_uris":{"android":"levelo://app?vid=516a7d90-8299-4605-ba97-ac5ce68cd454","ios":"levelo://app?vid=516a7d90-8299-4605-ba97-ac5ce68cd454"},"vehicle_type_id":"4","last_reported":1728976130,"current_range_meters":30000,"station_id":"ce4bgrh2rcd13ifvqc8g","pricing_plan_id":"cebpf4jnsgd1na2vs0mg"},{"bike_id":"6a344486-14e7-432e-98bf-b8beed8e06c6","system_id":"levelo_inurba_marseille","lat":43.32336,"lon":5.38328,"is_reserved":false,"is_disabled":false,"rental_uris":{"android":"levelo://app?vid=6a344486-14e7-432e-98bf-b8beed8e06c6","ios":"levelo://app?vid=6a344486-14e7-432e-98bf-b8beed8e06c6"},"vehicle_type_id":"4","last_reported":1728976130,"current_range_meters":32000,"station_id":"","pricing_plan_id":"cebpf4jnsgd1na2vs0mg"},{"bike_id":"1c29ea6a-d424-450d-9c36-6b427ab42330","system_id":"levelo_inurba_marseille","lat":43.34152,"lon":5.40911,"is_reserved":false,"is_disabled":false,"rental_uris":{"android":"levelo://app?vid=1c29ea6a-d424-450d-9c36-6b427ab42330","ios":"levelo://app?vid=1c29ea6a-d424-450d-9c36-6b427ab42330"},"vehicle_type_id":"4","last_reported":1728976130,"current_range_meters":39200,"station_id":"ce4bhqh2rcd13ifvqhlg","pricing_plan_id":"cebpf4jnsgd1na2vs0mg"},{"bike_id":"79ddf1f5-186b-4457-a77e-9d424f43d6e3","system_id":"levelo_inurba_marseille","lat":43.24078,"lon":5.37758,"is_reserved":false,"is_disabled":false,"rental_uris":{"android":"levelo://app?vid=79ddf1f5-186b-4457-a77e-9d424f43d6e3","ios":"levelo://app?vid=79ddf1f5-186b-4457-a77e-9d424f43d6e3"},"vehicle_type_id":"4","last_reported":1728976130,"current_range_meters":16400,"station_id":"ce4bhnp2rcd13ifvqgvg","pricing_plan_id":"cebpf4jnsgd1na2vs0mg"},{"bike_id":"f4b7596b-9e41-4333-9e8f-13e2744f2a19","system_id":"levelo_inurba_marseille","lat":43.2509,"lon":5.39521,"is_reserved":false,"is_disabled":false,"rental_uris":{"android":"levelo://app?vid=f4b7596b-9e41-4333-9e8f-13e2744f2a19","ios":"levelo://app?vid=f4b7596b-9e41-4333-9e8f-13e2744f2a19"},"vehicle_type_id":"4","last_reported":1728976130,"current_range_meters":28800,"station_id":"ce4bhm12rcd13ifvqgkg","pricing_plan_id":"cebpf4jnsgd1na2vs0mg"},{"bike_id":"a2aa7cfa-fbb9-4f50-9cbb-114f2bd6ac23","system_id":"levelo_inurba_marseille","lat":43.31486,"lon":5.37277,"is_reserved":false,"is_disabled":false,"rental_uris":{"android":"levelo://app?vid=a2aa7cfa-fbb9-4f50-9cbb-114f2bd6ac23","ios":"levelo://app?vid=a2aa7cfa-fbb9-4f50-9cbb-114f2bd6ac23"},"vehicle_type_id":"4","last_reported":1728976130,"current_range_meters":26800,"station_id":"ce4bgt12rcd13ifvqcd0","pricing_plan_id":"cebpf4jnsgd1na2vs0mg"},{"bike_id":"c4583097-cbd6-4914-98b4-4ed8d598d525","system_id":"levelo_inurba_marseille","lat":43.26566,"lon":5.39002,"is_reserved":false,"is_disabled":false,"rental_uris":{"android":"levelo://app?vid=c4583097-cbd6-4914-98b4-4ed8d598d525","ios":"levelo://app?vid=c4583097-cbd6-4914-98b4-4ed8d598d525"},"vehicle_type_id":"4","last_reported":1728976130,"current_range_meters":32800,"station_id":"ce4bhe12rcd13ifvqf30","pricing_plan_id":"cebpf4jnsgd1na2vs0mg"},{"bike_id":"28638b97-3db3-429a-b1c8-000aae2ee268","system_id":"levelo_inurba_marseille","lat":43.286865,"lon":5.373918,"is_reserved":false,"is_disabled":false,"rental_uris":{"android":"levelo://app?vid=28638b97-3db3-429a-b1c8-000aae2ee268","ios":"levelo://app?vid=28638b97-3db3-429a-b1c8-000aae2ee268"},"vehicle_type_id":"4","last_reported":1728976130,"current_range_meters":26000,"station_id":"ce4bh3p2rcd13ifvqdq0","pricing_plan_id":"cebpf4jnsgd1na2vs0mg"},{"bike_id":"754da881-cbc9-4b35-beb2-51d368048841","system_id":"levelo_inurba_marseille","lat":43.33722,"lon":5.37446,"is_reserved":false,"is_disabled":false,"rental_uris":{"android":"levelo://app?vid=754da881-cbc9-4b35-beb2-51d368048841","ios":"levelo://app?vid=754da881-cbc9-4b35-beb2-51d368048841"},"vehicle_type_id":"4","last_reported":1728976130,"current_range_meters":36800,"station_id":"","pricing_plan_id":"cebpf4jnsgd1na2vs0mg"},{"bike_id":"eaa51ee4-e228-4344-b589-f65312efa8f0","system_id":"levelo_inurba_marseille","lat":43.26783,"lon":5.39415,"is_reserved":false,"is_disabled":false,"rental_uris":{"android":"levelo://app?vid=eaa51ee4-e228-4344-b589-f65312efa8f0","ios":"levelo://app?vid=eaa51ee4-e228-4344-b589-f65312efa8f0"},"vehicle_type_id":"4","last_reported":1728976130,"current_range_meters":5600,"station_id":"ce4bhh12rcd13ifvqfg0","pricing_plan_id":"cebpf4jnsgd1na2vs0mg"},{"bike_id":"996aeef4-ef61-443c-9e98-4ef75b6646e3","system_id":"levelo_inurba_marseille","lat":43.30312,"lon":5.36884,"is_reserved":false,"is_disabled":false,"rental_uris":{"android":"levelo://app?vid=996aeef4-ef61-443c-9e98-4ef75b6646e3","ios":"levelo://app?vid=996aeef4-ef61-443c-9e98-4ef75b6646e3"},"vehicle_type_id":"4","last_reported":1728976130,"current_range_meters":27600,"station_id":"ce4bgqh2rcd13ifvqc5g","pricing_plan_id":"cebpf4jnsgd1na2vs0mg"},{"bike_id":"0f8786e1-d19f-4e2e-9a78-62d0d23793dc","system_id":"levelo_inurba_marseille","lat":43.23151,"lon":5.43723,"is_reserved":false,"is_disabled":false,"rental_uris":{"android":"levelo://app?vid=0f8786e1-d19f-4e2e-9a78-62d0d23793dc","ios":"levelo://app?vid=0f8786e1-d19f-4e2e-9a78-62d0d23793dc"},"vehicle_type_id":"4","last_reported":1728976130,"current_range_meters":26000,"station_id":"ce4bhmp2rcd13ifvqgog","pricing_plan_id":"cebpf4jnsgd1na2vs0mg"},{"bike_id":"dde86e9c-08ab-447e-8977-98fcc15ceb96","system_id":"levelo_inurba_marseille","lat":43.24082,"lon":5.37754,"is_reserved":false,"is_disabled":false,"rental_uris":{"android":"levelo://app?vid=dde86e9c-08ab-447e-8977-98fcc15ceb96","ios":"levelo://app?vid=dde86e9c-08ab-447e-8977-98fcc15ceb96"},"vehicle_type_id":"4","last_reported":1728976130,"current_range_meters":13600,"station_id":"ce4bhnp2rcd13ifvqgvg","pricing_plan_id":"cebpf4jnsgd1na2vs0mg"},{"bike_id":"b1ce1002-a0c8-4871-8eed-d8113342009a","system_id":"levelo_inurba_marseille","lat":43.29744,"lon":5.38011,"is_reserved":false,"is_disabled":false,"rental_uris":{"android":"levelo://app?vid=b1ce1002-a0c8-4871-8eed-d8113342009a","ios":"levelo://app?vid=b1ce1002-a0c8-4871-8eed-d8113342009a"},"vehicle_type_id":"4","last_reported":1728976130,"current_range_meters":26000,"station_id":"","pricing_plan_id":"cebpf4jnsgd1na2vs0mg"},{"bike_id":"80004c0b-1888-4bc4-861c-1bb18fe1efd7","system_id":"levelo_inurba_marseille","lat":43.29561,"lon":5.42289,"is_reserved":false,"is_disabled":false,"rental_uris":{"android":"levelo://app?vid=80004c0b-1888-4bc4-861c-1bb18fe1efd7","ios":"levelo://app?vid=80004c0b-1888-4bc4-861c-1bb18fe1efd7"},"vehicle_type_id":"4","last_reported":1728976130,"current_range_meters":39200,"station_id":"ce4bhph2rcd13ifvqhdg","pricing_plan_id":"cebpf4jnsgd1na2vs0mg"},{"bike_id":"4489eb57-3bb6-4dcc-af4f-deedd1c842cf","system_id":"levelo_inurba_marseille","lat":43.25729,"lon":5.4111,"is_reserved":false,"is_disabled":false,"rental_uris":{"android":"levelo://app?vid=4489eb57-3bb6-4dcc-af4f-deedd1c842cf","ios":"levelo://app?vid=4489eb57-3bb6-4dcc-af4f-deedd1c842cf"},"vehicle_type_id":"4","last_reported":1728976130,"current_range_meters":39200,"station_id":"ce4bhkp2rcd13ifvqgd0","pricing_plan_id":"cebpf4jnsgd1na2vs0mg"},{"bike_id":"b7ef1f60-ffe0-4631-93f5-5f712203b698","system_id":"levelo_inurba_marseille","lat":43.32542,"lon":5.41433,"is_reserved":false,"is_disabled":false,"rental_uris":{"android":"levelo://app?vid=b7ef1f60-ffe0-4631-93f5-5f712203b698","ios":"levelo://app?vid=b7ef1f60-ffe0-4631-93f5-5f712203b698"},"vehicle_type_id":"4","last_reported":1728976130,"current_range_meters":32800,"station_id":"ce4bhq12rcd13ifvqhhg","pricing_plan_id":"cebpf4jnsgd1na2vs0mg"},{"bike_id":"85f8e4ef-a703-428d-9079-be396eb9a9af","system_id":"levelo_inurba_marseille","lat":43.32537,"lon":5.41432,"is_reserved":false,"is_disabled":false,"rental_uris":{"android":"levelo://app?vid=85f8e4ef-a703-428d-9079-be396eb9a9af","ios":"levelo://app?vid=85f8e4ef-a703-428d-9079-be396eb9a9af"},"vehicle_type_id":"4","last_reported":1728976130,"current_range_meters":7200,"station_id":"ce4bhq12rcd13ifvqhhg","pricing_plan_id":"cebpf4jnsgd1na2vs0mg"},{"bike_id":"cc23c70b-bac9-4c9f-99fe-212aa7d8c88d","system_id":"levelo_inurba_marseille","lat":43.2587,"lon":5.39899,"is_reserved":false,"is_disabled":false,"rental_uris":{"android":"levelo://app?vid=cc23c70b-bac9-4c9f-99fe-212aa7d8c88d","ios":"levelo://app?vid=cc23c70b-bac9-4c9f-99fe-212aa7d8c88d"},"vehicle_type_id":"4","last_reported":1728976130,"current_range_meters":32000,"station_id":"ce4bhl92rcd13ifvqghg","pricing_plan_id":"cebpf4jnsgd1na2vs0mg"},{"bike_id":"0d27bf54-1973-4532-95f3-d19c868d7288","system_id":"levelo_inurba_marseille","lat":43.25934,"lon":5.40911,"is_reserved":false,"is_disabled":false,"rental_uris":{"android":"levelo://app?vid=0d27bf54-1973-4532-95f3-d19c868d7288","ios":"levelo://app?vid=0d27bf54-1973-4532-95f3-d19c868d7288"},"vehicle_type_id":"4","last_reported":1728976130,"current_range_meters":3200,"station_id":"ce4bhm92rcd13ifvqglg","pricing_plan_id":"cebpf4jnsgd1na2vs0mg"},{"bike_id":"fd082f2a-9394-43cc-a0ab-471a8161b557","system_id":"levelo_inurba_marseille","lat":43.27058,"lon":5.40263,"is_reserved":false,"is_disabled":false,"rental_uris":{"android":"levelo://app?vid=fd082f2a-9394-43cc-a0ab-471a8161b557","ios":"levelo://app?vid=fd082f2a-9394-43cc-a0ab-471a8161b557"},"vehicle_type_id":"4","last_reported":1728976130,"current_range_meters":18800,"station_id":"ce4bhk92rcd13ifvqgc0","pricing_plan_id":"cebpf4jnsgd1na2vs0mg"},{"bike_id":"136f066f-1178-4684-ade7-96f6d206f347","system_id":"levelo_inurba_marseille","lat":43.23152,"lon":5.43723,"is_reserved":false,"is_disabled":false,"rental_uris":{"android":"levelo://app?vid=136f066f-1178-4684-ade7-96f6d206f347","ios":"levelo://app?vid=136f066f-1178-4684-ade7-96f6d206f347"},"vehicle_type_id":"4","last_reported":1728976130,"current_range_meters":18000,"station_id":"ce4bhmp2rcd13ifvqgog","pricing_plan_id":"cebpf4jnsgd1na2vs0mg"},{"bike_id":"1b5fed6f-86b5-43b2-b23f-805b40cb8553","system_id":"levelo_inurba_marseille","lat":43.2407,"lon":5.37767,"is_reserved":false,"is_disabled":false,"rental_uris":{"android":"levelo://app?vid=1b5fed6f-86b5-43b2-b23f-805b40cb8553","ios":"levelo://app?vid=1b5fed6f-86b5-43b2-b23f-805b40cb8553"},"vehicle_type_id":"4","last_reported":1728976130,"current_range_meters":36400,"station_id":"ce4bhnp2rcd13ifvqgvg","pricing_plan_id":"cebpf4jnsgd1na2vs0mg"},{"bike_id":"f83487b8-cf5a-4d8b-a09a-2f8b8d0d5a46","system_id":"levelo_inurba_marseille","lat":43.337444,"lon":5.374475,"is_reserved":false,"is_disabled":false,"rental_uris":{"android":"levelo://app?vid=f83487b8-cf5a-4d8b-a09a-2f8b8d0d5a46","ios":"levelo://app?vid=f83487b8-cf5a-4d8b-a09a-2f8b8d0d5a46"},"vehicle_type_id":"4","last_reported":1728976130,"current_range_meters":33600,"station_id":"","pricing_plan_id":"cebpf4jnsgd1na2vs0mg"},{"bike_id":"cb9755fb-be52-47a6-97af-f879065a2ad2","system_id":"levelo_inurba_marseille","lat":43.23156,"lon":5.43719,"is_reserved":false,"is_disabled":false,"rental_uris":{"android":"levelo://app?vid=cb9755fb-be52-47a6-97af-f879065a2ad2","ios":"levelo://app?vid=cb9755fb-be52-47a6-97af-f879065a2ad2"},"vehicle_type_id":"4","last_reported":1728976130,"current_range_meters":18000,"station_id":"ce4bhmp2rcd13ifvqgog","pricing_plan_id":"cebpf4jnsgd1na2vs0mg"},{"bike_id":"188da21e-4c3a-4e15-a926-3ae6182803c7","system_id":"levelo_inurba_marseille","lat":43.3095,"lon":5.39026,"is_reserved":false,"is_disabled":false,"rental_uris":{"android":"levelo://app?vid=188da21e-4c3a-4e15-a926-3ae6182803c7","ios":"levelo://app?vid=188da21e-4c3a-4e15-a926-3ae6182803c7"},"vehicle_type_id":"4","last_reported":1728976130,"current_range_meters":21600,"station_id":"ce4bgup2rcd13ifvqco0","pricing_plan_id":"cebpf4jnsgd1na2vs0mg"},{"bike_id":"816523c5-b086-4535-b6e0-86f98b1e1a30","system_id":"levelo_inurba_marseille","lat":43.27205,"lon":5.39179,"is_reserved":false,"is_disabled":false,"rental_uris":{"android":"levelo://app?vid=816523c5-b086-4535-b6e0-86f98b1e1a30","ios":"levelo://app?vid=816523c5-b086-4535-b6e0-86f98b1e1a30"},"vehicle_type_id":"4","last_reported":1728976130,"current_range_meters":10800,"station_id":"ce4bhhp2rcd13ifvqfm0","pricing_plan_id":"cebpf4jnsgd1na2vs0mg"},{"bike_id":"d60e3d73-cdfe-4769-a0c6-138814f5c4b0","system_id":"levelo_inurba_marseille","lat":43.2997,"lon":5.37176,"is_reserved":false,"is_disabled":false,"rental_uris":{"android":"levelo://app?vid=d60e3d73-cdfe-4769-a0c6-138814f5c4b0","ios":"levelo://app?vid=d60e3d73-cdfe-4769-a0c6-138814f5c4b0"},"vehicle_type_id":"4","last_reported":1728976130,"current_range_meters":37600,"station_id":"ce4bgr92rcd13ifvqc7g","pricing_plan_id":"cebpf4jnsgd1na2vs0mg"},{"bike_id":"f269126c-1b0b-4a1a-a1d6-f8c3716f5336","system_id":"levelo_inurba_marseille","lat":43.23194,"lon":5.35559,"is_reserved":false,"is_disabled":false,"rental_uris":{"android":"levelo://app?vid=f269126c-1b0b-4a1a-a1d6-f8c3716f5336","ios":"levelo://app?vid=f269126c-1b0b-4a1a-a1d6-f8c3716f5336"},"vehicle_type_id":"4","last_reported":1728976130,"current_range_meters":34000,"station_id":"ce4bhu92rcd13ifvqi70","pricing_plan_id":"cebpf4jnsgd1na2vs0mg"},{"bike_id":"5283fc47-e4ff-4e3b-878b-01ca592b3776","system_id":"levelo_inurba_marseille","lat":43.30913,"lon":5.36854,"is_reserved":false,"is_disabled":false,"rental_uris":{"android":"levelo://app?vid=5283fc47-e4ff-4e3b-878b-01ca592b3776","ios":"levelo://app?vid=5283fc47-e4ff-4e3b-878b-01ca592b3776"},"vehicle_type_id":"4","last_reported":1728976130,"current_range_meters":27200,"station_id":"ce4bgn92rcd13ifvqbvg","pricing_plan_id":"cebpf4jnsgd1na2vs0mg"},{"bike_id":"229d0bea-f615-4650-87fa-68d224bdad9b","system_id":"levelo_inurba_marseille","lat":43.30549,"lon":5.36702,"is_reserved":false,"is_disabled":false,"rental_uris":{"android":"levelo://app?vid=229d0bea-f615-4650-87fa-68d224bdad9b","ios":"levelo://app?vid=229d0bea-f615-4650-87fa-68d224bdad9b"},"vehicle_type_id":"4","last_reported":1728976130,"current_range_meters":36800,"station_id":"ce4bgrp2rcd13ifvqc9g","pricing_plan_id":"cebpf4jnsgd1na2vs0mg"},{"bike_id":"69c89ccb-175a-40d8-859c-b8dbd67d14df","system_id":"levelo_inurba_marseille","lat":43.29904,"lon":5.43667,"is_reserved":false,"is_disabled":false,"rental_uris":{"android":"levelo://app?vid=69c89ccb-175a-40d8-859c-b8dbd67d14df","ios":"levelo://app?vid=69c89ccb-175a-40d8-859c-b8dbd67d14df"},"vehicle_type_id":"4","last_reported":1728976130,"current_range_meters":37600,"station_id":"ce4bhpp2rcd13ifvqhfg","pricing_plan_id":"cebpf4jnsgd1na2vs0mg"},{"bike_id":"4f5f66c0-0407-4d11-ad57-3ad4e68050a6","system_id":"levelo_inurba_marseille","lat":43.30536,"lon":5.36566,"is_reserved":false,"is_disabled":false,"rental_uris":{"android":"levelo://app?vid=4f5f66c0-0407-4d11-ad57-3ad4e68050a6","ios":"levelo://app?vid=4f5f66c0-0407-4d11-ad57-3ad4e68050a6"},"vehicle_type_id":"4","last_reported":1728976130,"current_range_meters":31200,"station_id":"ce4bgs12rcd13ifvqcag","pricing_plan_id":"cebpf4jnsgd1na2vs0mg"},{"bike_id":"defd3710-c3ac-43c2-892e-17a14c034587","system_id":"levelo_inurba_marseille","lat":43.24071,"lon":5.37762,"is_reserved":false,"is_disabled":false,"rental_uris":{"android":"levelo://app?vid=defd3710-c3ac-43c2-892e-17a14c034587","ios":"levelo://app?vid=defd3710-c3ac-43c2-892e-17a14c034587"},"vehicle_type_id":"4","last_reported":1728976130,"current_range_meters":25600,"station_id":"ce4bhnp2rcd13ifvqgvg","pricing_plan_id":"cebpf4jnsgd1na2vs0mg"},{"bike_id":"7c1740ec-8451-42df-8934-ce1d545f0f49","system_id":"levelo_inurba_marseille","lat":43.30131,"lon":5.37407,"is_reserved":false,"is_disabled":false,"rental_uris":{"android":"levelo://app?vid=7c1740ec-8451-42df-8934-ce1d545f0f49","ios":"levelo://app?vid=7c1740ec-8451-42df-8934-ce1d545f0f49"},"vehicle_type_id":"4","last_reported":1728976130,"current_range_meters":20000,"station_id":"ce4bgs92rcd13ifvqcc0","pricing_plan_id":"cebpf4jnsgd1na2vs0mg"},{"bike_id":"2714b3d6-51fc-4132-bf37-fe1c39eb9869","system_id":"levelo_inurba_marseille","lat":43.29842,"lon":5.36268,"is_reserved":false,"is_disabled":false,"rental_uris":{"android":"levelo://app?vid=2714b3d6-51fc-4132-bf37-fe1c39eb9869","ios":"levelo://app?vid=2714b3d6-51fc-4132-bf37-fe1c39eb9869"},"vehicle_type_id":"4","last_reported":1728976130,"current_range_meters":36800,"station_id":"ce4bgpp2rcd13ifvqc3g","pricing_plan_id":"cebpf4jnsgd1na2vs0mg"},{"bike_id":"7290b3ca-bf7e-4350-bdd9-54c11bc77ad3","system_id":"levelo_inurba_marseille","lat":43.27495,"lon":5.42454,"is_reserved":false,"is_disabled":false,"rental_uris":{"android":"levelo://app?vid=7290b3ca-bf7e-4350-bdd9-54c11bc77ad3","ios":"levelo://app?vid=7290b3ca-bf7e-4350-bdd9-54c11bc77ad3"},"vehicle_type_id":"4","last_reported":1728976130,"current_range_meters":27200,"station_id":"ce4bhn92rcd13ifvqgrg","pricing_plan_id":"cebpf4jnsgd1na2vs0mg"},{"bike_id":"94d48054-be54-488d-a425-2deb433f452c","system_id":"levelo_inurba_marseille","lat":43.29808,"lon":5.36444,"is_reserved":false,"is_disabled":false,"rental_uris":{"android":"levelo://app?vid=94d48054-be54-488d-a425-2deb433f452c","ios":"levelo://app?vid=94d48054-be54-488d-a425-2deb433f452c"},"vehicle_type_id":"4","last_reported":1728976130,"current_range_meters":26000,"station_id":"ce4bgnh2rcd13ifvqc0g","pricing_plan_id":"cebpf4jnsgd1na2vs0mg"},{"bike_id":"dc8493b9-d17c-44f4-8ca9-3dbd1b04da93","system_id":"levelo_inurba_marseille","lat":43.25718,"lon":5.41114,"is_reserved":false,"is_disabled":false,"rental_uris":{"android":"levelo://app?vid=dc8493b9-d17c-44f4-8ca9-3dbd1b04da93","ios":"levelo://app?vid=dc8493b9-d17c-44f4-8ca9-3dbd1b04da93"},"vehicle_type_id":"4","last_reported":1728976130,"current_range_meters":8800,"station_id":"ce4bhkp2rcd13ifvqgd0","pricing_plan_id":"cebpf4jnsgd1na2vs0mg"},{"bike_id":"55eb567f-6a92-4749-876e-2d089672214b","system_id":"levelo_inurba_marseille","lat":43.26685,"lon":5.38275,"is_reserved":false,"is_disabled":false,"rental_uris":{"android":"levelo://app?vid=55eb567f-6a92-4749-876e-2d089672214b","ios":"levelo://app?vid=55eb567f-6a92-4749-876e-2d089672214b"},"vehicle_type_id":"4","last_reported":1728976130,"current_range_meters":36000,"station_id":"ce4bhg92rcd13ifvqf90","pricing_plan_id":"cebpf4jnsgd1na2vs0mg"},{"bike_id":"c5d97082-9c13-48a0-920e-9d41e080707e","system_id":"levelo_inurba_marseille","lat":43.25725,"lon":5.41104,"is_reserved":false,"is_disabled":false,"rental_uris":{"android":"levelo://app?vid=c5d97082-9c13-48a0-920e-9d41e080707e","ios":"levelo://app?vid=c5d97082-9c13-48a0-920e-9d41e080707e"},"vehicle_type_id":"4","last_reported":1728976130,"current_range_meters":31200,"station_id":"ce4bhkp2rcd13ifvqgd0","pricing_plan_id":"cebpf4jnsgd1na2vs0mg"},