{"last_updated":1746799814,"ttl":60,"version":"2.2","data":{"bikes":[{"bike_id":"e52bfd82-0d4c-4ec9-a63b-aa566ebda16e","system_id":"levelo_inurba_marseille","lat":43.31494,"lon":5.3731,"is_reserved":false,"is_disabled":false,"rental_uris":{"android":"levelo://app?vid=e52bfd82-0d4c-4ec9-a63b-aa566ebda16e","ios":"levelo://app?vid=e52bfd82-0d4c-4ec9-a63b-aa566ebda16e"},"vehicle_type_id":"4","last_reported":1746799814,"current_range_meters":2800,"station_id":"ce4bgt12rcd13ifvqcd0","pricing_plan_id":"cebpf4jnsgd1na2vs0mg"},{"bike_id":"95c4b490-5129-47ed-9e26-6962c7a81a08","system_id":"levelo_inurba_marseille","lat":43.31482,"lon":5.37309,"is_reserved":false,"is_disabled":false,"rental_uris":{"android":"levelo://app?vid=95c4b490-5129-47ed-9e26-6962c7a81a08","ios":"levelo://app?vid=95c4b490-5129-47ed-9e26-6962c7a81a08"},"vehicle_type_id":"4","last_reported":1746799814,"current_range_meters":2800,"station_id":"ce4bgt12rcd13ifvqcd0","pricing_plan_id":"cebpf4jnsgd1na2vs0mg"},{"bike_id":"dece9612-537c-43f9-9bd2-a771c9d28b2c","system_id":"levelo_inurba_marseille","lat":43.25722,"lon":5.41113,"is_reserved":false,"is_disabled":false,"rental_uris":{"android":"levelo://app?vid=dece9612-537c-43f9-9bd2-a771c9d28b2c","ios":"levelo://app?vid=dece9612-537c-43f9-9bd2-a771c9d28b2c"},"vehicle_type_id":"4","last_reported":1746799814,"current_range_meters":3200,"station_id":"ce4bhkp2rcd13ifvqgd0","pricing_plan_id":"cebpf4jnsgd1na2vs0mg"},{"bike_id":"63c02f23-6936-4368-9b86-18e14443d572","system_id":"levelo_inurba_marseille","lat":43.299622,"lon":5.384858,"is_reserved":false,"is_disabled":false,"rental_uris":{"android":"levelo://app?vid=63c02f23-6936-4368-9b86-18e14443d572","ios":"levelo://app?vid=63c02f23-6936-4368-9b86-18e14443d572"},"vehicle_type_id":"4","last_reported":1746799814,"current_range_meters":0,"station_id":"ce4bgj92rcd13ifvqbd0","pricing_plan_id":"cebpf4jnsgd1na2vs0mg"},{"bike_id":"db90afc0-096c-4c13-9b46-963199b64201","system_id":"levelo_inurba_marseille","lat":43.21749,"lon":5.34605,"is_reserved":false,"is_disabled":false,"rental_uris":{"android":"levelo://app?vid=db90afc0-096c-4c13-9b46-963199b64201","ios":"levelo://app?vid=db90afc0-096c-4c13-9b46-963199b64201"},"vehicle_type_id":"4","last_reported":1746799814,"current_range_meters":3200,"station_id":"st_cvj6r9ubvosntc0bgbag","pricing_plan_id":"cebpf4jnsgd1na2vs0mg"},{"bike_id":"140f038d-334a-4468-947c-8824c62e1809","system_id":"levelo_inurba_marseille","lat":43.23957,"lon":5.36628,"is_reserved":false,"is_disabled":false,"rental_uris":{"android":"levelo://app?vid=140f038d-334a-4468-947c-8824c62e1809","ios":"levelo://app?vid=140f038d-334a-4468-947c-8824c62e1809"},"vehicle_type_id":"4","last_reported":1746799814,"current_range_meters":3600,"station_id":"ce4bhi12rcd13ifvqfp0","pricing_plan_id":"cebpf4jnsgd1na2vs0mg"},{"bike_id":"e70a6cc7-17eb-4c4e-8e7c-f66b5cfc0fab","system_id":"levelo_inurba_marseille","lat":43.21176,"lon":5.35078,"is_reserved":false,"is_disabled":false,"rental_uris":{"android":"levelo://app?vid=e70a6cc7-17eb-4c4e-8e7c-f66b5cfc0fab","ios":"levelo://app?vid=e70a6cc7-17eb-4c4e-8e7c-f66b5cfc0fab"},"vehicle_type_id":"4","last_reported":1746799814,"current_range_meters":3600,"station_id":"st_cvj6sg6p6f1abm77japg","pricing_plan_id":"cebpf4jnsgd1na2vs0mg"},{"bike_id":"6dc51cbf-f859-4561-aa7d-5f8ddf6eb2ae","system_id":"levelo_inurba_marseille","lat":43.2439,"lon":5.37052,"is_reserved":false,"is_disabled":false,"rental_uris":{"android":"levelo://app?vid=6dc51cbf-f859-4561-aa7d-5f8ddf6eb2ae","ios":"levelo://app?vid=6dc51cbf-f859-4561-aa7d-5f8ddf6eb2ae"},"vehicle_type_id":"4","last_reported":1746799814,"current_range_meters":3600,"station_id":"ce4bhhh2rcd13ifvqfk0","pricing_plan_id":"cebpf4jnsgd1na2vs0mg"},{"bike_id":"030e47bc-775a-452d-b2fc-72269628f9f7","system_id":"levelo_inurba_marseille","lat":43.31059,"lon":5.38353,"is_reserved":false,"is_disabled":false,"rental_uris":{"android":"levelo://app?vid=030e47bc-775a-452d-b2fc-72269628f9f7","ios":"levelo://app?vid=030e47bc-775a-452d-b2fc-72269628f9f7"},"vehicle_type_id":"4","last_reported":1746799814,"current_range_meters":4000,"station_id":"ce4bgv92rcd13ifvqcr0","pricing_plan_id":"cebpf4jnsgd1na2vs0mg"},{"bike_id":"7a044f7f-04ee-4060-9098-c6c4c74f3de9","system_id":"levelo_inurba_marseille","lat":43.30434,"lon":5.38898,"is_reserved":false,"is_disabled":false,"rental_uris":{"android":"levelo://app?vid=7a044f7f-04ee-4060-9098-c6c4c74f3de9","ios":"levelo://app?vid=7a044f7f-04ee-4060-9098-c6c4c74f3de9"},"vehicle_type_id":"4","last_reported":1746799814,"current_range_meters":4000,"station_id":"ce4bgk12rcd13ifvqbi0","pricing_plan_id":"cebpf4jnsgd1na2vs0mg"},{"bike_id":"8dcf11af-d8f8-4a78-b766-56ee425f08bb","system_id":"levelo_inurba_marseille","lat":43.29444,"lon":5.39193,"is_reserved":false,"is_disabled":false,"rental_uris":{"android":"levelo://app?vid=8dcf11af-d8f8-4a78-b766-56ee425f08bb","ios":"levelo://app?vid=8dcf11af-d8f8-4a78-b766-56ee425f08bb"},"vehicle_type_id":"4","last_reported":1746799814,"current_range_meters":4000,"station_id":"","pricing_plan_id":"cebpf4jnsgd1na2vs0mg"},{"bike_id":"4e56bef7-52b2-4e4f-a131-a00e0398b668","system_id":"levelo_inurba_marseille","lat":43.284435,"lon":5.392033,"is_reserved":false,"is_disabled":false,"rental_uris":{"android":"levelo://app?vid=4e56bef7-52b2-4e4f-a131-a00e0398b668","ios":"levelo://app?vid=4e56bef7-52b2-4e4f-a131-a00e0398b668"},"vehicle_type_id":"4","last_reported":1746799814,"current_range_meters":3600,"station_id":"ce4bhah2rcd13ifvqej0","pricing_plan_id":"cebpf4jnsgd1na2vs0mg"},{"bike_id":"bca1b0aa-9d23-4e65-8a1a-70887fd20e5f","system_id":"levelo_inurba_marseille","lat":43.23055,"lon":5.35494,"is_reserved":false,"is_disabled":false,"rental_uris":{"android":"levelo://app?vid=bca1b0aa-9d23-4e65-8a1a-70887fd20e5f","ios":"levelo://app?vid=bca1b0aa-9d23-4e65-8a1a-70887fd20e5f"},"vehicle_type_id":"4","last_reported":1746799814,"current_range_meters":4400,"station_id":"cpo3342slgdg3j2ifvpg","pricing_plan_id":"cebpf4jnsgd1na2vs0mg"},{"bike_id":"b537c473-f3c9-4f84-8858-133986a70008","system_id":"levelo_inurba_marseille","lat":43.29774,"lon":5.37116,"is_reserved":false,"is_disabled":false,"rental_uris":{"android":"levelo://app?vid=b537c473-f3c9-4f84-8858-133986a70008","ios":"levelo://app?vid=b537c473-f3c9-4f84-8858-133986a70008"},"vehicle_type_id":"4","last_reported":1746799814,"current_range_meters":4400,"station_id":"ce4bgop2rcd13ifvqc1g","pricing_plan_id":"cebpf4jnsgd1na2vs0mg"},{"bike_id":"f422e94b-fde0-4ff4-87f6-c497bb51c460","system_id":"levelo_inurba_marseille","lat":43.27128,"lon":5.392483,"is_reserved":false,"is_disabled":false,"rental_uris":{"android":"levelo://app?vid=f422e94b-fde0-4ff4-87f6-c497bb51c460","ios":"levelo://app?vid=f422e94b-fde0-4ff4-87f6-c497bb51c460"},"vehicle_type_id":"4","last_reported":1746799814,"current_range_meters":4400,"station_id":"","pricing_plan_id":"cebpf4jnsgd1na2vs0mg"},{"bike_id":"17934d3c-a198-4e26-affc-cd1cf6bfb346","system_id":"levelo_inurba_marseille","lat":43.27206,"lon":5.39207,"is_reserved":false,"is_disabled":false,"rental_uris":{"android":"levelo://app?vid=17934d3c-a198-4e26-affc-cd1cf6bfb346","ios":"levelo://app?vid=17934d3c-a198-4e26-affc-cd1cf6bfb346"},"vehicle_type_id":"4","last_reported":1746799814,"current_range_meters":4400,"station_id":"ce4bhhp2rcd13ifvqfm0","pricing_plan_id":"cebpf4jnsgd1na2vs0mg"},{"bike_id":"54f3f494-3471-44e1-aa20-cec52e6ff2d7","system_id":"levelo_inurba_marseille","lat":43.24801,"lon":5.37457,"is_reserved":false,"is_disabled":false,"rental_uris":{"android":"levelo://app?vid=54f3f494-3471-44e1-aa20-cec52e6ff2d7","ios":"levelo://app?vid=54f3f494-3471-44e1-aa20-cec52e6ff2d7"},"vehicle_type_id":"4","last_reported":1746799814,"current_range_meters":4400,"station_id":"ce4bhgh2rcd13ifvqfb0","pricing_plan_id":"cebpf4jnsgd1na2vs0mg"},{"bike_id":"36db3327-e6bb-46a3-9550-28ef738c3a25","system_id":"levelo_inurba_marseille","lat":43.31728,"lon":5.423951,"is_reserved":false,"is_disabled":false,"rental_uris":{"android":"levelo://app?vid=36db3327-e6bb-46a3-9550-28ef738c3a25","ios":"levelo://app?vid=36db3327-e6bb-46a3-9550-28ef738c3a25"},"vehicle_type_id":"4","last_reported":1746799814,"current_range_meters":4000,"station_id":"ce4bhp92rcd13ifvqhbg","pricing_plan_id":"cebpf4jnsgd1na2vs0mg"},{"bike_id":"588c5cd6-8f8b-4d14-9808-982bb35fbac1","system_id":"levelo_inurba_marseille","lat":43.26817,"lon":5.40239,"is_reserved":false,"is_disabled":false,"rental_uris":{"android":"levelo://app?vid=588c5cd6-8f8b-4d14-9808-982bb35fbac1","ios":"levelo://app?vid=588c5cd6-8f8b-4d14-9808-982bb35fbac1"},"vehicle_type_id":"4","last_reported":1746799814,"current_range_meters":5600,"station_id":"ce501612rcd8frsf0b60","pricing_plan_id":"cebpf4jnsgd1na2vs0mg"},{"bike_id":"26dd2e77-10e6-47b5-b39a-1a7260d3cb45","system_id":"levelo_inurba_marseille","lat":43.298998,"lon":5.381346,"is_reserved":false,"is_disabled":false,"rental_uris":{"android":"levelo://app?vid=26dd2e77-10e6-47b5-b39a-1a7260d3cb45","ios":"levelo://app?vid=26dd2e77-10e6-47b5-b39a-1a7260d3cb45"},"vehicle_type_id":"4","last_reported":1746799814,"current_range_meters":5600,"station_id":"ce4bgj12rcd13ifvqbc0","pricing_plan_id":"cebpf4jnsgd1na2vs0mg"},{"bike_id":"0fee1bde-ba20-4d0d-8c94-026680574009","system_id":"levelo_inurba_marseille","lat":43.3137,"lon":5.36729,"is_reserved":false,"is_disabled":false,"rental_uris":{"android":"levelo://app?vid=0fee1bde-ba20-4d0d-8c94-026680574009","ios":"levelo://app?vid=0fee1bde-ba20-4d0d-8c94-026680574009"},"vehicle_type_id":"4","last_reported":1746799814,"current_range_meters":5600,"station_id":"ce4bgr92rcd13ifvqc6g","pricing_plan_id":"cebpf4jnsgd1na2vs0mg"},{"bike_id":"1f281ed5-8e05-43ba-b583-cf4e73bd4cb4","system_id":"levelo_inurba_marseille","lat":43.321134,"lon":5.367758,"is_reserved":false,"is_disabled":false,"rental_uris":{"android":"levelo://app?vid=1f281ed5-8e05-43ba-b583-cf4e73bd4cb4","ios":"levelo://app?vid=1f281ed5-8e05-43ba-b583-cf4e73bd4cb4"},"vehicle_type_id":"4","last_reported":1746799814,"current_range_meters":6000,"station_id":"ce4bhrh2rcd13ifvqhug","pricing_plan_id":"cebpf4jnsgd1na2vs0mg"},{"bike_id":"be489cf2-ce24-4a71-8e74-65751e81ff6e","system_id":"levelo_inurba_marseille","lat":43.298767,"lon":5.397551,"is_reserved":false,"is_disabled":false,"rental_uris":{"android":"levelo://app?vid=be489cf2-ce24-4a71-8e74-65751e81ff6e","ios":"levelo://app?vid=be489cf2-ce24-4a71-8e74-65751e81ff6e"},"vehicle_type_id":"4","last_reported":1746799814,"current_range_meters":6000,"station_id":"ce4bh0h2rcd13ifvqd50","pricing_plan_id":"cebpf4jnsgd1na2vs0mg"},{"bike_id":"23f9773e-68a0-496d-8101-7d66b6971e09","system_id":"levelo_inurba_marseille","lat":43.29798,"lon":5.38093,"is_reserved":false,"is_disabled":false,"rental_uris":{"android":"levelo://app?vid=23f9773e-68a0-496d-8101-7d66b6971e09","ios":"levelo://app?vid=23f9773e-68a0-496d-8101-7d66b6971e09"},"vehicle_type_id":"4","last_reported":1746799814,"current_range_meters":6000,"station_id":"ce4bgip2rcd13ifvqbb0","pricing_plan_id":"cebpf4jnsgd1na2vs0mg"},{"bike_id":"72a0ea38-ffd1-4497-b39d-072366c3d248","system_id":"levelo_inurba_marseille","lat":43.28441,"lon":5.39193,"is_reserved":false,"is_disabled":false,"rental_uris":{"android":"levelo://app?vid=72a0ea38-ffd1-4497-b39d-072366c3d248","ios":"levelo://app?vid=72a0ea38-ffd1-4497-b39d-072366c3d248"},"vehicle_type_id":"4","last_reported":1746799814,"current_range_meters":6000,"station_id":"ce4bhoh2rcd13ifvqh5g","pricing_plan_id":"cebpf4jnsgd1na2vs0mg"},{"bike_id":"6f1985a8-3456-4c41-9235-0b8dd3d387f1","system_id":"levelo_inurba_marseille","lat":43.28072,"lon":5.39658,"is_reserved":false,"is_disabled":false,"rental_uris":{"android":"levelo://app?vid=6f1985a8-3456-4c41-9235-0b8dd3d387f1","ios":"levelo://app?vid=6f1985a8-3456-4c41-9235-0b8dd3d387f1"},"vehicle_type_id":"4","last_reported":1746799814,"current_range_meters":6400,"station_id":"ce4bho12rcd13ifvqh2g","pricing_plan_id":"cebpf4jnsgd1na2vs0mg"},{"bike_id":"8d095ffd-4ef6-4e90-b8a1-78b0c594c1a2","system_id":"levelo_inurba_marseille","lat":43.28949,"lon":5.36422,"is_reserved":false,"is_disabled":false,"rental_uris":{"android":"levelo://app?vid=8d095ffd-4ef6-4e90-b8a1-78b0c594c1a2","ios":"levelo://app?vid=8d095ffd-4ef6-4e90-b8a1-78b0c594c1a2"},"vehicle_type_id":"4","last_reported":1746799814,"current_range_meters":6400,"station_id":"ce4bhc92rcd13ifvqetg","pricing_plan_id":"cebpf4jnsgd1na2vs0mg"},{"bike_id":"c7846d61-a563-408a-9bbc-4e3f10681eeb","system_id":"levelo_inurba_marseille","lat":43.28944,"lon":5.36647,"is_reserved":false,"is_disabled":false,"rental_uris":{"android":"levelo://app?vid=c7846d61-a563-408a-9bbc-4e3f10681eeb","ios":"levelo://app?vid=c7846d61-a563-408a-9bbc-4e3f10681eeb"},"vehicle_type_id":"4","last_reported":1746799814,"current_range_meters":6400,"station_id":"ce4bhap2rcd13ifvqek0","pricing_plan_id":"cebpf4jnsgd1na2vs0mg"},{"bike_id":"5e539fc1-1181-4cd8-a150-63791303e21e","system_id":"levelo_inurba_marseille","lat":43.31092,"lon":5.42434,"is_reserved":false,"is_disabled":false,"rental_uris":{"android":"levelo://app?vid=5e539fc1-1181-4cd8-a150-63791303e21e","ios":"levelo://app?vid=5e539fc1-1181-4cd8-a150-63791303e21e"},"vehicle_type_id":"4","last_reported":1746799814,"current_range_meters":6400,"station_id":"ce4bhp92rcd13ifvqhag","pricing_plan_id":"cebpf4jnsgd1na2vs0mg"},{"bike_id":"24a02016-a932-4bb5-b40e-e65338592af4","system_id":"levelo_inurba_marseille","lat":43.249937,"lon":5.389336,"is_reserved":false,"is_disabled":false,"rental_uris":{"android":"levelo://app?vid=24a02016-a932-4bb5-b40e-e65338592af4","ios":"levelo://app?vid=24a02016-a932-4bb5-b40e-e65338592af4"},"vehicle_type_id":"4","last_reported":1746799814,"current_range_meters":6400,"station_id":"ce4bhgp2rcd13ifvqfd0","pricing_plan_id":"cebpf4jnsgd1na2vs0mg"},{"bike_id":"bfda50f2-1427-4658-b68e-af6e6c028098","system_id":"levelo_inurba_marseille","lat":43.29606,"lon":5.381068,"is_reserved":false,"is_disabled":false,"rental_uris":{"android":"levelo://app?vid=bfda50f2-1427-4658-b68e-af6e6c028098","ios":"levelo://app?vid=bfda50f2-1427-4658-b68e-af6e6c028098"},"vehicle_type_id":"4","last_reported":1746799814,"current_range_meters":6400,"station_id":"ce4bgl12rcd13ifvqbo0","pricing_plan_id":"cebpf4jnsgd1na2vs0mg"},{"bike_id":"6f9ecc0d-649f-454c-afbc-3ce163455346","system_id":"levelo_inurba_marseille","lat":43.27178,"lon":5.40996,"is_reserved":false,"is_disabled":false,"rental_uris":{"android":"levelo://app?vid=6f9ecc0d-649f-454c-afbc-3ce163455346","ios":"levelo://app?vid=6f9ecc0d-649f-454c-afbc-3ce163455346"},"vehicle_type_id":"4","last_reported":1746799814,"current_range_meters":6400,"station_id":"ce4bhl12rcd13ifvqgf0","pricing_plan_id":"cebpf4jnsgd1na2vs0mg"},{"bike_id":"ed35d9ad-345a-4749-8b61-e4a318243e21","system_id":"levelo_inurba_marseille","lat":43.26219,"lon":5.40472,"is_reserved":false,"is_disabled":false,"rental_uris":{"android":"levelo://app?vid=ed35d9ad-345a-4749-8b61-e4a318243e21","ios":"levelo://app?vid=ed35d9ad-345a-4749-8b61-e4a318243e21"},"vehicle_type_id":"4","last_reported":1746799814,"current_range_meters":6400,"station_id":"ce4bhmh2rcd13ifvqgmg","pricing_plan_id":"cebpf4jnsgd1na2vs0mg"},{"bike_id":"e63b60b0-5923-4373-bcee-c8f0f75bc108","system_id":"levelo_inurba_marseille","lat":43.31331,"lon":5.39695,"is_reserved":false,"is_disabled":false,"rental_uris":{"android":"levelo://app?vid=e63b60b0-5923-4373-bcee-c8f0f75bc108","ios":"levelo://app?vid=e63b60b0-5923-4373-bcee-c8f0f75bc108"},"vehicle_type_id":"4","last_reported":1746799814,"current_range_meters":6800,"station_id":"ce4bgvp2rcd13ifvqcu0","pricing_plan_id":"cebpf4jnsgd1na2vs0mg"},{"bike_id":"131d0b5c-3ad3-4b56-9b6e-f16a830b63e7","system_id":"levelo_inurba_marseille","lat":43.27916,"lon":5.3958,"is_reserved":false,"is_disabled":false,"rental_uris":{"android":"levelo://app?vid=131d0b5c-3ad3-4b56-9b6e-f16a830b63e7","ios":"levelo://app?vid=131d0b5c-3ad3-4b56-9b6e-f16a830b63e7"},"vehicle_type_id":"4","last_reported":1746799814,"current_range_meters":6800,"station_id":"ce4bhf92rcd13ifvqf40","pricing_plan_id":"cebpf4jnsgd1na2vs0mg"},{"bike_id":"f7a72bf4-871a-46e1-977f-6b5df4afeb3f","system_id":"levelo_inurba_marseille","lat":43.29056,"lon":5.35909,"is_reserved":false,"is_disabled":false,"rental_uris":{"android":"levelo://app?vid=f7a72bf4-871a-46e1-977f-6b5df4afeb3f","ios":"levelo://app?vid=f7a72bf4-871a-46e1-977f-6b5df4afeb3f"},"vehicle_type_id":"4","last_reported":1746799814,"current_range_meters":8400,"station_id":"ce4bha92rcd13ifvqeg0","pricing_plan_id":"cebpf4jnsgd1na2vs0mg"},{"bike_id":"fbf2b229-4d4b-4cfb-bfcb-10499e9aef3a","system_id":"levelo_inurba_marseille","lat":43.28452,"lon":5.35889,"is_reserved":false,"is_disabled":false,"rental_uris":{"android":"levelo://app?vid=fbf2b229-4d4b-4cfb-bfcb-10499e9aef3a","ios":"levelo://app?vid=fbf2b229-4d4b-4cfb-bfcb-10499e9aef3a"},"vehicle_type_id":"4","last_reported":1746799814,"current_range_meters":7200,"station_id":"ce4bhah2rcd13ifvqei0","pricing_plan_id":"cebpf4jnsgd1na2vs0mg"},{"bike_id":"a5e46a3a-ba6a-4127-a029-aa7a0a878887","system_id":"levelo_inurba_marseille","lat":43.28434,"lon":5.39188,"is_reserved":false,"is_disabled":false,"rental_uris":{"android":"levelo://app?vid=a5e46a3a-ba6a-4127-a029-aa7a0a878887","ios":"levelo://app?vid=a5e46a3a-ba6a-4127-a029-aa7a0a878887"},"vehicle_type_id":"4","last_reported":1746799814,"current_range_meters":7200,"station_id":"ce4bhoh2rcd13ifvqh5g","pricing_plan_id":"cebpf4jnsgd1na2vs0mg"},{"bike_id":"94c2f4e8-210c-4e4c-9bc6-9d49da3615f8","system_id":"levelo_inurba_marseille","lat":43.30425,"lon":5.39755,"is_reserved":false,"is_disabled":false,"rental_uris":{"android":"levelo://app?vid=94c2f4e8-210c-4e4c-9bc6-9d49da3615f8","ios":"levelo://app?vid=94c2f4e8-210c-4e4c-9bc6-9d49da3615f8"},"vehicle_type_id":"4","last_reported":1746799814,"current_range_meters":8000,"station_id":"ce4bh092rcd13ifvqd20","pricing_plan_id":"cebpf4jnsgd1na2vs0mg"},{"bike_id":"48e687c4-4053-41a7-b4c3-cd6f220a8cb9","system_id":"levelo_inurba_marseille","lat":43.28361,"lon":5.38634,"is_reserved":false,"is_disabled":false,"rental_uris":{"android":"levelo://app?vid=48e687c4-4053-41a7-b4c3-cd6f220a8cb9","ios":"levelo://app?vid=48e687c4-4053-41a7-b4c3-cd6f220a8cb9"},"vehicle_type_id":"4","last_reported":1746799814,"current_range_meters":8000,"station_id":"ce4bh492rcd13ifvqdvg","pricing_plan_id":"cebpf4jnsgd1na2vs0mg"},{"bike_id":"3f9f1e2d-2506-436b-8138-c7adb4e0af1c","system_id":"levelo_inurba_marseille","lat":43.2469,"lon":5.38136,"is_reserved":false,"is_disabled":false,"rental_uris":{"android":"levelo://app?vid=3f9f1e2d-2506-436b-8138-c7adb4e0af1c","ios":"levelo://app?vid=3f9f1e2d-2506-436b-8138-c7adb4e0af1c"},"vehicle_type_id":"4","last_reported":1746799814,"current_range_meters":8000,"station_id":"ce4bhih2rcd13ifvqfr0","pricing_plan_id":"cebpf4jnsgd1na2vs0mg"},{"bike_id":"fc01e7d0-8b46-40f1-8398-55071e760a2f","system_id":"levelo_inurba_marseille","lat":43.25575,"lon":5.38264,"is_reserved":false,"is_disabled":false,"rental_uris":{"android":"levelo://app?vid=fc01e7d0-8b46-40f1-8398-55071e760a2f","ios":"levelo://app?vid=fc01e7d0-8b46-40f1-8398-55071e760a2f"},"vehicle_type_id":"4","last_reported":1746799814,"current_range_meters":8400,"station_id":"ce4bhih2rcd13ifvqfs0","pricing_plan_id":"cebpf4jnsgd1na2vs0mg"},{"bike_id":"f673a50d-776a-4d4f-8bc2-0f75017ffb52","system_id":"levelo_inurba_marseille","lat":43.284499,"lon":5.358347,"is_reserved":false,"is_disabled":false,"rental_uris":{"android":"levelo://app?vid=f673a50d-776a-4d4f-8bc2-0f75017ffb52","ios":"levelo://app?vid=f673a50d-776a-4d4f-8bc2-0f75017ffb52"},"vehicle_type_id":"4","last_reported":1746799814,"current_range_meters":8400,"station_id":"ce4bhah2rcd13ifvqei0","pricing_plan_id":"cebpf4jnsgd1na2vs0mg"},{"bike_id":"3311c1f1-091b-4394-846c-138bab96fa5d","system_id":"levelo_inurba_marseille","lat":43.279008,"lon":5.380056,"is_reserved":false,"is_disabled":false,"rental_uris":{"android":"levelo://app?vid=3311c1f1-091b-4394-846c-138bab96fa5d","ios":"levelo://app?vid=3311c1f1-091b-4394-846c-138bab96fa5d"},"vehicle_type_id":"4","last_reported":1746799814,"current_range_meters":8400,"station_id":"ce4bhf92rcd13ifvqf50","pricing_plan_id":"cebpf4jnsgd1na2vs0mg"},{"bike_id":"283c096d-9775-40df-9ef5-3ff56b9146cb","system_id":"levelo_inurba_marseille","lat":43.21744,"lon":5.34603,"is_reserved":false,"is_disabled":true,"rental_uris":{"android":"levelo://app?vid=283c096d-9775-40df-9ef5-3ff56b9146cb","ios":"levelo://app?vid=283c096d-9775-40df-9ef5-3ff56b9146cb"},"vehicle_type_id":"4","last_reported":1746799814,"current_range_meters":8400,"station_id":"st_cvj6r9ubvosntc0bgbag","pricing_plan_id":"cebpf4jnsgd1na2vs0mg"},{"bike_id":"985882ea-47fa-4820-9e52-5cc9ce4dee01","system_id":"levelo_inurba_marseille","lat":43.305693,"lon":5.372473,"is_reserved":false,"is_disabled":false,"rental_uris":{"android":"levelo://app?vid=985882ea-47fa-4820-9e52-5cc9ce4dee01","ios":"levelo://app?vid=985882ea-47fa-4820-9e52-5cc9ce4dee01"},"vehicle_type_id":"4","last_reported":1746799814,"current_range_meters":8400,"station_id":"ce4bgqh2rcd13ifvqc4g","pricing_plan_id":"cebpf4jnsgd1na2vs0mg"},{"bike_id":"01a705f1-0391-4911-b97e-817bae2e5def","system_id":"levelo_inurba_marseille","lat":43.26573,"lon":5.39007,"is_reserved":false,"is_disabled":false,"rental_uris":{"android":"levelo://app?vid=01a705f1-0391-4911-b97e-817bae2e5def","ios":"levelo://app?vid=01a705f1-0391-4911-b97e-817bae2e5def"},"vehicle_type_id":"4","last_reported":1746799814,"current_range_meters":8400,"station_id":"ce4bhe12rcd13ifvqf30","pricing_plan_id":"cebpf4jnsgd1na2vs0mg"},{"bike_id":"970dc75f-b992-48c2-894b-ae9715107788","system_id":"levelo_inurba_marseille","lat":43.25932,"lon":5.40908,"is_reserved":false,"is_disabled":false,"rental_uris":{"android":"levelo://app?vid=970dc75f-b992-48c2-894b-ae9715107788","ios":"levelo://app?vid=970dc75f-b992-48c2-894b-ae9715107788"},"vehicle_type_id":"4","last_reported":1746799814,"current_range_meters":8800,"station_id":"ce4bhm92rcd13ifvqglg","pricing_plan_id":"cebpf4jnsgd1na2vs0mg"},{"bike_id":"a1a2f365-bfda-4c68-9300-36b96c465214","system_id":"levelo_inurba_marseille","lat":43.28,"lon":5.40032,"is_reserved":false,"is_disabled":false,"rental_uris":{"android":"levelo://app?vid=a1a2f365-bfda-4c68-9300-36b96c465214","ios":"levelo://app?vid=a1a2f365-bfda-4c68-9300-36b96c465214"},"vehicle_type_id":"4","last_reported":1746799814,"current_range_meters":8800,"station_id":"ce4bho92rcd13ifvqh4g","pricing_plan_id":"cebpf4jnsgd1na2vs0mg"},{"bike_id":"aa5b56fd-285c-4f0b-8b82-69d5d5f3e2b3","system_id":"levelo_inurba_marseille","lat":43.32297,"lon":5.38249,"is_reserved":false,"is_disabled":false,"rental_uris":{"android":"levelo://app?vid=aa5b56fd-285c-4f0b-8b82-69d5d5f3e2b3","ios":"levelo://app?vid=aa5b56fd-285c-4f0b-8b82-69d5d5f3e2b3"},"vehicle_type_id":"4","last_reported":1746799814,"current_range_meters":8800,"station_id":"ce4bhr12rcd13ifvqhqg","pricing_plan_id":"cebpf4jnsgd1na2vs0mg"},{"bike_id":"47bb6f34-9c89-4a6c-b2ec-6a2d3e007f08","system_id":"levelo_inurba_marseille","lat":43.257,"lon":5.41062,"is_reserved":false,"is_disabled":false,"rental_uris":{"android":"levelo://app?vid=47bb6f34-9c89-4a6c-b2ec-6a2d3e007f08","ios":"levelo://app?vid=47bb6f34-9c89-4a6c-b2ec-6a2d3e007f08"},"vehicle_type_id":"4","last_reported":1746799814,"current_range_meters":8800,"station_id":"ce4bhkp2rcd13ifvqgd0","pricing_plan_id":"cebpf4jnsgd1na2vs0mg"},{"bike_id":"caf9033d-5f00-49c3-b1ee-1328b62008dc","system_id":"levelo_inurba_marseille","lat":43.33614,"lon":5.42821,"is_reserved":false,"is_disabled":false,"rental_uris":{"android":"levelo://app?vid=caf9033d-5f00-49c3-b1ee-1328b62008dc","ios":"levelo://app?vid=caf9033d-5f00-49c3-b1ee-1328b62008dc"},"vehicle_type_id":"4","last_reported":1746799814,"current_range_meters":8800,"station_id":"","pricing_plan_id":"cebpf4jnsgd1na2vs0mg"},{"bike_id":"19b25844-6083-43ff-9799-bb384cfec669","system_id":"levelo_inurba_marseille","lat":43.3043,"lon":5.39746,"is_reserved":false,"is_disabled":false,"rental_uris":{"android":"levelo://app?vid=19b25844-6083-43ff-9799-bb384cfec669","ios":"levelo://app?vid=19b25844-6083-43ff-9799-bb384cfec669"},"vehicle_type_id":"4","last_reported":1746799814,"current_range_meters":8800,"station_id":"ce4bh092rcd13ifvqd20","pricing_plan_id":"cebpf4jnsgd1na2vs0mg"},{"bike_id":"294e5e93-618a-4492-9bac-02c9b5b12a80","system_id":"levelo_inurba_marseille","lat":43.32102,"lon":5.3679,"is_reserved":false,"is_disabled":false,"rental_uris":{"android":"levelo://app?vid=294e5e93-618a-4492-9bac-02c9b5b12a80","ios":"levelo://app?vid=294e5e93-618a-4492-9bac-02c9b5b12a80"},"vehicle_type_id":"4","last_reported":1746799814,"current_range_meters":8800,"station_id":"ce4bhrh2rcd13ifvqhug","pricing_plan_id":"cebpf4jnsgd1na2vs0mg"},{"bike_id":"9e5055ca-1a2a-4c67-8b0b-daf8ae5c0c0b","system_id":"levelo_inurba_marseille","lat":43.28487,"lon":5.38547,"is_reserved":false,"is_disabled":false,"rental_uris":{"android":"levelo://app?vid=9e5055ca-1a2a-4c67-8b0b-daf8ae5c0c0b","ios":"levelo://app?vid=9e5055ca-1a2a-4c67-8b0b-daf8ae5c0c0b"},"vehicle_type_id":"4","last_reported":1746799814,"current_range_meters":9600,"station_id":"ce4bh8p2rcd13ifvqeb0","pricing_plan_id":"cebpf4jnsgd1na2vs0mg"},{"bike_id":"812e31b7-42f9-4d63-b220-e99af5c192ed","system_id":"levelo_inurba_marseille","lat":43.31183,"lon":5.41614,"is_reserved":false,"is_disabled":false,"rental_uris":{"android":"levelo://app?vid=812e31b7-42f9-4d63-b220-e99af5c192ed","ios":"levelo://app?vid=812e31b7-42f9-4d63-b220-e99af5c192ed"},"vehicle_type_id":"4","last_reported":1746799814,"current_range_meters":9200,"station_id":"","pricing_plan_id":"cebpf4jnsgd1na2vs0mg"},{"bike_id":"167d5592-acfa-492b-b15c-aab72a861d42","system_id":"levelo_inurba_marseille","lat":43.31079,"lon":5.42424,"is_reserved":false,"is_disabled":false,"rental_uris":{"android":"levelo://app?vid=167d5592-acfa-492b-b15c-aab72a861d42","ios":"levelo://app?vid=167d5592-acfa-492b-b15c-aab72a861d42"},"vehicle_type_id":"4","last_reported":1746799814,"current_range_meters":9200,"station_id":"ce4bhp92rcd13ifvqhag","pricing_plan_id":"cebpf4jnsgd1na2vs0mg"},{"bike_id":"a2309e80-b2ba-42c9-9c60-147f0babf9f9","system_id":"levelo_inurba_marseille","lat":43.30893,"lon":5.37197,"is_reserved":false,"is_disabled":false,"rental_uris":{"android":"levelo://app?vid=a2309e80-b2ba-42c9-9c60-147f0babf9f9","ios":"levelo://app?vid=a2309e80-b2ba-42c9-9c60-147f0babf9f9"},"vehicle_type_id":"4","last_reported":1746799814,"current_range_meters":9600,"station_id":"ce4bguh2rcd13ifvqckg","pricing_plan_id":"cebpf4jnsgd1na2vs0mg"},{"bike_id":"caccb556-2ad0-45b8-84b8-819024dd44e6","system_id":"levelo_inurba_marseille","lat":43.29822,"lon":5.36832,"is_reserved":false,"is_disabled":false,"rental_uris":{"android":"levelo://app?vid=caccb556-2ad0-45b8-84b8-819024dd44e6","ios":"levelo://app?vid=caccb556-2ad0-45b8-84b8-819024dd44e6"},"vehicle_type_id":"4","last_reported":1746799814,"current_range_meters":9600,"station_id":"","pricing_plan_id":"cebpf4jnsgd1na2vs0mg"},{"bike_id":"ee25d368-e403-434e-a62a-54f67729bad1","system_id":"levelo_inurba_marseille","lat":43.25,"lon":5.38924,"is_reserved":false,"is_disabled":false,"rental_uris":{"android":"levelo://app?vid=ee25d368-e403-434e-a62a-54f67729bad1","ios":"levelo://app?vid=ee25d368-e403-434e-a62a-54f67729bad1"},"vehicle_type_id":"4","last_reported":1746799814,"current_range_meters":9600,"station_id":"ce4bhgp2rcd13ifvqfd0","pricing_plan_id":"cebpf4jnsgd1na2vs0mg"},{"bike_id":"e9367e8d-1673-4ef9-95cf-44ceb7d5fe9b","system_id":"levelo_inurba_marseille","lat":43.29575,"lon":5.39989,"is_reserved":false,"is_disabled":false,"rental_uris":{"android":"levelo://app?vid=e9367e8d-1673-4ef9-95cf-44ceb7d5fe9b","ios":"levelo://app?vid=e9367e8d-1673-4ef9-95cf-44ceb7d5fe9b"},"vehicle_type_id":"4","last_reported":1746799814,"current_range_meters":9200,"station_id":"ce4bh312rcd13ifvqdj0","pricing_plan_id":"cebpf4jnsgd1na2vs0mg"},{"bike_id":"8930717e-6f2f-459d-9186-3fbb434cf1ef","system_id":"levelo_inurba_marseille","lat":43.27912,"lon":5.39576,"is_reserved":false,"is_disabled":false,"rental_uris":{"android":"levelo://app?vid=8930717e-6f2f-459d-9186-3fbb434cf1ef","ios":"levelo://app?vid=8930717e-6f2f-459d-9186-3fbb434cf1ef"},"vehicle_type_id":"4","last_reported":1746799814,"current_range_meters":10000,"station_id":"ce4bhf92rcd13ifvqf40","pricing_plan_id":"cebpf4jnsgd1na2vs0mg"},{"bike_id":"91eb413e-4753-4cdd-add7-5fcfa05c6390","system_id":"levelo_inurba_marseille","lat":43.28615,"lon":5.35102,"is_reserved":false,"is_disabled":false,"rental_uris":{"android":"levelo://app?vid=91eb413e-4753-4cdd-add7-5fcfa05c6390","ios":"levelo://app?vid=91eb413e-4753-4cdd-add7-5fcfa05c6390"},"vehicle_type_id":"4","last_reported":1746799814,"current_range_meters":10000,"station_id":"ce4bhch2rcd13ifvqeug","pricing_plan_id":"cebpf4jnsgd1na2vs0mg"},{"bike_id":"5a9642ea-4730-419c-8882-a4ef07c6ffdd","system_id":"levelo_inurba_marseille","lat":43.27816,"lon":5.40727,"is_reserved":false,"is_disabled":false,"rental_uris":{"android":"levelo://app?vid=5a9642ea-4730-419c-8882-a4ef07c6ffdd","ios":"levelo://app?vid=5a9642ea-4730-419c-8882-a4ef07c6ffdd"},"vehicle_type_id":"4","last_reported":1746799814,"current_range_meters":9600,"station_id":"ce4bhnh2rcd13ifvqgtg","pricing_plan_id":"cebpf4jnsgd1na2vs0mg"},{"bike_id":"d173aa68-ac29-4aee-be94-a2dc30490f90","system_id":"levelo_inurba_marseille","lat":43.25748,"lon":5.41107,"is_reserved":false,"is_disabled":false,"rental_uris":{"android":"levelo://app?vid=d173aa68-ac29-4aee-be94-a2dc30490f90","ios":"levelo://app?vid=d173aa68-ac29-4aee-be94-a2dc30490f90"},"vehicle_type_id":"4","last_reported":1746799814,"current_range_meters":10800,"station_id":"ce4bhkp2rcd13ifvqgd0","pricing_plan_id":"cebpf4jnsgd1na2vs0mg"},{"bike_id":"6fa74ce8-f299-4d6e-bae1-741bd54af124","system_id":"levelo_inurba_marseille","lat":43.27058,"lon":5.42284,"is_reserved":false,"is_disabled":false,"rental_uris":{"android":"levelo://app?vid=6fa74ce8-f299-4d6e-bae1-741bd54af124","ios":"levelo://app?vid=6fa74ce8-f299-4d6e-bae1-741bd54af124"},"vehicle_type_id":"4","last_reported":1746799814,"current_range_meters":10800,"station_id":"ce4bhk92rcd13ifvqgb0","pricing_plan_id":"cebpf4jnsgd1na2vs0mg"},{"bike_id":"044478cb-8194-4092-b984-4fc9c042ef68","system_id":"levelo_inurba_marseille","lat":43.28778,"lon":5.46506,"is_reserved":false,"is_disabled":false,"rental_uris":{"android":"levelo://app?vid=044478cb-8194-4092-b984-4fc9c042ef68","ios":"levelo://app?vid=044478cb-8194-4092-b984-4fc9c042ef68"},"vehicle_type_id":"4","last_reported":1746799814,"current_range_meters":10800,"station_id":"","pricing_plan_id":"cebpf4jnsgd1na2vs0mg"},{"bike_id":"b0c54ead-2c9a-4d45-904a-5e1b9abf7338","system_id":"levelo_inurba_marseille","lat":43.27925,"lon":5.44098,"is_reserved":false,"is_disabled":false,"rental_uris":{"android":"levelo://app?vid=b0c54ead-2c9a-4d45-904a-5e1b9abf7338","ios":"levelo://app?vid=b0c54ead-2c9a-4d45-904a-5e1b9abf7338"},"vehicle_type_id":"4","last_reported":1746799814,"current_range_meters":10800,"station_id":"","pricing_plan_id":"cebpf4jnsgd1na2vs0mg"},{"bike_id":"04469f62-a09e-4384-a144-eb93923c1b6c","system_id":"levelo_inurba_marseille","lat":43.27054,"lon":5.40255,"is_reserved":false,"is_disabled":false,"rental_uris":{"android":"levelo://app?vid=04469f62-a09e-4384-a144-eb93923c1b6c","ios":"levelo://app?vid=04469f62-a09e-4384-a144-eb93923c1b6c"},"vehicle_type_id":"4","last_reported":1746799814,"current_range_meters":10800,"station_id":"ce4bhk92rcd13ifvqgc0","pricing_plan_id":"cebpf4jnsgd1na2vs0mg"},{"bike_id":"c42d0137-01db-4e02-8a6e-f9af61ad1319","system_id":"levelo_inurba_marseille","lat":43.3143,"lon":5.3731,"is_reserved":false,"is_disabled":false,"rental_uris":{"android":"levelo://app?vid=c42d0137-01db-4e02-8a6e-f9af61ad1319","ios":"levelo://app?vid=c42d0137-01db-4e02-8a6e-f9af61ad1319"},"vehicle_type_id":"4","last_reported":1746799814,"current_range_meters":10800,"station_id":"","pricing_plan_id":"cebpf4jnsgd1na2vs0mg"},{"bike_id":"0b0f7082-cd5f-4246-8f8c-dfdca0d7dc1d","system_id":"levelo_inurba_marseille","lat":43.29258,"lon":5.38442,"is_reserved":false,"is_disabled":false,"rental_uris":{"android":"levelo://app?vid=0b0f7082-cd5f-4246-8f8c-dfdca0d7dc1d","ios":"levelo://app?vid=0b0f7082-cd5f-4246-8f8c-dfdca0d7dc1d"},"vehicle_type_id":"4","last_reported":1746799814,"current_range_meters":11200,"station_id":"ce4bh692rcd13ifvqea0","pricing_plan_id":"cebpf4jnsgd1na2vs0mg"},{"bike_id":"7b3baf00-ab10-4b57-9c07-665d00f62e9b","system_id":"levelo_inurba_marseille","lat":43.29257,"lon":5.38442,"is_reserved":false,"is_disabled":false,"rental_uris":{"android":"levelo://app?vid=7b3baf00-ab10-4b57-9c07-665d00f62e9b","ios":"levelo://app?vid=7b3baf00-ab10-4b57-9c07-665d00f62e9b"},"vehicle_type_id":"4","last_reported":1746799814,"current_range_meters":11200,"station_id":"ce4bh692rcd13ifvqea0","pricing_plan_id":"cebpf4jnsgd1na2vs0mg"},{"bike_id":"5844f93e-b169-4646-8756-9c97175d7619","system_id":"levelo_inurba_marseille","lat":43.27811,"lon":5.40712,"is_reserved":false,"is_disabled":false,"rental_uris":{"android":"levelo://app?vid=5844f93e-b169-4646-8756-9c97175d7619","ios":"levelo://app?vid=5844f93e-b169-4646-8756-9c97175d7619"},"vehicle_type_id":"4","last_reported":1746799814,"current_range_meters":10800,"station_id":"ce4bhnh2rcd13ifvqgtg","pricing_plan_id":"cebpf4jnsgd1na2vs0mg"},{"bike_id":"f4123e5c-f44a-48db-bbd5-f41561289c23","system_id":"levelo_inurba_marseille","lat":43.286881,"lon":5.400059,"is_reserved":false,"is_disabled":false,"rental_uris":{"android":"levelo://app?vid=f4123e5c-f44a-48db-bbd5-f41561289c23","ios":"levelo://app?vid=f4123e5c-f44a-48db-bbd5-f41561289c23"},"vehicle_type_id":"4","last_reported":1746799814,"current_range_meters":11200,"station_id":"ce4bho92rcd13ifvqh3g","pricing_plan_id":"cebpf4jnsgd1na2vs0mg"},{"bike_id":"2993480e-0985-4c8f-ac1f-c49ea388ff70","system_id":"levelo_inurba_marseille","lat":43.28706,"lon":5.39994,"is_reserved":false,"is_disabled":false,"rental_uris":{"android":"levelo://app?vid=2993480e-0985-4c8f-ac1f-c49ea388ff70","ios":"levelo://app?vid=2993480e-0985-4c8f-ac1f-c49ea388ff70"},"vehicle_type_id":"4","last_reported":1746799814,"current_range_meters":12000,"station_id":"ce4bho92rcd13ifvqh3g","pricing_plan_id":"cebpf4jnsgd1na2vs0mg"},{"bike_id":"da369330-9941-4544-abf1-3fcf2910a1b3","system_id":"levelo_inurba_marseille","lat":43.29916,"lon":5.37479,"is_reserved":false,"is_disabled":false,"rental_uris":{"android":"levelo://app?vid=da369330-9941-4544-abf1-3fcf2910a1b3","ios":"levelo://app?vid=da369330-9941-4544-abf1-3fcf2910a1b3"},"vehicle_type_id":"4","last_reported":1746799814,"current_range_meters":12000,"station_id":"ce4bgjh2rcd13ifvqbg0","pricing_plan_id":"cebpf4jnsgd1na2vs0mg"},{"bike_id":"0a08e25d-53b9-46f5-9755-1249eb6b822b","system_id":"levelo_inurba_marseille","lat":43.30416,"lon":5.41288,"is_reserved":false,"is_disabled":false,"rental_uris":{"android":"levelo://app?vid=0a08e25d-53b9-46f5-9755-1249eb6b822b","ios":"levelo://app?vid=0a08e25d-53b9-46f5-9755-1249eb6b822b"},"vehicle_type_id":"4","last_reported":1746799814,"current_range_meters":12400,"station_id":"ce4bhop2rcd13ifvqh8g","pricing_plan_id":"cebpf4jnsgd1na2vs0mg"},{"bike_id":"ea3053fc-5506-4d3e-a82b-f52c7da07765","system_id":"levelo_inurba_marseille","lat":43.29259,"lon":5.37617,"is_reserved":false,"is_disabled":false,"rental_uris":{"android":"levelo://app?vid=ea3053fc-5506-4d3e-a82b-f52c7da07765","ios":"levelo://app?vid=ea3053fc-5506-4d3e-a82b-f52c7da07765"},"vehicle_type_id":"4","last_reported":1746799814,"current_range_meters":12400,"station_id":"ce4bgi12rcd13ifvqb80","pricing_plan_id":"cebpf4jnsgd1na2vs0mg"},{"bike_id":"e96ad49c-36f3-4057-ab3b-12e20709366d","system_id":"levelo_inurba_marseille","lat":43.27427,"lon":5.39426,"is_reserved":false,"is_disabled":false,"rental_uris":{"android":"levelo://app?vid=e96ad49c-36f3-4057-ab3b-12e20709366d","ios":"levelo://app?vid=e96ad49c-36f3-4057-ab3b-12e20709366d"},"vehicle_type_id":"4","last_reported":1746799814,"current_range_meters":12400,"station_id":"ce4bhdp2rcd13ifvqf20","pricing_plan_id":"cebpf4jnsgd1na2vs0mg"},{"bike_id":"03116f31-6530-4624-aca1-340b5af52402","system_id":"levelo_inurba_marseille","lat":43.25584,"lon":5.38231,"is_reserved":false,"is_disabled":false,"rental_uris":{"android":"levelo://app?vid=03116f31-6530-4624-aca1-340b5af52402","ios":"levelo://app?vid=03116f31-6530-4624-aca1-340b5af52402"},"vehicle_type_id":"4","last_reported":1746799814,"current_range_meters":12400,"station_id":"ce4bhih2rcd13ifvqfs0","pricing_plan_id":"cebpf4jnsgd1na2vs0mg"},{"bike_id":"8848be3b-804b-4f5f-b312-c939be95773e","system_id":"levelo_inurba_marseille","lat":43.24662,"lon":5.38168,"is_reserved":false,"is_disabled":false,"rental_uris":{"android":"levelo://app?vid=8848be3b-804b-4f5f-b312-c939be95773e","ios":"levelo://app?vid=8848be3b-804b-4f5f-b312-c939be95773e"},"vehicle_type_id":"4","last_reported":1746799814,"current_range_meters":12800,"station_id":"ce4bhih2rcd13ifvqfr0","pricing_plan_id":"cebpf4jnsgd1na2vs0mg"},{"bike_id":"94b1c6a7-a958-417d-853f-1e7583bcb7f5","system_id":"levelo_inurba_marseille","lat":43.323534,"lon":5.367636,"is_reserved":false,"is_disabled":false,"rental_uris":{"android":"levelo://app?vid=94b1c6a7-a958-417d-853f-1e7583bcb7f5","ios":"levelo://app?vid=94b1c6a7-a958-417d-853f-1e7583bcb7f5"},"vehicle_type_id":"4","last_reported":1746799814,"current_range_meters":12800,"station_id":"ce4bhsh2rcd13ifvqi2g","pricing_plan_id":"cebpf4jnsgd1na2vs0mg"},{"bike_id":"4fc2916e-fd8a-4057-add3-fd7205558b49","system_id":"levelo_inurba_marseille","lat":43.314674,"lon":5.39085,"is_reserved":false,"is_disabled":false,"rental_uris":{"android":"levelo://app?vid=4fc2916e-fd8a-4057-add3-fd7205558b49","ios":"levelo://app?vid=4fc2916e-fd8a-4057-add3-fd7205558b49"},"vehicle_type_id":"4","last_reported":1746799814,"current_range_meters":13600,"station_id":"","pricing_plan_id":"cebpf4jnsgd1na2vs0mg"},{"bike_id":"60d74fa4-7e39-4e25-8c5c-be07dd09b1ef","system_id":"levelo_inurba_marseille","lat":43.265076,"lon":5.395469,"is_reserved":false,"is_disabled":false,"rental_uris":{"android":"levelo://app?vid=60d74fa4-7e39-4e25-8c5c-be07dd09b1ef","ios":"levelo://app?vid=60d74fa4-7e39-4e25-8c5c-be07dd09b1ef"},"vehicle_type_id":"4","last_reported":1746799814,"current_range_meters":14000,"station_id":"ce4bhi12rcd13ifvqfq0","pricing_plan_id":"cebpf4jnsgd1na2vs0mg"},{"bike_id":"e6282093-23fb-41a9-859d-c0d9ad966535","system_id":"levelo_inurba_marseille","lat":43.31545,"lon":5.3823,"is_reserved":false,"is_disabled":false,"rental_uris":{"android":"levelo://app?vid=e6282093-23fb-41a9-859d-c0d9ad966535","ios":"levelo://app?vid=e6282093-23fb-41a9-859d-c0d9ad966535"},"vehicle_type_id":"4","last_reported":1746799814,"current_range_meters":14000,"station_id":"","pricing_plan_id":"cebpf4jnsgd1na2vs0mg"},{"bike_id":"ccf486d1-2036-4358-a970-b68530575cba","system_id":"levelo_inurba_marseille","lat":43.25105,"lon":5.40324,"is_reserved":false,"is_disabled":false,"rental_uris":{"android":"levelo://app?vid=ccf486d1-2036-4358-a970-b68530575cba","ios":"levelo://app?vid=ccf486d1-2036-4358-a970-b68530575cba"},"vehicle_type_id":"4","last_reported":1746799814,"current_range_meters":14000,"station_id":"ce4bhlh2rcd13ifvqgig","pricing_plan_id":"cebpf4jnsgd1na2vs0mg"},{"bike_id":"0cba2588-f0b4-4c5b-aeab-0ec8bbbf3064","system_id":"levelo_inurba_marseille","lat":43.25583,"lon":5.3825,"is_reserved":false,"is_disabled":false,"rental_uris":{"android":"levelo://app?vid=0cba2588-f0b4-4c5b-aeab-0ec8bbbf3064","ios":"levelo://app?vid=0cba2588-f0b4-4c5b-aeab-0ec8bbbf3064"},"vehicle_type_id":"4","last_reported":1746799814,"current_range_meters":14400,"station_id":"ce4bhih2rcd13ifvqfs0","pricing_plan_id":"cebpf4jnsgd1na2vs0mg"},{"bike_id":"86d546d5-51b7-4fe1-a61c-b2a1ffc0e972","system_id":"levelo_inurba_marseille","lat":43.304302,"lon":5.397623,"is_reserved":false,"is_disabled":false,"rental_uris":{"android":"levelo://app?vid=86d546d5-51b7-4fe1-a61c-b2a1ffc0e972","ios":"levelo://app?vid=86d546d5-51b7-4fe1-a61c-b2a1ffc0e972"},"vehicle_type_id":"4","last_reported":1746799814,"current_range_meters":14800,"station_id":"ce4bh092rcd13ifvqd20","pricing_plan_id":"cebpf4jnsgd1na2vs0mg"},{"bike_id":"f969b97c-1c1a-4079-a8d8-16efa103018e","system_id":"levelo_inurba_marseille","lat":43.25947,"lon":5.40906,"is_reserved":false,"is_disabled":false,"rental_uris":{"android":"levelo://app?vid=f969b97c-1c1a-4079-a8d8-16efa103018e","ios":"levelo://app?vid=f969b97c-1c1a-4079-a8d8-16efa103018e"},"vehicle_type_id":"4","last_reported":1746799814,"current_range_meters":14800,"station_id":"ce4bhm92rcd13ifvqglg","pricing_plan_id":"cebpf4jnsgd1na2vs0mg"},{"bike_id":"07a3985b-6864-4679-96a0-0bf9102aeb5c","system_id":"levelo_inurba_marseille","lat":43.2991,"lon":5.38158,"is_reserved":false,"is_disabled":false,"rental_uris":{"android":"levelo://app?vid=07a3985b-6864-4679-96a0-0bf9102aeb5c","ios":"levelo://app?vid=07a3985b-6864-4679-96a0-0bf9102aeb5c"},"vehicle_type_id":"4","last_reported":1746799814,"current_range_meters":14800,"station_id":"ce4bgj12rcd13ifvqbc0","pricing_plan_id":"cebpf4jnsgd1na2vs0mg"},{"bike_id":"1ecd840c-2175-497d-ab81-4bc60905ff01","system_id":"levelo_inurba_marseille","lat":43.30072,"lon":5.39027,"is_reserved":false,"is_disabled":false,"rental_uris":{"android":"levelo://app?vid=1ecd840c-2175-497d-ab81-4bc60905ff01","ios":"levelo://app?vid=1ecd840c-2175-497d-ab81-4bc60905ff01"},"vehicle_type_id":"4","last_reported":1746799814,"current_range_meters":15200,"station_id":"ce4bgop2rcd13ifvqc1g","pricing_plan_id":"cebpf4jnsgd1na2vs0mg"},{"bike_id":"1745bc1c-135d-4086-aed4-2bc288f430be","system_id":"levelo_inurba_marseille","lat":43.31212,"lon":5.36858,"is_reserved":false,"is_disabled":false,"rental_uris":{"android":"levelo://app?vid=1745bc1c-135d-4086-aed4-2bc288f430be","ios":"levelo://app?vid=1745bc1c-135d-4086-aed4-2bc288f430be"},"vehicle_type_id":"4","last_reported":1746799814,"current_range_meters":15200,"station_id":"ce4bgl92rcd13ifvqbq0","pricing_plan_id":"cebpf4jnsgd1na2vs0mg"},{"bike_id":"0da3c6da-9df1-4c62-b1e2-6b773e9c7b34","system_id":"levelo_inurba_marseille","lat":43.30554,"lon":5.36559,"is_reserved":false,"is_disabled":false,"rental_uris":{"android":"levelo://app?vid=0da3c6da-9df1-4c62-b1e2-6b773e9c7b34","ios":"levelo://app?vid=0da3c6da-9df1-4c62-b1e2-6b773e9c7b34"},"vehicle_type_id":"4","last_reported":1746799814,"current_range_meters":15200,"station_id":"ce4bgs12rcd13ifvqcag","pricing_plan_id":"cebpf4jnsgd1na2vs0mg"},{"bike_id":"a17032ea-5135-4888-86a3-1871ff7bc6b2","system_id":"levelo_inurba_marseille","lat":43.22933,"lon":5.35379,"is_reserved":false,"is_disabled":false,"rental_uris":{"android":"levelo://app?vid=a17032ea-5135-4888-86a3-1871ff7bc6b2","ios":"levelo://app?vid=a17032ea-5135-4888-86a3-1871ff7bc6b2"},"vehicle_type_id":"4","last_reported":1746799814,"current_range_meters":15200,"station_id":"cpo3532slgdg3j2ikp40","pricing_plan_id":"cebpf4jnsgd1na2vs0mg"},{"bike_id":"70d2ecff-7b6f-4f18-b2e5-57458a0a4c08","system_id":"levelo_inurba_marseille","lat":43.24804,"lon":5.37456,"is_reserved":false,"is_disabled":false,"rental_uris":{"android":"levelo://app?vid=70d2ecff-7b6f-4f18-b2e5-57458a0a4c08","ios":"levelo://app?vid=70d2ecff-7b6f-4f18-b2e5-57458a0a4c08"},"vehicle_type_id":"4","last_reported":1746799814,"current_range_meters":16000,"station_id":"ce4bhgh2rcd13ifvqfb0","pricing_plan_id":"cebpf4jnsgd1na2vs0mg"},{"bike_id":"846bbfd1-490a-4ea9-916a-f515009b6ec9","system_id":"levelo_inurba_marseille","lat":43.21193,"lon":5.35068,"is_reserved":false,"is_disabled":false,"rental_uris":{"android":"levelo://app?vid=846bbfd1-490a-4ea9-916a-f515009b6ec9","ios":"levelo://app?vid=846bbfd1-490a-4ea9-916a-f515009b6ec9"},"vehicle_type_id":"4","last_reported":1746799814,"current_range_meters":16000,"station_id":"st_cvj6sg6p6f1abm77japg","pricing_plan_id":"cebpf4jnsgd1na2vs0mg"},{"bike_id":"edd0f71d-8dfd-4aa7-a3af-5fec62fcd954","system_id":"levelo_inurba_marseille","lat":43.29905,"lon":5.37477,"is_reserved":false,"is_disabled":false,"rental_uris":{"android":"levelo://app?vid=edd0f71d-8dfd-4aa7-a3af-5fec62fcd954","ios":"levelo://app?vid=edd0f71d-8dfd-4aa7-a3af-5fec62fcd954"},"vehicle_type_id":"4","last_reported":1746799814,"current_range_meters":16000,"station_id":"ce4bgjh2rcd13ifvqbg0","pricing_plan_id":"cebpf4jnsgd1na2vs0mg"},{"bike_id":"147e7320-8f4f-4006-8847-88e950de58df","system_id":"levelo_inurba_marseille","lat":43.28938,"lon":5.3663,"is_reserved":false,"is_disabled":false,"rental_uris":{"android":"levelo://app?vid=147e7320-8f4f-4006-8847-88e950de58df","ios":"levelo://app?vid=147e7320-8f4f-4006-8847-88e950de58df"},"vehicle_type_id":"4","last_reported":1746799814,"current_range_meters":16000,"station_id":"ce4bhap2rcd13ifvqek0","pricing_plan_id":"cebpf4jnsgd1na2vs0mg"},{"bike_id":"71eafe54-f3d2-4978-a324-05892d411c7d","system_id":"levelo_inurba_marseille","lat":43.26229,"lon":5.40452,"is_reserved":false,"is_disabled":false,"rental_uris":{"android":"levelo://app?vid=71eafe54-f3d2-4978-a324-05892d411c7d","ios":"levelo://app?vid=71eafe54-f3d2-4978-a324-05892d411c7d"},"vehicle_type_id":"4","last_reported":1746799814,"current_range_meters":16000,"station_id":"ce4bhmh2rcd13ifvqgmg","pricing_plan_id":"cebpf4jnsgd1na2vs0mg"},{"bike_id":"d5ae9987-3c36-4197-a244-adc74140878e","system_id":"levelo_inurba_marseille","lat":43.31352,"lon":5.36753,"is_reserved":false,"is_disabled":false,"rental_uris":{"android":"levelo://app?vid=d5ae9987-3c36-4197-a244-adc74140878e","ios":"levelo://app?vid=d5ae9987-3c36-4197-a244-adc74140878e"},"vehicle_type_id":"4","last_reported":1746799814,"current_range_meters":16400,"station_id":"ce4bgr92rcd13ifvqc6g","pricing_plan_id":"cebpf4jnsgd1na2vs0mg"},{"bike_id":"235cbe22-1045-4b4a-b622-6c957185eca4","system_id":"levelo_inurba_marseille","lat":43.262,"lon":5.3793,"is_reserved":false,"is_disabled":false,"rental_uris":{"android":"levelo://app?vid=235cbe22-1045-4b4a-b622-6c957185eca4","ios":"levelo://app?vid=235cbe22-1045-4b4a-b622-6c957185eca4"},"vehicle_type_id":"4","last_reported":1746799814,"current_range_meters":16400,"station_id":"ce4bhjp2rcd13ifvqg90","pricing_plan_id":"cebpf4jnsgd1na2vs0mg"},{"bike_id":"7fc1829d-d006-4438-a4e0-ef73bf018d8d","system_id":"levelo_inurba_marseille","lat":43.27488,"lon":5.42448,"is_reserved":false,"is_disabled":false,"rental_uris":{"android":"levelo://app?vid=7fc1829d-d006-4438-a4e0-ef73bf018d8d","ios":"levelo://app?vid=7fc1829d-d006-4438-a4e0-ef73bf018d8d"},"vehicle_type_id":"4","last_reported":1746799814,"current_range_meters":16400,"station_id":"ce4bhn92rcd13ifvqgrg","pricing_plan_id":"cebpf4jnsgd1na2vs0mg"},{"bike_id":"577b6fa1-01aa-4b90-beb1-386dce7ef354","system_id":"levelo_inurba_marseille","lat":43.259135,"lon":5.408885,"is_reserved":false,"is_disabled":false,"rental_uris":{"android":"levelo://app?vid=577b6fa1-01aa-4b90-beb1-386dce7ef354","ios":"levelo://app?vid=577b6fa1-01aa-4b90-beb1-386dce7ef354"},"vehicle_type_id":"4","last_reported":1746799814,"current_range_meters":16400,"station_id":"ce4bhm92rcd13ifvqglg","pricing_plan_id":"cebpf4jnsgd1na2vs0mg"},{"bike_id":"1f67836b-1b40-476f-9a50-7f6ff65e0774","system_id":"levelo_inurba_marseille","lat":43.32291,"lon":5.38284,"is_reserved":false,"is_disabled":false,"rental_uris":{"android":"levelo://app?vid=1f67836b-1b40-476f-9a50-7f6ff65e0774","ios":"levelo://app?vid=1f67836b-1b40-476f-9a50-7f6ff65e0774"},"vehicle_type_id":"4","last_reported":1746799814,"current_range_meters":16400,"station_id":"ce4bhr12rcd13ifvqhqg","pricing_plan_id":"cebpf4jnsgd1na2vs0mg"},{"bike_id":"0bdcdff3-8294-49b9-80e9-145bbc1ad711","system_id":"levelo_inurba_marseille","lat":43.3222,"lon":5.36748,"is_reserved":false,"is_disabled":false,"rental_uris":{"android":"levelo://app?vid=0bdcdff3-8294-49b9-80e9-145bbc1ad711","ios":"levelo://app?vid=0bdcdff3-8294-49b9-80e9-145bbc1ad711"},"vehicle_type_id":"4","last_reported":1746799814,"current_range_meters":16800,"station_id":"","pricing_plan_id":"cebpf4jnsgd1na2vs0mg"},{"bike_id":"143eb6dd-c383-48fa-9231-2dbe1b4e9f0d","system_id":"levelo_inurba_marseille","lat":43.28608,"lon":5.37063,"is_reserved":false,"is_disabled":false,"rental_uris":{"android":"levelo://app?vid=143eb6dd-c383-48fa-9231-2dbe1b4e9f0d","ios":"levelo://app?vid=143eb6dd-c383-48fa-9231-2dbe1b4e9f0d"},"vehicle_type_id":"4","last_reported":1746799814,"current_range_meters":16800,"station_id":"ce4bht12rcd13ifvqi60","pricing_plan_id":"cebpf4jnsgd1na2vs0mg"},{"bike_id":"9a519679-fe2b-4681-ac1e-1e3e83cb5078","system_id":"levelo_inurba_marseille","lat":43.23192,"lon":5.39988,"is_reserved":false,"is_disabled":false,"rental_uris":{"android":"levelo://app?vid=9a519679-fe2b-4681-ac1e-1e3e83cb5078","ios":"levelo://app?vid=9a519679-fe2b-4681-ac1e-1e3e83cb5078"},"vehicle_type_id":"4","last_reported":1746799814,"current_range_meters":16800,"station_id":"ce4bhn12rcd13ifvqgqg","pricing_plan_id":"cebpf4jnsgd1na2vs0mg"},{"bike_id":"19fbfea0-3b16-459f-b5df-95ecc2acee0f","system_id":"levelo_inurba_marseille","lat":43.270636,"lon":5.402594,"is_reserved":false,"is_disabled":false,"rental_uris":{"android":"levelo://app?vid=19fbfea0-3b16-459f-b5df-95ecc2acee0f","ios":"levelo://app?vid=19fbfea0-3b16-459f-b5df-95ecc2acee0f"},"vehicle_type_id":"4","last_reported":1746799814,"current_range_meters":17200,"station_id":"ce4bhk92rcd13ifvqgc0","pricing_plan_id":"cebpf4jnsgd1na2vs0mg"},{"bike_id":"31ba6f64-65dc-46ca-93bd-943cca7fd40b","system_id":"levelo_inurba_marseille","lat":43.29596,"lon":5.38116,"is_reserved":false,"is_disabled":false,"rental_uris":{"android":"levelo://app?vid=31ba6f64-65dc-46ca-93bd-943cca7fd40b","ios":"levelo://app?vid=31ba6f64-65dc-46ca-93bd-943cca7fd40b"},"vehicle_type_id":"4","last_reported":1746799814,"current_range_meters":17200,"station_id":"ce4bgl12rcd13ifvqbo0","pricing_plan_id":"cebpf4jnsgd1na2vs0mg"},{"bike_id":"ca0282d4-3359-417f-ba1e-8fffe2f3bd45","system_id":"levelo_inurba_marseille","lat":43.2293,"lon":5.35373,"is_reserved":false,"is_disabled":false,"rental_uris":{"android":"levelo://app?vid=ca0282d4-3359-417f-ba1e-8fffe2f3bd45","ios":"levelo://app?vid=ca0282d4-3359-417f-ba1e-8fffe2f3bd45"},"vehicle_type_id":"4","last_reported":1746799814,"current_range_meters":17200,"station_id":"cpo3532slgdg3j2ikp40","pricing_plan_id":"cebpf4jnsgd1na2vs0mg"},{"bike_id":"3c33ee91-fa6d-4d93-a2e3-9a52190b4a36","system_id":"levelo_inurba_marseille","lat":43.2996,"lon":5.37146,"is_reserved":false,"is_disabled":false,"rental_uris":{"android":"levelo://app?vid=3c33ee91-fa6d-4d93-a2e3-9a52190b4a36","ios":"levelo://app?vid=3c33ee91-fa6d-4d93-a2e3-9a52190b4a36"},"vehicle_type_id":"4","last_reported":1746799814,"current_range_meters":17200,"station_id":"ce4bgr92rcd13ifvqc7g","pricing_plan_id":"cebpf4jnsgd1na2vs0mg"},{"bike_id":"2966e9b8-323c-436b-a39f-0c8a45d653b5","system_id":"levelo_inurba_marseille","lat":43.312207,"lon":5.367997,"is_reserved":false,"is_disabled":false,"rental_uris":{"android":"levelo://app?vid=2966e9b8-323c-436b-a39f-0c8a45d653b5","ios":"levelo://app?vid=2966e9b8-323c-436b-a39f-0c8a45d653b5"},"vehicle_type_id":"4","last_reported":1746799814,"current_range_meters":17200,"station_id":"ce4bgl92rcd13ifvqbq0","pricing_plan_id":"cebpf4jnsgd1na2vs0mg"},{"bike_id":"507da5e1-3fda-4524-bbcc-26d5f19e328f","system_id":"levelo_inurba_marseille","lat":43.28735,"lon":5.36082,"is_reserved":false,"is_disabled":false,"rental_uris":{"android":"levelo://app?vid=507da5e1-3fda-4524-bbcc-26d5f19e328f","ios":"levelo://app?vid=507da5e1-3fda-4524-bbcc-26d5f19e328f"},"vehicle_type_id":"4","last_reported":1746799814,"current_range_meters":17200,"station_id":"cki0cbj6b192h4jlfktg","pricing_plan_id":"cebpf4jnsgd1na2vs0mg"},{"bike_id":"5102435b-c2ea-478d-9786-dc72be30de0a","system_id":"levelo_inurba_marseille","lat":43.30547,"lon":5.38433,"is_reserved":false,"is_disabled":false,"rental_uris":{"android":"levelo://app?vid=5102435b-c2ea-478d-9786-dc72be30de0a","ios":"levelo://app?vid=5102435b-c2ea-478d-9786-dc72be30de0a"},"vehicle_type_id":"4","last_reported":1746799814,"current_range_meters":17200,"station_id":"ce4bgg92rcd13ifvqb30","pricing_plan_id":"cebpf4jnsgd1na2vs0mg"},{"bike_id":"6c1764b8-dc61-457e-812c-1e75710ba7ad","system_id":"levelo_inurba_marseille","lat":43.22931,"lon":5.35379,"is_reserved":false,"is_disabled":false,"rental_uris":{"android":"levelo://app?vid=6c1764b8-dc61-457e-812c-1e75710ba7ad","ios":"levelo://app?vid=6c1764b8-dc61-457e-812c-1e75710ba7ad"},"vehicle_type_id":"4","last_reported":1746799814,"current_range_meters":17200,"station_id":"cpo3532slgdg3j2ikp40","pricing_plan_id":"cebpf4jnsgd1na2vs0mg"},{"bike_id":"0fb6b147-e9a8-4345-a220-93d47a47a517","system_id":"levelo_inurba_marseille","lat":43.22936,"lon":5.35378,"is_reserved":false,"is_disabled":false,"rental_uris":{"android":"levelo://app?vid=0fb6b147-e9a8-4345-a220-93d47a47a517","ios":"levelo://app?vid=0fb6b147-e9a8-4345-a220-93d47a47a517"},"vehicle_type_id":"4","last_reported":1746799814,"current_range_meters":17600,"station_id":"cpo3532slgdg3j2ikp40","pricing_plan_id":"cebpf4jnsgd1na2vs0mg"},{"bike_id":"2123204f-4eac-47d2-b050-b6c347eaee89","system_id":"levelo_inurba_marseille","lat":43.23173,"lon":5.39987,"is_reserved":false,"is_disabled":false,"rental_uris":{"android":"levelo://app?vid=2123204f-4eac-47d2-b050-b6c347eaee89","ios":"levelo://app?vid=2123204f-4eac-47d2-b050-b6c347eaee89"},"vehicle_type_id":"4","last_reported":1746799814,"current_range_meters":17600,"station_id":"ce4bhn12rcd13ifvqgqg","pricing_plan_id":"cebpf4jnsgd1na2vs0mg"},{"bike_id":"4a24b36d-f668-4a0a-9d12-82e82076f474","system_id":"levelo_inurba_marseille","lat":43.30887,"lon":5.39657,"is_reserved":false,"is_disabled":false,"rental_uris":{"android":"levelo://app?vid=4a24b36d-f668-4a0a-9d12-82e82076f474","ios":"levelo://app?vid=4a24b36d-f668-4a0a-9d12-82e82076f474"},"vehicle_type_id":"4","last_reported":1746799814,"current_range_meters":19200,"station_id":"ce4bh012rcd13ifvqcv0","pricing_plan_id":"cebpf4jnsgd1na2vs0mg"},{"bike_id":"7911d9df-be53-4908-8d00-3efa42a5a46d","system_id":"levelo_inurba_marseille","lat":43.29897,"lon":5.43667,"is_reserved":false,"is_disabled":false,"rental_uris":{"android":"levelo://app?vid=7911d9df-be53-4908-8d00-3efa42a5a46d","ios":"levelo://app?vid=7911d9df-be53-4908-8d00-3efa42a5a46d"},"vehicle_type_id":"4","last_reported":1746799814,"current_range_meters":17600,"station_id":"ce4bhpp2rcd13ifvqhfg","pricing_plan_id":"cebpf4jnsgd1na2vs0mg"},{"bike_id":"e089d9b3-9c52-459c-b665-2faf9f46df43","system_id":"levelo_inurba_marseille","lat":43.27062,"lon":5.42275,"is_reserved":false,"is_disabled":false,"rental_uris":{"android":"levelo://app?vid=e089d9b3-9c52-459c-b665-2faf9f46df43","ios":"levelo://app?vid=e089d9b3-9c52-459c-b665-2faf9f46df43"},"vehicle_type_id":"4","last_reported":1746799814,"current_range_meters":17600,"station_id":"ce4bhk92rcd13ifvqgb0","pricing_plan_id":"cebpf4jnsgd1na2vs0mg"},{"bike_id":"c65732d7-d6e4-4134-b90d-85c2276db215","system_id":"levelo_inurba_marseille","lat":43.2621,"lon":5.40476,"is_reserved":false,"is_disabled":false,"rental_uris":{"android":"levelo://app?vid=c65732d7-d6e4-4134-b90d-85c2276db215","ios":"levelo://app?vid=c65732d7-d6e4-4134-b90d-85c2276db215"},"vehicle_type_id":"4","last_reported":1746799814,"current_range_meters":18000,"station_id":"ce4bhmh2rcd13ifvqgmg","pricing_plan_id":"cebpf4jnsgd1na2vs0mg"},{"bike_id":"881c097a-b180-44f5-9d6b-1f54f714978b","system_id":"levelo_inurba_marseille","lat":43.270734,"lon":5.422831,"is_reserved":false,"is_disabled":false,"rental_uris":{"android":"levelo://app?vid=881c097a-b180-44f5-9d6b-1f54f714978b","ios":"levelo://app?vid=881c097a-b180-44f5-9d6b-1f54f714978b"},"vehicle_type_id":"4","last_reported":1746799814,"current_range_meters":18000,"station_id":"ce4bhk92rcd13ifvqgb0","pricing_plan_id":"cebpf4jnsgd1na2vs0mg"},{"bike_id":"2a6c116f-539b-42d7-9010-fe557518cc52","system_id":"levelo_inurba_marseille","lat":43.29292,"lon":5.3844,"is_reserved":false,"is_disabled":false,"rental_uris":{"android":"levelo://app?vid=2a6c116f-539b-42d7-9010-fe557518cc52","ios":"levelo://app?vid=2a6c116f-539b-42d7-9010-fe557518cc52"},"vehicle_type_id":"4","last_reported":1746799814,"current_range_meters":18000,"station_id":"ce4bh692rcd13ifvqea0","pricing_plan_id":"cebpf4jnsgd1na2vs0mg"},{"bike_id":"9d5f51b6-844c-4d70-a1db-8fd8fc1a0846","system_id":"levelo_inurba_marseille","lat":43.32657,"lon":5.41007,"is_reserved":false,"is_disabled":false,"rental_uris":{"android":"levelo://app?vid=9d5f51b6-844c-4d70-a1db-8fd8fc1a0846","ios":"levelo://app?vid=9d5f51b6-844c-4d70-a1db-8fd8fc1a0846"},"vehicle_type_id":"4","last_reported":1746799814,"current_range_meters":18800,"station_id":"ce4bhpp2rcd13ifvqhgg","pricing_plan_id":"cebpf4jnsgd1na2vs0mg"},{"bike_id":"2b695556-5fdc-4725-a789-9b7b81b7a3a6","system_id":"levelo_inurba_marseille","lat":43.32321,"lon":5.36738,"is_reserved":false,"is_disabled":false,"rental_uris":{"android":"levelo://app?vid=2b695556-5fdc-4725-a789-9b7b81b7a3a6","ios":"levelo://app?vid=2b695556-5fdc-4725-a789-9b7b81b7a3a6"},"vehicle_type_id":"4","last_reported":1746799814,"current_range_meters":18800,"station_id":"ce4bhsh2rcd13ifvqi2g","pricing_plan_id":"cebpf4jnsgd1na2vs0mg"},{"bike_id":"c804f19a-cb09-47b7-a353-aba2fbefdcd2","system_id":"levelo_inurba_marseille","lat":43.30953,"lon":5.39025,"is_reserved":false,"is_disabled":false,"rental_uris":{"android":"levelo://app?vid=c804f19a-cb09-47b7-a353-aba2fbefdcd2","ios":"levelo://app?vid=c804f19a-cb09-47b7-a353-aba2fbefdcd2"},"vehicle_type_id":"4","last_reported":1746799814,"current_range_meters":18800,"station_id":"ce4bgup2rcd13ifvqco0","pricing_plan_id":"cebpf4jnsgd1na2vs0mg"},{"bike_id":"feef9c23-68cd-4aca-bb17-12379c3898a5","system_id":"levelo_inurba_marseille","lat":43.29896,"lon":5.43673,"is_reserved":false,"is_disabled":false,"rental_uris":{"android":"levelo://app?vid=feef9c23-68cd-4aca-bb17-12379c3898a5","ios":"levelo://app?vid=feef9c23-68cd-4aca-bb17-12379c3898a5"},"vehicle_type_id":"4","last_reported":1746799814,"current_range_meters":18800,"station_id":"ce4bhpp2rcd13ifvqhfg","pricing_plan_id":"cebpf4jnsgd1na2vs0mg"},{"bike_id":"2f4cd44a-b774-45b9-b293-c0eff35d4ae6","system_id":"levelo_inurba_marseille","lat":43.29041,"lon":5.37566,"is_reserved":false,"is_disabled":false,"rental_uris":{"android":"levelo://app?vid=2f4cd44a-b774-45b9-b293-c0eff35d4ae6","ios":"levelo://app?vid=2f4cd44a-b774-45b9-b293-c0eff35d4ae6"},"vehicle_type_id":"4","last_reported":1746799814,"current_range_meters":19600,"station_id":"ce4bh692rcd13ifvqe90","pricing_plan_id":"cebpf4jnsgd1na2vs0mg"},{"bike_id":"bb495b1d-188b-49e3-8195-6b30e0477e72","system_id":"levelo_inurba_marseille","lat":43.25004,"lon":5.3891,"is_reserved":false,"is_disabled":false,"rental_uris":{"android":"levelo://app?vid=bb495b1d-188b-49e3-8195-6b30e0477e72","ios":"levelo://app?vid=bb495b1d-188b-49e3-8195-6b30e0477e72"},"vehicle_type_id":"4","last_reported":1746799814,"current_range_meters":18800,"station_id":"ce4bhgp2rcd13ifvqfd0","pricing_plan_id":"cebpf4jnsgd1na2vs0mg"},{"bike_id":"545e5687-b7df-4883-81be-75a8925d5f91","system_id":"levelo_inurba_marseille","lat":43.337444,"lon":5.374475,"is_reserved":false,"is_disabled":false,"rental_uris":{"android":"levelo://app?vid=545e5687-b7df-4883-81be-75a8925d5f91","ios":"levelo://app?vid=545e5687-b7df-4883-81be-75a8925d5f91"},"vehicle_type_id":"4","last_reported":1746799814,"current_range_meters":18800,"station_id":"","pricing_plan_id":"cebpf4jnsgd1na2vs0mg"},{"bike_id":"64fa0af2-1bf0-4d7d-94ac-4135ccf2500c","system_id":"levelo_inurba_marseille","lat":43.296198,"lon":5.377258,"is_reserved":false,"is_disabled":false,"rental_uris":{"android":"levelo://app?vid=64fa0af2-1bf0-4d7d-94ac-4135ccf2500c","ios":"levelo://app?vid=64fa0af2-1bf0-4d7d-94ac-4135ccf2500c"},"vehicle_type_id":"4","last_reported":1746799814,"current_range_meters":18800,"station_id":"ce4bgi92rcd13ifvqb90","pricing_plan_id":"cebpf4jnsgd1na2vs0mg"},{"bike_id":"624d3175-4cd8-4d4d-9282-7c42dbfe62ca","system_id":"levelo_inurba_marseille","lat":43.27944,"lon":5.41042,"is_reserved":false,"is_disabled":false,"rental_uris":{"android":"levelo://app?vid=624d3175-4cd8-4d4d-9282-7c42dbfe62ca","ios":"levelo://app?vid=624d3175-4cd8-4d4d-9282-7c42dbfe62ca"},"vehicle_type_id":"4","last_reported":1746799814,"current_range_meters":18800,"station_id":"ce4bhnp2rcd13ifvqh0g","pricing_plan_id":"cebpf4jnsgd1na2vs0mg"},{"bike_id":"0605f805-d3d6-436d-8d83-d4580fc0c76a","system_id":"levelo_inurba_marseille","lat":43.23153,"lon":5.43705,"is_reserved":false,"is_disabled":false,"rental_uris":{"android":"levelo://app?vid=0605f805-d3d6-436d-8d83-d4580fc0c76a","ios":"levelo://app?vid=0605f805-d3d6-436d-8d83-d4580fc0c76a"},"vehicle_type_id":"4","last_reported":1746799814,"current_range_meters":19200,"station_id":"ce4bhmp2rcd13ifvqgog","pricing_plan_id":"cebpf4jnsgd1na2vs0mg"},{"bike_id":"fc2577e7-1497-425b-9d4f-ab8d7dc843c6","system_id":"levelo_inurba_marseille","lat":43.33771,"lon":5.37485,"is_reserved":false,"is_disabled":false,"rental_uris":{"android":"levelo://app?vid=fc2577e7-1497-425b-9d4f-ab8d7dc843c6","ios":"levelo://app?vid=fc2577e7-1497-425b-9d4f-ab8d7dc843c6"},"vehicle_type_id":"4","last_reported":1746799814,"current_range_meters":19200,"station_id":"","pricing_plan_id":"cebpf4jnsgd1na2vs0mg"},{"bike_id":"97bf36e5-f827-4bcf-9701-27f10337a578","system_id":"levelo_inurba_marseille","lat":43.27811,"lon":5.40724,"is_reserved":false,"is_disabled":false,"rental_uris":{"android":"levelo://app?vid=97bf36e5-f827-4bcf-9701-27f10337a578","ios":"levelo://app?vid=97bf36e5-f827-4bcf-9701-27f10337a578"},"vehicle_type_id":"4","last_reported":1746799814,"current_range_meters":19200,"station_id":"ce4bhnh2rcd13ifvqgtg","pricing_plan_id":"cebpf4jnsgd1na2vs0mg"},{"bike_id":"369ea382-ff3c-46b4-9ee2-c9d6bc39ad06","system_id":"levelo_inurba_marseille","lat":43.2842,"lon":5.34982,"is_reserved":false,"is_disabled":false,"rental_uris":{"android":"levelo://app?vid=369ea382-ff3c-46b4-9ee2-c9d6bc39ad06","ios":"levelo://app?vid=369ea382-ff3c-46b4-9ee2-c9d6bc39ad06"},"vehicle_type_id":"4","last_reported":1746799814,"current_range_meters":19200,"station_id":"ce4bhbh2rcd13ifvqepg","pricing_plan_id":"cebpf4jnsgd1na2vs0mg"},{"bike_id":"bb0ec0e5-d588-41ab-93e4-7ebb6c1d2853","system_id":"levelo_inurba_marseille","lat":43.30097,"lon":5.39084,"is_reserved":false,"is_disabled":false,"rental_uris":{"android":"levelo://app?vid=bb0ec0e5-d588-41ab-93e4-7ebb6c1d2853","ios":"levelo://app?vid=bb0ec0e5-d588-41ab-93e4-7ebb6c1d2853"},"vehicle_type_id":"4","last_reported":1746799814,"current_range_meters":17200,"station_id":"ce4bh192rcd13ifvqdb0","pricing_plan_id":"cebpf4jnsgd1na2vs0mg"},{"bike_id":"edd60f3c-8f20-43fd-b8a1-002c70da4042","system_id":"levelo_inurba_marseille","lat":43.24549,"lon":5.39534,"is_reserved":false,"is_disabled":false,"rental_uris":{"android":"levelo://app?vid=edd60f3c-8f20-43fd-b8a1-002c70da4042","ios":"levelo://app?vid=edd60f3c-8f20-43fd-b8a1-002c70da4042"},"vehicle_type_id":"4","last_reported":1746799814,"current_range_meters":19200,"station_id":"ce4bhlp2rcd13ifvqgjg","pricing_plan_id":"cebpf4jnsgd1na2vs0mg"},{"bike_id":"f1a6c3a9-50a0-43cf-89b3-2769bcd763f5","system_id":"levelo_inurba_marseille","lat":43.29774,"lon":5.38103,"is_reserved":false,"is_disabled":false,"rental_uris":{"android":"levelo://app?vid=f1a6c3a9-50a0-43cf-89b3-2769bcd763f5","ios":"levelo://app?vid=f1a6c3a9-50a0-43cf-89b3-2769bcd763f5"},"vehicle_type_id":"4","last_reported":1746799814,"current_range_meters":19200,"station_id":"ce4bgip2rcd13ifvqbb0","pricing_plan_id":"cebpf4jnsgd1na2vs0mg"},{"bike_id":"33f38503-fa71-4fbc-914c-b1deef9e7e0e","system_id":"levelo_inurba_marseille","lat":43.24175,"lon":5.39738,"is_reserved":false,"is_disabled":false,"rental_uris":{"android":"levelo://app?vid=33f38503-fa71-4fbc-914c-b1deef9e7e0e","ios":"levelo://app?vid=33f38503-fa71-4fbc-914c-b1deef9e7e0e"},"vehicle_type_id":"4","last_reported":1746799814,"current_range_meters":19200,"station_id":"ce4bhn12rcd13ifvqgpg","pricing_plan_id":"cebpf4jnsgd1na2vs0mg"},{"bike_id":"66d39f5f-1aac-423b-9ea7-bf9c1b0e5079","system_id":"levelo_inurba_marseille","lat":43.2752,"lon":5.41125,"is_reserved":false,"is_disabled":false,"rental_uris":{"android":"levelo://app?vid=66d39f5f-1aac-423b-9ea7-bf9c1b0e5079","ios":"levelo://app?vid=66d39f5f-1aac-423b-9ea7-bf9c1b0e5079"},"vehicle_type_id":"4","last_reported":1746799814,"current_range_meters":19200,"station_id":"","pricing_plan_id":"cebpf4jnsgd1na2vs0mg"},{"bike_id":"8784bff8-886b-4ef5-9597-d16de6e32319","system_id":"levelo_inurba_marseille","lat":43.29567,"lon":5.42272,"is_reserved":false,"is_disabled":false,"rental_uris":{"android":"levelo://app?vid=8784bff8-886b-4ef5-9597-d16de6e32319","ios":"levelo://app?vid=8784bff8-886b-4ef5-9597-d16de6e32319"},"vehicle_type_id":"4","last_reported":1746799814,"current_range_meters":19600,"station_id":"ce4bhph2rcd13ifvqhdg","pricing_plan_id":"cebpf4jnsgd1na2vs0mg"},{"bike_id":"c8142ff4-c608-4b73-ac6a-4859689a35ab","system_id":"levelo_inurba_marseille","lat":43.30954,"lon":5.39001,"is_reserved":false,"is_disabled":false,"rental_uris":{"android":"levelo://app?vid=c8142ff4-c608-4b73-ac6a-4859689a35ab","ios":"levelo://app?vid=c8142ff4-c608-4b73-ac6a-4859689a35ab"},"vehicle_type_id":"4","last_reported":1746799814,"current_range_meters":19600,"station_id":"","pricing_plan_id":"cebpf4jnsgd1na2vs0mg"},{"bike_id":"22dfe0da-df85-494d-9101-fcefa8018d5f","system_id":"levelo_inurba_marseille","lat":43.31329,"lon":5.397,"is_reserved":false,"is_disabled":false,"rental_uris":{"android":"levelo://app?vid=22dfe0da-df85-494d-9101-fcefa8018d5f","ios":"levelo://app?vid=22dfe0da-df85-494d-9101-fcefa8018d5f"},"vehicle_type_id":"4","last_reported":1746799814,"current_range_meters":19600,"station_id":"ce4bgvp2rcd13ifvqcu0","pricing_plan_id":"cebpf4jnsgd1na2vs0mg"},{"bike_id":"71a43ff5-ed1b-4645-9087-872ead970050","system_id":"levelo_inurba_marseille","lat":43.29798,"lon":5.38088,"is_reserved":false,"is_disabled":false,"rental_uris":{"android":"levelo://app?vid=71a43ff5-ed1b-4645-9087-872ead970050","ios":"levelo://app?vid=71a43ff5-ed1b-4645-9087-872ead970050"},"vehicle_type_id":"4","last_reported":1746799814,"current_range_meters":19600,"station_id":"ce4bgip2rcd13ifvqbb0","pricing_plan_id":"cebpf4jnsgd1na2vs0mg"},{"bike_id":"26aabc23-ef0f-4f3a-b19c-14966789cd5a","system_id":"levelo_inurba_marseille","lat":43.23195,"lon":5.35551,"is_reserved":false,"is_disabled":false,"rental_uris":{"android":"levelo://app?vid=26aabc23-ef0f-4f3a-b19c-14966789cd5a","ios":"levelo://app?vid=26aabc23-ef0f-4f3a-b19c-14966789cd5a"},"vehicle_type_id":"4","last_reported":1746799814,"current_range_meters":19600,"station_id":"ce4bhu92rcd13ifvqi70","pricing_plan_id":"cebpf4jnsgd1na2vs0mg"},{"bike_id":"1ee64887-5124-4c2b-9e26-21de81d0ce38","system_id":"levelo_inurba_marseille","lat":43.25872,"lon":5.39895,"is_reserved":false,"is_disabled":false,"rental_uris":{"android":"levelo://app?vid=1ee64887-5124-4c2b-9e26-21de81d0ce38","ios":"levelo://app?vid=1ee64887-5124-4c2b-9e26-21de81d0ce38"},"vehicle_type_id":"4","last_reported":1746799814,"current_range_meters":19600,"station_id":"ce4bhl92rcd13ifvqghg","pricing_plan_id":"cebpf4jnsgd1na2vs0mg"},{"bike_id":"b636672b-a75e-4d24-9ace-5721027fbeb8","system_id":"levelo_inurba_marseille","lat":43.28487,"lon":5.38569,"is_reserved":false,"is_disabled":false,"rental_uris":{"android":"levelo://app?vid=b636672b-a75e-4d24-9ace-5721027fbeb8","ios":"levelo://app?vid=b636672b-a75e-4d24-9ace-5721027fbeb8"},"vehicle_type_id":"4","last_reported":1746799814,"current_range_meters":19600,"station_id":"ce4bh8p2rcd13ifvqeb0","pricing_plan_id":"cebpf4jnsgd1na2vs0mg"},{"bike_id":"764f44d7-055b-41b1-ad56-c5cc1e2bef6d","system_id":"levelo_inurba_marseille","lat":43.30946,"lon":5.39058,"is_reserved":false,"is_disabled":false,"rental_uris":{"android":"levelo://app?vid=764f44d7-055b-41b1-ad56-c5cc1e2bef6d","ios":"levelo://app?vid=764f44d7-055b-41b1-ad56-c5cc1e2bef6d"},"vehicle_type_id":"4","last_reported":1746799814,"current_range_meters":19600,"station_id":"ce4bgup2rcd13ifvqco0","pricing_plan_id":"cebpf4jnsgd1na2vs0mg"},{"bike_id":"9b84e65f-2424-4f8e-b51b-21355d123536","system_id":"levelo_inurba_marseille","lat":43.31498,"lon":5.37281,"is_reserved":false,"is_disabled":false,"rental_uris":{"android":"levelo://app?vid=9b84e65f-2424-4f8e-b51b-21355d123536","ios":"levelo://app?vid=9b84e65f-2424-4f8e-b51b-21355d123536"},"vehicle_type_id":"4","last_reported":1746799814,"current_range_meters":20000,"station_id":"ce4bgt12rcd13ifvqcd0","pricing_plan_id":"cebpf4jnsgd1na2vs0mg"},{"bike_id":"1c11bab6-bb85-4997-abca-fba3458b44d6","system_id":"levelo_inurba_marseille","lat":43.29899,"lon":5.38696,"is_reserved":false,"is_disabled":false,"rental_uris":{"android":"levelo://app?vid=1c11bab6-bb85-4997-abca-fba3458b44d6","ios":"levelo://app?vid=1c11bab6-bb85-4997-abca-fba3458b44d6"},"vehicle_type_id":"4","last_reported":1746799814,"current_range_meters":20000,"station_id":"","pricing_plan_id":"cebpf4jnsgd1na2vs0mg"},{"bike_id":"315d2909-a4e1-4b60-995d-515d1c4cee1b","system_id":"levelo_inurba_marseille","lat":43.30886,"lon":5.39634,"is_reserved":false,"is_disabled":false,"rental_uris":{"android":"levelo://app?vid=315d2909-a4e1-4b60-995d-515d1c4cee1b","ios":"levelo://app?vid=315d2909-a4e1-4b60-995d-515d1c4cee1b"},"vehicle_type_id":"4","last_reported":1746799814,"current_range_meters":20000,"station_id":"ce4bh012rcd13ifvqcv0","pricing_plan_id":"cebpf4jnsgd1na2vs0mg"},{"bike_id":"3ea5685d-a5ba-495a-bac4-800fc62c8669","system_id":"levelo_inurba_marseille","lat":43.23961,"lon":5.36634,"is_reserved":false,"is_disabled":false,"rental_uris":{"android":"levelo://app?vid=3ea5685d-a5ba-495a-bac4-800fc62c8669","ios":"levelo://app?vid=3ea5685d-a5ba-495a-bac4-800fc62c8669"},"vehicle_type_id":"4","last_reported":1746799814,"current_range_meters":19600,"station_id":"ce4bhi12rcd13ifvqfp0","pricing_plan_id":"cebpf4jnsgd1na2vs0mg"},{"bike_id":"fa717dd2-c379-46e3-abb5-69e8f92297da","system_id":"levelo_inurba_marseille","lat":43.30131,"lon":5.38071,"is_reserved":false,"is_disabled":false,"rental_uris":{"android":"levelo://app?vid=fa717dd2-c379-46e3-abb5-69e8f92297da","ios":"levelo://app?vid=fa717dd2-c379-46e3-abb5-69e8f92297da"},"vehicle_type_id":"4","last_reported":1746799814,"current_range_meters":20000,"station_id":"ce4bgjp2rcd13ifvqbh0","pricing_plan_id":"cebpf4jnsgd1na2vs0mg"},{"bike_id":"722c2628-87ed-419b-9594-93e61a4af0c3","system_id":"levelo_inurba_marseille","lat":43.29248,"lon":5.38454,"is_reserved":false,"is_disabled":false,"rental_uris":{"android":"levelo://app?vid=722c2628-87ed-419b-9594-93e61a4af0c3","ios":"levelo://app?vid=722c2628-87ed-419b-9594-93e61a4af0c3"},"vehicle_type_id":"4","last_reported":1746799814,"current_range_meters":20400,"station_id":"ce4bh692rcd13ifvqea0","pricing_plan_id":"cebpf4jnsgd1na2vs0mg"},{"bike_id":"1cf880a4-e14f-49b7-a40c-0948fbb03ceb","system_id":"levelo_inurba_marseille","lat":43.27618,"lon":5.36107,"is_reserved":false,"is_disabled":false,"rental_uris":{"android":"levelo://app?vid=1cf880a4-e14f-49b7-a40c-0948fbb03ceb","ios":"levelo://app?vid=1cf880a4-e14f-49b7-a40c-0948fbb03ceb"},"vehicle_type_id":"4","last_reported":1746799814,"current_range_meters":20400,"station_id":"ce4bgj92rcd13ifvqbe0","pricing_plan_id":"cebpf4jnsgd1na2vs0mg"},{"bike_id":"d4d3dc55-75ee-4623-a5f9-ed71eb97cdfc","system_id":"levelo_inurba_marseille","lat":43.28713,"lon":5.39995,"is_reserved":false,"is_disabled":false,"rental_uris":{"android":"levelo://app?vid=d4d3dc55-75ee-4623-a5f9-ed71eb97cdfc","ios":"levelo://app?vid=d4d3dc55-75ee-4623-a5f9-ed71eb97cdfc"},"vehicle_type_id":"4","last_reported":1746799814,"current_range_meters":20400,"station_id":"ce4bho92rcd13ifvqh3g","pricing_plan_id":"cebpf4jnsgd1na2vs0mg"},{"bike_id":"728edd49-b1de-4c4a-92db-408b8095a814","system_id":"levelo_inurba_marseille","lat":43.30894,"lon":5.37206,"is_reserved":false,"is_disabled":false,"rental_uris":{"android":"levelo://app?vid=728edd49-b1de-4c4a-92db-408b8095a814","ios":"levelo://app?vid=728edd49-b1de-4c4a-92db-408b8095a814"},"vehicle_type_id":"4","last_reported":1746799814,"current_range_meters":20400,"station_id":"ce4bguh2rcd13ifvqckg","pricing_plan_id":"cebpf4jnsgd1na2vs0mg"},{"bike_id":"6519b47e-9950-4d92-8563-4c9e133cff56","system_id":"levelo_inurba_marseille","lat":43.32664,"lon":5.409936,"is_reserved":false,"is_disabled":false,"rental_uris":{"android":"levelo://app?vid=6519b47e-9950-4d92-8563-4c9e133cff56","ios":"levelo://app?vid=6519b47e-9950-4d92-8563-4c9e133cff56"},"vehicle_type_id":"4","last_reported":1746799814,"current_range_meters":20800,"station_id":"ce4bhpp2rcd13ifvqhgg","pricing_plan_id":"cebpf4jnsgd1na2vs0mg"},{"bike_id":"a1121b36-b5cd-4dda-96ef-13a3dfaa55e1","system_id":"levelo_inurba_marseille","lat":43.301401,"lon":5.387791,"is_reserved":false,"is_disabled":false,"rental_uris":{"android":"levelo://app?vid=a1121b36-b5cd-4dda-96ef-13a3dfaa55e1","ios":"levelo://app?vid=a1121b36-b5cd-4dda-96ef-13a3dfaa55e1"},"vehicle_type_id":"4","last_reported":1746799814,"current_range_meters":20800,"station_id":"","pricing_plan_id":"cebpf4jnsgd1na2vs0mg"},{"bike_id":"5ac1e1c2-5e28-4925-9617-a8175fa11d4f","system_id":"levelo_inurba_marseille","lat":43.28623,"lon":5.35098,"is_reserved":false,"is_disabled":false,"rental_uris":{"android":"levelo://app?vid=5ac1e1c2-5e28-4925-9617-a8175fa11d4f","ios":"levelo://app?vid=5ac1e1c2-5e28-4925-9617-a8175fa11d4f"},"vehicle_type_id":"4","last_reported":1746799814,"current_range_meters":20800,"station_id":"ce4bhch2rcd13ifvqeug","pricing_plan_id":"cebpf4jnsgd1na2vs0mg"},{"bike_id":"a7ad83d4-b109-4b29-aaf3-aaaf261d1a57","system_id":"levelo_inurba_marseille","lat":43.25935,"lon":5.40909,"is_reserved":false,"is_disabled":false,"rental_uris":{"android":"levelo://app?vid=a7ad83d4-b109-4b29-aaf3-aaaf261d1a57","ios":"levelo://app?vid=a7ad83d4-b109-4b29-aaf3-aaaf261d1a57"},"vehicle_type_id":"4","last_reported":1746799814,"current_range_meters":20800,"station_id":"ce4bhm92rcd13ifvqglg","pricing_plan_id":"cebpf4jnsgd1na2vs0mg"},{"bike_id":"d5d2f3e3-f75b-4bcc-9066-22540f81b02f","system_id":"levelo_inurba_marseille","lat":43.286924,"lon":5.373895,"is_reserved":false,"is_disabled":false,"rental_uris":{"android":"levelo://app?vid=d5d2f3e3-f75b-4bcc-9066-22540f81b02f","ios":"levelo://app?vid=d5d2f3e3-f75b-4bcc-9066-22540f81b02f"},"vehicle_type_id":"4","last_reported":1746799814,"current_range_meters":21600,"station_id":"ce4bh3p2rcd13ifvqdq0","pricing_plan_id":"cebpf4jnsgd1na2vs0mg"},{"bike_id":"5a71a209-a81f-400e-a240-c59e4e81fbe7","system_id":"levelo_inurba_marseille","lat":43.31331,"lon":5.39687,"is_reserved":false,"is_disabled":false,"rental_uris":{"android":"levelo://app?vid=5a71a209-a81f-400e-a240-c59e4e81fbe7","ios":"levelo://app?vid=5a71a209-a81f-400e-a240-c59e4e81fbe7"},"vehicle_type_id":"4","last_reported":1746799814,"current_range_meters":20800,"station_id":"ce4bgvp2rcd13ifvqcu0","pricing_plan_id":"cebpf4jnsgd1na2vs0mg"},{"bike_id":"fb013e04-207f-49b3-93bd-f748290781e2","system_id":"levelo_inurba_marseille","lat":43.27916,"lon":5.39582,"is_reserved":false,"is_disabled":false,"rental_uris":{"android":"levelo://app?vid=fb013e04-207f-49b3-93bd-f748290781e2","ios":"levelo://app?vid=fb013e04-207f-49b3-93bd-f748290781e2"},"vehicle_type_id":"4","last_reported":1746799814,"current_range_meters":21600,"station_id":"ce4bhf92rcd13ifvqf40","pricing_plan_id":"cebpf4jnsgd1na2vs0mg"},{"bike_id":"29fa3afa-c59c-4f22-83b5-81c2afc9c304","system_id":"levelo_inurba_marseille","lat":43.24999,"lon":5.38929,"is_reserved":false,"is_disabled":false,"rental_uris":{"android":"levelo://app?vid=29fa3afa-c59c-4f22-83b5-81c2afc9c304","ios":"levelo://app?vid=29fa3afa-c59c-4f22-83b5-81c2afc9c304"},"vehicle_type_id":"4","last_reported":1746799814,"current_range_meters":21600,"station_id":"ce4bhgp2rcd13ifvqfd0","pricing_plan_id":"cebpf4jnsgd1na2vs0mg"},{"bike_id":"1b2aa7ab-5d06-4e2f-adb6-33948efd490d","system_id":"levelo_inurba_marseille","lat":43.24804,"lon":5.37456,"is_reserved":false,"is_disabled":false,"rental_uris":{"android":"levelo://app?vid=1b2aa7ab-5d06-4e2f-adb6-33948efd490d","ios":"levelo://app?vid=1b2aa7ab-5d06-4e2f-adb6-33948efd490d"},"vehicle_type_id":"4","last_reported":1746799814,"current_range_meters":19600,"station_id":"ce4bhgh2rcd13ifvqfb0","pricing_plan_id":"cebpf4jnsgd1na2vs0mg"},{"bike_id":"5beadd19-be06-4896-ba37-e4f70d3d7f2c","system_id":"levelo_inurba_marseille","lat":43.28614,"lon":5.35102,"is_reserved":false,"is_disabled":false,"rental_uris":{"android":"levelo://app?vid=5beadd19-be06-4896-ba37-e4f70d3d7f2c","ios":"levelo://app?vid=5beadd19-be06-4896-ba37-e4f70d3d7f2c"},"vehicle_type_id":"4","last_reported":1746799814,"current_range_meters":21600,"station_id":"ce4bhch2rcd13ifvqeug","pricing_plan_id":"cebpf4jnsgd1na2vs0mg"},{"bike_id":"2d6856ac-db8e-4729-a56c-d8940dfaff9b","system_id":"levelo_inurba_marseille","lat":43.259384,"lon":5.409053,"is_reserved":false,"is_disabled":false,"rental_uris":{"android":"levelo://app?vid=2d6856ac-db8e-4729-a56c-d8940dfaff9b","ios":"levelo://app?vid=2d6856ac-db8e-4729-a56c-d8940dfaff9b"},"vehicle_type_id":"4","last_reported":1746799814,"current_range_meters":21600,"station_id":"ce4bhm92rcd13ifvqglg","pricing_plan_id":"cebpf4jnsgd1na2vs0mg"},{"bike_id":"589be833-6fc8-4c7e-abe3-20b2a016c12e","system_id":"levelo_inurba_marseille","lat":43.2119,"lon":5.35095,"is_reserved":false,"is_disabled":false,"rental_uris":{"android":"levelo://app?vid=589be833-6fc8-4c7e-abe3-20b2a016c12e","ios":"levelo://app?vid=589be833-6fc8-4c7e-abe3-20b2a016c12e"},"vehicle_type_id":"4","last_reported":1746799814,"current_range_meters":22000,"station_id":"st_cvj6sg6p6f1abm77japg","pricing_plan_id":"cebpf4jnsgd1na2vs0mg"},{"bike_id":"737d6b9e-1201-43d3-ade4-1cdf6e01a511","system_id":"levelo_inurba_marseille","lat":43.211898,"lon":5.350772,"is_reserved":false,"is_disabled":false,"rental_uris":{"android":"levelo://app?vid=737d6b9e-1201-43d3-ade4-1cdf6e01a511","ios":"levelo://app?vid=737d6b9e-1201-43d3-ade4-1cdf6e01a511"},"vehicle_type_id":"4","last_reported":1746799814,"current_range_meters":22000,"station_id":"st_cvj6sg6p6f1abm77japg","pricing_plan_id":"cebpf4jnsgd1na2vs0mg"},{"bike_id":"8ce2abea-88ef-4586-8cbc-5d02b300680f","system_id":"levelo_inurba_marseille","lat":43.3124,"lon":5.36869,"is_reserved":false,"is_disabled":false,"rental_uris":{"android":"levelo://app?vid=8ce2abea-88ef-4586-8cbc-5d02b300680f","ios":"levelo://app?vid=8ce2abea-88ef-4586-8cbc-5d02b300680f"},"vehicle_type_id":"4","last_reported":1746799814,"current_range_meters":22000,"station_id":"ce4bgl92rcd13ifvqbq0","pricing_plan_id":"cebpf4jnsgd1na2vs0mg"},{"bike_id":"7f26b5c9-fc01-4daf-94dd-4f64f2a168d1","system_id":"levelo_inurba_marseille","lat":43.296062,"lon":5.381102,"is_reserved":false,"is_disabled":false,"rental_uris":{"android":"levelo://app?vid=7f26b5c9-fc01-4daf-94dd-4f64f2a168d1","ios":"levelo://app?vid=7f26b5c9-fc01-4daf-94dd-4f64f2a168d1"},"vehicle_type_id":"4","last_reported":1746799814,"current_range_meters":22000,"station_id":"ce4bgl12rcd13ifvqbo0","pricing_plan_id":"cebpf4jnsgd1na2vs0mg"},{"bike_id":"f40120bb-e342-4f1a-965c-19cc9eb34f25","system_id":"levelo_inurba_marseille","lat":43.24803,"lon":5.37456,"is_reserved":false,"is_disabled":false,"rental_uris":{"android":"levelo://app?vid=f40120bb-e342-4f1a-965c-19cc9eb34f25","ios":"levelo://app?vid=f40120bb-e342-4f1a-965c-19cc9eb34f25"},"vehicle_type_id":"4","last_reported":1746799814,"current_range_meters":22400,"station_id":"ce4bhgh2rcd13ifvqfb0","pricing_plan_id":"cebpf4jnsgd1na2vs0mg"},{"bike_id":"ce25f7ce-70d5-431f-be08-101fdbd9b9ba","system_id":"levelo_inurba_marseille","lat":43.31755,"lon":5.39018,"is_reserved":false,"is_disabled":false,"rental_uris":{"android":"levelo://app?vid=ce25f7ce-70d5-431f-be08-101fdbd9b9ba","ios":"levelo://app?vid=ce25f7ce-70d5-431f-be08-101fdbd9b9ba"},"vehicle_type_id":"4","last_reported":1746799814,"current_range_meters":22400,"station_id":"ce4bhqp2rcd13ifvqhng","pricing_plan_id":"cebpf4jnsgd1na2vs0mg"},{"bike_id":"e452c63a-c77f-4b5c-9712-2be0fc8111c4","system_id":"levelo_inurba_marseille","lat":43.32555,"lon":5.41452,"is_reserved":false,"is_disabled":false,"rental_uris":{"android":"levelo://app?vid=e452c63a-c77f-4b5c-9712-2be0fc8111c4","ios":"levelo://app?vid=e452c63a-c77f-4b5c-9712-2be0fc8111c4"},"vehicle_type_id":"4","last_reported":1746799814,"current_range_meters":22400,"station_id":"ce4bhq12rcd13ifvqhhg","pricing_plan_id":"cebpf4jnsgd1na2vs0mg"},{"bike_id":"31a2d2c8-f240-4ce3-9c3c-76d38878780b","system_id":"levelo_inurba_marseille","lat":43.2969,"lon":5.36249,"is_reserved":false,"is_disabled":false,"rental_uris":{"android":"levelo://app?vid=31a2d2c8-f240-4ce3-9c3c-76d38878780b","ios":"levelo://app?vid=31a2d2c8-f240-4ce3-9c3c-76d38878780b"},"vehicle_type_id":"4","last_reported":1746799814,"current_range_meters":23200,"station_id":"","pricing_plan_id":"cebpf4jnsgd1na2vs0mg"},{"bike_id":"59b09916-f602-44a2-8ea1-cc5e5046aa85","system_id":"levelo_inurba_marseille","lat":43.29536,"lon":5.39393,"is_reserved":false,"is_disabled":false,"rental_uris":{"android":"levelo://app?vid=59b09916-f602-44a2-8ea1-cc5e5046aa85","ios":"levelo://app?vid=59b09916-f602-44a2-8ea1-cc5e5046aa85"},"vehicle_type_id":"4","last_reported":1746799814,"current_range_meters":22400,"station_id":"ce4bh292rcd13ifvqdf0","pricing_plan_id":"cebpf4jnsgd1na2vs0mg"},{"bike_id":"012dfa14-10be-4844-9961-346df49d1cab","system_id":"levelo_inurba_marseille","lat":43.32336,"lon":5.40619,"is_reserved":false,"is_disabled":false,"rental_uris":{"android":"levelo://app?vid=012dfa14-10be-4844-9961-346df49d1cab","ios":"levelo://app?vid=012dfa14-10be-4844-9961-346df49d1cab"},"vehicle_type_id":"4","last_reported":1746799814,"current_range_meters":22400,"station_id":"ce4bhq92rcd13ifvqhjg","pricing_plan_id":"cebpf4jnsgd1na2vs0mg"},{"bike_id":"11bac9a6-0e04-4c68-9615-f13539342864","system_id":"levelo_inurba_marseille","lat":43.21187,"lon":5.35084,"is_reserved":false,"is_disabled":false,"rental_uris":{"android":"levelo://app?vid=11bac9a6-0e04-4c68-9615-f13539342864","ios":"levelo://app?vid=11bac9a6-0e04-4c68-9615-f13539342864"},"vehicle_type_id":"4","last_reported":1746799814,"current_range_meters":22800,"station_id":"st_cvj6sg6p6f1abm77japg","pricing_plan_id":"cebpf4jnsgd1na2vs0mg"},{"bike_id":"78f36c1b-7aa8-4731-ab13-4cda22c37229","system_id":"levelo_inurba_marseille","lat":43.2926,"lon":5.40907,"is_reserved":false,"is_disabled":false,"rental_uris":{"android":"levelo://app?vid=78f36c1b-7aa8-4731-ab13-4cda22c37229","ios":"levelo://app?vid=78f36c1b-7aa8-4731-ab13-4cda22c37229"},"vehicle_type_id":"4","last_reported":1746799814,"current_range_meters":20800,"station_id":"ce4bh192rcd13ifvqdc0","pricing_plan_id":"cebpf4jnsgd1na2vs0mg"},{"bike_id":"99ab0b52-1e8f-4e02-91dd-e66dc1e333eb","system_id":"levelo_inurba_marseille","lat":43.25583,"lon":5.38242,"is_reserved":false,"is_disabled":false,"rental_uris":{"android":"levelo://app?vid=99ab0b52-1e8f-4e02-91dd-e66dc1e333eb","ios":"levelo://app?vid=99ab0b52-1e8f-4e02-91dd-e66dc1e333eb"},"vehicle_type_id":"4","last_reported":1746799814,"current_range_meters":22800,"station_id":"ce4bhih2rcd13ifvqfs0","pricing_plan_id":"cebpf4jnsgd1na2vs0mg"},{"bike_id":"52756607-7827-4f61-8695-3cabe7ff1d7c","system_id":"levelo_inurba_marseille","lat":43.24169,"lon":5.39736,"is_reserved":false,"is_disabled":false,"rental_uris":{"android":"levelo://app?vid=52756607-7827-4f61-8695-3cabe7ff1d7c","ios":"levelo://app?vid=52756607-7827-4f61-8695-3cabe7ff1d7c"},"vehicle_type_id":"4","last_reported":1746799814,"current_range_meters":22800,"station_id":"ce4bhn12rcd13ifvqgpg","pricing_plan_id":"cebpf4jnsgd1na2vs0mg"},{"bike_id":"41fb1b4e-f0b2-47b8-a7ca-db437515f380","system_id":"levelo_inurba_marseille","lat":43.2621,"lon":5.40441,"is_reserved":false,"is_disabled":false,"rental_uris":{"android":"levelo://app?vid=41fb1b4e-f0b2-47b8-a7ca-db437515f380","ios":"levelo://app?vid=41fb1b4e-f0b2-47b8-a7ca-db437515f380"},"vehicle_type_id":"4","last_reported":1746799814,"current_range_meters":22800,"station_id":"ce4bhmh2rcd13ifvqgmg","pricing_plan_id":"cebpf4jnsgd1na2vs0mg"},{"bike_id":"9e294f3a-e149-4521-877c-38fa45c9a96a","system_id":"levelo_inurba_marseille","lat":43.23152,"lon":5.43714,"is_reserved":false,"is_disabled":false,"rental_uris":{"android":"levelo://app?vid=9e294f3a-e149-4521-877c-38fa45c9a96a","ios":"levelo://app?vid=9e294f3a-e149-4521-877c-38fa45c9a96a"},"vehicle_type_id":"4","last_reported":1746799814,"current_range_meters":22400,"station_id":"ce4bhmp2rcd13ifvqgog","pricing_plan_id":"cebpf4jnsgd1na2vs0mg"},{"bike_id":"e637853d-b2e1-4bb1-b5b1-e3391c195f76","system_id":"levelo_inurba_marseille","lat":43.29609,"lon":5.37722,"is_reserved":false,"is_disabled":false,"rental_uris":{"android":"levelo://app?vid=e637853d-b2e1-4bb1-b5b1-e3391c195f76","ios":"levelo://app?vid=e637853d-b2e1-4bb1-b5b1-e3391c195f76"},"vehicle_type_id":"4","last_reported":1746799814,"current_range_meters":22800,"station_id":"ce4bgi92rcd13ifvqb90","pricing_plan_id":"cebpf4jnsgd1na2vs0mg"},{"bike_id":"11056a4a-df74-456a-9e82-921fe113feb2","system_id":"levelo_inurba_marseille","lat":43.290159,"lon":5.381299,"is_reserved":false,"is_disabled":false,"rental_uris":{"android":"levelo://app?vid=11056a4a-df74-456a-9e82-921fe113feb2","ios":"levelo://app?vid=11056a4a-df74-456a-9e82-921fe113feb2"},"vehicle_type_id":"4","last_reported":1746799814,"current_range_meters":22800,"station_id":"","pricing_plan_id":"cebpf4jnsgd1na2vs0mg"},{"bike_id":"2c46825e-104c-4ddc-bde7-b257b3159b08","system_id":"levelo_inurba_marseille","lat":43.31359,"lon":5.38495,"is_reserved":false,"is_disabled":false,"rental_uris":{"android":"levelo://app?vid=2c46825e-104c-4ddc-bde7-b257b3159b08","ios":"levelo://app?vid=2c46825e-104c-4ddc-bde7-b257b3159b08"},"vehicle_type_id":"4","last_reported":1746799814,"current_range_meters":22800,"station_id":"ce4bgt92rcd13ifvqcf0","pricing_plan_id":"cebpf4jnsgd1na2vs0mg"},{"bike_id":"bdb688ec-4ff4-473e-844b-dbe0bf305830","system_id":"levelo_inurba_marseille","lat":43.2175,"lon":5.34603,"is_reserved":false,"is_disabled":false,"rental_uris":{"android":"levelo://app?vid=bdb688ec-4ff4-473e-844b-dbe0bf305830","ios":"levelo://app?vid=bdb688ec-4ff4-473e-844b-dbe0bf305830"},"vehicle_type_id":"4","last_reported":1746799814,"current_range_meters":22800,"station_id":"st_cvj6r9ubvosntc0bgbag","pricing_plan_id":"cebpf4jnsgd1na2vs0mg"},{"bike_id":"69c75cee-6d90-40ed-83e8-8acfd3e0b275","system_id":"levelo_inurba_marseille","lat":43.23181,"lon":5.39983,"is_reserved":false,"is_disabled":false,"rental_uris":{"android":"levelo://app?vid=69c75cee-6d90-40ed-83e8-8acfd3e0b275","ios":"levelo://app?vid=69c75cee-6d90-40ed-83e8-8acfd3e0b275"},"vehicle_type_id":"4","last_reported":1746799814,"current_range_meters":23200,"station_id":"ce4bhn12rcd13ifvqgqg","pricing_plan_id":"cebpf4jnsgd1na2vs0mg"},{"bike_id":"51175372-f1e7-4651-801b-e3b291a6302e","system_id":"levelo_inurba_marseille","lat":43.262216,"lon":5.404514,"is_reserved":false,"is_disabled":false,"rental_uris":{"android":"levelo://app?vid=51175372-f1e7-4651-801b-e3b291a6302e","ios":"levelo://app?vid=51175372-f1e7-4651-801b-e3b291a6302e"},"vehicle_type_id":"4","last_reported":1746799814,"current_range_meters":23200,"station_id":"ce4bhmh2rcd13ifvqgmg","pricing_plan_id":"cebpf4jnsgd1na2vs0mg"},{"bike_id":"de9c354b-00f5-4fd7-9360-15cf993acb68","system_id":"levelo_inurba_marseille","lat":43.30884,"lon":5.39634,"is_reserved":false,"is_disabled":false,"rental_uris":{"android":"levelo://app?vid=de9c354b-00f5-4fd7-9360-15cf993acb68","ios":"levelo://app?vid=de9c354b-00f5-4fd7-9360-15cf993acb68"},"vehicle_type_id":"4","last_reported":1746799814,"current_range_meters":23200,"station_id":"ce4bh012rcd13ifvqcv0","pricing_plan_id":"cebpf4jnsgd1na2vs0mg"},{"bike_id":"b22b15f2-6c91-4266-bc89-169b22236e60","system_id":"levelo_inurba_marseille","lat":43.30329,"lon":5.40432,"is_reserved":false,"is_disabled":false,"rental_uris":{"android":"levelo://app?vid=b22b15f2-6c91-4266-bc89-169b22236e60","ios":"levelo://app?vid=b22b15f2-6c91-4266-bc89-169b22236e60"},"vehicle_type_id":"4","last_reported":1746799814,"current_range_meters":23200,"station_id":"ce4bh012rcd13ifvqd10","pricing_plan_id":"cebpf4jnsgd1na2vs0mg"},{"bike_id":"7872cd1d-7e49-4e6b-94c5-b4d194201afc","system_id":"levelo_inurba_marseille","lat":43.30136,"lon":5.39865,"is_reserved":false,"is_disabled":false,"rental_uris":{"android":"levelo://app?vid=7872cd1d-7e49-4e6b-94c5-b4d194201afc","ios":"levelo://app?vid=7872cd1d-7e49-4e6b-94c5-b4d194201afc"},"vehicle_type_id":"4","last_reported":1746799814,"current_range_meters":24000,"station_id":"ce4bh0h2rcd13ifvqd40","pricing_plan_id":"cebpf4jnsgd1na2vs0mg"},{"bike_id":"389422e2-ca6d-49c0-81d8-a5c8fb3c8be9","system_id":"levelo_inurba_marseille","lat":43.293692,"lon":5.378432,"is_reserved":false,"is_disabled":false,"rental_uris":{"android":"levelo://app?vid=389422e2-ca6d-49c0-81d8-a5c8fb3c8be9","ios":"levelo://app?vid=389422e2-ca6d-49c0-81d8-a5c8fb3c8be9"},"vehicle_type_id":"4","last_reported":1746799814,"current_range_meters":24000,"station_id":"ce4bgjh2rcd13ifvqbf0","pricing_plan_id":"cebpf4jnsgd1na2vs0mg"},{"bike_id":"5b833c63-96b3-4d03-ad85-933b4a0a6f85","system_id":"levelo_inurba_marseille","lat":43.28482,"lon":5.38559,"is_reserved":false,"is_disabled":false,"rental_uris":{"android":"levelo://app?vid=5b833c63-96b3-4d03-ad85-933b4a0a6f85","ios":"levelo://app?vid=5b833c63-96b3-4d03-ad85-933b4a0a6f85"},"vehicle_type_id":"4","last_reported":1746799814,"current_range_meters":24000,"station_id":"ce4bh8p2rcd13ifvqeb0","pricing_plan_id":"cebpf4jnsgd1na2vs0mg"},{"bike_id":"d17e4dce-c504-4882-bb75-497b55ca5e90","system_id":"levelo_inurba_marseille","lat":43.30883,"lon":5.37192,"is_reserved":false,"is_disabled":false,"rental_uris":{"android":"levelo://app?vid=d17e4dce-c504-4882-bb75-497b55ca5e90","ios":"levelo://app?vid=d17e4dce-c504-4882-bb75-497b55ca5e90"},"vehicle_type_id":"4","last_reported":1746799814,"current_range_meters":24000,"station_id":"ce4bguh2rcd13ifvqckg","pricing_plan_id":"cebpf4jnsgd1na2vs0mg"},{"bike_id":"db5c40b3-b343-4a74-b1e8-cafb84f98649","system_id":"levelo_inurba_marseille","lat":43.22351,"lon":5.34671,"is_reserved":false,"is_disabled":false,"rental_uris":{"android":"levelo://app?vid=db5c40b3-b343-4a74-b1e8-cafb84f98649","ios":"levelo://app?vid=db5c40b3-b343-4a74-b1e8-cafb84f98649"},"vehicle_type_id":"4","last_reported":1746799814,"current_range_meters":24000,"station_id":"","pricing_plan_id":"cebpf4jnsgd1na2vs0mg"},{"bike_id":"f52c819d-ca4b-4640-b458-b877db1bf990","system_id":"levelo_inurba_marseille","lat":43.29893,"lon":5.41059,"is_reserved":false,"is_disabled":false,"rental_uris":{"android":"levelo://app?vid=f52c819d-ca4b-4640-b458-b877db1bf990","ios":"levelo://app?vid=f52c819d-ca4b-4640-b458-b877db1bf990"},"vehicle_type_id":"4","last_reported":1746799814,"current_range_meters":24400,"station_id":"","pricing_plan_id":"cebpf4jnsgd1na2vs0mg"},{"bike_id":"ce632f7c-472f-4e53-aa60-b823d8ebf23a","system_id":"levelo_inurba_marseille","lat":43.30085,"lon":5.39078,"is_reserved":false,"is_disabled":false,"rental_uris":{"android":"levelo://app?vid=ce632f7c-472f-4e53-aa60-b823d8ebf23a","ios":"levelo://app?vid=ce632f7c-472f-4e53-aa60-b823d8ebf23a"},"vehicle_type_id":"4","last_reported":1746799814,"current_range_meters":24400,"station_id":"ce4bh192rcd13ifvqdb0","pricing_plan_id":"cebpf4jnsgd1na2vs0mg"},{"bike_id":"96d34a8d-fde9-42ad-b10b-ff275935622b","system_id":"levelo_inurba_marseille","lat":43.30356,"lon":5.41882,"is_reserved":false,"is_disabled":false,"rental_uris":{"android":"levelo://app?vid=96d34a8d-fde9-42ad-b10b-ff275935622b","ios":"levelo://app?vid=96d34a8d-fde9-42ad-b10b-ff275935622b"},"vehicle_type_id":"4","last_reported":1746799814,"current_range_meters":24400,"station_id":"ce4bhop2rcd13ifvqh7g","pricing_plan_id":"cebpf4jnsgd1na2vs0mg"},{"bike_id":"f2eadc71-ca61-4b5d-94ca-a440311473ce","system_id":"levelo_inurba_marseille","lat":43.25092,"lon":5.3953,"is_reserved":false,"is_disabled":false,"rental_uris":{"android":"levelo://app?vid=f2eadc71-ca61-4b5d-94ca-a440311473ce","ios":"levelo://app?vid=f2eadc71-ca61-4b5d-94ca-a440311473ce"},"vehicle_type_id":"4","last_reported":1746799814,"current_range_meters":24400,"station_id":"ce4bhm12rcd13ifvqgkg","pricing_plan_id":"cebpf4jnsgd1na2vs0mg"},{"bike_id":"43a45102-35b7-46c0-b355-9752d82e53a6","system_id":"levelo_inurba_marseille","lat":43.26489,"lon":5.3955,"is_reserved":false,"is_disabled":false,"rental_uris":{"android":"levelo://app?vid=43a45102-35b7-46c0-b355-9752d82e53a6","ios":"levelo://app?vid=43a45102-35b7-46c0-b355-9752d82e53a6"},"vehicle_type_id":"4","last_reported":1746799814,"current_range_meters":24400,"station_id":"ce4bhi12rcd13ifvqfq0","pricing_plan_id":"cebpf4jnsgd1na2vs0mg"},{"bike_id":"70ffaf00-7cbd-4dcb-bde6-26d92599c427","system_id":"levelo_inurba_marseille","lat":43.31757,"lon":5.39016,"is_reserved":false,"is_disabled":false,"rental_uris":{"android":"levelo://app?vid=70ffaf00-7cbd-4dcb-bde6-26d92599c427","ios":"levelo://app?vid=70ffaf00-7cbd-4dcb-bde6-26d92599c427"},"vehicle_type_id":"4","last_reported":1746799814,"current_range_meters":24400,"station_id":"ce4bhqp2rcd13ifvqhng","pricing_plan_id":"cebpf4jnsgd1na2vs0mg"},{"bike_id":"94b3496a-4203-4c92-8226-47324cd0717b","system_id":"levelo_inurba_marseille","lat":43.29361,"lon":5.37837,"is_reserved":false,"is_disabled":false,"rental_uris":{"android":"levelo://app?vid=94b3496a-4203-4c92-8226-47324cd0717b","ios":"levelo://app?vid=94b3496a-4203-4c92-8226-47324cd0717b"},"vehicle_type_id":"4","last_reported":1746799814,"current_range_meters":24400,"station_id":"ce4bgjh2rcd13ifvqbf0","pricing_plan_id":"cebpf4jnsgd1na2vs0mg"},{"bike_id":"ab92b26e-d49f-4dc7-af1b-8e10eee274c9","system_id":"levelo_inurba_marseille","lat":43.3054,"lon":5.36685,"is_reserved":false,"is_disabled":false,"rental_uris":{"android":"levelo://app?vid=ab92b26e-d49f-4dc7-af1b-8e10eee274c9","ios":"levelo://app?vid=ab92b26e-d49f-4dc7-af1b-8e10eee274c9"},"vehicle_type_id":"4","last_reported":1746799814,"current_range_meters":24400,"station_id":"ce4bgrp2rcd13ifvqc9g","pricing_plan_id":"cebpf4jnsgd1na2vs0mg"},{"bike_id":"d882010d-8318-40d1-8aee-e9e36ae8ad57","system_id":"levelo_inurba_marseille","lat":43.30885,"lon":5.3719,"is_reserved":false,"is_disabled":false,"rental_uris":{"android":"levelo://app?vid=d882010d-8318-40d1-8aee-e9e36ae8ad57","ios":"levelo://app?vid=d882010d-8318-40d1-8aee-e9e36ae8ad57"},"vehicle_type_id":"4","last_reported":1746799814,"current_range_meters":24400,"station_id":"ce4bguh2rcd13ifvqckg","pricing_plan_id":"cebpf4jnsgd1na2vs0mg"},{"bike_id":"0206eb30-3e05-4341-82ca-377b48bf8c63","system_id":"levelo_inurba_marseille","lat":43.28036,"lon":5.36949,"is_reserved":false,"is_disabled":false,"rental_uris":{"android":"levelo://app?vid=0206eb30-3e05-4341-82ca-377b48bf8c63","ios":"levelo://app?vid=0206eb30-3e05-4341-82ca-377b48bf8c63"},"vehicle_type_id":"4","last_reported":1746799814,"current_range_meters":24800,"station_id":"ce4bha12rcd13ifvqef0","pricing_plan_id":"cebpf4jnsgd1na2vs0mg"},{"bike_id":"830ca2f3-14a2-40d4-b14d-f14634d8ac66","system_id":"levelo_inurba_marseille","lat":43.31737,"lon":5.43721,"is_reserved":false,"is_disabled":false,"rental_uris":{"android":"levelo://app?vid=830ca2f3-14a2-40d4-b14d-f14634d8ac66","ios":"levelo://app?vid=830ca2f3-14a2-40d4-b14d-f14634d8ac66"},"vehicle_type_id":"4","last_reported":1746799814,"current_range_meters":24800,"station_id":"ce4bhp92rcd13ifvqhcg","pricing_plan_id":"cebpf4jnsgd1na2vs0mg"},{"bike_id":"b08b75f7-d648-46b5-ad46-277fe9c7886e","system_id":"levelo_inurba_marseille","lat":43.26495,"lon":5.39533,"is_reserved":false,"is_disabled":false,"rental_uris":{"android":"levelo://app?vid=b08b75f7-d648-46b5-ad46-277fe9c7886e","ios":"levelo://app?vid=b08b75f7-d648-46b5-ad46-277fe9c7886e"},"vehicle_type_id":"4","last_reported":1746799814,"current_range_meters":24800,"station_id":"ce4bhi12rcd13ifvqfq0","pricing_plan_id":"cebpf4jnsgd1na2vs0mg"},{"bike_id":"fcc5a475-5ad9-4783-93a7-f0efcfc89c98","system_id":"levelo_inurba_marseille","lat":43.29579,"lon":5.38104,"is_reserved":false,"is_disabled":false,"rental_uris":{"android":"levelo://app?vid=fcc5a475-5ad9-4783-93a7-f0efcfc89c98","ios":"levelo://app?vid=fcc5a475-5ad9-4783-93a7-f0efcfc89c98"},"vehicle_type_id":"4","last_reported":1746799814,"current_range_meters":24800,"station_id":"ce4bgl12rcd13ifvqbo0","pricing_plan_id":"cebpf4jnsgd1na2vs0mg"},{"bike_id":"802c5c1e-3ae9-402e-bd3c-e9e4a65fefaf","system_id":"levelo_inurba_marseille","lat":43.28939,"lon":5.36639,"is_reserved":false,"is_disabled":false,"rental_uris":{"android":"levelo://app?vid=802c5c1e-3ae9-402e-bd3c-e9e4a65fefaf","ios":"levelo://app?vid=802c5c1e-3ae9-402e-bd3c-e9e4a65fefaf"},"vehicle_type_id":"4","last_reported":1746799814,"current_range_meters":24800,"station_id":"ce4bhap2rcd13ifvqek0","pricing_plan_id":"cebpf4jnsgd1na2vs0mg"},{"bike_id":"c56f21ae-ac91-41a6-a7db-5da25bb1e385","system_id":"levelo_inurba_marseille","lat":43.29299,"lon":5.37457,"is_reserved":false,"is_disabled":false,"rental_uris":{"android":"levelo://app?vid=c56f21ae-ac91-41a6-a7db-5da25bb1e385","ios":"levelo://app?vid=c56f21ae-ac91-41a6-a7db-5da25bb1e385"},"vehicle_type_id":"4","last_reported":1746799814,"current_range_meters":24800,"station_id":"ce4bgi12rcd13ifvqb70","pricing_plan_id":"cebpf4jnsgd1na2vs0mg"},{"bike_id":"c685de6c-7e1c-4f6d-a85e-677faf50b2ff","system_id":"levelo_inurba_marseille","lat":43.21193,"lon":5.35068,"is_reserved":false,"is_disabled":false,"rental_uris":{"android":"levelo://app?vid=c685de6c-7e1c-4f6d-a85e-677faf50b2ff","ios":"levelo://app?vid=c685de6c-7e1c-4f6d-a85e-677faf50b2ff"},"vehicle_type_id":"4","last_reported":1746799814,"current_range_meters":24800,"station_id":"st_cvj6sg6p6f1abm77japg","pricing_plan_id":"cebpf4jnsgd1na2vs0mg"},{"bike_id":"e1bd2188-73fd-4ab0-b4e4-7ca23b915543","system_id":"levelo_inurba_marseille","lat":43.3013,"lon":5.39847,"is_reserved":false,"is_disabled":false,"rental_uris":{"android":"levelo://app?vid=e1bd2188-73fd-4ab0-b4e4-7ca23b915543","ios":"levelo://app?vid=e1bd2188-73fd-4ab0-b4e4-7ca23b915543"},"vehicle_type_id":"4","last_reported":1746799814,"current_range_meters":24800,"station_id":"ce4bh0h2rcd13ifvqd40","pricing_plan_id":"cebpf4jnsgd1na2vs0mg"},{"bike_id":"799e0b6c-77d7-4504-9dbd-16df842e3253","system_id":"levelo_inurba_marseille","lat":43.322914,"lon":5.382866,"is_reserved":false,"is_disabled":false,"rental_uris":{"android":"levelo://app?vid=799e0b6c-77d7-4504-9dbd-16df842e3253","ios":"levelo://app?vid=799e0b6c-77d7-4504-9dbd-16df842e3253"},"vehicle_type_id":"4","last_reported":1746799814,"current_range_meters":25200,"station_id":"ce4bhr12rcd13ifvqhqg","pricing_plan_id":"cebpf4jnsgd1na2vs0mg"},{"bike_id":"27d081e0-c652-4e54-9549-1b7116cc2e46","system_id":"levelo_inurba_marseille","lat":43.25818,"lon":5.39427,"is_reserved":false,"is_disabled":false,"rental_uris":{"android":"levelo://app?vid=27d081e0-c652-4e54-9549-1b7116cc2e46","ios":"levelo://app?vid=27d081e0-c652-4e54-9549-1b7116cc2e46"},"vehicle_type_id":"4","last_reported":1746799814,"current_range_meters":25200,"station_id":"ce4bhip2rcd13ifvqft0","pricing_plan_id":"cebpf4jnsgd1na2vs0mg"},{"bike_id":"a22b3976-5039-4a72-9be4-6c1aa2bf4c4d","system_id":"levelo_inurba_marseille","lat":43.29903,"lon":5.37474,"is_reserved":false,"is_disabled":false,"rental_uris":{"android":"levelo://app?vid=a22b3976-5039-4a72-9be4-6c1aa2bf4c4d","ios":"levelo://app?vid=a22b3976-5039-4a72-9be4-6c1aa2bf4c4d"},"vehicle_type_id":"4","last_reported":1746799814,"current_range_meters":25200,"station_id":"ce4bgjh2rcd13ifvqbg0","pricing_plan_id":"cebpf4jnsgd1na2vs0mg"},{"bike_id":"5d9af97f-f880-44b1-aa4a-e0bfb38d7fa9","system_id":"levelo_inurba_marseille","lat":43.28694,"lon":5.40003,"is_reserved":false,"is_disabled":false,"rental_uris":{"android":"levelo://app?vid=5d9af97f-f880-44b1-aa4a-e0bfb38d7fa9","ios":"levelo://app?vid=5d9af97f-f880-44b1-aa4a-e0bfb38d7fa9"},"vehicle_type_id":"4","last_reported":1746799814,"current_range_meters":25200,"station_id":"ce4bho92rcd13ifvqh3g","pricing_plan_id":"cebpf4jnsgd1na2vs0mg"},