{"last_updated":1728908255,"ttl":60,"version":"2.2","data":{"bikes":[{"bike_id":"a9a7cf18-0b8b-45fe-a5f2-948929e8bf64","system_id":"levelo_inurba_marseille","lat":43.23151,"lon":5.43717,"is_reserved":false,"is_disabled":false,"rental_uris":{"android":"levelo://app?vid=a9a7cf18-0b8b-45fe-a5f2-948929e8bf64","ios":"levelo://app?vid=a9a7cf18-0b8b-45fe-a5f2-948929e8bf64"},"vehicle_type_id":"4","last_reported":1728908255,"current_range_meters":10000,"station_id":"ce4bhmp2rcd13ifvqgog","pricing_plan_id":"cebpf4jnsgd1na2vs0mg"},{"bike_id":"bf259e4c-439a-46c8-bbfb-d69755504c23","system_id":"levelo_inurba_marseille","lat":43.26674,"lon":5.38261,"is_reserved":false,"is_disabled":false,"rental_uris":{"android":"levelo://app?vid=bf259e4c-439a-46c8-bbfb-d69755504c23","ios":"levelo://app?vid=bf259e4c-439a-46c8-bbfb-d69755504c23"},"vehicle_type_id":"4","last_reported":1728908255,"current_range_meters":31200,"station_id":"ce4bhg92rcd13ifvqf90","pricing_plan_id":"cebpf4jnsgd1na2vs0mg"},{"bike_id":"c91cca1d-bc4f-4d46-89fd-084a4dce297b","system_id":"levelo_inurba_marseille","lat":43.29788,"lon":5.38098,"is_reserved":false,"is_disabled":false,"rental_uris":{"android":"levelo://app?vid=c91cca1d-bc4f-4d46-89fd-084a4dce297b","ios":"levelo://app?vid=c91cca1d-bc4f-4d46-89fd-084a4dce297b"},"vehicle_type_id":"4","last_reported":1728908255,"current_range_meters":28000,"station_id":"ce4bgip2rcd13ifvqbb0","pricing_plan_id":"cebpf4jnsgd1na2vs0mg"},{"bike_id":"2c5932b5-476e-49f5-82ab-0117a01c65f4","system_id":"levelo_inurba_marseille","lat":43.29302,"lon":5.37462,"is_reserved":false,"is_disabled":false,"rental_uris":{"android":"levelo://app?vid=2c5932b5-476e-49f5-82ab-0117a01c65f4","ios":"levelo://app?vid=2c5932b5-476e-49f5-82ab-0117a01c65f4"},"vehicle_type_id":"4","last_reported":1728908255,"current_range_meters":35600,"station_id":"ce4bgi12rcd13ifvqb70","pricing_plan_id":"cebpf4jnsgd1na2vs0mg"},{"bike_id":"536d25c6-0e1e-4908-88b9-44257791a70f","system_id":"levelo_inurba_marseille","lat":43.28607,"lon":5.37065,"is_reserved":false,"is_disabled":false,"rental_uris":{"android":"levelo://app?vid=536d25c6-0e1e-4908-88b9-44257791a70f","ios":"levelo://app?vid=536d25c6-0e1e-4908-88b9-44257791a70f"},"vehicle_type_id":"4","last_reported":1728908255,"current_range_meters":9200,"station_id":"ce4bht12rcd13ifvqi60","pricing_plan_id":"cebpf4jnsgd1na2vs0mg"},{"bike_id":"b04ccb6a-5c3a-4a85-9fd9-daadf5906017","system_id":"levelo_inurba_marseille","lat":43.29935,"lon":5.36546,"is_reserved":false,"is_disabled":false,"rental_uris":{"android":"levelo://app?vid=b04ccb6a-5c3a-4a85-9fd9-daadf5906017","ios":"levelo://app?vid=b04ccb6a-5c3a-4a85-9fd9-daadf5906017"},"vehicle_type_id":"4","last_reported":1728908255,"current_range_meters":38400,"station_id":"ce4bgm92rcd13ifvqbr0","pricing_plan_id":"cebpf4jnsgd1na2vs0mg"},{"bike_id":"be738ba0-0bea-493f-89d2-b4b26426787a","system_id":"levelo_inurba_marseille","lat":43.29085,"lon":5.3817,"is_reserved":false,"is_disabled":false,"rental_uris":{"android":"levelo://app?vid=be738ba0-0bea-493f-89d2-b4b26426787a","ios":"levelo://app?vid=be738ba0-0bea-493f-89d2-b4b26426787a"},"vehicle_type_id":"4","last_reported":1728908255,"current_range_meters":32800,"station_id":"ce4bh512rcd13ifvqe2g","pricing_plan_id":"cebpf4jnsgd1na2vs0mg"},{"bike_id":"d1dfd8b4-c9f3-4338-89b7-abd7c69ecb82","system_id":"levelo_inurba_marseille","lat":43.29577,"lon":5.39982,"is_reserved":false,"is_disabled":false,"rental_uris":{"android":"levelo://app?vid=d1dfd8b4-c9f3-4338-89b7-abd7c69ecb82","ios":"levelo://app?vid=d1dfd8b4-c9f3-4338-89b7-abd7c69ecb82"},"vehicle_type_id":"4","last_reported":1728908255,"current_range_meters":25600,"station_id":"ce4bh312rcd13ifvqdj0","pricing_plan_id":"cebpf4jnsgd1na2vs0mg"},{"bike_id":"627a43c6-d65e-4982-b77f-c96a8bab08e8","system_id":"levelo_inurba_marseille","lat":43.29049,"lon":5.35918,"is_reserved":false,"is_disabled":false,"rental_uris":{"android":"levelo://app?vid=627a43c6-d65e-4982-b77f-c96a8bab08e8","ios":"levelo://app?vid=627a43c6-d65e-4982-b77f-c96a8bab08e8"},"vehicle_type_id":"4","last_reported":1728908255,"current_range_meters":28000,"station_id":"ce4bha92rcd13ifvqeg0","pricing_plan_id":"cebpf4jnsgd1na2vs0mg"},{"bike_id":"4e613db3-e5ba-4196-89fc-a847f0665a2e","system_id":"levelo_inurba_marseille","lat":43.27502,"lon":5.42446,"is_reserved":false,"is_disabled":false,"rental_uris":{"android":"levelo://app?vid=4e613db3-e5ba-4196-89fc-a847f0665a2e","ios":"levelo://app?vid=4e613db3-e5ba-4196-89fc-a847f0665a2e"},"vehicle_type_id":"4","last_reported":1728908255,"current_range_meters":22400,"station_id":"ce4bhn92rcd13ifvqgrg","pricing_plan_id":"cebpf4jnsgd1na2vs0mg"},{"bike_id":"dfc1bcd7-59ba-4418-abb9-f1e8153e152a","system_id":"levelo_inurba_marseille","lat":43.2953,"lon":5.38542,"is_reserved":false,"is_disabled":false,"rental_uris":{"android":"levelo://app?vid=dfc1bcd7-59ba-4418-abb9-f1e8153e152a","ios":"levelo://app?vid=dfc1bcd7-59ba-4418-abb9-f1e8153e152a"},"vehicle_type_id":"4","last_reported":1728908255,"current_range_meters":22000,"station_id":"ce4bgih2rcd13ifvqba0","pricing_plan_id":"cebpf4jnsgd1na2vs0mg"},{"bike_id":"64f905d3-5d28-4672-8540-af3889f668dd","system_id":"levelo_inurba_marseille","lat":43.23155,"lon":5.43713,"is_reserved":false,"is_disabled":false,"rental_uris":{"android":"levelo://app?vid=64f905d3-5d28-4672-8540-af3889f668dd","ios":"levelo://app?vid=64f905d3-5d28-4672-8540-af3889f668dd"},"vehicle_type_id":"4","last_reported":1728908255,"current_range_meters":17600,"station_id":"ce4bhmp2rcd13ifvqgog","pricing_plan_id":"cebpf4jnsgd1na2vs0mg"},{"bike_id":"51ef0219-2988-43e2-9101-b924603970a8","system_id":"levelo_inurba_marseille","lat":43.27996,"lon":5.41656,"is_reserved":false,"is_disabled":false,"rental_uris":{"android":"levelo://app?vid=51ef0219-2988-43e2-9101-b924603970a8","ios":"levelo://app?vid=51ef0219-2988-43e2-9101-b924603970a8"},"vehicle_type_id":"4","last_reported":1728908255,"current_range_meters":6400,"station_id":"ce4bho12rcd13ifvqh1g","pricing_plan_id":"cebpf4jnsgd1na2vs0mg"},{"bike_id":"d9ef2573-f9db-46ee-91f2-059efc70fb9d","system_id":"levelo_inurba_marseille","lat":43.29639,"lon":5.40591,"is_reserved":false,"is_disabled":false,"rental_uris":{"android":"levelo://app?vid=d9ef2573-f9db-46ee-91f2-059efc70fb9d","ios":"levelo://app?vid=d9ef2573-f9db-46ee-91f2-059efc70fb9d"},"vehicle_type_id":"4","last_reported":1728908255,"current_range_meters":38000,"station_id":"ce4bh0h2rcd13ifvqd60","pricing_plan_id":"cebpf4jnsgd1na2vs0mg"},{"bike_id":"ef1ae273-cdeb-4bff-9193-5f38854a3981","system_id":"levelo_inurba_marseille","lat":43.31443,"lon":5.37384,"is_reserved":false,"is_disabled":false,"rental_uris":{"android":"levelo://app?vid=ef1ae273-cdeb-4bff-9193-5f38854a3981","ios":"levelo://app?vid=ef1ae273-cdeb-4bff-9193-5f38854a3981"},"vehicle_type_id":"4","last_reported":1728908255,"current_range_meters":2000,"station_id":"","pricing_plan_id":"cebpf4jnsgd1na2vs0mg"},{"bike_id":"72847957-b91c-4739-a051-6dd0337137d9","system_id":"levelo_inurba_marseille","lat":43.29842,"lon":5.36276,"is_reserved":false,"is_disabled":false,"rental_uris":{"android":"levelo://app?vid=72847957-b91c-4739-a051-6dd0337137d9","ios":"levelo://app?vid=72847957-b91c-4739-a051-6dd0337137d9"},"vehicle_type_id":"4","last_reported":1728908255,"current_range_meters":25600,"station_id":"ce4bgpp2rcd13ifvqc3g","pricing_plan_id":"cebpf4jnsgd1na2vs0mg"},{"bike_id":"7ad0f195-d99c-4219-9c28-c36a2453b490","system_id":"levelo_inurba_marseille","lat":43.28661,"lon":5.36353,"is_reserved":false,"is_disabled":false,"rental_uris":{"android":"levelo://app?vid=7ad0f195-d99c-4219-9c28-c36a2453b490","ios":"levelo://app?vid=7ad0f195-d99c-4219-9c28-c36a2453b490"},"vehicle_type_id":"4","last_reported":1728908255,"current_range_meters":40000,"station_id":"ce4bhah2rcd13ifvqej0","pricing_plan_id":"cebpf4jnsgd1na2vs0mg"},{"bike_id":"a7c1bca9-9784-48b5-b1c1-fbf9a380c681","system_id":"levelo_inurba_marseille","lat":43.2749,"lon":5.42449,"is_reserved":false,"is_disabled":false,"rental_uris":{"android":"levelo://app?vid=a7c1bca9-9784-48b5-b1c1-fbf9a380c681","ios":"levelo://app?vid=a7c1bca9-9784-48b5-b1c1-fbf9a380c681"},"vehicle_type_id":"4","last_reported":1728908255,"current_range_meters":6000,"station_id":"ce4bhn92rcd13ifvqgrg","pricing_plan_id":"cebpf4jnsgd1na2vs0mg"},{"bike_id":"4ea4d258-0ac8-4144-83b5-a9a85af13009","system_id":"levelo_inurba_marseille","lat":43.24069,"lon":5.37757,"is_reserved":false,"is_disabled":false,"rental_uris":{"android":"levelo://app?vid=4ea4d258-0ac8-4144-83b5-a9a85af13009","ios":"levelo://app?vid=4ea4d258-0ac8-4144-83b5-a9a85af13009"},"vehicle_type_id":"4","last_reported":1728908255,"current_range_meters":27200,"station_id":"ce4bhnp2rcd13ifvqgvg","pricing_plan_id":"cebpf4jnsgd1na2vs0mg"},{"bike_id":"9a5f02e7-f2c0-4d66-9b29-b5537d018711","system_id":"levelo_inurba_marseille","lat":43.25827,"lon":5.39437,"is_reserved":false,"is_disabled":false,"rental_uris":{"android":"levelo://app?vid=9a5f02e7-f2c0-4d66-9b29-b5537d018711","ios":"levelo://app?vid=9a5f02e7-f2c0-4d66-9b29-b5537d018711"},"vehicle_type_id":"4","last_reported":1728908255,"current_range_meters":36800,"station_id":"ce4bhip2rcd13ifvqft0","pricing_plan_id":"cebpf4jnsgd1na2vs0mg"},{"bike_id":"e50744ec-6573-4d8d-8e61-afa7b3b35806","system_id":"levelo_inurba_marseille","lat":43.32657,"lon":5.40994,"is_reserved":false,"is_disabled":false,"rental_uris":{"android":"levelo://app?vid=e50744ec-6573-4d8d-8e61-afa7b3b35806","ios":"levelo://app?vid=e50744ec-6573-4d8d-8e61-afa7b3b35806"},"vehicle_type_id":"4","last_reported":1728908255,"current_range_meters":35200,"station_id":"ce4bhpp2rcd13ifvqhgg","pricing_plan_id":"cebpf4jnsgd1na2vs0mg"},{"bike_id":"9b006703-6ad1-417a-a37f-01be00ec5bde","system_id":"levelo_inurba_marseille","lat":43.23152,"lon":5.43717,"is_reserved":false,"is_disabled":false,"rental_uris":{"android":"levelo://app?vid=9b006703-6ad1-417a-a37f-01be00ec5bde","ios":"levelo://app?vid=9b006703-6ad1-417a-a37f-01be00ec5bde"},"vehicle_type_id":"4","last_reported":1728908255,"current_range_meters":4000,"station_id":"ce4bhmp2rcd13ifvqgog","pricing_plan_id":"cebpf4jnsgd1na2vs0mg"},{"bike_id":"1c9343e4-7b78-402e-b1fe-6599c269887e","system_id":"levelo_inurba_marseille","lat":43.314515,"lon":5.37384,"is_reserved":false,"is_disabled":false,"rental_uris":{"android":"levelo://app?vid=1c9343e4-7b78-402e-b1fe-6599c269887e","ios":"levelo://app?vid=1c9343e4-7b78-402e-b1fe-6599c269887e"},"vehicle_type_id":"4","last_reported":1728908255,"current_range_meters":28000,"station_id":"","pricing_plan_id":"cebpf4jnsgd1na2vs0mg"},{"bike_id":"ddfda43d-0405-4419-8a86-8cba3555c217","system_id":"levelo_inurba_marseille","lat":43.25939,"lon":5.40903,"is_reserved":false,"is_disabled":false,"rental_uris":{"android":"levelo://app?vid=ddfda43d-0405-4419-8a86-8cba3555c217","ios":"levelo://app?vid=ddfda43d-0405-4419-8a86-8cba3555c217"},"vehicle_type_id":"4","last_reported":1728908255,"current_range_meters":16800,"station_id":"ce4bhm92rcd13ifvqglg","pricing_plan_id":"cebpf4jnsgd1na2vs0mg"},{"bike_id":"c82ba427-6650-49e4-ac87-a99c82a84bb4","system_id":"levelo_inurba_marseille","lat":43.301775,"lon":5.365995,"is_reserved":false,"is_disabled":false,"rental_uris":{"android":"levelo://app?vid=c82ba427-6650-49e4-ac87-a99c82a84bb4","ios":"levelo://app?vid=c82ba427-6650-49e4-ac87-a99c82a84bb4"},"vehicle_type_id":"4","last_reported":1728908255,"current_range_meters":39200,"station_id":"ce4bgrh2rcd13ifvqc8g","pricing_plan_id":"cebpf4jnsgd1na2vs0mg"},{"bike_id":"9d9f22e6-7983-4632-9127-75a7715a4c4f","system_id":"levelo_inurba_marseille","lat":43.27985,"lon":5.41649,"is_reserved":false,"is_disabled":false,"rental_uris":{"android":"levelo://app?vid=9d9f22e6-7983-4632-9127-75a7715a4c4f","ios":"levelo://app?vid=9d9f22e6-7983-4632-9127-75a7715a4c4f"},"vehicle_type_id":"4","last_reported":1728908255,"current_range_meters":3200,"station_id":"ce4bho12rcd13ifvqh1g","pricing_plan_id":"cebpf4jnsgd1na2vs0mg"},{"bike_id":"29e36184-e119-4bdd-88ed-edc8da9b8470","system_id":"levelo_inurba_marseille","lat":43.32658,"lon":5.40993,"is_reserved":false,"is_disabled":false,"rental_uris":{"android":"levelo://app?vid=29e36184-e119-4bdd-88ed-edc8da9b8470","ios":"levelo://app?vid=29e36184-e119-4bdd-88ed-edc8da9b8470"},"vehicle_type_id":"4","last_reported":1728908255,"current_range_meters":32000,"station_id":"ce4bhpp2rcd13ifvqhgg","pricing_plan_id":"cebpf4jnsgd1na2vs0mg"},{"bike_id":"b5f54fc0-91f0-4ec1-a77f-0e8dbf89316f","system_id":"levelo_inurba_marseille","lat":43.32549,"lon":5.41438,"is_reserved":false,"is_disabled":false,"rental_uris":{"android":"levelo://app?vid=b5f54fc0-91f0-4ec1-a77f-0e8dbf89316f","ios":"levelo://app?vid=b5f54fc0-91f0-4ec1-a77f-0e8dbf89316f"},"vehicle_type_id":"4","last_reported":1728908255,"current_range_meters":27200,"station_id":"ce4bhq12rcd13ifvqhhg","pricing_plan_id":"cebpf4jnsgd1na2vs0mg"},{"bike_id":"e5e81cb2-5a31-44cd-ac8f-9a45f773b9b5","system_id":"levelo_inurba_marseille","lat":43.28612,"lon":5.37063,"is_reserved":false,"is_disabled":false,"rental_uris":{"android":"levelo://app?vid=e5e81cb2-5a31-44cd-ac8f-9a45f773b9b5","ios":"levelo://app?vid=e5e81cb2-5a31-44cd-ac8f-9a45f773b9b5"},"vehicle_type_id":"4","last_reported":1728908255,"current_range_meters":38800,"station_id":"ce4bht12rcd13ifvqi60","pricing_plan_id":"cebpf4jnsgd1na2vs0mg"},{"bike_id":"24ffc1f0-be16-44d2-b4e9-75731c60af33","system_id":"levelo_inurba_marseille","lat":43.31489,"lon":5.37294,"is_reserved":false,"is_disabled":false,"rental_uris":{"android":"levelo://app?vid=24ffc1f0-be16-44d2-b4e9-75731c60af33","ios":"levelo://app?vid=24ffc1f0-be16-44d2-b4e9-75731c60af33"},"vehicle_type_id":"4","last_reported":1728908255,"current_range_meters":8400,"station_id":"ce4bgt12rcd13ifvqcd0","pricing_plan_id":"cebpf4jnsgd1na2vs0mg"},{"bike_id":"7b6ad879-61a4-41b3-aaf2-86d248a36472","system_id":"levelo_inurba_marseille","lat":43.29318,"lon":5.37027,"is_reserved":false,"is_disabled":false,"rental_uris":{"android":"levelo://app?vid=7b6ad879-61a4-41b3-aaf2-86d248a36472","ios":"levelo://app?vid=7b6ad879-61a4-41b3-aaf2-86d248a36472"},"vehicle_type_id":"4","last_reported":1728908255,"current_range_meters":30800,"station_id":"ce4bhah2rcd13ifvqej0","pricing_plan_id":"cebpf4jnsgd1na2vs0mg"},{"bike_id":"d1cf24e6-5b2f-44b5-b0ea-762a3bd2da89","system_id":"levelo_inurba_marseille","lat":43.30883,"lon":5.37184,"is_reserved":false,"is_disabled":false,"rental_uris":{"android":"levelo://app?vid=d1cf24e6-5b2f-44b5-b0ea-762a3bd2da89","ios":"levelo://app?vid=d1cf24e6-5b2f-44b5-b0ea-762a3bd2da89"},"vehicle_type_id":"4","last_reported":1728908255,"current_range_meters":30800,"station_id":"ce4bguh2rcd13ifvqckg","pricing_plan_id":"cebpf4jnsgd1na2vs0mg"},{"bike_id":"969cfeb2-178b-4d82-8b59-635595546a6c","system_id":"levelo_inurba_marseille","lat":43.29006,"lon":5.35618,"is_reserved":false,"is_disabled":false,"rental_uris":{"android":"levelo://app?vid=969cfeb2-178b-4d82-8b59-635595546a6c","ios":"levelo://app?vid=969cfeb2-178b-4d82-8b59-635595546a6c"},"vehicle_type_id":"4","last_reported":1728908255,"current_range_meters":38800,"station_id":"","pricing_plan_id":"cebpf4jnsgd1na2vs0mg"},{"bike_id":"52a9df18-eabd-4666-98e8-e17f2e430c82","system_id":"levelo_inurba_marseille","lat":43.26054,"lon":5.39398,"is_reserved":false,"is_disabled":false,"rental_uris":{"android":"levelo://app?vid=52a9df18-eabd-4666-98e8-e17f2e430c82","ios":"levelo://app?vid=52a9df18-eabd-4666-98e8-e17f2e430c82"},"vehicle_type_id":"4","last_reported":1728908255,"current_range_meters":4400,"station_id":"ce4bhh92rcd13ifvqfj0","pricing_plan_id":"cebpf4jnsgd1na2vs0mg"},{"bike_id":"fd3dc77b-c096-4aea-9715-6d8745d9985b","system_id":"levelo_inurba_marseille","lat":43.26681,"lon":5.3826,"is_reserved":false,"is_disabled":false,"rental_uris":{"android":"levelo://app?vid=fd3dc77b-c096-4aea-9715-6d8745d9985b","ios":"levelo://app?vid=fd3dc77b-c096-4aea-9715-6d8745d9985b"},"vehicle_type_id":"4","last_reported":1728908255,"current_range_meters":8000,"station_id":"ce4bh112rcd13ifvqda0","pricing_plan_id":"cebpf4jnsgd1na2vs0mg"},{"bike_id":"4fff478c-8ff7-4ebe-81c8-d7f3de77df31","system_id":"levelo_inurba_marseille","lat":43.30539,"lon":5.3652,"is_reserved":false,"is_disabled":false,"rental_uris":{"android":"levelo://app?vid=4fff478c-8ff7-4ebe-81c8-d7f3de77df31","ios":"levelo://app?vid=4fff478c-8ff7-4ebe-81c8-d7f3de77df31"},"vehicle_type_id":"4","last_reported":1728908255,"current_range_meters":40000,"station_id":"ce4bgs12rcd13ifvqcag","pricing_plan_id":"cebpf4jnsgd1na2vs0mg"},{"bike_id":"4a5939c9-d97b-474f-8594-77a16be1c688","system_id":"levelo_inurba_marseille","lat":43.25008,"lon":5.38931,"is_reserved":false,"is_disabled":false,"rental_uris":{"android":"levelo://app?vid=4a5939c9-d97b-474f-8594-77a16be1c688","ios":"levelo://app?vid=4a5939c9-d97b-474f-8594-77a16be1c688"},"vehicle_type_id":"4","last_reported":1728908255,"current_range_meters":34000,"station_id":"ce4bhgp2rcd13ifvqfd0","pricing_plan_id":"cebpf4jnsgd1na2vs0mg"},{"bike_id":"c355a965-9dd0-4b07-b983-3618ea069bbb","system_id":"levelo_inurba_marseille","lat":43.24387,"lon":5.37051,"is_reserved":false,"is_disabled":false,"rental_uris":{"android":"levelo://app?vid=c355a965-9dd0-4b07-b983-3618ea069bbb","ios":"levelo://app?vid=c355a965-9dd0-4b07-b983-3618ea069bbb"},"vehicle_type_id":"4","last_reported":1728908255,"current_range_meters":30000,"station_id":"ce4bhhh2rcd13ifvqfk0","pricing_plan_id":"cebpf4jnsgd1na2vs0mg"},{"bike_id":"51a43f96-867e-4ab9-8ec5-999842e38d95","system_id":"levelo_inurba_marseille","lat":43.31057,"lon":5.40098,"is_reserved":false,"is_disabled":false,"rental_uris":{"android":"levelo://app?vid=51a43f96-867e-4ab9-8ec5-999842e38d95","ios":"levelo://app?vid=51a43f96-867e-4ab9-8ec5-999842e38d95"},"vehicle_type_id":"4","last_reported":1728908255,"current_range_meters":28000,"station_id":"","pricing_plan_id":"cebpf4jnsgd1na2vs0mg"},{"bike_id":"66bf2405-3b2c-4cd1-ba98-3d950d072db3","system_id":"levelo_inurba_marseille","lat":43.29299,"lon":5.37458,"is_reserved":false,"is_disabled":false,"rental_uris":{"android":"levelo://app?vid=66bf2405-3b2c-4cd1-ba98-3d950d072db3","ios":"levelo://app?vid=66bf2405-3b2c-4cd1-ba98-3d950d072db3"},"vehicle_type_id":"4","last_reported":1728908255,"current_range_meters":38800,"station_id":"ce4bgi12rcd13ifvqb70","pricing_plan_id":"cebpf4jnsgd1na2vs0mg"},{"bike_id":"24e79638-632d-4b9c-8d86-4dcc11c3af76","system_id":"levelo_inurba_marseille","lat":43.324829,"lon":5.365928,"is_reserved":false,"is_disabled":false,"rental_uris":{"android":"levelo://app?vid=24e79638-632d-4b9c-8d86-4dcc11c3af76","ios":"levelo://app?vid=24e79638-632d-4b9c-8d86-4dcc11c3af76"},"vehicle_type_id":"4","last_reported":1728908255,"current_range_meters":19200,"station_id":"ce4bhs12rcd13ifvqhvg","pricing_plan_id":"cebpf4jnsgd1na2vs0mg"},{"bike_id":"9753c9cc-fe07-4761-862d-bce145981232","system_id":"levelo_inurba_marseille","lat":43.31349,"lon":5.36725,"is_reserved":false,"is_disabled":false,"rental_uris":{"android":"levelo://app?vid=9753c9cc-fe07-4761-862d-bce145981232","ios":"levelo://app?vid=9753c9cc-fe07-4761-862d-bce145981232"},"vehicle_type_id":"4","last_reported":1728908255,"current_range_meters":11600,"station_id":"ce4bgr92rcd13ifvqc6g","pricing_plan_id":"cebpf4jnsgd1na2vs0mg"},{"bike_id":"4482dbd3-0d31-4b43-bbd3-5cfbb130291d","system_id":"levelo_inurba_marseille","lat":43.23201,"lon":5.35549,"is_reserved":false,"is_disabled":false,"rental_uris":{"android":"levelo://app?vid=4482dbd3-0d31-4b43-bbd3-5cfbb130291d","ios":"levelo://app?vid=4482dbd3-0d31-4b43-bbd3-5cfbb130291d"},"vehicle_type_id":"4","last_reported":1728908255,"current_range_meters":6400,"station_id":"ce4bhu92rcd13ifvqi70","pricing_plan_id":"cebpf4jnsgd1na2vs0mg"},{"bike_id":"2d53eed3-3eff-45bd-b364-731d34ec694f","system_id":"levelo_inurba_marseille","lat":43.28344,"lon":5.38096,"is_reserved":false,"is_disabled":false,"rental_uris":{"android":"levelo://app?vid=2d53eed3-3eff-45bd-b364-731d34ec694f","ios":"levelo://app?vid=2d53eed3-3eff-45bd-b364-731d34ec694f"},"vehicle_type_id":"4","last_reported":1728908255,"current_range_meters":36000,"station_id":"ce4bh412rcd13ifvqdr0","pricing_plan_id":"cebpf4jnsgd1na2vs0mg"},{"bike_id":"e2a26800-1662-4856-a1e3-18346013f1d2","system_id":"levelo_inurba_marseille","lat":43.27836,"lon":5.39209,"is_reserved":false,"is_disabled":false,"rental_uris":{"android":"levelo://app?vid=e2a26800-1662-4856-a1e3-18346013f1d2","ios":"levelo://app?vid=e2a26800-1662-4856-a1e3-18346013f1d2"},"vehicle_type_id":"4","last_reported":1728908255,"current_range_meters":38800,"station_id":"ce4bhjp2rcd13ifvqga0","pricing_plan_id":"cebpf4jnsgd1na2vs0mg"},{"bike_id":"ffed46bb-56c0-4326-bb0a-792428814091","system_id":"levelo_inurba_marseille","lat":43.29206,"lon":5.3932,"is_reserved":false,"is_disabled":false,"rental_uris":{"android":"levelo://app?vid=ffed46bb-56c0-4326-bb0a-792428814091","ios":"levelo://app?vid=ffed46bb-56c0-4326-bb0a-792428814091"},"vehicle_type_id":"4","last_reported":1728908255,"current_range_meters":20800,"station_id":"ce4bh192rcd13ifvqdd0","pricing_plan_id":"cebpf4jnsgd1na2vs0mg"},{"bike_id":"00ee38ed-694d-4f1d-bf2b-2645be574f8c","system_id":"levelo_inurba_marseille","lat":43.31074,"lon":5.38355,"is_reserved":false,"is_disabled":false,"rental_uris":{"android":"levelo://app?vid=00ee38ed-694d-4f1d-bf2b-2645be574f8c","ios":"levelo://app?vid=00ee38ed-694d-4f1d-bf2b-2645be574f8c"},"vehicle_type_id":"4","last_reported":1728908255,"current_range_meters":8800,"station_id":"ce4bgv92rcd13ifvqcr0","pricing_plan_id":"cebpf4jnsgd1na2vs0mg"},{"bike_id":"4bbae855-8083-4d87-acdf-4a80bb229637","system_id":"levelo_inurba_marseille","lat":43.29306,"lon":5.37173,"is_reserved":false,"is_disabled":false,"rental_uris":{"android":"levelo://app?vid=4bbae855-8083-4d87-acdf-4a80bb229637","ios":"levelo://app?vid=4bbae855-8083-4d87-acdf-4a80bb229637"},"vehicle_type_id":"4","last_reported":1728908255,"current_range_meters":35200,"station_id":"ce4bgh92rcd13ifvqb40","pricing_plan_id":"cebpf4jnsgd1na2vs0mg"},{"bike_id":"d29487e5-0f1e-4f15-90cf-56bc6fb4cd83","system_id":"levelo_inurba_marseille","lat":43.26484,"lon":5.39558,"is_reserved":false,"is_disabled":false,"rental_uris":{"android":"levelo://app?vid=d29487e5-0f1e-4f15-90cf-56bc6fb4cd83","ios":"levelo://app?vid=d29487e5-0f1e-4f15-90cf-56bc6fb4cd83"},"vehicle_type_id":"4","last_reported":1728908255,"current_range_meters":27600,"station_id":"ce4bhi12rcd13ifvqfq0","pricing_plan_id":"cebpf4jnsgd1na2vs0mg"},{"bike_id":"5a379f94-4548-47cc-b0e6-c0ba11826074","system_id":"levelo_inurba_marseille","lat":43.3147,"lon":5.37381,"is_reserved":false,"is_disabled":false,"rental_uris":{"android":"levelo://app?vid=5a379f94-4548-47cc-b0e6-c0ba11826074","ios":"levelo://app?vid=5a379f94-4548-47cc-b0e6-c0ba11826074"},"vehicle_type_id":"4","last_reported":1728908255,"current_range_meters":16400,"station_id":"","pricing_plan_id":"cebpf4jnsgd1na2vs0mg"},{"bike_id":"462225cd-166e-4b82-847a-caadf9312bb2","system_id":"levelo_inurba_marseille","lat":43.27972,"lon":5.38726,"is_reserved":false,"is_disabled":false,"rental_uris":{"android":"levelo://app?vid=462225cd-166e-4b82-847a-caadf9312bb2","ios":"levelo://app?vid=462225cd-166e-4b82-847a-caadf9312bb2"},"vehicle_type_id":"4","last_reported":1728908255,"current_range_meters":32400,"station_id":"ce4bhg12rcd13ifvqf80","pricing_plan_id":"cebpf4jnsgd1na2vs0mg"},{"bike_id":"8ded8003-567e-4953-b97f-20bdedd1e902","system_id":"levelo_inurba_marseille","lat":43.27726,"lon":5.40942,"is_reserved":false,"is_disabled":false,"rental_uris":{"android":"levelo://app?vid=8ded8003-567e-4953-b97f-20bdedd1e902","ios":"levelo://app?vid=8ded8003-567e-4953-b97f-20bdedd1e902"},"vehicle_type_id":"4","last_reported":1728908255,"current_range_meters":8400,"station_id":"","pricing_plan_id":"cebpf4jnsgd1na2vs0mg"},{"bike_id":"b178b062-35cd-4f92-91db-f4ae171fe0ea","system_id":"levelo_inurba_marseille","lat":43.292851,"lon":5.368404,"is_reserved":false,"is_disabled":false,"rental_uris":{"android":"levelo://app?vid=b178b062-35cd-4f92-91db-f4ae171fe0ea","ios":"levelo://app?vid=b178b062-35cd-4f92-91db-f4ae171fe0ea"},"vehicle_type_id":"4","last_reported":1728908255,"current_range_meters":14800,"station_id":"","pricing_plan_id":"cebpf4jnsgd1na2vs0mg"},{"bike_id":"62a8b965-2455-45f5-8827-75460636e73e","system_id":"levelo_inurba_marseille","lat":43.28729,"lon":5.36079,"is_reserved":false,"is_disabled":false,"rental_uris":{"android":"levelo://app?vid=62a8b965-2455-45f5-8827-75460636e73e","ios":"levelo://app?vid=62a8b965-2455-45f5-8827-75460636e73e"},"vehicle_type_id":"4","last_reported":1728908255,"current_range_meters":35600,"station_id":"cki0cbj6b192h4jlfktg","pricing_plan_id":"cebpf4jnsgd1na2vs0mg"},{"bike_id":"9e1b5eb4-558a-4a62-bf67-65d2bb278048","system_id":"levelo_inurba_marseille","lat":43.31069,"lon":5.38358,"is_reserved":false,"is_disabled":false,"rental_uris":{"android":"levelo://app?vid=9e1b5eb4-558a-4a62-bf67-65d2bb278048","ios":"levelo://app?vid=9e1b5eb4-558a-4a62-bf67-65d2bb278048"},"vehicle_type_id":"4","last_reported":1728908255,"current_range_meters":13600,"station_id":"ce4bgv92rcd13ifvqcr0","pricing_plan_id":"cebpf4jnsgd1na2vs0mg"},{"bike_id":"a0004b86-0108-4a59-8420-8474f739e195","system_id":"levelo_inurba_marseille","lat":43.317481,"lon":5.390291,"is_reserved":false,"is_disabled":false,"rental_uris":{"android":"levelo://app?vid=a0004b86-0108-4a59-8420-8474f739e195","ios":"levelo://app?vid=a0004b86-0108-4a59-8420-8474f739e195"},"vehicle_type_id":"4","last_reported":1728908255,"current_range_meters":32000,"station_id":"ce4bhqp2rcd13ifvqhng","pricing_plan_id":"cebpf4jnsgd1na2vs0mg"},{"bike_id":"c0670d96-b06e-446b-a07e-6b5eeebc59d7","system_id":"levelo_inurba_marseille","lat":43.274948,"lon":5.424466,"is_reserved":false,"is_disabled":false,"rental_uris":{"android":"levelo://app?vid=c0670d96-b06e-446b-a07e-6b5eeebc59d7","ios":"levelo://app?vid=c0670d96-b06e-446b-a07e-6b5eeebc59d7"},"vehicle_type_id":"4","last_reported":1728908255,"current_range_meters":16800,"station_id":"ce4bhn92rcd13ifvqgrg","pricing_plan_id":"cebpf4jnsgd1na2vs0mg"},{"bike_id":"49e081dc-2e4a-404f-b9cc-fbdb12c7a859","system_id":"levelo_inurba_marseille","lat":43.30537,"lon":5.36535,"is_reserved":false,"is_disabled":false,"rental_uris":{"android":"levelo://app?vid=49e081dc-2e4a-404f-b9cc-fbdb12c7a859","ios":"levelo://app?vid=49e081dc-2e4a-404f-b9cc-fbdb12c7a859"},"vehicle_type_id":"4","last_reported":1728908255,"current_range_meters":38800,"station_id":"ce4bgs12rcd13ifvqcag","pricing_plan_id":"cebpf4jnsgd1na2vs0mg"},{"bike_id":"cc160756-c5be-47df-8986-85e756db12d6","system_id":"levelo_inurba_marseille","lat":43.29647,"lon":5.37258,"is_reserved":false,"is_disabled":false,"rental_uris":{"android":"levelo://app?vid=cc160756-c5be-47df-8986-85e756db12d6","ios":"levelo://app?vid=cc160756-c5be-47df-8986-85e756db12d6"},"vehicle_type_id":"4","last_reported":1728908255,"current_range_meters":10800,"station_id":"ce4bgk12rcd13ifvqbj0","pricing_plan_id":"cebpf4jnsgd1na2vs0mg"},{"bike_id":"5427fc69-c1d6-4ea4-b1f4-ac67770aa2b9","system_id":"levelo_inurba_marseille","lat":43.30951,"lon":5.39022,"is_reserved":false,"is_disabled":false,"rental_uris":{"android":"levelo://app?vid=5427fc69-c1d6-4ea4-b1f4-ac67770aa2b9","ios":"levelo://app?vid=5427fc69-c1d6-4ea4-b1f4-ac67770aa2b9"},"vehicle_type_id":"4","last_reported":1728908255,"current_range_meters":38800,"station_id":"ce4bgup2rcd13ifvqco0","pricing_plan_id":"cebpf4jnsgd1na2vs0mg"},{"bike_id":"a0d3d324-fa7e-4417-aee7-85012ecab44e","system_id":"levelo_inurba_marseille","lat":43.34241,"lon":5.44571,"is_reserved":false,"is_disabled":false,"rental_uris":{"android":"levelo://app?vid=a0d3d324-fa7e-4417-aee7-85012ecab44e","ios":"levelo://app?vid=a0d3d324-fa7e-4417-aee7-85012ecab44e"},"vehicle_type_id":"4","last_reported":1728908255,"current_range_meters":28000,"station_id":"","pricing_plan_id":"cebpf4jnsgd1na2vs0mg"},{"bike_id":"3f671ccf-6d7d-46e6-8cfb-4e663b7d0534","system_id":"levelo_inurba_marseille","lat":43.29805,"lon":5.38099,"is_reserved":false,"is_disabled":false,"rental_uris":{"android":"levelo://app?vid=3f671ccf-6d7d-46e6-8cfb-4e663b7d0534","ios":"levelo://app?vid=3f671ccf-6d7d-46e6-8cfb-4e663b7d0534"},"vehicle_type_id":"4","last_reported":1728908255,"current_range_meters":38800,"station_id":"ce4bgip2rcd13ifvqbb0","pricing_plan_id":"cebpf4jnsgd1na2vs0mg"},{"bike_id":"699764d6-9bcd-4510-98bf-2d24df6606cb","system_id":"levelo_inurba_marseille","lat":43.290039,"lon":5.356139,"is_reserved":false,"is_disabled":false,"rental_uris":{"android":"levelo://app?vid=699764d6-9bcd-4510-98bf-2d24df6606cb","ios":"levelo://app?vid=699764d6-9bcd-4510-98bf-2d24df6606cb"},"vehicle_type_id":"4","last_reported":1728908255,"current_range_meters":16000,"station_id":"ce4bhb92rcd13ifvqen0","pricing_plan_id":"cebpf4jnsgd1na2vs0mg"},{"bike_id":"52c21ac1-3345-433a-826c-e345b7086896","system_id":"levelo_inurba_marseille","lat":43.23151,"lon":5.43705,"is_reserved":false,"is_disabled":false,"rental_uris":{"android":"levelo://app?vid=52c21ac1-3345-433a-826c-e345b7086896","ios":"levelo://app?vid=52c21ac1-3345-433a-826c-e345b7086896"},"vehicle_type_id":"4","last_reported":1728908255,"current_range_meters":4000,"station_id":"ce4bhmp2rcd13ifvqgog","pricing_plan_id":"cebpf4jnsgd1na2vs0mg"},{"bike_id":"2b7e1507-3293-42c7-b21e-b79470cff341","system_id":"levelo_inurba_marseille","lat":43.23154,"lon":5.43698,"is_reserved":false,"is_disabled":false,"rental_uris":{"android":"levelo://app?vid=2b7e1507-3293-42c7-b21e-b79470cff341","ios":"levelo://app?vid=2b7e1507-3293-42c7-b21e-b79470cff341"},"vehicle_type_id":"4","last_reported":1728908255,"current_range_meters":39200,"station_id":"ce4bhmp2rcd13ifvqgog","pricing_plan_id":"cebpf4jnsgd1na2vs0mg"},{"bike_id":"2b11f373-e200-40b4-a5cd-f83d3c187bf8","system_id":"levelo_inurba_marseille","lat":43.24081,"lon":5.37753,"is_reserved":false,"is_disabled":false,"rental_uris":{"android":"levelo://app?vid=2b11f373-e200-40b4-a5cd-f83d3c187bf8","ios":"levelo://app?vid=2b11f373-e200-40b4-a5cd-f83d3c187bf8"},"vehicle_type_id":"4","last_reported":1728908255,"current_range_meters":10800,"station_id":"ce4bhnp2rcd13ifvqgvg","pricing_plan_id":"cebpf4jnsgd1na2vs0mg"},{"bike_id":"3a6440f7-d8d6-444b-bcb5-c18d16425ed6","system_id":"levelo_inurba_marseille","lat":43.32103,"lon":5.36771,"is_reserved":false,"is_disabled":false,"rental_uris":{"android":"levelo://app?vid=3a6440f7-d8d6-444b-bcb5-c18d16425ed6","ios":"levelo://app?vid=3a6440f7-d8d6-444b-bcb5-c18d16425ed6"},"vehicle_type_id":"4","last_reported":1728908255,"current_range_meters":2800,"station_id":"ce4bhrh2rcd13ifvqhug","pricing_plan_id":"cebpf4jnsgd1na2vs0mg"},{"bike_id":"382c089c-cb86-4d8c-8dd1-b725cc804514","system_id":"levelo_inurba_marseille","lat":43.29797,"lon":5.38102,"is_reserved":false,"is_disabled":false,"rental_uris":{"android":"levelo://app?vid=382c089c-cb86-4d8c-8dd1-b725cc804514","ios":"levelo://app?vid=382c089c-cb86-4d8c-8dd1-b725cc804514"},"vehicle_type_id":"4","last_reported":1728908255,"current_range_meters":38800,"station_id":"ce4bgip2rcd13ifvqbb0","pricing_plan_id":"cebpf4jnsgd1na2vs0mg"},{"bike_id":"c389edc9-9992-4c2e-857b-eebd3d66f1ac","system_id":"levelo_inurba_marseille","lat":43.29846,"lon":5.36277,"is_reserved":false,"is_disabled":false,"rental_uris":{"android":"levelo://app?vid=c389edc9-9992-4c2e-857b-eebd3d66f1ac","ios":"levelo://app?vid=c389edc9-9992-4c2e-857b-eebd3d66f1ac"},"vehicle_type_id":"4","last_reported":1728908255,"current_range_meters":40000,"station_id":"ce4bgpp2rcd13ifvqc3g","pricing_plan_id":"cebpf4jnsgd1na2vs0mg"},{"bike_id":"3c921ba0-d884-4133-aaa1-f3c23db9b048","system_id":"levelo_inurba_marseille","lat":43.2872,"lon":5.37898,"is_reserved":false,"is_disabled":false,"rental_uris":{"android":"levelo://app?vid=3c921ba0-d884-4133-aaa1-f3c23db9b048","ios":"levelo://app?vid=3c921ba0-d884-4133-aaa1-f3c23db9b048"},"vehicle_type_id":"4","last_reported":1728908255,"current_range_meters":20400,"station_id":"ce4bh9p2rcd13ifvqec0","pricing_plan_id":"cebpf4jnsgd1na2vs0mg"},{"bike_id":"83c29142-170a-4ab1-9656-c74d85375df5","system_id":"levelo_inurba_marseille","lat":43.23146,"lon":5.43712,"is_reserved":false,"is_disabled":false,"rental_uris":{"android":"levelo://app?vid=83c29142-170a-4ab1-9656-c74d85375df5","ios":"levelo://app?vid=83c29142-170a-4ab1-9656-c74d85375df5"},"vehicle_type_id":"4","last_reported":1728908255,"current_range_meters":38800,"station_id":"ce4bhmp2rcd13ifvqgog","pricing_plan_id":"cebpf4jnsgd1na2vs0mg"},{"bike_id":"3afb0681-8fbd-47fe-8917-e12bc3cf488b","system_id":"levelo_inurba_marseille","lat":43.337225,"lon":5.391772,"is_reserved":false,"is_disabled":false,"rental_uris":{"android":"levelo://app?vid=3afb0681-8fbd-47fe-8917-e12bc3cf488b","ios":"levelo://app?vid=3afb0681-8fbd-47fe-8917-e12bc3cf488b"},"vehicle_type_id":"4","last_reported":1728908255,"current_range_meters":37600,"station_id":"ce4bhr92rcd13ifvqhsg","pricing_plan_id":"cebpf4jnsgd1na2vs0mg"},{"bike_id":"7f257709-85e0-46f7-94a3-9f9c72450f63","system_id":"levelo_inurba_marseille","lat":43.30534,"lon":5.36702,"is_reserved":false,"is_disabled":false,"rental_uris":{"android":"levelo://app?vid=7f257709-85e0-46f7-94a3-9f9c72450f63","ios":"levelo://app?vid=7f257709-85e0-46f7-94a3-9f9c72450f63"},"vehicle_type_id":"4","last_reported":1728908255,"current_range_meters":39200,"station_id":"ce4bgrp2rcd13ifvqc9g","pricing_plan_id":"cebpf4jnsgd1na2vs0mg"},{"bike_id":"ad2762f1-4716-45bc-bf25-3f337d1e798f","system_id":"levelo_inurba_marseille","lat":43.3095,"lon":5.39025,"is_reserved":false,"is_disabled":false,"rental_uris":{"android":"levelo://app?vid=ad2762f1-4716-45bc-bf25-3f337d1e798f","ios":"levelo://app?vid=ad2762f1-4716-45bc-bf25-3f337d1e798f"},"vehicle_type_id":"4","last_reported":1728908255,"current_range_meters":38800,"station_id":"ce4bgup2rcd13ifvqco0","pricing_plan_id":"cebpf4jnsgd1na2vs0mg"},{"bike_id":"d4846b4d-23db-4893-a951-345b230c26ce","system_id":"levelo_inurba_marseille","lat":43.29694,"lon":5.37291,"is_reserved":false,"is_disabled":false,"rental_uris":{"android":"levelo://app?vid=d4846b4d-23db-4893-a951-345b230c26ce","ios":"levelo://app?vid=d4846b4d-23db-4893-a951-345b230c26ce"},"vehicle_type_id":"4","last_reported":1728908255,"current_range_meters":27200,"station_id":"ce4bgk12rcd13ifvqbj0","pricing_plan_id":"cebpf4jnsgd1na2vs0mg"},{"bike_id":"6b2dc095-999b-4303-926a-7f25f67c5bb0","system_id":"levelo_inurba_marseille","lat":43.29024,"lon":5.38134,"is_reserved":false,"is_disabled":false,"rental_uris":{"android":"levelo://app?vid=6b2dc095-999b-4303-926a-7f25f67c5bb0","ios":"levelo://app?vid=6b2dc095-999b-4303-926a-7f25f67c5bb0"},"vehicle_type_id":"4","last_reported":1728908255,"current_range_meters":12400,"station_id":"ce4bh4p2rcd13ifvqe1g","pricing_plan_id":"cebpf4jnsgd1na2vs0mg"},{"bike_id":"4026c934-0f4e-4bf4-8b57-20fa8f2adc87","system_id":"levelo_inurba_marseille","lat":43.29786,"lon":5.38119,"is_reserved":false,"is_disabled":false,"rental_uris":{"android":"levelo://app?vid=4026c934-0f4e-4bf4-8b57-20fa8f2adc87","ios":"levelo://app?vid=4026c934-0f4e-4bf4-8b57-20fa8f2adc87"},"vehicle_type_id":"4","last_reported":1728908255,"current_range_meters":11600,"station_id":"ce4bgip2rcd13ifvqbb0","pricing_plan_id":"cebpf4jnsgd1na2vs0mg"},{"bike_id":"ebc29e8e-a5cd-4c41-ae7c-f77a08fdcdde","system_id":"levelo_inurba_marseille","lat":43.30532,"lon":5.36526,"is_reserved":false,"is_disabled":false,"rental_uris":{"android":"levelo://app?vid=ebc29e8e-a5cd-4c41-ae7c-f77a08fdcdde","ios":"levelo://app?vid=ebc29e8e-a5cd-4c41-ae7c-f77a08fdcdde"},"vehicle_type_id":"4","last_reported":1728908255,"current_range_meters":34800,"station_id":"ce4bgs12rcd13ifvqcag","pricing_plan_id":"cebpf4jnsgd1na2vs0mg"},{"bike_id":"07a93253-023c-4a4e-9c0d-a28610ff8a89","system_id":"levelo_inurba_marseille","lat":43.24802,"lon":5.37452,"is_reserved":false,"is_disabled":false,"rental_uris":{"android":"levelo://app?vid=07a93253-023c-4a4e-9c0d-a28610ff8a89","ios":"levelo://app?vid=07a93253-023c-4a4e-9c0d-a28610ff8a89"},"vehicle_type_id":"4","last_reported":1728908255,"current_range_meters":32400,"station_id":"ce4bhgh2rcd13ifvqfb0","pricing_plan_id":"cebpf4jnsgd1na2vs0mg"},{"bike_id":"69865d35-9015-4f0b-ba17-045bf17a9e77","system_id":"levelo_inurba_marseille","lat":43.260487,"lon":5.393957,"is_reserved":false,"is_disabled":false,"rental_uris":{"android":"levelo://app?vid=69865d35-9015-4f0b-ba17-045bf17a9e77","ios":"levelo://app?vid=69865d35-9015-4f0b-ba17-045bf17a9e77"},"vehicle_type_id":"4","last_reported":1728908255,"current_range_meters":24400,"station_id":"ce4bhh92rcd13ifvqfj0","pricing_plan_id":"cebpf4jnsgd1na2vs0mg"},{"bike_id":"2a57a800-0862-4e83-b310-8c8038f5fd5b","system_id":"levelo_inurba_marseille","lat":43.24389,"lon":5.37059,"is_reserved":false,"is_disabled":false,"rental_uris":{"android":"levelo://app?vid=2a57a800-0862-4e83-b310-8c8038f5fd5b","ios":"levelo://app?vid=2a57a800-0862-4e83-b310-8c8038f5fd5b"},"vehicle_type_id":"4","last_reported":1728908255,"current_range_meters":38400,"station_id":"ce4bhhh2rcd13ifvqfk0","pricing_plan_id":"cebpf4jnsgd1na2vs0mg"},{"bike_id":"5d3895f3-f073-4ffb-be8c-7d6208ea84ab","system_id":"levelo_inurba_marseille","lat":43.30094,"lon":5.3908,"is_reserved":false,"is_disabled":false,"rental_uris":{"android":"levelo://app?vid=5d3895f3-f073-4ffb-be8c-7d6208ea84ab","ios":"levelo://app?vid=5d3895f3-f073-4ffb-be8c-7d6208ea84ab"},"vehicle_type_id":"4","last_reported":1728908255,"current_range_meters":38800,"station_id":"ce4bh192rcd13ifvqdb0","pricing_plan_id":"cebpf4jnsgd1na2vs0mg"},{"bike_id":"c7e6c756-277a-4832-a9d1-9d4a1c1f2814","system_id":"levelo_inurba_marseille","lat":43.26055,"lon":5.39396,"is_reserved":false,"is_disabled":false,"rental_uris":{"android":"levelo://app?vid=c7e6c756-277a-4832-a9d1-9d4a1c1f2814","ios":"levelo://app?vid=c7e6c756-277a-4832-a9d1-9d4a1c1f2814"},"vehicle_type_id":"4","last_reported":1728908255,"current_range_meters":17600,"station_id":"ce4bhh92rcd13ifvqfj0","pricing_plan_id":"cebpf4jnsgd1na2vs0mg"},{"bike_id":"aa6042e6-d436-46db-ba38-ecf375516c66","system_id":"levelo_inurba_marseille","lat":43.2846,"lon":5.35897,"is_reserved":false,"is_disabled":false,"rental_uris":{"android":"levelo://app?vid=aa6042e6-d436-46db-ba38-ecf375516c66","ios":"levelo://app?vid=aa6042e6-d436-46db-ba38-ecf375516c66"},"vehicle_type_id":"4","last_reported":1728908255,"current_range_meters":26000,"station_id":"ce4bhah2rcd13ifvqei0","pricing_plan_id":"cebpf4jnsgd1na2vs0mg"},{"bike_id":"2a066a75-92f6-4f79-be19-73de60f3a530","system_id":"levelo_inurba_marseille","lat":43.3123,"lon":5.36859,"is_reserved":false,"is_disabled":false,"rental_uris":{"android":"levelo://app?vid=2a066a75-92f6-4f79-be19-73de60f3a530","ios":"levelo://app?vid=2a066a75-92f6-4f79-be19-73de60f3a530"},"vehicle_type_id":"4","last_reported":1728908255,"current_range_meters":39200,"station_id":"ce4bgl92rcd13ifvqbq0","pricing_plan_id":"cebpf4jnsgd1na2vs0mg"},{"bike_id":"962561bf-93c4-4a4e-839f-c4b4f62bd94d","system_id":"levelo_inurba_marseille","lat":43.25857,"lon":5.39905,"is_reserved":false,"is_disabled":false,"rental_uris":{"android":"levelo://app?vid=962561bf-93c4-4a4e-839f-c4b4f62bd94d","ios":"levelo://app?vid=962561bf-93c4-4a4e-839f-c4b4f62bd94d"},"vehicle_type_id":"4","last_reported":1728908255,"current_range_meters":35200,"station_id":"ce4bhl92rcd13ifvqghg","pricing_plan_id":"cebpf4jnsgd1na2vs0mg"},{"bike_id":"b80c714b-6a66-4d5c-832e-bd487c535a72","system_id":"levelo_inurba_marseille","lat":43.31109,"lon":5.38064,"is_reserved":false,"is_disabled":false,"rental_uris":{"android":"levelo://app?vid=b80c714b-6a66-4d5c-832e-bd487c535a72","ios":"levelo://app?vid=b80c714b-6a66-4d5c-832e-bd487c535a72"},"vehicle_type_id":"4","last_reported":1728908255,"current_range_meters":20000,"station_id":"ce4bgt92rcd13ifvqcf0","pricing_plan_id":"cebpf4jnsgd1na2vs0mg"},{"bike_id":"2140b6a3-5118-4150-823e-9225aeb56201","system_id":"levelo_inurba_marseille","lat":43.23203,"lon":5.35548,"is_reserved":false,"is_disabled":false,"rental_uris":{"android":"levelo://app?vid=2140b6a3-5118-4150-823e-9225aeb56201","ios":"levelo://app?vid=2140b6a3-5118-4150-823e-9225aeb56201"},"vehicle_type_id":"4","last_reported":1728908255,"current_range_meters":8400,"station_id":"ce4bhu92rcd13ifvqi70","pricing_plan_id":"cebpf4jnsgd1na2vs0mg"},{"bike_id":"3c4fbeed-06e3-4f6c-8b5b-cde1b5e8fee3","system_id":"levelo_inurba_marseille","lat":43.24655,"lon":5.38891,"is_reserved":false,"is_disabled":false,"rental_uris":{"android":"levelo://app?vid=3c4fbeed-06e3-4f6c-8b5b-cde1b5e8fee3","ios":"levelo://app?vid=3c4fbeed-06e3-4f6c-8b5b-cde1b5e8fee3"},"vehicle_type_id":"4","last_reported":1728908255,"current_range_meters":38800,"station_id":"ce4bhg12rcd13ifvqf60","pricing_plan_id":"cebpf4jnsgd1na2vs0mg"},{"bike_id":"f3ffa9e3-8fd9-4512-81b9-b80cbaf83903","system_id":"levelo_inurba_marseille","lat":43.28151,"lon":5.42637,"is_reserved":false,"is_disabled":false,"rental_uris":{"android":"levelo://app?vid=f3ffa9e3-8fd9-4512-81b9-b80cbaf83903","ios":"levelo://app?vid=f3ffa9e3-8fd9-4512-81b9-b80cbaf83903"},"vehicle_type_id":"4","last_reported":1728908255,"current_range_meters":38800,"station_id":"ce4bhnh2rcd13ifvqgug","pricing_plan_id":"cebpf4jnsgd1na2vs0mg"},{"bike_id":"0230ee3e-14eb-4ad4-ae4b-5fcac453cca7","system_id":"levelo_inurba_marseille","lat":43.25929,"lon":5.40914,"is_reserved":false,"is_disabled":false,"rental_uris":{"android":"levelo://app?vid=0230ee3e-14eb-4ad4-ae4b-5fcac453cca7","ios":"levelo://app?vid=0230ee3e-14eb-4ad4-ae4b-5fcac453cca7"},"vehicle_type_id":"4","last_reported":1728908255,"current_range_meters":26000,"station_id":"ce4bhm92rcd13ifvqglg","pricing_plan_id":"cebpf4jnsgd1na2vs0mg"},{"bike_id":"b285f964-7cdc-464d-baea-9afe07b38c97","system_id":"levelo_inurba_marseille","lat":43.30252,"lon":5.40048,"is_reserved":false,"is_disabled":false,"rental_uris":{"android":"levelo://app?vid=b285f964-7cdc-464d-baea-9afe07b38c97","ios":"levelo://app?vid=b285f964-7cdc-464d-baea-9afe07b38c97"},"vehicle_type_id":"4","last_reported":1728908255,"current_range_meters":38400,"station_id":"ce4bgvh2rcd13ifvqcs0","pricing_plan_id":"cebpf4jnsgd1na2vs0mg"},{"bike_id":"1b4dafe7-0258-4cb7-ac06-8cb06c6733c9","system_id":"levelo_inurba_marseille","lat":43.30746,"lon":5.40131,"is_reserved":false,"is_disabled":false,"rental_uris":{"android":"levelo://app?vid=1b4dafe7-0258-4cb7-ac06-8cb06c6733c9","ios":"levelo://app?vid=1b4dafe7-0258-4cb7-ac06-8cb06c6733c9"},"vehicle_type_id":"4","last_reported":1728908255,"current_range_meters":22400,"station_id":"ce4bgvp2rcd13ifvqct0","pricing_plan_id":"cebpf4jnsgd1na2vs0mg"},{"bike_id":"d4338133-aae8-485b-afb7-f4eb536f8136","system_id":"levelo_inurba_marseille","lat":43.30149,"lon":5.381,"is_reserved":false,"is_disabled":false,"rental_uris":{"android":"levelo://app?vid=d4338133-aae8-485b-afb7-f4eb536f8136","ios":"levelo://app?vid=d4338133-aae8-485b-afb7-f4eb536f8136"},"vehicle_type_id":"4","last_reported":1728908255,"current_range_meters":37600,"station_id":"ce4bgjp2rcd13ifvqbh0","pricing_plan_id":"cebpf4jnsgd1na2vs0mg"},{"bike_id":"02edf250-0bdc-44d6-9936-04b527fbc30e","system_id":"levelo_inurba_marseille","lat":43.2439,"lon":5.37067,"is_reserved":false,"is_disabled":false,"rental_uris":{"android":"levelo://app?vid=02edf250-0bdc-44d6-9936-04b527fbc30e","ios":"levelo://app?vid=02edf250-0bdc-44d6-9936-04b527fbc30e"},"vehicle_type_id":"4","last_reported":1728908255,"current_range_meters":16800,"station_id":"ce4bhhh2rcd13ifvqfk0","pricing_plan_id":"cebpf4jnsgd1na2vs0mg"},{"bike_id":"ec8a6478-bef1-4d60-a7f2-ab8e64ac4863","system_id":"levelo_inurba_marseille","lat":43.30894,"lon":5.37197,"is_reserved":false,"is_disabled":false,"rental_uris":{"android":"levelo://app?vid=ec8a6478-bef1-4d60-a7f2-ab8e64ac4863","ios":"levelo://app?vid=ec8a6478-bef1-4d60-a7f2-ab8e64ac4863"},"vehicle_type_id":"4","last_reported":1728908255,"current_range_meters":19600,"station_id":"ce4bguh2rcd13ifvqckg","pricing_plan_id":"cebpf4jnsgd1na2vs0mg"},{"bike_id":"97432037-fa57-4794-a225-ed60db35fa11","system_id":"levelo_inurba_marseille","lat":43.26213,"lon":5.37437,"is_reserved":false,"is_disabled":false,"rental_uris":{"android":"levelo://app?vid=97432037-fa57-4794-a225-ed60db35fa11","ios":"levelo://app?vid=97432037-fa57-4794-a225-ed60db35fa11"},"vehicle_type_id":"4","last_reported":1728908255,"current_range_meters":38000,"station_id":"ce4bhgp2rcd13ifvqfc0","pricing_plan_id":"cebpf4jnsgd1na2vs0mg"},{"bike_id":"bf8ac314-f4bc-42fb-a2a7-3ee8753cad5d","system_id":"levelo_inurba_marseille","lat":43.283752,"lon":5.38614,"is_reserved":false,"is_disabled":false,"rental_uris":{"android":"levelo://app?vid=bf8ac314-f4bc-42fb-a2a7-3ee8753cad5d","ios":"levelo://app?vid=bf8ac314-f4bc-42fb-a2a7-3ee8753cad5d"},"vehicle_type_id":"4","last_reported":1728908255,"current_range_meters":30000,"station_id":"ce4bh492rcd13ifvqdvg","pricing_plan_id":"cebpf4jnsgd1na2vs0mg"},{"bike_id":"2ef29e8c-b71a-4e4e-a610-9fb55751e2ba","system_id":"levelo_inurba_marseille","lat":43.23149,"lon":5.43715,"is_reserved":false,"is_disabled":false,"rental_uris":{"android":"levelo://app?vid=2ef29e8c-b71a-4e4e-a610-9fb55751e2ba","ios":"levelo://app?vid=2ef29e8c-b71a-4e4e-a610-9fb55751e2ba"},"vehicle_type_id":"4","last_reported":1728908255,"current_range_meters":24800,"station_id":"ce4bhmp2rcd13ifvqgog","pricing_plan_id":"cebpf4jnsgd1na2vs0mg"},{"bike_id":"83d94ba6-63ff-4a3e-8cbe-319587d39ea5","system_id":"levelo_inurba_marseille","lat":43.24652,"lon":5.38879,"is_reserved":false,"is_disabled":false,"rental_uris":{"android":"levelo://app?vid=83d94ba6-63ff-4a3e-8cbe-319587d39ea5","ios":"levelo://app?vid=83d94ba6-63ff-4a3e-8cbe-319587d39ea5"},"vehicle_type_id":"4","last_reported":1728908255,"current_range_meters":24400,"station_id":"ce4bhg12rcd13ifvqf60","pricing_plan_id":"cebpf4jnsgd1na2vs0mg"},{"bike_id":"2d807640-ec73-406e-b06c-a06e2ac7f11e","system_id":"levelo_inurba_marseille","lat":43.24077,"lon":5.37755,"is_reserved":false,"is_disabled":false,"rental_uris":{"android":"levelo://app?vid=2d807640-ec73-406e-b06c-a06e2ac7f11e","ios":"levelo://app?vid=2d807640-ec73-406e-b06c-a06e2ac7f11e"},"vehicle_type_id":"4","last_reported":1728908255,"current_range_meters":20800,"station_id":"ce4bhnp2rcd13ifvqgvg","pricing_plan_id":"cebpf4jnsgd1na2vs0mg"},{"bike_id":"6f18ed0b-461f-4273-9d2f-e349c2a2abc6","system_id":"levelo_inurba_marseille","lat":43.29551,"lon":5.42277,"is_reserved":false,"is_disabled":false,"rental_uris":{"android":"levelo://app?vid=6f18ed0b-461f-4273-9d2f-e349c2a2abc6","ios":"levelo://app?vid=6f18ed0b-461f-4273-9d2f-e349c2a2abc6"},"vehicle_type_id":"4","last_reported":1728908255,"current_range_meters":15200,"station_id":"ce4bhph2rcd13ifvqhdg","pricing_plan_id":"cebpf4jnsgd1na2vs0mg"},{"bike_id":"28c2348b-b9a4-4b28-9b46-c05eca5ac6cf","system_id":"levelo_inurba_marseille","lat":43.29198,"lon":5.39321,"is_reserved":false,"is_disabled":false,"rental_uris":{"android":"levelo://app?vid=28c2348b-b9a4-4b28-9b46-c05eca5ac6cf","ios":"levelo://app?vid=28c2348b-b9a4-4b28-9b46-c05eca5ac6cf"},"vehicle_type_id":"4","last_reported":1728908255,"current_range_meters":6800,"station_id":"ce4bh192rcd13ifvqdd0","pricing_plan_id":"cebpf4jnsgd1na2vs0mg"},{"bike_id":"4e16868a-c965-407f-b7f1-11666f275677","system_id":"levelo_inurba_marseille","lat":43.28473,"lon":5.38424,"is_reserved":false,"is_disabled":false,"rental_uris":{"android":"levelo://app?vid=4e16868a-c965-407f-b7f1-11666f275677","ios":"levelo://app?vid=4e16868a-c965-407f-b7f1-11666f275677"},"vehicle_type_id":"4","last_reported":1728908255,"current_range_meters":4400,"station_id":"ce4bh512rcd13ifvqe3g","pricing_plan_id":"cebpf4jnsgd1na2vs0mg"},{"bike_id":"9e6aff22-1e30-47a3-be6b-2ba271648ee5","system_id":"levelo_inurba_marseille","lat":43.30955,"lon":5.39034,"is_reserved":false,"is_disabled":false,"rental_uris":{"android":"levelo://app?vid=9e6aff22-1e30-47a3-be6b-2ba271648ee5","ios":"levelo://app?vid=9e6aff22-1e30-47a3-be6b-2ba271648ee5"},"vehicle_type_id":"4","last_reported":1728908255,"current_range_meters":39200,"station_id":"ce4bgup2rcd13ifvqco0","pricing_plan_id":"cebpf4jnsgd1na2vs0mg"},{"bike_id":"117c426b-1db6-4e0c-88a4-aa16fb476bb3","system_id":"levelo_inurba_marseille","lat":43.29799,"lon":5.40397,"is_reserved":false,"is_disabled":false,"rental_uris":{"android":"levelo://app?vid=117c426b-1db6-4e0c-88a4-aa16fb476bb3","ios":"levelo://app?vid=117c426b-1db6-4e0c-88a4-aa16fb476bb3"},"vehicle_type_id":"4","last_reported":1728908255,"current_range_meters":24400,"station_id":"ce4bh112rcd13ifvqd90","pricing_plan_id":"cebpf4jnsgd1na2vs0mg"},{"bike_id":"de27cb7d-b23c-447c-8ca6-b6fa66b073b7","system_id":"levelo_inurba_marseille","lat":43.2408,"lon":5.37745,"is_reserved":false,"is_disabled":false,"rental_uris":{"android":"levelo://app?vid=de27cb7d-b23c-447c-8ca6-b6fa66b073b7","ios":"levelo://app?vid=de27cb7d-b23c-447c-8ca6-b6fa66b073b7"},"vehicle_type_id":"4","last_reported":1728908255,"current_range_meters":20800,"station_id":"ce4bhnp2rcd13ifvqgvg","pricing_plan_id":"cebpf4jnsgd1na2vs0mg"},{"bike_id":"e01e41b6-906b-4d38-bd47-8409331ef9cb","system_id":"levelo_inurba_marseille","lat":43.24166,"lon":5.3639,"is_reserved":false,"is_disabled":false,"rental_uris":{"android":"levelo://app?vid=e01e41b6-906b-4d38-bd47-8409331ef9cb","ios":"levelo://app?vid=e01e41b6-906b-4d38-bd47-8409331ef9cb"},"vehicle_type_id":"4","last_reported":1728908255,"current_range_meters":37600,"station_id":"cpo36qri1sfpv3e86is0","pricing_plan_id":"cebpf4jnsgd1na2vs0mg"},{"bike_id":"f600c467-d8c6-4ded-ab2a-b204216caaf0","system_id":"levelo_inurba_marseille","lat":43.2407,"lon":5.37749,"is_reserved":false,"is_disabled":false,"rental_uris":{"android":"levelo://app?vid=f600c467-d8c6-4ded-ab2a-b204216caaf0","ios":"levelo://app?vid=f600c467-d8c6-4ded-ab2a-b204216caaf0"},"vehicle_type_id":"4","last_reported":1728908255,"current_range_meters":26800,"station_id":"ce4bhnp2rcd13ifvqgvg","pricing_plan_id":"cebpf4jnsgd1na2vs0mg"},{"bike_id":"fdfc150e-8c69-4b0f-b7c2-92b2515080c5","system_id":"levelo_inurba_marseille","lat":43.28718,"lon":5.37928,"is_reserved":false,"is_disabled":false,"rental_uris":{"android":"levelo://app?vid=fdfc150e-8c69-4b0f-b7c2-92b2515080c5","ios":"levelo://app?vid=fdfc150e-8c69-4b0f-b7c2-92b2515080c5"},"vehicle_type_id":"4","last_reported":1728908255,"current_range_meters":38800,"station_id":"ce4bh9p2rcd13ifvqec0","pricing_plan_id":"cebpf4jnsgd1na2vs0mg"},{"bike_id":"89211ee2-076f-4df3-92bd-cd8885f2e76d","system_id":"levelo_inurba_marseille","lat":43.23192,"lon":5.35554,"is_reserved":false,"is_disabled":false,"rental_uris":{"android":"levelo://app?vid=89211ee2-076f-4df3-92bd-cd8885f2e76d","ios":"levelo://app?vid=89211ee2-076f-4df3-92bd-cd8885f2e76d"},"vehicle_type_id":"4","last_reported":1728908255,"current_range_meters":39200,"station_id":"ce4bhu92rcd13ifvqi70","pricing_plan_id":"cebpf4jnsgd1na2vs0mg"},{"bike_id":"6f108c79-169f-46fd-b08b-6b93e5050ee6","system_id":"levelo_inurba_marseille","lat":43.33721,"lon":5.39174,"is_reserved":false,"is_disabled":false,"rental_uris":{"android":"levelo://app?vid=6f108c79-169f-46fd-b08b-6b93e5050ee6","ios":"levelo://app?vid=6f108c79-169f-46fd-b08b-6b93e5050ee6"},"vehicle_type_id":"4","last_reported":1728908255,"current_range_meters":10800,"station_id":"ce4bhr92rcd13ifvqhsg","pricing_plan_id":"cebpf4jnsgd1na2vs0mg"},{"bike_id":"18d4a446-ce41-416b-9135-a5ef744fe99a","system_id":"levelo_inurba_marseille","lat":43.312215,"lon":5.386957,"is_reserved":false,"is_disabled":false,"rental_uris":{"android":"levelo://app?vid=18d4a446-ce41-416b-9135-a5ef744fe99a","ios":"levelo://app?vid=18d4a446-ce41-416b-9135-a5ef744fe99a"},"vehicle_type_id":"4","last_reported":1728908255,"current_range_meters":17600,"station_id":"ce4bh412rcd13ifvqdr0","pricing_plan_id":"cebpf4jnsgd1na2vs0mg"},{"bike_id":"fa4c4cf2-32cb-4a01-a189-b8c4f6f1b4d6","system_id":"levelo_inurba_marseille","lat":43.24387,"lon":5.37053,"is_reserved":false,"is_disabled":false,"rental_uris":{"android":"levelo://app?vid=fa4c4cf2-32cb-4a01-a189-b8c4f6f1b4d6","ios":"levelo://app?vid=fa4c4cf2-32cb-4a01-a189-b8c4f6f1b4d6"},"vehicle_type_id":"4","last_reported":1728908255,"current_range_meters":23200,"station_id":"ce4bhhh2rcd13ifvqfk0","pricing_plan_id":"cebpf4jnsgd1na2vs0mg"},{"bike_id":"90e91b07-8c41-4b59-8b6a-2ce9c6d42c30","system_id":"levelo_inurba_marseille","lat":43.28352,"lon":5.38103,"is_reserved":false,"is_disabled":false,"rental_uris":{"android":"levelo://app?vid=90e91b07-8c41-4b59-8b6a-2ce9c6d42c30","ios":"levelo://app?vid=90e91b07-8c41-4b59-8b6a-2ce9c6d42c30"},"vehicle_type_id":"4","last_reported":1728908255,"current_range_meters":35200,"station_id":"ce4bh412rcd13ifvqdr0","pricing_plan_id":"cebpf4jnsgd1na2vs0mg"},{"bike_id":"4fe3f47d-8174-4690-a70f-830005032b34","system_id":"levelo_inurba_marseille","lat":43.29605,"lon":5.38107,"is_reserved":false,"is_disabled":false,"rental_uris":{"android":"levelo://app?vid=4fe3f47d-8174-4690-a70f-830005032b34","ios":"levelo://app?vid=4fe3f47d-8174-4690-a70f-830005032b34"},"vehicle_type_id":"4","last_reported":1728908255,"current_range_meters":19600,"station_id":"ce4bgl12rcd13ifvqbo0","pricing_plan_id":"cebpf4jnsgd1na2vs0mg"},{"bike_id":"922b5829-363b-46ee-8cbc-b34afc5c8cff","system_id":"levelo_inurba_marseille","lat":43.2511,"lon":5.40323,"is_reserved":false,"is_disabled":false,"rental_uris":{"android":"levelo://app?vid=922b5829-363b-46ee-8cbc-b34afc5c8cff","ios":"levelo://app?vid=922b5829-363b-46ee-8cbc-b34afc5c8cff"},"vehicle_type_id":"4","last_reported":1728908255,"current_range_meters":9600,"station_id":"ce4bhlh2rcd13ifvqgig","pricing_plan_id":"cebpf4jnsgd1na2vs0mg"},{"bike_id":"d7e80666-b8cd-45a3-b561-dba9019d8a21","system_id":"levelo_inurba_marseille","lat":43.28609,"lon":5.37062,"is_reserved":false,"is_disabled":false,"rental_uris":{"android":"levelo://app?vid=d7e80666-b8cd-45a3-b561-dba9019d8a21","ios":"levelo://app?vid=d7e80666-b8cd-45a3-b561-dba9019d8a21"},"vehicle_type_id":"4","last_reported":1728908255,"current_range_meters":31200,"station_id":"ce4bht12rcd13ifvqi60","pricing_plan_id":"cebpf4jnsgd1na2vs0mg"},{"bike_id":"c0a17a1c-fc81-45fd-8be9-cb086a70c595","system_id":"levelo_inurba_marseille","lat":43.29004,"lon":5.35628,"is_reserved":false,"is_disabled":false,"rental_uris":{"android":"levelo://app?vid=c0a17a1c-fc81-45fd-8be9-cb086a70c595","ios":"levelo://app?vid=c0a17a1c-fc81-45fd-8be9-cb086a70c595"},"vehicle_type_id":"4","last_reported":1728908255,"current_range_meters":27200,"station_id":"ce4bhb92rcd13ifvqen0","pricing_plan_id":"cebpf4jnsgd1na2vs0mg"},{"bike_id":"176a7a39-6d04-4fe2-b6fd-3ae9686d8ffb","system_id":"levelo_inurba_marseille","lat":43.26059,"lon":5.39396,"is_reserved":false,"is_disabled":false,"rental_uris":{"android":"levelo://app?vid=176a7a39-6d04-4fe2-b6fd-3ae9686d8ffb","ios":"levelo://app?vid=176a7a39-6d04-4fe2-b6fd-3ae9686d8ffb"},"vehicle_type_id":"4","last_reported":1728908255,"current_range_meters":40000,"station_id":"ce4bhh92rcd13ifvqfj0","pricing_plan_id":"cebpf4jnsgd1na2vs0mg"},{"bike_id":"b1e6edd6-a862-42d9-81fc-822776ae60f6","system_id":"levelo_inurba_marseille","lat":43.337444,"lon":5.374475,"is_reserved":false,"is_disabled":false,"rental_uris":{"android":"levelo://app?vid=b1e6edd6-a862-42d9-81fc-822776ae60f6","ios":"levelo://app?vid=b1e6edd6-a862-42d9-81fc-822776ae60f6"},"vehicle_type_id":"4","last_reported":1728908255,"current_range_meters":22800,"station_id":"ce4bgup2rcd13ifvqcn0","pricing_plan_id":"cebpf4jnsgd1na2vs0mg"},{"bike_id":"03a60c6f-fbb3-425b-8d0c-831cdbdc9cf9","system_id":"levelo_inurba_marseille","lat":43.30303,"lon":5.37704,"is_reserved":false,"is_disabled":false,"rental_uris":{"android":"levelo://app?vid=03a60c6f-fbb3-425b-8d0c-831cdbdc9cf9","ios":"levelo://app?vid=03a60c6f-fbb3-425b-8d0c-831cdbdc9cf9"},"vehicle_type_id":"4","last_reported":1728908255,"current_range_meters":32000,"station_id":"ce4bguh2rcd13ifvqcj0","pricing_plan_id":"cebpf4jnsgd1na2vs0mg"},{"bike_id":"0af147d2-1049-4d7a-ac52-29fc32726d9f","system_id":"levelo_inurba_marseille","lat":43.29525,"lon":5.39404,"is_reserved":false,"is_disabled":false,"rental_uris":{"android":"levelo://app?vid=0af147d2-1049-4d7a-ac52-29fc32726d9f","ios":"levelo://app?vid=0af147d2-1049-4d7a-ac52-29fc32726d9f"},"vehicle_type_id":"4","last_reported":1728908255,"current_range_meters":7200,"station_id":"ce4bh292rcd13ifvqdf0","pricing_plan_id":"cebpf4jnsgd1na2vs0mg"},{"bike_id":"e029a1b4-721e-49da-9dc8-69a7ae25b5d0","system_id":"levelo_inurba_marseille","lat":43.33034,"lon":5.38936,"is_reserved":false,"is_disabled":false,"rental_uris":{"android":"levelo://app?vid=e029a1b4-721e-49da-9dc8-69a7ae25b5d0","ios":"levelo://app?vid=e029a1b4-721e-49da-9dc8-69a7ae25b5d0"},"vehicle_type_id":"4","last_reported":1728908255,"current_range_meters":33600,"station_id":"","pricing_plan_id":"cebpf4jnsgd1na2vs0mg"},{"bike_id":"71179074-34d6-43a5-b857-4aa7d86e6727","system_id":"levelo_inurba_marseille","lat":43.27317,"lon":5.39072,"is_reserved":false,"is_disabled":false,"rental_uris":{"android":"levelo://app?vid=71179074-34d6-43a5-b857-4aa7d86e6727","ios":"levelo://app?vid=71179074-34d6-43a5-b857-4aa7d86e6727"},"vehicle_type_id":"4","last_reported":1728908255,"current_range_meters":8400,"station_id":"ce4bhgp2rcd13ifvqfe0","pricing_plan_id":"cebpf4jnsgd1na2vs0mg"},{"bike_id":"3454faa4-8716-444e-9362-03c9fa0ebd08","system_id":"levelo_inurba_marseille","lat":43.29573,"lon":5.37506,"is_reserved":false,"is_disabled":false,"rental_uris":{"android":"levelo://app?vid=3454faa4-8716-444e-9362-03c9fa0ebd08","ios":"levelo://app?vid=3454faa4-8716-444e-9362-03c9fa0ebd08"},"vehicle_type_id":"4","last_reported":1728908255,"current_range_meters":36400,"station_id":"ce4bgh92rcd13ifvqb50","pricing_plan_id":"cebpf4jnsgd1na2vs0mg"},{"bike_id":"0f0a4a23-3ba8-47f7-a226-db6687b87f95","system_id":"levelo_inurba_marseille","lat":43.33603,"lon":5.41031,"is_reserved":false,"is_disabled":false,"rental_uris":{"android":"levelo://app?vid=0f0a4a23-3ba8-47f7-a226-db6687b87f95","ios":"levelo://app?vid=0f0a4a23-3ba8-47f7-a226-db6687b87f95"},"vehicle_type_id":"4","last_reported":1728908255,"current_range_meters":13600,"station_id":"ce4bhqh2rcd13ifvqhmg","pricing_plan_id":"cebpf4jnsgd1na2vs0mg"},{"bike_id":"ff96eee3-1ac8-4888-9ae7-e4b6cc8154af","system_id":"levelo_inurba_marseille","lat":43.33739,"lon":5.3746,"is_reserved":false,"is_disabled":false,"rental_uris":{"android":"levelo://app?vid=ff96eee3-1ac8-4888-9ae7-e4b6cc8154af","ios":"levelo://app?vid=ff96eee3-1ac8-4888-9ae7-e4b6cc8154af"},"vehicle_type_id":"4","last_reported":1728908255,"current_range_meters":38400,"station_id":"","pricing_plan_id":"cebpf4jnsgd1na2vs0mg"},{"bike_id":"642d88aa-2f99-4c3f-983b-881c22d2173a","system_id":"levelo_inurba_marseille","lat":43.30297,"lon":5.37693,"is_reserved":false,"is_disabled":false,"rental_uris":{"android":"levelo://app?vid=642d88aa-2f99-4c3f-983b-881c22d2173a","ios":"levelo://app?vid=642d88aa-2f99-4c3f-983b-881c22d2173a"},"vehicle_type_id":"4","last_reported":1728908255,"current_range_meters":20400,"station_id":"ce4bguh2rcd13ifvqcj0","pricing_plan_id":"cebpf4jnsgd1na2vs0mg"},{"bike_id":"e1c9b893-ca01-4062-b0d3-7097294f3727","system_id":"levelo_inurba_marseille","lat":43.25081,"lon":5.3952,"is_reserved":false,"is_disabled":false,"rental_uris":{"android":"levelo://app?vid=e1c9b893-ca01-4062-b0d3-7097294f3727","ios":"levelo://app?vid=e1c9b893-ca01-4062-b0d3-7097294f3727"},"vehicle_type_id":"4","last_reported":1728908255,"current_range_meters":14400,"station_id":"ce4bhm12rcd13ifvqgkg","pricing_plan_id":"cebpf4jnsgd1na2vs0mg"},{"bike_id":"54645389-82f9-46fc-a741-4af5142d0397","system_id":"levelo_inurba_marseille","lat":43.33771,"lon":5.37431,"is_reserved":false,"is_disabled":false,"rental_uris":{"android":"levelo://app?vid=54645389-82f9-46fc-a741-4af5142d0397","ios":"levelo://app?vid=54645389-82f9-46fc-a741-4af5142d0397"},"vehicle_type_id":"4","last_reported":1728908255,"current_range_meters":35600,"station_id":"","pricing_plan_id":"cebpf4jnsgd1na2vs0mg"},{"bike_id":"bd400042-a614-48b2-898f-7d4cfac83ac7","system_id":"levelo_inurba_marseille","lat":43.27899,"lon":5.38024,"is_reserved":false,"is_disabled":false,"rental_uris":{"android":"levelo://app?vid=bd400042-a614-48b2-898f-7d4cfac83ac7","ios":"levelo://app?vid=bd400042-a614-48b2-898f-7d4cfac83ac7"},"vehicle_type_id":"4","last_reported":1728908255,"current_range_meters":38800,"station_id":"ce4bhf92rcd13ifvqf50","pricing_plan_id":"cebpf4jnsgd1na2vs0mg"},{"bike_id":"dc4e49d2-373f-484c-ada3-c06ee847adc1","system_id":"levelo_inurba_marseille","lat":43.26565,"lon":5.39013,"is_reserved":false,"is_disabled":false,"rental_uris":{"android":"levelo://app?vid=dc4e49d2-373f-484c-ada3-c06ee847adc1","ios":"levelo://app?vid=dc4e49d2-373f-484c-ada3-c06ee847adc1"},"vehicle_type_id":"4","last_reported":1728908255,"current_range_meters":30400,"station_id":"ce4bhe12rcd13ifvqf30","pricing_plan_id":"cebpf4jnsgd1na2vs0mg"},{"bike_id":"c4b4b5d3-b832-4e86-a8a1-36423040168d","system_id":"levelo_inurba_marseille","lat":43.28149,"lon":5.42642,"is_reserved":false,"is_disabled":false,"rental_uris":{"android":"levelo://app?vid=c4b4b5d3-b832-4e86-a8a1-36423040168d","ios":"levelo://app?vid=c4b4b5d3-b832-4e86-a8a1-36423040168d"},"vehicle_type_id":"4","last_reported":1728908255,"current_range_meters":8800,"station_id":"ce4bhnh2rcd13ifvqgug","pricing_plan_id":"cebpf4jnsgd1na2vs0mg"},{"bike_id":"39f4547e-27f2-4537-95f2-9dfd4ee2e06d","system_id":"levelo_inurba_marseille","lat":43.24066,"lon":5.3776,"is_reserved":false,"is_disabled":false,"rental_uris":{"android":"levelo://app?vid=39f4547e-27f2-4537-95f2-9dfd4ee2e06d","ios":"levelo://app?vid=39f4547e-27f2-4537-95f2-9dfd4ee2e06d"},"vehicle_type_id":"4","last_reported":1728908255,"current_range_meters":3600,"station_id":"ce4bhnp2rcd13ifvqgvg","pricing_plan_id":"cebpf4jnsgd1na2vs0mg"},{"bike_id":"747bb4f8-9470-42df-a525-33d9889c88ad","system_id":"levelo_inurba_marseille","lat":43.23965,"lon":5.3663,"is_reserved":false,"is_disabled":false,"rental_uris":{"android":"levelo://app?vid=747bb4f8-9470-42df-a525-33d9889c88ad","ios":"levelo://app?vid=747bb4f8-9470-42df-a525-33d9889c88ad"},"vehicle_type_id":"4","last_reported":1728908255,"current_range_meters":28000,"station_id":"ce4bhi12rcd13ifvqfp0","pricing_plan_id":"cebpf4jnsgd1na2vs0mg"},{"bike_id":"0a6f1c74-6f97-4af2-9de4-e0e4a3654d37","system_id":"levelo_inurba_marseille","lat":43.23148,"lon":5.43718,"is_reserved":false,"is_disabled":false,"rental_uris":{"android":"levelo://app?vid=0a6f1c74-6f97-4af2-9de4-e0e4a3654d37","ios":"levelo://app?vid=0a6f1c74-6f97-4af2-9de4-e0e4a3654d37"},"vehicle_type_id":"4","last_reported":1728908255,"current_range_meters":36800,"station_id":"ce4bhmp2rcd13ifvqgog","pricing_plan_id":"cebpf4jnsgd1na2vs0mg"},{"bike_id":"d895bce5-6f3e-4821-9734-f598f0834e30","system_id":"levelo_inurba_marseille","lat":43.29024,"lon":5.35925,"is_reserved":false,"is_disabled":false,"rental_uris":{"android":"levelo://app?vid=d895bce5-6f3e-4821-9734-f598f0834e30","ios":"levelo://app?vid=d895bce5-6f3e-4821-9734-f598f0834e30"},"vehicle_type_id":"4","last_reported":1728908255,"current_range_meters":38800,"station_id":"ce4bha92rcd13ifvqeg0","pricing_plan_id":"cebpf4jnsgd1na2vs0mg"},{"bike_id":"95e69cb9-becd-47c0-acf3-16314a528eb5","system_id":"levelo_inurba_marseille","lat":43.28151,"lon":5.42636,"is_reserved":false,"is_disabled":false,"rental_uris":{"android":"levelo://app?vid=95e69cb9-becd-47c0-acf3-16314a528eb5","ios":"levelo://app?vid=95e69cb9-becd-47c0-acf3-16314a528eb5"},"vehicle_type_id":"4","last_reported":1728908255,"current_range_meters":38800,"station_id":"ce4bhnh2rcd13ifvqgug","pricing_plan_id":"cebpf4jnsgd1na2vs0mg"},{"bike_id":"43992552-4347-41e4-9e1a-a533689538ba","system_id":"levelo_inurba_marseille","lat":43.30432,"lon":5.38895,"is_reserved":false,"is_disabled":false,"rental_uris":{"android":"levelo://app?vid=43992552-4347-41e4-9e1a-a533689538ba","ios":"levelo://app?vid=43992552-4347-41e4-9e1a-a533689538ba"},"vehicle_type_id":"4","last_reported":1728908255,"current_range_meters":18800,"station_id":"ce4bgk12rcd13ifvqbi0","pricing_plan_id":"cebpf4jnsgd1na2vs0mg"},{"bike_id":"70d2c401-ee11-4214-afb6-0f4d6e3615a1","system_id":"levelo_inurba_marseille","lat":43.25872,"lon":5.39894,"is_reserved":false,"is_disabled":false,"rental_uris":{"android":"levelo://app?vid=70d2c401-ee11-4214-afb6-0f4d6e3615a1","ios":"levelo://app?vid=70d2c401-ee11-4214-afb6-0f4d6e3615a1"},"vehicle_type_id":"4","last_reported":1728908255,"current_range_meters":34800,"station_id":"ce4bhl92rcd13ifvqghg","pricing_plan_id":"cebpf4jnsgd1na2vs0mg"},{"bike_id":"b496014c-8bbf-4f2a-a8f4-ab8e66cb5854","system_id":"levelo_inurba_marseille","lat":43.31229,"lon":5.36848,"is_reserved":false,"is_disabled":false,"rental_uris":{"android":"levelo://app?vid=b496014c-8bbf-4f2a-a8f4-ab8e66cb5854","ios":"levelo://app?vid=b496014c-8bbf-4f2a-a8f4-ab8e66cb5854"},"vehicle_type_id":"4","last_reported":1728908255,"current_range_meters":37600,"station_id":"ce4bgl92rcd13ifvqbq0","pricing_plan_id":"cebpf4jnsgd1na2vs0mg"},{"bike_id":"292b9425-1372-40d4-bf0a-fe57aa779a41","system_id":"levelo_inurba_marseille","lat":43.23064,"lon":5.35489,"is_reserved":false,"is_disabled":false,"rental_uris":{"android":"levelo://app?vid=292b9425-1372-40d4-bf0a-fe57aa779a41","ios":"levelo://app?vid=292b9425-1372-40d4-bf0a-fe57aa779a41"},"vehicle_type_id":"4","last_reported":1728908255,"current_range_meters":38000,"station_id":"cpo3342slgdg3j2ifvpg","pricing_plan_id":"cebpf4jnsgd1na2vs0mg"},{"bike_id":"09a8f79c-993d-4815-bf53-cfa84d21eee6","system_id":"levelo_inurba_marseille","lat":43.25938,"lon":5.40905,"is_reserved":false,"is_disabled":false,"rental_uris":{"android":"levelo://app?vid=09a8f79c-993d-4815-bf53-cfa84d21eee6","ios":"levelo://app?vid=09a8f79c-993d-4815-bf53-cfa84d21eee6"},"vehicle_type_id":"4","last_reported":1728908255,"current_range_meters":23200,"station_id":"ce4bhm92rcd13ifvqglg","pricing_plan_id":"cebpf4jnsgd1na2vs0mg"},{"bike_id":"f7412e3e-56ed-4cd2-9146-14a6b6a4ab03","system_id":"levelo_inurba_marseille","lat":43.26558,"lon":5.3728,"is_reserved":false,"is_disabled":false,"rental_uris":{"android":"levelo://app?vid=f7412e3e-56ed-4cd2-9146-14a6b6a4ab03","ios":"levelo://app?vid=f7412e3e-56ed-4cd2-9146-14a6b6a4ab03"},"vehicle_type_id":"4","last_reported":1728908255,"current_range_meters":6800,"station_id":"ce4bhg12rcd13ifvqf70","pricing_plan_id":"cebpf4jnsgd1na2vs0mg"},{"bike_id":"2feb0969-edd6-47d8-98a0-a230f500bdd0","system_id":"levelo_inurba_marseille","lat":43.29618,"lon":5.37162,"is_reserved":false,"is_disabled":false,"rental_uris":{"android":"levelo://app?vid=2feb0969-edd6-47d8-98a0-a230f500bdd0","ios":"levelo://app?vid=2feb0969-edd6-47d8-98a0-a230f500bdd0"},"vehicle_type_id":"4","last_reported":1728908255,"current_range_meters":24400,"station_id":"ce4bgnh2rcd13ifvqc0g","pricing_plan_id":"cebpf4jnsgd1na2vs0mg"},{"bike_id":"319db2db-70a0-4432-b12c-db6bad30cafc","system_id":"levelo_inurba_marseille","lat":43.29849,"lon":5.36287,"is_reserved":false,"is_disabled":false,"rental_uris":{"android":"levelo://app?vid=319db2db-70a0-4432-b12c-db6bad30cafc","ios":"levelo://app?vid=319db2db-70a0-4432-b12c-db6bad30cafc"},"vehicle_type_id":"4","last_reported":1728908255,"current_range_meters":31200,"station_id":"ce4bgpp2rcd13ifvqc3g","pricing_plan_id":"cebpf4jnsgd1na2vs0mg"},{"bike_id":"09b92616-52e7-4687-9ac4-39a00f2cd692","system_id":"levelo_inurba_marseille","lat":43.28343,"lon":5.38103,"is_reserved":false,"is_disabled":false,"rental_uris":{"android":"levelo://app?vid=09b92616-52e7-4687-9ac4-39a00f2cd692","ios":"levelo://app?vid=09b92616-52e7-4687-9ac4-39a00f2cd692"},"vehicle_type_id":"4","last_reported":1728908255,"current_range_meters":38800,"station_id":"ce4bh412rcd13ifvqdr0","pricing_plan_id":"cebpf4jnsgd1na2vs0mg"},{"bike_id":"fbea323b-5a11-4ba9-b9e7-da245c3444d7","system_id":"levelo_inurba_marseille","lat":43.290201,"lon":5.381294,"is_reserved":false,"is_disabled":false,"rental_uris":{"android":"levelo://app?vid=fbea323b-5a11-4ba9-b9e7-da245c3444d7","ios":"levelo://app?vid=fbea323b-5a11-4ba9-b9e7-da245c3444d7"},"vehicle_type_id":"4","last_reported":1728908255,"current_range_meters":30000,"station_id":"ce4bh4p2rcd13ifvqe1g","pricing_plan_id":"cebpf4jnsgd1na2vs0mg"},{"bike_id":"f9431acc-4158-4e63-bbe0-7544277cc35e","system_id":"levelo_inurba_marseille","lat":43.29032,"lon":5.37567,"is_reserved":false,"is_disabled":false,"rental_uris":{"android":"levelo://app?vid=f9431acc-4158-4e63-bbe0-7544277cc35e","ios":"levelo://app?vid=f9431acc-4158-4e63-bbe0-7544277cc35e"},"vehicle_type_id":"4","last_reported":1728908255,"current_range_meters":30800,"station_id":"ce4bh692rcd13ifvqe90","pricing_plan_id":"cebpf4jnsgd1na2vs0mg"},{"bike_id":"913fa819-1c44-4d06-8f1c-4e7cd5beec8b","system_id":"levelo_inurba_marseille","lat":43.29548,"lon":5.42283,"is_reserved":false,"is_disabled":false,"rental_uris":{"android":"levelo://app?vid=913fa819-1c44-4d06-8f1c-4e7cd5beec8b","ios":"levelo://app?vid=913fa819-1c44-4d06-8f1c-4e7cd5beec8b"},"vehicle_type_id":"4","last_reported":1728908255,"current_range_meters":36800,"station_id":"ce4bhph2rcd13ifvqhdg","pricing_plan_id":"cebpf4jnsgd1na2vs0mg"},{"bike_id":"e42a5c5b-19d2-48bc-8dfc-c8514ef28621","system_id":"levelo_inurba_marseille","lat":43.24166,"lon":5.36402,"is_reserved":false,"is_disabled":false,"rental_uris":{"android":"levelo://app?vid=e42a5c5b-19d2-48bc-8dfc-c8514ef28621","ios":"levelo://app?vid=e42a5c5b-19d2-48bc-8dfc-c8514ef28621"},"vehicle_type_id":"4","last_reported":1728908255,"current_range_meters":30400,"station_id":"cpo36qri1sfpv3e86is0","pricing_plan_id":"cebpf4jnsgd1na2vs0mg"},{"bike_id":"2a5848f4-4683-48c6-9e29-335b9767e11e","system_id":"levelo_inurba_marseille","lat":43.248079,"lon":5.374578,"is_reserved":false,"is_disabled":false,"rental_uris":{"android":"levelo://app?vid=2a5848f4-4683-48c6-9e29-335b9767e11e","ios":"levelo://app?vid=2a5848f4-4683-48c6-9e29-335b9767e11e"},"vehicle_type_id":"4","last_reported":1728908255,"current_range_meters":4000,"station_id":"ce4bhn12rcd13ifvqgqg","pricing_plan_id":"cebpf4jnsgd1na2vs0mg"},{"bike_id":"9f93002b-4bab-4469-ab1a-34b3a8f8301e","system_id":"levelo_inurba_marseille","lat":43.30272,"lon":5.37716,"is_reserved":false,"is_disabled":false,"rental_uris":{"android":"levelo://app?vid=9f93002b-4bab-4469-ab1a-34b3a8f8301e","ios":"levelo://app?vid=9f93002b-4bab-4469-ab1a-34b3a8f8301e"},"vehicle_type_id":"4","last_reported":1728908255,"current_range_meters":19600,"station_id":"ce4bguh2rcd13ifvqcj0","pricing_plan_id":"cebpf4jnsgd1na2vs0mg"},{"bike_id":"ea7c4819-c8b9-496b-8324-151ca1400df4","system_id":"levelo_inurba_marseille","lat":43.29091,"lon":5.38163,"is_reserved":false,"is_disabled":false,"rental_uris":{"android":"levelo://app?vid=ea7c4819-c8b9-496b-8324-151ca1400df4","ios":"levelo://app?vid=ea7c4819-c8b9-496b-8324-151ca1400df4"},"vehicle_type_id":"4","last_reported":1728908255,"current_range_meters":24400,"station_id":"ce4bh512rcd13ifvqe2g","pricing_plan_id":"cebpf4jnsgd1na2vs0mg"},{"bike_id":"339289c4-7b38-4d77-815f-139b6ca78fd9","system_id":"levelo_inurba_marseille","lat":43.291931,"lon":5.358038,"is_reserved":false,"is_disabled":false,"rental_uris":{"android":"levelo://app?vid=339289c4-7b38-4d77-815f-139b6ca78fd9","ios":"levelo://app?vid=339289c4-7b38-4d77-815f-139b6ca78fd9"},"vehicle_type_id":"4","last_reported":1728908255,"current_range_meters":24000,"station_id":"ce4bhb12rcd13ifvqel0","pricing_plan_id":"cebpf4jnsgd1na2vs0mg"},{"bike_id":"4d739139-0ec9-48fa-8ee5-a19b69fa74e4","system_id":"levelo_inurba_marseille","lat":43.23193,"lon":5.35545,"is_reserved":false,"is_disabled":false,"rental_uris":{"android":"levelo://app?vid=4d739139-0ec9-48fa-8ee5-a19b69fa74e4","ios":"levelo://app?vid=4d739139-0ec9-48fa-8ee5-a19b69fa74e4"},"vehicle_type_id":"4","last_reported":1728908255,"current_range_meters":3200,"station_id":"ce4bhu92rcd13ifvqi70","pricing_plan_id":"cebpf4jnsgd1na2vs0mg"},{"bike_id":"35d6dc4a-b6ee-4aa0-b154-ffc164ff6cd1","system_id":"levelo_inurba_marseille","lat":43.24073,"lon":5.37756,"is_reserved":false,"is_disabled":false,"rental_uris":{"android":"levelo://app?vid=35d6dc4a-b6ee-4aa0-b154-ffc164ff6cd1","ios":"levelo://app?vid=35d6dc4a-b6ee-4aa0-b154-ffc164ff6cd1"},"vehicle_type_id":"4","last_reported":1728908255,"current_range_meters":20000,"station_id":"ce4bhnp2rcd13ifvqgvg","pricing_plan_id":"cebpf4jnsgd1na2vs0mg"},{"bike_id":"d06f24f3-1961-4c39-8b26-c72733863fe9","system_id":"levelo_inurba_marseille","lat":43.33781,"lon":5.37443,"is_reserved":false,"is_disabled":false,"rental_uris":{"android":"levelo://app?vid=d06f24f3-1961-4c39-8b26-c72733863fe9","ios":"levelo://app?vid=d06f24f3-1961-4c39-8b26-c72733863fe9"},"vehicle_type_id":"4","last_reported":1728908255,"current_range_meters":28800,"station_id":"","pricing_plan_id":"cebpf4jnsgd1na2vs0mg"},{"bike_id":"e6b9b9c7-8d9e-4574-a2d9-6148e935d44a","system_id":"levelo_inurba_marseille","lat":43.30798,"lon":5.43518,"is_reserved":false,"is_disabled":false,"rental_uris":{"android":"levelo://app?vid=e6b9b9c7-8d9e-4574-a2d9-6148e935d44a","ios":"levelo://app?vid=e6b9b9c7-8d9e-4574-a2d9-6148e935d44a"},"vehicle_type_id":"4","last_reported":1728908255,"current_range_meters":38800,"station_id":"ce4bhph2rcd13ifvqheg","pricing_plan_id":"cebpf4jnsgd1na2vs0mg"},{"bike_id":"b15fc620-04d8-45e9-9c9b-141fa4e40b15","system_id":"levelo_inurba_marseille","lat":43.30909,"lon":5.36843,"is_reserved":false,"is_disabled":false,"rental_uris":{"android":"levelo://app?vid=b15fc620-04d8-45e9-9c9b-141fa4e40b15","ios":"levelo://app?vid=b15fc620-04d8-45e9-9c9b-141fa4e40b15"},"vehicle_type_id":"4","last_reported":1728908255,"current_range_meters":24000,"station_id":"ce4bgn92rcd13ifvqbvg","pricing_plan_id":"cebpf4jnsgd1na2vs0mg"},{"bike_id":"3820b56e-44b4-475a-baf5-2c173853d26c","system_id":"levelo_inurba_marseille","lat":43.33772,"lon":5.37437,"is_reserved":false,"is_disabled":false,"rental_uris":{"android":"levelo://app?vid=3820b56e-44b4-475a-baf5-2c173853d26c","ios":"levelo://app?vid=3820b56e-44b4-475a-baf5-2c173853d26c"},"vehicle_type_id":"4","last_reported":1728908255,"current_range_meters":36800,"station_id":"","pricing_plan_id":"cebpf4jnsgd1na2vs0mg"},{"bike_id":"de55ef64-fd38-455a-b0e1-1ae601486694","system_id":"levelo_inurba_marseille","lat":43.293701,"lon":5.378649,"is_reserved":false,"is_disabled":false,"rental_uris":{"android":"levelo://app?vid=de55ef64-fd38-455a-b0e1-1ae601486694","ios":"levelo://app?vid=de55ef64-fd38-455a-b0e1-1ae601486694"},"vehicle_type_id":"4","last_reported":1728908255,"current_range_meters":35200,"station_id":"ce4bgjh2rcd13ifvqbf0","pricing_plan_id":"cebpf4jnsgd1na2vs0mg"},{"bike_id":"d41309ab-1a1f-4395-acaa-455483c3f8e1","system_id":"levelo_inurba_marseille","lat":43.23199,"lon":5.35549,"is_reserved":false,"is_disabled":false,"rental_uris":{"android":"levelo://app?vid=d41309ab-1a1f-4395-acaa-455483c3f8e1","ios":"levelo://app?vid=d41309ab-1a1f-4395-acaa-455483c3f8e1"},"vehicle_type_id":"4","last_reported":1728908255,"current_range_meters":37600,"station_id":"ce4bhu92rcd13ifvqi70","pricing_plan_id":"cebpf4jnsgd1na2vs0mg"},{"bike_id":"c34d8a95-9d95-497c-8adf-d0cf7b1aebce","system_id":"levelo_inurba_marseille","lat":43.29882,"lon":5.38906,"is_reserved":false,"is_disabled":false,"rental_uris":{"android":"levelo://app?vid=c34d8a95-9d95-497c-8adf-d0cf7b1aebce","ios":"levelo://app?vid=c34d8a95-9d95-497c-8adf-d0cf7b1aebce"},"vehicle_type_id":"4","last_reported":1728908255,"current_range_meters":32400,"station_id":"ce4bh392rcd13ifvqdl0","pricing_plan_id":"cebpf4jnsgd1na2vs0mg"},{"bike_id":"7a4bf552-6263-432d-add4-fb7538c2260f","system_id":"levelo_inurba_marseille","lat":43.31686,"lon":5.40465,"is_reserved":false,"is_disabled":false,"rental_uris":{"android":"levelo://app?vid=7a4bf552-6263-432d-add4-fb7538c2260f","ios":"levelo://app?vid=7a4bf552-6263-432d-add4-fb7538c2260f"},"vehicle_type_id":"4","last_reported":1728908255,"current_range_meters":20000,"station_id":"ce4bh012rcd13ifvqd00","pricing_plan_id":"cebpf4jnsgd1na2vs0mg"},{"bike_id":"618a648d-b57f-4181-998e-b73ae8e2c03c","system_id":"levelo_inurba_marseille","lat":43.29226,"lon":5.36078,"is_reserved":false,"is_disabled":false,"rental_uris":{"android":"levelo://app?vid=618a648d-b57f-4181-998e-b73ae8e2c03c","ios":"levelo://app?vid=618a648d-b57f-4181-998e-b73ae8e2c03c"},"vehicle_type_id":"4","last_reported":1728908255,"current_range_meters":38800,"station_id":"ce4bhbh2rcd13ifvqeqg","pricing_plan_id":"cebpf4jnsgd1na2vs0mg"},{"bike_id":"3d1bcc3a-cc37-4cdf-a211-e45dd2768403","system_id":"levelo_inurba_marseille","lat":43.28154,"lon":5.42642,"is_reserved":false,"is_disabled":false,"rental_uris":{"android":"levelo://app?vid=3d1bcc3a-cc37-4cdf-a211-e45dd2768403","ios":"levelo://app?vid=3d1bcc3a-cc37-4cdf-a211-e45dd2768403"},"vehicle_type_id":"4","last_reported":1728908255,"current_range_meters":14400,"station_id":"ce4bhnh2rcd13ifvqgug","pricing_plan_id":"cebpf4jnsgd1na2vs0mg"},{"bike_id":"a051b4d2-2c6c-4e0e-8aee-6e0d4b2f513a","system_id":"levelo_inurba_marseille","lat":43.24133,"lon":5.37876,"is_reserved":false,"is_disabled":false,"rental_uris":{"android":"levelo://app?vid=a051b4d2-2c6c-4e0e-8aee-6e0d4b2f513a","ios":"levelo://app?vid=a051b4d2-2c6c-4e0e-8aee-6e0d4b2f513a"},"vehicle_type_id":"4","last_reported":1728908255,"current_range_meters":20400,"station_id":"","pricing_plan_id":"cebpf4jnsgd1na2vs0mg"},{"bike_id":"6fd385e8-bb08-4d7c-8518-23287baf14a6","system_id":"levelo_inurba_marseille","lat":43.31475,"lon":5.37303,"is_reserved":false,"is_disabled":false,"rental_uris":{"android":"levelo://app?vid=6fd385e8-bb08-4d7c-8518-23287baf14a6","ios":"levelo://app?vid=6fd385e8-bb08-4d7c-8518-23287baf14a6"},"vehicle_type_id":"4","last_reported":1728908255,"current_range_meters":29600,"station_id":"ce4bgt12rcd13ifvqcd0","pricing_plan_id":"cebpf4jnsgd1na2vs0mg"},{"bike_id":"eaedc49c-645c-4444-a4d2-8456bbc17d70","system_id":"levelo_inurba_marseille","lat":43.29902,"lon":5.43656,"is_reserved":false,"is_disabled":false,"rental_uris":{"android":"levelo://app?vid=eaedc49c-645c-4444-a4d2-8456bbc17d70","ios":"levelo://app?vid=eaedc49c-645c-4444-a4d2-8456bbc17d70"},"vehicle_type_id":"4","last_reported":1728908255,"current_range_meters":15200,"station_id":"ce4bhpp2rcd13ifvqhfg","pricing_plan_id":"cebpf4jnsgd1na2vs0mg"},{"bike_id":"fedf1404-1438-4fe4-877e-19d0319428ee","system_id":"levelo_inurba_marseille","lat":43.24801,"lon":5.37458,"is_reserved":false,"is_disabled":false,"rental_uris":{"android":"levelo://app?vid=fedf1404-1438-4fe4-877e-19d0319428ee","ios":"levelo://app?vid=fedf1404-1438-4fe4-877e-19d0319428ee"},"vehicle_type_id":"4","last_reported":1728908255,"current_range_meters":36800,"station_id":"ce4bhgh2rcd13ifvqfb0","pricing_plan_id":"cebpf4jnsgd1na2vs0mg"},{"bike_id":"ef3ff9b4-060f-4905-ab25-a15311740879","system_id":"levelo_inurba_marseille","lat":43.25003,"lon":5.38922,"is_reserved":false,"is_disabled":false,"rental_uris":{"android":"levelo://app?vid=ef3ff9b4-060f-4905-ab25-a15311740879","ios":"levelo://app?vid=ef3ff9b4-060f-4905-ab25-a15311740879"},"vehicle_type_id":"4","last_reported":1728908255,"current_range_meters":17200,"station_id":"ce4bhgp2rcd13ifvqfd0","pricing_plan_id":"cebpf4jnsgd1na2vs0mg"},{"bike_id":"8d6ee936-64a9-411a-afe6-ea2e97b43d87","system_id":"levelo_inurba_marseille","lat":43.28716,"lon":5.37929,"is_reserved":false,"is_disabled":false,"rental_uris":{"android":"levelo://app?vid=8d6ee936-64a9-411a-afe6-ea2e97b43d87","ios":"levelo://app?vid=8d6ee936-64a9-411a-afe6-ea2e97b43d87"},"vehicle_type_id":"4","last_reported":1728908255,"current_range_meters":39200,"station_id":"ce4bh9p2rcd13ifvqec0","pricing_plan_id":"cebpf4jnsgd1na2vs0mg"},{"bike_id":"543b35a4-a816-4e4e-b35d-6b39206ab939","system_id":"levelo_inurba_marseille","lat":43.23147,"lon":5.4371,"is_reserved":false,"is_disabled":false,"rental_uris":{"android":"levelo://app?vid=543b35a4-a816-4e4e-b35d-6b39206ab939","ios":"levelo://app?vid=543b35a4-a816-4e4e-b35d-6b39206ab939"},"vehicle_type_id":"4","last_reported":1728908255,"current_range_meters":26000,"station_id":"ce4bhmp2rcd13ifvqgog","pricing_plan_id":"cebpf4jnsgd1na2vs0mg"},{"bike_id":"3b995216-0655-48de-8110-5f2484329897","system_id":"levelo_inurba_marseille","lat":43.2996,"lon":5.41319,"is_reserved":false,"is_disabled":false,"rental_uris":{"android":"levelo://app?vid=3b995216-0655-48de-8110-5f2484329897","ios":"levelo://app?vid=3b995216-0655-48de-8110-5f2484329897"},"vehicle_type_id":"4","last_reported":1728908255,"current_range_meters":36800,"station_id":"ce4bhp12rcd13ifvqh9g","pricing_plan_id":"cebpf4jnsgd1na2vs0mg"},{"bike_id":"1b8bfdfe-f0e2-479e-9664-b9c45a24a782","system_id":"levelo_inurba_marseille","lat":43.23152,"lon":5.43703,"is_reserved":false,"is_disabled":false,"rental_uris":{"android":"levelo://app?vid=1b8bfdfe-f0e2-479e-9664-b9c45a24a782","ios":"levelo://app?vid=1b8bfdfe-f0e2-479e-9664-b9c45a24a782"},"vehicle_type_id":"4","last_reported":1728908255,"current_range_meters":16000,"station_id":"ce4bhmp2rcd13ifvqgog","pricing_plan_id":"cebpf4jnsgd1na2vs0mg"},{"bike_id":"a5fe0612-2ba4-4448-a6f4-dda9b1b68d0f","system_id":"levelo_inurba_marseille","lat":43.3018,"lon":5.3662,"is_reserved":false,"is_disabled":false,"rental_uris":{"android":"levelo://app?vid=a5fe0612-2ba4-4448-a6f4-dda9b1b68d0f","ios":"levelo://app?vid=a5fe0612-2ba4-4448-a6f4-dda9b1b68d0f"},"vehicle_type_id":"4","last_reported":1728908255,"current_range_meters":27600,"station_id":"ce4bgrh2rcd13ifvqc8g","pricing_plan_id":"cebpf4jnsgd1na2vs0mg"},{"bike_id":"30773d4c-09ea-44ec-a93b-f8829d65d05a","system_id":"levelo_inurba_marseille","lat":43.2826,"lon":5.35058,"is_reserved":false,"is_disabled":false,"rental_uris":{"android":"levelo://app?vid=30773d4c-09ea-44ec-a93b-f8829d65d05a","ios":"levelo://app?vid=30773d4c-09ea-44ec-a93b-f8829d65d05a"},"vehicle_type_id":"4","last_reported":1728908255,"current_range_meters":18000,"station_id":"ce4bhbp2rcd13ifvqerg","pricing_plan_id":"cebpf4jnsgd1na2vs0mg"},{"bike_id":"1af2813b-98a0-4b62-aaf8-89652b30f639","system_id":"levelo_inurba_marseille","lat":43.22936,"lon":5.35378,"is_reserved":false,"is_disabled":false,"rental_uris":{"android":"levelo://app?vid=1af2813b-98a0-4b62-aaf8-89652b30f639","ios":"levelo://app?vid=1af2813b-98a0-4b62-aaf8-89652b30f639"},"vehicle_type_id":"4","last_reported":1728908255,"current_range_meters":36400,"station_id":"cpo3532slgdg3j2ikp40","pricing_plan_id":"cebpf4jnsgd1na2vs0mg"},{"bike_id":"dcd5cc7d-cf57-48db-b385-7b3ffc8b59c3","system_id":"levelo_inurba_marseille","lat":43.28154,"lon":5.42643,"is_reserved":false,"is_disabled":false,"rental_uris":{"android":"levelo://app?vid=dcd5cc7d-cf57-48db-b385-7b3ffc8b59c3","ios":"levelo://app?vid=dcd5cc7d-cf57-48db-b385-7b3ffc8b59c3"},"vehicle_type_id":"4","last_reported":1728908255,"current_range_meters":3200,"station_id":"ce4bhnh2rcd13ifvqgug","pricing_plan_id":"cebpf4jnsgd1na2vs0mg"},{"bike_id":"cdcb330e-e245-4390-92ef-405700cf96ae","system_id":"levelo_inurba_marseille","lat":43.27807,"lon":5.40709,"is_reserved":false,"is_disabled":false,"rental_uris":{"android":"levelo://app?vid=cdcb330e-e245-4390-92ef-405700cf96ae","ios":"levelo://app?vid=cdcb330e-e245-4390-92ef-405700cf96ae"},"vehicle_type_id":"4","last_reported":1728908255,"current_range_meters":39200,"station_id":"ce4bhnh2rcd13ifvqgtg","pricing_plan_id":"cebpf4jnsgd1na2vs0mg"},{"bike_id":"f93454e1-a669-4c63-a4ca-b572042c7971","system_id":"levelo_inurba_marseille","lat":43.23193,"lon":5.35554,"is_reserved":false,"is_disabled":false,"rental_uris":{"android":"levelo://app?vid=f93454e1-a669-4c63-a4ca-b572042c7971","ios":"levelo://app?vid=f93454e1-a669-4c63-a4ca-b572042c7971"},"vehicle_type_id":"4","last_reported":1728908255,"current_range_meters":30000,"station_id":"ce4bhu92rcd13ifvqi70","pricing_plan_id":"cebpf4jnsgd1na2vs0mg"},{"bike_id":"bbb1feda-cb2b-46ef-9e62-2735321ee000","system_id":"levelo_inurba_marseille","lat":43.28411,"lon":5.37514,"is_reserved":false,"is_disabled":false,"rental_uris":{"android":"levelo://app?vid=bbb1feda-cb2b-46ef-9e62-2735321ee000","ios":"levelo://app?vid=bbb1feda-cb2b-46ef-9e62-2735321ee000"},"vehicle_type_id":"4","last_reported":1728908255,"current_range_meters":10800,"station_id":"ce4bh412rcd13ifvqds0","pricing_plan_id":"cebpf4jnsgd1na2vs0mg"},{"bike_id":"eb30d56c-9104-495d-8110-7cdf1a5ca939","system_id":"levelo_inurba_marseille","lat":43.287129,"lon":5.379358,"is_reserved":false,"is_disabled":false,"rental_uris":{"android":"levelo://app?vid=eb30d56c-9104-495d-8110-7cdf1a5ca939","ios":"levelo://app?vid=eb30d56c-9104-495d-8110-7cdf1a5ca939"},"vehicle_type_id":"4","last_reported":1728908255,"current_range_meters":33200,"station_id":"ce4bh9p2rcd13ifvqec0","pricing_plan_id":"cebpf4jnsgd1na2vs0mg"},{"bike_id":"f89eeca3-f788-45e3-a285-753cb13e4971","system_id":"levelo_inurba_marseille","lat":43.28151,"lon":5.42638,"is_reserved":false,"is_disabled":false,"rental_uris":{"android":"levelo://app?vid=f89eeca3-f788-45e3-a285-753cb13e4971","ios":"levelo://app?vid=f89eeca3-f788-45e3-a285-753cb13e4971"},"vehicle_type_id":"4","last_reported":1728908255,"current_range_meters":20800,"station_id":"ce4bhnh2rcd13ifvqgug","pricing_plan_id":"cebpf4jnsgd1na2vs0mg"},{"bike_id":"6f2687a9-87d8-4587-8ee5-a57a6a2dc87d","system_id":"levelo_inurba_marseille","lat":43.3053,"lon":5.3671,"is_reserved":false,"is_disabled":false,"rental_uris":{"android":"levelo://app?vid=6f2687a9-87d8-4587-8ee5-a57a6a2dc87d","ios":"levelo://app?vid=6f2687a9-87d8-4587-8ee5-a57a6a2dc87d"},"vehicle_type_id":"4","last_reported":1728908255,"current_range_meters":24800,"station_id":"ce4bgrp2rcd13ifvqc9g","pricing_plan_id":"cebpf4jnsgd1na2vs0mg"},{"bike_id":"75d64712-a213-4a1c-afc5-bd5573565a07","system_id":"levelo_inurba_marseille","lat":43.29199,"lon":5.39319,"is_reserved":false,"is_disabled":false,"rental_uris":{"android":"levelo://app?vid=75d64712-a213-4a1c-afc5-bd5573565a07","ios":"levelo://app?vid=75d64712-a213-4a1c-afc5-bd5573565a07"},"vehicle_type_id":"4","last_reported":1728908255,"current_range_meters":38000,"station_id":"ce4bh192rcd13ifvqdd0","pricing_plan_id":"cebpf4jnsgd1na2vs0mg"},{"bike_id":"6a344486-14e7-432e-98bf-b8beed8e06c6","system_id":"levelo_inurba_marseille","lat":43.32336,"lon":5.38328,"is_reserved":false,"is_disabled":false,"rental_uris":{"android":"levelo://app?vid=6a344486-14e7-432e-98bf-b8beed8e06c6","ios":"levelo://app?vid=6a344486-14e7-432e-98bf-b8beed8e06c6"},"vehicle_type_id":"4","last_reported":1728908255,"current_range_meters":35200,"station_id":"","pricing_plan_id":"cebpf4jnsgd1na2vs0mg"},{"bike_id":"aab260c9-2e01-4256-8498-1e6c54401749","system_id":"levelo_inurba_marseille","lat":43.294189,"lon":5.386151,"is_reserved":false,"is_disabled":false,"rental_uris":{"android":"levelo://app?vid=aab260c9-2e01-4256-8498-1e6c54401749","ios":"levelo://app?vid=aab260c9-2e01-4256-8498-1e6c54401749"},"vehicle_type_id":"4","last_reported":1728908255,"current_range_meters":6400,"station_id":"ce4bh2h2rcd13ifvqdh0","pricing_plan_id":"cebpf4jnsgd1na2vs0mg"},{"bike_id":"abae8124-cd80-4e1c-9ddb-d1163cd0dcd0","system_id":"levelo_inurba_marseille","lat":43.23151,"lon":5.43701,"is_reserved":false,"is_disabled":false,"rental_uris":{"android":"levelo://app?vid=abae8124-cd80-4e1c-9ddb-d1163cd0dcd0","ios":"levelo://app?vid=abae8124-cd80-4e1c-9ddb-d1163cd0dcd0"},"vehicle_type_id":"4","last_reported":1728908255,"current_range_meters":30400,"station_id":"ce4bhmp2rcd13ifvqgog","pricing_plan_id":"cebpf4jnsgd1na2vs0mg"},{"bike_id":"366da34e-e16c-4d56-95fd-6ca4cb851724","system_id":"levelo_inurba_marseille","lat":43.260367,"lon":5.375493,"is_reserved":false,"is_disabled":false,"rental_uris":{"android":"levelo://app?vid=366da34e-e16c-4d56-95fd-6ca4cb851724","ios":"levelo://app?vid=366da34e-e16c-4d56-95fd-6ca4cb851724"},"vehicle_type_id":"4","last_reported":1728908255,"current_range_meters":38400,"station_id":"ce4bgv12rcd13ifvqcp0","pricing_plan_id":"cebpf4jnsgd1na2vs0mg"},{"bike_id":"6d6cea07-2417-497d-8cc0-8f2846f016ca","system_id":"levelo_inurba_marseille","lat":43.25488,"lon":5.37647,"is_reserved":false,"is_disabled":false,"rental_uris":{"android":"levelo://app?vid=6d6cea07-2417-497d-8cc0-8f2846f016ca","ios":"levelo://app?vid=6d6cea07-2417-497d-8cc0-8f2846f016ca"},"vehicle_type_id":"4","last_reported":1728908255,"current_range_meters":33600,"station_id":"ce4bhh12rcd13ifvqff0","pricing_plan_id":"cebpf4jnsgd1na2vs0mg"},{"bike_id":"98a17ee6-4b7e-4d34-b2a1-47aa78976e8e","system_id":"levelo_inurba_marseille","lat":43.2834,"lon":5.38094,"is_reserved":false,"is_disabled":false,"rental_uris":{"android":"levelo://app?vid=98a17ee6-4b7e-4d34-b2a1-47aa78976e8e","ios":"levelo://app?vid=98a17ee6-4b7e-4d34-b2a1-47aa78976e8e"},"vehicle_type_id":"4","last_reported":1728908255,"current_range_meters":39200,"station_id":"ce4bh412rcd13ifvqdr0","pricing_plan_id":"cebpf4jnsgd1na2vs0mg"},{"bike_id":"7757af19-536d-4a2a-b304-c0fcc3c54cb6","system_id":"levelo_inurba_marseille","lat":43.3055,"lon":5.36516,"is_reserved":false,"is_disabled":false,"rental_uris":{"android":"levelo://app?vid=7757af19-536d-4a2a-b304-c0fcc3c54cb6","ios":"levelo://app?vid=7757af19-536d-4a2a-b304-c0fcc3c54cb6"},"vehicle_type_id":"4","last_reported":1728908255,"current_range_meters":40000,"station_id":"ce4bgs12rcd13ifvqcag","pricing_plan_id":"cebpf4jnsgd1na2vs0mg"},{"bike_id":"f5cb1c1b-ba30-4a11-ab7c-2a0d2d62f394","system_id":"levelo_inurba_marseille","lat":43.30543,"lon":5.36538,"is_reserved":false,"is_disabled":false,"rental_uris":{"android":"levelo://app?vid=f5cb1c1b-ba30-4a11-ab7c-2a0d2d62f394","ios":"levelo://app?vid=f5cb1c1b-ba30-4a11-ab7c-2a0d2d62f394"},"vehicle_type_id":"4","last_reported":1728908255,"current_range_meters":38800,"station_id":"ce4bgs12rcd13ifvqcag","pricing_plan_id":"cebpf4jnsgd1na2vs0mg"},{"bike_id":"48e5e33c-537a-4596-b29d-3ced331f452e","system_id":"levelo_inurba_marseille","lat":43.30609,"lon":5.3722,"is_reserved":false,"is_disabled":false,"rental_uris":{"android":"levelo://app?vid=48e5e33c-537a-4596-b29d-3ced331f452e","ios":"levelo://app?vid=48e5e33c-537a-4596-b29d-3ced331f452e"},"vehicle_type_id":"4","last_reported":1728908255,"current_range_meters":28400,"station_id":"ce4bgqh2rcd13ifvqc4g","pricing_plan_id":"cebpf4jnsgd1na2vs0mg"},{"bike_id":"754da881-cbc9-4b35-beb2-51d368048841","system_id":"levelo_inurba_marseille","lat":43.33744,"lon":5.37451,"is_reserved":false,"is_disabled":false,"rental_uris":{"android":"levelo://app?vid=754da881-cbc9-4b35-beb2-51d368048841","ios":"levelo://app?vid=754da881-cbc9-4b35-beb2-51d368048841"},"vehicle_type_id":"4","last_reported":1728908255,"current_range_meters":37600,"station_id":"","pricing_plan_id":"cebpf4jnsgd1na2vs0mg"},{"bike_id":"2705420b-de2f-4c11-a308-a02e08d60ca4","system_id":"levelo_inurba_marseille","lat":43.29785,"lon":5.38105,"is_reserved":false,"is_disabled":false,"rental_uris":{"android":"levelo://app?vid=2705420b-de2f-4c11-a308-a02e08d60ca4","ios":"levelo://app?vid=2705420b-de2f-4c11-a308-a02e08d60ca4"},"vehicle_type_id":"4","last_reported":1728908255,"current_range_meters":37600,"station_id":"ce4bgip2rcd13ifvqbb0","pricing_plan_id":"cebpf4jnsgd1na2vs0mg"},{"bike_id":"4ce52676-2e56-416f-ae92-7286edc85842","system_id":"levelo_inurba_marseille","lat":43.28105,"lon":5.37831,"is_reserved":false,"is_disabled":false,"rental_uris":{"android":"levelo://app?vid=4ce52676-2e56-416f-ae92-7286edc85842","ios":"levelo://app?vid=4ce52676-2e56-416f-ae92-7286edc85842"},"vehicle_type_id":"4","last_reported":1728908255,"current_range_meters":37600,"station_id":"ce4bha12rcd13ifvqee0","pricing_plan_id":"cebpf4jnsgd1na2vs0mg"},{"bike_id":"1b5240f0-280b-4b95-ac31-d51f3dd7cad6","system_id":"levelo_inurba_marseille","lat":43.26496,"lon":5.39538,"is_reserved":false,"is_disabled":false,"rental_uris":{"android":"levelo://app?vid=1b5240f0-280b-4b95-ac31-d51f3dd7cad6","ios":"levelo://app?vid=1b5240f0-280b-4b95-ac31-d51f3dd7cad6"},"vehicle_type_id":"4","last_reported":1728908255,"current_range_meters":32400,"station_id":"ce4bhi12rcd13ifvqfq0","pricing_plan_id":"cebpf4jnsgd1na2vs0mg"},{"bike_id":"22d41f22-4444-4c0a-bb3b-168d7adf8437","system_id":"levelo_inurba_marseille","lat":43.25581,"lon":5.38233,"is_reserved":false,"is_disabled":false,"rental_uris":{"android":"levelo://app?vid=22d41f22-4444-4c0a-bb3b-168d7adf8437","ios":"levelo://app?vid=22d41f22-4444-4c0a-bb3b-168d7adf8437"},"vehicle_type_id":"4","last_reported":1728908255,"current_range_meters":26000,"station_id":"ce4bhih2rcd13ifvqfs0","pricing_plan_id":"cebpf4jnsgd1na2vs0mg"},{"bike_id":"bac23d84-eb4f-4923-b8b7-df5ea3c91f4d","system_id":"levelo_inurba_marseille","lat":43.2655,"lon":5.37287,"is_reserved":false,"is_disabled":false,"rental_uris":{"android":"levelo://app?vid=bac23d84-eb4f-4923-b8b7-df5ea3c91f4d","ios":"levelo://app?vid=bac23d84-eb4f-4923-b8b7-df5ea3c91f4d"},"vehicle_type_id":"4","last_reported":1728908255,"current_range_meters":38000,"station_id":"ce4bhg12rcd13ifvqf70","pricing_plan_id":"cebpf4jnsgd1na2vs0mg"},{"bike_id":"d27f8a6b-de71-4d2c-aeb8-494d8b4a7581","system_id":"levelo_inurba_marseille","lat":43.30319,"lon":5.39215,"is_reserved":false,"is_disabled":false,"rental_uris":{"android":"levelo://app?vid=d27f8a6b-de71-4d2c-aeb8-494d8b4a7581","ios":"levelo://app?vid=d27f8a6b-de71-4d2c-aeb8-494d8b4a7581"},"vehicle_type_id":"4","last_reported":1728908255,"current_range_meters":18000,"station_id":"ce4bgkh2rcd13ifvqbk0","pricing_plan_id":"cebpf4jnsgd1na2vs0mg"},{"bike_id":"e051a478-2564-4001-a615-c2c53c6ace3a","system_id":"levelo_inurba_marseille","lat":43.25588,"lon":5.3823,"is_reserved":false,"is_disabled":false,"rental_uris":{"android":"levelo://app?vid=e051a478-2564-4001-a615-c2c53c6ace3a","ios":"levelo://app?vid=e051a478-2564-4001-a615-c2c53c6ace3a"},"vehicle_type_id":"4","last_reported":1728908255,"current_range_meters":28400,"station_id":"ce4bhih2rcd13ifvqfs0","pricing_plan_id":"cebpf4jnsgd1na2vs0mg"},{"bike_id":"8e4310b3-8820-4ff1-8c01-58d119cd8be3","system_id":"levelo_inurba_marseille","lat":43.30263,"lon":5.37715,"is_reserved":false,"is_disabled":false,"rental_uris":{"android":"levelo://app?vid=8e4310b3-8820-4ff1-8c01-58d119cd8be3","ios":"levelo://app?vid=8e4310b3-8820-4ff1-8c01-58d119cd8be3"},"vehicle_type_id":"4","last_reported":1728908255,"current_range_meters":37600,"station_id":"ce4bguh2rcd13ifvqcj0","pricing_plan_id":"cebpf4jnsgd1na2vs0mg"},{"bike_id":"f71cac26-9764-45df-a380-b2483ebaa285","system_id":"levelo_inurba_marseille","lat":43.295258,"lon":5.38537,"is_reserved":false,"is_disabled":false,"rental_uris":{"android":"levelo://app?vid=f71cac26-9764-45df-a380-b2483ebaa285","ios":"levelo://app?vid=f71cac26-9764-45df-a380-b2483ebaa285"},"vehicle_type_id":"4","last_reported":1728908255,"current_range_meters":20000,"station_id":"ce4bgih2rcd13ifvqba0","pricing_plan_id":"cebpf4jnsgd1na2vs0mg"},{"bike_id":"b250cbcd-46bd-44b1-8819-7961f8e6d330","system_id":"levelo_inurba_marseille","lat":43.24388,"lon":5.37052,"is_reserved":false,"is_disabled":false,"rental_uris":{"android":"levelo://app?vid=b250cbcd-46bd-44b1-8819-7961f8e6d330","ios":"levelo://app?vid=b250cbcd-46bd-44b1-8819-7961f8e6d330"},"vehicle_type_id":"4","last_reported":1728908255,"current_range_meters":39200,"station_id":"ce4bhhh2rcd13ifvqfk0","pricing_plan_id":"cebpf4jnsgd1na2vs0mg"},{"bike_id":"8a38e389-9320-4fcb-b1ab-50e9c9a999be","system_id":"levelo_inurba_marseille","lat":43.29222,"lon":5.36054,"is_reserved":false,"is_disabled":false,"rental_uris":{"android":"levelo://app?vid=8a38e389-9320-4fcb-b1ab-50e9c9a999be","ios":"levelo://app?vid=8a38e389-9320-4fcb-b1ab-50e9c9a999be"},"vehicle_type_id":"4","last_reported":1728908255,"current_range_meters":32400,"station_id":"ce4bhbh2rcd13ifvqeqg","pricing_plan_id":"cebpf4jnsgd1na2vs0mg"},{"bike_id":"00a5f327-d584-4c8c-bd69-c9ad8a103ce9","system_id":"levelo_inurba_marseille","lat":43.24651,"lon":5.38896,"is_reserved":false,"is_disabled":false,"rental_uris":{"android":"levelo://app?vid=00a5f327-d584-4c8c-bd69-c9ad8a103ce9","ios":"levelo://app?vid=00a5f327-d584-4c8c-bd69-c9ad8a103ce9"},"vehicle_type_id":"4","last_reported":1728908255,"current_range_meters":30000,"station_id":"ce4bhg12rcd13ifvqf60","pricing_plan_id":"cebpf4jnsgd1na2vs0mg"},{"bike_id":"cfeeb3dd-9fea-400a-bcf0-40f5a9631378","system_id":"levelo_inurba_marseille","lat":43.33774,"lon":5.37438,"is_reserved":false,"is_disabled":false,"rental_uris":{"android":"levelo://app?vid=cfeeb3dd-9fea-400a-bcf0-40f5a9631378","ios":"levelo://app?vid=cfeeb3dd-9fea-400a-bcf0-40f5a9631378"},"vehicle_type_id":"4","last_reported":1728908255,"current_range_meters":36800,"station_id":"","pricing_plan_id":"cebpf4jnsgd1na2vs0mg"},{"bike_id":"78679ab4-29ca-474c-8aa1-dc3e94d24bee","system_id":"levelo_inurba_marseille","lat":43.29031,"lon":5.38642,"is_reserved":false,"is_disabled":false,"rental_uris":{"android":"levelo://app?vid=78679ab4-29ca-474c-8aa1-dc3e94d24bee","ios":"levelo://app?vid=78679ab4-29ca-474c-8aa1-dc3e94d24bee"},"vehicle_type_id":"4","last_reported":1728908255,"current_range_meters":27600,"station_id":"ce4bh4p2rcd13ifvqe0g","pricing_plan_id":"cebpf4jnsgd1na2vs0mg"},{"bike_id":"6a884df4-4a1b-4c37-baf6-2eaf29b06489","system_id":"levelo_inurba_marseille","lat":43.25833,"lon":5.39431,"is_reserved":false,"is_disabled":false,"rental_uris":{"android":"levelo://app?vid=6a884df4-4a1b-4c37-baf6-2eaf29b06489","ios":"levelo://app?vid=6a884df4-4a1b-4c37-baf6-2eaf29b06489"},"vehicle_type_id":"4","last_reported":1728908255,"current_range_meters":37600,"station_id":"ce4bhip2rcd13ifvqft0","pricing_plan_id":"cebpf4jnsgd1na2vs0mg"},{"bike_id":"f269126c-1b0b-4a1a-a1d6-f8c3716f5336","system_id":"levelo_inurba_marseille","lat":43.23194,"lon":5.35554,"is_reserved":false,"is_disabled":false,"rental_uris":{"android":"levelo://app?vid=f269126c-1b0b-4a1a-a1d6-f8c3716f5336","ios":"levelo://app?vid=f269126c-1b0b-4a1a-a1d6-f8c3716f5336"},"vehicle_type_id":"4","last_reported":1728908255,"current_range_meters":37600,"station_id":"ce4bhu92rcd13ifvqi70","pricing_plan_id":"cebpf4jnsgd1na2vs0mg"},{"bike_id":"d10a677a-ef4e-420e-8d52-c97c77dfc8f9","system_id":"levelo_inurba_marseille","lat":43.29966,"lon":5.3717,"is_reserved":false,"is_disabled":false,"rental_uris":{"android":"levelo://app?vid=d10a677a-ef4e-420e-8d52-c97c77dfc8f9","ios":"levelo://app?vid=d10a677a-ef4e-420e-8d52-c97c77dfc8f9"},"vehicle_type_id":"4","last_reported":1728908255,"current_range_meters":38000,"station_id":"ce4bgr92rcd13ifvqc7g","pricing_plan_id":"cebpf4jnsgd1na2vs0mg"},{"bike_id":"6f4b79a1-feca-496a-a641-6bdad1c9828a","system_id":"levelo_inurba_marseille","lat":43.32483,"lon":5.36574,"is_reserved":false,"is_disabled":false,"rental_uris":{"android":"levelo://app?vid=6f4b79a1-feca-496a-a641-6bdad1c9828a","ios":"levelo://app?vid=6f4b79a1-feca-496a-a641-6bdad1c9828a"},"vehicle_type_id":"4","last_reported":1728908255,"current_range_meters":40000,"station_id":"ce4bhs12rcd13ifvqhvg","pricing_plan_id":"cebpf4jnsgd1na2vs0mg"},{"bike_id":"2c50019b-b69b-4123-b399-30cf31705ff2","system_id":"levelo_inurba_marseille","lat":43.26202,"lon":5.37928,"is_reserved":false,"is_disabled":false,"rental_uris":{"android":"levelo://app?vid=2c50019b-b69b-4123-b399-30cf31705ff2","ios":"levelo://app?vid=2c50019b-b69b-4123-b399-30cf31705ff2"},"vehicle_type_id":"4","last_reported":1728908255,"current_range_meters":38000,"station_id":"ce4bhjp2rcd13ifvqg90","pricing_plan_id":"cebpf4jnsgd1na2vs0mg"},{"bike_id":"b4ea2e8b-b251-49e0-8586-18d22c5ee058","system_id":"levelo_inurba_marseille","lat":43.30948,"lon":5.39023,"is_reserved":false,"is_disabled":false,"rental_uris":{"android":"levelo://app?vid=b4ea2e8b-b251-49e0-8586-18d22c5ee058","ios":"levelo://app?vid=b4ea2e8b-b251-49e0-8586-18d22c5ee058"},"vehicle_type_id":"4","last_reported":1728908255,"current_range_meters":32800,"station_id":"ce4bgup2rcd13ifvqco0","pricing_plan_id":"cebpf4jnsgd1na2vs0mg"},{"bike_id":"4b0d6beb-6a7f-4f8f-9cd8-0dfbcda58893","system_id":"levelo_inurba_marseille","lat":43.29882,"lon":5.38912,"is_reserved":false,"is_disabled":false,"rental_uris":{"android":"levelo://app?vid=4b0d6beb-6a7f-4f8f-9cd8-0dfbcda58893","ios":"levelo://app?vid=4b0d6beb-6a7f-4f8f-9cd8-0dfbcda58893"},"vehicle_type_id":"4","last_reported":1728908255,"current_range_meters":29600,"station_id":"ce4bh392rcd13ifvqdl0","pricing_plan_id":"cebpf4jnsgd1na2vs0mg"},