{"last_updated":1767478215,"ttl":60,"version":"2.2","data":{"bikes":[{"bike_id":"b62193e6-744b-4181-8bcc-23d13e78d12b","system_id":"levelo_inurba_marseille","lat":43.26558,"lon":5.40318,"is_reserved":false,"is_disabled":false,"rental_uris":{"android":"levelo://app?vid=b62193e6-744b-4181-8bcc-23d13e78d12b","ios":"levelo://app?vid=b62193e6-744b-4181-8bcc-23d13e78d12b"},"vehicle_type_id":"4","last_reported":1767478216,"current_range_meters":2800,"station_id":"ce4bhmp2rcd13ifvqgng","pricing_plan_id":"cebpf4jnsgd1na2vs0mg"},{"bike_id":"10f3bcfa-52fd-4457-a83a-e6849d98ff8f","system_id":"levelo_inurba_marseille","lat":43.24958,"lon":5.40478,"is_reserved":false,"is_disabled":false,"rental_uris":{"android":"levelo://app?vid=10f3bcfa-52fd-4457-a83a-e6849d98ff8f","ios":"levelo://app?vid=10f3bcfa-52fd-4457-a83a-e6849d98ff8f"},"vehicle_type_id":"4","last_reported":1767478216,"current_range_meters":2800,"station_id":"st_d2ngiaodas8pm72gd1h0","pricing_plan_id":"cebpf4jnsgd1na2vs0mg"},{"bike_id":"264f6b0f-68ed-483a-a0c0-7b40e6e8d241","system_id":"levelo_inurba_marseille","lat":43.29257,"lon":5.38442,"is_reserved":false,"is_disabled":true,"rental_uris":{"android":"levelo://app?vid=264f6b0f-68ed-483a-a0c0-7b40e6e8d241","ios":"levelo://app?vid=264f6b0f-68ed-483a-a0c0-7b40e6e8d241"},"vehicle_type_id":"4","last_reported":1767478216,"current_range_meters":2800,"station_id":"ce4bh692rcd13ifvqea0","pricing_plan_id":"cebpf4jnsgd1na2vs0mg"},{"bike_id":"9feea015-e373-4e65-a8f2-66772efb3348","system_id":"levelo_inurba_marseille","lat":43.24756,"lon":5.37608,"is_reserved":false,"is_disabled":false,"rental_uris":{"android":"levelo://app?vid=9feea015-e373-4e65-a8f2-66772efb3348","ios":"levelo://app?vid=9feea015-e373-4e65-a8f2-66772efb3348"},"vehicle_type_id":"4","last_reported":1767478216,"current_range_meters":2800,"station_id":"","pricing_plan_id":"cebpf4jnsgd1na2vs0mg"},{"bike_id":"596f9555-cc2e-4719-a2eb-a2171c19b08c","system_id":"levelo_inurba_marseille","lat":43.3042,"lon":5.41287,"is_reserved":false,"is_disabled":false,"rental_uris":{"android":"levelo://app?vid=596f9555-cc2e-4719-a2eb-a2171c19b08c","ios":"levelo://app?vid=596f9555-cc2e-4719-a2eb-a2171c19b08c"},"vehicle_type_id":"4","last_reported":1767478216,"current_range_meters":2800,"station_id":"ce4bhop2rcd13ifvqh8g","pricing_plan_id":"cebpf4jnsgd1na2vs0mg"},{"bike_id":"b6b7a146-8a76-4eb7-abd8-58e5d94b3994","system_id":"levelo_inurba_marseille","lat":43.24653,"lon":5.43136,"is_reserved":false,"is_disabled":false,"rental_uris":{"android":"levelo://app?vid=b6b7a146-8a76-4eb7-abd8-58e5d94b3994","ios":"levelo://app?vid=b6b7a146-8a76-4eb7-abd8-58e5d94b3994"},"vehicle_type_id":"4","last_reported":1767478216,"current_range_meters":2800,"station_id":"st_d2m6c4gdas8pm72e190g","pricing_plan_id":"cebpf4jnsgd1na2vs0mg"},{"bike_id":"9cd7b546-9fdb-45b8-982a-6c7bbc626fbf","system_id":"levelo_inurba_marseille","lat":43.30411,"lon":5.40492,"is_reserved":false,"is_disabled":false,"rental_uris":{"android":"levelo://app?vid=9cd7b546-9fdb-45b8-982a-6c7bbc626fbf","ios":"levelo://app?vid=9cd7b546-9fdb-45b8-982a-6c7bbc626fbf"},"vehicle_type_id":"4","last_reported":1767478216,"current_range_meters":2800,"station_id":"","pricing_plan_id":"cebpf4jnsgd1na2vs0mg"},{"bike_id":"b6633023-7126-4061-b725-029707af05dd","system_id":"levelo_inurba_marseille","lat":43.28085,"lon":5.39661,"is_reserved":false,"is_disabled":false,"rental_uris":{"android":"levelo://app?vid=b6633023-7126-4061-b725-029707af05dd","ios":"levelo://app?vid=b6633023-7126-4061-b725-029707af05dd"},"vehicle_type_id":"4","last_reported":1767478216,"current_range_meters":2800,"station_id":"ce4bho12rcd13ifvqh2g","pricing_plan_id":"cebpf4jnsgd1na2vs0mg"},{"bike_id":"43f42f89-c2a5-4108-b7ae-78a9cea84d21","system_id":"levelo_inurba_marseille","lat":43.31281,"lon":5.40165,"is_reserved":false,"is_disabled":false,"rental_uris":{"android":"levelo://app?vid=43f42f89-c2a5-4108-b7ae-78a9cea84d21","ios":"levelo://app?vid=43f42f89-c2a5-4108-b7ae-78a9cea84d21"},"vehicle_type_id":"4","last_reported":1767478216,"current_range_meters":2800,"station_id":"ce4bh092rcd13ifvqd30","pricing_plan_id":"cebpf4jnsgd1na2vs0mg"},{"bike_id":"2fb70dce-6adc-44dd-925f-e8d0e186f154","system_id":"levelo_inurba_marseille","lat":43.27328,"lon":5.39089,"is_reserved":false,"is_disabled":false,"rental_uris":{"android":"levelo://app?vid=2fb70dce-6adc-44dd-925f-e8d0e186f154","ios":"levelo://app?vid=2fb70dce-6adc-44dd-925f-e8d0e186f154"},"vehicle_type_id":"4","last_reported":1767478216,"current_range_meters":2800,"station_id":"ce4bhgp2rcd13ifvqfe0","pricing_plan_id":"cebpf4jnsgd1na2vs0mg"},{"bike_id":"24df9d62-1935-48d1-97c2-93be25be3729","system_id":"levelo_inurba_marseille","lat":43.287066,"lon":5.37373,"is_reserved":false,"is_disabled":false,"rental_uris":{"android":"levelo://app?vid=24df9d62-1935-48d1-97c2-93be25be3729","ios":"levelo://app?vid=24df9d62-1935-48d1-97c2-93be25be3729"},"vehicle_type_id":"4","last_reported":1767478216,"current_range_meters":3200,"station_id":"","pricing_plan_id":"cebpf4jnsgd1na2vs0mg"},{"bike_id":"c7520a13-b022-4cba-860a-1d0a7964595c","system_id":"levelo_inurba_marseille","lat":43.23069,"lon":5.35493,"is_reserved":false,"is_disabled":false,"rental_uris":{"android":"levelo://app?vid=c7520a13-b022-4cba-860a-1d0a7964595c","ios":"levelo://app?vid=c7520a13-b022-4cba-860a-1d0a7964595c"},"vehicle_type_id":"4","last_reported":1767478216,"current_range_meters":3200,"station_id":"cpo3342slgdg3j2ifvpg","pricing_plan_id":"cebpf4jnsgd1na2vs0mg"},{"bike_id":"3e9b8a52-1c26-4230-9ad9-77fb07c3ca7e","system_id":"levelo_inurba_marseille","lat":43.314971,"lon":5.373154,"is_reserved":false,"is_disabled":false,"rental_uris":{"android":"levelo://app?vid=3e9b8a52-1c26-4230-9ad9-77fb07c3ca7e","ios":"levelo://app?vid=3e9b8a52-1c26-4230-9ad9-77fb07c3ca7e"},"vehicle_type_id":"4","last_reported":1767478216,"current_range_meters":3200,"station_id":"","pricing_plan_id":"cebpf4jnsgd1na2vs0mg"},{"bike_id":"222fb9ec-2875-4ac5-9c40-850f5a12dca5","system_id":"levelo_inurba_marseille","lat":43.22551,"lon":5.41638,"is_reserved":false,"is_disabled":false,"rental_uris":{"android":"levelo://app?vid=222fb9ec-2875-4ac5-9c40-850f5a12dca5","ios":"levelo://app?vid=222fb9ec-2875-4ac5-9c40-850f5a12dca5"},"vehicle_type_id":"4","last_reported":1767478216,"current_range_meters":3200,"station_id":"st_d2o4gvlbi1j2169b742g","pricing_plan_id":"cebpf4jnsgd1na2vs0mg"},{"bike_id":"d4ff50f4-bca8-4146-b72e-2da35f00941e","system_id":"levelo_inurba_marseille","lat":43.29594,"lon":5.38084,"is_reserved":false,"is_disabled":false,"rental_uris":{"android":"levelo://app?vid=d4ff50f4-bca8-4146-b72e-2da35f00941e","ios":"levelo://app?vid=d4ff50f4-bca8-4146-b72e-2da35f00941e"},"vehicle_type_id":"4","last_reported":1767478216,"current_range_meters":3200,"station_id":"ce4bgl12rcd13ifvqbo0","pricing_plan_id":"cebpf4jnsgd1na2vs0mg"},{"bike_id":"38916ac6-b174-4c0d-8647-ba2725fe2872","system_id":"levelo_inurba_marseille","lat":43.284177,"lon":5.349837,"is_reserved":false,"is_disabled":false,"rental_uris":{"android":"levelo://app?vid=38916ac6-b174-4c0d-8647-ba2725fe2872","ios":"levelo://app?vid=38916ac6-b174-4c0d-8647-ba2725fe2872"},"vehicle_type_id":"4","last_reported":1767478216,"current_range_meters":3200,"station_id":"ce4bhbh2rcd13ifvqepg","pricing_plan_id":"cebpf4jnsgd1na2vs0mg"},{"bike_id":"0d6bb5ad-dcd1-405b-b68d-99b30db1c271","system_id":"levelo_inurba_marseille","lat":43.27864,"lon":5.3861,"is_reserved":false,"is_disabled":false,"rental_uris":{"android":"levelo://app?vid=0d6bb5ad-dcd1-405b-b68d-99b30db1c271","ios":"levelo://app?vid=0d6bb5ad-dcd1-405b-b68d-99b30db1c271"},"vehicle_type_id":"4","last_reported":1767478216,"current_range_meters":3200,"station_id":"","pricing_plan_id":"cebpf4jnsgd1na2vs0mg"},{"bike_id":"0ddbb058-8afb-4d79-935f-599f6876fb2a","system_id":"levelo_inurba_marseille","lat":43.288498,"lon":5.393142,"is_reserved":false,"is_disabled":false,"rental_uris":{"android":"levelo://app?vid=0ddbb058-8afb-4d79-935f-599f6876fb2a","ios":"levelo://app?vid=0ddbb058-8afb-4d79-935f-599f6876fb2a"},"vehicle_type_id":"4","last_reported":1767478216,"current_range_meters":3200,"station_id":"ce4bh2p2rcd13ifvqdi0","pricing_plan_id":"cebpf4jnsgd1na2vs0mg"},{"bike_id":"ce86fdf6-e10c-40d8-8f1d-92c00382a5b2","system_id":"levelo_inurba_marseille","lat":43.24396,"lon":5.37076,"is_reserved":false,"is_disabled":false,"rental_uris":{"android":"levelo://app?vid=ce86fdf6-e10c-40d8-8f1d-92c00382a5b2","ios":"levelo://app?vid=ce86fdf6-e10c-40d8-8f1d-92c00382a5b2"},"vehicle_type_id":"4","last_reported":1767478216,"current_range_meters":3200,"station_id":"ce4bhhh2rcd13ifvqfk0","pricing_plan_id":"cebpf4jnsgd1na2vs0mg"},{"bike_id":"2aad5c19-7962-4a02-9f37-3368ef728fe6","system_id":"levelo_inurba_marseille","lat":43.27501,"lon":5.4245,"is_reserved":false,"is_disabled":false,"rental_uris":{"android":"levelo://app?vid=2aad5c19-7962-4a02-9f37-3368ef728fe6","ios":"levelo://app?vid=2aad5c19-7962-4a02-9f37-3368ef728fe6"},"vehicle_type_id":"4","last_reported":1767478216,"current_range_meters":3600,"station_id":"ce4bhn92rcd13ifvqgrg","pricing_plan_id":"cebpf4jnsgd1na2vs0mg"},{"bike_id":"d43412f7-1927-4309-a5fd-7bdd488f607d","system_id":"levelo_inurba_marseille","lat":43.23146,"lon":5.43701,"is_reserved":false,"is_disabled":false,"rental_uris":{"android":"levelo://app?vid=d43412f7-1927-4309-a5fd-7bdd488f607d","ios":"levelo://app?vid=d43412f7-1927-4309-a5fd-7bdd488f607d"},"vehicle_type_id":"4","last_reported":1767478216,"current_range_meters":3600,"station_id":"ce4bhmp2rcd13ifvqgog","pricing_plan_id":"cebpf4jnsgd1na2vs0mg"},{"bike_id":"649b874c-2158-4c53-8651-f5e61cfdd6d4","system_id":"levelo_inurba_marseille","lat":43.22538,"lon":5.34837,"is_reserved":false,"is_disabled":false,"rental_uris":{"android":"levelo://app?vid=649b874c-2158-4c53-8651-f5e61cfdd6d4","ios":"levelo://app?vid=649b874c-2158-4c53-8651-f5e61cfdd6d4"},"vehicle_type_id":"4","last_reported":1767478216,"current_range_meters":3600,"station_id":"","pricing_plan_id":"cebpf4jnsgd1na2vs0mg"},{"bike_id":"b1ea01e8-bfb1-4c5d-927e-78316f3a4fd0","system_id":"levelo_inurba_marseille","lat":43.24394,"lon":5.37072,"is_reserved":false,"is_disabled":false,"rental_uris":{"android":"levelo://app?vid=b1ea01e8-bfb1-4c5d-927e-78316f3a4fd0","ios":"levelo://app?vid=b1ea01e8-bfb1-4c5d-927e-78316f3a4fd0"},"vehicle_type_id":"4","last_reported":1767478216,"current_range_meters":3600,"station_id":"ce4bhhh2rcd13ifvqfk0","pricing_plan_id":"cebpf4jnsgd1na2vs0mg"},{"bike_id":"4df93d8e-8e9d-4dff-aee2-fd2272d599f0","system_id":"levelo_inurba_marseille","lat":43.22923,"lon":5.35419,"is_reserved":false,"is_disabled":false,"rental_uris":{"android":"levelo://app?vid=4df93d8e-8e9d-4dff-aee2-fd2272d599f0","ios":"levelo://app?vid=4df93d8e-8e9d-4dff-aee2-fd2272d599f0"},"vehicle_type_id":"4","last_reported":1767478216,"current_range_meters":3600,"station_id":"cpo3532slgdg3j2ikp40","pricing_plan_id":"cebpf4jnsgd1na2vs0mg"},{"bike_id":"07221466-440f-403d-96a6-d3ba4ffe9dc9","system_id":"levelo_inurba_marseille","lat":43.2917,"lon":5.37152,"is_reserved":false,"is_disabled":false,"rental_uris":{"android":"levelo://app?vid=07221466-440f-403d-96a6-d3ba4ffe9dc9","ios":"levelo://app?vid=07221466-440f-403d-96a6-d3ba4ffe9dc9"},"vehicle_type_id":"4","last_reported":1767478216,"current_range_meters":3600,"station_id":"ce4bha92rcd13ifvqeh0","pricing_plan_id":"cebpf4jnsgd1na2vs0mg"},{"bike_id":"4e907bb1-c62a-4412-977e-ab28c5745a26","system_id":"levelo_inurba_marseille","lat":43.29985,"lon":5.38507,"is_reserved":false,"is_disabled":false,"rental_uris":{"android":"levelo://app?vid=4e907bb1-c62a-4412-977e-ab28c5745a26","ios":"levelo://app?vid=4e907bb1-c62a-4412-977e-ab28c5745a26"},"vehicle_type_id":"4","last_reported":1767478216,"current_range_meters":4000,"station_id":"ce4bgj92rcd13ifvqbd0","pricing_plan_id":"cebpf4jnsgd1na2vs0mg"},{"bike_id":"61fae4ff-2397-4842-852a-e1069beef8c4","system_id":"levelo_inurba_marseille","lat":43.2856,"lon":5.44069,"is_reserved":false,"is_disabled":false,"rental_uris":{"android":"levelo://app?vid=61fae4ff-2397-4842-852a-e1069beef8c4","ios":"levelo://app?vid=61fae4ff-2397-4842-852a-e1069beef8c4"},"vehicle_type_id":"4","last_reported":1767478216,"current_range_meters":4000,"station_id":"st_d3j3df2ikq2c7380ej80","pricing_plan_id":"cebpf4jnsgd1na2vs0mg"},{"bike_id":"70863109-1d9f-4cf0-8c43-29a5e3efd5a3","system_id":"levelo_inurba_marseille","lat":43.28,"lon":5.40405,"is_reserved":false,"is_disabled":false,"rental_uris":{"android":"levelo://app?vid=70863109-1d9f-4cf0-8c43-29a5e3efd5a3","ios":"levelo://app?vid=70863109-1d9f-4cf0-8c43-29a5e3efd5a3"},"vehicle_type_id":"4","last_reported":1767478216,"current_range_meters":4000,"station_id":"","pricing_plan_id":"cebpf4jnsgd1na2vs0mg"},{"bike_id":"72890b75-5ba0-49b6-b0d9-0c2ee0871d18","system_id":"levelo_inurba_marseille","lat":43.2953,"lon":5.38554,"is_reserved":false,"is_disabled":false,"rental_uris":{"android":"levelo://app?vid=72890b75-5ba0-49b6-b0d9-0c2ee0871d18","ios":"levelo://app?vid=72890b75-5ba0-49b6-b0d9-0c2ee0871d18"},"vehicle_type_id":"4","last_reported":1767478216,"current_range_meters":4000,"station_id":"ce4bgih2rcd13ifvqba0","pricing_plan_id":"cebpf4jnsgd1na2vs0mg"},{"bike_id":"135f5aae-6876-4e42-bdaa-6c13991f4488","system_id":"levelo_inurba_marseille","lat":43.24158,"lon":5.36385,"is_reserved":false,"is_disabled":false,"rental_uris":{"android":"levelo://app?vid=135f5aae-6876-4e42-bdaa-6c13991f4488","ios":"levelo://app?vid=135f5aae-6876-4e42-bdaa-6c13991f4488"},"vehicle_type_id":"4","last_reported":1767478216,"current_range_meters":4000,"station_id":"cpo36qri1sfpv3e86is0","pricing_plan_id":"cebpf4jnsgd1na2vs0mg"},{"bike_id":"4278291f-1d21-4880-a0e3-52116de91cbe","system_id":"levelo_inurba_marseille","lat":43.2294,"lon":5.35364,"is_reserved":false,"is_disabled":false,"rental_uris":{"android":"levelo://app?vid=4278291f-1d21-4880-a0e3-52116de91cbe","ios":"levelo://app?vid=4278291f-1d21-4880-a0e3-52116de91cbe"},"vehicle_type_id":"4","last_reported":1767478216,"current_range_meters":4400,"station_id":"cpo3532slgdg3j2ikp40","pricing_plan_id":"cebpf4jnsgd1na2vs0mg"},{"bike_id":"055a4ca7-bca3-4cb6-bb50-804fce11abb5","system_id":"levelo_inurba_marseille","lat":43.297091,"lon":5.365844,"is_reserved":false,"is_disabled":false,"rental_uris":{"android":"levelo://app?vid=055a4ca7-bca3-4cb6-bb50-804fce11abb5","ios":"levelo://app?vid=055a4ca7-bca3-4cb6-bb50-804fce11abb5"},"vehicle_type_id":"4","last_reported":1767478216,"current_range_meters":4400,"station_id":"ce4bgn12rcd13ifvqbt0","pricing_plan_id":"cebpf4jnsgd1na2vs0mg"},{"bike_id":"83c93d47-f18b-4628-910f-4db9fa42d2c3","system_id":"levelo_inurba_marseille","lat":43.24657,"lon":5.38155,"is_reserved":false,"is_disabled":false,"rental_uris":{"android":"levelo://app?vid=83c93d47-f18b-4628-910f-4db9fa42d2c3","ios":"levelo://app?vid=83c93d47-f18b-4628-910f-4db9fa42d2c3"},"vehicle_type_id":"4","last_reported":1767478216,"current_range_meters":4400,"station_id":"ce4bhih2rcd13ifvqfr0","pricing_plan_id":"cebpf4jnsgd1na2vs0mg"},{"bike_id":"65131df1-0bed-43f7-938b-a392665de4f0","system_id":"levelo_inurba_marseille","lat":43.27062,"lon":5.42259,"is_reserved":false,"is_disabled":false,"rental_uris":{"android":"levelo://app?vid=65131df1-0bed-43f7-938b-a392665de4f0","ios":"levelo://app?vid=65131df1-0bed-43f7-938b-a392665de4f0"},"vehicle_type_id":"4","last_reported":1767478216,"current_range_meters":4400,"station_id":"ce4bhk92rcd13ifvqgb0","pricing_plan_id":"cebpf4jnsgd1na2vs0mg"},{"bike_id":"67bf8f90-a5df-42e7-b267-9ae66edff758","system_id":"levelo_inurba_marseille","lat":43.3062,"lon":5.37621,"is_reserved":false,"is_disabled":false,"rental_uris":{"android":"levelo://app?vid=67bf8f90-a5df-42e7-b267-9ae66edff758","ios":"levelo://app?vid=67bf8f90-a5df-42e7-b267-9ae66edff758"},"vehicle_type_id":"4","last_reported":1767478216,"current_range_meters":4400,"station_id":"","pricing_plan_id":"cebpf4jnsgd1na2vs0mg"},{"bike_id":"6f089a7e-e81b-483c-a174-dfec5ca5abcf","system_id":"levelo_inurba_marseille","lat":43.24074,"lon":5.37759,"is_reserved":false,"is_disabled":false,"rental_uris":{"android":"levelo://app?vid=6f089a7e-e81b-483c-a174-dfec5ca5abcf","ios":"levelo://app?vid=6f089a7e-e81b-483c-a174-dfec5ca5abcf"},"vehicle_type_id":"4","last_reported":1767478216,"current_range_meters":4400,"station_id":"ce4bhnp2rcd13ifvqgvg","pricing_plan_id":"cebpf4jnsgd1na2vs0mg"},{"bike_id":"430881a2-ec0b-4a4c-b8c9-a5e85efe9cef","system_id":"levelo_inurba_marseille","lat":43.25567,"lon":5.3824,"is_reserved":false,"is_disabled":false,"rental_uris":{"android":"levelo://app?vid=430881a2-ec0b-4a4c-b8c9-a5e85efe9cef","ios":"levelo://app?vid=430881a2-ec0b-4a4c-b8c9-a5e85efe9cef"},"vehicle_type_id":"4","last_reported":1767478216,"current_range_meters":4400,"station_id":"ce4bhih2rcd13ifvqfs0","pricing_plan_id":"cebpf4jnsgd1na2vs0mg"},{"bike_id":"c0f2ee2b-8792-4e08-b0a5-b9461536319a","system_id":"levelo_inurba_marseille","lat":43.31165,"lon":5.38703,"is_reserved":false,"is_disabled":false,"rental_uris":{"android":"levelo://app?vid=c0f2ee2b-8792-4e08-b0a5-b9461536319a","ios":"levelo://app?vid=c0f2ee2b-8792-4e08-b0a5-b9461536319a"},"vehicle_type_id":"4","last_reported":1767478216,"current_range_meters":4400,"station_id":"ce4bgv12rcd13ifvqcp0","pricing_plan_id":"cebpf4jnsgd1na2vs0mg"},{"bike_id":"870badd9-8fdb-4dc1-b3ea-d7c8305523fd","system_id":"levelo_inurba_marseille","lat":43.295128,"lon":5.375002,"is_reserved":false,"is_disabled":false,"rental_uris":{"android":"levelo://app?vid=870badd9-8fdb-4dc1-b3ea-d7c8305523fd","ios":"levelo://app?vid=870badd9-8fdb-4dc1-b3ea-d7c8305523fd"},"vehicle_type_id":"4","last_reported":1767478216,"current_range_meters":4400,"station_id":"ce4bhe12rcd13ifvqf30","pricing_plan_id":"cebpf4jnsgd1na2vs0mg"},{"bike_id":"3ecab405-d6ca-4057-a83d-0721b8a2b9e2","system_id":"levelo_inurba_marseille","lat":43.254886,"lon":5.376457,"is_reserved":false,"is_disabled":false,"rental_uris":{"android":"levelo://app?vid=3ecab405-d6ca-4057-a83d-0721b8a2b9e2","ios":"levelo://app?vid=3ecab405-d6ca-4057-a83d-0721b8a2b9e2"},"vehicle_type_id":"4","last_reported":1767478216,"current_range_meters":4400,"station_id":"ce4bhh12rcd13ifvqff0","pricing_plan_id":"cebpf4jnsgd1na2vs0mg"},{"bike_id":"0cc570b7-eef1-4f82-9a7d-d8e53b279269","system_id":"levelo_inurba_marseille","lat":43.30404,"lon":5.41319,"is_reserved":false,"is_disabled":false,"rental_uris":{"android":"levelo://app?vid=0cc570b7-eef1-4f82-9a7d-d8e53b279269","ios":"levelo://app?vid=0cc570b7-eef1-4f82-9a7d-d8e53b279269"},"vehicle_type_id":"4","last_reported":1767478216,"current_range_meters":4400,"station_id":"ce4bhop2rcd13ifvqh8g","pricing_plan_id":"cebpf4jnsgd1na2vs0mg"},{"bike_id":"f6da5d95-02e5-41e7-b5d8-ae93141b63e9","system_id":"levelo_inurba_marseille","lat":43.295212,"lon":5.39399,"is_reserved":false,"is_disabled":false,"rental_uris":{"android":"levelo://app?vid=f6da5d95-02e5-41e7-b5d8-ae93141b63e9","ios":"levelo://app?vid=f6da5d95-02e5-41e7-b5d8-ae93141b63e9"},"vehicle_type_id":"4","last_reported":1767478216,"current_range_meters":4800,"station_id":"ce4bh292rcd13ifvqdf0","pricing_plan_id":"cebpf4jnsgd1na2vs0mg"},{"bike_id":"06fbba04-38d2-4f98-a876-03ce9ae5ab18","system_id":"levelo_inurba_marseille","lat":43.28606,"lon":5.35102,"is_reserved":false,"is_disabled":false,"rental_uris":{"android":"levelo://app?vid=06fbba04-38d2-4f98-a876-03ce9ae5ab18","ios":"levelo://app?vid=06fbba04-38d2-4f98-a876-03ce9ae5ab18"},"vehicle_type_id":"4","last_reported":1767478216,"current_range_meters":4800,"station_id":"ce4bhch2rcd13ifvqeug","pricing_plan_id":"cebpf4jnsgd1na2vs0mg"},{"bike_id":"eebe5854-7982-4b9e-b627-19ff5d579400","system_id":"levelo_inurba_marseille","lat":43.29631,"lon":5.37166,"is_reserved":false,"is_disabled":false,"rental_uris":{"android":"levelo://app?vid=eebe5854-7982-4b9e-b627-19ff5d579400","ios":"levelo://app?vid=eebe5854-7982-4b9e-b627-19ff5d579400"},"vehicle_type_id":"4","last_reported":1767478216,"current_range_meters":4800,"station_id":"ce4bgnh2rcd13ifvqc0g","pricing_plan_id":"cebpf4jnsgd1na2vs0mg"},{"bike_id":"2cd74853-5047-4511-932d-69e4273bcd1e","system_id":"levelo_inurba_marseille","lat":43.229275,"lon":5.353798,"is_reserved":false,"is_disabled":false,"rental_uris":{"android":"levelo://app?vid=2cd74853-5047-4511-932d-69e4273bcd1e","ios":"levelo://app?vid=2cd74853-5047-4511-932d-69e4273bcd1e"},"vehicle_type_id":"4","last_reported":1767478216,"current_range_meters":4800,"station_id":"cpo3532slgdg3j2ikp40","pricing_plan_id":"cebpf4jnsgd1na2vs0mg"},{"bike_id":"f88d60d0-86d2-4d4b-b3b2-e73e0d897671","system_id":"levelo_inurba_marseille","lat":43.28385,"lon":5.39632,"is_reserved":false,"is_disabled":true,"rental_uris":{"android":"levelo://app?vid=f88d60d0-86d2-4d4b-b3b2-e73e0d897671","ios":"levelo://app?vid=f88d60d0-86d2-4d4b-b3b2-e73e0d897671"},"vehicle_type_id":"4","last_reported":1767478216,"current_range_meters":4800,"station_id":"","pricing_plan_id":"cebpf4jnsgd1na2vs0mg"},{"bike_id":"989239f2-3929-421d-9620-92e58bc7df90","system_id":"levelo_inurba_marseille","lat":43.28417,"lon":5.35,"is_reserved":false,"is_disabled":false,"rental_uris":{"android":"levelo://app?vid=989239f2-3929-421d-9620-92e58bc7df90","ios":"levelo://app?vid=989239f2-3929-421d-9620-92e58bc7df90"},"vehicle_type_id":"4","last_reported":1767478216,"current_range_meters":4800,"station_id":"ce4bhbh2rcd13ifvqepg","pricing_plan_id":"cebpf4jnsgd1na2vs0mg"},{"bike_id":"f67fdd8e-3a18-4359-8f12-09494150cb39","system_id":"levelo_inurba_marseille","lat":43.24391,"lon":5.37069,"is_reserved":false,"is_disabled":false,"rental_uris":{"android":"levelo://app?vid=f67fdd8e-3a18-4359-8f12-09494150cb39","ios":"levelo://app?vid=f67fdd8e-3a18-4359-8f12-09494150cb39"},"vehicle_type_id":"4","last_reported":1767478216,"current_range_meters":4800,"station_id":"ce4bhhh2rcd13ifvqfk0","pricing_plan_id":"cebpf4jnsgd1na2vs0mg"},{"bike_id":"93e27f2e-18ba-40e2-aeee-5f11ac3d2fb5","system_id":"levelo_inurba_marseille","lat":43.29929,"lon":5.36534,"is_reserved":false,"is_disabled":false,"rental_uris":{"android":"levelo://app?vid=93e27f2e-18ba-40e2-aeee-5f11ac3d2fb5","ios":"levelo://app?vid=93e27f2e-18ba-40e2-aeee-5f11ac3d2fb5"},"vehicle_type_id":"4","last_reported":1767478216,"current_range_meters":4800,"station_id":"ce4bgm92rcd13ifvqbr0","pricing_plan_id":"cebpf4jnsgd1na2vs0mg"},{"bike_id":"02cb24cc-e062-4b73-80fd-141f91a697f7","system_id":"levelo_inurba_marseille","lat":43.31551,"lon":5.37672,"is_reserved":false,"is_disabled":false,"rental_uris":{"android":"levelo://app?vid=02cb24cc-e062-4b73-80fd-141f91a697f7","ios":"levelo://app?vid=02cb24cc-e062-4b73-80fd-141f91a697f7"},"vehicle_type_id":"4","last_reported":1767478216,"current_range_meters":4800,"station_id":"","pricing_plan_id":"cebpf4jnsgd1na2vs0mg"},{"bike_id":"dd14b827-6e9c-4127-a177-b745b75f66cf","system_id":"levelo_inurba_marseille","lat":43.24654,"lon":5.38164,"is_reserved":false,"is_disabled":false,"rental_uris":{"android":"levelo://app?vid=dd14b827-6e9c-4127-a177-b745b75f66cf","ios":"levelo://app?vid=dd14b827-6e9c-4127-a177-b745b75f66cf"},"vehicle_type_id":"4","last_reported":1767478216,"current_range_meters":4800,"station_id":"ce4bhih2rcd13ifvqfr0","pricing_plan_id":"cebpf4jnsgd1na2vs0mg"},{"bike_id":"ed66bf8a-0755-4214-ab92-16f8a5a8cb2f","system_id":"levelo_inurba_marseille","lat":43.298401,"lon":5.362704,"is_reserved":false,"is_disabled":false,"rental_uris":{"android":"levelo://app?vid=ed66bf8a-0755-4214-ab92-16f8a5a8cb2f","ios":"levelo://app?vid=ed66bf8a-0755-4214-ab92-16f8a5a8cb2f"},"vehicle_type_id":"4","last_reported":1767478216,"current_range_meters":5600,"station_id":"ce4bgpp2rcd13ifvqc3g","pricing_plan_id":"cebpf4jnsgd1na2vs0mg"},{"bike_id":"9255467e-14b4-4b38-a086-cb9c5423bc3f","system_id":"levelo_inurba_marseille","lat":43.29372,"lon":5.37859,"is_reserved":false,"is_disabled":false,"rental_uris":{"android":"levelo://app?vid=9255467e-14b4-4b38-a086-cb9c5423bc3f","ios":"levelo://app?vid=9255467e-14b4-4b38-a086-cb9c5423bc3f"},"vehicle_type_id":"4","last_reported":1767478216,"current_range_meters":5600,"station_id":"ce4bgjh2rcd13ifvqbf0","pricing_plan_id":"cebpf4jnsgd1na2vs0mg"},{"bike_id":"cacd189b-364d-4b1a-8882-a16ba27a8c11","system_id":"levelo_inurba_marseille","lat":43.2379,"lon":5.36659,"is_reserved":false,"is_disabled":false,"rental_uris":{"android":"levelo://app?vid=cacd189b-364d-4b1a-8882-a16ba27a8c11","ios":"levelo://app?vid=cacd189b-364d-4b1a-8882-a16ba27a8c11"},"vehicle_type_id":"4","last_reported":1767478216,"current_range_meters":5600,"station_id":"st_d3nk18o9ro0c73en2l3g","pricing_plan_id":"cebpf4jnsgd1na2vs0mg"},{"bike_id":"0c95dd9f-c660-4b76-b09f-1fe6a5fcdd5e","system_id":"levelo_inurba_marseille","lat":43.32362,"lon":5.36744,"is_reserved":false,"is_disabled":false,"rental_uris":{"android":"levelo://app?vid=0c95dd9f-c660-4b76-b09f-1fe6a5fcdd5e","ios":"levelo://app?vid=0c95dd9f-c660-4b76-b09f-1fe6a5fcdd5e"},"vehicle_type_id":"4","last_reported":1767478216,"current_range_meters":5600,"station_id":"ce4bhsh2rcd13ifvqi2g","pricing_plan_id":"cebpf4jnsgd1na2vs0mg"},{"bike_id":"650cf425-f87e-4c30-9156-354d5fef94cd","system_id":"levelo_inurba_marseille","lat":43.30131,"lon":5.36729,"is_reserved":false,"is_disabled":false,"rental_uris":{"android":"levelo://app?vid=650cf425-f87e-4c30-9156-354d5fef94cd","ios":"levelo://app?vid=650cf425-f87e-4c30-9156-354d5fef94cd"},"vehicle_type_id":"4","last_reported":1767478216,"current_range_meters":5600,"station_id":"","pricing_plan_id":"cebpf4jnsgd1na2vs0mg"},{"bike_id":"8b720c35-4823-48af-825c-0c71ab5317be","system_id":"levelo_inurba_marseille","lat":43.27943,"lon":5.41056,"is_reserved":false,"is_disabled":true,"rental_uris":{"android":"levelo://app?vid=8b720c35-4823-48af-825c-0c71ab5317be","ios":"levelo://app?vid=8b720c35-4823-48af-825c-0c71ab5317be"},"vehicle_type_id":"4","last_reported":1767478216,"current_range_meters":5600,"station_id":"ce4bhnp2rcd13ifvqh0g","pricing_plan_id":"cebpf4jnsgd1na2vs0mg"},{"bike_id":"b069e66b-3d24-44ee-a3b6-26964d74bee5","system_id":"levelo_inurba_marseille","lat":43.28005,"lon":5.40626,"is_reserved":false,"is_disabled":false,"rental_uris":{"android":"levelo://app?vid=b069e66b-3d24-44ee-a3b6-26964d74bee5","ios":"levelo://app?vid=b069e66b-3d24-44ee-a3b6-26964d74bee5"},"vehicle_type_id":"4","last_reported":1767478216,"current_range_meters":5600,"station_id":"","pricing_plan_id":"cebpf4jnsgd1na2vs0mg"},{"bike_id":"dd60840a-766b-49e6-9f15-3ac6fb6b44d8","system_id":"levelo_inurba_marseille","lat":43.30134,"lon":5.37428,"is_reserved":false,"is_disabled":false,"rental_uris":{"android":"levelo://app?vid=dd60840a-766b-49e6-9f15-3ac6fb6b44d8","ios":"levelo://app?vid=dd60840a-766b-49e6-9f15-3ac6fb6b44d8"},"vehicle_type_id":"4","last_reported":1767478216,"current_range_meters":5600,"station_id":"ce4bgs92rcd13ifvqcc0","pricing_plan_id":"cebpf4jnsgd1na2vs0mg"},{"bike_id":"9ac66994-272c-4446-9157-a3f28373efae","system_id":"levelo_inurba_marseille","lat":43.24633,"lon":5.43151,"is_reserved":false,"is_disabled":false,"rental_uris":{"android":"levelo://app?vid=9ac66994-272c-4446-9157-a3f28373efae","ios":"levelo://app?vid=9ac66994-272c-4446-9157-a3f28373efae"},"vehicle_type_id":"4","last_reported":1767478216,"current_range_meters":5600,"station_id":"st_d2m6c4gdas8pm72e190g","pricing_plan_id":"cebpf4jnsgd1na2vs0mg"},{"bike_id":"7304dd23-e185-4b36-b681-fec4a7828f7d","system_id":"levelo_inurba_marseille","lat":43.24173,"lon":5.39756,"is_reserved":false,"is_disabled":false,"rental_uris":{"android":"levelo://app?vid=7304dd23-e185-4b36-b681-fec4a7828f7d","ios":"levelo://app?vid=7304dd23-e185-4b36-b681-fec4a7828f7d"},"vehicle_type_id":"4","last_reported":1767478216,"current_range_meters":5600,"station_id":"ce4bhn12rcd13ifvqgpg","pricing_plan_id":"cebpf4jnsgd1na2vs0mg"},{"bike_id":"ef571db9-6dc4-4434-a047-459ec60cc0fd","system_id":"levelo_inurba_marseille","lat":43.29061,"lon":5.37151,"is_reserved":false,"is_disabled":false,"rental_uris":{"android":"levelo://app?vid=ef571db9-6dc4-4434-a047-459ec60cc0fd","ios":"levelo://app?vid=ef571db9-6dc4-4434-a047-459ec60cc0fd"},"vehicle_type_id":"4","last_reported":1767478216,"current_range_meters":5600,"station_id":"ce4bh5p2rcd13ifvqe4g","pricing_plan_id":"cebpf4jnsgd1na2vs0mg"},{"bike_id":"ddadb22a-87ae-403a-8f50-fcfddb4a2105","system_id":"levelo_inurba_marseille","lat":43.28472,"lon":5.38411,"is_reserved":false,"is_disabled":false,"rental_uris":{"android":"levelo://app?vid=ddadb22a-87ae-403a-8f50-fcfddb4a2105","ios":"levelo://app?vid=ddadb22a-87ae-403a-8f50-fcfddb4a2105"},"vehicle_type_id":"4","last_reported":1767478216,"current_range_meters":6000,"station_id":"ce4bh512rcd13ifvqe3g","pricing_plan_id":"cebpf4jnsgd1na2vs0mg"},{"bike_id":"6af309a2-8f26-4463-a2f8-b68c7d811285","system_id":"levelo_inurba_marseille","lat":43.30841,"lon":5.37516,"is_reserved":false,"is_disabled":false,"rental_uris":{"android":"levelo://app?vid=6af309a2-8f26-4463-a2f8-b68c7d811285","ios":"levelo://app?vid=6af309a2-8f26-4463-a2f8-b68c7d811285"},"vehicle_type_id":"4","last_reported":1767478216,"current_range_meters":6000,"station_id":"","pricing_plan_id":"cebpf4jnsgd1na2vs0mg"},{"bike_id":"97186327-2422-4fe5-be9c-f123586b9f1f","system_id":"levelo_inurba_marseille","lat":43.34921,"lon":5.41548,"is_reserved":false,"is_disabled":false,"rental_uris":{"android":"levelo://app?vid=97186327-2422-4fe5-be9c-f123586b9f1f","ios":"levelo://app?vid=97186327-2422-4fe5-be9c-f123586b9f1f"},"vehicle_type_id":"4","last_reported":1767478216,"current_range_meters":6000,"station_id":"","pricing_plan_id":"cebpf4jnsgd1na2vs0mg"},{"bike_id":"dc9feb7e-742c-4c15-83bb-7db4fa4848d4","system_id":"levelo_inurba_marseille","lat":43.32845,"lon":5.36683,"is_reserved":false,"is_disabled":false,"rental_uris":{"android":"levelo://app?vid=dc9feb7e-742c-4c15-83bb-7db4fa4848d4","ios":"levelo://app?vid=dc9feb7e-742c-4c15-83bb-7db4fa4848d4"},"vehicle_type_id":"4","last_reported":1767478216,"current_range_meters":6000,"station_id":"","pricing_plan_id":"cebpf4jnsgd1na2vs0mg"},{"bike_id":"3b391aa1-1907-4005-88cc-7a9ac12c81d0","system_id":"levelo_inurba_marseille","lat":43.23959,"lon":5.36635,"is_reserved":false,"is_disabled":false,"rental_uris":{"android":"levelo://app?vid=3b391aa1-1907-4005-88cc-7a9ac12c81d0","ios":"levelo://app?vid=3b391aa1-1907-4005-88cc-7a9ac12c81d0"},"vehicle_type_id":"4","last_reported":1767478216,"current_range_meters":6000,"station_id":"ce4bhi12rcd13ifvqfp0","pricing_plan_id":"cebpf4jnsgd1na2vs0mg"},{"bike_id":"e9946f23-a16f-4b6d-a8aa-e4b6ba3d7478","system_id":"levelo_inurba_marseille","lat":43.28596,"lon":5.39921,"is_reserved":false,"is_disabled":false,"rental_uris":{"android":"levelo://app?vid=e9946f23-a16f-4b6d-a8aa-e4b6ba3d7478","ios":"levelo://app?vid=e9946f23-a16f-4b6d-a8aa-e4b6ba3d7478"},"vehicle_type_id":"4","last_reported":1767478216,"current_range_meters":6000,"station_id":"st_d4a7ka997mjs738ck50g","pricing_plan_id":"cebpf4jnsgd1na2vs0mg"},{"bike_id":"8ce78bae-db8a-4d0d-a610-7b09e4add19f","system_id":"levelo_inurba_marseille","lat":43.271681,"lon":5.409879,"is_reserved":false,"is_disabled":false,"rental_uris":{"android":"levelo://app?vid=8ce78bae-db8a-4d0d-a610-7b09e4add19f","ios":"levelo://app?vid=8ce78bae-db8a-4d0d-a610-7b09e4add19f"},"vehicle_type_id":"4","last_reported":1767478216,"current_range_meters":6000,"station_id":"ce4bhl12rcd13ifvqgf0","pricing_plan_id":"cebpf4jnsgd1na2vs0mg"},{"bike_id":"0ec00df7-3d5b-4681-970c-d49011aaf88f","system_id":"levelo_inurba_marseille","lat":43.27837,"lon":5.39202,"is_reserved":false,"is_disabled":false,"rental_uris":{"android":"levelo://app?vid=0ec00df7-3d5b-4681-970c-d49011aaf88f","ios":"levelo://app?vid=0ec00df7-3d5b-4681-970c-d49011aaf88f"},"vehicle_type_id":"4","last_reported":1767478216,"current_range_meters":6000,"station_id":"ce4bhjp2rcd13ifvqga0","pricing_plan_id":"cebpf4jnsgd1na2vs0mg"},{"bike_id":"074722cb-2569-4df8-9492-e46ca66ccdc6","system_id":"levelo_inurba_marseille","lat":43.310839,"lon":5.371295,"is_reserved":false,"is_disabled":false,"rental_uris":{"android":"levelo://app?vid=074722cb-2569-4df8-9492-e46ca66ccdc6","ios":"levelo://app?vid=074722cb-2569-4df8-9492-e46ca66ccdc6"},"vehicle_type_id":"4","last_reported":1767478216,"current_range_meters":6400,"station_id":"st_d4kl2rp97mjs73e7tdfg","pricing_plan_id":"cebpf4jnsgd1na2vs0mg"},{"bike_id":"34f3a292-6f55-4da9-baea-9c8e3ef09af6","system_id":"levelo_inurba_marseille","lat":43.255182,"lon":5.376181,"is_reserved":false,"is_disabled":false,"rental_uris":{"android":"levelo://app?vid=34f3a292-6f55-4da9-baea-9c8e3ef09af6","ios":"levelo://app?vid=34f3a292-6f55-4da9-baea-9c8e3ef09af6"},"vehicle_type_id":"4","last_reported":1767478216,"current_range_meters":6400,"station_id":"ce4bhh12rcd13ifvqff0","pricing_plan_id":"cebpf4jnsgd1na2vs0mg"},{"bike_id":"607f6356-92f4-49b1-8436-7911c576c661","system_id":"levelo_inurba_marseille","lat":43.29288,"lon":5.37415,"is_reserved":false,"is_disabled":false,"rental_uris":{"android":"levelo://app?vid=607f6356-92f4-49b1-8436-7911c576c661","ios":"levelo://app?vid=607f6356-92f4-49b1-8436-7911c576c661"},"vehicle_type_id":"4","last_reported":1767478216,"current_range_meters":6400,"station_id":"ce4bgi12rcd13ifvqb70","pricing_plan_id":"cebpf4jnsgd1na2vs0mg"},{"bike_id":"c4be737e-0225-4e9a-bbc0-5bf5b52c2f6f","system_id":"levelo_inurba_marseille","lat":43.26563,"lon":5.3902,"is_reserved":false,"is_disabled":false,"rental_uris":{"android":"levelo://app?vid=c4be737e-0225-4e9a-bbc0-5bf5b52c2f6f","ios":"levelo://app?vid=c4be737e-0225-4e9a-bbc0-5bf5b52c2f6f"},"vehicle_type_id":"4","last_reported":1767478216,"current_range_meters":6400,"station_id":"ce4bhe12rcd13ifvqf30","pricing_plan_id":"cebpf4jnsgd1na2vs0mg"},{"bike_id":"1cb07a07-9f8b-49b3-899d-e4d88daca5ff","system_id":"levelo_inurba_marseille","lat":43.260123,"lon":5.407482,"is_reserved":false,"is_disabled":false,"rental_uris":{"android":"levelo://app?vid=1cb07a07-9f8b-49b3-899d-e4d88daca5ff","ios":"levelo://app?vid=1cb07a07-9f8b-49b3-899d-e4d88daca5ff"},"vehicle_type_id":"4","last_reported":1767478216,"current_range_meters":6400,"station_id":"","pricing_plan_id":"cebpf4jnsgd1na2vs0mg"},{"bike_id":"1a9cb749-bacd-49f4-9f8b-e93e98ea3f8f","system_id":"levelo_inurba_marseille","lat":43.30113,"lon":5.38227,"is_reserved":false,"is_disabled":false,"rental_uris":{"android":"levelo://app?vid=1a9cb749-bacd-49f4-9f8b-e93e98ea3f8f","ios":"levelo://app?vid=1a9cb749-bacd-49f4-9f8b-e93e98ea3f8f"},"vehicle_type_id":"4","last_reported":1767478216,"current_range_meters":6400,"station_id":"","pricing_plan_id":"cebpf4jnsgd1na2vs0mg"},{"bike_id":"be59f674-a0bd-4fc3-a219-9eada39112de","system_id":"levelo_inurba_marseille","lat":43.29962,"lon":5.37388,"is_reserved":false,"is_disabled":false,"rental_uris":{"android":"levelo://app?vid=be59f674-a0bd-4fc3-a219-9eada39112de","ios":"levelo://app?vid=be59f674-a0bd-4fc3-a219-9eada39112de"},"vehicle_type_id":"4","last_reported":1767478216,"current_range_meters":6400,"station_id":"","pricing_plan_id":"cebpf4jnsgd1na2vs0mg"},{"bike_id":"3170b344-ccb5-4e10-87d2-0bfacd70bd7f","system_id":"levelo_inurba_marseille","lat":43.2962,"lon":5.37716,"is_reserved":false,"is_disabled":false,"rental_uris":{"android":"levelo://app?vid=3170b344-ccb5-4e10-87d2-0bfacd70bd7f","ios":"levelo://app?vid=3170b344-ccb5-4e10-87d2-0bfacd70bd7f"},"vehicle_type_id":"4","last_reported":1767478216,"current_range_meters":6400,"station_id":"ce4bgi92rcd13ifvqb90","pricing_plan_id":"cebpf4jnsgd1na2vs0mg"},{"bike_id":"369c8c7b-dd26-491c-8ac1-e59e015c794f","system_id":"levelo_inurba_marseille","lat":43.27805,"lon":5.40721,"is_reserved":false,"is_disabled":false,"rental_uris":{"android":"levelo://app?vid=369c8c7b-dd26-491c-8ac1-e59e015c794f","ios":"levelo://app?vid=369c8c7b-dd26-491c-8ac1-e59e015c794f"},"vehicle_type_id":"4","last_reported":1767478216,"current_range_meters":6400,"station_id":"ce4bhnh2rcd13ifvqgtg","pricing_plan_id":"cebpf4jnsgd1na2vs0mg"},{"bike_id":"47a9e8ce-5a44-441a-9695-e8dc7f3c9dfa","system_id":"levelo_inurba_marseille","lat":43.30731,"lon":5.42435,"is_reserved":false,"is_disabled":false,"rental_uris":{"android":"levelo://app?vid=47a9e8ce-5a44-441a-9695-e8dc7f3c9dfa","ios":"levelo://app?vid=47a9e8ce-5a44-441a-9695-e8dc7f3c9dfa"},"vehicle_type_id":"4","last_reported":1767478216,"current_range_meters":6400,"station_id":"st_cvj6ca6bvosntc0bfgr0","pricing_plan_id":"cebpf4jnsgd1na2vs0mg"},{"bike_id":"b8312627-13c4-4db1-bc05-2c9ecea4546c","system_id":"levelo_inurba_marseille","lat":43.28454,"lon":5.39241,"is_reserved":false,"is_disabled":false,"rental_uris":{"android":"levelo://app?vid=b8312627-13c4-4db1-bc05-2c9ecea4546c","ios":"levelo://app?vid=b8312627-13c4-4db1-bc05-2c9ecea4546c"},"vehicle_type_id":"4","last_reported":1767478216,"current_range_meters":6400,"station_id":"ce4bhoh2rcd13ifvqh5g","pricing_plan_id":"cebpf4jnsgd1na2vs0mg"},{"bike_id":"ddea6b53-a329-474e-b86a-40e23ca5f3fa","system_id":"levelo_inurba_marseille","lat":43.26215,"lon":5.374238,"is_reserved":false,"is_disabled":false,"rental_uris":{"android":"levelo://app?vid=ddea6b53-a329-474e-b86a-40e23ca5f3fa","ios":"levelo://app?vid=ddea6b53-a329-474e-b86a-40e23ca5f3fa"},"vehicle_type_id":"4","last_reported":1767478216,"current_range_meters":6400,"station_id":"ce4bhgp2rcd13ifvqfc0","pricing_plan_id":"cebpf4jnsgd1na2vs0mg"},{"bike_id":"d21a3e34-58bc-4d1b-9ac9-a8532bb50fd1","system_id":"levelo_inurba_marseille","lat":43.29804,"lon":5.44066,"is_reserved":false,"is_disabled":false,"rental_uris":{"android":"levelo://app?vid=d21a3e34-58bc-4d1b-9ac9-a8532bb50fd1","ios":"levelo://app?vid=d21a3e34-58bc-4d1b-9ac9-a8532bb50fd1"},"vehicle_type_id":"4","last_reported":1767478216,"current_range_meters":6400,"station_id":"st_d3jp68qikq2c7381ktn0","pricing_plan_id":"cebpf4jnsgd1na2vs0mg"},{"bike_id":"5ec75759-55d6-4224-b4a0-635e337d68b2","system_id":"levelo_inurba_marseille","lat":43.30561,"lon":5.36563,"is_reserved":false,"is_disabled":false,"rental_uris":{"android":"levelo://app?vid=5ec75759-55d6-4224-b4a0-635e337d68b2","ios":"levelo://app?vid=5ec75759-55d6-4224-b4a0-635e337d68b2"},"vehicle_type_id":"4","last_reported":1767478216,"current_range_meters":6400,"station_id":"ce4bgs12rcd13ifvqcag","pricing_plan_id":"cebpf4jnsgd1na2vs0mg"},{"bike_id":"1e895ccc-52e7-4971-b1eb-1726250f7268","system_id":"levelo_inurba_marseille","lat":43.22921,"lon":5.3538,"is_reserved":false,"is_disabled":false,"rental_uris":{"android":"levelo://app?vid=1e895ccc-52e7-4971-b1eb-1726250f7268","ios":"levelo://app?vid=1e895ccc-52e7-4971-b1eb-1726250f7268"},"vehicle_type_id":"4","last_reported":1767478216,"current_range_meters":6400,"station_id":"cpo3532slgdg3j2ikp40","pricing_plan_id":"cebpf4jnsgd1na2vs0mg"},{"bike_id":"f6a515b6-0743-4a5b-b2ec-32565099009c","system_id":"levelo_inurba_marseille","lat":43.23793,"lon":5.36632,"is_reserved":false,"is_disabled":false,"rental_uris":{"android":"levelo://app?vid=f6a515b6-0743-4a5b-b2ec-32565099009c","ios":"levelo://app?vid=f6a515b6-0743-4a5b-b2ec-32565099009c"},"vehicle_type_id":"4","last_reported":1767478216,"current_range_meters":6400,"station_id":"st_d3nk18o9ro0c73en2l3g","pricing_plan_id":"cebpf4jnsgd1na2vs0mg"},{"bike_id":"145bab88-2f1e-4291-8a33-4a944fe2542c","system_id":"levelo_inurba_marseille","lat":43.29519,"lon":5.37504,"is_reserved":false,"is_disabled":false,"rental_uris":{"android":"levelo://app?vid=145bab88-2f1e-4291-8a33-4a944fe2542c","ios":"levelo://app?vid=145bab88-2f1e-4291-8a33-4a944fe2542c"},"vehicle_type_id":"4","last_reported":1767478216,"current_range_meters":6400,"station_id":"ce4bgkp2rcd13ifvqbmg","pricing_plan_id":"cebpf4jnsgd1na2vs0mg"},{"bike_id":"bd110501-2fac-4bc4-a847-9e0950144712","system_id":"levelo_inurba_marseille","lat":43.27942,"lon":5.38701,"is_reserved":false,"is_disabled":false,"rental_uris":{"android":"levelo://app?vid=bd110501-2fac-4bc4-a847-9e0950144712","ios":"levelo://app?vid=bd110501-2fac-4bc4-a847-9e0950144712"},"vehicle_type_id":"4","last_reported":1767478216,"current_range_meters":6400,"station_id":"","pricing_plan_id":"cebpf4jnsgd1na2vs0mg"},{"bike_id":"e493b9f3-75a9-4b83-a37d-a0c34b5cbb80","system_id":"levelo_inurba_marseille","lat":43.246552,"lon":5.388768,"is_reserved":false,"is_disabled":false,"rental_uris":{"android":"levelo://app?vid=e493b9f3-75a9-4b83-a37d-a0c34b5cbb80","ios":"levelo://app?vid=e493b9f3-75a9-4b83-a37d-a0c34b5cbb80"},"vehicle_type_id":"4","last_reported":1767478216,"current_range_meters":6400,"station_id":"ce4bhg12rcd13ifvqf60","pricing_plan_id":"cebpf4jnsgd1na2vs0mg"},{"bike_id":"0791eb7e-5676-4c6e-87cd-e454c991cf85","system_id":"levelo_inurba_marseille","lat":43.29315,"lon":5.37449,"is_reserved":false,"is_disabled":false,"rental_uris":{"android":"levelo://app?vid=0791eb7e-5676-4c6e-87cd-e454c991cf85","ios":"levelo://app?vid=0791eb7e-5676-4c6e-87cd-e454c991cf85"},"vehicle_type_id":"4","last_reported":1767478216,"current_range_meters":6800,"station_id":"","pricing_plan_id":"cebpf4jnsgd1na2vs0mg"},{"bike_id":"16a83d1a-0198-4e24-ac91-2b4a30774940","system_id":"levelo_inurba_marseille","lat":43.279467,"lon":5.417236,"is_reserved":false,"is_disabled":false,"rental_uris":{"android":"levelo://app?vid=16a83d1a-0198-4e24-ac91-2b4a30774940","ios":"levelo://app?vid=16a83d1a-0198-4e24-ac91-2b4a30774940"},"vehicle_type_id":"4","last_reported":1767478216,"current_range_meters":6800,"station_id":"ce4bho12rcd13ifvqh1g","pricing_plan_id":"cebpf4jnsgd1na2vs0mg"},{"bike_id":"5f5ed7b5-474d-41b2-89cd-47b99b1d326f","system_id":"levelo_inurba_marseille","lat":43.32094,"lon":5.3679,"is_reserved":false,"is_disabled":false,"rental_uris":{"android":"levelo://app?vid=5f5ed7b5-474d-41b2-89cd-47b99b1d326f","ios":"levelo://app?vid=5f5ed7b5-474d-41b2-89cd-47b99b1d326f"},"vehicle_type_id":"4","last_reported":1767478216,"current_range_meters":6800,"station_id":"ce4bhrh2rcd13ifvqhug","pricing_plan_id":"cebpf4jnsgd1na2vs0mg"},{"bike_id":"1f351afe-898a-48b2-b821-0a57308b7b34","system_id":"levelo_inurba_marseille","lat":43.27186,"lon":5.4098,"is_reserved":false,"is_disabled":false,"rental_uris":{"android":"levelo://app?vid=1f351afe-898a-48b2-b821-0a57308b7b34","ios":"levelo://app?vid=1f351afe-898a-48b2-b821-0a57308b7b34"},"vehicle_type_id":"4","last_reported":1767478216,"current_range_meters":6800,"station_id":"ce4bhl12rcd13ifvqgf0","pricing_plan_id":"cebpf4jnsgd1na2vs0mg"},{"bike_id":"bbd145e1-db8d-40b0-b146-2b7542d40bf1","system_id":"levelo_inurba_marseille","lat":43.26799,"lon":5.40256,"is_reserved":false,"is_disabled":false,"rental_uris":{"android":"levelo://app?vid=bbd145e1-db8d-40b0-b146-2b7542d40bf1","ios":"levelo://app?vid=bbd145e1-db8d-40b0-b146-2b7542d40bf1"},"vehicle_type_id":"4","last_reported":1767478216,"current_range_meters":6800,"station_id":"ce501612rcd8frsf0b60","pricing_plan_id":"cebpf4jnsgd1na2vs0mg"},{"bike_id":"faae1c22-eb69-4a6a-9fdd-05bf4896a93c","system_id":"levelo_inurba_marseille","lat":43.28471,"lon":5.48413,"is_reserved":false,"is_disabled":false,"rental_uris":{"android":"levelo://app?vid=faae1c22-eb69-4a6a-9fdd-05bf4896a93c","ios":"levelo://app?vid=faae1c22-eb69-4a6a-9fdd-05bf4896a93c"},"vehicle_type_id":"4","last_reported":1767478216,"current_range_meters":6800,"station_id":"","pricing_plan_id":"cebpf4jnsgd1na2vs0mg"},{"bike_id":"9a67c4b7-b002-47fb-91b0-cf920a32496e","system_id":"levelo_inurba_marseille","lat":43.26563,"lon":5.4032,"is_reserved":false,"is_disabled":false,"rental_uris":{"android":"levelo://app?vid=9a67c4b7-b002-47fb-91b0-cf920a32496e","ios":"levelo://app?vid=9a67c4b7-b002-47fb-91b0-cf920a32496e"},"vehicle_type_id":"4","last_reported":1767478216,"current_range_meters":6800,"station_id":"ce4bhmp2rcd13ifvqgng","pricing_plan_id":"cebpf4jnsgd1na2vs0mg"},{"bike_id":"74300c5a-bf04-44b2-b2bc-1efcfcf64187","system_id":"levelo_inurba_marseille","lat":43.29981,"lon":5.37178,"is_reserved":false,"is_disabled":false,"rental_uris":{"android":"levelo://app?vid=74300c5a-bf04-44b2-b2bc-1efcfcf64187","ios":"levelo://app?vid=74300c5a-bf04-44b2-b2bc-1efcfcf64187"},"vehicle_type_id":"4","last_reported":1767478216,"current_range_meters":6800,"station_id":"ce4bgr92rcd13ifvqc7g","pricing_plan_id":"cebpf4jnsgd1na2vs0mg"},{"bike_id":"f73476a1-8b2a-42dc-b112-79fd77bdf5e0","system_id":"levelo_inurba_marseille","lat":43.27186,"lon":5.41001,"is_reserved":false,"is_disabled":false,"rental_uris":{"android":"levelo://app?vid=f73476a1-8b2a-42dc-b112-79fd77bdf5e0","ios":"levelo://app?vid=f73476a1-8b2a-42dc-b112-79fd77bdf5e0"},"vehicle_type_id":"4","last_reported":1767478216,"current_range_meters":6800,"station_id":"ce4bhl12rcd13ifvqgf0","pricing_plan_id":"cebpf4jnsgd1na2vs0mg"},{"bike_id":"1543eb88-e233-43c6-b08e-54d2a1b645db","system_id":"levelo_inurba_marseille","lat":43.33548,"lon":5.37464,"is_reserved":false,"is_disabled":false,"rental_uris":{"android":"levelo://app?vid=1543eb88-e233-43c6-b08e-54d2a1b645db","ios":"levelo://app?vid=1543eb88-e233-43c6-b08e-54d2a1b645db"},"vehicle_type_id":"4","last_reported":1767478216,"current_range_meters":6800,"station_id":"st_d46tts09ee8s73dlu43g","pricing_plan_id":"cebpf4jnsgd1na2vs0mg"},{"bike_id":"89bf8d0b-0109-4d46-bf26-285da566958b","system_id":"levelo_inurba_marseille","lat":43.31492,"lon":5.37301,"is_reserved":false,"is_disabled":true,"rental_uris":{"android":"levelo://app?vid=89bf8d0b-0109-4d46-bf26-285da566958b","ios":"levelo://app?vid=89bf8d0b-0109-4d46-bf26-285da566958b"},"vehicle_type_id":"4","last_reported":1767478216,"current_range_meters":6800,"station_id":"ce4bgt12rcd13ifvqcd0","pricing_plan_id":"cebpf4jnsgd1na2vs0mg"},{"bike_id":"91458b19-cb25-4f18-83db-4ba9d96005a9","system_id":"levelo_inurba_marseille","lat":43.28611,"lon":5.39902,"is_reserved":false,"is_disabled":false,"rental_uris":{"android":"levelo://app?vid=91458b19-cb25-4f18-83db-4ba9d96005a9","ios":"levelo://app?vid=91458b19-cb25-4f18-83db-4ba9d96005a9"},"vehicle_type_id":"4","last_reported":1767478216,"current_range_meters":6800,"station_id":"ce4bho92rcd13ifvqh3g","pricing_plan_id":"cebpf4jnsgd1na2vs0mg"},{"bike_id":"32088daf-19b4-43c2-bb3d-ac36d2b03bd3","system_id":"levelo_inurba_marseille","lat":43.24399,"lon":5.37069,"is_reserved":false,"is_disabled":false,"rental_uris":{"android":"levelo://app?vid=32088daf-19b4-43c2-bb3d-ac36d2b03bd3","ios":"levelo://app?vid=32088daf-19b4-43c2-bb3d-ac36d2b03bd3"},"vehicle_type_id":"4","last_reported":1767478216,"current_range_meters":6800,"station_id":"ce4bhhh2rcd13ifvqfk0","pricing_plan_id":"cebpf4jnsgd1na2vs0mg"},{"bike_id":"a5e341dd-f678-4ec1-a7c6-1c53bd98d5b6","system_id":"levelo_inurba_marseille","lat":43.29772,"lon":5.37981,"is_reserved":false,"is_disabled":false,"rental_uris":{"android":"levelo://app?vid=a5e341dd-f678-4ec1-a7c6-1c53bd98d5b6","ios":"levelo://app?vid=a5e341dd-f678-4ec1-a7c6-1c53bd98d5b6"},"vehicle_type_id":"4","last_reported":1767478216,"current_range_meters":6800,"station_id":"","pricing_plan_id":"cebpf4jnsgd1na2vs0mg"},{"bike_id":"eebd9e1f-1ba5-43d8-ba3e-599639161f1a","system_id":"levelo_inurba_marseille","lat":43.27358,"lon":5.39117,"is_reserved":false,"is_disabled":false,"rental_uris":{"android":"levelo://app?vid=eebd9e1f-1ba5-43d8-ba3e-599639161f1a","ios":"levelo://app?vid=eebd9e1f-1ba5-43d8-ba3e-599639161f1a"},"vehicle_type_id":"4","last_reported":1767478216,"current_range_meters":6800,"station_id":"ce4bhgp2rcd13ifvqfe0","pricing_plan_id":"cebpf4jnsgd1na2vs0mg"},{"bike_id":"a3be4a7c-7544-49a9-8048-28fcde31ea3d","system_id":"levelo_inurba_marseille","lat":43.29304,"lon":5.37355,"is_reserved":false,"is_disabled":false,"rental_uris":{"android":"levelo://app?vid=a3be4a7c-7544-49a9-8048-28fcde31ea3d","ios":"levelo://app?vid=a3be4a7c-7544-49a9-8048-28fcde31ea3d"},"vehicle_type_id":"4","last_reported":1767478216,"current_range_meters":6800,"station_id":"","pricing_plan_id":"cebpf4jnsgd1na2vs0mg"},{"bike_id":"322ce5af-392a-4808-ba06-a769c670c8d4","system_id":"levelo_inurba_marseille","lat":43.31171,"lon":5.38709,"is_reserved":false,"is_disabled":false,"rental_uris":{"android":"levelo://app?vid=322ce5af-392a-4808-ba06-a769c670c8d4","ios":"levelo://app?vid=322ce5af-392a-4808-ba06-a769c670c8d4"},"vehicle_type_id":"4","last_reported":1767478216,"current_range_meters":6800,"station_id":"ce4bgv12rcd13ifvqcp0","pricing_plan_id":"cebpf4jnsgd1na2vs0mg"},{"bike_id":"b357b06c-84a1-42eb-85bc-16a2d56a5e8b","system_id":"levelo_inurba_marseille","lat":43.3001,"lon":5.37307,"is_reserved":false,"is_disabled":false,"rental_uris":{"android":"levelo://app?vid=b357b06c-84a1-42eb-85bc-16a2d56a5e8b","ios":"levelo://app?vid=b357b06c-84a1-42eb-85bc-16a2d56a5e8b"},"vehicle_type_id":"4","last_reported":1767478216,"current_range_meters":6800,"station_id":"","pricing_plan_id":"cebpf4jnsgd1na2vs0mg"},{"bike_id":"df8cd3ba-6efb-4997-8f45-66c5df017b9d","system_id":"levelo_inurba_marseille","lat":43.30061,"lon":5.3646,"is_reserved":false,"is_disabled":false,"rental_uris":{"android":"levelo://app?vid=df8cd3ba-6efb-4997-8f45-66c5df017b9d","ios":"levelo://app?vid=df8cd3ba-6efb-4997-8f45-66c5df017b9d"},"vehicle_type_id":"4","last_reported":1767478216,"current_range_meters":6800,"station_id":"","pricing_plan_id":"cebpf4jnsgd1na2vs0mg"},{"bike_id":"596f9f2e-754a-4bff-95d7-fb2758b09a2e","system_id":"levelo_inurba_marseille","lat":43.32374,"lon":5.36745,"is_reserved":false,"is_disabled":false,"rental_uris":{"android":"levelo://app?vid=596f9f2e-754a-4bff-95d7-fb2758b09a2e","ios":"levelo://app?vid=596f9f2e-754a-4bff-95d7-fb2758b09a2e"},"vehicle_type_id":"4","last_reported":1767478216,"current_range_meters":6800,"station_id":"ce4bhsh2rcd13ifvqi2g","pricing_plan_id":"cebpf4jnsgd1na2vs0mg"},{"bike_id":"d21ecf43-9b53-4ee7-aa3a-25d90ceab79f","system_id":"levelo_inurba_marseille","lat":43.2408,"lon":5.3776,"is_reserved":false,"is_disabled":false,"rental_uris":{"android":"levelo://app?vid=d21ecf43-9b53-4ee7-aa3a-25d90ceab79f","ios":"levelo://app?vid=d21ecf43-9b53-4ee7-aa3a-25d90ceab79f"},"vehicle_type_id":"4","last_reported":1767478216,"current_range_meters":6800,"station_id":"ce4bhnp2rcd13ifvqgvg","pricing_plan_id":"cebpf4jnsgd1na2vs0mg"},{"bike_id":"efd33062-2cef-445f-af98-648f578e9c2a","system_id":"levelo_inurba_marseille","lat":43.32645,"lon":5.41937,"is_reserved":false,"is_disabled":false,"rental_uris":{"android":"levelo://app?vid=efd33062-2cef-445f-af98-648f578e9c2a","ios":"levelo://app?vid=efd33062-2cef-445f-af98-648f578e9c2a"},"vehicle_type_id":"4","last_reported":1767478216,"current_range_meters":7200,"station_id":"","pricing_plan_id":"cebpf4jnsgd1na2vs0mg"},{"bike_id":"093623d6-2d73-411a-8372-4b522432f61f","system_id":"levelo_inurba_marseille","lat":43.24634,"lon":5.43158,"is_reserved":false,"is_disabled":false,"rental_uris":{"android":"levelo://app?vid=093623d6-2d73-411a-8372-4b522432f61f","ios":"levelo://app?vid=093623d6-2d73-411a-8372-4b522432f61f"},"vehicle_type_id":"4","last_reported":1767478216,"current_range_meters":7200,"station_id":"st_d2m6c4gdas8pm72e190g","pricing_plan_id":"cebpf4jnsgd1na2vs0mg"},{"bike_id":"71953d87-3b66-440f-961e-1a3651e4f016","system_id":"levelo_inurba_marseille","lat":43.2846,"lon":5.3847,"is_reserved":false,"is_disabled":false,"rental_uris":{"android":"levelo://app?vid=71953d87-3b66-440f-961e-1a3651e4f016","ios":"levelo://app?vid=71953d87-3b66-440f-961e-1a3651e4f016"},"vehicle_type_id":"4","last_reported":1767478216,"current_range_meters":7200,"station_id":"","pricing_plan_id":"cebpf4jnsgd1na2vs0mg"},{"bike_id":"2e732333-6eaa-4b39-9b41-8e7d911e2698","system_id":"levelo_inurba_marseille","lat":43.293049,"lon":5.374606,"is_reserved":false,"is_disabled":false,"rental_uris":{"android":"levelo://app?vid=2e732333-6eaa-4b39-9b41-8e7d911e2698","ios":"levelo://app?vid=2e732333-6eaa-4b39-9b41-8e7d911e2698"},"vehicle_type_id":"4","last_reported":1767478216,"current_range_meters":7200,"station_id":"ce4bgi12rcd13ifvqb70","pricing_plan_id":"cebpf4jnsgd1na2vs0mg"},{"bike_id":"394b2473-e75b-4508-a6de-dc82472511d3","system_id":"levelo_inurba_marseille","lat":43.26377,"lon":5.41105,"is_reserved":false,"is_disabled":true,"rental_uris":{"android":"levelo://app?vid=394b2473-e75b-4508-a6de-dc82472511d3","ios":"levelo://app?vid=394b2473-e75b-4508-a6de-dc82472511d3"},"vehicle_type_id":"4","last_reported":1767478216,"current_range_meters":7200,"station_id":"","pricing_plan_id":"cebpf4jnsgd1na2vs0mg"},{"bike_id":"ed0899c0-be91-4332-a2f6-2e78acb199e0","system_id":"levelo_inurba_marseille","lat":43.28425,"lon":5.34993,"is_reserved":false,"is_disabled":false,"rental_uris":{"android":"levelo://app?vid=ed0899c0-be91-4332-a2f6-2e78acb199e0","ios":"levelo://app?vid=ed0899c0-be91-4332-a2f6-2e78acb199e0"},"vehicle_type_id":"4","last_reported":1767478216,"current_range_meters":7200,"station_id":"ce4bhbh2rcd13ifvqepg","pricing_plan_id":"cebpf4jnsgd1na2vs0mg"},{"bike_id":"a8556b39-9aa3-4aa7-92d2-56db02de01ed","system_id":"levelo_inurba_marseille","lat":43.31223,"lon":5.36874,"is_reserved":false,"is_disabled":false,"rental_uris":{"android":"levelo://app?vid=a8556b39-9aa3-4aa7-92d2-56db02de01ed","ios":"levelo://app?vid=a8556b39-9aa3-4aa7-92d2-56db02de01ed"},"vehicle_type_id":"4","last_reported":1767478216,"current_range_meters":7200,"station_id":"ce4bgl92rcd13ifvqbq0","pricing_plan_id":"cebpf4jnsgd1na2vs0mg"},{"bike_id":"0cc8f38b-2aab-4edc-80d1-8d77bb645f60","system_id":"levelo_inurba_marseille","lat":43.25514,"lon":5.37645,"is_reserved":false,"is_disabled":true,"rental_uris":{"android":"levelo://app?vid=0cc8f38b-2aab-4edc-80d1-8d77bb645f60","ios":"levelo://app?vid=0cc8f38b-2aab-4edc-80d1-8d77bb645f60"},"vehicle_type_id":"4","last_reported":1767478216,"current_range_meters":7200,"station_id":"ce4bhh12rcd13ifvqff0","pricing_plan_id":"cebpf4jnsgd1na2vs0mg"},{"bike_id":"ef519fd0-9994-4a2c-8009-8dc16cb9e38e","system_id":"levelo_inurba_marseille","lat":43.32095,"lon":5.36793,"is_reserved":false,"is_disabled":false,"rental_uris":{"android":"levelo://app?vid=ef519fd0-9994-4a2c-8009-8dc16cb9e38e","ios":"levelo://app?vid=ef519fd0-9994-4a2c-8009-8dc16cb9e38e"},"vehicle_type_id":"4","last_reported":1767478216,"current_range_meters":7200,"station_id":"ce4bhrh2rcd13ifvqhug","pricing_plan_id":"cebpf4jnsgd1na2vs0mg"},{"bike_id":"61de8b69-7704-4d24-bebb-39e846fd4b45","system_id":"levelo_inurba_marseille","lat":43.30077,"lon":5.37818,"is_reserved":false,"is_disabled":false,"rental_uris":{"android":"levelo://app?vid=61de8b69-7704-4d24-bebb-39e846fd4b45","ios":"levelo://app?vid=61de8b69-7704-4d24-bebb-39e846fd4b45"},"vehicle_type_id":"4","last_reported":1767478216,"current_range_meters":7200,"station_id":"","pricing_plan_id":"cebpf4jnsgd1na2vs0mg"},{"bike_id":"7ee1c09d-a306-4e72-a256-6549ce7578c9","system_id":"levelo_inurba_marseille","lat":43.29164,"lon":5.37317,"is_reserved":false,"is_disabled":false,"rental_uris":{"android":"levelo://app?vid=7ee1c09d-a306-4e72-a256-6549ce7578c9","ios":"levelo://app?vid=7ee1c09d-a306-4e72-a256-6549ce7578c9"},"vehicle_type_id":"4","last_reported":1767478216,"current_range_meters":7200,"station_id":"","pricing_plan_id":"cebpf4jnsgd1na2vs0mg"},{"bike_id":"cdb95399-40ba-4ee9-9e4b-631cf7ca51d9","system_id":"levelo_inurba_marseille","lat":43.2831,"lon":5.35172,"is_reserved":false,"is_disabled":false,"rental_uris":{"android":"levelo://app?vid=cdb95399-40ba-4ee9-9e4b-631cf7ca51d9","ios":"levelo://app?vid=cdb95399-40ba-4ee9-9e4b-631cf7ca51d9"},"vehicle_type_id":"4","last_reported":1767478216,"current_range_meters":7200,"station_id":"ce4bhbp2rcd13ifvqerg","pricing_plan_id":"cebpf4jnsgd1na2vs0mg"},{"bike_id":"03395ae2-aecb-4dc7-941a-44274a6d702f","system_id":"levelo_inurba_marseille","lat":43.281,"lon":5.37861,"is_reserved":false,"is_disabled":false,"rental_uris":{"android":"levelo://app?vid=03395ae2-aecb-4dc7-941a-44274a6d702f","ios":"levelo://app?vid=03395ae2-aecb-4dc7-941a-44274a6d702f"},"vehicle_type_id":"4","last_reported":1767478216,"current_range_meters":7200,"station_id":"ce4bha12rcd13ifvqee0","pricing_plan_id":"cebpf4jnsgd1na2vs0mg"},{"bike_id":"fd2d24be-3ca8-4d58-ac4a-6481fce6f9d2","system_id":"levelo_inurba_marseille","lat":43.27069,"lon":5.42267,"is_reserved":false,"is_disabled":false,"rental_uris":{"android":"levelo://app?vid=fd2d24be-3ca8-4d58-ac4a-6481fce6f9d2","ios":"levelo://app?vid=fd2d24be-3ca8-4d58-ac4a-6481fce6f9d2"},"vehicle_type_id":"4","last_reported":1767478216,"current_range_meters":7200,"station_id":"ce4bhk92rcd13ifvqgb0","pricing_plan_id":"cebpf4jnsgd1na2vs0mg"},{"bike_id":"cf1dde7c-2421-4aa1-aa32-84342583dd5b","system_id":"levelo_inurba_marseille","lat":43.24081,"lon":5.37749,"is_reserved":false,"is_disabled":false,"rental_uris":{"android":"levelo://app?vid=cf1dde7c-2421-4aa1-aa32-84342583dd5b","ios":"levelo://app?vid=cf1dde7c-2421-4aa1-aa32-84342583dd5b"},"vehicle_type_id":"4","last_reported":1767478216,"current_range_meters":7200,"station_id":"ce4bhnp2rcd13ifvqgvg","pricing_plan_id":"cebpf4jnsgd1na2vs0mg"},{"bike_id":"6e7957d0-639e-41a7-bf82-10829831a67f","system_id":"levelo_inurba_marseille","lat":43.32349,"lon":5.36753,"is_reserved":false,"is_disabled":false,"rental_uris":{"android":"levelo://app?vid=6e7957d0-639e-41a7-bf82-10829831a67f","ios":"levelo://app?vid=6e7957d0-639e-41a7-bf82-10829831a67f"},"vehicle_type_id":"4","last_reported":1767478216,"current_range_meters":7200,"station_id":"ce4bhsh2rcd13ifvqi2g","pricing_plan_id":"cebpf4jnsgd1na2vs0mg"},{"bike_id":"7d88ce0c-ae9b-49e1-a08d-95a335fd71ed","system_id":"levelo_inurba_marseille","lat":43.28533,"lon":5.44104,"is_reserved":false,"is_disabled":false,"rental_uris":{"android":"levelo://app?vid=7d88ce0c-ae9b-49e1-a08d-95a335fd71ed","ios":"levelo://app?vid=7d88ce0c-ae9b-49e1-a08d-95a335fd71ed"},"vehicle_type_id":"4","last_reported":1767478216,"current_range_meters":7200,"station_id":"st_d3j3df2ikq2c7380ej80","pricing_plan_id":"cebpf4jnsgd1na2vs0mg"},{"bike_id":"a939b807-df4d-4473-b61a-46a9cd5ac744","system_id":"levelo_inurba_marseille","lat":43.331643,"lon":5.376753,"is_reserved":false,"is_disabled":false,"rental_uris":{"android":"levelo://app?vid=a939b807-df4d-4473-b61a-46a9cd5ac744","ios":"levelo://app?vid=a939b807-df4d-4473-b61a-46a9cd5ac744"},"vehicle_type_id":"4","last_reported":1767478216,"current_range_meters":7200,"station_id":"st_d46cu089ee8s73dldbu0","pricing_plan_id":"cebpf4jnsgd1na2vs0mg"},{"bike_id":"c9d548ba-2a02-4b82-91f9-b5968320bd23","system_id":"levelo_inurba_marseille","lat":43.23195,"lon":5.35571,"is_reserved":false,"is_disabled":false,"rental_uris":{"android":"levelo://app?vid=c9d548ba-2a02-4b82-91f9-b5968320bd23","ios":"levelo://app?vid=c9d548ba-2a02-4b82-91f9-b5968320bd23"},"vehicle_type_id":"4","last_reported":1767478216,"current_range_meters":7200,"station_id":"ce4bhu92rcd13ifvqi70","pricing_plan_id":"cebpf4jnsgd1na2vs0mg"},{"bike_id":"98b4bf10-5ec2-4366-ab8c-e9dac7b370e9","system_id":"levelo_inurba_marseille","lat":43.24171,"lon":5.39712,"is_reserved":false,"is_disabled":false,"rental_uris":{"android":"levelo://app?vid=98b4bf10-5ec2-4366-ab8c-e9dac7b370e9","ios":"levelo://app?vid=98b4bf10-5ec2-4366-ab8c-e9dac7b370e9"},"vehicle_type_id":"4","last_reported":1767478216,"current_range_meters":7200,"station_id":"ce4bhn12rcd13ifvqgpg","pricing_plan_id":"cebpf4jnsgd1na2vs0mg"},{"bike_id":"557fcc01-1a31-4734-96a9-4bc57201480a","system_id":"levelo_inurba_marseille","lat":43.31583,"lon":5.37198,"is_reserved":false,"is_disabled":false,"rental_uris":{"android":"levelo://app?vid=557fcc01-1a31-4734-96a9-4bc57201480a","ios":"levelo://app?vid=557fcc01-1a31-4734-96a9-4bc57201480a"},"vehicle_type_id":"4","last_reported":1767478216,"current_range_meters":7200,"station_id":"","pricing_plan_id":"cebpf4jnsgd1na2vs0mg"},{"bike_id":"f8440ba9-7aeb-4439-95a0-ff23a92184c2","system_id":"levelo_inurba_marseille","lat":43.29262,"lon":5.38441,"is_reserved":false,"is_disabled":false,"rental_uris":{"android":"levelo://app?vid=f8440ba9-7aeb-4439-95a0-ff23a92184c2","ios":"levelo://app?vid=f8440ba9-7aeb-4439-95a0-ff23a92184c2"},"vehicle_type_id":"4","last_reported":1767478216,"current_range_meters":8000,"station_id":"ce4bh692rcd13ifvqea0","pricing_plan_id":"cebpf4jnsgd1na2vs0mg"},{"bike_id":"e987523a-ef8b-4c5d-94b4-e53d7fa7dfe0","system_id":"levelo_inurba_marseille","lat":43.24867,"lon":5.38552,"is_reserved":false,"is_disabled":false,"rental_uris":{"android":"levelo://app?vid=e987523a-ef8b-4c5d-94b4-e53d7fa7dfe0","ios":"levelo://app?vid=e987523a-ef8b-4c5d-94b4-e53d7fa7dfe0"},"vehicle_type_id":"4","last_reported":1767478216,"current_range_meters":8000,"station_id":"","pricing_plan_id":"cebpf4jnsgd1na2vs0mg"},{"bike_id":"ac0c123e-ed59-4a7e-a27e-86326b93124d","system_id":"levelo_inurba_marseille","lat":43.28468,"lon":5.38438,"is_reserved":false,"is_disabled":false,"rental_uris":{"android":"levelo://app?vid=ac0c123e-ed59-4a7e-a27e-86326b93124d","ios":"levelo://app?vid=ac0c123e-ed59-4a7e-a27e-86326b93124d"},"vehicle_type_id":"4","last_reported":1767478216,"current_range_meters":8000,"station_id":"ce4bh512rcd13ifvqe3g","pricing_plan_id":"cebpf4jnsgd1na2vs0mg"},{"bike_id":"780fe4f2-2a78-414b-a56d-dd9ca4f3ea66","system_id":"levelo_inurba_marseille","lat":43.29592,"lon":5.38102,"is_reserved":false,"is_disabled":false,"rental_uris":{"android":"levelo://app?vid=780fe4f2-2a78-414b-a56d-dd9ca4f3ea66","ios":"levelo://app?vid=780fe4f2-2a78-414b-a56d-dd9ca4f3ea66"},"vehicle_type_id":"4","last_reported":1767478216,"current_range_meters":8000,"station_id":"ce4bgl12rcd13ifvqbo0","pricing_plan_id":"cebpf4jnsgd1na2vs0mg"},{"bike_id":"c18e9c2e-2088-4f3c-bbf9-e06943f60f93","system_id":"levelo_inurba_marseille","lat":43.29603,"lon":5.38084,"is_reserved":false,"is_disabled":false,"rental_uris":{"android":"levelo://app?vid=c18e9c2e-2088-4f3c-bbf9-e06943f60f93","ios":"levelo://app?vid=c18e9c2e-2088-4f3c-bbf9-e06943f60f93"},"vehicle_type_id":"4","last_reported":1767478216,"current_range_meters":8000,"station_id":"ce4bgl12rcd13ifvqbo0","pricing_plan_id":"cebpf4jnsgd1na2vs0mg"},{"bike_id":"bfe47bf6-799b-4ef6-b357-3d67dfdabb79","system_id":"levelo_inurba_marseille","lat":43.3354,"lon":5.37457,"is_reserved":false,"is_disabled":false,"rental_uris":{"android":"levelo://app?vid=bfe47bf6-799b-4ef6-b357-3d67dfdabb79","ios":"levelo://app?vid=bfe47bf6-799b-4ef6-b357-3d67dfdabb79"},"vehicle_type_id":"4","last_reported":1767478216,"current_range_meters":8000,"station_id":"st_d46tts09ee8s73dlu43g","pricing_plan_id":"cebpf4jnsgd1na2vs0mg"},{"bike_id":"2bcf6ae4-322c-43d0-9880-65aeda24ed67","system_id":"levelo_inurba_marseille","lat":43.32416,"lon":5.36873,"is_reserved":false,"is_disabled":false,"rental_uris":{"android":"levelo://app?vid=2bcf6ae4-322c-43d0-9880-65aeda24ed67","ios":"levelo://app?vid=2bcf6ae4-322c-43d0-9880-65aeda24ed67"},"vehicle_type_id":"4","last_reported":1767478216,"current_range_meters":8000,"station_id":"","pricing_plan_id":"cebpf4jnsgd1na2vs0mg"},{"bike_id":"bc24ad87-e39b-4719-ba5b-24f618b4c5f7","system_id":"levelo_inurba_marseille","lat":43.28416,"lon":5.34985,"is_reserved":false,"is_disabled":false,"rental_uris":{"android":"levelo://app?vid=bc24ad87-e39b-4719-ba5b-24f618b4c5f7","ios":"levelo://app?vid=bc24ad87-e39b-4719-ba5b-24f618b4c5f7"},"vehicle_type_id":"4","last_reported":1767478216,"current_range_meters":8000,"station_id":"ce4bhbh2rcd13ifvqepg","pricing_plan_id":"cebpf4jnsgd1na2vs0mg"},{"bike_id":"4f9276e2-ba43-4c1d-afca-9c0080feecdf","system_id":"levelo_inurba_marseille","lat":43.32343,"lon":5.36664,"is_reserved":false,"is_disabled":false,"rental_uris":{"android":"levelo://app?vid=4f9276e2-ba43-4c1d-afca-9c0080feecdf","ios":"levelo://app?vid=4f9276e2-ba43-4c1d-afca-9c0080feecdf"},"vehicle_type_id":"4","last_reported":1767478216,"current_range_meters":8000,"station_id":"ce4bhsh2rcd13ifvqi2g","pricing_plan_id":"cebpf4jnsgd1na2vs0mg"},{"bike_id":"c51d6830-6676-4ba5-9b70-fc6c18825f29","system_id":"levelo_inurba_marseille","lat":43.29618,"lon":5.37731,"is_reserved":false,"is_disabled":false,"rental_uris":{"android":"levelo://app?vid=c51d6830-6676-4ba5-9b70-fc6c18825f29","ios":"levelo://app?vid=c51d6830-6676-4ba5-9b70-fc6c18825f29"},"vehicle_type_id":"4","last_reported":1767478216,"current_range_meters":8000,"station_id":"ce4bgi92rcd13ifvqb90","pricing_plan_id":"cebpf4jnsgd1na2vs0mg"},{"bike_id":"d67904e3-d432-4bb6-9c59-13ac7cead46a","system_id":"levelo_inurba_marseille","lat":43.32358,"lon":5.3675,"is_reserved":false,"is_disabled":false,"rental_uris":{"android":"levelo://app?vid=d67904e3-d432-4bb6-9c59-13ac7cead46a","ios":"levelo://app?vid=d67904e3-d432-4bb6-9c59-13ac7cead46a"},"vehicle_type_id":"4","last_reported":1767478216,"current_range_meters":8000,"station_id":"ce4bhsh2rcd13ifvqi2g","pricing_plan_id":"cebpf4jnsgd1na2vs0mg"},{"bike_id":"0c90128f-a850-4a75-9784-0c20c333a355","system_id":"levelo_inurba_marseille","lat":43.307922,"lon":5.38176,"is_reserved":false,"is_disabled":false,"rental_uris":{"android":"levelo://app?vid=0c90128f-a850-4a75-9784-0c20c333a355","ios":"levelo://app?vid=0c90128f-a850-4a75-9784-0c20c333a355"},"vehicle_type_id":"4","last_reported":1767478216,"current_range_meters":8000,"station_id":"ce4bgt12rcd13ifvqce0","pricing_plan_id":"cebpf4jnsgd1na2vs0mg"},{"bike_id":"d49d55fc-f15f-4a66-a00d-73bd545b8ffd","system_id":"levelo_inurba_marseille","lat":43.29039,"lon":5.39964,"is_reserved":false,"is_disabled":false,"rental_uris":{"android":"levelo://app?vid=d49d55fc-f15f-4a66-a00d-73bd545b8ffd","ios":"levelo://app?vid=d49d55fc-f15f-4a66-a00d-73bd545b8ffd"},"vehicle_type_id":"4","last_reported":1767478216,"current_range_meters":8000,"station_id":"ce4bh392rcd13ifvqdm0","pricing_plan_id":"cebpf4jnsgd1na2vs0mg"},{"bike_id":"cb035583-71ec-465e-ae20-89a3af35ac5e","system_id":"levelo_inurba_marseille","lat":43.24554,"lon":5.41326,"is_reserved":false,"is_disabled":false,"rental_uris":{"android":"levelo://app?vid=cb035583-71ec-465e-ae20-89a3af35ac5e","ios":"levelo://app?vid=cb035583-71ec-465e-ae20-89a3af35ac5e"},"vehicle_type_id":"4","last_reported":1767478216,"current_range_meters":8000,"station_id":"","pricing_plan_id":"cebpf4jnsgd1na2vs0mg"},{"bike_id":"006976d2-d3cb-439d-b972-b36d863282da","system_id":"levelo_inurba_marseille","lat":43.2841,"lon":5.34988,"is_reserved":false,"is_disabled":false,"rental_uris":{"android":"levelo://app?vid=006976d2-d3cb-439d-b972-b36d863282da","ios":"levelo://app?vid=006976d2-d3cb-439d-b972-b36d863282da"},"vehicle_type_id":"4","last_reported":1767478216,"current_range_meters":8000,"station_id":"ce4bhbh2rcd13ifvqepg","pricing_plan_id":"cebpf4jnsgd1na2vs0mg"},{"bike_id":"5e4f51c7-2228-4eb4-a2a6-5b87d0aa69b1","system_id":"levelo_inurba_marseille","lat":43.29535,"lon":5.38545,"is_reserved":false,"is_disabled":false,"rental_uris":{"android":"levelo://app?vid=5e4f51c7-2228-4eb4-a2a6-5b87d0aa69b1","ios":"levelo://app?vid=5e4f51c7-2228-4eb4-a2a6-5b87d0aa69b1"},"vehicle_type_id":"4","last_reported":1767478216,"current_range_meters":8000,"station_id":"ce4bgih2rcd13ifvqba0","pricing_plan_id":"cebpf4jnsgd1na2vs0mg"},{"bike_id":"59aab69d-aa14-4a71-8d9b-0aa143ba58f2","system_id":"levelo_inurba_marseille","lat":43.28538,"lon":5.44081,"is_reserved":false,"is_disabled":true,"rental_uris":{"android":"levelo://app?vid=59aab69d-aa14-4a71-8d9b-0aa143ba58f2","ios":"levelo://app?vid=59aab69d-aa14-4a71-8d9b-0aa143ba58f2"},"vehicle_type_id":"4","last_reported":1767478216,"current_range_meters":8000,"station_id":"st_d3j3df2ikq2c7380ej80","pricing_plan_id":"cebpf4jnsgd1na2vs0mg"},{"bike_id":"488bbe71-5d11-4c78-b0d1-df86f5509b1d","system_id":"levelo_inurba_marseille","lat":43.237844,"lon":5.366355,"is_reserved":false,"is_disabled":false,"rental_uris":{"android":"levelo://app?vid=488bbe71-5d11-4c78-b0d1-df86f5509b1d","ios":"levelo://app?vid=488bbe71-5d11-4c78-b0d1-df86f5509b1d"},"vehicle_type_id":"4","last_reported":1767478216,"current_range_meters":8000,"station_id":"st_d3nk18o9ro0c73en2l3g","pricing_plan_id":"cebpf4jnsgd1na2vs0mg"},{"bike_id":"8e3b45c6-7fdf-429f-9c1e-6729d3aac358","system_id":"levelo_inurba_marseille","lat":43.31045,"lon":5.37169,"is_reserved":false,"is_disabled":false,"rental_uris":{"android":"levelo://app?vid=8e3b45c6-7fdf-429f-9c1e-6729d3aac358","ios":"levelo://app?vid=8e3b45c6-7fdf-429f-9c1e-6729d3aac358"},"vehicle_type_id":"4","last_reported":1767478216,"current_range_meters":8000,"station_id":"st_d4kl2rp97mjs73e7tdfg","pricing_plan_id":"cebpf4jnsgd1na2vs0mg"},{"bike_id":"e7270246-bc96-4332-80ca-fcb95709461d","system_id":"levelo_inurba_marseille","lat":43.2863,"lon":5.35103,"is_reserved":false,"is_disabled":false,"rental_uris":{"android":"levelo://app?vid=e7270246-bc96-4332-80ca-fcb95709461d","ios":"levelo://app?vid=e7270246-bc96-4332-80ca-fcb95709461d"},"vehicle_type_id":"4","last_reported":1767478216,"current_range_meters":8000,"station_id":"ce4bhch2rcd13ifvqeug","pricing_plan_id":"cebpf4jnsgd1na2vs0mg"},{"bike_id":"e8cb542a-c910-418d-8827-3aecad0225e3","system_id":"levelo_inurba_marseille","lat":43.2843,"lon":5.34996,"is_reserved":false,"is_disabled":false,"rental_uris":{"android":"levelo://app?vid=e8cb542a-c910-418d-8827-3aecad0225e3","ios":"levelo://app?vid=e8cb542a-c910-418d-8827-3aecad0225e3"},"vehicle_type_id":"4","last_reported":1767478216,"current_range_meters":8000,"station_id":"ce4bhbh2rcd13ifvqepg","pricing_plan_id":"cebpf4jnsgd1na2vs0mg"},{"bike_id":"5ed51bc0-851e-44e4-9f66-c5e3e5c8f26a","system_id":"levelo_inurba_marseille","lat":43.27194,"lon":5.39197,"is_reserved":false,"is_disabled":true,"rental_uris":{"android":"levelo://app?vid=5ed51bc0-851e-44e4-9f66-c5e3e5c8f26a","ios":"levelo://app?vid=5ed51bc0-851e-44e4-9f66-c5e3e5c8f26a"},"vehicle_type_id":"4","last_reported":1767478216,"current_range_meters":8400,"station_id":"ce4bhhp2rcd13ifvqfm0","pricing_plan_id":"cebpf4jnsgd1na2vs0mg"},{"bike_id":"091087be-27fe-438d-bb66-a525fac98399","system_id":"levelo_inurba_marseille","lat":43.27373,"lon":5.3624,"is_reserved":false,"is_disabled":false,"rental_uris":{"android":"levelo://app?vid=091087be-27fe-438d-bb66-a525fac98399","ios":"levelo://app?vid=091087be-27fe-438d-bb66-a525fac98399"},"vehicle_type_id":"4","last_reported":1767478216,"current_range_meters":8400,"station_id":"ce4bhbh2rcd13ifvqeo0","pricing_plan_id":"cebpf4jnsgd1na2vs0mg"},{"bike_id":"1ad626a8-48f8-44b7-8f92-c1cbcf226f43","system_id":"levelo_inurba_marseille","lat":43.24797,"lon":5.37485,"is_reserved":false,"is_disabled":false,"rental_uris":{"android":"levelo://app?vid=1ad626a8-48f8-44b7-8f92-c1cbcf226f43","ios":"levelo://app?vid=1ad626a8-48f8-44b7-8f92-c1cbcf226f43"},"vehicle_type_id":"4","last_reported":1767478216,"current_range_meters":8400,"station_id":"ce4bhgh2rcd13ifvqfb0","pricing_plan_id":"cebpf4jnsgd1na2vs0mg"},{"bike_id":"a414d67b-9afa-4a87-9fac-f67cdff12698","system_id":"levelo_inurba_marseille","lat":43.2941,"lon":5.37986,"is_reserved":false,"is_disabled":false,"rental_uris":{"android":"levelo://app?vid=a414d67b-9afa-4a87-9fac-f67cdff12698","ios":"levelo://app?vid=a414d67b-9afa-4a87-9fac-f67cdff12698"},"vehicle_type_id":"4","last_reported":1767478216,"current_range_meters":8400,"station_id":"","pricing_plan_id":"cebpf4jnsgd1na2vs0mg"},{"bike_id":"c3f97c6b-2dc7-4135-9316-e5d0c425f8a0","system_id":"levelo_inurba_marseille","lat":43.26948,"lon":5.38628,"is_reserved":false,"is_disabled":false,"rental_uris":{"android":"levelo://app?vid=c3f97c6b-2dc7-4135-9316-e5d0c425f8a0","ios":"levelo://app?vid=c3f97c6b-2dc7-4135-9316-e5d0c425f8a0"},"vehicle_type_id":"4","last_reported":1767478216,"current_range_meters":8400,"station_id":"ce4bhh92rcd13ifvqfh0","pricing_plan_id":"cebpf4jnsgd1na2vs0mg"},{"bike_id":"96d87c0e-8e58-4458-9a61-596f9aad61aa","system_id":"levelo_inurba_marseille","lat":43.21189,"lon":5.35068,"is_reserved":false,"is_disabled":false,"rental_uris":{"android":"levelo://app?vid=96d87c0e-8e58-4458-9a61-596f9aad61aa","ios":"levelo://app?vid=96d87c0e-8e58-4458-9a61-596f9aad61aa"},"vehicle_type_id":"4","last_reported":1767478216,"current_range_meters":8400,"station_id":"st_cvj6sg6p6f1abm77japg","pricing_plan_id":"cebpf4jnsgd1na2vs0mg"},{"bike_id":"d16182f3-e665-458f-b0d2-66b3db8796ce","system_id":"levelo_inurba_marseille","lat":43.26207,"lon":5.3743,"is_reserved":false,"is_disabled":false,"rental_uris":{"android":"levelo://app?vid=d16182f3-e665-458f-b0d2-66b3db8796ce","ios":"levelo://app?vid=d16182f3-e665-458f-b0d2-66b3db8796ce"},"vehicle_type_id":"4","last_reported":1767478216,"current_range_meters":8400,"station_id":"ce4bhgp2rcd13ifvqfc0","pricing_plan_id":"cebpf4jnsgd1na2vs0mg"},{"bike_id":"2d78d04f-3c3b-4c68-b06d-a38be4a7154f","system_id":"levelo_inurba_marseille","lat":43.29311,"lon":5.37448,"is_reserved":false,"is_disabled":false,"rental_uris":{"android":"levelo://app?vid=2d78d04f-3c3b-4c68-b06d-a38be4a7154f","ios":"levelo://app?vid=2d78d04f-3c3b-4c68-b06d-a38be4a7154f"},"vehicle_type_id":"4","last_reported":1767478216,"current_range_meters":8400,"station_id":"","pricing_plan_id":"cebpf4jnsgd1na2vs0mg"},{"bike_id":"d315c333-f174-48b1-aaed-b6cca0a078d8","system_id":"levelo_inurba_marseille","lat":43.2921,"lon":5.36055,"is_reserved":false,"is_disabled":false,"rental_uris":{"android":"levelo://app?vid=d315c333-f174-48b1-aaed-b6cca0a078d8","ios":"levelo://app?vid=d315c333-f174-48b1-aaed-b6cca0a078d8"},"vehicle_type_id":"4","last_reported":1767478216,"current_range_meters":8400,"station_id":"ce4bhbh2rcd13ifvqeqg","pricing_plan_id":"cebpf4jnsgd1na2vs0mg"},{"bike_id":"c33eb5f0-499c-46b8-b706-b5add847dbd3","system_id":"levelo_inurba_marseille","lat":43.33151,"lon":5.37704,"is_reserved":false,"is_disabled":false,"rental_uris":{"android":"levelo://app?vid=c33eb5f0-499c-46b8-b706-b5add847dbd3","ios":"levelo://app?vid=c33eb5f0-499c-46b8-b706-b5add847dbd3"},"vehicle_type_id":"4","last_reported":1767478216,"current_range_meters":8400,"station_id":"st_d46cu089ee8s73dldbu0","pricing_plan_id":"cebpf4jnsgd1na2vs0mg"},{"bike_id":"17e06372-e52b-4bdd-90cd-8338755c84dc","system_id":"levelo_inurba_marseille","lat":43.2315,"lon":5.43684,"is_reserved":false,"is_disabled":false,"rental_uris":{"android":"levelo://app?vid=17e06372-e52b-4bdd-90cd-8338755c84dc","ios":"levelo://app?vid=17e06372-e52b-4bdd-90cd-8338755c84dc"},"vehicle_type_id":"4","last_reported":1767478216,"current_range_meters":8400,"station_id":"ce4bhmp2rcd13ifvqgog","pricing_plan_id":"cebpf4jnsgd1na2vs0mg"},{"bike_id":"9f76342a-9caa-49c8-a5a4-4ac2e1abd64a","system_id":"levelo_inurba_marseille","lat":43.34136,"lon":5.40911,"is_reserved":false,"is_disabled":false,"rental_uris":{"android":"levelo://app?vid=9f76342a-9caa-49c8-a5a4-4ac2e1abd64a","ios":"levelo://app?vid=9f76342a-9caa-49c8-a5a4-4ac2e1abd64a"},"vehicle_type_id":"4","last_reported":1767478216,"current_range_meters":8400,"station_id":"ce4bhqh2rcd13ifvqhlg","pricing_plan_id":"cebpf4jnsgd1na2vs0mg"},{"bike_id":"a3868a4f-64f2-455d-866c-159991a9a86d","system_id":"levelo_inurba_marseille","lat":43.29971,"lon":5.38495,"is_reserved":false,"is_disabled":false,"rental_uris":{"android":"levelo://app?vid=a3868a4f-64f2-455d-866c-159991a9a86d","ios":"levelo://app?vid=a3868a4f-64f2-455d-866c-159991a9a86d"},"vehicle_type_id":"4","last_reported":1767478216,"current_range_meters":8400,"station_id":"ce4bgj92rcd13ifvqbd0","pricing_plan_id":"cebpf4jnsgd1na2vs0mg"},{"bike_id":"ca48d4ad-26ca-4dea-a200-be3e43176f3f","system_id":"levelo_inurba_marseille","lat":43.33219,"lon":5.41282,"is_reserved":false,"is_disabled":false,"rental_uris":{"android":"levelo://app?vid=ca48d4ad-26ca-4dea-a200-be3e43176f3f","ios":"levelo://app?vid=ca48d4ad-26ca-4dea-a200-be3e43176f3f"},"vehicle_type_id":"4","last_reported":1767478216,"current_range_meters":8400,"station_id":"","pricing_plan_id":"cebpf4jnsgd1na2vs0mg"},{"bike_id":"4dc8c32f-96ad-4bbe-8f82-5ce45a16b000","system_id":"levelo_inurba_marseille","lat":43.26193,"lon":5.37453,"is_reserved":false,"is_disabled":false,"rental_uris":{"android":"levelo://app?vid=4dc8c32f-96ad-4bbe-8f82-5ce45a16b000","ios":"levelo://app?vid=4dc8c32f-96ad-4bbe-8f82-5ce45a16b000"},"vehicle_type_id":"4","last_reported":1767478216,"current_range_meters":8400,"station_id":"ce4bhgp2rcd13ifvqfc0","pricing_plan_id":"cebpf4jnsgd1na2vs0mg"},{"bike_id":"55a7fced-b1cf-4260-b657-21d693c02d14","system_id":"levelo_inurba_marseille","lat":43.28406,"lon":5.37516,"is_reserved":false,"is_disabled":false,"rental_uris":{"android":"levelo://app?vid=55a7fced-b1cf-4260-b657-21d693c02d14","ios":"levelo://app?vid=55a7fced-b1cf-4260-b657-21d693c02d14"},"vehicle_type_id":"4","last_reported":1767478216,"current_range_meters":8400,"station_id":"ce4bh412rcd13ifvqds0","pricing_plan_id":"cebpf4jnsgd1na2vs0mg"},{"bike_id":"09e0601f-1ed8-4ad4-96bb-8937d729a00d","system_id":"levelo_inurba_marseille","lat":43.25587,"lon":5.38266,"is_reserved":false,"is_disabled":false,"rental_uris":{"android":"levelo://app?vid=09e0601f-1ed8-4ad4-96bb-8937d729a00d","ios":"levelo://app?vid=09e0601f-1ed8-4ad4-96bb-8937d729a00d"},"vehicle_type_id":"4","last_reported":1767478216,"current_range_meters":8400,"station_id":"ce4bhih2rcd13ifvqfs0","pricing_plan_id":"cebpf4jnsgd1na2vs0mg"},{"bike_id":"f01bf4b3-0a81-4ed0-84e5-e869486fd99c","system_id":"levelo_inurba_marseille","lat":43.24649,"lon":5.38899,"is_reserved":false,"is_disabled":false,"rental_uris":{"android":"levelo://app?vid=f01bf4b3-0a81-4ed0-84e5-e869486fd99c","ios":"levelo://app?vid=f01bf4b3-0a81-4ed0-84e5-e869486fd99c"},"vehicle_type_id":"4","last_reported":1767478216,"current_range_meters":8400,"station_id":"ce4bhg12rcd13ifvqf60","pricing_plan_id":"cebpf4jnsgd1na2vs0mg"},{"bike_id":"b97b9366-c081-4745-90ed-0e833c3a2f7c","system_id":"levelo_inurba_marseille","lat":43.33182,"lon":5.38167,"is_reserved":false,"is_disabled":false,"rental_uris":{"android":"levelo://app?vid=b97b9366-c081-4745-90ed-0e833c3a2f7c","ios":"levelo://app?vid=b97b9366-c081-4745-90ed-0e833c3a2f7c"},"vehicle_type_id":"4","last_reported":1767478216,"current_range_meters":8800,"station_id":"","pricing_plan_id":"cebpf4jnsgd1na2vs0mg"},{"bike_id":"32430d05-1fb8-4eba-b545-baa9ce76d5e5","system_id":"levelo_inurba_marseille","lat":43.288579,"lon":5.425166,"is_reserved":false,"is_disabled":false,"rental_uris":{"android":"levelo://app?vid=32430d05-1fb8-4eba-b545-baa9ce76d5e5","ios":"levelo://app?vid=32430d05-1fb8-4eba-b545-baa9ce76d5e5"},"vehicle_type_id":"4","last_reported":1767478216,"current_range_meters":8800,"station_id":"st_d3b462108ojc7389ooeg","pricing_plan_id":"cebpf4jnsgd1na2vs0mg"},{"bike_id":"8daa6ea0-c51c-417e-b7c7-aa57a3739cb8","system_id":"levelo_inurba_marseille","lat":43.29736,"lon":5.38073,"is_reserved":false,"is_disabled":false,"rental_uris":{"android":"levelo://app?vid=8daa6ea0-c51c-417e-b7c7-aa57a3739cb8","ios":"levelo://app?vid=8daa6ea0-c51c-417e-b7c7-aa57a3739cb8"},"vehicle_type_id":"4","last_reported":1767478216,"current_range_meters":8800,"station_id":"","pricing_plan_id":"cebpf4jnsgd1na2vs0mg"},{"bike_id":"73428eec-4c36-4c5f-9923-72dd40a75189","system_id":"levelo_inurba_marseille","lat":43.28141,"lon":5.4268,"is_reserved":false,"is_disabled":false,"rental_uris":{"android":"levelo://app?vid=73428eec-4c36-4c5f-9923-72dd40a75189","ios":"levelo://app?vid=73428eec-4c36-4c5f-9923-72dd40a75189"},"vehicle_type_id":"4","last_reported":1767478216,"current_range_meters":8800,"station_id":"ce4bhnh2rcd13ifvqgug","pricing_plan_id":"cebpf4jnsgd1na2vs0mg"},{"bike_id":"fcd440e6-5539-4d36-8905-9b19c9c5332a","system_id":"levelo_inurba_marseille","lat":43.27082,"lon":5.39125,"is_reserved":false,"is_disabled":false,"rental_uris":{"android":"levelo://app?vid=fcd440e6-5539-4d36-8905-9b19c9c5332a","ios":"levelo://app?vid=fcd440e6-5539-4d36-8905-9b19c9c5332a"},"vehicle_type_id":"4","last_reported":1767478216,"current_range_meters":8800,"station_id":"","pricing_plan_id":"cebpf4jnsgd1na2vs0mg"},{"bike_id":"8915119e-3af5-49e8-b21b-a9a565e988bd","system_id":"levelo_inurba_marseille","lat":43.27963,"lon":5.38738,"is_reserved":false,"is_disabled":false,"rental_uris":{"android":"levelo://app?vid=8915119e-3af5-49e8-b21b-a9a565e988bd","ios":"levelo://app?vid=8915119e-3af5-49e8-b21b-a9a565e988bd"},"vehicle_type_id":"4","last_reported":1767478216,"current_range_meters":8800,"station_id":"ce4bhg12rcd13ifvqf80","pricing_plan_id":"cebpf4jnsgd1na2vs0mg"},{"bike_id":"7f82846f-a9c2-426e-b04f-d573601c2c1e","system_id":"levelo_inurba_marseille","lat":43.24633,"lon":5.43144,"is_reserved":false,"is_disabled":false,"rental_uris":{"android":"levelo://app?vid=7f82846f-a9c2-426e-b04f-d573601c2c1e","ios":"levelo://app?vid=7f82846f-a9c2-426e-b04f-d573601c2c1e"},"vehicle_type_id":"4","last_reported":1767478216,"current_range_meters":8800,"station_id":"st_d2m6c4gdas8pm72e190g","pricing_plan_id":"cebpf4jnsgd1na2vs0mg"},{"bike_id":"124eae3d-8f06-4fa8-b6bd-6109a06a7355","system_id":"levelo_inurba_marseille","lat":43.33153,"lon":5.37703,"is_reserved":false,"is_disabled":false,"rental_uris":{"android":"levelo://app?vid=124eae3d-8f06-4fa8-b6bd-6109a06a7355","ios":"levelo://app?vid=124eae3d-8f06-4fa8-b6bd-6109a06a7355"},"vehicle_type_id":"4","last_reported":1767478216,"current_range_meters":8800,"station_id":"st_d46cu089ee8s73dldbu0","pricing_plan_id":"cebpf4jnsgd1na2vs0mg"},{"bike_id":"e6d9500a-84c5-42cc-8272-3c33a326b727","system_id":"levelo_inurba_marseille","lat":43.30726,"lon":5.42447,"is_reserved":false,"is_disabled":false,"rental_uris":{"android":"levelo://app?vid=e6d9500a-84c5-42cc-8272-3c33a326b727","ios":"levelo://app?vid=e6d9500a-84c5-42cc-8272-3c33a326b727"},"vehicle_type_id":"4","last_reported":1767478216,"current_range_meters":8800,"station_id":"st_cvj6ca6bvosntc0bfgr0","pricing_plan_id":"cebpf4jnsgd1na2vs0mg"},{"bike_id":"69161e8f-51d3-4034-b7dc-9a0c99d58e5d","system_id":"levelo_inurba_marseille","lat":43.29692,"lon":5.37862,"is_reserved":false,"is_disabled":false,"rental_uris":{"android":"levelo://app?vid=69161e8f-51d3-4034-b7dc-9a0c99d58e5d","ios":"levelo://app?vid=69161e8f-51d3-4034-b7dc-9a0c99d58e5d"},"vehicle_type_id":"4","last_reported":1767478216,"current_range_meters":8800,"station_id":"","pricing_plan_id":"cebpf4jnsgd1na2vs0mg"},{"bike_id":"dd3326ea-ad71-4f86-88d6-f79309f37529","system_id":"levelo_inurba_marseille","lat":43.24378,"lon":5.37053,"is_reserved":false,"is_disabled":false,"rental_uris":{"android":"levelo://app?vid=dd3326ea-ad71-4f86-88d6-f79309f37529","ios":"levelo://app?vid=dd3326ea-ad71-4f86-88d6-f79309f37529"},"vehicle_type_id":"4","last_reported":1767478216,"current_range_meters":9200,"station_id":"ce4bhhh2rcd13ifvqfk0","pricing_plan_id":"cebpf4jnsgd1na2vs0mg"},{"bike_id":"85246bf5-791b-4c2f-925f-a931bac4026e","system_id":"levelo_inurba_marseille","lat":43.30118,"lon":5.43129,"is_reserved":false,"is_disabled":false,"rental_uris":{"android":"levelo://app?vid=85246bf5-791b-4c2f-925f-a931bac4026e","ios":"levelo://app?vid=85246bf5-791b-4c2f-925f-a931bac4026e"},"vehicle_type_id":"4","last_reported":1767478216,"current_range_meters":9200,"station_id":"st_d3js3co5814s73ftftug","pricing_plan_id":"cebpf4jnsgd1na2vs0mg"},{"bike_id":"0e471836-29c5-4d70-93bc-4b375d486538","system_id":"levelo_inurba_marseille","lat":43.29434,"lon":5.39714,"is_reserved":false,"is_disabled":false,"rental_uris":{"android":"levelo://app?vid=0e471836-29c5-4d70-93bc-4b375d486538","ios":"levelo://app?vid=0e471836-29c5-4d70-93bc-4b375d486538"},"vehicle_type_id":"4","last_reported":1767478216,"current_range_meters":9200,"station_id":"ce4bh3h2rcd13ifvqdo0","pricing_plan_id":"cebpf4jnsgd1na2vs0mg"},{"bike_id":"069e0897-8da2-45e6-aee3-9dedd86fd186","system_id":"levelo_inurba_marseille","lat":43.26188,"lon":5.37485,"is_reserved":false,"is_disabled":false,"rental_uris":{"android":"levelo://app?vid=069e0897-8da2-45e6-aee3-9dedd86fd186","ios":"levelo://app?vid=069e0897-8da2-45e6-aee3-9dedd86fd186"},"vehicle_type_id":"4","last_reported":1767478216,"current_range_meters":9200,"station_id":"ce4bhgp2rcd13ifvqfc0","pricing_plan_id":"cebpf4jnsgd1na2vs0mg"},{"bike_id":"ec47e74c-4c77-4ced-84eb-ad537c50b956","system_id":"levelo_inurba_marseille","lat":43.217437,"lon":5.346047,"is_reserved":false,"is_disabled":true,"rental_uris":{"android":"levelo://app?vid=ec47e74c-4c77-4ced-84eb-ad537c50b956","ios":"levelo://app?vid=ec47e74c-4c77-4ced-84eb-ad537c50b956"},"vehicle_type_id":"4","last_reported":1767478216,"current_range_meters":9200,"station_id":"st_cvj6r9ubvosntc0bgbag","pricing_plan_id":"cebpf4jnsgd1na2vs0mg"},{"bike_id":"f631b3ee-7210-4467-997c-2fcb8a8b1933","system_id":"levelo_inurba_marseille","lat":43.26663,"lon":5.38265,"is_reserved":false,"is_disabled":false,"rental_uris":{"android":"levelo://app?vid=f631b3ee-7210-4467-997c-2fcb8a8b1933","ios":"levelo://app?vid=f631b3ee-7210-4467-997c-2fcb8a8b1933"},"vehicle_type_id":"4","last_reported":1767478216,"current_range_meters":9200,"station_id":"ce4bhg92rcd13ifvqf90","pricing_plan_id":"cebpf4jnsgd1na2vs0mg"},{"bike_id":"35d860d4-6ea7-4d26-b614-c09aa12978bc","system_id":"levelo_inurba_marseille","lat":43.28857,"lon":5.35823,"is_reserved":false,"is_disabled":false,"rental_uris":{"android":"levelo://app?vid=35d860d4-6ea7-4d26-b614-c09aa12978bc","ios":"levelo://app?vid=35d860d4-6ea7-4d26-b614-c09aa12978bc"},"vehicle_type_id":"4","last_reported":1767478216,"current_range_meters":9200,"station_id":"ce4bhb12rcd13ifvqem0","pricing_plan_id":"cebpf4jnsgd1na2vs0mg"},{"bike_id":"f257b2d0-1f16-4656-837f-b9ab9f001b03","system_id":"levelo_inurba_marseille","lat":43.2257,"lon":5.41633,"is_reserved":false,"is_disabled":false,"rental_uris":{"android":"levelo://app?vid=f257b2d0-1f16-4656-837f-b9ab9f001b03","ios":"levelo://app?vid=f257b2d0-1f16-4656-837f-b9ab9f001b03"},"vehicle_type_id":"4","last_reported":1767478216,"current_range_meters":9200,"station_id":"st_d2o4gvlbi1j2169b742g","pricing_plan_id":"cebpf4jnsgd1na2vs0mg"},{"bike_id":"9adcd37d-8eaa-40b0-986c-a24619cab993","system_id":"levelo_inurba_marseille","lat":43.27932,"lon":5.38698,"is_reserved":false,"is_disabled":false,"rental_uris":{"android":"levelo://app?vid=9adcd37d-8eaa-40b0-986c-a24619cab993","ios":"levelo://app?vid=9adcd37d-8eaa-40b0-986c-a24619cab993"},"vehicle_type_id":"4","last_reported":1767478216,"current_range_meters":9200,"station_id":"","pricing_plan_id":"cebpf4jnsgd1na2vs0mg"},{"bike_id":"76cfe7ab-794a-46b5-9e73-8bb3ec2a5b3c","system_id":"levelo_inurba_marseille","lat":43.29216,"lon":5.36082,"is_reserved":false,"is_disabled":false,"rental_uris":{"android":"levelo://app?vid=76cfe7ab-794a-46b5-9e73-8bb3ec2a5b3c","ios":"levelo://app?vid=76cfe7ab-794a-46b5-9e73-8bb3ec2a5b3c"},"vehicle_type_id":"4","last_reported":1767478216,"current_range_meters":9200,"station_id":"ce4bhbh2rcd13ifvqeqg","pricing_plan_id":"cebpf4jnsgd1na2vs0mg"},{"bike_id":"e44cab74-f685-400b-b393-d23149de2a52","system_id":"levelo_inurba_marseille","lat":43.243334,"lon":5.368015,"is_reserved":false,"is_disabled":false,"rental_uris":{"android":"levelo://app?vid=e44cab74-f685-400b-b393-d23149de2a52","ios":"levelo://app?vid=e44cab74-f685-400b-b393-d23149de2a52"},"vehicle_type_id":"4","last_reported":1767478216,"current_range_meters":9200,"station_id":"cpo36qri1sfpv3e86is0","pricing_plan_id":"cebpf4jnsgd1na2vs0mg"},{"bike_id":"20d5f085-f6f8-41a4-83ff-324364b933ea","system_id":"levelo_inurba_marseille","lat":43.29869,"lon":5.36305,"is_reserved":false,"is_disabled":false,"rental_uris":{"android":"levelo://app?vid=20d5f085-f6f8-41a4-83ff-324364b933ea","ios":"levelo://app?vid=20d5f085-f6f8-41a4-83ff-324364b933ea"},"vehicle_type_id":"4","last_reported":1767478216,"current_range_meters":9200,"station_id":"ce4bgpp2rcd13ifvqc3g","pricing_plan_id":"cebpf4jnsgd1na2vs0mg"},{"bike_id":"3c75f419-5803-4899-81c9-5dc85ee80acc","system_id":"levelo_inurba_marseille","lat":43.30188,"lon":5.36629,"is_reserved":false,"is_disabled":false,"rental_uris":{"android":"levelo://app?vid=3c75f419-5803-4899-81c9-5dc85ee80acc","ios":"levelo://app?vid=3c75f419-5803-4899-81c9-5dc85ee80acc"},"vehicle_type_id":"4","last_reported":1767478216,"current_range_meters":9200,"station_id":"ce4bgrh2rcd13ifvqc8g","pricing_plan_id":"cebpf4jnsgd1na2vs0mg"},{"bike_id":"314f1e79-75d2-4520-879c-5c75bd15a245","system_id":"levelo_inurba_marseille","lat":43.27658,"lon":5.41864,"is_reserved":false,"is_disabled":false,"rental_uris":{"android":"levelo://app?vid=314f1e79-75d2-4520-879c-5c75bd15a245","ios":"levelo://app?vid=314f1e79-75d2-4520-879c-5c75bd15a245"},"vehicle_type_id":"4","last_reported":1767478216,"current_range_meters":9200,"station_id":"","pricing_plan_id":"cebpf4jnsgd1na2vs0mg"},{"bike_id":"57b725a6-cdde-4849-96a9-7686225f0651","system_id":"levelo_inurba_marseille","lat":43.2848,"lon":5.38407,"is_reserved":false,"is_disabled":false,"rental_uris":{"android":"levelo://app?vid=57b725a6-cdde-4849-96a9-7686225f0651","ios":"levelo://app?vid=57b725a6-cdde-4849-96a9-7686225f0651"},"vehicle_type_id":"4","last_reported":1767478216,"current_range_meters":9200,"station_id":"ce4bh512rcd13ifvqe3g","pricing_plan_id":"cebpf4jnsgd1na2vs0mg"},{"bike_id":"b98c4bb3-e84f-4703-8006-455cb12ed450","system_id":"levelo_inurba_marseille","lat":43.28829,"lon":5.42629,"is_reserved":false,"is_disabled":false,"rental_uris":{"android":"levelo://app?vid=b98c4bb3-e84f-4703-8006-455cb12ed450","ios":"levelo://app?vid=b98c4bb3-e84f-4703-8006-455cb12ed450"},"vehicle_type_id":"4","last_reported":1767478216,"current_range_meters":9200,"station_id":"","pricing_plan_id":"cebpf4jnsgd1na2vs0mg"},{"bike_id":"9266c9ee-84f2-41f3-ba5f-42f44b708c8b","system_id":"levelo_inurba_marseille","lat":43.24623,"lon":5.43151,"is_reserved":false,"is_disabled":false,"rental_uris":{"android":"levelo://app?vid=9266c9ee-84f2-41f3-ba5f-42f44b708c8b","ios":"levelo://app?vid=9266c9ee-84f2-41f3-ba5f-42f44b708c8b"},"vehicle_type_id":"4","last_reported":1767478216,"current_range_meters":9200,"station_id":"st_d2m6c4gdas8pm72e190g","pricing_plan_id":"cebpf4jnsgd1na2vs0mg"},{"bike_id":"b3d59484-cd19-45d2-b606-93493278f957","system_id":"levelo_inurba_marseille","lat":43.295471,"lon":5.422776,"is_reserved":false,"is_disabled":false,"rental_uris":{"android":"levelo://app?vid=b3d59484-cd19-45d2-b606-93493278f957","ios":"levelo://app?vid=b3d59484-cd19-45d2-b606-93493278f957"},"vehicle_type_id":"4","last_reported":1767478216,"current_range_meters":9600,"station_id":"ce4bhph2rcd13ifvqhdg","pricing_plan_id":"cebpf4jnsgd1na2vs0mg"},{"bike_id":"477ba31f-c2c7-4a1d-8843-796b8a55f55c","system_id":"levelo_inurba_marseille","lat":43.28474,"lon":5.38413,"is_reserved":false,"is_disabled":false,"rental_uris":{"android":"levelo://app?vid=477ba31f-c2c7-4a1d-8843-796b8a55f55c","ios":"levelo://app?vid=477ba31f-c2c7-4a1d-8843-796b8a55f55c"},"vehicle_type_id":"4","last_reported":1767478216,"current_range_meters":9600,"station_id":"ce4bh512rcd13ifvqe3g","pricing_plan_id":"cebpf4jnsgd1na2vs0mg"},{"bike_id":"236dd84d-8375-4d9b-8e7d-9db60d676bfe","system_id":"levelo_inurba_marseille","lat":43.24657,"lon":5.382,"is_reserved":false,"is_disabled":false,"rental_uris":{"android":"levelo://app?vid=236dd84d-8375-4d9b-8e7d-9db60d676bfe","ios":"levelo://app?vid=236dd84d-8375-4d9b-8e7d-9db60d676bfe"},"vehicle_type_id":"4","last_reported":1767478216,"current_range_meters":9600,"station_id":"ce4bhih2rcd13ifvqfr0","pricing_plan_id":"cebpf4jnsgd1na2vs0mg"},{"bike_id":"4e839bab-c0a4-4f9b-8de3-cb292b501eb1","system_id":"levelo_inurba_marseille","lat":43.225341,"lon":5.348293,"is_reserved":false,"is_disabled":false,"rental_uris":{"android":"levelo://app?vid=4e839bab-c0a4-4f9b-8de3-cb292b501eb1","ios":"levelo://app?vid=4e839bab-c0a4-4f9b-8de3-cb292b501eb1"},"vehicle_type_id":"4","last_reported":1767478216,"current_range_meters":9600,"station_id":"","pricing_plan_id":"cebpf4jnsgd1na2vs0mg"},{"bike_id":"e72f3e60-6ac8-4663-9850-ff48b1c5f278","system_id":"levelo_inurba_marseille","lat":43.28484,"lon":5.38455,"is_reserved":false,"is_disabled":false,"rental_uris":{"android":"levelo://app?vid=e72f3e60-6ac8-4663-9850-ff48b1c5f278","ios":"levelo://app?vid=e72f3e60-6ac8-4663-9850-ff48b1c5f278"},"vehicle_type_id":"4","last_reported":1767478216,"current_range_meters":9600,"station_id":"ce4bh512rcd13ifvqe3g","pricing_plan_id":"cebpf4jnsgd1na2vs0mg"},{"bike_id":"7da449bd-25d7-4771-9935-4208387ef603","system_id":"levelo_inurba_marseille","lat":43.29542,"lon":5.42268,"is_reserved":false,"is_disabled":false,"rental_uris":{"android":"levelo://app?vid=7da449bd-25d7-4771-9935-4208387ef603","ios":"levelo://app?vid=7da449bd-25d7-4771-9935-4208387ef603"},"vehicle_type_id":"4","last_reported":1767478216,"current_range_meters":9600,"station_id":"ce4bhph2rcd13ifvqhdg","pricing_plan_id":"cebpf4jnsgd1na2vs0mg"},{"bike_id":"fbdd49c1-7e16-4b0d-9464-4f1899b2871a","system_id":"levelo_inurba_marseille","lat":43.27933,"lon":5.39582,"is_reserved":false,"is_disabled":false,"rental_uris":{"android":"levelo://app?vid=fbdd49c1-7e16-4b0d-9464-4f1899b2871a","ios":"levelo://app?vid=fbdd49c1-7e16-4b0d-9464-4f1899b2871a"},"vehicle_type_id":"4","last_reported":1767478216,"current_range_meters":9600,"station_id":"ce4bhf92rcd13ifvqf40","pricing_plan_id":"cebpf4jnsgd1na2vs0mg"},{"bike_id":"a668d423-78fb-4d5c-b207-fb7699a9ad75","system_id":"levelo_inurba_marseille","lat":43.30596,"lon":5.37225,"is_reserved":false,"is_disabled":false,"rental_uris":{"android":"levelo://app?vid=a668d423-78fb-4d5c-b207-fb7699a9ad75","ios":"levelo://app?vid=a668d423-78fb-4d5c-b207-fb7699a9ad75"},"vehicle_type_id":"4","last_reported":1767478216,"current_range_meters":9600,"station_id":"ce4bgqh2rcd13ifvqc4g","pricing_plan_id":"cebpf4jnsgd1na2vs0mg"},{"bike_id":"10a1dba1-3d6a-46a6-8284-36f7abd34e79","system_id":"levelo_inurba_marseille","lat":43.29028,"lon":5.38655,"is_reserved":false,"is_disabled":false,"rental_uris":{"android":"levelo://app?vid=10a1dba1-3d6a-46a6-8284-36f7abd34e79","ios":"levelo://app?vid=10a1dba1-3d6a-46a6-8284-36f7abd34e79"},"vehicle_type_id":"4","last_reported":1767478216,"current_range_meters":9600,"station_id":"ce4bh4p2rcd13ifvqe0g","pricing_plan_id":"cebpf4jnsgd1na2vs0mg"},{"bike_id":"dc27f3eb-57f1-4106-868f-05862cbe6e1b","system_id":"levelo_inurba_marseille","lat":43.28601,"lon":5.39882,"is_reserved":false,"is_disabled":false,"rental_uris":{"android":"levelo://app?vid=dc27f3eb-57f1-4106-868f-05862cbe6e1b","ios":"levelo://app?vid=dc27f3eb-57f1-4106-868f-05862cbe6e1b"},"vehicle_type_id":"4","last_reported":1767478216,"current_range_meters":9600,"station_id":"st_d4a7ka997mjs738ck50g","pricing_plan_id":"cebpf4jnsgd1na2vs0mg"},{"bike_id":"7f01de1e-82c5-4abd-a8a0-bd31c8a992fa","system_id":"levelo_inurba_marseille","lat":43.29979,"lon":5.41326,"is_reserved":false,"is_disabled":true,"rental_uris":{"android":"levelo://app?vid=7f01de1e-82c5-4abd-a8a0-bd31c8a992fa","ios":"levelo://app?vid=7f01de1e-82c5-4abd-a8a0-bd31c8a992fa"},"vehicle_type_id":"4","last_reported":1767478216,"current_range_meters":9600,"station_id":"ce4bhp12rcd13ifvqh9g","pricing_plan_id":"cebpf4jnsgd1na2vs0mg"},{"bike_id":"7e37952a-94ec-4f1e-959e-53f61206aa5b","system_id":"levelo_inurba_marseille","lat":43.28391,"lon":5.3862,"is_reserved":false,"is_disabled":false,"rental_uris":{"android":"levelo://app?vid=7e37952a-94ec-4f1e-959e-53f61206aa5b","ios":"levelo://app?vid=7e37952a-94ec-4f1e-959e-53f61206aa5b"},"vehicle_type_id":"4","last_reported":1767478216,"current_range_meters":9600,"station_id":"","pricing_plan_id":"cebpf4jnsgd1na2vs0mg"},{"bike_id":"6575d6a9-ccef-46e1-8060-3b89de27fb46","system_id":"levelo_inurba_marseille","lat":43.33566,"lon":5.37433,"is_reserved":false,"is_disabled":false,"rental_uris":{"android":"levelo://app?vid=6575d6a9-ccef-46e1-8060-3b89de27fb46","ios":"levelo://app?vid=6575d6a9-ccef-46e1-8060-3b89de27fb46"},"vehicle_type_id":"4","last_reported":1767478216,"current_range_meters":9600,"station_id":"st_d46tts09ee8s73dlu43g","pricing_plan_id":"cebpf4jnsgd1na2vs0mg"},{"bike_id":"dd1e0418-c61b-4102-a323-55dfd0941e3d","system_id":"levelo_inurba_marseille","lat":43.231918,"lon":5.355555,"is_reserved":false,"is_disabled":false,"rental_uris":{"android":"levelo://app?vid=dd1e0418-c61b-4102-a323-55dfd0941e3d","ios":"levelo://app?vid=dd1e0418-c61b-4102-a323-55dfd0941e3d"},"vehicle_type_id":"4","last_reported":1767478216,"current_range_meters":9600,"station_id":"ce4bhu92rcd13ifvqi70","pricing_plan_id":"cebpf4jnsgd1na2vs0mg"},{"bike_id":"524c1ed8-572d-4bd4-ab56-ccc941c96a3e","system_id":"levelo_inurba_marseille","lat":43.28603,"lon":5.35122,"is_reserved":false,"is_disabled":false,"rental_uris":{"android":"levelo://app?vid=524c1ed8-572d-4bd4-ab56-ccc941c96a3e","ios":"levelo://app?vid=524c1ed8-572d-4bd4-ab56-ccc941c96a3e"},"vehicle_type_id":"4","last_reported":1767478216,"current_range_meters":9600,"station_id":"ce4bhch2rcd13ifvqeug","pricing_plan_id":"cebpf4jnsgd1na2vs0mg"},{"bike_id":"2be57466-a646-4f79-84c2-74019bc2d375","system_id":"levelo_inurba_marseille","lat":43.27941,"lon":5.41054,"is_reserved":false,"is_disabled":false,"rental_uris":{"android":"levelo://app?vid=2be57466-a646-4f79-84c2-74019bc2d375","ios":"levelo://app?vid=2be57466-a646-4f79-84c2-74019bc2d375"},"vehicle_type_id":"4","last_reported":1767478216,"current_range_meters":10000,"station_id":"ce4bhnp2rcd13ifvqh0g","pricing_plan_id":"cebpf4jnsgd1na2vs0mg"},{"bike_id":"49212ed5-2707-44a2-b518-ba6b47efb9fd","system_id":"levelo_inurba_marseille","lat":43.28913,"lon":5.38387,"is_reserved":false,"is_disabled":false,"rental_uris":{"android":"levelo://app?vid=49212ed5-2707-44a2-b518-ba6b47efb9fd","ios":"levelo://app?vid=49212ed5-2707-44a2-b518-ba6b47efb9fd"},"vehicle_type_id":"4","last_reported":1767478216,"current_range_meters":10000,"station_id":"ce4bh612rcd13ifvqe6g","pricing_plan_id":"cebpf4jnsgd1na2vs0mg"},{"bike_id":"067249c4-fb35-421e-9a6c-c895241c197a","system_id":"levelo_inurba_marseille","lat":43.29486,"lon":5.39303,"is_reserved":false,"is_disabled":false,"rental_uris":{"android":"levelo://app?vid=067249c4-fb35-421e-9a6c-c895241c197a","ios":"levelo://app?vid=067249c4-fb35-421e-9a6c-c895241c197a"},"vehicle_type_id":"4","last_reported":1767478216,"current_range_meters":10000,"station_id":"","pricing_plan_id":"cebpf4jnsgd1na2vs0mg"},{"bike_id":"7f889366-09db-4740-a1c0-e9409a42cbcc","system_id":"levelo_inurba_marseille","lat":43.312063,"lon":5.368615,"is_reserved":false,"is_disabled":false,"rental_uris":{"android":"levelo://app?vid=7f889366-09db-4740-a1c0-e9409a42cbcc","ios":"levelo://app?vid=7f889366-09db-4740-a1c0-e9409a42cbcc"},"vehicle_type_id":"4","last_reported":1767478216,"current_range_meters":10000,"station_id":"ce4bgl92rcd13ifvqbq0","pricing_plan_id":"cebpf4jnsgd1na2vs0mg"},{"bike_id":"27626489-9a85-450c-865a-899c2f469916","system_id":"levelo_inurba_marseille","lat":43.25578,"lon":5.38238,"is_reserved":false,"is_disabled":false,"rental_uris":{"android":"levelo://app?vid=27626489-9a85-450c-865a-899c2f469916","ios":"levelo://app?vid=27626489-9a85-450c-865a-899c2f469916"},"vehicle_type_id":"4","last_reported":1767478216,"current_range_meters":10000,"station_id":"ce4bhih2rcd13ifvqfs0","pricing_plan_id":"cebpf4jnsgd1na2vs0mg"},{"bike_id":"ca0c01c7-fbdb-4547-a3b0-3f7514c0d05b","system_id":"levelo_inurba_marseille","lat":43.28416,"lon":5.34955,"is_reserved":false,"is_disabled":false,"rental_uris":{"android":"levelo://app?vid=ca0c01c7-fbdb-4547-a3b0-3f7514c0d05b","ios":"levelo://app?vid=ca0c01c7-fbdb-4547-a3b0-3f7514c0d05b"},"vehicle_type_id":"4","last_reported":1767478216,"current_range_meters":10000,"station_id":"ce4bhbh2rcd13ifvqepg","pricing_plan_id":"cebpf4jnsgd1na2vs0mg"},{"bike_id":"51e412de-250b-45dd-bdec-bd44b7e6658d","system_id":"levelo_inurba_marseille","lat":43.27201,"lon":5.39165,"is_reserved":false,"is_disabled":false,"rental_uris":{"android":"levelo://app?vid=51e412de-250b-45dd-bdec-bd44b7e6658d","ios":"levelo://app?vid=51e412de-250b-45dd-bdec-bd44b7e6658d"},"vehicle_type_id":"4","last_reported":1767478216,"current_range_meters":10000,"station_id":"ce4bhhp2rcd13ifvqfm0","pricing_plan_id":"cebpf4jnsgd1na2vs0mg"},{"bike_id":"5abeab1b-faee-4efd-b658-f0a83fb10313","system_id":"levelo_inurba_marseille","lat":43.26194,"lon":5.37452,"is_reserved":false,"is_disabled":false,"rental_uris":{"android":"levelo://app?vid=5abeab1b-faee-4efd-b658-f0a83fb10313","ios":"levelo://app?vid=5abeab1b-faee-4efd-b658-f0a83fb10313"},"vehicle_type_id":"4","last_reported":1767478216,"current_range_meters":10000,"station_id":"ce4bhgp2rcd13ifvqfc0","pricing_plan_id":"cebpf4jnsgd1na2vs0mg"},{"bike_id":"810c7ae0-2bf9-4fb7-9de0-ed0f816ef902","system_id":"levelo_inurba_marseille","lat":43.27938,"lon":5.41048,"is_reserved":false,"is_disabled":false,"rental_uris":{"android":"levelo://app?vid=810c7ae0-2bf9-4fb7-9de0-ed0f816ef902","ios":"levelo://app?vid=810c7ae0-2bf9-4fb7-9de0-ed0f816ef902"},