{"last_updated":1728050925,"ttl":60,"version":"2.2","data":{"bikes":[{"bike_id":"086b36b2-8fa9-4a21-a966-d0afeb3875cc","system_id":"levelo_inurba_marseille","lat":43.30151,"lon":5.38084,"is_reserved":false,"is_disabled":false,"rental_uris":{"android":"levelo://app?vid=086b36b2-8fa9-4a21-a966-d0afeb3875cc","ios":"levelo://app?vid=086b36b2-8fa9-4a21-a966-d0afeb3875cc"},"vehicle_type_id":"4","last_reported":1728050925,"current_range_meters":35600,"station_id":"ce4bgjp2rcd13ifvqbh0","pricing_plan_id":"cebpf4jnsgd1na2vs0mg"},{"bike_id":"05ffea4b-598c-4247-925d-f9cedd528881","system_id":"levelo_inurba_marseille","lat":43.32657,"lon":5.40987,"is_reserved":false,"is_disabled":false,"rental_uris":{"android":"levelo://app?vid=05ffea4b-598c-4247-925d-f9cedd528881","ios":"levelo://app?vid=05ffea4b-598c-4247-925d-f9cedd528881"},"vehicle_type_id":"4","last_reported":1728050925,"current_range_meters":34800,"station_id":"ce4bhpp2rcd13ifvqhgg","pricing_plan_id":"cebpf4jnsgd1na2vs0mg"},{"bike_id":"c2414e9c-9bcd-4870-85ba-d0bc759830ee","system_id":"levelo_inurba_marseille","lat":43.310764,"lon":5.383429,"is_reserved":false,"is_disabled":false,"rental_uris":{"android":"levelo://app?vid=c2414e9c-9bcd-4870-85ba-d0bc759830ee","ios":"levelo://app?vid=c2414e9c-9bcd-4870-85ba-d0bc759830ee"},"vehicle_type_id":"4","last_reported":1728050925,"current_range_meters":3600,"station_id":"ce4bgv92rcd13ifvqcr0","pricing_plan_id":"cebpf4jnsgd1na2vs0mg"},{"bike_id":"e882e16c-4ad2-484e-8753-ecb162f629ab","system_id":"levelo_inurba_marseille","lat":43.320378,"lon":5.415446,"is_reserved":false,"is_disabled":false,"rental_uris":{"android":"levelo://app?vid=e882e16c-4ad2-484e-8753-ecb162f629ab","ios":"levelo://app?vid=e882e16c-4ad2-484e-8753-ecb162f629ab"},"vehicle_type_id":"4","last_reported":1728050925,"current_range_meters":36000,"station_id":"ce4bgt12rcd13ifvqce0","pricing_plan_id":"cebpf4jnsgd1na2vs0mg"},{"bike_id":"be041a6d-e450-4188-b128-b918e953d248","system_id":"levelo_inurba_marseille","lat":43.293,"lon":5.37179,"is_reserved":false,"is_disabled":false,"rental_uris":{"android":"levelo://app?vid=be041a6d-e450-4188-b128-b918e953d248","ios":"levelo://app?vid=be041a6d-e450-4188-b128-b918e953d248"},"vehicle_type_id":"4","last_reported":1728050925,"current_range_meters":38000,"station_id":"ce4bgh92rcd13ifvqb40","pricing_plan_id":"cebpf4jnsgd1na2vs0mg"},{"bike_id":"ea1c4b47-df71-47c6-91fa-b3b8c49b241b","system_id":"levelo_inurba_marseille","lat":43.30157,"lon":5.38091,"is_reserved":false,"is_disabled":false,"rental_uris":{"android":"levelo://app?vid=ea1c4b47-df71-47c6-91fa-b3b8c49b241b","ios":"levelo://app?vid=ea1c4b47-df71-47c6-91fa-b3b8c49b241b"},"vehicle_type_id":"4","last_reported":1728050925,"current_range_meters":12000,"station_id":"ce4bgjp2rcd13ifvqbh0","pricing_plan_id":"cebpf4jnsgd1na2vs0mg"},{"bike_id":"0ab31a2b-100e-46ba-8518-e3de7fc7122e","system_id":"levelo_inurba_marseille","lat":43.33759,"lon":5.37448,"is_reserved":false,"is_disabled":false,"rental_uris":{"android":"levelo://app?vid=0ab31a2b-100e-46ba-8518-e3de7fc7122e","ios":"levelo://app?vid=0ab31a2b-100e-46ba-8518-e3de7fc7122e"},"vehicle_type_id":"4","last_reported":1728050925,"current_range_meters":38800,"station_id":"","pricing_plan_id":"cebpf4jnsgd1na2vs0mg"},{"bike_id":"7f528f9c-e10d-4310-b1e8-1156af8894a5","system_id":"levelo_inurba_marseille","lat":43.250751,"lon":5.395266,"is_reserved":false,"is_disabled":false,"rental_uris":{"android":"levelo://app?vid=7f528f9c-e10d-4310-b1e8-1156af8894a5","ios":"levelo://app?vid=7f528f9c-e10d-4310-b1e8-1156af8894a5"},"vehicle_type_id":"4","last_reported":1728050925,"current_range_meters":8800,"station_id":"ce4bhm12rcd13ifvqgkg","pricing_plan_id":"cebpf4jnsgd1na2vs0mg"},{"bike_id":"756088e4-bd38-4606-aa6f-cbbf1461af00","system_id":"levelo_inurba_marseille","lat":43.22936,"lon":5.35378,"is_reserved":false,"is_disabled":false,"rental_uris":{"android":"levelo://app?vid=756088e4-bd38-4606-aa6f-cbbf1461af00","ios":"levelo://app?vid=756088e4-bd38-4606-aa6f-cbbf1461af00"},"vehicle_type_id":"4","last_reported":1728050925,"current_range_meters":12000,"station_id":"cpo3532slgdg3j2ikp40","pricing_plan_id":"cebpf4jnsgd1na2vs0mg"},{"bike_id":"b55713ae-e46a-46b9-b649-ec204bdca1f5","system_id":"levelo_inurba_marseille","lat":43.29842,"lon":5.36274,"is_reserved":false,"is_disabled":false,"rental_uris":{"android":"levelo://app?vid=b55713ae-e46a-46b9-b649-ec204bdca1f5","ios":"levelo://app?vid=b55713ae-e46a-46b9-b649-ec204bdca1f5"},"vehicle_type_id":"4","last_reported":1728050925,"current_range_meters":31200,"station_id":"ce4bgpp2rcd13ifvqc3g","pricing_plan_id":"cebpf4jnsgd1na2vs0mg"},{"bike_id":"64ed675a-7e74-4a3b-8e49-81bef5ed819d","system_id":"levelo_inurba_marseille","lat":43.28413,"lon":5.3498,"is_reserved":false,"is_disabled":false,"rental_uris":{"android":"levelo://app?vid=64ed675a-7e74-4a3b-8e49-81bef5ed819d","ios":"levelo://app?vid=64ed675a-7e74-4a3b-8e49-81bef5ed819d"},"vehicle_type_id":"4","last_reported":1728050925,"current_range_meters":39200,"station_id":"ce4bhbh2rcd13ifvqepg","pricing_plan_id":"cebpf4jnsgd1na2vs0mg"},{"bike_id":"bc9b7d2f-2d19-4986-ab97-0c9fcb72db40","system_id":"levelo_inurba_marseille","lat":43.29272,"lon":5.4011,"is_reserved":false,"is_disabled":false,"rental_uris":{"android":"levelo://app?vid=bc9b7d2f-2d19-4986-ab97-0c9fcb72db40","ios":"levelo://app?vid=bc9b7d2f-2d19-4986-ab97-0c9fcb72db40"},"vehicle_type_id":"4","last_reported":1728050925,"current_range_meters":27600,"station_id":"ce4bh312rcd13ifvqdk0","pricing_plan_id":"cebpf4jnsgd1na2vs0mg"},{"bike_id":"8e0cd992-7881-4034-9414-76569a0c1202","system_id":"levelo_inurba_marseille","lat":43.302979,"lon":5.368876,"is_reserved":false,"is_disabled":false,"rental_uris":{"android":"levelo://app?vid=8e0cd992-7881-4034-9414-76569a0c1202","ios":"levelo://app?vid=8e0cd992-7881-4034-9414-76569a0c1202"},"vehicle_type_id":"4","last_reported":1728050925,"current_range_meters":12400,"station_id":"ce4bhip2rcd13ifvqft0","pricing_plan_id":"cebpf4jnsgd1na2vs0mg"},{"bike_id":"d670dfb8-d2ba-4938-ab00-8a24d634781b","system_id":"levelo_inurba_marseille","lat":43.2511,"lon":5.4033,"is_reserved":false,"is_disabled":false,"rental_uris":{"android":"levelo://app?vid=d670dfb8-d2ba-4938-ab00-8a24d634781b","ios":"levelo://app?vid=d670dfb8-d2ba-4938-ab00-8a24d634781b"},"vehicle_type_id":"4","last_reported":1728050925,"current_range_meters":20000,"station_id":"ce4bhlh2rcd13ifvqgig","pricing_plan_id":"cebpf4jnsgd1na2vs0mg"},{"bike_id":"d3ad78f8-e1c5-459e-beca-d019b2bd28b0","system_id":"levelo_inurba_marseille","lat":43.25107,"lon":5.40328,"is_reserved":false,"is_disabled":false,"rental_uris":{"android":"levelo://app?vid=d3ad78f8-e1c5-459e-beca-d019b2bd28b0","ios":"levelo://app?vid=d3ad78f8-e1c5-459e-beca-d019b2bd28b0"},"vehicle_type_id":"4","last_reported":1728050925,"current_range_meters":6000,"station_id":"ce4bhlh2rcd13ifvqgig","pricing_plan_id":"cebpf4jnsgd1na2vs0mg"},{"bike_id":"a207df7a-795a-4d56-9c01-2bc35904da35","system_id":"levelo_inurba_marseille","lat":43.30639,"lon":5.40103,"is_reserved":false,"is_disabled":false,"rental_uris":{"android":"levelo://app?vid=a207df7a-795a-4d56-9c01-2bc35904da35","ios":"levelo://app?vid=a207df7a-795a-4d56-9c01-2bc35904da35"},"vehicle_type_id":"4","last_reported":1728050925,"current_range_meters":8400,"station_id":"ce4bh112rcd13ifvqda0","pricing_plan_id":"cebpf4jnsgd1na2vs0mg"},{"bike_id":"a893b6c9-2f44-4017-8298-e81de8849991","system_id":"levelo_inurba_marseille","lat":43.29618,"lon":5.380885,"is_reserved":false,"is_disabled":false,"rental_uris":{"android":"levelo://app?vid=a893b6c9-2f44-4017-8298-e81de8849991","ios":"levelo://app?vid=a893b6c9-2f44-4017-8298-e81de8849991"},"vehicle_type_id":"4","last_reported":1728050925,"current_range_meters":17600,"station_id":"ce4bgl12rcd13ifvqbo0","pricing_plan_id":"cebpf4jnsgd1na2vs0mg"},{"bike_id":"8b816329-f2e8-4467-8adb-434c1707fc68","system_id":"levelo_inurba_marseille","lat":43.3043,"lon":5.38878,"is_reserved":false,"is_disabled":false,"rental_uris":{"android":"levelo://app?vid=8b816329-f2e8-4467-8adb-434c1707fc68","ios":"levelo://app?vid=8b816329-f2e8-4467-8adb-434c1707fc68"},"vehicle_type_id":"4","last_reported":1728050925,"current_range_meters":20000,"station_id":"ce4bgk12rcd13ifvqbi0","pricing_plan_id":"cebpf4jnsgd1na2vs0mg"},{"bike_id":"186bb823-b4c6-4132-bfa0-8f767803e208","system_id":"levelo_inurba_marseille","lat":43.23188,"lon":5.40003,"is_reserved":false,"is_disabled":false,"rental_uris":{"android":"levelo://app?vid=186bb823-b4c6-4132-bfa0-8f767803e208","ios":"levelo://app?vid=186bb823-b4c6-4132-bfa0-8f767803e208"},"vehicle_type_id":"4","last_reported":1728050925,"current_range_meters":4400,"station_id":"ce4bhn12rcd13ifvqgqg","pricing_plan_id":"cebpf4jnsgd1na2vs0mg"},{"bike_id":"cec46fd7-d9e5-47df-87c7-fbcd217fe57d","system_id":"levelo_inurba_marseille","lat":43.28731,"lon":5.36087,"is_reserved":false,"is_disabled":false,"rental_uris":{"android":"levelo://app?vid=cec46fd7-d9e5-47df-87c7-fbcd217fe57d","ios":"levelo://app?vid=cec46fd7-d9e5-47df-87c7-fbcd217fe57d"},"vehicle_type_id":"4","last_reported":1728050925,"current_range_meters":33600,"station_id":"cki0cbj6b192h4jlfktg","pricing_plan_id":"cebpf4jnsgd1na2vs0mg"},{"bike_id":"5d939b8d-09bf-47e8-adbf-cca0ed31c5b9","system_id":"levelo_inurba_marseille","lat":43.32288,"lon":5.3827,"is_reserved":false,"is_disabled":false,"rental_uris":{"android":"levelo://app?vid=5d939b8d-09bf-47e8-adbf-cca0ed31c5b9","ios":"levelo://app?vid=5d939b8d-09bf-47e8-adbf-cca0ed31c5b9"},"vehicle_type_id":"4","last_reported":1728050925,"current_range_meters":30800,"station_id":"ce4bhr12rcd13ifvqhqg","pricing_plan_id":"cebpf4jnsgd1na2vs0mg"},{"bike_id":"50454529-c2d5-4705-9ec4-667f52dc76da","system_id":"levelo_inurba_marseille","lat":43.25865,"lon":5.39897,"is_reserved":false,"is_disabled":false,"rental_uris":{"android":"levelo://app?vid=50454529-c2d5-4705-9ec4-667f52dc76da","ios":"levelo://app?vid=50454529-c2d5-4705-9ec4-667f52dc76da"},"vehicle_type_id":"4","last_reported":1728050925,"current_range_meters":7200,"station_id":"ce4bhl92rcd13ifvqghg","pricing_plan_id":"cebpf4jnsgd1na2vs0mg"},{"bike_id":"d6d3f995-9c36-4432-af44-b1cc37253855","system_id":"levelo_inurba_marseille","lat":43.29001,"lon":5.35607,"is_reserved":false,"is_disabled":false,"rental_uris":{"android":"levelo://app?vid=d6d3f995-9c36-4432-af44-b1cc37253855","ios":"levelo://app?vid=d6d3f995-9c36-4432-af44-b1cc37253855"},"vehicle_type_id":"4","last_reported":1728050925,"current_range_meters":36800,"station_id":"ce4bhb92rcd13ifvqen0","pricing_plan_id":"cebpf4jnsgd1na2vs0mg"},{"bike_id":"411fac0e-87af-4b6c-b553-b7d9fa74af49","system_id":"levelo_inurba_marseille","lat":43.32528,"lon":5.41431,"is_reserved":false,"is_disabled":false,"rental_uris":{"android":"levelo://app?vid=411fac0e-87af-4b6c-b553-b7d9fa74af49","ios":"levelo://app?vid=411fac0e-87af-4b6c-b553-b7d9fa74af49"},"vehicle_type_id":"4","last_reported":1728050925,"current_range_meters":6000,"station_id":"ce4bhq12rcd13ifvqhhg","pricing_plan_id":"cebpf4jnsgd1na2vs0mg"},{"bike_id":"23f1e18b-bd62-42d9-8851-11beb624322e","system_id":"levelo_inurba_marseille","lat":43.30147,"lon":5.38083,"is_reserved":false,"is_disabled":false,"rental_uris":{"android":"levelo://app?vid=23f1e18b-bd62-42d9-8851-11beb624322e","ios":"levelo://app?vid=23f1e18b-bd62-42d9-8851-11beb624322e"},"vehicle_type_id":"4","last_reported":1728050925,"current_range_meters":38800,"station_id":"ce4bgjp2rcd13ifvqbh0","pricing_plan_id":"cebpf4jnsgd1na2vs0mg"},{"bike_id":"cb92aba5-4872-4e7f-a488-965e8c3995a3","system_id":"levelo_inurba_marseille","lat":43.29895,"lon":5.43665,"is_reserved":false,"is_disabled":false,"rental_uris":{"android":"levelo://app?vid=cb92aba5-4872-4e7f-a488-965e8c3995a3","ios":"levelo://app?vid=cb92aba5-4872-4e7f-a488-965e8c3995a3"},"vehicle_type_id":"4","last_reported":1728050925,"current_range_meters":30800,"station_id":"ce4bhpp2rcd13ifvqhfg","pricing_plan_id":"cebpf4jnsgd1na2vs0mg"},{"bike_id":"1cfb68e9-ae90-4ad3-833a-f1c7784a486f","system_id":"levelo_inurba_marseille","lat":43.28075,"lon":5.3965,"is_reserved":false,"is_disabled":false,"rental_uris":{"android":"levelo://app?vid=1cfb68e9-ae90-4ad3-833a-f1c7784a486f","ios":"levelo://app?vid=1cfb68e9-ae90-4ad3-833a-f1c7784a486f"},"vehicle_type_id":"4","last_reported":1728050925,"current_range_meters":39200,"station_id":"ce4bho12rcd13ifvqh2g","pricing_plan_id":"cebpf4jnsgd1na2vs0mg"},{"bike_id":"8ff84461-c6d3-4e26-bdef-b7ece3fbf962","system_id":"levelo_inurba_marseille","lat":43.27058,"lon":5.40252,"is_reserved":false,"is_disabled":false,"rental_uris":{"android":"levelo://app?vid=8ff84461-c6d3-4e26-bdef-b7ece3fbf962","ios":"levelo://app?vid=8ff84461-c6d3-4e26-bdef-b7ece3fbf962"},"vehicle_type_id":"4","last_reported":1728050925,"current_range_meters":30400,"station_id":"ce4bhk92rcd13ifvqgc0","pricing_plan_id":"cebpf4jnsgd1na2vs0mg"},{"bike_id":"a7f19ffd-08ab-44c8-9d23-cda5c7c6be60","system_id":"levelo_inurba_marseille","lat":43.29299,"lon":5.37161,"is_reserved":false,"is_disabled":false,"rental_uris":{"android":"levelo://app?vid=a7f19ffd-08ab-44c8-9d23-cda5c7c6be60","ios":"levelo://app?vid=a7f19ffd-08ab-44c8-9d23-cda5c7c6be60"},"vehicle_type_id":"4","last_reported":1728050925,"current_range_meters":38800,"station_id":"ce4bgh92rcd13ifvqb40","pricing_plan_id":"cebpf4jnsgd1na2vs0mg"},{"bike_id":"bbe16d9f-1398-4ae8-9389-fdd330196eb0","system_id":"levelo_inurba_marseille","lat":43.28421,"lon":5.34981,"is_reserved":false,"is_disabled":false,"rental_uris":{"android":"levelo://app?vid=bbe16d9f-1398-4ae8-9389-fdd330196eb0","ios":"levelo://app?vid=bbe16d9f-1398-4ae8-9389-fdd330196eb0"},"vehicle_type_id":"4","last_reported":1728050925,"current_range_meters":38800,"station_id":"ce4bhbh2rcd13ifvqepg","pricing_plan_id":"cebpf4jnsgd1na2vs0mg"},{"bike_id":"e6b2df58-b4a0-4aec-933d-a62e42f34d34","system_id":"levelo_inurba_marseille","lat":43.33724,"lon":5.39193,"is_reserved":false,"is_disabled":false,"rental_uris":{"android":"levelo://app?vid=e6b2df58-b4a0-4aec-933d-a62e42f34d34","ios":"levelo://app?vid=e6b2df58-b4a0-4aec-933d-a62e42f34d34"},"vehicle_type_id":"4","last_reported":1728050925,"current_range_meters":19200,"station_id":"ce4bhr92rcd13ifvqhsg","pricing_plan_id":"cebpf4jnsgd1na2vs0mg"},{"bike_id":"4b4b451e-6189-4187-9293-52ce198bce77","system_id":"levelo_inurba_marseille","lat":43.28408,"lon":5.34981,"is_reserved":false,"is_disabled":false,"rental_uris":{"android":"levelo://app?vid=4b4b451e-6189-4187-9293-52ce198bce77","ios":"levelo://app?vid=4b4b451e-6189-4187-9293-52ce198bce77"},"vehicle_type_id":"4","last_reported":1728050925,"current_range_meters":35600,"station_id":"ce4bhbh2rcd13ifvqepg","pricing_plan_id":"cebpf4jnsgd1na2vs0mg"},{"bike_id":"d77938b7-ff1e-465c-a8b9-4b07085a5cc9","system_id":"levelo_inurba_marseille","lat":43.23064,"lon":5.35496,"is_reserved":false,"is_disabled":false,"rental_uris":{"android":"levelo://app?vid=d77938b7-ff1e-465c-a8b9-4b07085a5cc9","ios":"levelo://app?vid=d77938b7-ff1e-465c-a8b9-4b07085a5cc9"},"vehicle_type_id":"4","last_reported":1728050925,"current_range_meters":19600,"station_id":"cpo3342slgdg3j2ifvpg","pricing_plan_id":"cebpf4jnsgd1na2vs0mg"},{"bike_id":"69c4eb56-058e-4af1-b352-7ce95220b25e","system_id":"levelo_inurba_marseille","lat":43.33766,"lon":5.37436,"is_reserved":false,"is_disabled":false,"rental_uris":{"android":"levelo://app?vid=69c4eb56-058e-4af1-b352-7ce95220b25e","ios":"levelo://app?vid=69c4eb56-058e-4af1-b352-7ce95220b25e"},"vehicle_type_id":"4","last_reported":1728050925,"current_range_meters":38400,"station_id":"","pricing_plan_id":"cebpf4jnsgd1na2vs0mg"},{"bike_id":"018a3d3d-e292-4e6a-818d-0fdf66c6e31c","system_id":"levelo_inurba_marseille","lat":43.29635,"lon":5.40601,"is_reserved":false,"is_disabled":false,"rental_uris":{"android":"levelo://app?vid=018a3d3d-e292-4e6a-818d-0fdf66c6e31c","ios":"levelo://app?vid=018a3d3d-e292-4e6a-818d-0fdf66c6e31c"},"vehicle_type_id":"4","last_reported":1728050925,"current_range_meters":28400,"station_id":"ce4bh0h2rcd13ifvqd60","pricing_plan_id":"cebpf4jnsgd1na2vs0mg"},{"bike_id":"566a9cf0-f209-4c9f-9e1e-a43a024de395","system_id":"levelo_inurba_marseille","lat":43.27379,"lon":5.36248,"is_reserved":false,"is_disabled":false,"rental_uris":{"android":"levelo://app?vid=566a9cf0-f209-4c9f-9e1e-a43a024de395","ios":"levelo://app?vid=566a9cf0-f209-4c9f-9e1e-a43a024de395"},"vehicle_type_id":"4","last_reported":1728050925,"current_range_meters":25600,"station_id":"ce4bhbh2rcd13ifvqeo0","pricing_plan_id":"cebpf4jnsgd1na2vs0mg"},{"bike_id":"b73551f1-4737-42f3-8efd-5f2fca843848","system_id":"levelo_inurba_marseille","lat":43.29894,"lon":5.43666,"is_reserved":false,"is_disabled":false,"rental_uris":{"android":"levelo://app?vid=b73551f1-4737-42f3-8efd-5f2fca843848","ios":"levelo://app?vid=b73551f1-4737-42f3-8efd-5f2fca843848"},"vehicle_type_id":"4","last_reported":1728050925,"current_range_meters":17600,"station_id":"ce4bhpp2rcd13ifvqhfg","pricing_plan_id":"cebpf4jnsgd1na2vs0mg"},{"bike_id":"927496ac-271f-40b5-9f4d-02eddf45f975","system_id":"levelo_inurba_marseille","lat":43.28421,"lon":5.350122,"is_reserved":false,"is_disabled":false,"rental_uris":{"android":"levelo://app?vid=927496ac-271f-40b5-9f4d-02eddf45f975","ios":"levelo://app?vid=927496ac-271f-40b5-9f4d-02eddf45f975"},"vehicle_type_id":"4","last_reported":1728050925,"current_range_meters":19200,"station_id":"ce4bhbh2rcd13ifvqepg","pricing_plan_id":"cebpf4jnsgd1na2vs0mg"},{"bike_id":"8cbcbce5-76c7-479a-bb54-ab697e3b28de","system_id":"levelo_inurba_marseille","lat":43.29895,"lon":5.43659,"is_reserved":false,"is_disabled":false,"rental_uris":{"android":"levelo://app?vid=8cbcbce5-76c7-479a-bb54-ab697e3b28de","ios":"levelo://app?vid=8cbcbce5-76c7-479a-bb54-ab697e3b28de"},"vehicle_type_id":"4","last_reported":1728050925,"current_range_meters":10000,"station_id":"ce4bhpp2rcd13ifvqhfg","pricing_plan_id":"cebpf4jnsgd1na2vs0mg"},{"bike_id":"a1de16da-d1bb-48b3-b04d-a44b6ca81ea7","system_id":"levelo_inurba_marseille","lat":43.28463,"lon":5.35891,"is_reserved":false,"is_disabled":false,"rental_uris":{"android":"levelo://app?vid=a1de16da-d1bb-48b3-b04d-a44b6ca81ea7","ios":"levelo://app?vid=a1de16da-d1bb-48b3-b04d-a44b6ca81ea7"},"vehicle_type_id":"4","last_reported":1728050925,"current_range_meters":19600,"station_id":"ce4bhah2rcd13ifvqei0","pricing_plan_id":"cebpf4jnsgd1na2vs0mg"},{"bike_id":"5066fb3e-3c49-4c72-8370-e52313ab58c2","system_id":"levelo_inurba_marseille","lat":43.30904,"lon":5.36848,"is_reserved":false,"is_disabled":false,"rental_uris":{"android":"levelo://app?vid=5066fb3e-3c49-4c72-8370-e52313ab58c2","ios":"levelo://app?vid=5066fb3e-3c49-4c72-8370-e52313ab58c2"},"vehicle_type_id":"4","last_reported":1728050925,"current_range_meters":14400,"station_id":"ce4bgn92rcd13ifvqbvg","pricing_plan_id":"cebpf4jnsgd1na2vs0mg"},{"bike_id":"1e0f3adb-61e6-4c18-b68a-68e0fd432f6c","system_id":"levelo_inurba_marseille","lat":43.303,"lon":5.36887,"is_reserved":false,"is_disabled":false,"rental_uris":{"android":"levelo://app?vid=1e0f3adb-61e6-4c18-b68a-68e0fd432f6c","ios":"levelo://app?vid=1e0f3adb-61e6-4c18-b68a-68e0fd432f6c"},"vehicle_type_id":"4","last_reported":1728050925,"current_range_meters":38800,"station_id":"ce4bgqh2rcd13ifvqc5g","pricing_plan_id":"cebpf4jnsgd1na2vs0mg"},{"bike_id":"e108d0fe-4c21-43be-aa18-3e102a6ff5ef","system_id":"levelo_inurba_marseille","lat":43.29254,"lon":5.40915,"is_reserved":false,"is_disabled":false,"rental_uris":{"android":"levelo://app?vid=e108d0fe-4c21-43be-aa18-3e102a6ff5ef","ios":"levelo://app?vid=e108d0fe-4c21-43be-aa18-3e102a6ff5ef"},"vehicle_type_id":"4","last_reported":1728050925,"current_range_meters":10000,"station_id":"ce4bh192rcd13ifvqdc0","pricing_plan_id":"cebpf4jnsgd1na2vs0mg"},{"bike_id":"9cf97f5d-1605-4bc2-bc7a-ff0007557a9a","system_id":"levelo_inurba_marseille","lat":43.26021,"lon":5.3755,"is_reserved":false,"is_disabled":false,"rental_uris":{"android":"levelo://app?vid=9cf97f5d-1605-4bc2-bc7a-ff0007557a9a","ios":"levelo://app?vid=9cf97f5d-1605-4bc2-bc7a-ff0007557a9a"},"vehicle_type_id":"4","last_reported":1728050925,"current_range_meters":38000,"station_id":"ce4bhgh2rcd13ifvqfa0","pricing_plan_id":"cebpf4jnsgd1na2vs0mg"},{"bike_id":"56bfcb49-704b-4166-b7a1-197edce07eea","system_id":"levelo_inurba_marseille","lat":43.27209,"lon":5.39178,"is_reserved":false,"is_disabled":false,"rental_uris":{"android":"levelo://app?vid=56bfcb49-704b-4166-b7a1-197edce07eea","ios":"levelo://app?vid=56bfcb49-704b-4166-b7a1-197edce07eea"},"vehicle_type_id":"4","last_reported":1728050925,"current_range_meters":4800,"station_id":"ce4bhhp2rcd13ifvqfm0","pricing_plan_id":"cebpf4jnsgd1na2vs0mg"},{"bike_id":"86a59fdf-5419-4bd8-a9ed-c91c60731103","system_id":"levelo_inurba_marseille","lat":43.30304,"lon":5.37911,"is_reserved":false,"is_disabled":false,"rental_uris":{"android":"levelo://app?vid=86a59fdf-5419-4bd8-a9ed-c91c60731103","ios":"levelo://app?vid=86a59fdf-5419-4bd8-a9ed-c91c60731103"},"vehicle_type_id":"4","last_reported":1728050925,"current_range_meters":17600,"station_id":"","pricing_plan_id":"cebpf4jnsgd1na2vs0mg"},{"bike_id":"8415ea03-c99e-45ae-a548-d6dca9836e16","system_id":"levelo_inurba_marseille","lat":43.25105,"lon":5.40325,"is_reserved":false,"is_disabled":false,"rental_uris":{"android":"levelo://app?vid=8415ea03-c99e-45ae-a548-d6dca9836e16","ios":"levelo://app?vid=8415ea03-c99e-45ae-a548-d6dca9836e16"},"vehicle_type_id":"4","last_reported":1728050925,"current_range_meters":32800,"station_id":"ce4bhlh2rcd13ifvqgig","pricing_plan_id":"cebpf4jnsgd1na2vs0mg"},{"bike_id":"c47363ee-f42b-45dc-b46b-823067ed6811","system_id":"levelo_inurba_marseille","lat":43.29369,"lon":5.37845,"is_reserved":false,"is_disabled":false,"rental_uris":{"android":"levelo://app?vid=c47363ee-f42b-45dc-b46b-823067ed6811","ios":"levelo://app?vid=c47363ee-f42b-45dc-b46b-823067ed6811"},"vehicle_type_id":"4","last_reported":1728050925,"current_range_meters":30000,"station_id":"ce4bgjh2rcd13ifvqbf0","pricing_plan_id":"cebpf4jnsgd1na2vs0mg"},{"bike_id":"8a7e30ae-f0da-4bf9-973e-b088899cdba8","system_id":"levelo_inurba_marseille","lat":43.28273,"lon":5.35058,"is_reserved":false,"is_disabled":false,"rental_uris":{"android":"levelo://app?vid=8a7e30ae-f0da-4bf9-973e-b088899cdba8","ios":"levelo://app?vid=8a7e30ae-f0da-4bf9-973e-b088899cdba8"},"vehicle_type_id":"4","last_reported":1728050925,"current_range_meters":17600,"station_id":"ce4bhbp2rcd13ifvqerg","pricing_plan_id":"cebpf4jnsgd1na2vs0mg"},{"bike_id":"6102bacc-0bb3-4c79-854a-2d4ec81b21c1","system_id":"levelo_inurba_marseille","lat":43.31715,"lon":5.42395,"is_reserved":false,"is_disabled":false,"rental_uris":{"android":"levelo://app?vid=6102bacc-0bb3-4c79-854a-2d4ec81b21c1","ios":"levelo://app?vid=6102bacc-0bb3-4c79-854a-2d4ec81b21c1"},"vehicle_type_id":"4","last_reported":1728050925,"current_range_meters":34800,"station_id":"ce4bhp92rcd13ifvqhbg","pricing_plan_id":"cebpf4jnsgd1na2vs0mg"},{"bike_id":"55be4418-0bba-46d6-b9bd-b80cf525cce6","system_id":"levelo_inurba_marseille","lat":43.29025,"lon":5.38651,"is_reserved":false,"is_disabled":false,"rental_uris":{"android":"levelo://app?vid=55be4418-0bba-46d6-b9bd-b80cf525cce6","ios":"levelo://app?vid=55be4418-0bba-46d6-b9bd-b80cf525cce6"},"vehicle_type_id":"4","last_reported":1728050925,"current_range_meters":4000,"station_id":"ce4bh4p2rcd13ifvqe0g","pricing_plan_id":"cebpf4jnsgd1na2vs0mg"},{"bike_id":"6af614a6-478f-4fb6-a274-79aed3fdf505","system_id":"levelo_inurba_marseille","lat":43.26555,"lon":5.37289,"is_reserved":false,"is_disabled":false,"rental_uris":{"android":"levelo://app?vid=6af614a6-478f-4fb6-a274-79aed3fdf505","ios":"levelo://app?vid=6af614a6-478f-4fb6-a274-79aed3fdf505"},"vehicle_type_id":"4","last_reported":1728050925,"current_range_meters":25600,"station_id":"ce4bhg12rcd13ifvqf70","pricing_plan_id":"cebpf4jnsgd1na2vs0mg"},{"bike_id":"88351679-bfdc-42ba-82e8-6814115d88f6","system_id":"levelo_inurba_marseille","lat":43.32537,"lon":5.4145,"is_reserved":false,"is_disabled":false,"rental_uris":{"android":"levelo://app?vid=88351679-bfdc-42ba-82e8-6814115d88f6","ios":"levelo://app?vid=88351679-bfdc-42ba-82e8-6814115d88f6"},"vehicle_type_id":"4","last_reported":1728050925,"current_range_meters":38800,"station_id":"ce4bhq12rcd13ifvqhhg","pricing_plan_id":"cebpf4jnsgd1na2vs0mg"},{"bike_id":"35347ff9-1df5-4143-a126-6d01f12fc425","system_id":"levelo_inurba_marseille","lat":43.28611,"lon":5.37061,"is_reserved":false,"is_disabled":false,"rental_uris":{"android":"levelo://app?vid=35347ff9-1df5-4143-a126-6d01f12fc425","ios":"levelo://app?vid=35347ff9-1df5-4143-a126-6d01f12fc425"},"vehicle_type_id":"4","last_reported":1728050925,"current_range_meters":8000,"station_id":"ce4bht12rcd13ifvqi60","pricing_plan_id":"cebpf4jnsgd1na2vs0mg"},{"bike_id":"f214cf31-2934-4d86-be30-3a2665d3d269","system_id":"levelo_inurba_marseille","lat":43.28406,"lon":5.34981,"is_reserved":false,"is_disabled":false,"rental_uris":{"android":"levelo://app?vid=f214cf31-2934-4d86-be30-3a2665d3d269","ios":"levelo://app?vid=f214cf31-2934-4d86-be30-3a2665d3d269"},"vehicle_type_id":"4","last_reported":1728050925,"current_range_meters":20800,"station_id":"ce4bhbh2rcd13ifvqepg","pricing_plan_id":"cebpf4jnsgd1na2vs0mg"},{"bike_id":"e08c062f-61a2-493a-875d-6e296e2965d6","system_id":"levelo_inurba_marseille","lat":43.33751,"lon":5.37441,"is_reserved":false,"is_disabled":false,"rental_uris":{"android":"levelo://app?vid=e08c062f-61a2-493a-875d-6e296e2965d6","ios":"levelo://app?vid=e08c062f-61a2-493a-875d-6e296e2965d6"},"vehicle_type_id":"4","last_reported":1728050925,"current_range_meters":35200,"station_id":"","pricing_plan_id":"cebpf4jnsgd1na2vs0mg"},{"bike_id":"543521d1-8f2e-42eb-89e7-75a0c15ab9da","system_id":"levelo_inurba_marseille","lat":43.30642,"lon":5.40076,"is_reserved":false,"is_disabled":false,"rental_uris":{"android":"levelo://app?vid=543521d1-8f2e-42eb-89e7-75a0c15ab9da","ios":"levelo://app?vid=543521d1-8f2e-42eb-89e7-75a0c15ab9da"},"vehicle_type_id":"4","last_reported":1728050925,"current_range_meters":21600,"station_id":"ce4bh112rcd13ifvqda0","pricing_plan_id":"cebpf4jnsgd1na2vs0mg"},{"bike_id":"d2940846-8984-465b-bbaa-9e158fa700fd","system_id":"levelo_inurba_marseille","lat":43.23961,"lon":5.36634,"is_reserved":false,"is_disabled":false,"rental_uris":{"android":"levelo://app?vid=d2940846-8984-465b-bbaa-9e158fa700fd","ios":"levelo://app?vid=d2940846-8984-465b-bbaa-9e158fa700fd"},"vehicle_type_id":"4","last_reported":1728050925,"current_range_meters":22000,"station_id":"ce4bhi12rcd13ifvqfp0","pricing_plan_id":"cebpf4jnsgd1na2vs0mg"},{"bike_id":"ed10f8eb-414a-40e9-8d0a-9583cd93c89f","system_id":"levelo_inurba_marseille","lat":43.30419,"lon":5.41277,"is_reserved":false,"is_disabled":false,"rental_uris":{"android":"levelo://app?vid=ed10f8eb-414a-40e9-8d0a-9583cd93c89f","ios":"levelo://app?vid=ed10f8eb-414a-40e9-8d0a-9583cd93c89f"},"vehicle_type_id":"4","last_reported":1728050925,"current_range_meters":8400,"station_id":"ce4bhop2rcd13ifvqh8g","pricing_plan_id":"cebpf4jnsgd1na2vs0mg"},{"bike_id":"ec679ebf-743c-490a-a67a-b4de63c3e0c4","system_id":"levelo_inurba_marseille","lat":43.26496,"lon":5.39546,"is_reserved":false,"is_disabled":false,"rental_uris":{"android":"levelo://app?vid=ec679ebf-743c-490a-a67a-b4de63c3e0c4","ios":"levelo://app?vid=ec679ebf-743c-490a-a67a-b4de63c3e0c4"},"vehicle_type_id":"4","last_reported":1728050925,"current_range_meters":37600,"station_id":"ce4bhi12rcd13ifvqfq0","pricing_plan_id":"cebpf4jnsgd1na2vs0mg"},{"bike_id":"f78c2489-1aa7-4a1e-b87f-29efcb144960","system_id":"levelo_inurba_marseille","lat":43.23964,"lon":5.36635,"is_reserved":false,"is_disabled":false,"rental_uris":{"android":"levelo://app?vid=f78c2489-1aa7-4a1e-b87f-29efcb144960","ios":"levelo://app?vid=f78c2489-1aa7-4a1e-b87f-29efcb144960"},"vehicle_type_id":"4","last_reported":1728050925,"current_range_meters":13600,"station_id":"ce4bhi12rcd13ifvqfp0","pricing_plan_id":"cebpf4jnsgd1na2vs0mg"},{"bike_id":"b3404529-2fc0-49b4-84f0-b644e8a2b421","system_id":"levelo_inurba_marseille","lat":43.25107,"lon":5.40323,"is_reserved":false,"is_disabled":false,"rental_uris":{"android":"levelo://app?vid=b3404529-2fc0-49b4-84f0-b644e8a2b421","ios":"levelo://app?vid=b3404529-2fc0-49b4-84f0-b644e8a2b421"},"vehicle_type_id":"4","last_reported":1728050925,"current_range_meters":32800,"station_id":"ce4bhlh2rcd13ifvqgig","pricing_plan_id":"cebpf4jnsgd1na2vs0mg"},{"bike_id":"12014e5f-9061-4078-ba17-f5b4421eab0c","system_id":"levelo_inurba_marseille","lat":43.23149,"lon":5.43718,"is_reserved":false,"is_disabled":false,"rental_uris":{"android":"levelo://app?vid=12014e5f-9061-4078-ba17-f5b4421eab0c","ios":"levelo://app?vid=12014e5f-9061-4078-ba17-f5b4421eab0c"},"vehicle_type_id":"4","last_reported":1728050925,"current_range_meters":12400,"station_id":"ce4bhmp2rcd13ifvqgog","pricing_plan_id":"cebpf4jnsgd1na2vs0mg"},{"bike_id":"2c7067cb-0892-49ed-ba58-f4623ab2822c","system_id":"levelo_inurba_marseille","lat":43.29843,"lon":5.36275,"is_reserved":false,"is_disabled":false,"rental_uris":{"android":"levelo://app?vid=2c7067cb-0892-49ed-ba58-f4623ab2822c","ios":"levelo://app?vid=2c7067cb-0892-49ed-ba58-f4623ab2822c"},"vehicle_type_id":"4","last_reported":1728050925,"current_range_meters":6400,"station_id":"ce4bgpp2rcd13ifvqc3g","pricing_plan_id":"cebpf4jnsgd1na2vs0mg"},{"bike_id":"1db24683-51f6-4a38-b0c4-fefb5fe2d99f","system_id":"levelo_inurba_marseille","lat":43.3107,"lon":5.38354,"is_reserved":false,"is_disabled":false,"rental_uris":{"android":"levelo://app?vid=1db24683-51f6-4a38-b0c4-fefb5fe2d99f","ios":"levelo://app?vid=1db24683-51f6-4a38-b0c4-fefb5fe2d99f"},"vehicle_type_id":"4","last_reported":1728050925,"current_range_meters":12400,"station_id":"ce4bgv92rcd13ifvqcr0","pricing_plan_id":"cebpf4jnsgd1na2vs0mg"},{"bike_id":"ddebee9b-cb7f-49c7-8134-9a39d5695cc3","system_id":"levelo_inurba_marseille","lat":43.26557,"lon":5.37283,"is_reserved":false,"is_disabled":false,"rental_uris":{"android":"levelo://app?vid=ddebee9b-cb7f-49c7-8134-9a39d5695cc3","ios":"levelo://app?vid=ddebee9b-cb7f-49c7-8134-9a39d5695cc3"},"vehicle_type_id":"4","last_reported":1728050925,"current_range_meters":20400,"station_id":"ce4bhg12rcd13ifvqf70","pricing_plan_id":"cebpf4jnsgd1na2vs0mg"},{"bike_id":"c6967a3c-493e-441b-81e5-7d3a115792de","system_id":"levelo_inurba_marseille","lat":43.26492,"lon":5.39549,"is_reserved":false,"is_disabled":false,"rental_uris":{"android":"levelo://app?vid=c6967a3c-493e-441b-81e5-7d3a115792de","ios":"levelo://app?vid=c6967a3c-493e-441b-81e5-7d3a115792de"},"vehicle_type_id":"4","last_reported":1728050925,"current_range_meters":22000,"station_id":"ce4bhi12rcd13ifvqfq0","pricing_plan_id":"cebpf4jnsgd1na2vs0mg"},{"bike_id":"f7d9ad5f-801e-489d-9b5f-191e408fe604","system_id":"levelo_inurba_marseille","lat":43.25859,"lon":5.39911,"is_reserved":false,"is_disabled":false,"rental_uris":{"android":"levelo://app?vid=f7d9ad5f-801e-489d-9b5f-191e408fe604","ios":"levelo://app?vid=f7d9ad5f-801e-489d-9b5f-191e408fe604"},"vehicle_type_id":"4","last_reported":1728050925,"current_range_meters":35200,"station_id":"ce4bhl92rcd13ifvqghg","pricing_plan_id":"cebpf4jnsgd1na2vs0mg"},{"bike_id":"a8d4ceec-1148-4bb5-9909-ced0135a6d98","system_id":"levelo_inurba_marseille","lat":43.3107,"lon":5.38334,"is_reserved":false,"is_disabled":false,"rental_uris":{"android":"levelo://app?vid=a8d4ceec-1148-4bb5-9909-ced0135a6d98","ios":"levelo://app?vid=a8d4ceec-1148-4bb5-9909-ced0135a6d98"},"vehicle_type_id":"4","last_reported":1728050925,"current_range_meters":17200,"station_id":"ce4bgv92rcd13ifvqcr0","pricing_plan_id":"cebpf4jnsgd1na2vs0mg"},{"bike_id":"f8ed632c-c457-46f0-9bd3-99ae6d0f74e3","system_id":"levelo_inurba_marseille","lat":43.30783,"lon":5.37651,"is_reserved":false,"is_disabled":false,"rental_uris":{"android":"levelo://app?vid=f8ed632c-c457-46f0-9bd3-99ae6d0f74e3","ios":"levelo://app?vid=f8ed632c-c457-46f0-9bd3-99ae6d0f74e3"},"vehicle_type_id":"4","last_reported":1728050925,"current_range_meters":6000,"station_id":"ce4bgv92rcd13ifvqcq0","pricing_plan_id":"cebpf4jnsgd1na2vs0mg"},{"bike_id":"fd872ba7-9877-4e67-9269-d8995abba644","system_id":"levelo_inurba_marseille","lat":43.22936,"lon":5.35378,"is_reserved":false,"is_disabled":false,"rental_uris":{"android":"levelo://app?vid=fd872ba7-9877-4e67-9269-d8995abba644","ios":"levelo://app?vid=fd872ba7-9877-4e67-9269-d8995abba644"},"vehicle_type_id":"4","last_reported":1728050925,"current_range_meters":19600,"station_id":"cpo3532slgdg3j2ikp40","pricing_plan_id":"cebpf4jnsgd1na2vs0mg"},{"bike_id":"4d759cc2-49f1-4fba-8bc1-c1bbfc259f27","system_id":"levelo_inurba_marseille","lat":43.32333,"lon":5.40624,"is_reserved":false,"is_disabled":false,"rental_uris":{"android":"levelo://app?vid=4d759cc2-49f1-4fba-8bc1-c1bbfc259f27","ios":"levelo://app?vid=4d759cc2-49f1-4fba-8bc1-c1bbfc259f27"},"vehicle_type_id":"4","last_reported":1728050925,"current_range_meters":38400,"station_id":"ce4bhq92rcd13ifvqhjg","pricing_plan_id":"cebpf4jnsgd1na2vs0mg"},{"bike_id":"4259a553-0603-410e-928f-fa0ed821a33a","system_id":"levelo_inurba_marseille","lat":43.2619,"lon":5.37449,"is_reserved":false,"is_disabled":false,"rental_uris":{"android":"levelo://app?vid=4259a553-0603-410e-928f-fa0ed821a33a","ios":"levelo://app?vid=4259a553-0603-410e-928f-fa0ed821a33a"},"vehicle_type_id":"4","last_reported":1728050925,"current_range_meters":13600,"station_id":"ce4bhgp2rcd13ifvqfc0","pricing_plan_id":"cebpf4jnsgd1na2vs0mg"},{"bike_id":"294c9d5c-e674-4ee2-aa5d-646145ca34dd","system_id":"levelo_inurba_marseille","lat":43.29222,"lon":5.36062,"is_reserved":false,"is_disabled":false,"rental_uris":{"android":"levelo://app?vid=294c9d5c-e674-4ee2-aa5d-646145ca34dd","ios":"levelo://app?vid=294c9d5c-e674-4ee2-aa5d-646145ca34dd"},"vehicle_type_id":"4","last_reported":1728050925,"current_range_meters":32800,"station_id":"ce4bhbh2rcd13ifvqeqg","pricing_plan_id":"cebpf4jnsgd1na2vs0mg"},{"bike_id":"f8f29749-dec3-40ff-a668-00725db6b7e7","system_id":"levelo_inurba_marseille","lat":43.29619,"lon":5.37167,"is_reserved":false,"is_disabled":false,"rental_uris":{"android":"levelo://app?vid=f8f29749-dec3-40ff-a668-00725db6b7e7","ios":"levelo://app?vid=f8f29749-dec3-40ff-a668-00725db6b7e7"},"vehicle_type_id":"4","last_reported":1728050925,"current_range_meters":38800,"station_id":"ce4bgnh2rcd13ifvqc0g","pricing_plan_id":"cebpf4jnsgd1na2vs0mg"},{"bike_id":"2a2abcd2-161e-4c0a-bd7f-44cf66014eda","system_id":"levelo_inurba_marseille","lat":43.26679,"lon":5.38267,"is_reserved":false,"is_disabled":false,"rental_uris":{"android":"levelo://app?vid=2a2abcd2-161e-4c0a-bd7f-44cf66014eda","ios":"levelo://app?vid=2a2abcd2-161e-4c0a-bd7f-44cf66014eda"},"vehicle_type_id":"4","last_reported":1728050925,"current_range_meters":24800,"station_id":"ce4bhg92rcd13ifvqf90","pricing_plan_id":"cebpf4jnsgd1na2vs0mg"},{"bike_id":"ee401616-448e-4017-9cf8-b771bd824c1c","system_id":"levelo_inurba_marseille","lat":43.31325,"lon":5.39699,"is_reserved":false,"is_disabled":false,"rental_uris":{"android":"levelo://app?vid=ee401616-448e-4017-9cf8-b771bd824c1c","ios":"levelo://app?vid=ee401616-448e-4017-9cf8-b771bd824c1c"},"vehicle_type_id":"4","last_reported":1728050925,"current_range_meters":39200,"station_id":"ce4bgvp2rcd13ifvqcu0","pricing_plan_id":"cebpf4jnsgd1na2vs0mg"},{"bike_id":"d5f6a3d9-4099-48fe-9d92-5b5542a792da","system_id":"levelo_inurba_marseille","lat":43.32333,"lon":5.4062,"is_reserved":false,"is_disabled":false,"rental_uris":{"android":"levelo://app?vid=d5f6a3d9-4099-48fe-9d92-5b5542a792da","ios":"levelo://app?vid=d5f6a3d9-4099-48fe-9d92-5b5542a792da"},"vehicle_type_id":"4","last_reported":1728050925,"current_range_meters":38400,"station_id":"ce4bhq92rcd13ifvqhjg","pricing_plan_id":"cebpf4jnsgd1na2vs0mg"},{"bike_id":"8406ff50-7e29-4474-8a1e-a6057ee4017c","system_id":"levelo_inurba_marseille","lat":43.31365,"lon":5.3669,"is_reserved":false,"is_disabled":false,"rental_uris":{"android":"levelo://app?vid=8406ff50-7e29-4474-8a1e-a6057ee4017c","ios":"levelo://app?vid=8406ff50-7e29-4474-8a1e-a6057ee4017c"},"vehicle_type_id":"4","last_reported":1728050925,"current_range_meters":12400,"station_id":"ce4bgr92rcd13ifvqc6g","pricing_plan_id":"cebpf4jnsgd1na2vs0mg"},{"bike_id":"ae938807-9426-4312-93c1-83f5752189e0","system_id":"levelo_inurba_marseille","lat":43.30587,"lon":5.37207,"is_reserved":false,"is_disabled":false,"rental_uris":{"android":"levelo://app?vid=ae938807-9426-4312-93c1-83f5752189e0","ios":"levelo://app?vid=ae938807-9426-4312-93c1-83f5752189e0"},"vehicle_type_id":"4","last_reported":1728050925,"current_range_meters":38800,"station_id":"ce4bgqh2rcd13ifvqc4g","pricing_plan_id":"cebpf4jnsgd1na2vs0mg"},{"bike_id":"f36f5f45-0e07-46d0-89d6-5d25abe1e53f","system_id":"levelo_inurba_marseille","lat":43.33022,"lon":5.39042,"is_reserved":false,"is_disabled":false,"rental_uris":{"android":"levelo://app?vid=f36f5f45-0e07-46d0-89d6-5d25abe1e53f","ios":"levelo://app?vid=f36f5f45-0e07-46d0-89d6-5d25abe1e53f"},"vehicle_type_id":"4","last_reported":1728050925,"current_range_meters":22800,"station_id":"ce4bhr92rcd13ifvqhrg","pricing_plan_id":"cebpf4jnsgd1na2vs0mg"},{"bike_id":"50e6aeb8-7e25-4c09-9781-24c9f5d23dff","system_id":"levelo_inurba_marseille","lat":43.33753,"lon":5.37442,"is_reserved":false,"is_disabled":false,"rental_uris":{"android":"levelo://app?vid=50e6aeb8-7e25-4c09-9781-24c9f5d23dff","ios":"levelo://app?vid=50e6aeb8-7e25-4c09-9781-24c9f5d23dff"},"vehicle_type_id":"4","last_reported":1728050925,"current_range_meters":32400,"station_id":"","pricing_plan_id":"cebpf4jnsgd1na2vs0mg"},{"bike_id":"27c0714f-7f4c-4b46-a788-4589cf044ebe","system_id":"levelo_inurba_marseille","lat":43.290033,"lon":5.356168,"is_reserved":false,"is_disabled":false,"rental_uris":{"android":"levelo://app?vid=27c0714f-7f4c-4b46-a788-4589cf044ebe","ios":"levelo://app?vid=27c0714f-7f4c-4b46-a788-4589cf044ebe"},"vehicle_type_id":"4","last_reported":1728050925,"current_range_meters":27600,"station_id":"ce4bh2p2rcd13ifvqdi0","pricing_plan_id":"cebpf4jnsgd1na2vs0mg"},{"bike_id":"4061a425-0fa8-4b85-ba2e-dd23d5b416e9","system_id":"levelo_inurba_marseille","lat":43.28842,"lon":5.35839,"is_reserved":false,"is_disabled":false,"rental_uris":{"android":"levelo://app?vid=4061a425-0fa8-4b85-ba2e-dd23d5b416e9","ios":"levelo://app?vid=4061a425-0fa8-4b85-ba2e-dd23d5b416e9"},"vehicle_type_id":"4","last_reported":1728050925,"current_range_meters":32000,"station_id":"ce4bhb12rcd13ifvqem0","pricing_plan_id":"cebpf4jnsgd1na2vs0mg"},{"bike_id":"2fa80a2d-1591-492e-b225-696fcb5c87fd","system_id":"levelo_inurba_marseille","lat":43.2656,"lon":5.37289,"is_reserved":false,"is_disabled":false,"rental_uris":{"android":"levelo://app?vid=2fa80a2d-1591-492e-b225-696fcb5c87fd","ios":"levelo://app?vid=2fa80a2d-1591-492e-b225-696fcb5c87fd"},"vehicle_type_id":"4","last_reported":1728050925,"current_range_meters":30000,"station_id":"ce4bhg12rcd13ifvqf70","pricing_plan_id":"cebpf4jnsgd1na2vs0mg"},{"bike_id":"3fedaf50-4de0-4f5f-9213-1f29cf25464e","system_id":"levelo_inurba_marseille","lat":43.30545,"lon":5.36549,"is_reserved":false,"is_disabled":false,"rental_uris":{"android":"levelo://app?vid=3fedaf50-4de0-4f5f-9213-1f29cf25464e","ios":"levelo://app?vid=3fedaf50-4de0-4f5f-9213-1f29cf25464e"},"vehicle_type_id":"4","last_reported":1728050925,"current_range_meters":24400,"station_id":"ce4bgs12rcd13ifvqcag","pricing_plan_id":"cebpf4jnsgd1na2vs0mg"},{"bike_id":"166e3348-9679-4e6e-9add-7357dfdbb1ad","system_id":"levelo_inurba_marseille","lat":43.28409,"lon":5.34975,"is_reserved":false,"is_disabled":false,"rental_uris":{"android":"levelo://app?vid=166e3348-9679-4e6e-9add-7357dfdbb1ad","ios":"levelo://app?vid=166e3348-9679-4e6e-9add-7357dfdbb1ad"},"vehicle_type_id":"4","last_reported":1728050925,"current_range_meters":16400,"station_id":"ce4bhbh2rcd13ifvqepg","pricing_plan_id":"cebpf4jnsgd1na2vs0mg"},{"bike_id":"01b44d4b-37cf-4cbe-a547-4c2508cea865","system_id":"levelo_inurba_marseille","lat":43.30928,"lon":5.40139,"is_reserved":false,"is_disabled":false,"rental_uris":{"android":"levelo://app?vid=01b44d4b-37cf-4cbe-a547-4c2508cea865","ios":"levelo://app?vid=01b44d4b-37cf-4cbe-a547-4c2508cea865"},"vehicle_type_id":"4","last_reported":1728050925,"current_range_meters":38000,"station_id":"ce4bgvp2rcd13ifvqct0","pricing_plan_id":"cebpf4jnsgd1na2vs0mg"},{"bike_id":"a3824d28-62a1-444e-90fa-f0f15aa0a303","system_id":"levelo_inurba_marseille","lat":43.25868,"lon":5.399,"is_reserved":false,"is_disabled":false,"rental_uris":{"android":"levelo://app?vid=a3824d28-62a1-444e-90fa-f0f15aa0a303","ios":"levelo://app?vid=a3824d28-62a1-444e-90fa-f0f15aa0a303"},"vehicle_type_id":"4","last_reported":1728050925,"current_range_meters":18000,"station_id":"ce4bhl92rcd13ifvqghg","pricing_plan_id":"cebpf4jnsgd1na2vs0mg"},{"bike_id":"6ce60676-3f86-4aaa-a5df-572436c32ad4","system_id":"levelo_inurba_marseille","lat":43.23193,"lon":5.35545,"is_reserved":false,"is_disabled":false,"rental_uris":{"android":"levelo://app?vid=6ce60676-3f86-4aaa-a5df-572436c32ad4","ios":"levelo://app?vid=6ce60676-3f86-4aaa-a5df-572436c32ad4"},"vehicle_type_id":"4","last_reported":1728050925,"current_range_meters":14400,"station_id":"ce4bhu92rcd13ifvqi70","pricing_plan_id":"cebpf4jnsgd1na2vs0mg"},{"bike_id":"43b74516-cc53-460e-b61e-4117f7df6c00","system_id":"levelo_inurba_marseille","lat":43.30597,"lon":5.37225,"is_reserved":false,"is_disabled":false,"rental_uris":{"android":"levelo://app?vid=43b74516-cc53-460e-b61e-4117f7df6c00","ios":"levelo://app?vid=43b74516-cc53-460e-b61e-4117f7df6c00"},"vehicle_type_id":"4","last_reported":1728050925,"current_range_meters":34000,"station_id":"ce4bgqh2rcd13ifvqc4g","pricing_plan_id":"cebpf4jnsgd1na2vs0mg"},{"bike_id":"ac1d5ac9-a2e4-4118-8774-453144345496","system_id":"levelo_inurba_marseille","lat":43.30635,"lon":5.40097,"is_reserved":false,"is_disabled":false,"rental_uris":{"android":"levelo://app?vid=ac1d5ac9-a2e4-4118-8774-453144345496","ios":"levelo://app?vid=ac1d5ac9-a2e4-4118-8774-453144345496"},"vehicle_type_id":"4","last_reported":1728050925,"current_range_meters":4000,"station_id":"ce4bh112rcd13ifvqda0","pricing_plan_id":"cebpf4jnsgd1na2vs0mg"},{"bike_id":"8145f3f9-a48b-4233-b5a8-03d0ce10cfc9","system_id":"levelo_inurba_marseille","lat":43.302713,"lon":5.377058,"is_reserved":false,"is_disabled":false,"rental_uris":{"android":"levelo://app?vid=8145f3f9-a48b-4233-b5a8-03d0ce10cfc9","ios":"levelo://app?vid=8145f3f9-a48b-4233-b5a8-03d0ce10cfc9"},"vehicle_type_id":"4","last_reported":1728050925,"current_range_meters":24400,"station_id":"ce4bhah2rcd13ifvqej0","pricing_plan_id":"cebpf4jnsgd1na2vs0mg"},{"bike_id":"4b9d2ceb-ff6a-48ae-bf18-dc671e30b8c5","system_id":"levelo_inurba_marseille","lat":43.27206,"lon":5.39176,"is_reserved":false,"is_disabled":false,"rental_uris":{"android":"levelo://app?vid=4b9d2ceb-ff6a-48ae-bf18-dc671e30b8c5","ios":"levelo://app?vid=4b9d2ceb-ff6a-48ae-bf18-dc671e30b8c5"},"vehicle_type_id":"4","last_reported":1728050925,"current_range_meters":17200,"station_id":"ce4bhhp2rcd13ifvqfm0","pricing_plan_id":"cebpf4jnsgd1na2vs0mg"},{"bike_id":"5a9e5529-345b-4150-b0a7-18133303e532","system_id":"levelo_inurba_marseille","lat":43.29166,"lon":5.37149,"is_reserved":false,"is_disabled":false,"rental_uris":{"android":"levelo://app?vid=5a9e5529-345b-4150-b0a7-18133303e532","ios":"levelo://app?vid=5a9e5529-345b-4150-b0a7-18133303e532"},"vehicle_type_id":"4","last_reported":1728050925,"current_range_meters":37600,"station_id":"ce4bha92rcd13ifvqeh0","pricing_plan_id":"cebpf4jnsgd1na2vs0mg"},{"bike_id":"c702d214-432e-4a5d-835c-0fc2d9e67048","system_id":"levelo_inurba_marseille","lat":43.32347,"lon":5.40624,"is_reserved":false,"is_disabled":false,"rental_uris":{"android":"levelo://app?vid=c702d214-432e-4a5d-835c-0fc2d9e67048","ios":"levelo://app?vid=c702d214-432e-4a5d-835c-0fc2d9e67048"},"vehicle_type_id":"4","last_reported":1728050925,"current_range_meters":27200,"station_id":"ce4bhq92rcd13ifvqhjg","pricing_plan_id":"cebpf4jnsgd1na2vs0mg"},{"bike_id":"ac491eed-1fef-4832-b4ca-d42b5b54f337","system_id":"levelo_inurba_marseille","lat":43.28411,"lon":5.34976,"is_reserved":false,"is_disabled":false,"rental_uris":{"android":"levelo://app?vid=ac491eed-1fef-4832-b4ca-d42b5b54f337","ios":"levelo://app?vid=ac491eed-1fef-4832-b4ca-d42b5b54f337"},"vehicle_type_id":"4","last_reported":1728050925,"current_range_meters":36400,"station_id":"ce4bhbh2rcd13ifvqepg","pricing_plan_id":"cebpf4jnsgd1na2vs0mg"},{"bike_id":"8ac44faa-93cd-4332-8102-f81a297dd504","system_id":"levelo_inurba_marseille","lat":43.29957,"lon":5.41313,"is_reserved":false,"is_disabled":false,"rental_uris":{"android":"levelo://app?vid=8ac44faa-93cd-4332-8102-f81a297dd504","ios":"levelo://app?vid=8ac44faa-93cd-4332-8102-f81a297dd504"},"vehicle_type_id":"4","last_reported":1728050925,"current_range_meters":35200,"station_id":"ce4bhp12rcd13ifvqh9g","pricing_plan_id":"cebpf4jnsgd1na2vs0mg"},{"bike_id":"bb5f5452-4b9b-417d-b148-b396a874f3d9","system_id":"levelo_inurba_marseille","lat":43.33764,"lon":5.3744,"is_reserved":false,"is_disabled":false,"rental_uris":{"android":"levelo://app?vid=bb5f5452-4b9b-417d-b148-b396a874f3d9","ios":"levelo://app?vid=bb5f5452-4b9b-417d-b148-b396a874f3d9"},"vehicle_type_id":"4","last_reported":1728050925,"current_range_meters":36800,"station_id":"","pricing_plan_id":"cebpf4jnsgd1na2vs0mg"},{"bike_id":"0a59fef2-d212-4155-9925-108d390ac81f","system_id":"levelo_inurba_marseille","lat":43.23157,"lon":5.43701,"is_reserved":false,"is_disabled":false,"rental_uris":{"android":"levelo://app?vid=0a59fef2-d212-4155-9925-108d390ac81f","ios":"levelo://app?vid=0a59fef2-d212-4155-9925-108d390ac81f"},"vehicle_type_id":"4","last_reported":1728050925,"current_range_meters":35200,"station_id":"ce4bhmp2rcd13ifvqgog","pricing_plan_id":"cebpf4jnsgd1na2vs0mg"},{"bike_id":"daa6ffb7-e84c-4bf5-bc85-d7e23aba47c6","system_id":"levelo_inurba_marseille","lat":43.28075,"lon":5.39661,"is_reserved":false,"is_disabled":false,"rental_uris":{"android":"levelo://app?vid=daa6ffb7-e84c-4bf5-bc85-d7e23aba47c6","ios":"levelo://app?vid=daa6ffb7-e84c-4bf5-bc85-d7e23aba47c6"},"vehicle_type_id":"4","last_reported":1728050925,"current_range_meters":13600,"station_id":"ce4bho12rcd13ifvqh2g","pricing_plan_id":"cebpf4jnsgd1na2vs0mg"},{"bike_id":"d7a0298f-5c2b-438d-ab05-5d6a7ac83160","system_id":"levelo_inurba_marseille","lat":43.307934,"lon":5.435258,"is_reserved":false,"is_disabled":false,"rental_uris":{"android":"levelo://app?vid=d7a0298f-5c2b-438d-ab05-5d6a7ac83160","ios":"levelo://app?vid=d7a0298f-5c2b-438d-ab05-5d6a7ac83160"},"vehicle_type_id":"4","last_reported":1728050925,"current_range_meters":38800,"station_id":"ce4bhph2rcd13ifvqheg","pricing_plan_id":"cebpf4jnsgd1na2vs0mg"},{"bike_id":"dd9a8e27-9e75-4d65-b7f9-fd1b28ca7f6e","system_id":"levelo_inurba_marseille","lat":43.2315,"lon":5.43713,"is_reserved":false,"is_disabled":false,"rental_uris":{"android":"levelo://app?vid=dd9a8e27-9e75-4d65-b7f9-fd1b28ca7f6e","ios":"levelo://app?vid=dd9a8e27-9e75-4d65-b7f9-fd1b28ca7f6e"},"vehicle_type_id":"4","last_reported":1728050925,"current_range_meters":29600,"station_id":"ce4bhmp2rcd13ifvqgog","pricing_plan_id":"cebpf4jnsgd1na2vs0mg"},{"bike_id":"f28532ab-2844-4c68-acee-baaa073b03fa","system_id":"levelo_inurba_marseille","lat":43.32483,"lon":5.36562,"is_reserved":false,"is_disabled":false,"rental_uris":{"android":"levelo://app?vid=f28532ab-2844-4c68-acee-baaa073b03fa","ios":"levelo://app?vid=f28532ab-2844-4c68-acee-baaa073b03fa"},"vehicle_type_id":"4","last_reported":1728050925,"current_range_meters":37600,"station_id":"ce4bhs12rcd13ifvqhvg","pricing_plan_id":"cebpf4jnsgd1na2vs0mg"},{"bike_id":"d94bc6f4-05a5-4f8a-9d05-ab8781724d14","system_id":"levelo_inurba_marseille","lat":43.29793,"lon":5.38087,"is_reserved":false,"is_disabled":false,"rental_uris":{"android":"levelo://app?vid=d94bc6f4-05a5-4f8a-9d05-ab8781724d14","ios":"levelo://app?vid=d94bc6f4-05a5-4f8a-9d05-ab8781724d14"},"vehicle_type_id":"4","last_reported":1728050925,"current_range_meters":32800,"station_id":"ce4bgip2rcd13ifvqbb0","pricing_plan_id":"cebpf4jnsgd1na2vs0mg"},{"bike_id":"9217faf2-8285-45be-b3e8-705260ce45d2","system_id":"levelo_inurba_marseille","lat":43.26777,"lon":5.39422,"is_reserved":false,"is_disabled":false,"rental_uris":{"android":"levelo://app?vid=9217faf2-8285-45be-b3e8-705260ce45d2","ios":"levelo://app?vid=9217faf2-8285-45be-b3e8-705260ce45d2"},"vehicle_type_id":"4","last_reported":1728050925,"current_range_meters":27600,"station_id":"ce4bhh12rcd13ifvqfg0","pricing_plan_id":"cebpf4jnsgd1na2vs0mg"},{"bike_id":"a7b97ad2-15a2-468b-ae84-61a33fa454a8","system_id":"levelo_inurba_marseille","lat":43.26193,"lon":5.37452,"is_reserved":false,"is_disabled":false,"rental_uris":{"android":"levelo://app?vid=a7b97ad2-15a2-468b-ae84-61a33fa454a8","ios":"levelo://app?vid=a7b97ad2-15a2-468b-ae84-61a33fa454a8"},"vehicle_type_id":"4","last_reported":1728050925,"current_range_meters":11600,"station_id":"ce4bhgp2rcd13ifvqfc0","pricing_plan_id":"cebpf4jnsgd1na2vs0mg"},{"bike_id":"a7923302-db92-4415-b286-8db9f6371804","system_id":"levelo_inurba_marseille","lat":43.29149,"lon":5.37524,"is_reserved":false,"is_disabled":false,"rental_uris":{"android":"levelo://app?vid=a7923302-db92-4415-b286-8db9f6371804","ios":"levelo://app?vid=a7923302-db92-4415-b286-8db9f6371804"},"vehicle_type_id":"4","last_reported":1728050925,"current_range_meters":17200,"station_id":"","pricing_plan_id":"cebpf4jnsgd1na2vs0mg"},{"bike_id":"d602bb9e-b75e-4df7-8d65-c5a2586c9b89","system_id":"levelo_inurba_marseille","lat":43.29847,"lon":5.36283,"is_reserved":false,"is_disabled":false,"rental_uris":{"android":"levelo://app?vid=d602bb9e-b75e-4df7-8d65-c5a2586c9b89","ios":"levelo://app?vid=d602bb9e-b75e-4df7-8d65-c5a2586c9b89"},"vehicle_type_id":"4","last_reported":1728050925,"current_range_meters":28400,"station_id":"ce4bgpp2rcd13ifvqc3g","pricing_plan_id":"cebpf4jnsgd1na2vs0mg"},{"bike_id":"0df22634-8a99-4927-af03-09431c9e9149","system_id":"levelo_inurba_marseille","lat":43.25484,"lon":5.37657,"is_reserved":false,"is_disabled":false,"rental_uris":{"android":"levelo://app?vid=0df22634-8a99-4927-af03-09431c9e9149","ios":"levelo://app?vid=0df22634-8a99-4927-af03-09431c9e9149"},"vehicle_type_id":"4","last_reported":1728050925,"current_range_meters":20800,"station_id":"ce4bhh12rcd13ifvqff0","pricing_plan_id":"cebpf4jnsgd1na2vs0mg"},{"bike_id":"4a6d82ea-4a93-4702-b867-6ab3478675d0","system_id":"levelo_inurba_marseille","lat":43.30148,"lon":5.38086,"is_reserved":false,"is_disabled":false,"rental_uris":{"android":"levelo://app?vid=4a6d82ea-4a93-4702-b867-6ab3478675d0","ios":"levelo://app?vid=4a6d82ea-4a93-4702-b867-6ab3478675d0"},"vehicle_type_id":"4","last_reported":1728050925,"current_range_meters":36800,"station_id":"ce4bgjp2rcd13ifvqbh0","pricing_plan_id":"cebpf4jnsgd1na2vs0mg"},{"bike_id":"41f703f0-fa77-4b6d-8378-159c30c9a530","system_id":"levelo_inurba_marseille","lat":43.25501,"lon":5.37649,"is_reserved":false,"is_disabled":false,"rental_uris":{"android":"levelo://app?vid=41f703f0-fa77-4b6d-8378-159c30c9a530","ios":"levelo://app?vid=41f703f0-fa77-4b6d-8378-159c30c9a530"},"vehicle_type_id":"4","last_reported":1728050925,"current_range_meters":38800,"station_id":"ce4bhh12rcd13ifvqff0","pricing_plan_id":"cebpf4jnsgd1na2vs0mg"},{"bike_id":"26e591a2-512f-4737-8ce5-02a636d114e4","system_id":"levelo_inurba_marseille","lat":43.29848,"lon":5.36285,"is_reserved":false,"is_disabled":false,"rental_uris":{"android":"levelo://app?vid=26e591a2-512f-4737-8ce5-02a636d114e4","ios":"levelo://app?vid=26e591a2-512f-4737-8ce5-02a636d114e4"},"vehicle_type_id":"4","last_reported":1728050925,"current_range_meters":8000,"station_id":"ce4bgpp2rcd13ifvqc3g","pricing_plan_id":"cebpf4jnsgd1na2vs0mg"},{"bike_id":"4693ae82-faf0-4ab4-947c-3f4bb0c8da15","system_id":"levelo_inurba_marseille","lat":43.25103,"lon":5.40319,"is_reserved":false,"is_disabled":false,"rental_uris":{"android":"levelo://app?vid=4693ae82-faf0-4ab4-947c-3f4bb0c8da15","ios":"levelo://app?vid=4693ae82-faf0-4ab4-947c-3f4bb0c8da15"},"vehicle_type_id":"4","last_reported":1728050925,"current_range_meters":11200,"station_id":"ce4bhlh2rcd13ifvqgig","pricing_plan_id":"cebpf4jnsgd1na2vs0mg"},{"bike_id":"c8e4ff73-620c-4248-92f7-758d5098242c","system_id":"levelo_inurba_marseille","lat":43.22931,"lon":5.35376,"is_reserved":false,"is_disabled":false,"rental_uris":{"android":"levelo://app?vid=c8e4ff73-620c-4248-92f7-758d5098242c","ios":"levelo://app?vid=c8e4ff73-620c-4248-92f7-758d5098242c"},"vehicle_type_id":"4","last_reported":1728050925,"current_range_meters":20400,"station_id":"cpo3532slgdg3j2ikp40","pricing_plan_id":"cebpf4jnsgd1na2vs0mg"},{"bike_id":"96f7d8da-5822-4ec3-86fd-aa5cbbae375a","system_id":"levelo_inurba_marseille","lat":43.27172,"lon":5.40996,"is_reserved":false,"is_disabled":false,"rental_uris":{"android":"levelo://app?vid=96f7d8da-5822-4ec3-86fd-aa5cbbae375a","ios":"levelo://app?vid=96f7d8da-5822-4ec3-86fd-aa5cbbae375a"},"vehicle_type_id":"4","last_reported":1728050925,"current_range_meters":8000,"station_id":"ce4bhl12rcd13ifvqgf0","pricing_plan_id":"cebpf4jnsgd1na2vs0mg"},{"bike_id":"d5158089-3a37-467c-a561-c8a0186135db","system_id":"levelo_inurba_marseille","lat":43.28414,"lon":5.34985,"is_reserved":false,"is_disabled":false,"rental_uris":{"android":"levelo://app?vid=d5158089-3a37-467c-a561-c8a0186135db","ios":"levelo://app?vid=d5158089-3a37-467c-a561-c8a0186135db"},"vehicle_type_id":"4","last_reported":1728050925,"current_range_meters":8000,"station_id":"ce4bhbh2rcd13ifvqepg","pricing_plan_id":"cebpf4jnsgd1na2vs0mg"},{"bike_id":"e67617bc-7688-46a1-8dc7-3f0ddb1d3d19","system_id":"levelo_inurba_marseille","lat":43.30803,"lon":5.38148,"is_reserved":false,"is_disabled":false,"rental_uris":{"android":"levelo://app?vid=e67617bc-7688-46a1-8dc7-3f0ddb1d3d19","ios":"levelo://app?vid=e67617bc-7688-46a1-8dc7-3f0ddb1d3d19"},"vehicle_type_id":"4","last_reported":1728050925,"current_range_meters":36000,"station_id":"ce4bgt12rcd13ifvqce0","pricing_plan_id":"cebpf4jnsgd1na2vs0mg"},{"bike_id":"77c59eab-5250-44c4-be86-099c0defe9c4","system_id":"levelo_inurba_marseille","lat":43.33751,"lon":5.37444,"is_reserved":false,"is_disabled":false,"rental_uris":{"android":"levelo://app?vid=77c59eab-5250-44c4-be86-099c0defe9c4","ios":"levelo://app?vid=77c59eab-5250-44c4-be86-099c0defe9c4"},"vehicle_type_id":"4","last_reported":1728050925,"current_range_meters":30400,"station_id":"","pricing_plan_id":"cebpf4jnsgd1na2vs0mg"},{"bike_id":"350c1224-6ed4-4965-8eec-69b36197e594","system_id":"levelo_inurba_marseille","lat":43.30145,"lon":5.37415,"is_reserved":false,"is_disabled":false,"rental_uris":{"android":"levelo://app?vid=350c1224-6ed4-4965-8eec-69b36197e594","ios":"levelo://app?vid=350c1224-6ed4-4965-8eec-69b36197e594"},"vehicle_type_id":"4","last_reported":1728050925,"current_range_meters":38800,"station_id":"ce4bgs92rcd13ifvqcc0","pricing_plan_id":"cebpf4jnsgd1na2vs0mg"},{"bike_id":"b61e84c9-9e64-4ebb-b0f5-83d6125ad376","system_id":"levelo_inurba_marseille","lat":43.2619,"lon":5.37448,"is_reserved":false,"is_disabled":false,"rental_uris":{"android":"levelo://app?vid=b61e84c9-9e64-4ebb-b0f5-83d6125ad376","ios":"levelo://app?vid=b61e84c9-9e64-4ebb-b0f5-83d6125ad376"},"vehicle_type_id":"4","last_reported":1728050925,"current_range_meters":4000,"station_id":"ce4bhgp2rcd13ifvqfc0","pricing_plan_id":"cebpf4jnsgd1na2vs0mg"},{"bike_id":"93098334-5766-41ec-9f29-124ede017eb4","system_id":"levelo_inurba_marseille","lat":43.31363,"lon":5.36722,"is_reserved":false,"is_disabled":false,"rental_uris":{"android":"levelo://app?vid=93098334-5766-41ec-9f29-124ede017eb4","ios":"levelo://app?vid=93098334-5766-41ec-9f29-124ede017eb4"},"vehicle_type_id":"4","last_reported":1728050925,"current_range_meters":38000,"station_id":"ce4bgr92rcd13ifvqc6g","pricing_plan_id":"cebpf4jnsgd1na2vs0mg"},{"bike_id":"fa009e38-9978-4a0c-8d74-7cc8752f32b5","system_id":"levelo_inurba_marseille","lat":43.25867,"lon":5.39899,"is_reserved":false,"is_disabled":false,"rental_uris":{"android":"levelo://app?vid=fa009e38-9978-4a0c-8d74-7cc8752f32b5","ios":"levelo://app?vid=fa009e38-9978-4a0c-8d74-7cc8752f32b5"},"vehicle_type_id":"4","last_reported":1728050925,"current_range_meters":30400,"station_id":"ce4bhl92rcd13ifvqghg","pricing_plan_id":"cebpf4jnsgd1na2vs0mg"},{"bike_id":"141d4c76-0791-46ef-9f99-31d55180248e","system_id":"levelo_inurba_marseille","lat":43.26492,"lon":5.39539,"is_reserved":false,"is_disabled":false,"rental_uris":{"android":"levelo://app?vid=141d4c76-0791-46ef-9f99-31d55180248e","ios":"levelo://app?vid=141d4c76-0791-46ef-9f99-31d55180248e"},"vehicle_type_id":"4","last_reported":1728050925,"current_range_meters":25600,"station_id":"ce4bhi12rcd13ifvqfq0","pricing_plan_id":"cebpf4jnsgd1na2vs0mg"},{"bike_id":"83623599-9828-4154-b0da-6db73f040383","system_id":"levelo_inurba_marseille","lat":43.31478,"lon":5.37301,"is_reserved":false,"is_disabled":false,"rental_uris":{"android":"levelo://app?vid=83623599-9828-4154-b0da-6db73f040383","ios":"levelo://app?vid=83623599-9828-4154-b0da-6db73f040383"},"vehicle_type_id":"4","last_reported":1728050925,"current_range_meters":16400,"station_id":"ce4bgt12rcd13ifvqcd0","pricing_plan_id":"cebpf4jnsgd1na2vs0mg"},{"bike_id":"f228c5b7-4041-4938-8514-6b8d621ace3a","system_id":"levelo_inurba_marseille","lat":43.3153,"lon":5.3803,"is_reserved":false,"is_disabled":false,"rental_uris":{"android":"levelo://app?vid=f228c5b7-4041-4938-8514-6b8d621ace3a","ios":"levelo://app?vid=f228c5b7-4041-4938-8514-6b8d621ace3a"},"vehicle_type_id":"4","last_reported":1728050925,"current_range_meters":39200,"station_id":"ce4bhsp2rcd13ifvqi50","pricing_plan_id":"cebpf4jnsgd1na2vs0mg"},{"bike_id":"430b0534-c0a3-4c25-ab6f-2bad06c8960d","system_id":"levelo_inurba_marseille","lat":43.23158,"lon":5.437,"is_reserved":false,"is_disabled":false,"rental_uris":{"android":"levelo://app?vid=430b0534-c0a3-4c25-ab6f-2bad06c8960d","ios":"levelo://app?vid=430b0534-c0a3-4c25-ab6f-2bad06c8960d"},"vehicle_type_id":"4","last_reported":1728050925,"current_range_meters":10000,"station_id":"ce4bhmp2rcd13ifvqgog","pricing_plan_id":"cebpf4jnsgd1na2vs0mg"},{"bike_id":"e344d2d6-21be-4cd4-8108-e350d18bf296","system_id":"levelo_inurba_marseille","lat":43.2987,"lon":5.39732,"is_reserved":false,"is_disabled":false,"rental_uris":{"android":"levelo://app?vid=e344d2d6-21be-4cd4-8108-e350d18bf296","ios":"levelo://app?vid=e344d2d6-21be-4cd4-8108-e350d18bf296"},"vehicle_type_id":"4","last_reported":1728050925,"current_range_meters":35200,"station_id":"ce4bh0h2rcd13ifvqd50","pricing_plan_id":"cebpf4jnsgd1na2vs0mg"},{"bike_id":"8fd67b57-752f-4eb8-9a32-84cb6b0a1b9b","system_id":"levelo_inurba_marseille","lat":43.30936,"lon":5.40138,"is_reserved":false,"is_disabled":false,"rental_uris":{"android":"levelo://app?vid=8fd67b57-752f-4eb8-9a32-84cb6b0a1b9b","ios":"levelo://app?vid=8fd67b57-752f-4eb8-9a32-84cb6b0a1b9b"},"vehicle_type_id":"4","last_reported":1728050925,"current_range_meters":5600,"station_id":"ce4bgvp2rcd13ifvqct0","pricing_plan_id":"cebpf4jnsgd1na2vs0mg"},{"bike_id":"b56d0e9c-eb79-4204-9613-da7d9e677604","system_id":"levelo_inurba_marseille","lat":43.290283,"lon":5.381274,"is_reserved":false,"is_disabled":false,"rental_uris":{"android":"levelo://app?vid=b56d0e9c-eb79-4204-9613-da7d9e677604","ios":"levelo://app?vid=b56d0e9c-eb79-4204-9613-da7d9e677604"},"vehicle_type_id":"4","last_reported":1728050925,"current_range_meters":28800,"station_id":"ce4bh4p2rcd13ifvqe1g","pricing_plan_id":"cebpf4jnsgd1na2vs0mg"},{"bike_id":"b417a8d0-1fac-4a2b-9294-35cea48e57c1","system_id":"levelo_inurba_marseille","lat":43.33015,"lon":5.39044,"is_reserved":false,"is_disabled":false,"rental_uris":{"android":"levelo://app?vid=b417a8d0-1fac-4a2b-9294-35cea48e57c1","ios":"levelo://app?vid=b417a8d0-1fac-4a2b-9294-35cea48e57c1"},"vehicle_type_id":"4","last_reported":1728050925,"current_range_meters":32000,"station_id":"ce4bhr92rcd13ifvqhrg","pricing_plan_id":"cebpf4jnsgd1na2vs0mg"},{"bike_id":"193ddfb8-bf7d-412a-8f35-1178fbb161fa","system_id":"levelo_inurba_marseille","lat":43.24802,"lon":5.37455,"is_reserved":false,"is_disabled":false,"rental_uris":{"android":"levelo://app?vid=193ddfb8-bf7d-412a-8f35-1178fbb161fa","ios":"levelo://app?vid=193ddfb8-bf7d-412a-8f35-1178fbb161fa"},"vehicle_type_id":"4","last_reported":1728050925,"current_range_meters":40000,"station_id":"ce4bhgh2rcd13ifvqfb0","pricing_plan_id":"cebpf4jnsgd1na2vs0mg"},{"bike_id":"3b1e7b78-0c35-462e-b02c-fb156f9dd6c5","system_id":"levelo_inurba_marseille","lat":43.27946,"lon":5.41045,"is_reserved":false,"is_disabled":false,"rental_uris":{"android":"levelo://app?vid=3b1e7b78-0c35-462e-b02c-fb156f9dd6c5","ios":"levelo://app?vid=3b1e7b78-0c35-462e-b02c-fb156f9dd6c5"},"vehicle_type_id":"4","last_reported":1728050925,"current_range_meters":16000,"station_id":"ce4bhnp2rcd13ifvqh0g","pricing_plan_id":"cebpf4jnsgd1na2vs0mg"},{"bike_id":"4efaad14-ca11-4ec5-a55e-caa87d1880d0","system_id":"levelo_inurba_marseille","lat":43.23179,"lon":5.39995,"is_reserved":false,"is_disabled":false,"rental_uris":{"android":"levelo://app?vid=4efaad14-ca11-4ec5-a55e-caa87d1880d0","ios":"levelo://app?vid=4efaad14-ca11-4ec5-a55e-caa87d1880d0"},"vehicle_type_id":"4","last_reported":1728050925,"current_range_meters":22800,"station_id":"ce4bhn12rcd13ifvqgqg","pricing_plan_id":"cebpf4jnsgd1na2vs0mg"},{"bike_id":"56b492e3-2696-4fb2-8f63-8e11d7720539","system_id":"levelo_inurba_marseille","lat":43.30536,"lon":5.36707,"is_reserved":false,"is_disabled":false,"rental_uris":{"android":"levelo://app?vid=56b492e3-2696-4fb2-8f63-8e11d7720539","ios":"levelo://app?vid=56b492e3-2696-4fb2-8f63-8e11d7720539"},"vehicle_type_id":"4","last_reported":1728050925,"current_range_meters":25200,"station_id":"ce4bgrp2rcd13ifvqc9g","pricing_plan_id":"cebpf4jnsgd1na2vs0mg"},{"bike_id":"ed9fb650-701f-49a9-8122-9169b9b1897f","system_id":"levelo_inurba_marseille","lat":43.28264,"lon":5.35066,"is_reserved":false,"is_disabled":false,"rental_uris":{"android":"levelo://app?vid=ed9fb650-701f-49a9-8122-9169b9b1897f","ios":"levelo://app?vid=ed9fb650-701f-49a9-8122-9169b9b1897f"},"vehicle_type_id":"4","last_reported":1728050925,"current_range_meters":24400,"station_id":"ce4bhbp2rcd13ifvqerg","pricing_plan_id":"cebpf4jnsgd1na2vs0mg"},{"bike_id":"3d743f14-6bda-4d52-ac79-3261a0662f90","system_id":"levelo_inurba_marseille","lat":43.25082,"lon":5.39513,"is_reserved":false,"is_disabled":false,"rental_uris":{"android":"levelo://app?vid=3d743f14-6bda-4d52-ac79-3261a0662f90","ios":"levelo://app?vid=3d743f14-6bda-4d52-ac79-3261a0662f90"},"vehicle_type_id":"4","last_reported":1728050925,"current_range_meters":39200,"station_id":"ce4bhm12rcd13ifvqgkg","pricing_plan_id":"cebpf4jnsgd1na2vs0mg"},{"bike_id":"645bbc30-20e0-468c-919d-a6a7cd787533","system_id":"levelo_inurba_marseille","lat":43.29568,"lon":5.39976,"is_reserved":false,"is_disabled":false,"rental_uris":{"android":"levelo://app?vid=645bbc30-20e0-468c-919d-a6a7cd787533","ios":"levelo://app?vid=645bbc30-20e0-468c-919d-a6a7cd787533"},"vehicle_type_id":"4","last_reported":1728050925,"current_range_meters":3200,"station_id":"ce4bh312rcd13ifvqdj0","pricing_plan_id":"cebpf4jnsgd1na2vs0mg"},{"bike_id":"b720abc5-0022-4857-b9d9-404b371152ad","system_id":"levelo_inurba_marseille","lat":43.29302,"lon":5.37458,"is_reserved":false,"is_disabled":false,"rental_uris":{"android":"levelo://app?vid=b720abc5-0022-4857-b9d9-404b371152ad","ios":"levelo://app?vid=b720abc5-0022-4857-b9d9-404b371152ad"},"vehicle_type_id":"4","last_reported":1728050925,"current_range_meters":8800,"station_id":"ce4bgi12rcd13ifvqb70","pricing_plan_id":"cebpf4jnsgd1na2vs0mg"},{"bike_id":"15b746e4-b59c-45a2-b809-40724c2fd858","system_id":"levelo_inurba_marseille","lat":43.23149,"lon":5.43718,"is_reserved":false,"is_disabled":false,"rental_uris":{"android":"levelo://app?vid=15b746e4-b59c-45a2-b809-40724c2fd858","ios":"levelo://app?vid=15b746e4-b59c-45a2-b809-40724c2fd858"},"vehicle_type_id":"4","last_reported":1728050925,"current_range_meters":20400,"station_id":"ce4bhmp2rcd13ifvqgog","pricing_plan_id":"cebpf4jnsgd1na2vs0mg"},{"bike_id":"83552296-b91b-4b56-aa65-6a80d7b59efa","system_id":"levelo_inurba_marseille","lat":43.301231,"lon":5.398647,"is_reserved":false,"is_disabled":false,"rental_uris":{"android":"levelo://app?vid=83552296-b91b-4b56-aa65-6a80d7b59efa","ios":"levelo://app?vid=83552296-b91b-4b56-aa65-6a80d7b59efa"},"vehicle_type_id":"4","last_reported":1728050925,"current_range_meters":9200,"station_id":"ce4bh0h2rcd13ifvqd40","pricing_plan_id":"cebpf4jnsgd1na2vs0mg"},{"bike_id":"91f5d4d0-29b4-416e-b80a-21fa1cdd290c","system_id":"levelo_inurba_marseille","lat":43.25027,"lon":5.375498,"is_reserved":false,"is_disabled":false,"rental_uris":{"android":"levelo://app?vid=91f5d4d0-29b4-416e-b80a-21fa1cdd290c","ios":"levelo://app?vid=91f5d4d0-29b4-416e-b80a-21fa1cdd290c"},"vehicle_type_id":"4","last_reported":1728050925,"current_range_meters":16400,"station_id":"","pricing_plan_id":"cebpf4jnsgd1na2vs0mg"},{"bike_id":"411a622e-0c64-4ae7-ab3a-3b4f2603408c","system_id":"levelo_inurba_marseille","lat":43.29891,"lon":5.43657,"is_reserved":false,"is_disabled":false,"rental_uris":{"android":"levelo://app?vid=411a622e-0c64-4ae7-ab3a-3b4f2603408c","ios":"levelo://app?vid=411a622e-0c64-4ae7-ab3a-3b4f2603408c"},"vehicle_type_id":"4","last_reported":1728050925,"current_range_meters":37600,"station_id":"ce4bhpp2rcd13ifvqhfg","pricing_plan_id":"cebpf4jnsgd1na2vs0mg"},{"bike_id":"d9513a24-3235-43a7-b9a5-1c5cfe37603f","system_id":"levelo_inurba_marseille","lat":43.23056,"lon":5.35493,"is_reserved":false,"is_disabled":false,"rental_uris":{"android":"levelo://app?vid=d9513a24-3235-43a7-b9a5-1c5cfe37603f","ios":"levelo://app?vid=d9513a24-3235-43a7-b9a5-1c5cfe37603f"},"vehicle_type_id":"4","last_reported":1728050925,"current_range_meters":25200,"station_id":"cpo3342slgdg3j2ifvpg","pricing_plan_id":"cebpf4jnsgd1na2vs0mg"},{"bike_id":"640828bc-bca1-4aa3-b33b-de399b1966f8","system_id":"levelo_inurba_marseille","lat":43.28462,"lon":5.35884,"is_reserved":false,"is_disabled":false,"rental_uris":{"android":"levelo://app?vid=640828bc-bca1-4aa3-b33b-de399b1966f8","ios":"levelo://app?vid=640828bc-bca1-4aa3-b33b-de399b1966f8"},"vehicle_type_id":"4","last_reported":1728050925,"current_range_meters":2000,"station_id":"ce4bhah2rcd13ifvqei0","pricing_plan_id":"cebpf4jnsgd1na2vs0mg"},{"bike_id":"218a8594-d632-4b5a-a5c1-b789bf7d3ac8","system_id":"levelo_inurba_marseille","lat":43.29361,"lon":5.45147,"is_reserved":false,"is_disabled":false,"rental_uris":{"android":"levelo://app?vid=218a8594-d632-4b5a-a5c1-b789bf7d3ac8","ios":"levelo://app?vid=218a8594-d632-4b5a-a5c1-b789bf7d3ac8"},"vehicle_type_id":"4","last_reported":1728050925,"current_range_meters":24400,"station_id":"","pricing_plan_id":"cebpf4jnsgd1na2vs0mg"},{"bike_id":"8a0e0700-6a9b-403f-8a8f-341648bd54d3","system_id":"levelo_inurba_marseille","lat":43.30138,"lon":5.37416,"is_reserved":false,"is_disabled":false,"rental_uris":{"android":"levelo://app?vid=8a0e0700-6a9b-403f-8a8f-341648bd54d3","ios":"levelo://app?vid=8a0e0700-6a9b-403f-8a8f-341648bd54d3"},"vehicle_type_id":"4","last_reported":1728050925,"current_range_meters":39200,"station_id":"ce4bgs92rcd13ifvqcc0","pricing_plan_id":"cebpf4jnsgd1na2vs0mg"},{"bike_id":"9d72618d-fd59-4b3a-ba68-958c307690f1","system_id":"levelo_inurba_marseille","lat":43.29792,"lon":5.3811,"is_reserved":false,"is_disabled":false,"rental_uris":{"android":"levelo://app?vid=9d72618d-fd59-4b3a-ba68-958c307690f1","ios":"levelo://app?vid=9d72618d-fd59-4b3a-ba68-958c307690f1"},"vehicle_type_id":"4","last_reported":1728050925,"current_range_meters":37600,"station_id":"ce4bgip2rcd13ifvqbb0","pricing_plan_id":"cebpf4jnsgd1na2vs0mg"},{"bike_id":"4e0c83a2-b0c3-4894-8559-e509681998d3","system_id":"levelo_inurba_marseille","lat":43.31108,"lon":5.38318,"is_reserved":false,"is_disabled":false,"rental_uris":{"android":"levelo://app?vid=4e0c83a2-b0c3-4894-8559-e509681998d3","ios":"levelo://app?vid=4e0c83a2-b0c3-4894-8559-e509681998d3"},"vehicle_type_id":"4","last_reported":1728050925,"current_range_meters":22800,"station_id":"ce4bgv92rcd13ifvqcr0","pricing_plan_id":"cebpf4jnsgd1na2vs0mg"},{"bike_id":"dc852ba8-32f2-497f-a66a-6178eae58d48","system_id":"levelo_inurba_marseille","lat":43.32482,"lon":5.36564,"is_reserved":false,"is_disabled":false,"rental_uris":{"android":"levelo://app?vid=dc852ba8-32f2-497f-a66a-6178eae58d48","ios":"levelo://app?vid=dc852ba8-32f2-497f-a66a-6178eae58d48"},"vehicle_type_id":"4","last_reported":1728050925,"current_range_meters":10800,"station_id":"ce4bhs12rcd13ifvqhvg","pricing_plan_id":"cebpf4jnsgd1na2vs0mg"},{"bike_id":"0b1f3435-7b8f-4a07-b966-2bee3951e1ef","system_id":"levelo_inurba_marseille","lat":43.257199,"lon":5.410555,"is_reserved":false,"is_disabled":false,"rental_uris":{"android":"levelo://app?vid=0b1f3435-7b8f-4a07-b966-2bee3951e1ef","ios":"levelo://app?vid=0b1f3435-7b8f-4a07-b966-2bee3951e1ef"},"vehicle_type_id":"4","last_reported":1728050925,"current_range_meters":24000,"station_id":"ce4bhkp2rcd13ifvqgd0","pricing_plan_id":"cebpf4jnsgd1na2vs0mg"},{"bike_id":"701c6d99-5cc9-4f4a-aff8-cbd84ddd36e7","system_id":"levelo_inurba_marseille","lat":43.25108,"lon":5.40321,"is_reserved":false,"is_disabled":false,"rental_uris":{"android":"levelo://app?vid=701c6d99-5cc9-4f4a-aff8-cbd84ddd36e7","ios":"levelo://app?vid=701c6d99-5cc9-4f4a-aff8-cbd84ddd36e7"},"vehicle_type_id":"4","last_reported":1728050925,"current_range_meters":38800,"station_id":"ce4bhlh2rcd13ifvqgig","pricing_plan_id":"cebpf4jnsgd1na2vs0mg"},{"bike_id":"2cfc4000-1ba4-4fda-b073-bdeb7e177561","system_id":"levelo_inurba_marseille","lat":43.25725,"lon":5.41104,"is_reserved":false,"is_disabled":false,"rental_uris":{"android":"levelo://app?vid=2cfc4000-1ba4-4fda-b073-bdeb7e177561","ios":"levelo://app?vid=2cfc4000-1ba4-4fda-b073-bdeb7e177561"},"vehicle_type_id":"4","last_reported":1728050925,"current_range_meters":26000,"station_id":"ce4bhkp2rcd13ifvqgd0","pricing_plan_id":"cebpf4jnsgd1na2vs0mg"},{"bike_id":"745956e2-85a4-4e28-8a9f-f9dc9abb062e","system_id":"levelo_inurba_marseille","lat":43.31051,"lon":5.40147,"is_reserved":false,"is_disabled":false,"rental_uris":{"android":"levelo://app?vid=745956e2-85a4-4e28-8a9f-f9dc9abb062e","ios":"levelo://app?vid=745956e2-85a4-4e28-8a9f-f9dc9abb062e"},"vehicle_type_id":"4","last_reported":1728050925,"current_range_meters":8000,"station_id":"","pricing_plan_id":"cebpf4jnsgd1na2vs0mg"},{"bike_id":"59b8eac1-ab08-4530-8c1c-59f6e52a0aba","system_id":"levelo_inurba_marseille","lat":43.231515,"lon":5.437168,"is_reserved":false,"is_disabled":false,"rental_uris":{"android":"levelo://app?vid=59b8eac1-ab08-4530-8c1c-59f6e52a0aba","ios":"levelo://app?vid=59b8eac1-ab08-4530-8c1c-59f6e52a0aba"},"vehicle_type_id":"4","last_reported":1728050925,"current_range_meters":28800,"station_id":"ce4bhmp2rcd13ifvqgog","pricing_plan_id":"cebpf4jnsgd1na2vs0mg"},{"bike_id":"cc8612c2-298f-4c0f-9e0f-914f9ab06767","system_id":"levelo_inurba_marseille","lat":43.24646,"lon":5.38902,"is_reserved":false,"is_disabled":false,"rental_uris":{"android":"levelo://app?vid=cc8612c2-298f-4c0f-9e0f-914f9ab06767","ios":"levelo://app?vid=cc8612c2-298f-4c0f-9e0f-914f9ab06767"},"vehicle_type_id":"4","last_reported":1728050925,"current_range_meters":25600,"station_id":"ce4bhg12rcd13ifvqf60","pricing_plan_id":"cebpf4jnsgd1na2vs0mg"},{"bike_id":"fd67db3d-cfc6-4457-99c9-b1cfb05a9bdf","system_id":"levelo_inurba_marseille","lat":43.23059,"lon":5.35487,"is_reserved":false,"is_disabled":false,"rental_uris":{"android":"levelo://app?vid=fd67db3d-cfc6-4457-99c9-b1cfb05a9bdf","ios":"levelo://app?vid=fd67db3d-cfc6-4457-99c9-b1cfb05a9bdf"},"vehicle_type_id":"4","last_reported":1728050925,"current_range_meters":22000,"station_id":"cpo3342slgdg3j2ifvpg","pricing_plan_id":"cebpf4jnsgd1na2vs0mg"},{"bike_id":"27de9e10-b859-4f21-b954-fdf7390f7da8","system_id":"levelo_inurba_marseille","lat":43.31481,"lon":5.37307,"is_reserved":false,"is_disabled":false,"rental_uris":{"android":"levelo://app?vid=27de9e10-b859-4f21-b954-fdf7390f7da8","ios":"levelo://app?vid=27de9e10-b859-4f21-b954-fdf7390f7da8"},"vehicle_type_id":"4","last_reported":1728050925,"current_range_meters":28400,"station_id":"ce4bgt12rcd13ifvqcd0","pricing_plan_id":"cebpf4jnsgd1na2vs0mg"},{"bike_id":"f1689e04-15dd-41ce-8dee-3ae1a8f0bffd","system_id":"levelo_inurba_marseille","lat":43.31522,"lon":5.38031,"is_reserved":false,"is_disabled":false,"rental_uris":{"android":"levelo://app?vid=f1689e04-15dd-41ce-8dee-3ae1a8f0bffd","ios":"levelo://app?vid=f1689e04-15dd-41ce-8dee-3ae1a8f0bffd"},"vehicle_type_id":"4","last_reported":1728050925,"current_range_meters":33600,"station_id":"ce4bhsp2rcd13ifvqi50","pricing_plan_id":"cebpf4jnsgd1na2vs0mg"},{"bike_id":"613dddd7-b6d5-4ce7-b0cc-11c99bc21e50","system_id":"levelo_inurba_marseille","lat":43.30545,"lon":5.36693,"is_reserved":false,"is_disabled":false,"rental_uris":{"android":"levelo://app?vid=613dddd7-b6d5-4ce7-b0cc-11c99bc21e50","ios":"levelo://app?vid=613dddd7-b6d5-4ce7-b0cc-11c99bc21e50"},"vehicle_type_id":"4","last_reported":1728050925,"current_range_meters":32000,"station_id":"ce4bgrp2rcd13ifvqc9g","pricing_plan_id":"cebpf4jnsgd1na2vs0mg"},{"bike_id":"abedcaca-ce9a-464c-8437-8a94d42dcb16","system_id":"levelo_inurba_marseille","lat":43.29845,"lon":5.36272,"is_reserved":false,"is_disabled":false,"rental_uris":{"android":"levelo://app?vid=abedcaca-ce9a-464c-8437-8a94d42dcb16","ios":"levelo://app?vid=abedcaca-ce9a-464c-8437-8a94d42dcb16"},"vehicle_type_id":"4","last_reported":1728050925,"current_range_meters":37600,"station_id":"ce4bgpp2rcd13ifvqc3g","pricing_plan_id":"cebpf4jnsgd1na2vs0mg"},{"bike_id":"650262df-c1d1-46ae-ad74-907bc1d8f23e","system_id":"levelo_inurba_marseille","lat":43.28445,"lon":5.39188,"is_reserved":false,"is_disabled":false,"rental_uris":{"android":"levelo://app?vid=650262df-c1d1-46ae-ad74-907bc1d8f23e","ios":"levelo://app?vid=650262df-c1d1-46ae-ad74-907bc1d8f23e"},"vehicle_type_id":"4","last_reported":1728050925,"current_range_meters":20000,"station_id":"ce4bhoh2rcd13ifvqh5g","pricing_plan_id":"cebpf4jnsgd1na2vs0mg"},{"bike_id":"68b3e916-c982-44c4-afa0-77802fb0cdfd","system_id":"levelo_inurba_marseille","lat":43.28264,"lon":5.35065,"is_reserved":false,"is_disabled":false,"rental_uris":{"android":"levelo://app?vid=68b3e916-c982-44c4-afa0-77802fb0cdfd","ios":"levelo://app?vid=68b3e916-c982-44c4-afa0-77802fb0cdfd"},"vehicle_type_id":"4","last_reported":1728050925,"current_range_meters":28000,"station_id":"ce4bhbp2rcd13ifvqerg","pricing_plan_id":"cebpf4jnsgd1na2vs0mg"},{"bike_id":"2d0b6c92-fa0f-4009-81d8-e00fb52e69ae","system_id":"levelo_inurba_marseille","lat":43.293,"lon":5.37172,"is_reserved":false,"is_disabled":false,"rental_uris":{"android":"levelo://app?vid=2d0b6c92-fa0f-4009-81d8-e00fb52e69ae","ios":"levelo://app?vid=2d0b6c92-fa0f-4009-81d8-e00fb52e69ae"},"vehicle_type_id":"4","last_reported":1728050925,"current_range_meters":38800,"station_id":"ce4bgh92rcd13ifvqb40","pricing_plan_id":"cebpf4jnsgd1na2vs0mg"},{"bike_id":"d4a78045-c0eb-4792-b606-fd6583e30c56","system_id":"levelo_inurba_marseille","lat":43.3254,"lon":5.41451,"is_reserved":false,"is_disabled":false,"rental_uris":{"android":"levelo://app?vid=d4a78045-c0eb-4792-b606-fd6583e30c56","ios":"levelo://app?vid=d4a78045-c0eb-4792-b606-fd6583e30c56"},"vehicle_type_id":"4","last_reported":1728050925,"current_range_meters":38800,"station_id":"ce4bhq12rcd13ifvqhhg","pricing_plan_id":"cebpf4jnsgd1na2vs0mg"},{"bike_id":"46db1a41-e851-4190-9082-051dab560d0b","system_id":"levelo_inurba_marseille","lat":43.29139,"lon":5.38054,"is_reserved":false,"is_disabled":false,"rental_uris":{"android":"levelo://app?vid=46db1a41-e851-4190-9082-051dab560d0b","ios":"levelo://app?vid=46db1a41-e851-4190-9082-051dab560d0b"},"vehicle_type_id":"4","last_reported":1728050925,"current_range_meters":38400,"station_id":"ce4bhg12rcd13ifvqf80","pricing_plan_id":"cebpf4jnsgd1na2vs0mg"},{"bike_id":"27e7f6f4-9bfa-4304-b709-0da03928d44d","system_id":"levelo_inurba_marseille","lat":43.29953,"lon":5.41324,"is_reserved":false,"is_disabled":false,"rental_uris":{"android":"levelo://app?vid=27e7f6f4-9bfa-4304-b709-0da03928d44d","ios":"levelo://app?vid=27e7f6f4-9bfa-4304-b709-0da03928d44d"},"vehicle_type_id":"4","last_reported":1728050925,"current_range_meters":38800,"station_id":"ce4bhp12rcd13ifvqh9g","pricing_plan_id":"cebpf4jnsgd1na2vs0mg"},{"bike_id":"5e436505-948c-49f3-a457-ed04aa171b00","system_id":"levelo_inurba_marseille","lat":43.29421,"lon":5.38613,"is_reserved":false,"is_disabled":false,"rental_uris":{"android":"levelo://app?vid=5e436505-948c-49f3-a457-ed04aa171b00","ios":"levelo://app?vid=5e436505-948c-49f3-a457-ed04aa171b00"},"vehicle_type_id":"4","last_reported":1728050925,"current_range_meters":10000,"station_id":"ce4bh2h2rcd13ifvqdh0","pricing_plan_id":"cebpf4jnsgd1na2vs0mg"},{"bike_id":"acb6c3f3-17fe-4e90-a6d8-692b3c6e0554","system_id":"levelo_inurba_marseille","lat":43.29286,"lon":5.37161,"is_reserved":false,"is_disabled":false,"rental_uris":{"android":"levelo://app?vid=acb6c3f3-17fe-4e90-a6d8-692b3c6e0554","ios":"levelo://app?vid=acb6c3f3-17fe-4e90-a6d8-692b3c6e0554"},"vehicle_type_id":"4","last_reported":1728050925,"current_range_meters":38000,"station_id":"ce4bgh92rcd13ifvqb40","pricing_plan_id":"cebpf4jnsgd1na2vs0mg"},{"bike_id":"a88d20b7-37ff-46e9-a706-da8659ae146b","system_id":"levelo_inurba_marseille","lat":43.30322,"lon":5.40429,"is_reserved":false,"is_disabled":false,"rental_uris":{"android":"levelo://app?vid=a88d20b7-37ff-46e9-a706-da8659ae146b","ios":"levelo://app?vid=a88d20b7-37ff-46e9-a706-da8659ae146b"},"vehicle_type_id":"4","last_reported":1728050925,"current_range_meters":16400,"station_id":"ce4bh012rcd13ifvqd10","pricing_plan_id":"cebpf4jnsgd1na2vs0mg"},{"bike_id":"1b9c660b-18c0-46b2-8a8e-e0945a28e87d","system_id":"levelo_inurba_marseille","lat":43.27058,"lon":5.40255,"is_reserved":false,"is_disabled":false,"rental_uris":{"android":"levelo://app?vid=1b9c660b-18c0-46b2-8a8e-e0945a28e87d","ios":"levelo://app?vid=1b9c660b-18c0-46b2-8a8e-e0945a28e87d"},"vehicle_type_id":"4","last_reported":1728050925,"current_range_meters":33200,"station_id":"ce4bhk92rcd13ifvqgc0","pricing_plan_id":"cebpf4jnsgd1na2vs0mg"},{"bike_id":"da159afb-d6ad-4bc8-a3de-e348ce2b41eb","system_id":"levelo_inurba_marseille","lat":43.32482,"lon":5.36573,"is_reserved":false,"is_disabled":false,"rental_uris":{"android":"levelo://app?vid=da159afb-d6ad-4bc8-a3de-e348ce2b41eb","ios":"levelo://app?vid=da159afb-d6ad-4bc8-a3de-e348ce2b41eb"},"vehicle_type_id":"4","last_reported":1728050925,"current_range_meters":37600,"station_id":"ce4bhs12rcd13ifvqhvg","pricing_plan_id":"cebpf4jnsgd1na2vs0mg"},{"bike_id":"26f290bb-1447-4f43-ab6d-1590e2a06a4b","system_id":"levelo_inurba_marseille","lat":43.31442,"lon":5.37368,"is_reserved":false,"is_disabled":false,"rental_uris":{"android":"levelo://app?vid=26f290bb-1447-4f43-ab6d-1590e2a06a4b","ios":"levelo://app?vid=26f290bb-1447-4f43-ab6d-1590e2a06a4b"},"vehicle_type_id":"4","last_reported":1728050925,"current_range_meters":38800,"station_id":"ce4bgt12rcd13ifvqcd0","pricing_plan_id":"cebpf4jnsgd1na2vs0mg"},{"bike_id":"a8fbdfd9-61c0-44e5-8910-8c7f587455af","system_id":"levelo_inurba_marseille","lat":43.25087,"lon":5.39516,"is_reserved":false,"is_disabled":false,"rental_uris":{"android":"levelo://app?vid=a8fbdfd9-61c0-44e5-8910-8c7f587455af","ios":"levelo://app?vid=a8fbdfd9-61c0-44e5-8910-8c7f587455af"},"vehicle_type_id":"4","last_reported":1728050925,"current_range_meters":38800,"station_id":"ce4bhm12rcd13ifvqgkg","pricing_plan_id":"cebpf4jnsgd1na2vs0mg"},{"bike_id":"5f79e251-953e-41c5-be9c-933a56bdf307","system_id":"levelo_inurba_marseille","lat":43.30529,"lon":5.36699,"is_reserved":false,"is_disabled":false,"rental_uris":{"android":"levelo://app?vid=5f79e251-953e-41c5-be9c-933a56bdf307","ios":"levelo://app?vid=5f79e251-953e-41c5-be9c-933a56bdf307"},"vehicle_type_id":"4","last_reported":1728050925,"current_range_meters":18800,"station_id":"ce4bgrp2rcd13ifvqc9g","pricing_plan_id":"cebpf4jnsgd1na2vs0mg"},{"bike_id":"7279784c-61d8-4dfc-9c18-93dcb1dbe107","system_id":"levelo_inurba_marseille","lat":43.32331,"lon":5.40613,"is_reserved":false,"is_disabled":false,"rental_uris":{"android":"levelo://app?vid=7279784c-61d8-4dfc-9c18-93dcb1dbe107","ios":"levelo://app?vid=7279784c-61d8-4dfc-9c18-93dcb1dbe107"},"vehicle_type_id":"4","last_reported":1728050925,"current_range_meters":20800,"station_id":"ce4bhq92rcd13ifvqhjg","pricing_plan_id":"cebpf4jnsgd1na2vs0mg"},{"bike_id":"40eee244-96c8-4790-ae6d-dd0cb3dac76d","system_id":"levelo_inurba_marseille","lat":43.33744,"lon":5.39162,"is_reserved":false,"is_disabled":false,"rental_uris":{"android":"levelo://app?vid=40eee244-96c8-4790-ae6d-dd0cb3dac76d","ios":"levelo://app?vid=40eee244-96c8-4790-ae6d-dd0cb3dac76d"},"vehicle_type_id":"4","last_reported":1728050925,"current_range_meters":33200,"station_id":"ce4bhr92rcd13ifvqhsg","pricing_plan_id":"cebpf4jnsgd1na2vs0mg"},{"bike_id":"9153b943-6af7-4c89-a75b-407ef7290292","system_id":"levelo_inurba_marseille","lat":43.33729,"lon":5.39182,"is_reserved":false,"is_disabled":false,"rental_uris":{"android":"levelo://app?vid=9153b943-6af7-4c89-a75b-407ef7290292","ios":"levelo://app?vid=9153b943-6af7-4c89-a75b-407ef7290292"},"vehicle_type_id":"4","last_reported":1728050925,"current_range_meters":38800,"station_id":"ce4bhr92rcd13ifvqhsg","pricing_plan_id":"cebpf4jnsgd1na2vs0mg"},{"bike_id":"4a2bcbd7-99f0-4bdc-9b30-db0c2aba643c","system_id":"levelo_inurba_marseille","lat":43.31761,"lon":5.3902,"is_reserved":false,"is_disabled":false,"rental_uris":{"android":"levelo://app?vid=4a2bcbd7-99f0-4bdc-9b30-db0c2aba643c","ios":"levelo://app?vid=4a2bcbd7-99f0-4bdc-9b30-db0c2aba643c"},"vehicle_type_id":"4","last_reported":1728050925,"current_range_meters":26000,"station_id":"ce4bhqp2rcd13ifvqhng","pricing_plan_id":"cebpf4jnsgd1na2vs0mg"},{"bike_id":"86ff700b-110b-4ec5-a2b7-d4c5b318182d","system_id":"levelo_inurba_marseille","lat":43.29364,"lon":5.37835,"is_reserved":false,"is_disabled":false,"rental_uris":{"android":"levelo://app?vid=86ff700b-110b-4ec5-a2b7-d4c5b318182d","ios":"levelo://app?vid=86ff700b-110b-4ec5-a2b7-d4c5b318182d"},"vehicle_type_id":"4","last_reported":1728050925,"current_range_meters":34000,"station_id":"ce4bgjh2rcd13ifvqbf0","pricing_plan_id":"cebpf4jnsgd1na2vs0mg"},{"bike_id":"ca4bd170-5d0e-4e83-bef6-56dfc5302428","system_id":"levelo_inurba_marseille","lat":43.29847,"lon":5.36279,"is_reserved":false,"is_disabled":false,"rental_uris":{"android":"levelo://app?vid=ca4bd170-5d0e-4e83-bef6-56dfc5302428","ios":"levelo://app?vid=ca4bd170-5d0e-4e83-bef6-56dfc5302428"},"vehicle_type_id":"4","last_reported":1728050925,"current_range_meters":17200,"station_id":"ce4bgpp2rcd13ifvqc3g","pricing_plan_id":"cebpf4jnsgd1na2vs0mg"},{"bike_id":"8655edb9-7fd0-4a4a-8a43-c048ac971c00","system_id":"levelo_inurba_marseille","lat":43.248047,"lon":5.374538,"is_reserved":false,"is_disabled":false,"rental_uris":{"android":"levelo://app?vid=8655edb9-7fd0-4a4a-8a43-c048ac971c00","ios":"levelo://app?vid=8655edb9-7fd0-4a4a-8a43-c048ac971c00"},"vehicle_type_id":"4","last_reported":1728050925,"current_range_meters":24800,"station_id":"ce4bh3p2rcd13ifvqdp0","pricing_plan_id":"cebpf4jnsgd1na2vs0mg"},{"bike_id":"717baf04-ff80-4fe6-be5d-7b75b0c23ab3","system_id":"levelo_inurba_marseille","lat":43.30537,"lon":5.38413,"is_reserved":false,"is_disabled":false,"rental_uris":{"android":"levelo://app?vid=717baf04-ff80-4fe6-be5d-7b75b0c23ab3","ios":"levelo://app?vid=717baf04-ff80-4fe6-be5d-7b75b0c23ab3"},"vehicle_type_id":"4","last_reported":1728050925,"current_range_meters":25200,"station_id":"ce4bgg92rcd13ifvqb30","pricing_plan_id":"cebpf4jnsgd1na2vs0mg"},{"bike_id":"01053b7c-c140-41ea-bc69-59d23c1af039","system_id":"levelo_inurba_marseille","lat":43.30539,"lon":5.36696,"is_reserved":false,"is_disabled":false,"rental_uris":{"android":"levelo://app?vid=01053b7c-c140-41ea-bc69-59d23c1af039","ios":"levelo://app?vid=01053b7c-c140-41ea-bc69-59d23c1af039"},"vehicle_type_id":"4","last_reported":1728050925,"current_range_meters":14800,"station_id":"ce4bgrp2rcd13ifvqc9g","pricing_plan_id":"cebpf4jnsgd1na2vs0mg"},{"bike_id":"c27bd2ec-b1b8-4f9c-839d-c8e88bc7ec66","system_id":"levelo_inurba_marseille","lat":43.298438,"lon":5.362673,"is_reserved":false,"is_disabled":false,"rental_uris":{"android":"levelo://app?vid=c27bd2ec-b1b8-4f9c-839d-c8e88bc7ec66","ios":"levelo://app?vid=c27bd2ec-b1b8-4f9c-839d-c8e88bc7ec66"},"vehicle_type_id":"4","last_reported":1728050925,"current_range_meters":38800,"station_id":"ce4bgpp2rcd13ifvqc3g","pricing_plan_id":"cebpf4jnsgd1na2vs0mg"},{"bike_id":"0ffb6b42-4cfa-431e-9066-be366d80ae6c","system_id":"levelo_inurba_marseille","lat":43.27941,"lon":5.410508,"is_reserved":false,"is_disabled":false,"rental_uris":{"android":"levelo://app?vid=0ffb6b42-4cfa-431e-9066-be366d80ae6c","ios":"levelo://app?vid=0ffb6b42-4cfa-431e-9066-be366d80ae6c"},"vehicle_type_id":"4","last_reported":1728050925,"current_range_meters":18800,"station_id":"ce4bhnp2rcd13ifvqh0g","pricing_plan_id":"cebpf4jnsgd1na2vs0mg"},{"bike_id":"40e27bd2-1780-4061-b64e-a496814e2637","system_id":"levelo_inurba_marseille","lat":43.31598,"lon":5.37591,"is_reserved":false,"is_disabled":false,"rental_uris":{"android":"levelo://app?vid=40e27bd2-1780-4061-b64e-a496814e2637","ios":"levelo://app?vid=40e27bd2-1780-4061-b64e-a496814e2637"},"vehicle_type_id":"4","last_reported":1728050925,"current_range_meters":32000,"station_id":"","pricing_plan_id":"cebpf4jnsgd1na2vs0mg"},{"bike_id":"0cb9acb2-15eb-485b-842c-a3f570e8e7c5","system_id":"levelo_inurba_marseille","lat":43.22937,"lon":5.35378,"is_reserved":false,"is_disabled":false,"rental_uris":{"android":"levelo://app?vid=0cb9acb2-15eb-485b-842c-a3f570e8e7c5","ios":"levelo://app?vid=0cb9acb2-15eb-485b-842c-a3f570e8e7c5"},"vehicle_type_id":"4","last_reported":1728050925,"current_range_meters":21600,"station_id":"cpo3532slgdg3j2ikp40","pricing_plan_id":"cebpf4jnsgd1na2vs0mg"},{"bike_id":"8490616f-b6ff-431b-b60b-911b756a6f38","system_id":"levelo_inurba_marseille","lat":43.26554,"lon":5.37283,"is_reserved":false,"is_disabled":false,"rental_uris":{"android":"levelo://app?vid=8490616f-b6ff-431b-b60b-911b756a6f38","ios":"levelo://app?vid=8490616f-b6ff-431b-b60b-911b756a6f38"},"vehicle_type_id":"4","last_reported":1728050925,"current_range_meters":2000,"station_id":"ce4bhg12rcd13ifvqf70","pricing_plan_id":"cebpf4jnsgd1na2vs0mg"},{"bike_id":"485580dc-fd01-4188-88be-5002661073db","system_id":"levelo_inurba_marseille","lat":43.29258,"lon":5.40911,"is_reserved":false,"is_disabled":false,"rental_uris":{"android":"levelo://app?vid=485580dc-fd01-4188-88be-5002661073db","ios":"levelo://app?vid=485580dc-fd01-4188-88be-5002661073db"},"vehicle_type_id":"4","last_reported":1728050925,"current_range_meters":18000,"station_id":"ce4bh192rcd13ifvqdc0","pricing_plan_id":"cebpf4jnsgd1na2vs0mg"},{"bike_id":"58284369-1ce7-42ca-842f-a4c85a3fd05e","system_id":"levelo_inurba_marseille","lat":43.29929,"lon":5.36531,"is_reserved":false,"is_disabled":false,"rental_uris":{"android":"levelo://app?vid=58284369-1ce7-42ca-842f-a4c85a3fd05e","ios":"levelo://app?vid=58284369-1ce7-42ca-842f-a4c85a3fd05e"},"vehicle_type_id":"4","last_reported":1728050925,"current_range_meters":30000,"station_id":"ce4bgm92rcd13ifvqbr0","pricing_plan_id":"cebpf4jnsgd1na2vs0mg"},{"bike_id":"cad53f51-6242-4ac5-a905-67a3970ffb9f","system_id":"levelo_inurba_marseille","lat":43.25116,"lon":5.40326,"is_reserved":false,"is_disabled":false,"rental_uris":{"android":"levelo://app?vid=cad53f51-6242-4ac5-a905-67a3970ffb9f","ios":"levelo://app?vid=cad53f51-6242-4ac5-a905-67a3970ffb9f"},"vehicle_type_id":"4","last_reported":1728050925,"current_range_meters":24400,"station_id":"ce4bhlh2rcd13ifvqgig","pricing_plan_id":"cebpf4jnsgd1na2vs0mg"},{"bike_id":"e9bc8e34-7fc9-401e-8798-81c511b3e3c8","system_id":"levelo_inurba_marseille","lat":43.33391,"lon":5.41056,"is_reserved":false,"is_disabled":false,"rental_uris":{"android":"levelo://app?vid=e9bc8e34-7fc9-401e-8798-81c511b3e3c8","ios":"levelo://app?vid=e9bc8e34-7fc9-401e-8798-81c511b3e3c8"},"vehicle_type_id":"4","last_reported":1728050925,"current_range_meters":10800,"station_id":"","pricing_plan_id":"cebpf4jnsgd1na2vs0mg"},{"bike_id":"4671225a-a29c-4b02-9fb9-db65f4703022","system_id":"levelo_inurba_marseille","lat":43.29026,"lon":5.38643,"is_reserved":false,"is_disabled":false,"rental_uris":{"android":"levelo://app?vid=4671225a-a29c-4b02-9fb9-db65f4703022","ios":"levelo://app?vid=4671225a-a29c-4b02-9fb9-db65f4703022"},"vehicle_type_id":"4","last_reported":1728050925,"current_range_meters":32400,"station_id":"ce4bh4p2rcd13ifvqe0g","pricing_plan_id":"cebpf4jnsgd1na2vs0mg"},{"bike_id":"daae8a2c-3086-4f9c-beb7-44106cbf1785","system_id":"levelo_inurba_marseille","lat":43.30802,"lon":5.38142,"is_reserved":false,"is_disabled":false,"rental_uris":{"android":"levelo://app?vid=daae8a2c-3086-4f9c-beb7-44106cbf1785","ios":"levelo://app?vid=daae8a2c-3086-4f9c-beb7-44106cbf1785"},"vehicle_type_id":"4","last_reported":1728050925,"current_range_meters":8000,"station_id":"ce4bgt12rcd13ifvqce0","pricing_plan_id":"cebpf4jnsgd1na2vs0mg"},{"bike_id":"c8e00c6d-b748-4ab1-a04a-08bff7f1c61e","system_id":"levelo_inurba_marseille","lat":43.29837,"lon":5.36257,"is_reserved":false,"is_disabled":false,"rental_uris":{"android":"levelo://app?vid=c8e00c6d-b748-4ab1-a04a-08bff7f1c61e","ios":"levelo://app?vid=c8e00c6d-b748-4ab1-a04a-08bff7f1c61e"},"vehicle_type_id":"4","last_reported":1728050925,"current_range_meters":39200,"station_id":"ce4bgpp2rcd13ifvqc3g","pricing_plan_id":"cebpf4jnsgd1na2vs0mg"},{"bike_id":"48cdf92a-7c1a-42b1-ad27-c3adb0f177c3","system_id":"levelo_inurba_marseille","lat":43.31075,"lon":5.38342,"is_reserved":false,"is_disabled":false,"rental_uris":{"android":"levelo://app?vid=48cdf92a-7c1a-42b1-ad27-c3adb0f177c3","ios":"levelo://app?vid=48cdf92a-7c1a-42b1-ad27-c3adb0f177c3"},"vehicle_type_id":"4","last_reported":1728050925,"current_range_meters":35600,"station_id":"ce4bgv92rcd13ifvqcr0","pricing_plan_id":"cebpf4jnsgd1na2vs0mg"},{"bike_id":"fb46c388-758b-408a-a875-488544be0fd3","system_id":"levelo_inurba_marseille","lat":43.32592,"lon":5.40558,"is_reserved":false,"is_disabled":false,"rental_uris":{"android":"levelo://app?vid=fb46c388-758b-408a-a875-488544be0fd3","ios":"levelo://app?vid=fb46c388-758b-408a-a875-488544be0fd3"},"vehicle_type_id":"4","last_reported":1728050925,"current_range_meters":36000,"station_id":"","pricing_plan_id":"cebpf4jnsgd1na2vs0mg"},{"bike_id":"51f22627-a9ed-499f-a6c6-a2efc49aca17","system_id":"levelo_inurba_marseille","lat":43.26213,"lon":5.3744,"is_reserved":false,"is_disabled":false,"rental_uris":{"android":"levelo://app?vid=51f22627-a9ed-499f-a6c6-a2efc49aca17","ios":"levelo://app?vid=51f22627-a9ed-499f-a6c6-a2efc49aca17"},"vehicle_type_id":"4","last_reported":1728050925,"current_range_meters":20000,"station_id":"ce4bhgp2rcd13ifvqfc0","pricing_plan_id":"cebpf4jnsgd1na2vs0mg"},{"bike_id":"64bd957e-b978-44cb-a85c-928d627d24ec","system_id":"levelo_inurba_marseille","lat":43.35571,"lon":5.3594,"is_reserved":false,"is_disabled":false,"rental_uris":{"android":"levelo://app?vid=64bd957e-b978-44cb-a85c-928d627d24ec","ios":"levelo://app?vid=64bd957e-b978-44cb-a85c-928d627d24ec"},"vehicle_type_id":"4","last_reported":1728050925,"current_range_meters":9200,"station_id":"","pricing_plan_id":"cebpf4jnsgd1na2vs0mg"},{"bike_id":"38a690d7-e99e-4de5-bdfe-f410e85adf9a","system_id":"levelo_inurba_marseille","lat":43.30549,"lon":5.36703,"is_reserved":false,"is_disabled":false,"rental_uris":{"android":"levelo://app?vid=38a690d7-e99e-4de5-bdfe-f410e85adf9a","ios":"levelo://app?vid=38a690d7-e99e-4de5-bdfe-f410e85adf9a"},"vehicle_type_id":"4","last_reported":1728050925,"current_range_meters":14000,"station_id":"ce4bgrp2rcd13ifvqc9g","pricing_plan_id":"cebpf4jnsgd1na2vs0mg"},{"bike_id":"732d7d61-5d27-4418-925b-c66609e900cc","system_id":"levelo_inurba_marseille","lat":43.27808,"lon":5.40712,"is_reserved":false,"is_disabled":false,"rental_uris":{"android":"levelo://app?vid=732d7d61-5d27-4418-925b-c66609e900cc","ios":"levelo://app?vid=732d7d61-5d27-4418-925b-c66609e900cc"},"vehicle_type_id":"4","last_reported":1728050925,"current_range_meters":38400,"station_id":"ce4bhnh2rcd13ifvqgtg","pricing_plan_id":"cebpf4jnsgd1na2vs0mg"},{"bike_id":"67454bcc-95ea-4f17-883c-31fa2282c4e6","system_id":"levelo_inurba_marseille","lat":43.30288,"lon":5.39647,"is_reserved":false,"is_disabled":false,"rental_uris":{"android":"levelo://app?vid=67454bcc-95ea-4f17-883c-31fa2282c4e6","ios":"levelo://app?vid=67454bcc-95ea-4f17-883c-31fa2282c4e6"},"vehicle_type_id":"4","last_reported":1728050925,"current_range_meters":25200,"station_id":"","pricing_plan_id":"cebpf4jnsgd1na2vs0mg"},{"bike_id":"db237d03-be85-492e-b96e-e2bcdd9a79da","system_id":"levelo_inurba_marseille","lat":43.28276,"lon":5.35054,"is_reserved":false,"is_disabled":false,"rental_uris":{"android":"levelo://app?vid=db237d03-be85-492e-b96e-e2bcdd9a79da","ios":"levelo://app?vid=db237d03-be85-492e-b96e-e2bcdd9a79da"},"vehicle_type_id":"4","last_reported":1728050925,"current_range_meters":24800,"station_id":"ce4bhbp2rcd13ifvqerg","pricing_plan_id":"cebpf4jnsgd1na2vs0mg"},{"bike_id":"76e627bd-770e-4681-8d38-29cc59738596","system_id":"levelo_inurba_marseille","lat":43.30092,"lon":5.39066,"is_reserved":false,"is_disabled":false,"rental_uris":{"android":"levelo://app?vid=76e627bd-770e-4681-8d38-29cc59738596","ios":"levelo://app?vid=76e627bd-770e-4681-8d38-29cc59738596"},"vehicle_type_id":"4","last_reported":1728050925,"current_range_meters":9600,"station_id":"ce4bh192rcd13ifvqdb0","pricing_plan_id":"cebpf4jnsgd1na2vs0mg"},{"bike_id":"19a51a99-e3bd-4d28-8afe-aa351ad7d955","system_id":"levelo_inurba_marseille","lat":43.28073,"lon":5.3966,"is_reserved":false,"is_disabled":false,"rental_uris":{"android":"levelo://app?vid=19a51a99-e3bd-4d28-8afe-aa351ad7d955","ios":"levelo://app?vid=19a51a99-e3bd-4d28-8afe-aa351ad7d955"},"vehicle_type_id":"4","last_reported":1728050925,"current_range_meters":21600,"station_id":"ce4bho12rcd13ifvqh2g","pricing_plan_id":"cebpf4jnsgd1na2vs0mg"},{"bike_id":"1dfde707-53e4-4bf5-bc92-042569e60e45","system_id":"levelo_inurba_marseille","lat":43.30152,"lon":5.38097,"is_reserved":false,"is_disabled":false,"rental_uris":{"android":"levelo://app?vid=1dfde707-53e4-4bf5-bc92-042569e60e45","ios":"levelo://app?vid=1dfde707-53e4-4bf5-bc92-042569e60e45"},"vehicle_type_id":"4","last_reported":1728050925,"current_range_meters":27600,"station_id":"ce4bgjp2rcd13ifvqbh0","pricing_plan_id":"cebpf4jnsgd1na2vs0mg"},{"bike_id":"2f9dc031-1c3a-4be2-847d-9eb85caf6408","system_id":"levelo_inurba_marseille","lat":43.30875,"lon":5.39657,"is_reserved":false,"is_disabled":false,"rental_uris":{"android":"levelo://app?vid=2f9dc031-1c3a-4be2-847d-9eb85caf6408","ios":"levelo://app?vid=2f9dc031-1c3a-4be2-847d-9eb85caf6408"},"vehicle_type_id":"4","last_reported":1728050925,"current_range_meters":6000,"station_id":"ce4bh012rcd13ifvqcv0","pricing_plan_id":"cebpf4jnsgd1na2vs0mg"},{"bike_id":"a03c51c8-c614-405f-9b53-7022cff9c603","system_id":"levelo_inurba_marseille","lat":43.26559,"lon":5.37277,"is_reserved":false,"is_disabled":false,"rental_uris":{"android":"levelo://app?vid=a03c51c8-c614-405f-9b53-7022cff9c603","ios":"levelo://app?vid=a03c51c8-c614-405f-9b53-7022cff9c603"},"vehicle_type_id":"4","last_reported":1728050925,"current_range_meters":16400,"station_id":"ce4bhg12rcd13ifvqf70","pricing_plan_id":"cebpf4jnsgd1na2vs0mg"},{"bike_id":"8cd99103-214a-49be-9c70-5626f09ab8fb","system_id":"levelo_inurba_marseille","lat":43.27426,"lon":5.39409,"is_reserved":false,"is_disabled":false,"rental_uris":{"android":"levelo://app?vid=8cd99103-214a-49be-9c70-5626f09ab8fb","ios":"levelo://app?vid=8cd99103-214a-49be-9c70-5626f09ab8fb"},"vehicle_type_id":"4","last_reported":1728050925,"current_range_meters":8800,"station_id":"ce4bhdp2rcd13ifvqf20","pricing_plan_id":"cebpf4jnsgd1na2vs0mg"},{"bike_id":"6d679b6b-38e0-4f37-8caf-d0dfb3677fc5","system_id":"levelo_inurba_marseille","lat":43.2293,"lon":5.35379,"is_reserved":false,"is_disabled":false,"rental_uris":{"android":"levelo://app?vid=6d679b6b-38e0-4f37-8caf-d0dfb3677fc5","ios":"levelo://app?vid=6d679b6b-38e0-4f37-8caf-d0dfb3677fc5"},"vehicle_type_id":"4","last_reported":1728050925,"current_range_meters":18000,"station_id":"cpo3532slgdg3j2ikp40","pricing_plan_id":"cebpf4jnsgd1na2vs0mg"},{"bike_id":"027f9f4e-9148-49e7-9c2b-2f05437c31ad","system_id":"levelo_inurba_marseille","lat":43.30353,"lon":5.4187,"is_reserved":false,"is_disabled":false,"rental_uris":{"android":"levelo://app?vid=027f9f4e-9148-49e7-9c2b-2f05437c31ad","ios":"levelo://app?vid=027f9f4e-9148-49e7-9c2b-2f05437c31ad"},"vehicle_type_id":"4","last_reported":1728050925,"current_range_meters":6800,"station_id":"ce4bhop2rcd13ifvqh7g","pricing_plan_id":"cebpf4jnsgd1na2vs0mg"},{"bike_id":"44cbe4d2-8b15-4d45-b8d7-eba539091b1e","system_id":"levelo_inurba_marseille","lat":43.2718,"lon":5.40995,"is_reserved":false,"is_disabled":false,"rental_uris":{"android":"levelo://app?vid=44cbe4d2-8b15-4d45-b8d7-eba539091b1e","ios":"levelo://app?vid=44cbe4d2-8b15-4d45-b8d7-eba539091b1e"},"vehicle_type_id":"4","last_reported":1728050925,"current_range_meters":4000,"station_id":"ce4bhl12rcd13ifvqgf0","pricing_plan_id":"cebpf4jnsgd1na2vs0mg"},{"bike_id":"a1dbb806-90a8-4ce0-b5b6-592d72b86435","system_id":"levelo_inurba_marseille","lat":43.30788,"lon":5.3765,"is_reserved":false,"is_disabled":false,"rental_uris":{"android":"levelo://app?vid=a1dbb806-90a8-4ce0-b5b6-592d72b86435","ios":"levelo://app?vid=a1dbb806-90a8-4ce0-b5b6-592d72b86435"},"vehicle_type_id":"4","last_reported":1728050925,"current_range_meters":24000,"station_id":"ce4bgv92rcd13ifvqcq0","pricing_plan_id":"cebpf4jnsgd1na2vs0mg"},{"bike_id":"ef5a9180-45f1-49e4-bbc2-f86a7c779331","system_id":"levelo_inurba_marseille","lat":43.33022,"lon":5.39038,"is_reserved":false,"is_disabled":false,"rental_uris":{"android":"levelo://app?vid=ef5a9180-45f1-49e4-bbc2-f86a7c779331","ios":"levelo://app?vid=ef5a9180-45f1-49e4-bbc2-f86a7c779331"},"vehicle_type_id":"4","last_reported":1728050925,"current_range_meters":14800,"station_id":"ce4bhr92rcd13ifvqhrg","pricing_plan_id":"cebpf4jnsgd1na2vs0mg"},{"bike_id":"42715632-e225-47f3-813c-9451f24e5700","system_id":"levelo_inurba_marseille","lat":43.23189,"lon":5.35556,"is_reserved":false,"is_disabled":false,"rental_uris":{"android":"levelo://app?vid=42715632-e225-47f3-813c-9451f24e5700","ios":"levelo://app?vid=42715632-e225-47f3-813c-9451f24e5700"},"vehicle_type_id":"4","last_reported":1728050925,"current_range_meters":14800,"station_id":"ce4bhu92rcd13ifvqi70","pricing_plan_id":"cebpf4jnsgd1na2vs0mg"},{"bike_id":"2c0806ea-f316-4e4f-a90c-6de5a8d75aa5","system_id":"levelo_inurba_marseille","lat":43.3028,"lon":5.377,"is_reserved":false,"is_disabled":false,"rental_uris":{"android":"levelo://app?vid=2c0806ea-f316-4e4f-a90c-6de5a8d75aa5","ios":"levelo://app?vid=2c0806ea-f316-4e4f-a90c-6de5a8d75aa5"},"vehicle_type_id":"4","last_reported":1728050925,"current_range_meters":2800,"station_id":"ce4bguh2rcd13ifvqcj0","pricing_plan_id":"cebpf4jnsgd1na2vs0mg"},{"bike_id":"2430d101-5126-4a00-b2a3-39ff80d0a471","system_id":"levelo_inurba_marseille","lat":43.31329,"lon":5.39692,"is_reserved":false,"is_disabled":false,"rental_uris":{"android":"levelo://app?vid=2430d101-5126-4a00-b2a3-39ff80d0a471","ios":"levelo://app?vid=2430d101-5126-4a00-b2a3-39ff80d0a471"},"vehicle_type_id":"4","last_reported":1728050925,"current_range_meters":27200,"station_id":"ce4bgvp2rcd13ifvqcu0","pricing_plan_id":"cebpf4jnsgd1na2vs0mg"},{"bike_id":"95bb90e5-5eab-4102-a02e-970f0ea671ed","system_id":"levelo_inurba_marseille","lat":43.30158,"lon":5.38084,"is_reserved":false,"is_disabled":false,"rental_uris":{"android":"levelo://app?vid=95bb90e5-5eab-4102-a02e-970f0ea671ed","ios":"levelo://app?vid=95bb90e5-5eab-4102-a02e-970f0ea671ed"},"vehicle_type_id":"4","last_reported":1728050925,"current_range_meters":24400,"station_id":"ce4bgjp2rcd13ifvqbh0","pricing_plan_id":"cebpf4jnsgd1na2vs0mg"},