{"last_updated":1748293709,"ttl":60,"version":"2.2","data":{"bikes":[{"bike_id":"270fc64d-c8f9-41af-b2b2-3f0d4c311744","system_id":"levelo_inurba_marseille","lat":43.31714,"lon":5.43701,"is_reserved":false,"is_disabled":true,"rental_uris":{"android":"levelo://app?vid=270fc64d-c8f9-41af-b2b2-3f0d4c311744","ios":"levelo://app?vid=270fc64d-c8f9-41af-b2b2-3f0d4c311744"},"vehicle_type_id":"4","last_reported":1748293709,"current_range_meters":3200,"station_id":"ce4bhp92rcd13ifvqhcg","pricing_plan_id":"cebpf4jnsgd1na2vs0mg"},{"bike_id":"d9fa0449-e47c-4bbe-a91c-4939cab5d888","system_id":"levelo_inurba_marseille","lat":43.28548,"lon":5.42624,"is_reserved":false,"is_disabled":false,"rental_uris":{"android":"levelo://app?vid=d9fa0449-e47c-4bbe-a91c-4939cab5d888","ios":"levelo://app?vid=d9fa0449-e47c-4bbe-a91c-4939cab5d888"},"vehicle_type_id":"4","last_reported":1748293709,"current_range_meters":3200,"station_id":"","pricing_plan_id":"cebpf4jnsgd1na2vs0mg"},{"bike_id":"da453a88-f81b-4e0f-9781-5a7f6c1d364c","system_id":"levelo_inurba_marseille","lat":43.337499,"lon":5.374469,"is_reserved":false,"is_disabled":false,"rental_uris":{"android":"levelo://app?vid=da453a88-f81b-4e0f-9781-5a7f6c1d364c","ios":"levelo://app?vid=da453a88-f81b-4e0f-9781-5a7f6c1d364c"},"vehicle_type_id":"4","last_reported":1748293709,"current_range_meters":3600,"station_id":"","pricing_plan_id":"cebpf4jnsgd1na2vs0mg"},{"bike_id":"83df8741-d12e-47ed-9ebe-d7ebfcd99d9d","system_id":"levelo_inurba_marseille","lat":43.28706,"lon":5.37391,"is_reserved":false,"is_disabled":true,"rental_uris":{"android":"levelo://app?vid=83df8741-d12e-47ed-9ebe-d7ebfcd99d9d","ios":"levelo://app?vid=83df8741-d12e-47ed-9ebe-d7ebfcd99d9d"},"vehicle_type_id":"4","last_reported":1748293709,"current_range_meters":3600,"station_id":"ce4bh3p2rcd13ifvqdq0","pricing_plan_id":"cebpf4jnsgd1na2vs0mg"},{"bike_id":"667b2270-111d-4434-aaae-690b375d1c8d","system_id":"levelo_inurba_marseille","lat":43.26199,"lon":5.37419,"is_reserved":false,"is_disabled":false,"rental_uris":{"android":"levelo://app?vid=667b2270-111d-4434-aaae-690b375d1c8d","ios":"levelo://app?vid=667b2270-111d-4434-aaae-690b375d1c8d"},"vehicle_type_id":"4","last_reported":1748293709,"current_range_meters":4000,"station_id":"ce4bhgp2rcd13ifvqfc0","pricing_plan_id":"cebpf4jnsgd1na2vs0mg"},{"bike_id":"98ebf65e-e651-43eb-bbd4-161cddcbd829","system_id":"levelo_inurba_marseille","lat":43.284768,"lon":5.384156,"is_reserved":false,"is_disabled":false,"rental_uris":{"android":"levelo://app?vid=98ebf65e-e651-43eb-bbd4-161cddcbd829","ios":"levelo://app?vid=98ebf65e-e651-43eb-bbd4-161cddcbd829"},"vehicle_type_id":"4","last_reported":1748293709,"current_range_meters":4000,"station_id":"ce4bh512rcd13ifvqe3g","pricing_plan_id":"cebpf4jnsgd1na2vs0mg"},{"bike_id":"f93ce947-e848-4762-9962-426f3826fd4c","system_id":"levelo_inurba_marseille","lat":43.24067,"lon":5.37763,"is_reserved":false,"is_disabled":false,"rental_uris":{"android":"levelo://app?vid=f93ce947-e848-4762-9962-426f3826fd4c","ios":"levelo://app?vid=f93ce947-e848-4762-9962-426f3826fd4c"},"vehicle_type_id":"4","last_reported":1748293709,"current_range_meters":4400,"station_id":"ce4bhnp2rcd13ifvqgvg","pricing_plan_id":"cebpf4jnsgd1na2vs0mg"},{"bike_id":"6a2e6f48-058f-41ff-b150-9f9d8eda1caf","system_id":"levelo_inurba_marseille","lat":43.30332,"lon":5.40439,"is_reserved":false,"is_disabled":false,"rental_uris":{"android":"levelo://app?vid=6a2e6f48-058f-41ff-b150-9f9d8eda1caf","ios":"levelo://app?vid=6a2e6f48-058f-41ff-b150-9f9d8eda1caf"},"vehicle_type_id":"4","last_reported":1748293709,"current_range_meters":4400,"station_id":"ce4bh012rcd13ifvqd10","pricing_plan_id":"cebpf4jnsgd1na2vs0mg"},{"bike_id":"842fbd4a-e999-481e-892c-e9207b04fd22","system_id":"levelo_inurba_marseille","lat":43.27933,"lon":5.3957,"is_reserved":false,"is_disabled":false,"rental_uris":{"android":"levelo://app?vid=842fbd4a-e999-481e-892c-e9207b04fd22","ios":"levelo://app?vid=842fbd4a-e999-481e-892c-e9207b04fd22"},"vehicle_type_id":"4","last_reported":1748293709,"current_range_meters":4400,"station_id":"ce4bhf92rcd13ifvqf40","pricing_plan_id":"cebpf4jnsgd1na2vs0mg"},{"bike_id":"27abeae6-466d-4b6a-ae60-2082531fac2e","system_id":"levelo_inurba_marseille","lat":43.30598,"lon":5.37239,"is_reserved":false,"is_disabled":false,"rental_uris":{"android":"levelo://app?vid=27abeae6-466d-4b6a-ae60-2082531fac2e","ios":"levelo://app?vid=27abeae6-466d-4b6a-ae60-2082531fac2e"},"vehicle_type_id":"4","last_reported":1748293709,"current_range_meters":4800,"station_id":"ce4bgqh2rcd13ifvqc4g","pricing_plan_id":"cebpf4jnsgd1na2vs0mg"},{"bike_id":"8933f504-972a-4945-8cc9-d579b5cf935a","system_id":"levelo_inurba_marseille","lat":43.28155,"lon":5.42642,"is_reserved":false,"is_disabled":false,"rental_uris":{"android":"levelo://app?vid=8933f504-972a-4945-8cc9-d579b5cf935a","ios":"levelo://app?vid=8933f504-972a-4945-8cc9-d579b5cf935a"},"vehicle_type_id":"4","last_reported":1748293709,"current_range_meters":4800,"station_id":"ce4bhnh2rcd13ifvqgug","pricing_plan_id":"cebpf4jnsgd1na2vs0mg"},{"bike_id":"2d5ce439-59fc-4ccb-9f0f-59b7b5fac3b7","system_id":"levelo_inurba_marseille","lat":43.280828,"lon":5.396625,"is_reserved":false,"is_disabled":false,"rental_uris":{"android":"levelo://app?vid=2d5ce439-59fc-4ccb-9f0f-59b7b5fac3b7","ios":"levelo://app?vid=2d5ce439-59fc-4ccb-9f0f-59b7b5fac3b7"},"vehicle_type_id":"4","last_reported":1748293709,"current_range_meters":5600,"station_id":"ce4bho12rcd13ifvqh2g","pricing_plan_id":"cebpf4jnsgd1na2vs0mg"},{"bike_id":"4b061722-4486-4b94-be1f-3178679422ae","system_id":"levelo_inurba_marseille","lat":43.25485,"lon":5.37652,"is_reserved":false,"is_disabled":false,"rental_uris":{"android":"levelo://app?vid=4b061722-4486-4b94-be1f-3178679422ae","ios":"levelo://app?vid=4b061722-4486-4b94-be1f-3178679422ae"},"vehicle_type_id":"4","last_reported":1748293709,"current_range_meters":5600,"station_id":"ce4bhh12rcd13ifvqff0","pricing_plan_id":"cebpf4jnsgd1na2vs0mg"},{"bike_id":"6e20cec4-febd-4977-b683-025f53de29ae","system_id":"levelo_inurba_marseille","lat":43.31368,"lon":5.38494,"is_reserved":false,"is_disabled":false,"rental_uris":{"android":"levelo://app?vid=6e20cec4-febd-4977-b683-025f53de29ae","ios":"levelo://app?vid=6e20cec4-febd-4977-b683-025f53de29ae"},"vehicle_type_id":"4","last_reported":1748293709,"current_range_meters":5600,"station_id":"ce4bgt92rcd13ifvqcf0","pricing_plan_id":"cebpf4jnsgd1na2vs0mg"},{"bike_id":"22714e58-3cb8-491b-b895-45fccd97b8e1","system_id":"levelo_inurba_marseille","lat":43.31503,"lon":5.37293,"is_reserved":false,"is_disabled":true,"rental_uris":{"android":"levelo://app?vid=22714e58-3cb8-491b-b895-45fccd97b8e1","ios":"levelo://app?vid=22714e58-3cb8-491b-b895-45fccd97b8e1"},"vehicle_type_id":"4","last_reported":1748293709,"current_range_meters":5600,"station_id":"ce4bgt12rcd13ifvqcd0","pricing_plan_id":"cebpf4jnsgd1na2vs0mg"},{"bike_id":"c86b0378-612d-464b-9058-5d13e8c375b2","system_id":"levelo_inurba_marseille","lat":43.29282,"lon":5.40903,"is_reserved":false,"is_disabled":false,"rental_uris":{"android":"levelo://app?vid=c86b0378-612d-464b-9058-5d13e8c375b2","ios":"levelo://app?vid=c86b0378-612d-464b-9058-5d13e8c375b2"},"vehicle_type_id":"4","last_reported":1748293709,"current_range_meters":5600,"station_id":"ce4bh192rcd13ifvqdc0","pricing_plan_id":"cebpf4jnsgd1na2vs0mg"},{"bike_id":"35617b76-5262-49cb-af3f-9a4bad24edc9","system_id":"levelo_inurba_marseille","lat":43.31472,"lon":5.37314,"is_reserved":false,"is_disabled":false,"rental_uris":{"android":"levelo://app?vid=35617b76-5262-49cb-af3f-9a4bad24edc9","ios":"levelo://app?vid=35617b76-5262-49cb-af3f-9a4bad24edc9"},"vehicle_type_id":"4","last_reported":1748293709,"current_range_meters":5600,"station_id":"ce4bgt12rcd13ifvqcd0","pricing_plan_id":"cebpf4jnsgd1na2vs0mg"},{"bike_id":"bb8cea48-57e7-4503-8261-8df757c21af4","system_id":"levelo_inurba_marseille","lat":43.296383,"lon":5.377347,"is_reserved":false,"is_disabled":false,"rental_uris":{"android":"levelo://app?vid=bb8cea48-57e7-4503-8261-8df757c21af4","ios":"levelo://app?vid=bb8cea48-57e7-4503-8261-8df757c21af4"},"vehicle_type_id":"4","last_reported":1748293709,"current_range_meters":5600,"station_id":"ce4bgi92rcd13ifvqb90","pricing_plan_id":"cebpf4jnsgd1na2vs0mg"},{"bike_id":"61816696-89b0-4a74-9d0a-29ee893b6497","system_id":"levelo_inurba_marseille","lat":43.294188,"lon":5.386203,"is_reserved":false,"is_disabled":false,"rental_uris":{"android":"levelo://app?vid=61816696-89b0-4a74-9d0a-29ee893b6497","ios":"levelo://app?vid=61816696-89b0-4a74-9d0a-29ee893b6497"},"vehicle_type_id":"4","last_reported":1748293709,"current_range_meters":8000,"station_id":"ce4bh2h2rcd13ifvqdh0","pricing_plan_id":"cebpf4jnsgd1na2vs0mg"},{"bike_id":"8bac87a7-96a9-4b6e-8de5-bbbb2b4e42ad","system_id":"levelo_inurba_marseille","lat":43.25123,"lon":5.40318,"is_reserved":false,"is_disabled":false,"rental_uris":{"android":"levelo://app?vid=8bac87a7-96a9-4b6e-8de5-bbbb2b4e42ad","ios":"levelo://app?vid=8bac87a7-96a9-4b6e-8de5-bbbb2b4e42ad"},"vehicle_type_id":"4","last_reported":1748293709,"current_range_meters":6400,"station_id":"ce4bhlh2rcd13ifvqgig","pricing_plan_id":"cebpf4jnsgd1na2vs0mg"},{"bike_id":"ab485184-dee6-4278-8ed8-78cb97c31dd5","system_id":"levelo_inurba_marseille","lat":43.2921,"lon":5.35824,"is_reserved":false,"is_disabled":false,"rental_uris":{"android":"levelo://app?vid=ab485184-dee6-4278-8ed8-78cb97c31dd5","ios":"levelo://app?vid=ab485184-dee6-4278-8ed8-78cb97c31dd5"},"vehicle_type_id":"4","last_reported":1748293709,"current_range_meters":6400,"station_id":"","pricing_plan_id":"cebpf4jnsgd1na2vs0mg"},{"bike_id":"297ad822-8f14-4f31-bb35-b1e84c96b30d","system_id":"levelo_inurba_marseille","lat":43.30647,"lon":5.40094,"is_reserved":false,"is_disabled":false,"rental_uris":{"android":"levelo://app?vid=297ad822-8f14-4f31-bb35-b1e84c96b30d","ios":"levelo://app?vid=297ad822-8f14-4f31-bb35-b1e84c96b30d"},"vehicle_type_id":"4","last_reported":1748293709,"current_range_meters":6400,"station_id":"ce4bh112rcd13ifvqda0","pricing_plan_id":"cebpf4jnsgd1na2vs0mg"},{"bike_id":"20aedc1a-3258-494a-9b0e-5afc4945dd89","system_id":"levelo_inurba_marseille","lat":43.23175,"lon":5.39969,"is_reserved":false,"is_disabled":false,"rental_uris":{"android":"levelo://app?vid=20aedc1a-3258-494a-9b0e-5afc4945dd89","ios":"levelo://app?vid=20aedc1a-3258-494a-9b0e-5afc4945dd89"},"vehicle_type_id":"4","last_reported":1748293709,"current_range_meters":6400,"station_id":"ce4bhn12rcd13ifvqgqg","pricing_plan_id":"cebpf4jnsgd1na2vs0mg"},{"bike_id":"78b26c2f-243b-4801-a50e-f35a1c4e0310","system_id":"levelo_inurba_marseille","lat":43.31325,"lon":5.39693,"is_reserved":false,"is_disabled":false,"rental_uris":{"android":"levelo://app?vid=78b26c2f-243b-4801-a50e-f35a1c4e0310","ios":"levelo://app?vid=78b26c2f-243b-4801-a50e-f35a1c4e0310"},"vehicle_type_id":"4","last_reported":1748293709,"current_range_meters":6400,"station_id":"ce4bgvp2rcd13ifvqcu0","pricing_plan_id":"cebpf4jnsgd1na2vs0mg"},{"bike_id":"8e7fc3dd-79e3-49a1-bf61-68c7348a4ca4","system_id":"levelo_inurba_marseille","lat":43.26027,"lon":5.37549,"is_reserved":false,"is_disabled":false,"rental_uris":{"android":"levelo://app?vid=8e7fc3dd-79e3-49a1-bf61-68c7348a4ca4","ios":"levelo://app?vid=8e7fc3dd-79e3-49a1-bf61-68c7348a4ca4"},"vehicle_type_id":"4","last_reported":1748293709,"current_range_meters":6400,"station_id":"ce4bhgh2rcd13ifvqfa0","pricing_plan_id":"cebpf4jnsgd1na2vs0mg"},{"bike_id":"7f4ccda0-5315-4177-a4df-2ce6dea1abef","system_id":"levelo_inurba_marseille","lat":43.2928,"lon":5.40114,"is_reserved":false,"is_disabled":false,"rental_uris":{"android":"levelo://app?vid=7f4ccda0-5315-4177-a4df-2ce6dea1abef","ios":"levelo://app?vid=7f4ccda0-5315-4177-a4df-2ce6dea1abef"},"vehicle_type_id":"4","last_reported":1748293709,"current_range_meters":6400,"station_id":"ce4bh312rcd13ifvqdk0","pricing_plan_id":"cebpf4jnsgd1na2vs0mg"},{"bike_id":"2a542e3d-aa0e-4aaa-a8fc-3d084393b3ba","system_id":"levelo_inurba_marseille","lat":43.28365,"lon":5.38636,"is_reserved":false,"is_disabled":false,"rental_uris":{"android":"levelo://app?vid=2a542e3d-aa0e-4aaa-a8fc-3d084393b3ba","ios":"levelo://app?vid=2a542e3d-aa0e-4aaa-a8fc-3d084393b3ba"},"vehicle_type_id":"4","last_reported":1748293709,"current_range_meters":6800,"station_id":"ce4bh492rcd13ifvqdvg","pricing_plan_id":"cebpf4jnsgd1na2vs0mg"},{"bike_id":"26f9c77d-4622-4854-a72b-9abfdef64f7f","system_id":"levelo_inurba_marseille","lat":43.26804,"lon":5.40273,"is_reserved":false,"is_disabled":false,"rental_uris":{"android":"levelo://app?vid=26f9c77d-4622-4854-a72b-9abfdef64f7f","ios":"levelo://app?vid=26f9c77d-4622-4854-a72b-9abfdef64f7f"},"vehicle_type_id":"4","last_reported":1748293709,"current_range_meters":6800,"station_id":"ce501612rcd8frsf0b60","pricing_plan_id":"cebpf4jnsgd1na2vs0mg"},{"bike_id":"2e547f2e-6654-4473-98a0-e3c2ed28f4a7","system_id":"levelo_inurba_marseille","lat":43.25506,"lon":5.37643,"is_reserved":false,"is_disabled":false,"rental_uris":{"android":"levelo://app?vid=2e547f2e-6654-4473-98a0-e3c2ed28f4a7","ios":"levelo://app?vid=2e547f2e-6654-4473-98a0-e3c2ed28f4a7"},"vehicle_type_id":"4","last_reported":1748293709,"current_range_meters":6800,"station_id":"ce4bhh12rcd13ifvqff0","pricing_plan_id":"cebpf4jnsgd1na2vs0mg"},{"bike_id":"b065788c-f4a4-4950-954e-b46fa299995d","system_id":"levelo_inurba_marseille","lat":43.28436,"lon":5.39201,"is_reserved":false,"is_disabled":false,"rental_uris":{"android":"levelo://app?vid=b065788c-f4a4-4950-954e-b46fa299995d","ios":"levelo://app?vid=b065788c-f4a4-4950-954e-b46fa299995d"},"vehicle_type_id":"4","last_reported":1748293709,"current_range_meters":6800,"station_id":"ce4bhoh2rcd13ifvqh5g","pricing_plan_id":"cebpf4jnsgd1na2vs0mg"},{"bike_id":"198a3ecf-6a71-496b-ac70-883612f4592b","system_id":"levelo_inurba_marseille","lat":43.30316,"lon":5.369,"is_reserved":false,"is_disabled":false,"rental_uris":{"android":"levelo://app?vid=198a3ecf-6a71-496b-ac70-883612f4592b","ios":"levelo://app?vid=198a3ecf-6a71-496b-ac70-883612f4592b"},"vehicle_type_id":"4","last_reported":1748293709,"current_range_meters":7200,"station_id":"ce4bgqh2rcd13ifvqc5g","pricing_plan_id":"cebpf4jnsgd1na2vs0mg"},{"bike_id":"e9496718-b841-4999-823d-28c5bee5d6f1","system_id":"levelo_inurba_marseille","lat":43.26563,"lon":5.39001,"is_reserved":false,"is_disabled":false,"rental_uris":{"android":"levelo://app?vid=e9496718-b841-4999-823d-28c5bee5d6f1","ios":"levelo://app?vid=e9496718-b841-4999-823d-28c5bee5d6f1"},"vehicle_type_id":"4","last_reported":1748293709,"current_range_meters":7200,"station_id":"ce4bhe12rcd13ifvqf30","pricing_plan_id":"cebpf4jnsgd1na2vs0mg"},{"bike_id":"246e57fe-1559-42a1-ae7f-7939243abc4a","system_id":"levelo_inurba_marseille","lat":43.24071,"lon":5.37738,"is_reserved":false,"is_disabled":false,"rental_uris":{"android":"levelo://app?vid=246e57fe-1559-42a1-ae7f-7939243abc4a","ios":"levelo://app?vid=246e57fe-1559-42a1-ae7f-7939243abc4a"},"vehicle_type_id":"4","last_reported":1748293709,"current_range_meters":7200,"station_id":"ce4bhnp2rcd13ifvqgvg","pricing_plan_id":"cebpf4jnsgd1na2vs0mg"},{"bike_id":"d034331e-2326-45ac-8b15-3e0e7041a86e","system_id":"levelo_inurba_marseille","lat":43.31488,"lon":5.37309,"is_reserved":false,"is_disabled":false,"rental_uris":{"android":"levelo://app?vid=d034331e-2326-45ac-8b15-3e0e7041a86e","ios":"levelo://app?vid=d034331e-2326-45ac-8b15-3e0e7041a86e"},"vehicle_type_id":"4","last_reported":1748293709,"current_range_meters":7200,"station_id":"ce4bgt12rcd13ifvqcd0","pricing_plan_id":"cebpf4jnsgd1na2vs0mg"},{"bike_id":"56663262-140e-42a6-8234-6b0704a795c5","system_id":"levelo_inurba_marseille","lat":43.31351,"lon":5.38484,"is_reserved":false,"is_disabled":false,"rental_uris":{"android":"levelo://app?vid=56663262-140e-42a6-8234-6b0704a795c5","ios":"levelo://app?vid=56663262-140e-42a6-8234-6b0704a795c5"},"vehicle_type_id":"4","last_reported":1748293709,"current_range_meters":7200,"station_id":"ce4bgt92rcd13ifvqcf0","pricing_plan_id":"cebpf4jnsgd1na2vs0mg"},{"bike_id":"dabc077c-bf8d-431d-a5ea-dcd441e9b7b1","system_id":"levelo_inurba_marseille","lat":43.24879,"lon":5.39728,"is_reserved":false,"is_disabled":false,"rental_uris":{"android":"levelo://app?vid=dabc077c-bf8d-431d-a5ea-dcd441e9b7b1","ios":"levelo://app?vid=dabc077c-bf8d-431d-a5ea-dcd441e9b7b1"},"vehicle_type_id":"4","last_reported":1748293709,"current_range_meters":7200,"station_id":"","pricing_plan_id":"cebpf4jnsgd1na2vs0mg"},{"bike_id":"6050b4b8-1656-461b-a39d-e6025c491b23","system_id":"levelo_inurba_marseille","lat":43.280807,"lon":5.396463,"is_reserved":false,"is_disabled":false,"rental_uris":{"android":"levelo://app?vid=6050b4b8-1656-461b-a39d-e6025c491b23","ios":"levelo://app?vid=6050b4b8-1656-461b-a39d-e6025c491b23"},"vehicle_type_id":"4","last_reported":1748293709,"current_range_meters":8000,"station_id":"ce4bho12rcd13ifvqh2g","pricing_plan_id":"cebpf4jnsgd1na2vs0mg"},{"bike_id":"e6af14d5-dd9c-4759-abab-581b91a61bef","system_id":"levelo_inurba_marseille","lat":43.30066,"lon":5.39079,"is_reserved":false,"is_disabled":false,"rental_uris":{"android":"levelo://app?vid=e6af14d5-dd9c-4759-abab-581b91a61bef","ios":"levelo://app?vid=e6af14d5-dd9c-4759-abab-581b91a61bef"},"vehicle_type_id":"4","last_reported":1748293709,"current_range_meters":8000,"station_id":"ce4bh192rcd13ifvqdb0","pricing_plan_id":"cebpf4jnsgd1na2vs0mg"},{"bike_id":"e1a05f52-41b6-4905-a906-7e3ecbe8ddfd","system_id":"levelo_inurba_marseille","lat":43.25117,"lon":5.40297,"is_reserved":false,"is_disabled":false,"rental_uris":{"android":"levelo://app?vid=e1a05f52-41b6-4905-a906-7e3ecbe8ddfd","ios":"levelo://app?vid=e1a05f52-41b6-4905-a906-7e3ecbe8ddfd"},"vehicle_type_id":"4","last_reported":1748293709,"current_range_meters":8000,"station_id":"ce4bhlh2rcd13ifvqgig","pricing_plan_id":"cebpf4jnsgd1na2vs0mg"},{"bike_id":"87c3076d-2d54-4dd0-9747-4c0633d58414","system_id":"levelo_inurba_marseille","lat":43.33607,"lon":5.41036,"is_reserved":false,"is_disabled":false,"rental_uris":{"android":"levelo://app?vid=87c3076d-2d54-4dd0-9747-4c0633d58414","ios":"levelo://app?vid=87c3076d-2d54-4dd0-9747-4c0633d58414"},"vehicle_type_id":"4","last_reported":1748293709,"current_range_meters":8000,"station_id":"ce4bhqh2rcd13ifvqhmg","pricing_plan_id":"cebpf4jnsgd1na2vs0mg"},{"bike_id":"4ede7548-607a-495a-8b59-64db3f866d9f","system_id":"levelo_inurba_marseille","lat":43.28708,"lon":5.37395,"is_reserved":false,"is_disabled":false,"rental_uris":{"android":"levelo://app?vid=4ede7548-607a-495a-8b59-64db3f866d9f","ios":"levelo://app?vid=4ede7548-607a-495a-8b59-64db3f866d9f"},"vehicle_type_id":"4","last_reported":1748293709,"current_range_meters":8000,"station_id":"ce4bh3p2rcd13ifvqdq0","pricing_plan_id":"cebpf4jnsgd1na2vs0mg"},{"bike_id":"8654a797-522d-48db-9c8f-3e52a37eb0a7","system_id":"levelo_inurba_marseille","lat":43.24666,"lon":5.38159,"is_reserved":false,"is_disabled":false,"rental_uris":{"android":"levelo://app?vid=8654a797-522d-48db-9c8f-3e52a37eb0a7","ios":"levelo://app?vid=8654a797-522d-48db-9c8f-3e52a37eb0a7"},"vehicle_type_id":"4","last_reported":1748293709,"current_range_meters":8000,"station_id":"","pricing_plan_id":"cebpf4jnsgd1na2vs0mg"},{"bike_id":"f8df2e97-c68d-41bd-945a-99495cf612d7","system_id":"levelo_inurba_marseille","lat":43.231913,"lon":5.399831,"is_reserved":false,"is_disabled":false,"rental_uris":{"android":"levelo://app?vid=f8df2e97-c68d-41bd-945a-99495cf612d7","ios":"levelo://app?vid=f8df2e97-c68d-41bd-945a-99495cf612d7"},"vehicle_type_id":"4","last_reported":1748293709,"current_range_meters":8000,"station_id":"ce4bhn12rcd13ifvqgqg","pricing_plan_id":"cebpf4jnsgd1na2vs0mg"},{"bike_id":"02df8f1c-f2fa-44e6-b542-2b07f6d8c528","system_id":"levelo_inurba_marseille","lat":43.28081,"lon":5.39647,"is_reserved":false,"is_disabled":false,"rental_uris":{"android":"levelo://app?vid=02df8f1c-f2fa-44e6-b542-2b07f6d8c528","ios":"levelo://app?vid=02df8f1c-f2fa-44e6-b542-2b07f6d8c528"},"vehicle_type_id":"4","last_reported":1748293709,"current_range_meters":8000,"station_id":"ce4bho12rcd13ifvqh2g","pricing_plan_id":"cebpf4jnsgd1na2vs0mg"},{"bike_id":"d328b393-4635-4ce9-afd2-e36f2a11611e","system_id":"levelo_inurba_marseille","lat":43.26023,"lon":5.41745,"is_reserved":false,"is_disabled":false,"rental_uris":{"android":"levelo://app?vid=d328b393-4635-4ce9-afd2-e36f2a11611e","ios":"levelo://app?vid=d328b393-4635-4ce9-afd2-e36f2a11611e"},"vehicle_type_id":"4","last_reported":1748293709,"current_range_meters":8000,"station_id":"","pricing_plan_id":"cebpf4jnsgd1na2vs0mg"},{"bike_id":"fc56555b-396d-4667-b896-0ad86036e39e","system_id":"levelo_inurba_marseille","lat":43.25916,"lon":5.38021,"is_reserved":false,"is_disabled":false,"rental_uris":{"android":"levelo://app?vid=fc56555b-396d-4667-b896-0ad86036e39e","ios":"levelo://app?vid=fc56555b-396d-4667-b896-0ad86036e39e"},"vehicle_type_id":"4","last_reported":1748293709,"current_range_meters":8400,"station_id":"","pricing_plan_id":"cebpf4jnsgd1na2vs0mg"},{"bike_id":"a4aef2b9-b7e8-4e2d-8340-592d28bc6c85","system_id":"levelo_inurba_marseille","lat":43.337654,"lon":5.37434,"is_reserved":false,"is_disabled":false,"rental_uris":{"android":"levelo://app?vid=a4aef2b9-b7e8-4e2d-8340-592d28bc6c85","ios":"levelo://app?vid=a4aef2b9-b7e8-4e2d-8340-592d28bc6c85"},"vehicle_type_id":"4","last_reported":1748293709,"current_range_meters":8400,"station_id":"","pricing_plan_id":"cebpf4jnsgd1na2vs0mg"},{"bike_id":"4ebdce9a-0564-427d-9216-e1bc0bfaf7c2","system_id":"levelo_inurba_marseille","lat":43.29003,"lon":5.35621,"is_reserved":false,"is_disabled":false,"rental_uris":{"android":"levelo://app?vid=4ebdce9a-0564-427d-9216-e1bc0bfaf7c2","ios":"levelo://app?vid=4ebdce9a-0564-427d-9216-e1bc0bfaf7c2"},"vehicle_type_id":"4","last_reported":1748293709,"current_range_meters":8400,"station_id":"ce4bhb92rcd13ifvqen0","pricing_plan_id":"cebpf4jnsgd1na2vs0mg"},{"bike_id":"efd698cb-2450-498f-9f0b-bfc662548e61","system_id":"levelo_inurba_marseille","lat":43.265647,"lon":5.403194,"is_reserved":false,"is_disabled":false,"rental_uris":{"android":"levelo://app?vid=efd698cb-2450-498f-9f0b-bfc662548e61","ios":"levelo://app?vid=efd698cb-2450-498f-9f0b-bfc662548e61"},"vehicle_type_id":"4","last_reported":1748293709,"current_range_meters":8400,"station_id":"","pricing_plan_id":"cebpf4jnsgd1na2vs0mg"},{"bike_id":"ed9f862b-b077-46c5-b196-9b4679e1c225","system_id":"levelo_inurba_marseille","lat":43.2621,"lon":5.40433,"is_reserved":false,"is_disabled":false,"rental_uris":{"android":"levelo://app?vid=ed9f862b-b077-46c5-b196-9b4679e1c225","ios":"levelo://app?vid=ed9f862b-b077-46c5-b196-9b4679e1c225"},"vehicle_type_id":"4","last_reported":1748293709,"current_range_meters":8400,"station_id":"ce4bhmh2rcd13ifvqgmg","pricing_plan_id":"cebpf4jnsgd1na2vs0mg"},{"bike_id":"5f5e027c-a26c-49f4-a3e3-4811bc7be17a","system_id":"levelo_inurba_marseille","lat":43.29195,"lon":5.39318,"is_reserved":false,"is_disabled":false,"rental_uris":{"android":"levelo://app?vid=5f5e027c-a26c-49f4-a3e3-4811bc7be17a","ios":"levelo://app?vid=5f5e027c-a26c-49f4-a3e3-4811bc7be17a"},"vehicle_type_id":"4","last_reported":1748293709,"current_range_meters":8400,"station_id":"ce4bh192rcd13ifvqdd0","pricing_plan_id":"cebpf4jnsgd1na2vs0mg"},{"bike_id":"9db12a7c-f305-4021-ace1-ab46a8630b4c","system_id":"levelo_inurba_marseille","lat":43.24671,"lon":5.3815,"is_reserved":false,"is_disabled":false,"rental_uris":{"android":"levelo://app?vid=9db12a7c-f305-4021-ace1-ab46a8630b4c","ios":"levelo://app?vid=9db12a7c-f305-4021-ace1-ab46a8630b4c"},"vehicle_type_id":"4","last_reported":1748293709,"current_range_meters":8400,"station_id":"ce4bhih2rcd13ifvqfr0","pricing_plan_id":"cebpf4jnsgd1na2vs0mg"},{"bike_id":"e52103db-e07c-4da0-b844-47011b170676","system_id":"levelo_inurba_marseille","lat":43.22509,"lon":5.34772,"is_reserved":false,"is_disabled":false,"rental_uris":{"android":"levelo://app?vid=e52103db-e07c-4da0-b844-47011b170676","ios":"levelo://app?vid=e52103db-e07c-4da0-b844-47011b170676"},"vehicle_type_id":"4","last_reported":1748293709,"current_range_meters":8800,"station_id":"st_cvj5dfep6f1abm77gieg","pricing_plan_id":"cebpf4jnsgd1na2vs0mg"},{"bike_id":"3fad9f6c-d63e-429a-a4d4-9ca3ebe16f8b","system_id":"levelo_inurba_marseille","lat":43.28,"lon":5.40038,"is_reserved":false,"is_disabled":false,"rental_uris":{"android":"levelo://app?vid=3fad9f6c-d63e-429a-a4d4-9ca3ebe16f8b","ios":"levelo://app?vid=3fad9f6c-d63e-429a-a4d4-9ca3ebe16f8b"},"vehicle_type_id":"4","last_reported":1748293709,"current_range_meters":8800,"station_id":"ce4bho92rcd13ifvqh4g","pricing_plan_id":"cebpf4jnsgd1na2vs0mg"},{"bike_id":"f64ba4f8-d209-4eb7-9888-c25c1b50b4e6","system_id":"levelo_inurba_marseille","lat":43.31994,"lon":5.38163,"is_reserved":false,"is_disabled":false,"rental_uris":{"android":"levelo://app?vid=f64ba4f8-d209-4eb7-9888-c25c1b50b4e6","ios":"levelo://app?vid=f64ba4f8-d209-4eb7-9888-c25c1b50b4e6"},"vehicle_type_id":"4","last_reported":1748293709,"current_range_meters":8800,"station_id":"ce4bhr12rcd13ifvqhpg","pricing_plan_id":"cebpf4jnsgd1na2vs0mg"},{"bike_id":"a3fdfab4-cb8b-4639-a8f9-ac99f398c758","system_id":"levelo_inurba_marseille","lat":43.24191,"lon":5.36386,"is_reserved":false,"is_disabled":false,"rental_uris":{"android":"levelo://app?vid=a3fdfab4-cb8b-4639-a8f9-ac99f398c758","ios":"levelo://app?vid=a3fdfab4-cb8b-4639-a8f9-ac99f398c758"},"vehicle_type_id":"4","last_reported":1748293709,"current_range_meters":8800,"station_id":"cpo36qri1sfpv3e86is0","pricing_plan_id":"cebpf4jnsgd1na2vs0mg"},{"bike_id":"b744080c-dd77-486d-9609-00c9cf60c1ad","system_id":"levelo_inurba_marseille","lat":43.236169,"lon":5.391958,"is_reserved":false,"is_disabled":false,"rental_uris":{"android":"levelo://app?vid=b744080c-dd77-486d-9609-00c9cf60c1ad","ios":"levelo://app?vid=b744080c-dd77-486d-9609-00c9cf60c1ad"},"vehicle_type_id":"4","last_reported":1748293709,"current_range_meters":8800,"station_id":"","pricing_plan_id":"cebpf4jnsgd1na2vs0mg"},{"bike_id":"72e6779c-79e7-479d-9021-2fee0b63bd5d","system_id":"levelo_inurba_marseille","lat":43.27071,"lon":5.4228,"is_reserved":false,"is_disabled":false,"rental_uris":{"android":"levelo://app?vid=72e6779c-79e7-479d-9021-2fee0b63bd5d","ios":"levelo://app?vid=72e6779c-79e7-479d-9021-2fee0b63bd5d"},"vehicle_type_id":"4","last_reported":1748293709,"current_range_meters":8800,"station_id":"ce4bhk92rcd13ifvqgb0","pricing_plan_id":"cebpf4jnsgd1na2vs0mg"},{"bike_id":"1a6e4e05-7a6a-4686-ae6b-097c58d17936","system_id":"levelo_inurba_marseille","lat":43.30934,"lon":5.40143,"is_reserved":false,"is_disabled":false,"rental_uris":{"android":"levelo://app?vid=1a6e4e05-7a6a-4686-ae6b-097c58d17936","ios":"levelo://app?vid=1a6e4e05-7a6a-4686-ae6b-097c58d17936"},"vehicle_type_id":"4","last_reported":1748293709,"current_range_meters":9200,"station_id":"ce4bgvp2rcd13ifvqct0","pricing_plan_id":"cebpf4jnsgd1na2vs0mg"},{"bike_id":"91cc217a-3902-419f-93cf-f9b126273fe0","system_id":"levelo_inurba_marseille","lat":43.27175,"lon":5.41,"is_reserved":false,"is_disabled":false,"rental_uris":{"android":"levelo://app?vid=91cc217a-3902-419f-93cf-f9b126273fe0","ios":"levelo://app?vid=91cc217a-3902-419f-93cf-f9b126273fe0"},"vehicle_type_id":"4","last_reported":1748293709,"current_range_meters":9200,"station_id":"ce4bhl12rcd13ifvqgf0","pricing_plan_id":"cebpf4jnsgd1na2vs0mg"},{"bike_id":"6a4612f8-d511-472f-9784-e69bac545256","system_id":"levelo_inurba_marseille","lat":43.29021,"lon":5.36626,"is_reserved":false,"is_disabled":false,"rental_uris":{"android":"levelo://app?vid=6a4612f8-d511-472f-9784-e69bac545256","ios":"levelo://app?vid=6a4612f8-d511-472f-9784-e69bac545256"},"vehicle_type_id":"4","last_reported":1748293709,"current_range_meters":9200,"station_id":"","pricing_plan_id":"cebpf4jnsgd1na2vs0mg"},{"bike_id":"09d1af84-ef68-42e9-8bc6-37c7dbff50f3","system_id":"levelo_inurba_marseille","lat":43.30143,"lon":5.39915,"is_reserved":false,"is_disabled":true,"rental_uris":{"android":"levelo://app?vid=09d1af84-ef68-42e9-8bc6-37c7dbff50f3","ios":"levelo://app?vid=09d1af84-ef68-42e9-8bc6-37c7dbff50f3"},"vehicle_type_id":"4","last_reported":1748293709,"current_range_meters":9200,"station_id":"ce4bh0h2rcd13ifvqd40","pricing_plan_id":"cebpf4jnsgd1na2vs0mg"},{"bike_id":"74f6cd78-c7ef-442d-82a5-3d9d961c693a","system_id":"levelo_inurba_marseille","lat":43.30411,"lon":5.4129,"is_reserved":false,"is_disabled":false,"rental_uris":{"android":"levelo://app?vid=74f6cd78-c7ef-442d-82a5-3d9d961c693a","ios":"levelo://app?vid=74f6cd78-c7ef-442d-82a5-3d9d961c693a"},"vehicle_type_id":"4","last_reported":1748293709,"current_range_meters":9600,"station_id":"ce4bhop2rcd13ifvqh8g","pricing_plan_id":"cebpf4jnsgd1na2vs0mg"},{"bike_id":"0b6ab5c2-0f7b-497e-ac66-1edd5d97ee62","system_id":"levelo_inurba_marseille","lat":43.32673,"lon":5.40975,"is_reserved":false,"is_disabled":false,"rental_uris":{"android":"levelo://app?vid=0b6ab5c2-0f7b-497e-ac66-1edd5d97ee62","ios":"levelo://app?vid=0b6ab5c2-0f7b-497e-ac66-1edd5d97ee62"},"vehicle_type_id":"4","last_reported":1748293709,"current_range_meters":9600,"station_id":"ce4bhpp2rcd13ifvqhgg","pricing_plan_id":"cebpf4jnsgd1na2vs0mg"},{"bike_id":"a1903ba7-a82a-45c3-85e6-5068800a0651","system_id":"levelo_inurba_marseille","lat":43.217518,"lon":5.34601,"is_reserved":false,"is_disabled":false,"rental_uris":{"android":"levelo://app?vid=a1903ba7-a82a-45c3-85e6-5068800a0651","ios":"levelo://app?vid=a1903ba7-a82a-45c3-85e6-5068800a0651"},"vehicle_type_id":"4","last_reported":1748293709,"current_range_meters":9600,"station_id":"","pricing_plan_id":"cebpf4jnsgd1na2vs0mg"},{"bike_id":"292c8764-438e-418e-bc65-c0d649e1fc36","system_id":"levelo_inurba_marseille","lat":43.302541,"lon":5.400737,"is_reserved":false,"is_disabled":false,"rental_uris":{"android":"levelo://app?vid=292c8764-438e-418e-bc65-c0d649e1fc36","ios":"levelo://app?vid=292c8764-438e-418e-bc65-c0d649e1fc36"},"vehicle_type_id":"4","last_reported":1748293709,"current_range_meters":9600,"station_id":"ce4bgvh2rcd13ifvqcs0","pricing_plan_id":"cebpf4jnsgd1na2vs0mg"},{"bike_id":"761918e0-d6a0-4f40-96ce-babda69bc7f4","system_id":"levelo_inurba_marseille","lat":43.22938,"lon":5.353764,"is_reserved":false,"is_disabled":false,"rental_uris":{"android":"levelo://app?vid=761918e0-d6a0-4f40-96ce-babda69bc7f4","ios":"levelo://app?vid=761918e0-d6a0-4f40-96ce-babda69bc7f4"},"vehicle_type_id":"4","last_reported":1748293709,"current_range_meters":9600,"station_id":"cpo3532slgdg3j2ikp40","pricing_plan_id":"cebpf4jnsgd1na2vs0mg"},{"bike_id":"c7bce581-7626-465a-a6b0-210acb57b709","system_id":"levelo_inurba_marseille","lat":43.2811,"lon":5.37852,"is_reserved":false,"is_disabled":false,"rental_uris":{"android":"levelo://app?vid=c7bce581-7626-465a-a6b0-210acb57b709","ios":"levelo://app?vid=c7bce581-7626-465a-a6b0-210acb57b709"},"vehicle_type_id":"4","last_reported":1748293709,"current_range_meters":9600,"station_id":"ce4bha12rcd13ifvqee0","pricing_plan_id":"cebpf4jnsgd1na2vs0mg"},{"bike_id":"0637e7de-fe32-43da-994f-b3deee546b08","system_id":"levelo_inurba_marseille","lat":43.2656,"lon":5.37286,"is_reserved":false,"is_disabled":false,"rental_uris":{"android":"levelo://app?vid=0637e7de-fe32-43da-994f-b3deee546b08","ios":"levelo://app?vid=0637e7de-fe32-43da-994f-b3deee546b08"},"vehicle_type_id":"4","last_reported":1748293709,"current_range_meters":9600,"station_id":"ce4bhg12rcd13ifvqf70","pricing_plan_id":"cebpf4jnsgd1na2vs0mg"},{"bike_id":"22713c7e-979e-4e3e-bf98-87b0a620c5d3","system_id":"levelo_inurba_marseille","lat":43.23956,"lon":5.36645,"is_reserved":false,"is_disabled":false,"rental_uris":{"android":"levelo://app?vid=22713c7e-979e-4e3e-bf98-87b0a620c5d3","ios":"levelo://app?vid=22713c7e-979e-4e3e-bf98-87b0a620c5d3"},"vehicle_type_id":"4","last_reported":1748293709,"current_range_meters":10000,"station_id":"ce4bhi12rcd13ifvqfp0","pricing_plan_id":"cebpf4jnsgd1na2vs0mg"},{"bike_id":"5a562623-25b9-44aa-aa38-d7ed2ef750cc","system_id":"levelo_inurba_marseille","lat":43.269405,"lon":5.40257,"is_reserved":false,"is_disabled":false,"rental_uris":{"android":"levelo://app?vid=5a562623-25b9-44aa-aa38-d7ed2ef750cc","ios":"levelo://app?vid=5a562623-25b9-44aa-aa38-d7ed2ef750cc"},"vehicle_type_id":"4","last_reported":1748293709,"current_range_meters":10000,"station_id":"cjm6bp8fraef2m0cb0m0","pricing_plan_id":"cebpf4jnsgd1na2vs0mg"},{"bike_id":"5301b096-39d2-425b-bb7e-36c7c23c407b","system_id":"levelo_inurba_marseille","lat":43.30653,"lon":5.40083,"is_reserved":false,"is_disabled":false,"rental_uris":{"android":"levelo://app?vid=5301b096-39d2-425b-bb7e-36c7c23c407b","ios":"levelo://app?vid=5301b096-39d2-425b-bb7e-36c7c23c407b"},"vehicle_type_id":"4","last_reported":1748293709,"current_range_meters":10000,"station_id":"ce4bh112rcd13ifvqda0","pricing_plan_id":"cebpf4jnsgd1na2vs0mg"},{"bike_id":"0ed47661-9f65-43af-a2ec-bf204a69b6f9","system_id":"levelo_inurba_marseille","lat":43.30732,"lon":5.4244,"is_reserved":false,"is_disabled":false,"rental_uris":{"android":"levelo://app?vid=0ed47661-9f65-43af-a2ec-bf204a69b6f9","ios":"levelo://app?vid=0ed47661-9f65-43af-a2ec-bf204a69b6f9"},"vehicle_type_id":"4","last_reported":1748293709,"current_range_meters":10000,"station_id":"st_cvj6ca6bvosntc0bfgr0","pricing_plan_id":"cebpf4jnsgd1na2vs0mg"},{"bike_id":"bc5719dd-b048-4b59-87d0-2879037b9b7a","system_id":"levelo_inurba_marseille","lat":43.31069,"lon":5.3835,"is_reserved":false,"is_disabled":false,"rental_uris":{"android":"levelo://app?vid=bc5719dd-b048-4b59-87d0-2879037b9b7a","ios":"levelo://app?vid=bc5719dd-b048-4b59-87d0-2879037b9b7a"},"vehicle_type_id":"4","last_reported":1748293709,"current_range_meters":10000,"station_id":"ce4bgv92rcd13ifvqcr0","pricing_plan_id":"cebpf4jnsgd1na2vs0mg"},{"bike_id":"ba44d9a5-bdbf-4f7c-b382-743c6962bf74","system_id":"levelo_inurba_marseille","lat":43.28727,"lon":5.37954,"is_reserved":false,"is_disabled":false,"rental_uris":{"android":"levelo://app?vid=ba44d9a5-bdbf-4f7c-b382-743c6962bf74","ios":"levelo://app?vid=ba44d9a5-bdbf-4f7c-b382-743c6962bf74"},"vehicle_type_id":"4","last_reported":1748293709,"current_range_meters":10000,"station_id":"ce4bh9p2rcd13ifvqec0","pricing_plan_id":"cebpf4jnsgd1na2vs0mg"},{"bike_id":"4661e59f-4017-457b-8d40-084f59302350","system_id":"levelo_inurba_marseille","lat":43.23194,"lon":5.39985,"is_reserved":false,"is_disabled":false,"rental_uris":{"android":"levelo://app?vid=4661e59f-4017-457b-8d40-084f59302350","ios":"levelo://app?vid=4661e59f-4017-457b-8d40-084f59302350"},"vehicle_type_id":"4","last_reported":1748293709,"current_range_meters":10000,"station_id":"ce4bhn12rcd13ifvqgqg","pricing_plan_id":"cebpf4jnsgd1na2vs0mg"},{"bike_id":"1d3cf82b-b1bb-4ea7-8517-bccd7ba91fe3","system_id":"levelo_inurba_marseille","lat":43.30925,"lon":5.40139,"is_reserved":false,"is_disabled":true,"rental_uris":{"android":"levelo://app?vid=1d3cf82b-b1bb-4ea7-8517-bccd7ba91fe3","ios":"levelo://app?vid=1d3cf82b-b1bb-4ea7-8517-bccd7ba91fe3"},"vehicle_type_id":"4","last_reported":1748293709,"current_range_meters":10000,"station_id":"ce4bgvp2rcd13ifvqct0","pricing_plan_id":"cebpf4jnsgd1na2vs0mg"},{"bike_id":"4f15081e-470d-4863-88eb-8430cad1f307","system_id":"levelo_inurba_marseille","lat":43.298694,"lon":5.39732,"is_reserved":false,"is_disabled":false,"rental_uris":{"android":"levelo://app?vid=4f15081e-470d-4863-88eb-8430cad1f307","ios":"levelo://app?vid=4f15081e-470d-4863-88eb-8430cad1f307"},"vehicle_type_id":"4","last_reported":1748293709,"current_range_meters":9600,"station_id":"ce4bh0h2rcd13ifvqd50","pricing_plan_id":"cebpf4jnsgd1na2vs0mg"},{"bike_id":"53ce42c0-70d0-4af5-b703-0a39f9326d46","system_id":"levelo_inurba_marseille","lat":43.2987,"lon":5.39731,"is_reserved":false,"is_disabled":false,"rental_uris":{"android":"levelo://app?vid=53ce42c0-70d0-4af5-b703-0a39f9326d46","ios":"levelo://app?vid=53ce42c0-70d0-4af5-b703-0a39f9326d46"},"vehicle_type_id":"4","last_reported":1748293709,"current_range_meters":10000,"station_id":"ce4bh0h2rcd13ifvqd50","pricing_plan_id":"cebpf4jnsgd1na2vs0mg"},{"bike_id":"4042da59-7d82-4522-86cc-21d10098fd68","system_id":"levelo_inurba_marseille","lat":43.29025,"lon":5.38653,"is_reserved":false,"is_disabled":false,"rental_uris":{"android":"levelo://app?vid=4042da59-7d82-4522-86cc-21d10098fd68","ios":"levelo://app?vid=4042da59-7d82-4522-86cc-21d10098fd68"},"vehicle_type_id":"4","last_reported":1748293709,"current_range_meters":12400,"station_id":"ce4bh4p2rcd13ifvqe0g","pricing_plan_id":"cebpf4jnsgd1na2vs0mg"},{"bike_id":"d0a1ee92-a4a3-47ad-9649-34d2a17c8df2","system_id":"levelo_inurba_marseille","lat":43.30937,"lon":5.40141,"is_reserved":false,"is_disabled":false,"rental_uris":{"android":"levelo://app?vid=d0a1ee92-a4a3-47ad-9649-34d2a17c8df2","ios":"levelo://app?vid=d0a1ee92-a4a3-47ad-9649-34d2a17c8df2"},"vehicle_type_id":"4","last_reported":1748293709,"current_range_meters":10000,"station_id":"ce4bgvp2rcd13ifvqct0","pricing_plan_id":"cebpf4jnsgd1na2vs0mg"},{"bike_id":"7f57d7fe-8053-400c-82cb-d37fba925f89","system_id":"levelo_inurba_marseille","lat":43.25828,"lon":5.39442,"is_reserved":false,"is_disabled":false,"rental_uris":{"android":"levelo://app?vid=7f57d7fe-8053-400c-82cb-d37fba925f89","ios":"levelo://app?vid=7f57d7fe-8053-400c-82cb-d37fba925f89"},"vehicle_type_id":"4","last_reported":1748293709,"current_range_meters":9600,"station_id":"ce4bhip2rcd13ifvqft0","pricing_plan_id":"cebpf4jnsgd1na2vs0mg"},{"bike_id":"628508a1-7147-4606-91f3-4d85e7870b3b","system_id":"levelo_inurba_marseille","lat":43.29786,"lon":5.39341,"is_reserved":false,"is_disabled":false,"rental_uris":{"android":"levelo://app?vid=628508a1-7147-4606-91f3-4d85e7870b3b","ios":"levelo://app?vid=628508a1-7147-4606-91f3-4d85e7870b3b"},"vehicle_type_id":"4","last_reported":1748293709,"current_range_meters":10800,"station_id":"chh1huq6cuj3fo74tm60","pricing_plan_id":"cebpf4jnsgd1na2vs0mg"},{"bike_id":"32b62faf-807d-47e6-a398-5b5d66018cf0","system_id":"levelo_inurba_marseille","lat":43.27443,"lon":5.39406,"is_reserved":false,"is_disabled":false,"rental_uris":{"android":"levelo://app?vid=32b62faf-807d-47e6-a398-5b5d66018cf0","ios":"levelo://app?vid=32b62faf-807d-47e6-a398-5b5d66018cf0"},"vehicle_type_id":"4","last_reported":1748293709,"current_range_meters":10800,"station_id":"ce4bhdp2rcd13ifvqf20","pricing_plan_id":"cebpf4jnsgd1na2vs0mg"},{"bike_id":"e4664dbd-41ab-4c82-89d7-da46376c622e","system_id":"levelo_inurba_marseille","lat":43.3097,"lon":5.4014,"is_reserved":false,"is_disabled":false,"rental_uris":{"android":"levelo://app?vid=e4664dbd-41ab-4c82-89d7-da46376c622e","ios":"levelo://app?vid=e4664dbd-41ab-4c82-89d7-da46376c622e"},"vehicle_type_id":"4","last_reported":1748293709,"current_range_meters":10800,"station_id":"ce4bgvp2rcd13ifvqct0","pricing_plan_id":"cebpf4jnsgd1na2vs0mg"},{"bike_id":"ed98a655-9096-4e4c-a062-cebf79c9c208","system_id":"levelo_inurba_marseille","lat":43.2842,"lon":5.37521,"is_reserved":false,"is_disabled":false,"rental_uris":{"android":"levelo://app?vid=ed98a655-9096-4e4c-a062-cebf79c9c208","ios":"levelo://app?vid=ed98a655-9096-4e4c-a062-cebf79c9c208"},"vehicle_type_id":"4","last_reported":1748293709,"current_range_meters":10800,"station_id":"ce4bh412rcd13ifvqds0","pricing_plan_id":"cebpf4jnsgd1na2vs0mg"},{"bike_id":"cdb19c14-c8ce-4f63-9936-014180264204","system_id":"levelo_inurba_marseille","lat":43.296,"lon":5.3811,"is_reserved":false,"is_disabled":false,"rental_uris":{"android":"levelo://app?vid=cdb19c14-c8ce-4f63-9936-014180264204","ios":"levelo://app?vid=cdb19c14-c8ce-4f63-9936-014180264204"},"vehicle_type_id":"4","last_reported":1748293709,"current_range_meters":10000,"station_id":"ce4bgl12rcd13ifvqbo0","pricing_plan_id":"cebpf4jnsgd1na2vs0mg"},{"bike_id":"1bb30731-d226-448d-aeb2-9d0607a380f9","system_id":"levelo_inurba_marseille","lat":43.25524,"lon":5.37689,"is_reserved":false,"is_disabled":true,"rental_uris":{"android":"levelo://app?vid=1bb30731-d226-448d-aeb2-9d0607a380f9","ios":"levelo://app?vid=1bb30731-d226-448d-aeb2-9d0607a380f9"},"vehicle_type_id":"4","last_reported":1748293709,"current_range_meters":10800,"station_id":"ce4bhh12rcd13ifvqff0","pricing_plan_id":"cebpf4jnsgd1na2vs0mg"},{"bike_id":"105849da-5a2f-4eda-9c36-1906963bc3d4","system_id":"levelo_inurba_marseille","lat":43.26548,"lon":5.40318,"is_reserved":false,"is_disabled":false,"rental_uris":{"android":"levelo://app?vid=105849da-5a2f-4eda-9c36-1906963bc3d4","ios":"levelo://app?vid=105849da-5a2f-4eda-9c36-1906963bc3d4"},"vehicle_type_id":"4","last_reported":1748293709,"current_range_meters":10800,"station_id":"","pricing_plan_id":"cebpf4jnsgd1na2vs0mg"},{"bike_id":"99b469f2-c364-4159-9d35-9a1121c1578f","system_id":"levelo_inurba_marseille","lat":43.315633,"lon":5.383503,"is_reserved":false,"is_disabled":false,"rental_uris":{"android":"levelo://app?vid=99b469f2-c364-4159-9d35-9a1121c1578f","ios":"levelo://app?vid=99b469f2-c364-4159-9d35-9a1121c1578f"},"vehicle_type_id":"4","last_reported":1748293709,"current_range_meters":10800,"station_id":"","pricing_plan_id":"cebpf4jnsgd1na2vs0mg"},{"bike_id":"b45a36a2-4ffd-4ba2-a87d-596641c91d62","system_id":"levelo_inurba_marseille","lat":43.28023,"lon":5.39969,"is_reserved":false,"is_disabled":false,"rental_uris":{"android":"levelo://app?vid=b45a36a2-4ffd-4ba2-a87d-596641c91d62","ios":"levelo://app?vid=b45a36a2-4ffd-4ba2-a87d-596641c91d62"},"vehicle_type_id":"4","last_reported":1748293709,"current_range_meters":10800,"station_id":"ce4bho92rcd13ifvqh4g","pricing_plan_id":"cebpf4jnsgd1na2vs0mg"},{"bike_id":"93892bad-5609-48c9-847c-1cd9bf3a21f5","system_id":"levelo_inurba_marseille","lat":43.27559,"lon":5.384233,"is_reserved":false,"is_disabled":false,"rental_uris":{"android":"levelo://app?vid=93892bad-5609-48c9-847c-1cd9bf3a21f5","ios":"levelo://app?vid=93892bad-5609-48c9-847c-1cd9bf3a21f5"},"vehicle_type_id":"4","last_reported":1748293709,"current_range_meters":10800,"station_id":"ce4bhh92rcd13ifvqfi0","pricing_plan_id":"cebpf4jnsgd1na2vs0mg"},{"bike_id":"904dfeec-71bc-4fd0-943a-b83fab6a4246","system_id":"levelo_inurba_marseille","lat":43.25498,"lon":5.3763,"is_reserved":false,"is_disabled":false,"rental_uris":{"android":"levelo://app?vid=904dfeec-71bc-4fd0-943a-b83fab6a4246","ios":"levelo://app?vid=904dfeec-71bc-4fd0-943a-b83fab6a4246"},"vehicle_type_id":"4","last_reported":1748293709,"current_range_meters":10800,"station_id":"ce4bhh12rcd13ifvqff0","pricing_plan_id":"cebpf4jnsgd1na2vs0mg"},{"bike_id":"1a0998e5-8bb9-474f-a827-53cad24c9e8f","system_id":"levelo_inurba_marseille","lat":43.32057,"lon":5.44948,"is_reserved":false,"is_disabled":false,"rental_uris":{"android":"levelo://app?vid=1a0998e5-8bb9-474f-a827-53cad24c9e8f","ios":"levelo://app?vid=1a0998e5-8bb9-474f-a827-53cad24c9e8f"},"vehicle_type_id":"4","last_reported":1748293709,"current_range_meters":11200,"station_id":"","pricing_plan_id":"cebpf4jnsgd1na2vs0mg"},{"bike_id":"8a45606e-2096-4a22-88d7-26c191e9986d","system_id":"levelo_inurba_marseille","lat":43.33045,"lon":5.39029,"is_reserved":false,"is_disabled":false,"rental_uris":{"android":"levelo://app?vid=8a45606e-2096-4a22-88d7-26c191e9986d","ios":"levelo://app?vid=8a45606e-2096-4a22-88d7-26c191e9986d"},"vehicle_type_id":"4","last_reported":1748293709,"current_range_meters":11200,"station_id":"ce4bhr92rcd13ifvqhrg","pricing_plan_id":"cebpf4jnsgd1na2vs0mg"},{"bike_id":"ae6e6868-2635-4f49-b7c1-b03759c58ec7","system_id":"levelo_inurba_marseille","lat":43.2728,"lon":5.4159,"is_reserved":false,"is_disabled":false,"rental_uris":{"android":"levelo://app?vid=ae6e6868-2635-4f49-b7c1-b03759c58ec7","ios":"levelo://app?vid=ae6e6868-2635-4f49-b7c1-b03759c58ec7"},"vehicle_type_id":"4","last_reported":1748293709,"current_range_meters":11200,"station_id":"","pricing_plan_id":"cebpf4jnsgd1na2vs0mg"},{"bike_id":"1c6a9156-a9c5-4cb1-aa63-c10c60fc3f73","system_id":"levelo_inurba_marseille","lat":43.254969,"lon":5.37649,"is_reserved":false,"is_disabled":false,"rental_uris":{"android":"levelo://app?vid=1c6a9156-a9c5-4cb1-aa63-c10c60fc3f73","ios":"levelo://app?vid=1c6a9156-a9c5-4cb1-aa63-c10c60fc3f73"},"vehicle_type_id":"4","last_reported":1748293709,"current_range_meters":11200,"station_id":"","pricing_plan_id":"cebpf4jnsgd1na2vs0mg"},{"bike_id":"5f3cb704-419b-4cc2-87d6-50852ec3fe2c","system_id":"levelo_inurba_marseille","lat":43.30105,"lon":5.39076,"is_reserved":false,"is_disabled":false,"rental_uris":{"android":"levelo://app?vid=5f3cb704-419b-4cc2-87d6-50852ec3fe2c","ios":"levelo://app?vid=5f3cb704-419b-4cc2-87d6-50852ec3fe2c"},"vehicle_type_id":"4","last_reported":1748293709,"current_range_meters":11200,"station_id":"ce4bh192rcd13ifvqdb0","pricing_plan_id":"cebpf4jnsgd1na2vs0mg"},{"bike_id":"a9b15d33-25b0-442b-a0b2-b5225837bf7a","system_id":"levelo_inurba_marseille","lat":43.30428,"lon":5.39748,"is_reserved":false,"is_disabled":false,"rental_uris":{"android":"levelo://app?vid=a9b15d33-25b0-442b-a0b2-b5225837bf7a","ios":"levelo://app?vid=a9b15d33-25b0-442b-a0b2-b5225837bf7a"},"vehicle_type_id":"4","last_reported":1748293709,"current_range_meters":11200,"station_id":"ce4bh092rcd13ifvqd20","pricing_plan_id":"cebpf4jnsgd1na2vs0mg"},{"bike_id":"436aa47f-dc3b-4407-ae18-b3ee4270e49c","system_id":"levelo_inurba_marseille","lat":43.25869,"lon":5.39893,"is_reserved":false,"is_disabled":false,"rental_uris":{"android":"levelo://app?vid=436aa47f-dc3b-4407-ae18-b3ee4270e49c","ios":"levelo://app?vid=436aa47f-dc3b-4407-ae18-b3ee4270e49c"},"vehicle_type_id":"4","last_reported":1748293709,"current_range_meters":10800,"station_id":"ce4bhl92rcd13ifvqghg","pricing_plan_id":"cebpf4jnsgd1na2vs0mg"},{"bike_id":"af02aa73-68b2-498b-ad6a-9a50456db18d","system_id":"levelo_inurba_marseille","lat":43.29567,"lon":5.37871,"is_reserved":false,"is_disabled":false,"rental_uris":{"android":"levelo://app?vid=af02aa73-68b2-498b-ad6a-9a50456db18d","ios":"levelo://app?vid=af02aa73-68b2-498b-ad6a-9a50456db18d"},"vehicle_type_id":"4","last_reported":1748293709,"current_range_meters":11600,"station_id":"","pricing_plan_id":"cebpf4jnsgd1na2vs0mg"},{"bike_id":"61f1e136-5548-4263-90b5-c33c7081206a","system_id":"levelo_inurba_marseille","lat":43.31318,"lon":5.39697,"is_reserved":false,"is_disabled":false,"rental_uris":{"android":"levelo://app?vid=61f1e136-5548-4263-90b5-c33c7081206a","ios":"levelo://app?vid=61f1e136-5548-4263-90b5-c33c7081206a"},"vehicle_type_id":"4","last_reported":1748293709,"current_range_meters":11600,"station_id":"ce4bgvp2rcd13ifvqcu0","pricing_plan_id":"cebpf4jnsgd1na2vs0mg"},{"bike_id":"87050943-8d90-41f7-814f-9286c05d1b99","system_id":"levelo_inurba_marseille","lat":43.30787,"lon":5.37636,"is_reserved":false,"is_disabled":false,"rental_uris":{"android":"levelo://app?vid=87050943-8d90-41f7-814f-9286c05d1b99","ios":"levelo://app?vid=87050943-8d90-41f7-814f-9286c05d1b99"},"vehicle_type_id":"4","last_reported":1748293709,"current_range_meters":14400,"station_id":"ce4bgv92rcd13ifvqcq0","pricing_plan_id":"cebpf4jnsgd1na2vs0mg"},{"bike_id":"394c4f1f-6220-4dcc-811c-65e065bc95a2","system_id":"levelo_inurba_marseille","lat":43.27947,"lon":5.38694,"is_reserved":false,"is_disabled":false,"rental_uris":{"android":"levelo://app?vid=394c4f1f-6220-4dcc-811c-65e065bc95a2","ios":"levelo://app?vid=394c4f1f-6220-4dcc-811c-65e065bc95a2"},"vehicle_type_id":"4","last_reported":1748293709,"current_range_meters":11600,"station_id":"","pricing_plan_id":"cebpf4jnsgd1na2vs0mg"},{"bike_id":"4f2fbb61-0265-4279-a921-aad24150de58","system_id":"levelo_inurba_marseille","lat":43.2902,"lon":5.35631,"is_reserved":false,"is_disabled":true,"rental_uris":{"android":"levelo://app?vid=4f2fbb61-0265-4279-a921-aad24150de58","ios":"levelo://app?vid=4f2fbb61-0265-4279-a921-aad24150de58"},"vehicle_type_id":"4","last_reported":1748293709,"current_range_meters":11600,"station_id":"ce4bhb92rcd13ifvqen0","pricing_plan_id":"cebpf4jnsgd1na2vs0mg"},{"bike_id":"cc519638-179c-4e87-b002-76940024b6a5","system_id":"levelo_inurba_marseille","lat":43.29533,"lon":5.39025,"is_reserved":false,"is_disabled":false,"rental_uris":{"android":"levelo://app?vid=cc519638-179c-4e87-b002-76940024b6a5","ios":"levelo://app?vid=cc519638-179c-4e87-b002-76940024b6a5"},"vehicle_type_id":"4","last_reported":1748293709,"current_range_meters":11600,"station_id":"ce4bh3p2rcd13ifvqdp0","pricing_plan_id":"cebpf4jnsgd1na2vs0mg"},{"bike_id":"ff89b0f2-e4ab-4751-8a53-f4a0b7e787d3","system_id":"levelo_inurba_marseille","lat":43.31247,"lon":5.36915,"is_reserved":false,"is_disabled":false,"rental_uris":{"android":"levelo://app?vid=ff89b0f2-e4ab-4751-8a53-f4a0b7e787d3","ios":"levelo://app?vid=ff89b0f2-e4ab-4751-8a53-f4a0b7e787d3"},"vehicle_type_id":"4","last_reported":1748293709,"current_range_meters":11600,"station_id":"","pricing_plan_id":"cebpf4jnsgd1na2vs0mg"},{"bike_id":"2375035a-2cd5-4b4b-a46a-292605bb3c00","system_id":"levelo_inurba_marseille","lat":43.289829,"lon":5.378386,"is_reserved":false,"is_disabled":true,"rental_uris":{"android":"levelo://app?vid=2375035a-2cd5-4b4b-a46a-292605bb3c00","ios":"levelo://app?vid=2375035a-2cd5-4b4b-a46a-292605bb3c00"},"vehicle_type_id":"4","last_reported":1748293709,"current_range_meters":11600,"station_id":"ce4bh9p2rcd13ifvqed0","pricing_plan_id":"cebpf4jnsgd1na2vs0mg"},{"bike_id":"5c1f1456-df53-4e92-aa3b-04d202d2cfba","system_id":"levelo_inurba_marseille","lat":43.24678,"lon":5.38162,"is_reserved":false,"is_disabled":false,"rental_uris":{"android":"levelo://app?vid=5c1f1456-df53-4e92-aa3b-04d202d2cfba","ios":"levelo://app?vid=5c1f1456-df53-4e92-aa3b-04d202d2cfba"},"vehicle_type_id":"4","last_reported":1748293709,"current_range_meters":12000,"station_id":"ce4bhih2rcd13ifvqfr0","pricing_plan_id":"cebpf4jnsgd1na2vs0mg"},{"bike_id":"6e582a3c-195a-4d6b-9ec7-20d27808b5fa","system_id":"levelo_inurba_marseille","lat":43.31713,"lon":5.43697,"is_reserved":false,"is_disabled":false,"rental_uris":{"android":"levelo://app?vid=6e582a3c-195a-4d6b-9ec7-20d27808b5fa","ios":"levelo://app?vid=6e582a3c-195a-4d6b-9ec7-20d27808b5fa"},"vehicle_type_id":"4","last_reported":1748293709,"current_range_meters":12000,"station_id":"ce4bhp92rcd13ifvqhcg","pricing_plan_id":"cebpf4jnsgd1na2vs0mg"},{"bike_id":"b9bc9882-e2bf-4497-b295-937f6f9fc0f8","system_id":"levelo_inurba_marseille","lat":43.3176,"lon":5.39012,"is_reserved":false,"is_disabled":false,"rental_uris":{"android":"levelo://app?vid=b9bc9882-e2bf-4497-b295-937f6f9fc0f8","ios":"levelo://app?vid=b9bc9882-e2bf-4497-b295-937f6f9fc0f8"},"vehicle_type_id":"4","last_reported":1748293709,"current_range_meters":12000,"station_id":"ce4bhqp2rcd13ifvqhng","pricing_plan_id":"cebpf4jnsgd1na2vs0mg"},{"bike_id":"7576d53b-fe1e-45e9-9d31-f8d7a7fc0cb1","system_id":"levelo_inurba_marseille","lat":43.30933,"lon":5.40141,"is_reserved":false,"is_disabled":false,"rental_uris":{"android":"levelo://app?vid=7576d53b-fe1e-45e9-9d31-f8d7a7fc0cb1","ios":"levelo://app?vid=7576d53b-fe1e-45e9-9d31-f8d7a7fc0cb1"},"vehicle_type_id":"4","last_reported":1748293709,"current_range_meters":12400,"station_id":"ce4bgvp2rcd13ifvqct0","pricing_plan_id":"cebpf4jnsgd1na2vs0mg"},{"bike_id":"005b921c-a881-478a-9b2a-1d5ec799e28d","system_id":"levelo_inurba_marseille","lat":43.30339,"lon":5.40442,"is_reserved":false,"is_disabled":false,"rental_uris":{"android":"levelo://app?vid=005b921c-a881-478a-9b2a-1d5ec799e28d","ios":"levelo://app?vid=005b921c-a881-478a-9b2a-1d5ec799e28d"},"vehicle_type_id":"4","last_reported":1748293709,"current_range_meters":12400,"station_id":"ce4bh012rcd13ifvqd10","pricing_plan_id":"cebpf4jnsgd1na2vs0mg"},{"bike_id":"99590cba-d2da-47f1-b9b9-152598e481de","system_id":"levelo_inurba_marseille","lat":43.29774,"lon":5.37116,"is_reserved":false,"is_disabled":true,"rental_uris":{"android":"levelo://app?vid=99590cba-d2da-47f1-b9b9-152598e481de","ios":"levelo://app?vid=99590cba-d2da-47f1-b9b9-152598e481de"},"vehicle_type_id":"4","last_reported":1748293709,"current_range_meters":12400,"station_id":"ce4bgop2rcd13ifvqc1g","pricing_plan_id":"cebpf4jnsgd1na2vs0mg"},{"bike_id":"42468a61-16bf-4710-9b9b-05de4aa301eb","system_id":"levelo_inurba_marseille","lat":43.26808,"lon":5.4026,"is_reserved":false,"is_disabled":false,"rental_uris":{"android":"levelo://app?vid=42468a61-16bf-4710-9b9b-05de4aa301eb","ios":"levelo://app?vid=42468a61-16bf-4710-9b9b-05de4aa301eb"},"vehicle_type_id":"4","last_reported":1748293709,"current_range_meters":12400,"station_id":"ce501612rcd8frsf0b60","pricing_plan_id":"cebpf4jnsgd1na2vs0mg"},{"bike_id":"e03a0d5e-b227-420d-969f-f1f548321079","system_id":"levelo_inurba_marseille","lat":43.28925,"lon":5.36608,"is_reserved":false,"is_disabled":false,"rental_uris":{"android":"levelo://app?vid=e03a0d5e-b227-420d-969f-f1f548321079","ios":"levelo://app?vid=e03a0d5e-b227-420d-969f-f1f548321079"},"vehicle_type_id":"4","last_reported":1748293709,"current_range_meters":12400,"station_id":"ce4bhap2rcd13ifvqek0","pricing_plan_id":"cebpf4jnsgd1na2vs0mg"},{"bike_id":"91fa7000-24bd-4a2b-9c8b-278cf8b7cc00","system_id":"levelo_inurba_marseille","lat":43.31095,"lon":5.42427,"is_reserved":false,"is_disabled":false,"rental_uris":{"android":"levelo://app?vid=91fa7000-24bd-4a2b-9c8b-278cf8b7cc00","ios":"levelo://app?vid=91fa7000-24bd-4a2b-9c8b-278cf8b7cc00"},"vehicle_type_id":"4","last_reported":1748293709,"current_range_meters":12400,"station_id":"ce4bhp92rcd13ifvqhag","pricing_plan_id":"cebpf4jnsgd1na2vs0mg"},{"bike_id":"a1ad37e9-65f1-44b3-b04a-e507016277ae","system_id":"levelo_inurba_marseille","lat":43.30929,"lon":5.40149,"is_reserved":false,"is_disabled":false,"rental_uris":{"android":"levelo://app?vid=a1ad37e9-65f1-44b3-b04a-e507016277ae","ios":"levelo://app?vid=a1ad37e9-65f1-44b3-b04a-e507016277ae"},"vehicle_type_id":"4","last_reported":1748293709,"current_range_meters":12400,"station_id":"ce4bgvp2rcd13ifvqct0","pricing_plan_id":"cebpf4jnsgd1na2vs0mg"},{"bike_id":"06357a04-3c6d-4c3d-9e5e-c3887619bbf4","system_id":"levelo_inurba_marseille","lat":43.28414,"lon":5.37533,"is_reserved":false,"is_disabled":false,"rental_uris":{"android":"levelo://app?vid=06357a04-3c6d-4c3d-9e5e-c3887619bbf4","ios":"levelo://app?vid=06357a04-3c6d-4c3d-9e5e-c3887619bbf4"},"vehicle_type_id":"4","last_reported":1748293709,"current_range_meters":12400,"station_id":"ce4bh412rcd13ifvqds0","pricing_plan_id":"cebpf4jnsgd1na2vs0mg"},{"bike_id":"9dcb1188-dbc1-4dc5-b48e-910684d6bcdb","system_id":"levelo_inurba_marseille","lat":43.28456,"lon":5.35881,"is_reserved":false,"is_disabled":false,"rental_uris":{"android":"levelo://app?vid=9dcb1188-dbc1-4dc5-b48e-910684d6bcdb","ios":"levelo://app?vid=9dcb1188-dbc1-4dc5-b48e-910684d6bcdb"},"vehicle_type_id":"4","last_reported":1748293709,"current_range_meters":12400,"station_id":"ce4bhah2rcd13ifvqei0","pricing_plan_id":"cebpf4jnsgd1na2vs0mg"},{"bike_id":"8fcd5efc-6742-48af-bb84-6a1aadcc08c8","system_id":"levelo_inurba_marseille","lat":43.284585,"lon":5.35894,"is_reserved":false,"is_disabled":true,"rental_uris":{"android":"levelo://app?vid=8fcd5efc-6742-48af-bb84-6a1aadcc08c8","ios":"levelo://app?vid=8fcd5efc-6742-48af-bb84-6a1aadcc08c8"},"vehicle_type_id":"4","last_reported":1748293709,"current_range_meters":12800,"station_id":"ce4bhah2rcd13ifvqei0","pricing_plan_id":"cebpf4jnsgd1na2vs0mg"},{"bike_id":"7e48bd85-320e-46cb-8089-a189f59ef238","system_id":"levelo_inurba_marseille","lat":43.31182,"lon":5.38699,"is_reserved":false,"is_disabled":false,"rental_uris":{"android":"levelo://app?vid=7e48bd85-320e-46cb-8089-a189f59ef238","ios":"levelo://app?vid=7e48bd85-320e-46cb-8089-a189f59ef238"},"vehicle_type_id":"4","last_reported":1748293709,"current_range_meters":12800,"station_id":"ce4bgv12rcd13ifvqcp0","pricing_plan_id":"cebpf4jnsgd1na2vs0mg"},{"bike_id":"1a775a5e-1792-4706-b4f6-ec50ef749d53","system_id":"levelo_inurba_marseille","lat":43.255796,"lon":5.38223,"is_reserved":false,"is_disabled":false,"rental_uris":{"android":"levelo://app?vid=1a775a5e-1792-4706-b4f6-ec50ef749d53","ios":"levelo://app?vid=1a775a5e-1792-4706-b4f6-ec50ef749d53"},"vehicle_type_id":"4","last_reported":1748293709,"current_range_meters":12800,"station_id":"ce4bhih2rcd13ifvqfs0","pricing_plan_id":"cebpf4jnsgd1na2vs0mg"},{"bike_id":"10635929-632e-4cec-a18a-e7b0f091b703","system_id":"levelo_inurba_marseille","lat":43.23186,"lon":5.39991,"is_reserved":false,"is_disabled":false,"rental_uris":{"android":"levelo://app?vid=10635929-632e-4cec-a18a-e7b0f091b703","ios":"levelo://app?vid=10635929-632e-4cec-a18a-e7b0f091b703"},"vehicle_type_id":"4","last_reported":1748293709,"current_range_meters":12800,"station_id":"ce4bhn12rcd13ifvqgqg","pricing_plan_id":"cebpf4jnsgd1na2vs0mg"},{"bike_id":"fa73ce9d-be66-4dd0-9be0-64f2cfc911e4","system_id":"levelo_inurba_marseille","lat":43.28671,"lon":5.3867,"is_reserved":false,"is_disabled":false,"rental_uris":{"android":"levelo://app?vid=fa73ce9d-be66-4dd0-9be0-64f2cfc911e4","ios":"levelo://app?vid=fa73ce9d-be66-4dd0-9be0-64f2cfc911e4"},"vehicle_type_id":"4","last_reported":1748293709,"current_range_meters":12800,"station_id":"ce4bh492rcd13ifvqdug","pricing_plan_id":"cebpf4jnsgd1na2vs0mg"},{"bike_id":"69ec3275-3eb8-4bcd-bf7f-5f76df96d7f3","system_id":"levelo_inurba_marseille","lat":43.25583,"lon":5.38241,"is_reserved":false,"is_disabled":false,"rental_uris":{"android":"levelo://app?vid=69ec3275-3eb8-4bcd-bf7f-5f76df96d7f3","ios":"levelo://app?vid=69ec3275-3eb8-4bcd-bf7f-5f76df96d7f3"},"vehicle_type_id":"4","last_reported":1748293709,"current_range_meters":12800,"station_id":"ce4bhih2rcd13ifvqfs0","pricing_plan_id":"cebpf4jnsgd1na2vs0mg"},{"bike_id":"7e3fffbc-5a0f-4ece-b481-63e40e5aabfe","system_id":"levelo_inurba_marseille","lat":43.33726,"lon":5.39189,"is_reserved":false,"is_disabled":false,"rental_uris":{"android":"levelo://app?vid=7e3fffbc-5a0f-4ece-b481-63e40e5aabfe","ios":"levelo://app?vid=7e3fffbc-5a0f-4ece-b481-63e40e5aabfe"},"vehicle_type_id":"4","last_reported":1748293709,"current_range_meters":12800,"station_id":"ce4bhr92rcd13ifvqhsg","pricing_plan_id":"cebpf4jnsgd1na2vs0mg"},{"bike_id":"82c98065-2745-4e65-8fe1-efdfb5f4c3f1","system_id":"levelo_inurba_marseille","lat":43.30104,"lon":5.39062,"is_reserved":false,"is_disabled":false,"rental_uris":{"android":"levelo://app?vid=82c98065-2745-4e65-8fe1-efdfb5f4c3f1","ios":"levelo://app?vid=82c98065-2745-4e65-8fe1-efdfb5f4c3f1"},"vehicle_type_id":"4","last_reported":1748293709,"current_range_meters":12800,"station_id":"ce4bh192rcd13ifvqdb0","pricing_plan_id":"cebpf4jnsgd1na2vs0mg"},{"bike_id":"0d01c04c-4b6d-462f-88a6-1c355a1c0354","system_id":"levelo_inurba_marseille","lat":43.24696,"lon":5.38142,"is_reserved":false,"is_disabled":false,"rental_uris":{"android":"levelo://app?vid=0d01c04c-4b6d-462f-88a6-1c355a1c0354","ios":"levelo://app?vid=0d01c04c-4b6d-462f-88a6-1c355a1c0354"},"vehicle_type_id":"4","last_reported":1748293709,"current_range_meters":13600,"station_id":"ce4bhih2rcd13ifvqfr0","pricing_plan_id":"cebpf4jnsgd1na2vs0mg"},{"bike_id":"6ef27e84-462a-46f9-afe5-e09b209cc7f0","system_id":"levelo_inurba_marseille","lat":43.33104,"lon":5.36214,"is_reserved":false,"is_disabled":false,"rental_uris":{"android":"levelo://app?vid=6ef27e84-462a-46f9-afe5-e09b209cc7f0","ios":"levelo://app?vid=6ef27e84-462a-46f9-afe5-e09b209cc7f0"},"vehicle_type_id":"4","last_reported":1748293709,"current_range_meters":13600,"station_id":"","pricing_plan_id":"cebpf4jnsgd1na2vs0mg"},{"bike_id":"1b93f618-501a-441a-ac25-2913e761841a","system_id":"levelo_inurba_marseille","lat":43.330453,"lon":5.390253,"is_reserved":false,"is_disabled":false,"rental_uris":{"android":"levelo://app?vid=1b93f618-501a-441a-ac25-2913e761841a","ios":"levelo://app?vid=1b93f618-501a-441a-ac25-2913e761841a"},"vehicle_type_id":"4","last_reported":1748293709,"current_range_meters":13600,"station_id":"ce4bhr92rcd13ifvqhrg","pricing_plan_id":"cebpf4jnsgd1na2vs0mg"},{"bike_id":"21550935-6c76-4866-81c6-4023c0e52d19","system_id":"levelo_inurba_marseille","lat":43.24664,"lon":5.38166,"is_reserved":false,"is_disabled":false,"rental_uris":{"android":"levelo://app?vid=21550935-6c76-4866-81c6-4023c0e52d19","ios":"levelo://app?vid=21550935-6c76-4866-81c6-4023c0e52d19"},"vehicle_type_id":"4","last_reported":1748293709,"current_range_meters":13600,"station_id":"ce4bhih2rcd13ifvqfr0","pricing_plan_id":"cebpf4jnsgd1na2vs0mg"},{"bike_id":"f5b1aa50-af32-4b67-af03-fc8d46feddb5","system_id":"levelo_inurba_marseille","lat":43.292694,"lon":5.401271,"is_reserved":false,"is_disabled":false,"rental_uris":{"android":"levelo://app?vid=f5b1aa50-af32-4b67-af03-fc8d46feddb5","ios":"levelo://app?vid=f5b1aa50-af32-4b67-af03-fc8d46feddb5"},"vehicle_type_id":"4","last_reported":1748293709,"current_range_meters":13600,"station_id":"","pricing_plan_id":"cebpf4jnsgd1na2vs0mg"},{"bike_id":"b5fbbce1-d584-478f-8320-afbac1d23b0a","system_id":"levelo_inurba_marseille","lat":43.3073,"lon":5.42437,"is_reserved":false,"is_disabled":false,"rental_uris":{"android":"levelo://app?vid=b5fbbce1-d584-478f-8320-afbac1d23b0a","ios":"levelo://app?vid=b5fbbce1-d584-478f-8320-afbac1d23b0a"},"vehicle_type_id":"4","last_reported":1748293709,"current_range_meters":13600,"station_id":"st_cvj6ca6bvosntc0bfgr0","pricing_plan_id":"cebpf4jnsgd1na2vs0mg"},{"bike_id":"8c0269bb-f3e9-4202-bdef-2816f24b6c68","system_id":"levelo_inurba_marseille","lat":43.30824,"lon":5.43556,"is_reserved":false,"is_disabled":false,"rental_uris":{"android":"levelo://app?vid=8c0269bb-f3e9-4202-bdef-2816f24b6c68","ios":"levelo://app?vid=8c0269bb-f3e9-4202-bdef-2816f24b6c68"},"vehicle_type_id":"4","last_reported":1748293709,"current_range_meters":14000,"station_id":"ce4bhph2rcd13ifvqheg","pricing_plan_id":"cebpf4jnsgd1na2vs0mg"},{"bike_id":"e6c65de3-7d92-4979-809c-6677188473c0","system_id":"levelo_inurba_marseille","lat":43.337684,"lon":5.37432,"is_reserved":false,"is_disabled":false,"rental_uris":{"android":"levelo://app?vid=e6c65de3-7d92-4979-809c-6677188473c0","ios":"levelo://app?vid=e6c65de3-7d92-4979-809c-6677188473c0"},"vehicle_type_id":"4","last_reported":1748293709,"current_range_meters":14000,"station_id":"","pricing_plan_id":"cebpf4jnsgd1na2vs0mg"},{"bike_id":"eb060acd-d403-4c33-9f13-e709466da355","system_id":"levelo_inurba_marseille","lat":43.296143,"lon":5.377079,"is_reserved":false,"is_disabled":false,"rental_uris":{"android":"levelo://app?vid=eb060acd-d403-4c33-9f13-e709466da355","ios":"levelo://app?vid=eb060acd-d403-4c33-9f13-e709466da355"},"vehicle_type_id":"4","last_reported":1748293709,"current_range_meters":14000,"station_id":"","pricing_plan_id":"cebpf4jnsgd1na2vs0mg"},{"bike_id":"fcb1e5b0-c753-46a3-a32a-b6e1368adede","system_id":"levelo_inurba_marseille","lat":43.30913,"lon":5.36839,"is_reserved":false,"is_disabled":false,"rental_uris":{"android":"levelo://app?vid=fcb1e5b0-c753-46a3-a32a-b6e1368adede","ios":"levelo://app?vid=fcb1e5b0-c753-46a3-a32a-b6e1368adede"},"vehicle_type_id":"4","last_reported":1748293709,"current_range_meters":14000,"station_id":"ce4bgn92rcd13ifvqbvg","pricing_plan_id":"cebpf4jnsgd1na2vs0mg"},{"bike_id":"2a046dee-b3af-48c9-9659-b7d30ba20af5","system_id":"levelo_inurba_marseille","lat":43.24333,"lon":5.37998,"is_reserved":false,"is_disabled":false,"rental_uris":{"android":"levelo://app?vid=2a046dee-b3af-48c9-9659-b7d30ba20af5","ios":"levelo://app?vid=2a046dee-b3af-48c9-9659-b7d30ba20af5"},"vehicle_type_id":"4","last_reported":1748293709,"current_range_meters":14000,"station_id":"","pricing_plan_id":"cebpf4jnsgd1na2vs0mg"},{"bike_id":"1a1870e2-b5ca-41dd-a4b7-5143c0bbe515","system_id":"levelo_inurba_marseille","lat":43.22946,"lon":5.35353,"is_reserved":false,"is_disabled":false,"rental_uris":{"android":"levelo://app?vid=1a1870e2-b5ca-41dd-a4b7-5143c0bbe515","ios":"levelo://app?vid=1a1870e2-b5ca-41dd-a4b7-5143c0bbe515"},"vehicle_type_id":"4","last_reported":1748293709,"current_range_meters":14000,"station_id":"cpo3532slgdg3j2ikp40","pricing_plan_id":"cebpf4jnsgd1na2vs0mg"},{"bike_id":"7409c5e6-b193-4789-8924-1b2d95e552f5","system_id":"levelo_inurba_marseille","lat":43.295092,"lon":5.385568,"is_reserved":false,"is_disabled":false,"rental_uris":{"android":"levelo://app?vid=7409c5e6-b193-4789-8924-1b2d95e552f5","ios":"levelo://app?vid=7409c5e6-b193-4789-8924-1b2d95e552f5"},"vehicle_type_id":"4","last_reported":1748293709,"current_range_meters":14000,"station_id":"ce4bgih2rcd13ifvqba0","pricing_plan_id":"cebpf4jnsgd1na2vs0mg"},{"bike_id":"f751281a-bb1b-441a-bca7-73629890d3ee","system_id":"levelo_inurba_marseille","lat":43.29998,"lon":5.37169,"is_reserved":false,"is_disabled":true,"rental_uris":{"android":"levelo://app?vid=f751281a-bb1b-441a-bca7-73629890d3ee","ios":"levelo://app?vid=f751281a-bb1b-441a-bca7-73629890d3ee"},"vehicle_type_id":"4","last_reported":1748293709,"current_range_meters":14000,"station_id":"ce4bgr92rcd13ifvqc7g","pricing_plan_id":"cebpf4jnsgd1na2vs0mg"},{"bike_id":"9e259356-03ed-46b8-9b98-3033d232a782","system_id":"levelo_inurba_marseille","lat":43.24082,"lon":5.3774,"is_reserved":false,"is_disabled":false,"rental_uris":{"android":"levelo://app?vid=9e259356-03ed-46b8-9b98-3033d232a782","ios":"levelo://app?vid=9e259356-03ed-46b8-9b98-3033d232a782"},"vehicle_type_id":"4","last_reported":1748293709,"current_range_meters":14400,"station_id":"ce4bhnp2rcd13ifvqgvg","pricing_plan_id":"cebpf4jnsgd1na2vs0mg"},{"bike_id":"48cd0317-1c6f-4804-9cd1-21cb1ebe5af3","system_id":"levelo_inurba_marseille","lat":43.25535,"lon":5.37645,"is_reserved":false,"is_disabled":false,"rental_uris":{"android":"levelo://app?vid=48cd0317-1c6f-4804-9cd1-21cb1ebe5af3","ios":"levelo://app?vid=48cd0317-1c6f-4804-9cd1-21cb1ebe5af3"},"vehicle_type_id":"4","last_reported":1748293709,"current_range_meters":14400,"station_id":"ce4bhh12rcd13ifvqff0","pricing_plan_id":"cebpf4jnsgd1na2vs0mg"},{"bike_id":"52da6684-0a1f-4e5c-8d8b-49dd7abe2c17","system_id":"levelo_inurba_marseille","lat":43.23193,"lon":5.39994,"is_reserved":false,"is_disabled":false,"rental_uris":{"android":"levelo://app?vid=52da6684-0a1f-4e5c-8d8b-49dd7abe2c17","ios":"levelo://app?vid=52da6684-0a1f-4e5c-8d8b-49dd7abe2c17"},"vehicle_type_id":"4","last_reported":1748293709,"current_range_meters":14400,"station_id":"ce4bhn12rcd13ifvqgqg","pricing_plan_id":"cebpf4jnsgd1na2vs0mg"},{"bike_id":"ca23e3a9-fca1-4f90-830b-272759acad12","system_id":"levelo_inurba_marseille","lat":43.30633,"lon":5.40071,"is_reserved":false,"is_disabled":false,"rental_uris":{"android":"levelo://app?vid=ca23e3a9-fca1-4f90-830b-272759acad12","ios":"levelo://app?vid=ca23e3a9-fca1-4f90-830b-272759acad12"},"vehicle_type_id":"4","last_reported":1748293709,"current_range_meters":14400,"station_id":"ce4bh112rcd13ifvqda0","pricing_plan_id":"cebpf4jnsgd1na2vs0mg"},{"bike_id":"c9a58fbd-dd3f-438a-b6d5-6d0e5ccbc30d","system_id":"levelo_inurba_marseille","lat":43.29293,"lon":5.40123,"is_reserved":false,"is_disabled":false,"rental_uris":{"android":"levelo://app?vid=c9a58fbd-dd3f-438a-b6d5-6d0e5ccbc30d","ios":"levelo://app?vid=c9a58fbd-dd3f-438a-b6d5-6d0e5ccbc30d"},"vehicle_type_id":"4","last_reported":1748293709,"current_range_meters":14400,"station_id":"ce4bh312rcd13ifvqdk0","pricing_plan_id":"cebpf4jnsgd1na2vs0mg"},{"bike_id":"f1952fd7-6e93-4b11-be82-d41ec789fc03","system_id":"levelo_inurba_marseille","lat":43.27333,"lon":5.39072,"is_reserved":false,"is_disabled":false,"rental_uris":{"android":"levelo://app?vid=f1952fd7-6e93-4b11-be82-d41ec789fc03","ios":"levelo://app?vid=f1952fd7-6e93-4b11-be82-d41ec789fc03"},"vehicle_type_id":"4","last_reported":1748293709,"current_range_meters":14400,"station_id":"ce4bhgp2rcd13ifvqfe0","pricing_plan_id":"cebpf4jnsgd1na2vs0mg"},{"bike_id":"0396a038-8097-4a63-b507-d7010ebae4ab","system_id":"levelo_inurba_marseille","lat":43.26205,"lon":5.37396,"is_reserved":false,"is_disabled":false,"rental_uris":{"android":"levelo://app?vid=0396a038-8097-4a63-b507-d7010ebae4ab","ios":"levelo://app?vid=0396a038-8097-4a63-b507-d7010ebae4ab"},"vehicle_type_id":"4","last_reported":1748293709,"current_range_meters":14400,"station_id":"","pricing_plan_id":"cebpf4jnsgd1na2vs0mg"},{"bike_id":"9ea0d084-b7dd-4cae-8983-9385691118e8","system_id":"levelo_inurba_marseille","lat":43.31893,"lon":5.40719,"is_reserved":false,"is_disabled":false,"rental_uris":{"android":"levelo://app?vid=9ea0d084-b7dd-4cae-8983-9385691118e8","ios":"levelo://app?vid=9ea0d084-b7dd-4cae-8983-9385691118e8"},"vehicle_type_id":"4","last_reported":1748293709,"current_range_meters":14800,"station_id":"ce4bhq12rcd13ifvqhig","pricing_plan_id":"cebpf4jnsgd1na2vs0mg"},{"bike_id":"7a81e5d4-b5d6-436a-9e23-205ce41315b1","system_id":"levelo_inurba_marseille","lat":43.30889,"lon":5.39656,"is_reserved":false,"is_disabled":false,"rental_uris":{"android":"levelo://app?vid=7a81e5d4-b5d6-436a-9e23-205ce41315b1","ios":"levelo://app?vid=7a81e5d4-b5d6-436a-9e23-205ce41315b1"},"vehicle_type_id":"4","last_reported":1748293709,"current_range_meters":14800,"station_id":"ce4bh012rcd13ifvqcv0","pricing_plan_id":"cebpf4jnsgd1na2vs0mg"},{"bike_id":"0f3f26ad-0454-4a48-a956-f0d881670d7b","system_id":"levelo_inurba_marseille","lat":43.2695,"lon":5.40246,"is_reserved":false,"is_disabled":false,"rental_uris":{"android":"levelo://app?vid=0f3f26ad-0454-4a48-a956-f0d881670d7b","ios":"levelo://app?vid=0f3f26ad-0454-4a48-a956-f0d881670d7b"},"vehicle_type_id":"4","last_reported":1748293709,"current_range_meters":14400,"station_id":"cjm6bp8fraef2m0cb0m0","pricing_plan_id":"cebpf4jnsgd1na2vs0mg"},{"bike_id":"9b2c106f-891c-4bb8-bc6d-ad32dd571590","system_id":"levelo_inurba_marseille","lat":43.30183,"lon":5.3662,"is_reserved":false,"is_disabled":false,"rental_uris":{"android":"levelo://app?vid=9b2c106f-891c-4bb8-bc6d-ad32dd571590","ios":"levelo://app?vid=9b2c106f-891c-4bb8-bc6d-ad32dd571590"},"vehicle_type_id":"4","last_reported":1748293709,"current_range_meters":14800,"station_id":"ce4bgrh2rcd13ifvqc8g","pricing_plan_id":"cebpf4jnsgd1na2vs0mg"},{"bike_id":"cd2f497b-5a16-40a6-9cff-259ea73e6283","system_id":"levelo_inurba_marseille","lat":43.29274,"lon":5.36837,"is_reserved":false,"is_disabled":false,"rental_uris":{"android":"levelo://app?vid=cd2f497b-5a16-40a6-9cff-259ea73e6283","ios":"levelo://app?vid=cd2f497b-5a16-40a6-9cff-259ea73e6283"},"vehicle_type_id":"4","last_reported":1748293709,"current_range_meters":14800,"station_id":"ce4bhbp2rcd13ifvqesg","pricing_plan_id":"cebpf4jnsgd1na2vs0mg"},{"bike_id":"3f855aa9-a03a-4d28-bbc8-2f3b26d07315","system_id":"levelo_inurba_marseille","lat":43.22937,"lon":5.35372,"is_reserved":false,"is_disabled":false,"rental_uris":{"android":"levelo://app?vid=3f855aa9-a03a-4d28-bbc8-2f3b26d07315","ios":"levelo://app?vid=3f855aa9-a03a-4d28-bbc8-2f3b26d07315"},"vehicle_type_id":"4","last_reported":1748293709,"current_range_meters":14800,"station_id":"cpo3532slgdg3j2ikp40","pricing_plan_id":"cebpf4jnsgd1na2vs0mg"},{"bike_id":"6b482028-512e-4dbe-b943-3138dd0f6f46","system_id":"levelo_inurba_marseille","lat":43.29667,"lon":5.36861,"is_reserved":false,"is_disabled":false,"rental_uris":{"android":"levelo://app?vid=6b482028-512e-4dbe-b943-3138dd0f6f46","ios":"levelo://app?vid=6b482028-512e-4dbe-b943-3138dd0f6f46"},"vehicle_type_id":"4","last_reported":1748293709,"current_range_meters":14800,"station_id":"","pricing_plan_id":"cebpf4jnsgd1na2vs0mg"},{"bike_id":"562feeae-8f68-4516-a029-8343412959a3","system_id":"levelo_inurba_marseille","lat":43.27496,"lon":5.42448,"is_reserved":false,"is_disabled":false,"rental_uris":{"android":"levelo://app?vid=562feeae-8f68-4516-a029-8343412959a3","ios":"levelo://app?vid=562feeae-8f68-4516-a029-8343412959a3"},"vehicle_type_id":"4","last_reported":1748293709,"current_range_meters":15200,"station_id":"ce4bhn92rcd13ifvqgrg","pricing_plan_id":"cebpf4jnsgd1na2vs0mg"},{"bike_id":"8130b72f-839f-47ea-8d82-137150a3373c","system_id":"levelo_inurba_marseille","lat":43.3176,"lon":5.39009,"is_reserved":false,"is_disabled":false,"rental_uris":{"android":"levelo://app?vid=8130b72f-839f-47ea-8d82-137150a3373c","ios":"levelo://app?vid=8130b72f-839f-47ea-8d82-137150a3373c"},"vehicle_type_id":"4","last_reported":1748293709,"current_range_meters":16800,"station_id":"ce4bhqp2rcd13ifvqhng","pricing_plan_id":"cebpf4jnsgd1na2vs0mg"},{"bike_id":"cfe00305-12b1-4126-859e-2d93d2cfec7e","system_id":"levelo_inurba_marseille","lat":43.29283,"lon":5.3716,"is_reserved":false,"is_disabled":true,"rental_uris":{"android":"levelo://app?vid=cfe00305-12b1-4126-859e-2d93d2cfec7e","ios":"levelo://app?vid=cfe00305-12b1-4126-859e-2d93d2cfec7e"},"vehicle_type_id":"4","last_reported":1748293709,"current_range_meters":15200,"station_id":"ce4bgh92rcd13ifvqb40","pricing_plan_id":"cebpf4jnsgd1na2vs0mg"},{"bike_id":"0d5c4ec3-9207-4149-b556-49f090f13f2e","system_id":"levelo_inurba_marseille","lat":43.289433,"lon":5.363982,"is_reserved":false,"is_disabled":false,"rental_uris":{"android":"levelo://app?vid=0d5c4ec3-9207-4149-b556-49f090f13f2e","ios":"levelo://app?vid=0d5c4ec3-9207-4149-b556-49f090f13f2e"},"vehicle_type_id":"4","last_reported":1748293709,"current_range_meters":15200,"station_id":"ce4bhc92rcd13ifvqetg","pricing_plan_id":"cebpf4jnsgd1na2vs0mg"},{"bike_id":"0721226d-cd9b-4098-8edd-8099d3230b50","system_id":"levelo_inurba_marseille","lat":43.29038,"lon":5.39988,"is_reserved":false,"is_disabled":false,"rental_uris":{"android":"levelo://app?vid=0721226d-cd9b-4098-8edd-8099d3230b50","ios":"levelo://app?vid=0721226d-cd9b-4098-8edd-8099d3230b50"},"vehicle_type_id":"4","last_reported":1748293709,"current_range_meters":15200,"station_id":"ce4bh392rcd13ifvqdm0","pricing_plan_id":"cebpf4jnsgd1na2vs0mg"},{"bike_id":"d3b9c1cd-82ca-483e-95a9-2d7915de0d38","system_id":"levelo_inurba_marseille","lat":43.31697,"lon":5.43713,"is_reserved":false,"is_disabled":false,"rental_uris":{"android":"levelo://app?vid=d3b9c1cd-82ca-483e-95a9-2d7915de0d38","ios":"levelo://app?vid=d3b9c1cd-82ca-483e-95a9-2d7915de0d38"},"vehicle_type_id":"4","last_reported":1748293709,"current_range_meters":15200,"station_id":"ce4bhp92rcd13ifvqhcg","pricing_plan_id":"cebpf4jnsgd1na2vs0mg"},{"bike_id":"204a5dba-f11a-4d0f-ab7b-a490c2183c95","system_id":"levelo_inurba_marseille","lat":43.29802,"lon":5.40401,"is_reserved":false,"is_disabled":false,"rental_uris":{"android":"levelo://app?vid=204a5dba-f11a-4d0f-ab7b-a490c2183c95","ios":"levelo://app?vid=204a5dba-f11a-4d0f-ab7b-a490c2183c95"},"vehicle_type_id":"4","last_reported":1748293709,"current_range_meters":16800,"station_id":"ce4bh112rcd13ifvqd90","pricing_plan_id":"cebpf4jnsgd1na2vs0mg"},{"bike_id":"ceb81090-b40e-47dd-bc35-8598d269ef58","system_id":"levelo_inurba_marseille","lat":43.26663,"lon":5.38431,"is_reserved":false,"is_disabled":false,"rental_uris":{"android":"levelo://app?vid=ceb81090-b40e-47dd-bc35-8598d269ef58","ios":"levelo://app?vid=ceb81090-b40e-47dd-bc35-8598d269ef58"},"vehicle_type_id":"4","last_reported":1748293709,"current_range_meters":16000,"station_id":"","pricing_plan_id":"cebpf4jnsgd1na2vs0mg"},{"bike_id":"1cc33275-da76-4d6d-8c06-1074210e7a25","system_id":"levelo_inurba_marseille","lat":43.24556,"lon":5.3952,"is_reserved":false,"is_disabled":false,"rental_uris":{"android":"levelo://app?vid=1cc33275-da76-4d6d-8c06-1074210e7a25","ios":"levelo://app?vid=1cc33275-da76-4d6d-8c06-1074210e7a25"},"vehicle_type_id":"4","last_reported":1748293709,"current_range_meters":16000,"station_id":"ce4bhlp2rcd13ifvqgjg","pricing_plan_id":"cebpf4jnsgd1na2vs0mg"},{"bike_id":"24695fcc-1634-4887-9a04-00f71eb609f0","system_id":"levelo_inurba_marseille","lat":43.23191,"lon":5.39968,"is_reserved":false,"is_disabled":false,"rental_uris":{"android":"levelo://app?vid=24695fcc-1634-4887-9a04-00f71eb609f0","ios":"levelo://app?vid=24695fcc-1634-4887-9a04-00f71eb609f0"},"vehicle_type_id":"4","last_reported":1748293709,"current_range_meters":16000,"station_id":"ce4bhn12rcd13ifvqgqg","pricing_plan_id":"cebpf4jnsgd1na2vs0mg"},{"bike_id":"8751b621-da59-406e-a864-41dc5121ff9b","system_id":"levelo_inurba_marseille","lat":43.28021,"lon":5.36959,"is_reserved":false,"is_disabled":false,"rental_uris":{"android":"levelo://app?vid=8751b621-da59-406e-a864-41dc5121ff9b","ios":"levelo://app?vid=8751b621-da59-406e-a864-41dc5121ff9b"},"vehicle_type_id":"4","last_reported":1748293709,"current_range_meters":16000,"station_id":"ce4bha12rcd13ifvqef0","pricing_plan_id":"cebpf4jnsgd1na2vs0mg"},{"bike_id":"4bf0b867-d2dd-43f1-bd29-2bd8ae44c7ae","system_id":"levelo_inurba_marseille","lat":43.292847,"lon":5.401153,"is_reserved":false,"is_disabled":false,"rental_uris":{"android":"levelo://app?vid=4bf0b867-d2dd-43f1-bd29-2bd8ae44c7ae","ios":"levelo://app?vid=4bf0b867-d2dd-43f1-bd29-2bd8ae44c7ae"},"vehicle_type_id":"4","last_reported":1748293709,"current_range_meters":16000,"station_id":"ce4bh312rcd13ifvqdk0","pricing_plan_id":"cebpf4jnsgd1na2vs0mg"},{"bike_id":"f8440d74-6946-4cc3-835a-107397f711e7","system_id":"levelo_inurba_marseille","lat":43.28415,"lon":5.37508,"is_reserved":false,"is_disabled":false,"rental_uris":{"android":"levelo://app?vid=f8440d74-6946-4cc3-835a-107397f711e7","ios":"levelo://app?vid=f8440d74-6946-4cc3-835a-107397f711e7"},"vehicle_type_id":"4","last_reported":1748293709,"current_range_meters":16000,"station_id":"ce4bh412rcd13ifvqds0","pricing_plan_id":"cebpf4jnsgd1na2vs0mg"},{"bike_id":"8fc673c3-6356-401c-a4f1-2519c103e2e0","system_id":"levelo_inurba_marseille","lat":43.32044,"lon":5.415567,"is_reserved":false,"is_disabled":false,"rental_uris":{"android":"levelo://app?vid=8fc673c3-6356-401c-a4f1-2519c103e2e0","ios":"levelo://app?vid=8fc673c3-6356-401c-a4f1-2519c103e2e0"},"vehicle_type_id":"4","last_reported":1748293709,"current_range_meters":15200,"station_id":"ce4bhq92rcd13ifvqhkg","pricing_plan_id":"cebpf4jnsgd1na2vs0mg"},{"bike_id":"30e949a6-9a21-45c6-8b78-d17c7d943515","system_id":"levelo_inurba_marseille","lat":43.26797,"lon":5.40264,"is_reserved":false,"is_disabled":false,"rental_uris":{"android":"levelo://app?vid=30e949a6-9a21-45c6-8b78-d17c7d943515","ios":"levelo://app?vid=30e949a6-9a21-45c6-8b78-d17c7d943515"},"vehicle_type_id":"4","last_reported":1748293709,"current_range_meters":16000,"station_id":"ce501612rcd8frsf0b60","pricing_plan_id":"cebpf4jnsgd1na2vs0mg"},{"bike_id":"6443dad9-aa0c-4786-9534-13315961d247","system_id":"levelo_inurba_marseille","lat":43.28962,"lon":5.39648,"is_reserved":false,"is_disabled":true,"rental_uris":{"android":"levelo://app?vid=6443dad9-aa0c-4786-9534-13315961d247","ios":"levelo://app?vid=6443dad9-aa0c-4786-9534-13315961d247"},"vehicle_type_id":"4","last_reported":1748293709,"current_range_meters":16000,"station_id":"ce4bh3h2rcd13ifvqdn0","pricing_plan_id":"cebpf4jnsgd1na2vs0mg"},{"bike_id":"231b95a3-5dde-487e-a609-4aebcd02c5b9","system_id":"levelo_inurba_marseille","lat":43.30441,"lon":5.38892,"is_reserved":false,"is_disabled":false,"rental_uris":{"android":"levelo://app?vid=231b95a3-5dde-487e-a609-4aebcd02c5b9","ios":"levelo://app?vid=231b95a3-5dde-487e-a609-4aebcd02c5b9"},"vehicle_type_id":"4","last_reported":1748293709,"current_range_meters":15200,"station_id":"ce4bgk12rcd13ifvqbi0","pricing_plan_id":"cebpf4jnsgd1na2vs0mg"},{"bike_id":"a3a1e2f8-c082-4657-9cf8-ceb282e14a71","system_id":"levelo_inurba_marseille","lat":43.2319,"lon":5.39981,"is_reserved":false,"is_disabled":false,"rental_uris":{"android":"levelo://app?vid=a3a1e2f8-c082-4657-9cf8-ceb282e14a71","ios":"levelo://app?vid=a3a1e2f8-c082-4657-9cf8-ceb282e14a71"},"vehicle_type_id":"4","last_reported":1748293709,"current_range_meters":16000,"station_id":"ce4bhn12rcd13ifvqgqg","pricing_plan_id":"cebpf4jnsgd1na2vs0mg"},{"bike_id":"a37d7072-fa8d-48ce-882a-f8346c36ab41","system_id":"levelo_inurba_marseille","lat":43.23315,"lon":5.36163,"is_reserved":false,"is_disabled":false,"rental_uris":{"android":"levelo://app?vid=a37d7072-fa8d-48ce-882a-f8346c36ab41","ios":"levelo://app?vid=a37d7072-fa8d-48ce-882a-f8346c36ab41"},"vehicle_type_id":"4","last_reported":1748293709,"current_range_meters":16000,"station_id":"","pricing_plan_id":"cebpf4jnsgd1na2vs0mg"},{"bike_id":"dc8a29eb-81b6-493a-b552-66c1f15bcf5a","system_id":"levelo_inurba_marseille","lat":43.29734,"lon":5.37671,"is_reserved":false,"is_disabled":true,"rental_uris":{"android":"levelo://app?vid=dc8a29eb-81b6-493a-b552-66c1f15bcf5a","ios":"levelo://app?vid=dc8a29eb-81b6-493a-b552-66c1f15bcf5a"},"vehicle_type_id":"4","last_reported":1748293709,"current_range_meters":16000,"station_id":"ce4bgkh2rcd13ifvqbl0","pricing_plan_id":"cebpf4jnsgd1na2vs0mg"},{"bike_id":"2037ccb2-bba4-42d7-934d-75cff3365589","system_id":"levelo_inurba_marseille","lat":43.32486,"lon":5.36565,"is_reserved":false,"is_disabled":false,"rental_uris":{"android":"levelo://app?vid=2037ccb2-bba4-42d7-934d-75cff3365589","ios":"levelo://app?vid=2037ccb2-bba4-42d7-934d-75cff3365589"},"vehicle_type_id":"4","last_reported":1748293709,"current_range_meters":17200,"station_id":"ce4bhs12rcd13ifvqhvg","pricing_plan_id":"cebpf4jnsgd1na2vs0mg"},{"bike_id":"810c0adb-4414-4213-bdcd-a7fc9e80782c","system_id":"levelo_inurba_marseille","lat":43.28665,"lon":5.36355,"is_reserved":false,"is_disabled":false,"rental_uris":{"android":"levelo://app?vid=810c0adb-4414-4213-bdcd-a7fc9e80782c","ios":"levelo://app?vid=810c0adb-4414-4213-bdcd-a7fc9e80782c"},"vehicle_type_id":"4","last_reported":1748293709,"current_range_meters":16000,"station_id":"ce4bhah2rcd13ifvqej0","pricing_plan_id":"cebpf4jnsgd1na2vs0mg"},{"bike_id":"892ebb6d-3d8b-45d2-9e2f-8bc34d10d083","system_id":"levelo_inurba_marseille","lat":43.28697,"lon":5.37405,"is_reserved":false,"is_disabled":false,"rental_uris":{"android":"levelo://app?vid=892ebb6d-3d8b-45d2-9e2f-8bc34d10d083","ios":"levelo://app?vid=892ebb6d-3d8b-45d2-9e2f-8bc34d10d083"},"vehicle_type_id":"4","last_reported":1748293709,"current_range_meters":16400,"station_id":"ce4bh3p2rcd13ifvqdq0","pricing_plan_id":"cebpf4jnsgd1na2vs0mg"},{"bike_id":"4773d036-5d8e-47c1-92e1-f6370a7fee7f","system_id":"levelo_inurba_marseille","lat":43.30887,"lon":5.37191,"is_reserved":false,"is_disabled":false,"rental_uris":{"android":"levelo://app?vid=4773d036-5d8e-47c1-92e1-f6370a7fee7f","ios":"levelo://app?vid=4773d036-5d8e-47c1-92e1-f6370a7fee7f"},"vehicle_type_id":"4","last_reported":1748293709,"current_range_meters":16400,"station_id":"ce4bguh2rcd13ifvqckg","pricing_plan_id":"cebpf4jnsgd1na2vs0mg"},{"bike_id":"d415bbc8-6965-4b80-bc72-015476d0efd7","system_id":"levelo_inurba_marseille","lat":43.28927,"lon":5.38397,"is_reserved":false,"is_disabled":true,"rental_uris":{"android":"levelo://app?vid=d415bbc8-6965-4b80-bc72-015476d0efd7","ios":"levelo://app?vid=d415bbc8-6965-4b80-bc72-015476d0efd7"},"vehicle_type_id":"4","last_reported":1748293709,"current_range_meters":16400,"station_id":"ce4bh612rcd13ifvqe6g","pricing_plan_id":"cebpf4jnsgd1na2vs0mg"},{"bike_id":"6d2977b8-b405-496c-bf31-3eacba5c9601","system_id":"levelo_inurba_marseille","lat":43.28431,"lon":5.34974,"is_reserved":false,"is_disabled":true,"rental_uris":{"android":"levelo://app?vid=6d2977b8-b405-496c-bf31-3eacba5c9601","ios":"levelo://app?vid=6d2977b8-b405-496c-bf31-3eacba5c9601"},"vehicle_type_id":"4","last_reported":1748293709,"current_range_meters":16400,"station_id":"ce4bhbh2rcd13ifvqepg","pricing_plan_id":"cebpf4jnsgd1na2vs0mg"},{"bike_id":"e5c82b4c-e30f-487a-ae65-76f66da567ea","system_id":"levelo_inurba_marseille","lat":43.32306,"lon":5.367,"is_reserved":false,"is_disabled":false,"rental_uris":{"android":"levelo://app?vid=e5c82b4c-e30f-487a-ae65-76f66da567ea","ios":"levelo://app?vid=e5c82b4c-e30f-487a-ae65-76f66da567ea"},"vehicle_type_id":"4","last_reported":1748293709,"current_range_meters":16400,"station_id":"ce4bhsh2rcd13ifvqi2g","pricing_plan_id":"cebpf4jnsgd1na2vs0mg"},{"bike_id":"0eec6b14-b954-4520-b0f6-390b437f2472","system_id":"levelo_inurba_marseille","lat":43.29825,"lon":5.39352,"is_reserved":false,"is_disabled":false,"rental_uris":{"android":"levelo://app?vid=0eec6b14-b954-4520-b0f6-390b437f2472","ios":"levelo://app?vid=0eec6b14-b954-4520-b0f6-390b437f2472"},"vehicle_type_id":"4","last_reported":1748293709,"current_range_meters":16400,"station_id":"chh1huq6cuj3fo74tm60","pricing_plan_id":"cebpf4jnsgd1na2vs0mg"},{"bike_id":"e392e7c7-4dff-459b-9364-abcef48ae281","system_id":"levelo_inurba_marseille","lat":43.312184,"lon":5.368685,"is_reserved":false,"is_disabled":false,"rental_uris":{"android":"levelo://app?vid=e392e7c7-4dff-459b-9364-abcef48ae281","ios":"levelo://app?vid=e392e7c7-4dff-459b-9364-abcef48ae281"},"vehicle_type_id":"4","last_reported":1748293709,"current_range_meters":16000,"station_id":"ce4bgl92rcd13ifvqbq0","pricing_plan_id":"cebpf4jnsgd1na2vs0mg"},{"bike_id":"43d9f229-fec1-4987-844e-166eea62f6fe","system_id":"levelo_inurba_marseille","lat":43.32659,"lon":5.40995,"is_reserved":false,"is_disabled":false,"rental_uris":{"android":"levelo://app?vid=43d9f229-fec1-4987-844e-166eea62f6fe","ios":"levelo://app?vid=43d9f229-fec1-4987-844e-166eea62f6fe"},"vehicle_type_id":"4","last_reported":1748293709,"current_range_meters":16400,"station_id":"ce4bhpp2rcd13ifvqhgg","pricing_plan_id":"cebpf4jnsgd1na2vs0mg"},{"bike_id":"e54a37d7-0b8f-4a8e-ada3-f57136b30871","system_id":"levelo_inurba_marseille","lat":43.28433,"lon":5.37519,"is_reserved":false,"is_disabled":false,"rental_uris":{"android":"levelo://app?vid=e54a37d7-0b8f-4a8e-ada3-f57136b30871","ios":"levelo://app?vid=e54a37d7-0b8f-4a8e-ada3-f57136b30871"},"vehicle_type_id":"4","last_reported":1748293709,"current_range_meters":16400,"station_id":"ce4bh412rcd13ifvqds0","pricing_plan_id":"cebpf4jnsgd1na2vs0mg"},{"bike_id":"1b1c1a80-2588-4758-a394-caed70878c42","system_id":"levelo_inurba_marseille","lat":43.2937,"lon":5.37857,"is_reserved":false,"is_disabled":false,"rental_uris":{"android":"levelo://app?vid=1b1c1a80-2588-4758-a394-caed70878c42","ios":"levelo://app?vid=1b1c1a80-2588-4758-a394-caed70878c42"},"vehicle_type_id":"4","last_reported":1748293709,"current_range_meters":16000,"station_id":"ce4bgjh2rcd13ifvqbf0","pricing_plan_id":"cebpf4jnsgd1na2vs0mg"},{"bike_id":"064e6fa0-0d7c-4ec8-b1ad-7f69178c75b7","system_id":"levelo_inurba_marseille","lat":43.29899,"lon":5.436624,"is_reserved":false,"is_disabled":true,"rental_uris":{"android":"levelo://app?vid=064e6fa0-0d7c-4ec8-b1ad-7f69178c75b7","ios":"levelo://app?vid=064e6fa0-0d7c-4ec8-b1ad-7f69178c75b7"},"vehicle_type_id":"4","last_reported":1748293709,"current_range_meters":16400,"station_id":"ce4bhpp2rcd13ifvqhfg","pricing_plan_id":"cebpf4jnsgd1na2vs0mg"},{"bike_id":"9198b550-c5cf-463c-bb76-767cf162342b","system_id":"levelo_inurba_marseille","lat":43.25577,"lon":5.38218,"is_reserved":false,"is_disabled":false,"rental_uris":{"android":"levelo://app?vid=9198b550-c5cf-463c-bb76-767cf162342b","ios":"levelo://app?vid=9198b550-c5cf-463c-bb76-767cf162342b"},"vehicle_type_id":"4","last_reported":1748293709,"current_range_meters":16800,"station_id":"ce4bhih2rcd13ifvqfs0","pricing_plan_id":"cebpf4jnsgd1na2vs0mg"},{"bike_id":"80621190-6360-4663-8ad5-fab22cb6eefd","system_id":"levelo_inurba_marseille","lat":43.2738,"lon":5.3625,"is_reserved":false,"is_disabled":true,"rental_uris":{"android":"levelo://app?vid=80621190-6360-4663-8ad5-fab22cb6eefd","ios":"levelo://app?vid=80621190-6360-4663-8ad5-fab22cb6eefd"},"vehicle_type_id":"4","last_reported":1748293709,"current_range_meters":16800,"station_id":"ce4bhbh2rcd13ifvqeo0","pricing_plan_id":"cebpf4jnsgd1na2vs0mg"},{"bike_id":"accd3c89-be48-40f9-b305-7af7de2a1444","system_id":"levelo_inurba_marseille","lat":43.3013,"lon":5.38779,"is_reserved":false,"is_disabled":true,"rental_uris":{"android":"levelo://app?vid=accd3c89-be48-40f9-b305-7af7de2a1444","ios":"levelo://app?vid=accd3c89-be48-40f9-b305-7af7de2a1444"},"vehicle_type_id":"4","last_reported":1748293709,"current_range_meters":16800,"station_id":"ce4bghh2rcd13ifvqb60","pricing_plan_id":"cebpf4jnsgd1na2vs0mg"},{"bike_id":"4c167489-2063-4da0-bb31-d7d3f115f0fb","system_id":"levelo_inurba_marseille","lat":43.29921,"lon":5.38591,"is_reserved":false,"is_disabled":false,"rental_uris":{"android":"levelo://app?vid=4c167489-2063-4da0-bb31-d7d3f115f0fb","ios":"levelo://app?vid=4c167489-2063-4da0-bb31-d7d3f115f0fb"},"vehicle_type_id":"4","last_reported":1748293709,"current_range_meters":16800,"station_id":"","pricing_plan_id":"cebpf4jnsgd1na2vs0mg"},{"bike_id":"ca3e14b2-5596-45e9-a517-8fb1c86db9cb","system_id":"levelo_inurba_marseille","lat":43.30885,"lon":5.39637,"is_reserved":false,"is_disabled":false,"rental_uris":{"android":"levelo://app?vid=ca3e14b2-5596-45e9-a517-8fb1c86db9cb","ios":"levelo://app?vid=ca3e14b2-5596-45e9-a517-8fb1c86db9cb"},"vehicle_type_id":"4","last_reported":1748293709,"current_range_meters":16800,"station_id":"ce4bh012rcd13ifvqcv0","pricing_plan_id":"cebpf4jnsgd1na2vs0mg"},{"bike_id":"6d78c794-5960-45cf-8357-00701a047b0f","system_id":"levelo_inurba_marseille","lat":43.28406,"lon":5.37516,"is_reserved":false,"is_disabled":false,"rental_uris":{"android":"levelo://app?vid=6d78c794-5960-45cf-8357-00701a047b0f","ios":"levelo://app?vid=6d78c794-5960-45cf-8357-00701a047b0f"},"vehicle_type_id":"4","last_reported":1748293709,"current_range_meters":16800,"station_id":"ce4bh412rcd13ifvqds0","pricing_plan_id":"cebpf4jnsgd1na2vs0mg"},{"bike_id":"79714196-ded4-4189-985b-1f7f4f93de08","system_id":"levelo_inurba_marseille","lat":43.29536,"lon":5.385645,"is_reserved":false,"is_disabled":false,"rental_uris":{"android":"levelo://app?vid=79714196-ded4-4189-985b-1f7f4f93de08","ios":"levelo://app?vid=79714196-ded4-4189-985b-1f7f4f93de08"},"vehicle_type_id":"4","last_reported":1748293709,"current_range_meters":16800,"station_id":"ce4bgih2rcd13ifvqba0","pricing_plan_id":"cebpf4jnsgd1na2vs0mg"},{"bike_id":"6fc34b34-951f-41db-b15d-d6b47c28ebb7","system_id":"levelo_inurba_marseille","lat":43.284948,"lon":5.384464,"is_reserved":false,"is_disabled":true,"rental_uris":{"android":"levelo://app?vid=6fc34b34-951f-41db-b15d-d6b47c28ebb7","ios":"levelo://app?vid=6fc34b34-951f-41db-b15d-d6b47c28ebb7"},"vehicle_type_id":"4","last_reported":1748293709,"current_range_meters":16800,"station_id":"ce4bh512rcd13ifvqe3g","pricing_plan_id":"cebpf4jnsgd1na2vs0mg"},{"bike_id":"46de399c-4ae4-422e-8b46-4151db6d2bae","system_id":"levelo_inurba_marseille","lat":43.29029,"lon":5.38641,"is_reserved":false,"is_disabled":false,"rental_uris":{"android":"levelo://app?vid=46de399c-4ae4-422e-8b46-4151db6d2bae","ios":"levelo://app?vid=46de399c-4ae4-422e-8b46-4151db6d2bae"},"vehicle_type_id":"4","last_reported":1748293709,"current_range_meters":16800,"station_id":"ce4bh4p2rcd13ifvqe0g","pricing_plan_id":"cebpf4jnsgd1na2vs0mg"},{"bike_id":"ebc8c9a5-1024-472e-a00e-2d5a4d26d29e","system_id":"levelo_inurba_marseille","lat":43.27499,"lon":5.42448,"is_reserved":false,"is_disabled":false,"rental_uris":{"android":"levelo://app?vid=ebc8c9a5-1024-472e-a00e-2d5a4d26d29e","ios":"levelo://app?vid=ebc8c9a5-1024-472e-a00e-2d5a4d26d29e"},"vehicle_type_id":"4","last_reported":1748293709,"current_range_meters":16800,"station_id":"ce4bhn92rcd13ifvqgrg","pricing_plan_id":"cebpf4jnsgd1na2vs0mg"},{"bike_id":"a40588ee-00f9-4620-a7e7-03b577ebbb6e","system_id":"levelo_inurba_marseille","lat":43.23176,"lon":5.39977,"is_reserved":false,"is_disabled":false,"rental_uris":{"android":"levelo://app?vid=a40588ee-00f9-4620-a7e7-03b577ebbb6e","ios":"levelo://app?vid=a40588ee-00f9-4620-a7e7-03b577ebbb6e"},"vehicle_type_id":"4","last_reported":1748293709,"current_range_meters":16800,"station_id":"ce4bhn12rcd13ifvqgqg","pricing_plan_id":"cebpf4jnsgd1na2vs0mg"},{"bike_id":"fba377c1-28d3-4f00-9612-c33bbafc4551","system_id":"levelo_inurba_marseille","lat":43.28026,"lon":5.36955,"is_reserved":false,"is_disabled":false,"rental_uris":{"android":"levelo://app?vid=fba377c1-28d3-4f00-9612-c33bbafc4551","ios":"levelo://app?vid=fba377c1-28d3-4f00-9612-c33bbafc4551"},"vehicle_type_id":"4","last_reported":1748293709,"current_range_meters":16800,"station_id":"ce4bha12rcd13ifvqef0","pricing_plan_id":"cebpf4jnsgd1na2vs0mg"},{"bike_id":"f8558fca-9663-41f8-9076-21c4b617eabe","system_id":"levelo_inurba_marseille","lat":43.26213,"lon":5.37924,"is_reserved":false,"is_disabled":false,"rental_uris":{"android":"levelo://app?vid=f8558fca-9663-41f8-9076-21c4b617eabe","ios":"levelo://app?vid=f8558fca-9663-41f8-9076-21c4b617eabe"},"vehicle_type_id":"4","last_reported":1748293709,"current_range_meters":17200,"station_id":"ce4bhjp2rcd13ifvqg90","pricing_plan_id":"cebpf4jnsgd1na2vs0mg"},{"bike_id":"2296b000-9418-4e25-b3a0-ff6599969b36","system_id":"levelo_inurba_marseille","lat":43.2883,"lon":5.35245,"is_reserved":false,"is_disabled":false,"rental_uris":{"android":"levelo://app?vid=2296b000-9418-4e25-b3a0-ff6599969b36","ios":"levelo://app?vid=2296b000-9418-4e25-b3a0-ff6599969b36"},"vehicle_type_id":"4","last_reported":1748293709,"current_range_meters":17200,"station_id":"","pricing_plan_id":"cebpf4jnsgd1na2vs0mg"},{"bike_id":"91d118f0-ea08-4ded-b282-aa3e98235efa","system_id":"levelo_inurba_marseille","lat":43.28613,"lon":5.37062,"is_reserved":false,"is_disabled":true,"rental_uris":{"android":"levelo://app?vid=91d118f0-ea08-4ded-b282-aa3e98235efa","ios":"levelo://app?vid=91d118f0-ea08-4ded-b282-aa3e98235efa"},"vehicle_type_id":"4","last_reported":1748293709,"current_range_meters":17200,"station_id":"ce4bht12rcd13ifvqi60","pricing_plan_id":"cebpf4jnsgd1na2vs0mg"},{"bike_id":"91778dc6-5ac3-4d73-a11f-9b1ddc717184","system_id":"levelo_inurba_marseille","lat":43.23192,"lon":5.39977,"is_reserved":false,"is_disabled":false,"rental_uris":{"android":"levelo://app?vid=91778dc6-5ac3-4d73-a11f-9b1ddc717184","ios":"levelo://app?vid=91778dc6-5ac3-4d73-a11f-9b1ddc717184"},"vehicle_type_id":"4","last_reported":1748293709,"current_range_meters":17200,"station_id":"ce4bhn12rcd13ifvqgqg","pricing_plan_id":"cebpf4jnsgd1na2vs0mg"},{"bike_id":"a547bb4b-430a-4271-a6c4-8f3eeb3e62d2","system_id":"levelo_inurba_marseille","lat":43.28951,"lon":5.36411,"is_reserved":false,"is_disabled":true,"rental_uris":{"android":"levelo://app?vid=a547bb4b-430a-4271-a6c4-8f3eeb3e62d2","ios":"levelo://app?vid=a547bb4b-430a-4271-a6c4-8f3eeb3e62d2"},"vehicle_type_id":"4","last_reported":1748293709,"current_range_meters":17600,"station_id":"ce4bhc92rcd13ifvqetg","pricing_plan_id":"cebpf4jnsgd1na2vs0mg"},{"bike_id":"74909085-c918-4a04-8042-d1324b5788d3","system_id":"levelo_inurba_marseille","lat":43.31173,"lon":5.38719,"is_reserved":false,"is_disabled":false,"rental_uris":{"android":"levelo://app?vid=74909085-c918-4a04-8042-d1324b5788d3","ios":"levelo://app?vid=74909085-c918-4a04-8042-d1324b5788d3"},"vehicle_type_id":"4","last_reported":1748293709,"current_range_meters":17600,"station_id":"ce4bgv12rcd13ifvqcp0","pricing_plan_id":"cebpf4jnsgd1na2vs0mg"},{"bike_id":"d5f2356f-5a68-48fd-bf16-a6d6ba6cdff4","system_id":"levelo_inurba_marseille","lat":43.28109,"lon":5.37844,"is_reserved":false,"is_disabled":false,"rental_uris":{"android":"levelo://app?vid=d5f2356f-5a68-48fd-bf16-a6d6ba6cdff4","ios":"levelo://app?vid=d5f2356f-5a68-48fd-bf16-a6d6ba6cdff4"},"vehicle_type_id":"4","last_reported":1748293709,"current_range_meters":17600,"station_id":"ce4bha12rcd13ifvqee0","pricing_plan_id":"cebpf4jnsgd1na2vs0mg"},{"bike_id":"0d3e9119-2afa-4e8e-85a1-4e44e78b8c70","system_id":"levelo_inurba_marseille","lat":43.31366,"lon":5.38519,"is_reserved":false,"is_disabled":true,"rental_uris":{"android":"levelo://app?vid=0d3e9119-2afa-4e8e-85a1-4e44e78b8c70","ios":"levelo://app?vid=0d3e9119-2afa-4e8e-85a1-4e44e78b8c70"},"vehicle_type_id":"4","last_reported":1748293709,"current_range_meters":17600,"station_id":"ce4bgt92rcd13ifvqcf0","pricing_plan_id":"cebpf4jnsgd1na2vs0mg"},{"bike_id":"ac08171b-7007-431d-b70b-1e18c4280993","system_id":"levelo_inurba_marseille","lat":43.29976,"lon":5.38489,"is_reserved":false,"is_disabled":false,"rental_uris":{"android":"levelo://app?vid=ac08171b-7007-431d-b70b-1e18c4280993","ios":"levelo://app?vid=ac08171b-7007-431d-b70b-1e18c4280993"},"vehicle_type_id":"4","last_reported":1748293709,"current_range_meters":17600,"station_id":"ce4bgj92rcd13ifvqbd0","pricing_plan_id":"cebpf4jnsgd1na2vs0mg"},{"bike_id":"232b1ce9-edb9-4826-9f92-e32e54b60b4a","system_id":"levelo_inurba_marseille","lat":43.30924,"lon":5.40147,"is_reserved":false,"is_disabled":false,"rental_uris":{"android":"levelo://app?vid=232b1ce9-edb9-4826-9f92-e32e54b60b4a","ios":"levelo://app?vid=232b1ce9-edb9-4826-9f92-e32e54b60b4a"},"vehicle_type_id":"4","last_reported":1748293709,"current_range_meters":17600,"station_id":"ce4bgvp2rcd13ifvqct0","pricing_plan_id":"cebpf4jnsgd1na2vs0mg"},{"bike_id":"93a9d007-0ff4-46a9-a218-6c118a0a5856","system_id":"levelo_inurba_marseille","lat":43.26196,"lon":5.37416,"is_reserved":false,"is_disabled":false,"rental_uris":{"android":"levelo://app?vid=93a9d007-0ff4-46a9-a218-6c118a0a5856","ios":"levelo://app?vid=93a9d007-0ff4-46a9-a218-6c118a0a5856"},"vehicle_type_id":"4","last_reported":1748293709,"current_range_meters":18000,"station_id":"ce4bhgp2rcd13ifvqfc0","pricing_plan_id":"cebpf4jnsgd1na2vs0mg"},{"bike_id":"3cff5ae3-fe26-4deb-b460-f9318244d3e4","system_id":"levelo_inurba_marseille","lat":43.30903,"lon":5.39638,"is_reserved":false,"is_disabled":true,"rental_uris":{"android":"levelo://app?vid=3cff5ae3-fe26-4deb-b460-f9318244d3e4","ios":"levelo://app?vid=3cff5ae3-fe26-4deb-b460-f9318244d3e4"},"vehicle_type_id":"4","last_reported":1748293709,"current_range_meters":18000,"station_id":"ce4bh012rcd13ifvqcv0","pricing_plan_id":"cebpf4jnsgd1na2vs0mg"},{"bike_id":"b0c06015-92f7-4a76-b580-f9828ce50a0b","system_id":"levelo_inurba_marseille","lat":43.29457,"lon":5.39748,"is_reserved":false,"is_disabled":false,"rental_uris":{"android":"levelo://app?vid=b0c06015-92f7-4a76-b580-f9828ce50a0b","ios":"levelo://app?vid=b0c06015-92f7-4a76-b580-f9828ce50a0b"},"vehicle_type_id":"4","last_reported":1748293709,"current_range_meters":18000,"station_id":"ce4bh3h2rcd13ifvqdo0","pricing_plan_id":"cebpf4jnsgd1na2vs0mg"},{"bike_id":"53864ff9-0bd7-4116-a714-8c93c9f18c2e","system_id":"levelo_inurba_marseille","lat":43.29319,"lon":5.37173,"is_reserved":false,"is_disabled":true,"rental_uris":{"android":"levelo://app?vid=53864ff9-0bd7-4116-a714-8c93c9f18c2e","ios":"levelo://app?vid=53864ff9-0bd7-4116-a714-8c93c9f18c2e"},"vehicle_type_id":"4","last_reported":1748293709,"current_range_meters":18000,"station_id":"ce4bgh92rcd13ifvqb40","pricing_plan_id":"cebpf4jnsgd1na2vs0mg"},{"bike_id":"344c9214-5e30-435b-841d-c783be070d85","system_id":"levelo_inurba_marseille","lat":43.31178,"lon":5.3872,"is_reserved":false,"is_disabled":false,"rental_uris":{"android":"levelo://app?vid=344c9214-5e30-435b-841d-c783be070d85","ios":"levelo://app?vid=344c9214-5e30-435b-841d-c783be070d85"},"vehicle_type_id":"4","last_reported":1748293709,"current_range_meters":18000,"station_id":"ce4bgv12rcd13ifvqcp0","pricing_plan_id":"cebpf4jnsgd1na2vs0mg"},{"bike_id":"c92521c8-83d0-4530-b65d-e04f8c637293","system_id":"levelo_inurba_marseille","lat":43.29022,"lon":5.38638,"is_reserved":false,"is_disabled":false,"rental_uris":{"android":"levelo://app?vid=c92521c8-83d0-4530-b65d-e04f8c637293","ios":"levelo://app?vid=c92521c8-83d0-4530-b65d-e04f8c637293"},"vehicle_type_id":"4","last_reported":1748293709,"current_range_meters":19200,"station_id":"ce4bh4p2rcd13ifvqe0g","pricing_plan_id":"cebpf4jnsgd1na2vs0mg"},{"bike_id":"f1f6394d-bab9-409c-ae86-bd0045c7215f","system_id":"levelo_inurba_marseille","lat":43.30078,"lon":5.39087,"is_reserved":false,"is_disabled":false,"rental_uris":{"android":"levelo://app?vid=f1f6394d-bab9-409c-ae86-bd0045c7215f","ios":"levelo://app?vid=f1f6394d-bab9-409c-ae86-bd0045c7215f"},"vehicle_type_id":"4","last_reported":1748293709,"current_range_meters":18000,"station_id":"ce4bh192rcd13ifvqdb0","pricing_plan_id":"cebpf4jnsgd1na2vs0mg"},{"bike_id":"d9cc438c-b860-45a4-8e0d-3d21bcc4bec6","system_id":"levelo_inurba_marseille","lat":43.29213,"lon":5.39313,"is_reserved":false,"is_disabled":false,"rental_uris":{"android":"levelo://app?vid=d9cc438c-b860-45a4-8e0d-3d21bcc4bec6","ios":"levelo://app?vid=d9cc438c-b860-45a4-8e0d-3d21bcc4bec6"},"vehicle_type_id":"4","last_reported":1748293709,"current_range_meters":18000,"station_id":"ce4bh192rcd13ifvqdd0","pricing_plan_id":"cebpf4jnsgd1na2vs0mg"},{"bike_id":"bcaed641-032b-433f-8a0a-283ee03d0a12","system_id":"levelo_inurba_marseille","lat":43.211916,"lon":5.350728,"is_reserved":false,"is_disabled":false,"rental_uris":{"android":"levelo://app?vid=bcaed641-032b-433f-8a0a-283ee03d0a12","ios":"levelo://app?vid=bcaed641-032b-433f-8a0a-283ee03d0a12"},"vehicle_type_id":"4","last_reported":1748293709,"current_range_meters":18800,"station_id":"","pricing_plan_id":"cebpf4jnsgd1na2vs0mg"},