{"last_updated":1701018338,"ttl":30,"version":"2.2","data":{"bikes":[{"bike_id":"87f466b1-e647-45fd-b895-14f67f927dd4","system_id":"levelo_inurba_marseille","lat":43.31341,"lon":5.367098,"is_reserved":false,"is_disabled":false,"rental_uris":{"android":"levelo://app?vid=87f466b1-e647-45fd-b895-14f67f927dd4","ios":"levelo://app?vid=87f466b1-e647-45fd-b895-14f67f927dd4"},"vehicle_type_id":"4","last_reported":1701018338,"current_range_meters":6800,"station_id":"ce4bgr92rcd13ifvqc6g","pricing_plan_id":"free"},{"bike_id":"42163f27-2525-4132-967e-14c805d1287e","system_id":"levelo_inurba_marseille","lat":43.312239,"lon":5.368562,"is_reserved":false,"is_disabled":false,"rental_uris":{"android":"levelo://app?vid=42163f27-2525-4132-967e-14c805d1287e","ios":"levelo://app?vid=42163f27-2525-4132-967e-14c805d1287e"},"vehicle_type_id":"4","last_reported":1701018338,"current_range_meters":1600,"station_id":"ce4bgl92rcd13ifvqbq0","pricing_plan_id":"free"},{"bike_id":"b75fe18f-c770-46af-957d-bbad19f2c85c","system_id":"levelo_inurba_marseille","lat":43.312239,"lon":5.368562,"is_reserved":false,"is_disabled":false,"rental_uris":{"android":"levelo://app?vid=b75fe18f-c770-46af-957d-bbad19f2c85c","ios":"levelo://app?vid=b75fe18f-c770-46af-957d-bbad19f2c85c"},"vehicle_type_id":"4","last_reported":1701018338,"current_range_meters":0,"station_id":"ce4bgl92rcd13ifvqbq0","pricing_plan_id":"free"},{"bike_id":"9e254fb1-0a84-4708-acee-ed1fc071c1e8","system_id":"levelo_inurba_marseille","lat":43.309039,"lon":5.371797,"is_reserved":false,"is_disabled":false,"rental_uris":{"android":"levelo://app?vid=9e254fb1-0a84-4708-acee-ed1fc071c1e8","ios":"levelo://app?vid=9e254fb1-0a84-4708-acee-ed1fc071c1e8"},"vehicle_type_id":"4","last_reported":1701018338,"current_range_meters":800,"station_id":"ce4bguh2rcd13ifvqckg","pricing_plan_id":"free"},{"bike_id":"6bcb3805-ba65-4bc6-9ea9-df8d4253141d","system_id":"levelo_inurba_marseille","lat":43.309039,"lon":5.371797,"is_reserved":false,"is_disabled":false,"rental_uris":{"android":"levelo://app?vid=6bcb3805-ba65-4bc6-9ea9-df8d4253141d","ios":"levelo://app?vid=6bcb3805-ba65-4bc6-9ea9-df8d4253141d"},"vehicle_type_id":"4","last_reported":1701018338,"current_range_meters":14800,"station_id":"ce4bguh2rcd13ifvqckg","pricing_plan_id":"free"},{"bike_id":"e5cab741-4d17-4923-86b0-cb861860f041","system_id":"levelo_inurba_marseille","lat":43.30548,"lon":5.36567,"is_reserved":false,"is_disabled":false,"rental_uris":{"android":"levelo://app?vid=e5cab741-4d17-4923-86b0-cb861860f041","ios":"levelo://app?vid=e5cab741-4d17-4923-86b0-cb861860f041"},"vehicle_type_id":"4","last_reported":1701018338,"current_range_meters":11200,"station_id":"ce4bgs12rcd13ifvqcag","pricing_plan_id":"free"},{"bike_id":"e97b487f-9a56-4fe4-8a1a-e84724461a3b","system_id":"levelo_inurba_marseille","lat":43.30546,"lon":5.36562,"is_reserved":false,"is_disabled":false,"rental_uris":{"android":"levelo://app?vid=e97b487f-9a56-4fe4-8a1a-e84724461a3b","ios":"levelo://app?vid=e97b487f-9a56-4fe4-8a1a-e84724461a3b"},"vehicle_type_id":"4","last_reported":1701018338,"current_range_meters":0,"station_id":"ce4bgs12rcd13ifvqcag","pricing_plan_id":"free"},{"bike_id":"054dffd5-b6a9-4151-bd62-8e3d81c9bbdb","system_id":"levelo_inurba_marseille","lat":43.30537,"lon":5.36552,"is_reserved":false,"is_disabled":false,"rental_uris":{"android":"levelo://app?vid=054dffd5-b6a9-4151-bd62-8e3d81c9bbdb","ios":"levelo://app?vid=054dffd5-b6a9-4151-bd62-8e3d81c9bbdb"},"vehicle_type_id":"4","last_reported":1701018338,"current_range_meters":0,"station_id":"ce4bgs12rcd13ifvqcag","pricing_plan_id":"free"},{"bike_id":"79fd8896-67b9-4aec-aa99-2b601b6034cb","system_id":"levelo_inurba_marseille","lat":43.3053,"lon":5.36551,"is_reserved":false,"is_disabled":false,"rental_uris":{"android":"levelo://app?vid=79fd8896-67b9-4aec-aa99-2b601b6034cb","ios":"levelo://app?vid=79fd8896-67b9-4aec-aa99-2b601b6034cb"},"vehicle_type_id":"4","last_reported":1701018338,"current_range_meters":21600,"station_id":"ce4bgs12rcd13ifvqcag","pricing_plan_id":"free"},{"bike_id":"87c8debb-cf44-485f-b187-25fbb5bc4afd","system_id":"levelo_inurba_marseille","lat":43.311131,"lon":5.377651,"is_reserved":false,"is_disabled":false,"rental_uris":{"android":"levelo://app?vid=87c8debb-cf44-485f-b187-25fbb5bc4afd","ios":"levelo://app?vid=87c8debb-cf44-485f-b187-25fbb5bc4afd"},"vehicle_type_id":"4","last_reported":1701018338,"current_range_meters":2800,"station_id":"ce4bgt92rcd13ifvqcg0","pricing_plan_id":"free"},{"bike_id":"573a870a-b6c4-429d-8587-8103772b84bc","system_id":"levelo_inurba_marseille","lat":43.308208,"lon":5.376616,"is_reserved":false,"is_disabled":false,"rental_uris":{"android":"levelo://app?vid=573a870a-b6c4-429d-8587-8103772b84bc","ios":"levelo://app?vid=573a870a-b6c4-429d-8587-8103772b84bc"},"vehicle_type_id":"4","last_reported":1701018338,"current_range_meters":0,"station_id":"ce4bgv92rcd13ifvqcq0","pricing_plan_id":"free"},{"bike_id":"f427a2c3-6e4a-446b-ae2f-9be8aa7f4122","system_id":"levelo_inurba_marseille","lat":43.31719,"lon":5.376813,"is_reserved":false,"is_disabled":false,"rental_uris":{"android":"levelo://app?vid=f427a2c3-6e4a-446b-ae2f-9be8aa7f4122","ios":"levelo://app?vid=f427a2c3-6e4a-446b-ae2f-9be8aa7f4122"},"vehicle_type_id":"4","last_reported":1701018338,"current_range_meters":20400,"station_id":"ce4bgth2rcd13ifvqch0","pricing_plan_id":"free"},{"bike_id":"b898b018-f57d-4901-bab2-fdd15d391de9","system_id":"levelo_inurba_marseille","lat":43.317168,"lon":5.376883,"is_reserved":false,"is_disabled":false,"rental_uris":{"android":"levelo://app?vid=b898b018-f57d-4901-bab2-fdd15d391de9","ios":"levelo://app?vid=b898b018-f57d-4901-bab2-fdd15d391de9"},"vehicle_type_id":"4","last_reported":1701018338,"current_range_meters":22800,"station_id":"ce4bgth2rcd13ifvqch0","pricing_plan_id":"free"},{"bike_id":"eaf24555-6eaf-4d0a-b1cc-979a262dfd28","system_id":"levelo_inurba_marseille","lat":43.307945,"lon":5.376487,"is_reserved":false,"is_disabled":false,"rental_uris":{"android":"levelo://app?vid=eaf24555-6eaf-4d0a-b1cc-979a262dfd28","ios":"levelo://app?vid=eaf24555-6eaf-4d0a-b1cc-979a262dfd28"},"vehicle_type_id":"4","last_reported":1701018338,"current_range_meters":27600,"station_id":"ce4bgv92rcd13ifvqcq0","pricing_plan_id":"free"},{"bike_id":"8ef87ac3-8a0d-4ac6-80c0-266e2621bf7f","system_id":"levelo_inurba_marseille","lat":43.32171,"lon":5.37501,"is_reserved":false,"is_disabled":false,"rental_uris":{"android":"levelo://app?vid=8ef87ac3-8a0d-4ac6-80c0-266e2621bf7f","ios":"levelo://app?vid=8ef87ac3-8a0d-4ac6-80c0-266e2621bf7f"},"vehicle_type_id":"4","last_reported":1701018338,"current_range_meters":29600,"station_id":"","pricing_plan_id":"free"},{"bike_id":"9dd512cb-1da4-425d-942e-c20474143127","system_id":"levelo_inurba_marseille","lat":43.3219,"lon":5.37509,"is_reserved":false,"is_disabled":false,"rental_uris":{"android":"levelo://app?vid=9dd512cb-1da4-425d-942e-c20474143127","ios":"levelo://app?vid=9dd512cb-1da4-425d-942e-c20474143127"},"vehicle_type_id":"4","last_reported":1701018338,"current_range_meters":17200,"station_id":"","pricing_plan_id":"free"},{"bike_id":"fdbddfaa-ab54-4cba-87a2-0d83c8bbc22f","system_id":"levelo_inurba_marseille","lat":43.304606,"lon":5.379026,"is_reserved":false,"is_disabled":false,"rental_uris":{"android":"levelo://app?vid=fdbddfaa-ab54-4cba-87a2-0d83c8bbc22f","ios":"levelo://app?vid=fdbddfaa-ab54-4cba-87a2-0d83c8bbc22f"},"vehicle_type_id":"4","last_reported":1701018338,"current_range_meters":6400,"station_id":"ce4bgup2rcd13ifvqcn0","pricing_plan_id":"free"},{"bike_id":"4960cd84-5f51-4fcb-bf4f-043f77c0faa0","system_id":"levelo_inurba_marseille","lat":43.31477,"lon":5.38402,"is_reserved":false,"is_disabled":false,"rental_uris":{"android":"levelo://app?vid=4960cd84-5f51-4fcb-bf4f-043f77c0faa0","ios":"levelo://app?vid=4960cd84-5f51-4fcb-bf4f-043f77c0faa0"},"vehicle_type_id":"4","last_reported":1701018338,"current_range_meters":17200,"station_id":"","pricing_plan_id":"free"},{"bike_id":"0b2c9492-e374-4ff9-a0b0-53694025302e","system_id":"levelo_inurba_marseille","lat":43.302784,"lon":5.377158,"is_reserved":false,"is_disabled":false,"rental_uris":{"android":"levelo://app?vid=0b2c9492-e374-4ff9-a0b0-53694025302e","ios":"levelo://app?vid=0b2c9492-e374-4ff9-a0b0-53694025302e"},"vehicle_type_id":"4","last_reported":1701018338,"current_range_meters":3200,"station_id":"ce4bguh2rcd13ifvqcj0","pricing_plan_id":"free"},{"bike_id":"78ab4ace-44cf-4cd5-ab17-875f3074223c","system_id":"levelo_inurba_marseille","lat":43.31648,"lon":5.38358,"is_reserved":false,"is_disabled":false,"rental_uris":{"android":"levelo://app?vid=78ab4ace-44cf-4cd5-ab17-875f3074223c","ios":"levelo://app?vid=78ab4ace-44cf-4cd5-ab17-875f3074223c"},"vehicle_type_id":"4","last_reported":1701018338,"current_range_meters":13600,"station_id":"","pricing_plan_id":"free"},{"bike_id":"e6cfda28-8074-484f-af42-e8c365a44395","system_id":"levelo_inurba_marseille","lat":43.313571,"lon":5.384829,"is_reserved":false,"is_disabled":false,"rental_uris":{"android":"levelo://app?vid=e6cfda28-8074-484f-af42-e8c365a44395","ios":"levelo://app?vid=e6cfda28-8074-484f-af42-e8c365a44395"},"vehicle_type_id":"4","last_reported":1701018338,"current_range_meters":12800,"station_id":"ce4bgt92rcd13ifvqcf0","pricing_plan_id":"free"},{"bike_id":"d4063520-8e05-4b23-94f9-fa3ff8ac98a5","system_id":"levelo_inurba_marseille","lat":43.29934,"lon":5.36558,"is_reserved":false,"is_disabled":false,"rental_uris":{"android":"levelo://app?vid=d4063520-8e05-4b23-94f9-fa3ff8ac98a5","ios":"levelo://app?vid=d4063520-8e05-4b23-94f9-fa3ff8ac98a5"},"vehicle_type_id":"4","last_reported":1701018338,"current_range_meters":14400,"station_id":"ce4bgm92rcd13ifvqbr0","pricing_plan_id":"free"},{"bike_id":"0f228817-0f6a-4b6a-b1b2-d2639a0f01af","system_id":"levelo_inurba_marseille","lat":43.305364,"lon":5.384119,"is_reserved":false,"is_disabled":false,"rental_uris":{"android":"levelo://app?vid=0f228817-0f6a-4b6a-b1b2-d2639a0f01af","ios":"levelo://app?vid=0f228817-0f6a-4b6a-b1b2-d2639a0f01af"},"vehicle_type_id":"4","last_reported":1701018338,"current_range_meters":26800,"station_id":"ce4bgg92rcd13ifvqb30","pricing_plan_id":"free"},{"bike_id":"91906461-b59f-4209-b689-04a42479089f","system_id":"levelo_inurba_marseille","lat":43.311722,"lon":5.387247,"is_reserved":false,"is_disabled":false,"rental_uris":{"android":"levelo://app?vid=91906461-b59f-4209-b689-04a42479089f","ios":"levelo://app?vid=91906461-b59f-4209-b689-04a42479089f"},"vehicle_type_id":"4","last_reported":1701018338,"current_range_meters":3600,"station_id":"ce4bgv12rcd13ifvqcp0","pricing_plan_id":"free"},{"bike_id":"7a1cb907-5cf0-4fdd-9a97-7a6d045ce264","system_id":"levelo_inurba_marseille","lat":43.311722,"lon":5.387247,"is_reserved":false,"is_disabled":false,"rental_uris":{"android":"levelo://app?vid=7a1cb907-5cf0-4fdd-9a97-7a6d045ce264","ios":"levelo://app?vid=7a1cb907-5cf0-4fdd-9a97-7a6d045ce264"},"vehicle_type_id":"4","last_reported":1701018338,"current_range_meters":12000,"station_id":"ce4bgv12rcd13ifvqcp0","pricing_plan_id":"free"},{"bike_id":"29e76194-c3c1-42d6-a96f-3ba56a43cb67","system_id":"levelo_inurba_marseille","lat":43.297163,"lon":5.365866,"is_reserved":false,"is_disabled":false,"rental_uris":{"android":"levelo://app?vid=29e76194-c3c1-42d6-a96f-3ba56a43cb67","ios":"levelo://app?vid=29e76194-c3c1-42d6-a96f-3ba56a43cb67"},"vehicle_type_id":"4","last_reported":1701018338,"current_range_meters":20800,"station_id":"ce4bgn12rcd13ifvqbt0","pricing_plan_id":"free"},{"bike_id":"f1a31ff1-330a-487e-83e9-53b2c213345f","system_id":"levelo_inurba_marseille","lat":43.297163,"lon":5.365866,"is_reserved":false,"is_disabled":false,"rental_uris":{"android":"levelo://app?vid=f1a31ff1-330a-487e-83e9-53b2c213345f","ios":"levelo://app?vid=f1a31ff1-330a-487e-83e9-53b2c213345f"},"vehicle_type_id":"4","last_reported":1701018338,"current_range_meters":2000,"station_id":"ce4bgn12rcd13ifvqbt0","pricing_plan_id":"free"},{"bike_id":"9eba461d-99bc-42b8-9ea2-51f07ffc4675","system_id":"levelo_inurba_marseille","lat":43.297163,"lon":5.365866,"is_reserved":false,"is_disabled":false,"rental_uris":{"android":"levelo://app?vid=9eba461d-99bc-42b8-9ea2-51f07ffc4675","ios":"levelo://app?vid=9eba461d-99bc-42b8-9ea2-51f07ffc4675"},"vehicle_type_id":"4","last_reported":1701018338,"current_range_meters":2800,"station_id":"ce4bgn12rcd13ifvqbt0","pricing_plan_id":"free"},{"bike_id":"6c5f3c88-0fd0-4c44-9358-bcd18f1ad33c","system_id":"levelo_inurba_marseille","lat":43.297163,"lon":5.365866,"is_reserved":false,"is_disabled":false,"rental_uris":{"android":"levelo://app?vid=6c5f3c88-0fd0-4c44-9358-bcd18f1ad33c","ios":"levelo://app?vid=6c5f3c88-0fd0-4c44-9358-bcd18f1ad33c"},"vehicle_type_id":"4","last_reported":1701018338,"current_range_meters":10000,"station_id":"ce4bgn12rcd13ifvqbt0","pricing_plan_id":"free"},{"bike_id":"ebbee13d-2224-438f-bac3-fa5f51226ea6","system_id":"levelo_inurba_marseille","lat":43.296131,"lon":5.370791,"is_reserved":false,"is_disabled":false,"rental_uris":{"android":"levelo://app?vid=ebbee13d-2224-438f-bac3-fa5f51226ea6","ios":"levelo://app?vid=ebbee13d-2224-438f-bac3-fa5f51226ea6"},"vehicle_type_id":"4","last_reported":1701018338,"current_range_meters":14800,"station_id":"ce4bgnh2rcd13ifvqc0g","pricing_plan_id":"free"},{"bike_id":"c3c62500-4b1c-4861-9cf8-1311db3b96d2","system_id":"levelo_inurba_marseille","lat":43.299028,"lon":5.381509,"is_reserved":false,"is_disabled":false,"rental_uris":{"android":"levelo://app?vid=c3c62500-4b1c-4861-9cf8-1311db3b96d2","ios":"levelo://app?vid=c3c62500-4b1c-4861-9cf8-1311db3b96d2"},"vehicle_type_id":"4","last_reported":1701018338,"current_range_meters":20400,"station_id":"ce4bgj12rcd13ifvqbc0","pricing_plan_id":"free"},{"bike_id":"d9f55fb5-6eb5-424d-af29-cc47573039da","system_id":"levelo_inurba_marseille","lat":43.299028,"lon":5.381509,"is_reserved":false,"is_disabled":false,"rental_uris":{"android":"levelo://app?vid=d9f55fb5-6eb5-424d-af29-cc47573039da","ios":"levelo://app?vid=d9f55fb5-6eb5-424d-af29-cc47573039da"},"vehicle_type_id":"4","last_reported":1701018338,"current_range_meters":3600,"station_id":"ce4bgj12rcd13ifvqbc0","pricing_plan_id":"free"},{"bike_id":"e33561ff-55b8-4237-be23-f4bc915346b0","system_id":"levelo_inurba_marseille","lat":43.299028,"lon":5.381509,"is_reserved":false,"is_disabled":false,"rental_uris":{"android":"levelo://app?vid=e33561ff-55b8-4237-be23-f4bc915346b0","ios":"levelo://app?vid=e33561ff-55b8-4237-be23-f4bc915346b0"},"vehicle_type_id":"4","last_reported":1701018338,"current_range_meters":16800,"station_id":"ce4bgj12rcd13ifvqbc0","pricing_plan_id":"free"},{"bike_id":"75f8a829-e595-403f-a4d5-798fa5f6dc6d","system_id":"levelo_inurba_marseille","lat":43.299028,"lon":5.381509,"is_reserved":false,"is_disabled":false,"rental_uris":{"android":"levelo://app?vid=75f8a829-e595-403f-a4d5-798fa5f6dc6d","ios":"levelo://app?vid=75f8a829-e595-403f-a4d5-798fa5f6dc6d"},"vehicle_type_id":"4","last_reported":1701018338,"current_range_meters":15600,"station_id":"ce4bgj12rcd13ifvqbc0","pricing_plan_id":"free"},{"bike_id":"5500fcd8-5bc1-4784-adc4-d14159b28ecb","system_id":"levelo_inurba_marseille","lat":43.304274,"lon":5.388873,"is_reserved":false,"is_disabled":false,"rental_uris":{"android":"levelo://app?vid=5500fcd8-5bc1-4784-adc4-d14159b28ecb","ios":"levelo://app?vid=5500fcd8-5bc1-4784-adc4-d14159b28ecb"},"vehicle_type_id":"4","last_reported":1701018338,"current_range_meters":3600,"station_id":"ce4bgk12rcd13ifvqbi0","pricing_plan_id":"free"},{"bike_id":"7ee5f4b1-92b6-4610-b447-2f1592783ee5","system_id":"levelo_inurba_marseille","lat":43.304278,"lon":5.388868,"is_reserved":false,"is_disabled":false,"rental_uris":{"android":"levelo://app?vid=7ee5f4b1-92b6-4610-b447-2f1592783ee5","ios":"levelo://app?vid=7ee5f4b1-92b6-4610-b447-2f1592783ee5"},"vehicle_type_id":"4","last_reported":1701018338,"current_range_meters":8000,"station_id":"ce4bgk12rcd13ifvqbi0","pricing_plan_id":"free"},{"bike_id":"72e92fa0-3ef4-4494-ac13-d9c8f2173b66","system_id":"levelo_inurba_marseille","lat":43.298037,"lon":5.381066,"is_reserved":false,"is_disabled":false,"rental_uris":{"android":"levelo://app?vid=72e92fa0-3ef4-4494-ac13-d9c8f2173b66","ios":"levelo://app?vid=72e92fa0-3ef4-4494-ac13-d9c8f2173b66"},"vehicle_type_id":"4","last_reported":1701018338,"current_range_meters":16400,"station_id":"ce4bgip2rcd13ifvqbb0","pricing_plan_id":"free"},{"bike_id":"55518957-9c87-4a2a-97bd-4b42d6d34865","system_id":"levelo_inurba_marseille","lat":43.304274,"lon":5.388873,"is_reserved":false,"is_disabled":false,"rental_uris":{"android":"levelo://app?vid=55518957-9c87-4a2a-97bd-4b42d6d34865","ios":"levelo://app?vid=55518957-9c87-4a2a-97bd-4b42d6d34865"},"vehicle_type_id":"4","last_reported":1701018338,"current_range_meters":25200,"station_id":"ce4bgk12rcd13ifvqbi0","pricing_plan_id":"free"},{"bike_id":"65b5ee5a-3e51-4a2b-9728-edc6eed86b94","system_id":"levelo_inurba_marseille","lat":43.29626,"lon":5.37724,"is_reserved":false,"is_disabled":false,"rental_uris":{"android":"levelo://app?vid=65b5ee5a-3e51-4a2b-9728-edc6eed86b94","ios":"levelo://app?vid=65b5ee5a-3e51-4a2b-9728-edc6eed86b94"},"vehicle_type_id":"4","last_reported":1701018338,"current_range_meters":19600,"station_id":"ce4bgi92rcd13ifvqb90","pricing_plan_id":"free"},{"bike_id":"7e3063ea-913b-44ca-86d6-1cd4a8d4bf98","system_id":"levelo_inurba_marseille","lat":43.2954,"lon":5.37468,"is_reserved":false,"is_disabled":false,"rental_uris":{"android":"levelo://app?vid=7e3063ea-913b-44ca-86d6-1cd4a8d4bf98","ios":"levelo://app?vid=7e3063ea-913b-44ca-86d6-1cd4a8d4bf98"},"vehicle_type_id":"4","last_reported":1701018338,"current_range_meters":25200,"station_id":"","pricing_plan_id":"free"},{"bike_id":"3c50cf57-23af-416d-aadd-178087e5489e","system_id":"levelo_inurba_marseille","lat":43.296263,"lon":5.377094,"is_reserved":false,"is_disabled":false,"rental_uris":{"android":"levelo://app?vid=3c50cf57-23af-416d-aadd-178087e5489e","ios":"levelo://app?vid=3c50cf57-23af-416d-aadd-178087e5489e"},"vehicle_type_id":"4","last_reported":1701018338,"current_range_meters":5200,"station_id":"ce4bgi92rcd13ifvqb90","pricing_plan_id":"free"},{"bike_id":"9c9c7025-91cd-4600-ab53-c889b95df2d6","system_id":"levelo_inurba_marseille","lat":43.29531,"lon":5.3751,"is_reserved":false,"is_disabled":false,"rental_uris":{"android":"levelo://app?vid=9c9c7025-91cd-4600-ab53-c889b95df2d6","ios":"levelo://app?vid=9c9c7025-91cd-4600-ab53-c889b95df2d6"},"vehicle_type_id":"4","last_reported":1701018338,"current_range_meters":10400,"station_id":"ce4bgkp2rcd13ifvqbmg","pricing_plan_id":"free"},{"bike_id":"e99724f3-b0f0-4be7-b0c5-e1ef15e52573","system_id":"levelo_inurba_marseille","lat":43.299717,"lon":5.384845,"is_reserved":false,"is_disabled":false,"rental_uris":{"android":"levelo://app?vid=e99724f3-b0f0-4be7-b0c5-e1ef15e52573","ios":"levelo://app?vid=e99724f3-b0f0-4be7-b0c5-e1ef15e52573"},"vehicle_type_id":"4","last_reported":1701018338,"current_range_meters":18000,"station_id":"ce4bgj92rcd13ifvqbd0","pricing_plan_id":"free"},{"bike_id":"6b621983-5e9e-42f7-990d-ad5a093820d2","system_id":"levelo_inurba_marseille","lat":43.293801,"lon":5.363066,"is_reserved":false,"is_disabled":false,"rental_uris":{"android":"levelo://app?vid=6b621983-5e9e-42f7-990d-ad5a093820d2","ios":"levelo://app?vid=6b621983-5e9e-42f7-990d-ad5a093820d2"},"vehicle_type_id":"4","last_reported":1701018338,"current_range_meters":0,"station_id":"","pricing_plan_id":"free"},{"bike_id":"963d08e7-0c6b-4154-8977-073d329a6b99","system_id":"levelo_inurba_marseille","lat":43.32369,"lon":5.38891,"is_reserved":false,"is_disabled":false,"rental_uris":{"android":"levelo://app?vid=963d08e7-0c6b-4154-8977-073d329a6b99","ios":"levelo://app?vid=963d08e7-0c6b-4154-8977-073d329a6b99"},"vehicle_type_id":"4","last_reported":1701018338,"current_range_meters":6400,"station_id":"ce4bhqp2rcd13ifvqhog","pricing_plan_id":"free"},{"bike_id":"c91caa24-ccd9-44a0-a7dc-ef3dd0691d85","system_id":"levelo_inurba_marseille","lat":43.295327,"lon":5.37903,"is_reserved":false,"is_disabled":false,"rental_uris":{"android":"levelo://app?vid=c91caa24-ccd9-44a0-a7dc-ef3dd0691d85","ios":"levelo://app?vid=c91caa24-ccd9-44a0-a7dc-ef3dd0691d85"},"vehicle_type_id":"4","last_reported":1701018338,"current_range_meters":15200,"station_id":"","pricing_plan_id":"free"},{"bike_id":"838c87df-cd5f-4273-8e51-a15e5f05b0ee","system_id":"levelo_inurba_marseille","lat":43.293009,"lon":5.374584,"is_reserved":false,"is_disabled":false,"rental_uris":{"android":"levelo://app?vid=838c87df-cd5f-4273-8e51-a15e5f05b0ee","ios":"levelo://app?vid=838c87df-cd5f-4273-8e51-a15e5f05b0ee"},"vehicle_type_id":"4","last_reported":1701018338,"current_range_meters":22000,"station_id":"ce4bgi12rcd13ifvqb70","pricing_plan_id":"free"},{"bike_id":"4eac87ff-44f8-4a8f-95cc-7fda4744332d","system_id":"levelo_inurba_marseille","lat":43.305994,"lon":5.393687,"is_reserved":false,"is_disabled":false,"rental_uris":{"android":"levelo://app?vid=4eac87ff-44f8-4a8f-95cc-7fda4744332d","ios":"levelo://app?vid=4eac87ff-44f8-4a8f-95cc-7fda4744332d"},"vehicle_type_id":"4","last_reported":1701018338,"current_range_meters":19600,"station_id":"ce4bh0p2rcd13ifvqd80","pricing_plan_id":"free"},{"bike_id":"cbff5b83-0c55-4ddd-b8b1-bf6e9d4aabba","system_id":"levelo_inurba_marseille","lat":43.303002,"lon":5.392142,"is_reserved":false,"is_disabled":false,"rental_uris":{"android":"levelo://app?vid=cbff5b83-0c55-4ddd-b8b1-bf6e9d4aabba","ios":"levelo://app?vid=cbff5b83-0c55-4ddd-b8b1-bf6e9d4aabba"},"vehicle_type_id":"4","last_reported":1701018338,"current_range_meters":1200,"station_id":"ce4bgkh2rcd13ifvqbk0","pricing_plan_id":"free"},{"bike_id":"a02089f9-b794-46bd-9082-33b88f801ebd","system_id":"levelo_inurba_marseille","lat":43.2936,"lon":5.37835,"is_reserved":false,"is_disabled":false,"rental_uris":{"android":"levelo://app?vid=a02089f9-b794-46bd-9082-33b88f801ebd","ios":"levelo://app?vid=a02089f9-b794-46bd-9082-33b88f801ebd"},"vehicle_type_id":"4","last_reported":1701018338,"current_range_meters":17200,"station_id":"ce4bgjh2rcd13ifvqbf0","pricing_plan_id":"free"},{"bike_id":"29417bda-6f02-40ad-b708-6ae76170b4da","system_id":"levelo_inurba_marseille","lat":43.31329,"lon":5.39691,"is_reserved":false,"is_disabled":false,"rental_uris":{"android":"levelo://app?vid=29417bda-6f02-40ad-b708-6ae76170b4da","ios":"levelo://app?vid=29417bda-6f02-40ad-b708-6ae76170b4da"},"vehicle_type_id":"4","last_reported":1701018338,"current_range_meters":9200,"station_id":"ce4bgvp2rcd13ifvqcu0","pricing_plan_id":"free"},{"bike_id":"47b8b96e-5b11-41a3-a8f4-f93a9ad8af4d","system_id":"levelo_inurba_marseille","lat":43.29183,"lon":5.3581,"is_reserved":false,"is_disabled":false,"rental_uris":{"android":"levelo://app?vid=47b8b96e-5b11-41a3-a8f4-f93a9ad8af4d","ios":"levelo://app?vid=47b8b96e-5b11-41a3-a8f4-f93a9ad8af4d"},"vehicle_type_id":"4","last_reported":1701018338,"current_range_meters":16800,"station_id":"ce4bhb12rcd13ifvqel0","pricing_plan_id":"free"},{"bike_id":"b3662ce4-ecb0-4db3-9850-ea0573a2411e","system_id":"levelo_inurba_marseille","lat":43.309038,"lon":5.396546,"is_reserved":false,"is_disabled":false,"rental_uris":{"android":"levelo://app?vid=b3662ce4-ecb0-4db3-9850-ea0573a2411e","ios":"levelo://app?vid=b3662ce4-ecb0-4db3-9850-ea0573a2411e"},"vehicle_type_id":"4","last_reported":1701018338,"current_range_meters":20800,"station_id":"ce4bh012rcd13ifvqcv0","pricing_plan_id":"free"},{"bike_id":"ef147c91-44a0-4206-8e25-342074562b39","system_id":"levelo_inurba_marseille","lat":43.29529,"lon":5.385581,"is_reserved":false,"is_disabled":false,"rental_uris":{"android":"levelo://app?vid=ef147c91-44a0-4206-8e25-342074562b39","ios":"levelo://app?vid=ef147c91-44a0-4206-8e25-342074562b39"},"vehicle_type_id":"4","last_reported":1701018338,"current_range_meters":0,"station_id":"ce4bgih2rcd13ifvqba0","pricing_plan_id":"free"},{"bike_id":"5d4ff82e-b5b2-4a4e-b905-d16825288c63","system_id":"levelo_inurba_marseille","lat":43.290631,"lon":5.359244,"is_reserved":false,"is_disabled":false,"rental_uris":{"android":"levelo://app?vid=5d4ff82e-b5b2-4a4e-b905-d16825288c63","ios":"levelo://app?vid=5d4ff82e-b5b2-4a4e-b905-d16825288c63"},"vehicle_type_id":"4","last_reported":1701018338,"current_range_meters":2800,"station_id":"ce4bha92rcd13ifvqeg0","pricing_plan_id":"free"},{"bike_id":"e31f3634-c801-4933-948f-26d2a1d7e6c6","system_id":"levelo_inurba_marseille","lat":43.304274,"lon":5.397513,"is_reserved":false,"is_disabled":false,"rental_uris":{"android":"levelo://app?vid=e31f3634-c801-4933-948f-26d2a1d7e6c6","ios":"levelo://app?vid=e31f3634-c801-4933-948f-26d2a1d7e6c6"},"vehicle_type_id":"4","last_reported":1701018338,"current_range_meters":0,"station_id":"ce4bh092rcd13ifvqd20","pricing_plan_id":"free"},{"bike_id":"d11625dc-308e-45a6-a858-497edae4289e","system_id":"levelo_inurba_marseille","lat":43.30642,"lon":5.401031,"is_reserved":false,"is_disabled":false,"rental_uris":{"android":"levelo://app?vid=d11625dc-308e-45a6-a858-497edae4289e","ios":"levelo://app?vid=d11625dc-308e-45a6-a858-497edae4289e"},"vehicle_type_id":"4","last_reported":1701018338,"current_range_meters":2800,"station_id":"ce4bh112rcd13ifvqda0","pricing_plan_id":"free"},{"bike_id":"57ad6e35-250f-4d43-ae16-b4657f4f3402","system_id":"levelo_inurba_marseille","lat":43.306412,"lon":5.401035,"is_reserved":false,"is_disabled":false,"rental_uris":{"android":"levelo://app?vid=57ad6e35-250f-4d43-ae16-b4657f4f3402","ios":"levelo://app?vid=57ad6e35-250f-4d43-ae16-b4657f4f3402"},"vehicle_type_id":"4","last_reported":1701018338,"current_range_meters":18000,"station_id":"ce4bh112rcd13ifvqda0","pricing_plan_id":"free"},{"bike_id":"781f9612-3b75-4420-99f2-cdbe11c0319c","system_id":"levelo_inurba_marseille","lat":43.30642,"lon":5.401031,"is_reserved":false,"is_disabled":false,"rental_uris":{"android":"levelo://app?vid=781f9612-3b75-4420-99f2-cdbe11c0319c","ios":"levelo://app?vid=781f9612-3b75-4420-99f2-cdbe11c0319c"},"vehicle_type_id":"4","last_reported":1701018338,"current_range_meters":23600,"station_id":"ce4bh112rcd13ifvqda0","pricing_plan_id":"free"},{"bike_id":"8a4180c3-4d02-49af-8483-6677c56c73b3","system_id":"levelo_inurba_marseille","lat":43.306412,"lon":5.401035,"is_reserved":false,"is_disabled":false,"rental_uris":{"android":"levelo://app?vid=8a4180c3-4d02-49af-8483-6677c56c73b3","ios":"levelo://app?vid=8a4180c3-4d02-49af-8483-6677c56c73b3"},"vehicle_type_id":"4","last_reported":1701018338,"current_range_meters":29600,"station_id":"ce4bh112rcd13ifvqda0","pricing_plan_id":"free"},{"bike_id":"cdde545e-19f8-4bca-90ed-6413b43a5fcc","system_id":"levelo_inurba_marseille","lat":43.301117,"lon":5.398795,"is_reserved":false,"is_disabled":false,"rental_uris":{"android":"levelo://app?vid=cdde545e-19f8-4bca-90ed-6413b43a5fcc","ios":"levelo://app?vid=cdde545e-19f8-4bca-90ed-6413b43a5fcc"},"vehicle_type_id":"4","last_reported":1701018338,"current_range_meters":18800,"station_id":"ce4bh0h2rcd13ifvqd40","pricing_plan_id":"free"},{"bike_id":"293b651f-af7c-486e-8d31-8522b7e8a1d0","system_id":"levelo_inurba_marseille","lat":43.289743,"lon":5.378304,"is_reserved":false,"is_disabled":false,"rental_uris":{"android":"levelo://app?vid=293b651f-af7c-486e-8d31-8522b7e8a1d0","ios":"levelo://app?vid=293b651f-af7c-486e-8d31-8522b7e8a1d0"},"vehicle_type_id":"4","last_reported":1701018338,"current_range_meters":24000,"station_id":"ce4bh9p2rcd13ifvqed0","pricing_plan_id":"free"},{"bike_id":"c0df3d8c-aef7-48c8-a8f6-077a99bdc03b","system_id":"levelo_inurba_marseille","lat":43.301117,"lon":5.398795,"is_reserved":false,"is_disabled":false,"rental_uris":{"android":"levelo://app?vid=c0df3d8c-aef7-48c8-a8f6-077a99bdc03b","ios":"levelo://app?vid=c0df3d8c-aef7-48c8-a8f6-077a99bdc03b"},"vehicle_type_id":"4","last_reported":1701018338,"current_range_meters":22800,"station_id":"ce4bh0h2rcd13ifvqd40","pricing_plan_id":"free"},{"bike_id":"2e46bdc4-6ca9-492e-a039-67d62d664d65","system_id":"levelo_inurba_marseille","lat":43.28727,"lon":5.36078,"is_reserved":false,"is_disabled":false,"rental_uris":{"android":"levelo://app?vid=2e46bdc4-6ca9-492e-a039-67d62d664d65","ios":"levelo://app?vid=2e46bdc4-6ca9-492e-a039-67d62d664d65"},"vehicle_type_id":"4","last_reported":1701018338,"current_range_meters":11200,"station_id":"cki0cbj6b192h4jlfktg","pricing_plan_id":"free"},{"bike_id":"b4a932d8-3f23-4eb4-b358-6c9940527cf3","system_id":"levelo_inurba_marseille","lat":43.2998,"lon":5.39788,"is_reserved":false,"is_disabled":false,"rental_uris":{"android":"levelo://app?vid=b4a932d8-3f23-4eb4-b358-6c9940527cf3","ios":"levelo://app?vid=b4a932d8-3f23-4eb4-b358-6c9940527cf3"},"vehicle_type_id":"4","last_reported":1701018338,"current_range_meters":9200,"station_id":"","pricing_plan_id":"free"},{"bike_id":"50e7640b-aaa7-4331-befd-ef7b7ab9400c","system_id":"levelo_inurba_marseille","lat":43.28706,"lon":5.37384,"is_reserved":false,"is_disabled":false,"rental_uris":{"android":"levelo://app?vid=50e7640b-aaa7-4331-befd-ef7b7ab9400c","ios":"levelo://app?vid=50e7640b-aaa7-4331-befd-ef7b7ab9400c"},"vehicle_type_id":"4","last_reported":1701018338,"current_range_meters":0,"station_id":"ce4bh3p2rcd13ifvqdq0","pricing_plan_id":"free"},{"bike_id":"6210ec69-e291-4b79-95af-d2655c607d97","system_id":"levelo_inurba_marseille","lat":43.286591,"lon":5.363346,"is_reserved":false,"is_disabled":false,"rental_uris":{"android":"levelo://app?vid=6210ec69-e291-4b79-95af-d2655c607d97","ios":"levelo://app?vid=6210ec69-e291-4b79-95af-d2655c607d97"},"vehicle_type_id":"4","last_reported":1701018338,"current_range_meters":0,"station_id":"ce4bhah2rcd13ifvqej0","pricing_plan_id":"free"},{"bike_id":"5a89fe57-4929-4c13-a0e3-11e9ba835597","system_id":"levelo_inurba_marseille","lat":43.29031,"lon":5.38638,"is_reserved":false,"is_disabled":false,"rental_uris":{"android":"levelo://app?vid=5a89fe57-4929-4c13-a0e3-11e9ba835597","ios":"levelo://app?vid=5a89fe57-4929-4c13-a0e3-11e9ba835597"},"vehicle_type_id":"4","last_reported":1701018338,"current_range_meters":8800,"station_id":"ce4bh4p2rcd13ifvqe0g","pricing_plan_id":"free"},{"bike_id":"44fbbc28-6117-45e8-9f2d-739018f99af7","system_id":"levelo_inurba_marseille","lat":43.29027,"lon":5.38639,"is_reserved":false,"is_disabled":false,"rental_uris":{"android":"levelo://app?vid=44fbbc28-6117-45e8-9f2d-739018f99af7","ios":"levelo://app?vid=44fbbc28-6117-45e8-9f2d-739018f99af7"},"vehicle_type_id":"4","last_reported":1701018338,"current_range_meters":17200,"station_id":"ce4bh4p2rcd13ifvqe0g","pricing_plan_id":"free"},{"bike_id":"18cf2a38-76ed-4829-8cbc-3b082626e934","system_id":"levelo_inurba_marseille","lat":43.286108,"lon":5.370669,"is_reserved":false,"is_disabled":false,"rental_uris":{"android":"levelo://app?vid=18cf2a38-76ed-4829-8cbc-3b082626e934","ios":"levelo://app?vid=18cf2a38-76ed-4829-8cbc-3b082626e934"},"vehicle_type_id":"4","last_reported":1701018338,"current_range_meters":6800,"station_id":"","pricing_plan_id":"free"},{"bike_id":"0256ff5d-12f5-44a1-b7ef-0eb21d90dd49","system_id":"levelo_inurba_marseille","lat":43.286039,"lon":5.370681,"is_reserved":false,"is_disabled":false,"rental_uris":{"android":"levelo://app?vid=0256ff5d-12f5-44a1-b7ef-0eb21d90dd49","ios":"levelo://app?vid=0256ff5d-12f5-44a1-b7ef-0eb21d90dd49"},"vehicle_type_id":"4","last_reported":1701018338,"current_range_meters":25200,"station_id":"ce4bht12rcd13ifvqi60","pricing_plan_id":"free"},{"bike_id":"1e4828c9-4ad8-4020-bb62-44803308b0b5","system_id":"levelo_inurba_marseille","lat":43.287184,"lon":5.37937,"is_reserved":false,"is_disabled":false,"rental_uris":{"android":"levelo://app?vid=1e4828c9-4ad8-4020-bb62-44803308b0b5","ios":"levelo://app?vid=1e4828c9-4ad8-4020-bb62-44803308b0b5"},"vehicle_type_id":"4","last_reported":1701018338,"current_range_meters":17600,"station_id":"ce4bh9p2rcd13ifvqec0","pricing_plan_id":"free"},{"bike_id":"4548e4aa-6b5e-4bf3-b4d0-981d92e46316","system_id":"levelo_inurba_marseille","lat":43.287184,"lon":5.37937,"is_reserved":false,"is_disabled":false,"rental_uris":{"android":"levelo://app?vid=4548e4aa-6b5e-4bf3-b4d0-981d92e46316","ios":"levelo://app?vid=4548e4aa-6b5e-4bf3-b4d0-981d92e46316"},"vehicle_type_id":"4","last_reported":1701018338,"current_range_meters":30400,"station_id":"ce4bh9p2rcd13ifvqec0","pricing_plan_id":"free"},{"bike_id":"3b0df89e-bb63-41ed-a03f-662839c3310f","system_id":"levelo_inurba_marseille","lat":43.291994,"lon":5.392907,"is_reserved":false,"is_disabled":false,"rental_uris":{"android":"levelo://app?vid=3b0df89e-bb63-41ed-a03f-662839c3310f","ios":"levelo://app?vid=3b0df89e-bb63-41ed-a03f-662839c3310f"},"vehicle_type_id":"4","last_reported":1701018338,"current_range_meters":2400,"station_id":"ce4bh192rcd13ifvqdd0","pricing_plan_id":"free"},{"bike_id":"7b3d701b-db4c-4035-9451-cac09ed30b41","system_id":"levelo_inurba_marseille","lat":43.284538,"lon":5.358657,"is_reserved":false,"is_disabled":false,"rental_uris":{"android":"levelo://app?vid=7b3d701b-db4c-4035-9451-cac09ed30b41","ios":"levelo://app?vid=7b3d701b-db4c-4035-9451-cac09ed30b41"},"vehicle_type_id":"4","last_reported":1701018338,"current_range_meters":7200,"station_id":"ce4bhah2rcd13ifvqei0","pricing_plan_id":"free"},{"bike_id":"ca59671b-807a-4ab4-a4a8-0f03a186dd02","system_id":"levelo_inurba_marseille","lat":43.28619,"lon":5.35109,"is_reserved":false,"is_disabled":false,"rental_uris":{"android":"levelo://app?vid=ca59671b-807a-4ab4-a4a8-0f03a186dd02","ios":"levelo://app?vid=ca59671b-807a-4ab4-a4a8-0f03a186dd02"},"vehicle_type_id":"4","last_reported":1701018338,"current_range_meters":31200,"station_id":"ce4bhch2rcd13ifvqeug","pricing_plan_id":"free"},{"bike_id":"b39aba60-7dfd-4119-b461-019d7c383c3d","system_id":"levelo_inurba_marseille","lat":43.285848,"lon":5.350787,"is_reserved":false,"is_disabled":false,"rental_uris":{"android":"levelo://app?vid=b39aba60-7dfd-4119-b461-019d7c383c3d","ios":"levelo://app?vid=b39aba60-7dfd-4119-b461-019d7c383c3d"},"vehicle_type_id":"4","last_reported":1701018338,"current_range_meters":28400,"station_id":"ce4bhch2rcd13ifvqeug","pricing_plan_id":"free"},{"bike_id":"9c564ee6-6cb5-47e2-9afb-186513dfaa23","system_id":"levelo_inurba_marseille","lat":43.285848,"lon":5.350787,"is_reserved":false,"is_disabled":false,"rental_uris":{"android":"levelo://app?vid=9c564ee6-6cb5-47e2-9afb-186513dfaa23","ios":"levelo://app?vid=9c564ee6-6cb5-47e2-9afb-186513dfaa23"},"vehicle_type_id":"4","last_reported":1701018338,"current_range_meters":22400,"station_id":"ce4bhch2rcd13ifvqeug","pricing_plan_id":"free"},{"bike_id":"dfbe7ccb-60b5-4ede-8244-bb94470c5d84","system_id":"levelo_inurba_marseille","lat":43.286065,"lon":5.383912,"is_reserved":false,"is_disabled":false,"rental_uris":{"android":"levelo://app?vid=dfbe7ccb-60b5-4ede-8244-bb94470c5d84","ios":"levelo://app?vid=dfbe7ccb-60b5-4ede-8244-bb94470c5d84"},"vehicle_type_id":"4","last_reported":1701018338,"current_range_meters":29600,"station_id":"","pricing_plan_id":"free"},{"bike_id":"f49b2678-ecf8-4f2b-9abb-66fdd2f99fc3","system_id":"levelo_inurba_marseille","lat":43.286595,"lon":5.386795,"is_reserved":false,"is_disabled":false,"rental_uris":{"android":"levelo://app?vid=f49b2678-ecf8-4f2b-9abb-66fdd2f99fc3","ios":"levelo://app?vid=f49b2678-ecf8-4f2b-9abb-66fdd2f99fc3"},"vehicle_type_id":"4","last_reported":1701018338,"current_range_meters":22400,"station_id":"ce4bh492rcd13ifvqdug","pricing_plan_id":"free"},{"bike_id":"d7291cda-b47c-4b21-ad1d-adea30d670c7","system_id":"levelo_inurba_marseille","lat":43.319179,"lon":5.407725,"is_reserved":false,"is_disabled":false,"rental_uris":{"android":"levelo://app?vid=d7291cda-b47c-4b21-ad1d-adea30d670c7","ios":"levelo://app?vid=d7291cda-b47c-4b21-ad1d-adea30d670c7"},"vehicle_type_id":"4","last_reported":1701018338,"current_range_meters":31200,"station_id":"ce4bhq12rcd13ifvqhig","pricing_plan_id":"free"},{"bike_id":"5b3bb01f-e6fd-486d-94d5-0af0ba6741fa","system_id":"levelo_inurba_marseille","lat":43.323464,"lon":5.406297,"is_reserved":false,"is_disabled":false,"rental_uris":{"android":"levelo://app?vid=5b3bb01f-e6fd-486d-94d5-0af0ba6741fa","ios":"levelo://app?vid=5b3bb01f-e6fd-486d-94d5-0af0ba6741fa"},"vehicle_type_id":"4","last_reported":1701018338,"current_range_meters":24400,"station_id":"ce4bhq92rcd13ifvqhjg","pricing_plan_id":"free"},{"bike_id":"5897b59a-99d0-474f-8867-aac730d17491","system_id":"levelo_inurba_marseille","lat":43.297946,"lon":5.404063,"is_reserved":false,"is_disabled":false,"rental_uris":{"android":"levelo://app?vid=5897b59a-99d0-474f-8867-aac730d17491","ios":"levelo://app?vid=5897b59a-99d0-474f-8867-aac730d17491"},"vehicle_type_id":"4","last_reported":1701018338,"current_range_meters":15600,"station_id":"ce4bh112rcd13ifvqd90","pricing_plan_id":"free"},{"bike_id":"45baa66b-33f7-4f5a-a769-52ccf550c79e","system_id":"levelo_inurba_marseille","lat":43.288501,"lon":5.393087,"is_reserved":false,"is_disabled":false,"rental_uris":{"android":"levelo://app?vid=45baa66b-33f7-4f5a-a769-52ccf550c79e","ios":"levelo://app?vid=45baa66b-33f7-4f5a-a769-52ccf550c79e"},"vehicle_type_id":"4","last_reported":1701018338,"current_range_meters":21200,"station_id":"ce4bh2p2rcd13ifvqdi0","pricing_plan_id":"free"},{"bike_id":"e2284003-4e46-4e0a-93e7-73d05c3666d9","system_id":"levelo_inurba_marseille","lat":43.33508,"lon":5.397755,"is_reserved":false,"is_disabled":false,"rental_uris":{"android":"levelo://app?vid=e2284003-4e46-4e0a-93e7-73d05c3666d9","ios":"levelo://app?vid=e2284003-4e46-4e0a-93e7-73d05c3666d9"},"vehicle_type_id":"4","last_reported":1701018338,"current_range_meters":18000,"station_id":"","pricing_plan_id":"free"},{"bike_id":"c1414b0a-21cf-42c0-90dc-fb0b70bab745","system_id":"levelo_inurba_marseille","lat":43.289363,"lon":5.396322,"is_reserved":false,"is_disabled":false,"rental_uris":{"android":"levelo://app?vid=c1414b0a-21cf-42c0-90dc-fb0b70bab745","ios":"levelo://app?vid=c1414b0a-21cf-42c0-90dc-fb0b70bab745"},"vehicle_type_id":"4","last_reported":1701018338,"current_range_meters":26800,"station_id":"ce4bh3h2rcd13ifvqdn0","pricing_plan_id":"free"},{"bike_id":"b20f0108-436f-47f7-bb1f-edd5a0bb8632","system_id":"levelo_inurba_marseille","lat":43.279087,"lon":5.380114,"is_reserved":false,"is_disabled":false,"rental_uris":{"android":"levelo://app?vid=b20f0108-436f-47f7-bb1f-edd5a0bb8632","ios":"levelo://app?vid=b20f0108-436f-47f7-bb1f-edd5a0bb8632"},"vehicle_type_id":"4","last_reported":1701018338,"current_range_meters":1200,"station_id":"ce4bhf92rcd13ifvqf50","pricing_plan_id":"free"},{"bike_id":"b79fcaa7-c964-4223-9658-a23ecbc4d3b4","system_id":"levelo_inurba_marseille","lat":43.28282,"lon":5.35078,"is_reserved":false,"is_disabled":false,"rental_uris":{"android":"levelo://app?vid=b79fcaa7-c964-4223-9658-a23ecbc4d3b4","ios":"levelo://app?vid=b79fcaa7-c964-4223-9658-a23ecbc4d3b4"},"vehicle_type_id":"4","last_reported":1701018338,"current_range_meters":31200,"station_id":"","pricing_plan_id":"free"},{"bike_id":"7d362fab-711a-4907-91f0-aaf6a8774b39","system_id":"levelo_inurba_marseille","lat":43.283502,"lon":5.386471,"is_reserved":false,"is_disabled":false,"rental_uris":{"android":"levelo://app?vid=7d362fab-711a-4907-91f0-aaf6a8774b39","ios":"levelo://app?vid=7d362fab-711a-4907-91f0-aaf6a8774b39"},"vehicle_type_id":"4","last_reported":1701018338,"current_range_meters":8000,"station_id":"ce4bh492rcd13ifvqdvg","pricing_plan_id":"free"},{"bike_id":"2b0c8b3d-a720-4588-b300-2b5d9288cc94","system_id":"levelo_inurba_marseille","lat":43.283502,"lon":5.386471,"is_reserved":false,"is_disabled":false,"rental_uris":{"android":"levelo://app?vid=2b0c8b3d-a720-4588-b300-2b5d9288cc94","ios":"levelo://app?vid=2b0c8b3d-a720-4588-b300-2b5d9288cc94"},"vehicle_type_id":"4","last_reported":1701018338,"current_range_meters":28000,"station_id":"ce4bh492rcd13ifvqdvg","pricing_plan_id":"free"},{"bike_id":"9da362a8-ca99-49f2-aa37-8e35a69e2e8e","system_id":"levelo_inurba_marseille","lat":43.28039,"lon":5.369297,"is_reserved":false,"is_disabled":false,"rental_uris":{"android":"levelo://app?vid=9da362a8-ca99-49f2-aa37-8e35a69e2e8e","ios":"levelo://app?vid=9da362a8-ca99-49f2-aa37-8e35a69e2e8e"},"vehicle_type_id":"4","last_reported":1701018338,"current_range_meters":27600,"station_id":"ce4bha12rcd13ifvqef0","pricing_plan_id":"free"},{"bike_id":"0899a500-b3e6-467f-9582-11323a78ae2d","system_id":"levelo_inurba_marseille","lat":43.28039,"lon":5.369297,"is_reserved":false,"is_disabled":false,"rental_uris":{"android":"levelo://app?vid=0899a500-b3e6-467f-9582-11323a78ae2d","ios":"levelo://app?vid=0899a500-b3e6-467f-9582-11323a78ae2d"},"vehicle_type_id":"4","last_reported":1701018338,"current_range_meters":8800,"station_id":"ce4bha12rcd13ifvqef0","pricing_plan_id":"free"},{"bike_id":"8d5dfd87-11ab-4b22-be8c-b289fb71feb1","system_id":"levelo_inurba_marseille","lat":43.29056,"lon":5.39953,"is_reserved":false,"is_disabled":false,"rental_uris":{"android":"levelo://app?vid=8d5dfd87-11ab-4b22-be8c-b289fb71feb1","ios":"levelo://app?vid=8d5dfd87-11ab-4b22-be8c-b289fb71feb1"},"vehicle_type_id":"4","last_reported":1701018338,"current_range_meters":5600,"station_id":"ce4bh392rcd13ifvqdm0","pricing_plan_id":"free"},{"bike_id":"2af9dcc5-e776-4da9-8200-1d8ef3161bf3","system_id":"levelo_inurba_marseille","lat":43.29041,"lon":5.399634,"is_reserved":false,"is_disabled":false,"rental_uris":{"android":"levelo://app?vid=2af9dcc5-e776-4da9-8200-1d8ef3161bf3","ios":"levelo://app?vid=2af9dcc5-e776-4da9-8200-1d8ef3161bf3"},"vehicle_type_id":"4","last_reported":1701018338,"current_range_meters":28000,"station_id":"ce4bh392rcd13ifvqdm0","pricing_plan_id":"free"},{"bike_id":"f3d849f4-4523-408b-ad6c-e9c7a75c3d49","system_id":"levelo_inurba_marseille","lat":43.281044,"lon":5.378308,"is_reserved":false,"is_disabled":false,"rental_uris":{"android":"levelo://app?vid=f3d849f4-4523-408b-ad6c-e9c7a75c3d49","ios":"levelo://app?vid=f3d849f4-4523-408b-ad6c-e9c7a75c3d49"},"vehicle_type_id":"4","last_reported":1701018338,"current_range_meters":22400,"station_id":"ce4bha12rcd13ifvqee0","pricing_plan_id":"free"},{"bike_id":"ae449a73-cdb1-48d4-b3b8-2f41bf963dd2","system_id":"levelo_inurba_marseille","lat":43.28444,"lon":5.392,"is_reserved":false,"is_disabled":false,"rental_uris":{"android":"levelo://app?vid=ae449a73-cdb1-48d4-b3b8-2f41bf963dd2","ios":"levelo://app?vid=ae449a73-cdb1-48d4-b3b8-2f41bf963dd2"},"vehicle_type_id":"4","last_reported":1701018338,"current_range_meters":22000,"station_id":"ce4bhoh2rcd13ifvqh5g","pricing_plan_id":"free"},{"bike_id":"33414aa8-9040-44a5-89ce-d066ae351ed3","system_id":"levelo_inurba_marseille","lat":43.28573,"lon":5.394992,"is_reserved":false,"is_disabled":false,"rental_uris":{"android":"levelo://app?vid=33414aa8-9040-44a5-89ce-d066ae351ed3","ios":"levelo://app?vid=33414aa8-9040-44a5-89ce-d066ae351ed3"},"vehicle_type_id":"4","last_reported":1701018338,"current_range_meters":26800,"station_id":"ce4bh292rcd13ifvqdg0","pricing_plan_id":"free"},{"bike_id":"35f70d60-013b-41bb-a39e-e6beeec8cafa","system_id":"levelo_inurba_marseille","lat":43.285742,"lon":5.395004,"is_reserved":false,"is_disabled":false,"rental_uris":{"android":"levelo://app?vid=35f70d60-013b-41bb-a39e-e6beeec8cafa","ios":"levelo://app?vid=35f70d60-013b-41bb-a39e-e6beeec8cafa"},"vehicle_type_id":"4","last_reported":1701018338,"current_range_meters":2000,"station_id":"ce4bh292rcd13ifvqdg0","pricing_plan_id":"free"},{"bike_id":"064cf4cb-d40a-47a3-bb84-802c2defe67c","system_id":"levelo_inurba_marseille","lat":43.304188,"lon":5.412904,"is_reserved":false,"is_disabled":false,"rental_uris":{"android":"levelo://app?vid=064cf4cb-d40a-47a3-bb84-802c2defe67c","ios":"levelo://app?vid=064cf4cb-d40a-47a3-bb84-802c2defe67c"},"vehicle_type_id":"4","last_reported":1701018338,"current_range_meters":15200,"station_id":"ce4bhop2rcd13ifvqh8g","pricing_plan_id":"free"},{"bike_id":"de7a70f5-2ec3-428b-8c99-f8237b6995cb","system_id":"levelo_inurba_marseille","lat":43.304188,"lon":5.412904,"is_reserved":false,"is_disabled":false,"rental_uris":{"android":"levelo://app?vid=de7a70f5-2ec3-428b-8c99-f8237b6995cb","ios":"levelo://app?vid=de7a70f5-2ec3-428b-8c99-f8237b6995cb"},"vehicle_type_id":"4","last_reported":1701018338,"current_range_meters":2400,"station_id":"ce4bhop2rcd13ifvqh8g","pricing_plan_id":"free"},{"bike_id":"6526cad1-2f4b-4db1-8d6b-ce04bc407b31","system_id":"levelo_inurba_marseille","lat":43.34883,"lon":5.37501,"is_reserved":false,"is_disabled":false,"rental_uris":{"android":"levelo://app?vid=6526cad1-2f4b-4db1-8d6b-ce04bc407b31","ios":"levelo://app?vid=6526cad1-2f4b-4db1-8d6b-ce04bc407b31"},"vehicle_type_id":"4","last_reported":1701018338,"current_range_meters":0,"station_id":"","pricing_plan_id":"free"},{"bike_id":"c87b6aec-8e3f-4670-89e5-937e83abc24c","system_id":"levelo_inurba_marseille","lat":43.292571,"lon":5.409107,"is_reserved":false,"is_disabled":false,"rental_uris":{"android":"levelo://app?vid=c87b6aec-8e3f-4670-89e5-937e83abc24c","ios":"levelo://app?vid=c87b6aec-8e3f-4670-89e5-937e83abc24c"},"vehicle_type_id":"4","last_reported":1701018338,"current_range_meters":7600,"station_id":"ce4bh192rcd13ifvqdc0","pricing_plan_id":"free"},{"bike_id":"c25ea147-e804-4786-9d25-91f61a8ed59a","system_id":"levelo_inurba_marseille","lat":43.293651,"lon":5.41268,"is_reserved":false,"is_disabled":false,"rental_uris":{"android":"levelo://app?vid=c25ea147-e804-4786-9d25-91f61a8ed59a","ios":"levelo://app?vid=c25ea147-e804-4786-9d25-91f61a8ed59a"},"vehicle_type_id":"4","last_reported":1701018338,"current_range_meters":0,"station_id":"","pricing_plan_id":"free"},{"bike_id":"c46ead31-db15-4e00-8746-5d6960427e80","system_id":"levelo_inurba_marseille","lat":43.280784,"lon":5.396622,"is_reserved":false,"is_disabled":false,"rental_uris":{"android":"levelo://app?vid=c46ead31-db15-4e00-8746-5d6960427e80","ios":"levelo://app?vid=c46ead31-db15-4e00-8746-5d6960427e80"},"vehicle_type_id":"4","last_reported":1701018338,"current_range_meters":0,"station_id":"ce4bho12rcd13ifvqh2g","pricing_plan_id":"free"},{"bike_id":"5ee57155-df57-4962-9544-56ad6c09b1e3","system_id":"levelo_inurba_marseille","lat":43.3035,"lon":5.41875,"is_reserved":false,"is_disabled":false,"rental_uris":{"android":"levelo://app?vid=5ee57155-df57-4962-9544-56ad6c09b1e3","ios":"levelo://app?vid=5ee57155-df57-4962-9544-56ad6c09b1e3"},"vehicle_type_id":"4","last_reported":1701018338,"current_range_meters":26800,"station_id":"ce4bhop2rcd13ifvqh7g","pricing_plan_id":"free"},{"bike_id":"320ec9ba-aaf9-4921-ae04-77b5f2811607","system_id":"levelo_inurba_marseille","lat":43.30348,"lon":5.41881,"is_reserved":false,"is_disabled":false,"rental_uris":{"android":"levelo://app?vid=320ec9ba-aaf9-4921-ae04-77b5f2811607","ios":"levelo://app?vid=320ec9ba-aaf9-4921-ae04-77b5f2811607"},"vehicle_type_id":"4","last_reported":1701018338,"current_range_meters":22800,"station_id":"ce4bhop2rcd13ifvqh7g","pricing_plan_id":"free"},{"bike_id":"d7d5ad38-a706-46bf-a9f7-837653392e36","system_id":"levelo_inurba_marseille","lat":43.30348,"lon":5.41882,"is_reserved":false,"is_disabled":false,"rental_uris":{"android":"levelo://app?vid=d7d5ad38-a706-46bf-a9f7-837653392e36","ios":"levelo://app?vid=d7d5ad38-a706-46bf-a9f7-837653392e36"},"vehicle_type_id":"4","last_reported":1701018338,"current_range_meters":16000,"station_id":"ce4bhop2rcd13ifvqh7g","pricing_plan_id":"free"},{"bike_id":"b0ed4a91-f4d2-43e8-b684-e4e09d3127b8","system_id":"levelo_inurba_marseille","lat":43.30354,"lon":5.41885,"is_reserved":false,"is_disabled":false,"rental_uris":{"android":"levelo://app?vid=b0ed4a91-f4d2-43e8-b684-e4e09d3127b8","ios":"levelo://app?vid=b0ed4a91-f4d2-43e8-b684-e4e09d3127b8"},"vehicle_type_id":"4","last_reported":1701018338,"current_range_meters":8800,"station_id":"ce4bhop2rcd13ifvqh7g","pricing_plan_id":"free"},{"bike_id":"0ab2a7bc-7b5b-4cea-86d1-7f2747b0d5cc","system_id":"levelo_inurba_marseille","lat":43.278399,"lon":5.392139,"is_reserved":false,"is_disabled":false,"rental_uris":{"android":"levelo://app?vid=0ab2a7bc-7b5b-4cea-86d1-7f2747b0d5cc","ios":"levelo://app?vid=0ab2a7bc-7b5b-4cea-86d1-7f2747b0d5cc"},"vehicle_type_id":"4","last_reported":1701018338,"current_range_meters":1200,"station_id":"ce4bhjp2rcd13ifvqga0","pricing_plan_id":"free"},{"bike_id":"f6c78624-1bdb-4993-97a0-4ba0d03925d9","system_id":"levelo_inurba_marseille","lat":43.278401,"lon":5.392152,"is_reserved":false,"is_disabled":false,"rental_uris":{"android":"levelo://app?vid=f6c78624-1bdb-4993-97a0-4ba0d03925d9","ios":"levelo://app?vid=f6c78624-1bdb-4993-97a0-4ba0d03925d9"},"vehicle_type_id":"4","last_reported":1701018338,"current_range_meters":8400,"station_id":"ce4bhjp2rcd13ifvqga0","pricing_plan_id":"free"},{"bike_id":"5bc631c6-eac5-4011-ac54-dd8d5fa178fd","system_id":"levelo_inurba_marseille","lat":43.275625,"lon":5.384392,"is_reserved":false,"is_disabled":false,"rental_uris":{"android":"levelo://app?vid=5bc631c6-eac5-4011-ac54-dd8d5fa178fd","ios":"levelo://app?vid=5bc631c6-eac5-4011-ac54-dd8d5fa178fd"},"vehicle_type_id":"4","last_reported":1701018338,"current_range_meters":0,"station_id":"ce4bhh92rcd13ifvqfi0","pricing_plan_id":"free"},{"bike_id":"183caabe-d1fe-4b45-af94-2670504d8ad7","system_id":"levelo_inurba_marseille","lat":43.275625,"lon":5.384392,"is_reserved":false,"is_disabled":false,"rental_uris":{"android":"levelo://app?vid=183caabe-d1fe-4b45-af94-2670504d8ad7","ios":"levelo://app?vid=183caabe-d1fe-4b45-af94-2670504d8ad7"},"vehicle_type_id":"4","last_reported":1701018338,"current_range_meters":27200,"station_id":"ce4bhh92rcd13ifvqfi0","pricing_plan_id":"free"},{"bike_id":"f3efd8f4-44d5-4cba-9800-3dee2cdf11d7","system_id":"levelo_inurba_marseille","lat":43.28002,"lon":5.40009,"is_reserved":false,"is_disabled":false,"rental_uris":{"android":"levelo://app?vid=f3efd8f4-44d5-4cba-9800-3dee2cdf11d7","ios":"levelo://app?vid=f3efd8f4-44d5-4cba-9800-3dee2cdf11d7"},"vehicle_type_id":"4","last_reported":1701018338,"current_range_meters":6400,"station_id":"ce4bho92rcd13ifvqh4g","pricing_plan_id":"free"},{"bike_id":"a30c0756-dc21-4117-a082-7cf8bad685d9","system_id":"levelo_inurba_marseille","lat":43.27997,"lon":5.40003,"is_reserved":false,"is_disabled":false,"rental_uris":{"android":"levelo://app?vid=a30c0756-dc21-4117-a082-7cf8bad685d9","ios":"levelo://app?vid=a30c0756-dc21-4117-a082-7cf8bad685d9"},"vehicle_type_id":"4","last_reported":1701018338,"current_range_meters":16000,"station_id":"ce4bho92rcd13ifvqh4g","pricing_plan_id":"free"},{"bike_id":"effb185b-90d2-4d52-8928-7a1f2044aea7","system_id":"levelo_inurba_marseille","lat":43.27996,"lon":5.4001,"is_reserved":false,"is_disabled":false,"rental_uris":{"android":"levelo://app?vid=effb185b-90d2-4d52-8928-7a1f2044aea7","ios":"levelo://app?vid=effb185b-90d2-4d52-8928-7a1f2044aea7"},"vehicle_type_id":"4","last_reported":1701018338,"current_range_meters":23600,"station_id":"ce4bho92rcd13ifvqh4g","pricing_plan_id":"free"},{"bike_id":"f5470134-6ec5-42c7-9b25-279a58784c6e","system_id":"levelo_inurba_marseille","lat":43.27992,"lon":5.40008,"is_reserved":false,"is_disabled":false,"rental_uris":{"android":"levelo://app?vid=f5470134-6ec5-42c7-9b25-279a58784c6e","ios":"levelo://app?vid=f5470134-6ec5-42c7-9b25-279a58784c6e"},"vehicle_type_id":"4","last_reported":1701018338,"current_range_meters":17200,"station_id":"ce4bho92rcd13ifvqh4g","pricing_plan_id":"free"},{"bike_id":"2bac63be-2248-4f83-9913-6fa6e719b914","system_id":"levelo_inurba_marseille","lat":43.31082,"lon":5.42427,"is_reserved":false,"is_disabled":false,"rental_uris":{"android":"levelo://app?vid=2bac63be-2248-4f83-9913-6fa6e719b914","ios":"levelo://app?vid=2bac63be-2248-4f83-9913-6fa6e719b914"},"vehicle_type_id":"4","last_reported":1701018338,"current_range_meters":12000,"station_id":"ce4bhp92rcd13ifvqhag","pricing_plan_id":"free"},{"bike_id":"7424a429-0fb8-48ee-b6d6-d90c89061a07","system_id":"levelo_inurba_marseille","lat":43.31084,"lon":5.42428,"is_reserved":false,"is_disabled":false,"rental_uris":{"android":"levelo://app?vid=7424a429-0fb8-48ee-b6d6-d90c89061a07","ios":"levelo://app?vid=7424a429-0fb8-48ee-b6d6-d90c89061a07"},"vehicle_type_id":"4","last_reported":1701018338,"current_range_meters":28000,"station_id":"ce4bhp92rcd13ifvqhag","pricing_plan_id":"free"},{"bike_id":"8eb5bdb0-5c9b-4999-93c3-a1a499ccf536","system_id":"levelo_inurba_marseille","lat":43.31083,"lon":5.42432,"is_reserved":false,"is_disabled":false,"rental_uris":{"android":"levelo://app?vid=8eb5bdb0-5c9b-4999-93c3-a1a499ccf536","ios":"levelo://app?vid=8eb5bdb0-5c9b-4999-93c3-a1a499ccf536"},"vehicle_type_id":"4","last_reported":1701018338,"current_range_meters":30400,"station_id":"ce4bhp92rcd13ifvqhag","pricing_plan_id":"free"},{"bike_id":"82525aed-6ed7-4af7-bae4-cc2dde36fc15","system_id":"levelo_inurba_marseille","lat":43.340804,"lon":5.410219,"is_reserved":false,"is_disabled":false,"rental_uris":{"android":"levelo://app?vid=82525aed-6ed7-4af7-bae4-cc2dde36fc15","ios":"levelo://app?vid=82525aed-6ed7-4af7-bae4-cc2dde36fc15"},"vehicle_type_id":"4","last_reported":1701018338,"current_range_meters":28000,"station_id":"ce4bhqh2rcd13ifvqhlg","pricing_plan_id":"free"},{"bike_id":"d53f32a6-814f-4f07-94f0-385ab9644adc","system_id":"levelo_inurba_marseille","lat":43.273995,"lon":5.390587,"is_reserved":false,"is_disabled":false,"rental_uris":{"android":"levelo://app?vid=d53f32a6-814f-4f07-94f0-385ab9644adc","ios":"levelo://app?vid=d53f32a6-814f-4f07-94f0-385ab9644adc"},"vehicle_type_id":"4","last_reported":1701018338,"current_range_meters":21600,"station_id":"","pricing_plan_id":"free"},{"bike_id":"de4afaf3-3ef0-441b-b979-5745caa71fbc","system_id":"levelo_inurba_marseille","lat":43.273129,"lon":5.390725,"is_reserved":false,"is_disabled":false,"rental_uris":{"android":"levelo://app?vid=de4afaf3-3ef0-441b-b979-5745caa71fbc","ios":"levelo://app?vid=de4afaf3-3ef0-441b-b979-5745caa71fbc"},"vehicle_type_id":"4","last_reported":1701018338,"current_range_meters":28400,"station_id":"ce4bhgp2rcd13ifvqfe0","pricing_plan_id":"free"},{"bike_id":"4b80c9a9-a3ac-485e-afa8-08291210c107","system_id":"levelo_inurba_marseille","lat":43.27314,"lon":5.39093,"is_reserved":false,"is_disabled":false,"rental_uris":{"android":"levelo://app?vid=4b80c9a9-a3ac-485e-afa8-08291210c107","ios":"levelo://app?vid=4b80c9a9-a3ac-485e-afa8-08291210c107"},"vehicle_type_id":"4","last_reported":1701018338,"current_range_meters":19200,"station_id":"ce4bhgp2rcd13ifvqfe0","pricing_plan_id":"free"},{"bike_id":"4a840da3-fdbc-4633-9cc0-12e811d835c6","system_id":"levelo_inurba_marseille","lat":43.304096,"lon":5.425385,"is_reserved":false,"is_disabled":false,"rental_uris":{"android":"levelo://app?vid=4a840da3-fdbc-4633-9cc0-12e811d835c6","ios":"levelo://app?vid=4a840da3-fdbc-4633-9cc0-12e811d835c6"},"vehicle_type_id":"4","last_reported":1701018338,"current_range_meters":19600,"station_id":"ce4bhoh2rcd13ifvqh6g","pricing_plan_id":"free"},{"bike_id":"11c530ef-3a1e-4341-9786-f43509d01bc1","system_id":"levelo_inurba_marseille","lat":43.2993,"lon":5.42563,"is_reserved":false,"is_disabled":false,"rental_uris":{"android":"levelo://app?vid=11c530ef-3a1e-4341-9786-f43509d01bc1","ios":"levelo://app?vid=11c530ef-3a1e-4341-9786-f43509d01bc1"},"vehicle_type_id":"4","last_reported":1701018338,"current_range_meters":4000,"station_id":"","pricing_plan_id":"free"},{"bike_id":"11262c11-50dc-4e6e-9c6b-e897435a45e1","system_id":"levelo_inurba_marseille","lat":43.278128,"lon":5.407195,"is_reserved":false,"is_disabled":false,"rental_uris":{"android":"levelo://app?vid=11262c11-50dc-4e6e-9c6b-e897435a45e1","ios":"levelo://app?vid=11262c11-50dc-4e6e-9c6b-e897435a45e1"},"vehicle_type_id":"4","last_reported":1701018338,"current_range_meters":0,"station_id":"ce4bhnh2rcd13ifvqgtg","pricing_plan_id":"free"},{"bike_id":"de95b577-4104-4eb8-842b-55187766749d","system_id":"levelo_inurba_marseille","lat":43.278128,"lon":5.407195,"is_reserved":false,"is_disabled":false,"rental_uris":{"android":"levelo://app?vid=de95b577-4104-4eb8-842b-55187766749d","ios":"levelo://app?vid=de95b577-4104-4eb8-842b-55187766749d"},"vehicle_type_id":"4","last_reported":1701018338,"current_range_meters":28000,"station_id":"ce4bhnh2rcd13ifvqgtg","pricing_plan_id":"free"},{"bike_id":"3c8ec296-a7bc-434d-87f5-a9d80bd35e0e","system_id":"levelo_inurba_marseille","lat":43.269319,"lon":5.389397,"is_reserved":false,"is_disabled":false,"rental_uris":{"android":"levelo://app?vid=3c8ec296-a7bc-434d-87f5-a9d80bd35e0e","ios":"levelo://app?vid=3c8ec296-a7bc-434d-87f5-a9d80bd35e0e"},"vehicle_type_id":"4","last_reported":1701018338,"current_range_meters":16400,"station_id":"ce4bhhh2rcd13ifvqfl0","pricing_plan_id":"free"},{"bike_id":"5b5978bf-2363-43fe-bfe7-ce9f16735adc","system_id":"levelo_inurba_marseille","lat":43.26552,"lon":5.37293,"is_reserved":false,"is_disabled":false,"rental_uris":{"android":"levelo://app?vid=5b5978bf-2363-43fe-bfe7-ce9f16735adc","ios":"levelo://app?vid=5b5978bf-2363-43fe-bfe7-ce9f16735adc"},"vehicle_type_id":"4","last_reported":1701018338,"current_range_meters":6800,"station_id":"ce4bhg12rcd13ifvqf70","pricing_plan_id":"free"},{"bike_id":"f23d8119-b478-4639-98c5-6883279f9f84","system_id":"levelo_inurba_marseille","lat":43.32592,"lon":5.43067,"is_reserved":false,"is_disabled":false,"rental_uris":{"android":"levelo://app?vid=f23d8119-b478-4639-98c5-6883279f9f84","ios":"levelo://app?vid=f23d8119-b478-4639-98c5-6883279f9f84"},"vehicle_type_id":"4","last_reported":1701018338,"current_range_meters":22400,"station_id":"","pricing_plan_id":"free"},{"bike_id":"ed30d6a1-b23a-49e5-9c83-5546be72a734","system_id":"levelo_inurba_marseille","lat":43.3259,"lon":5.43075,"is_reserved":false,"is_disabled":false,"rental_uris":{"android":"levelo://app?vid=ed30d6a1-b23a-49e5-9c83-5546be72a734","ios":"levelo://app?vid=ed30d6a1-b23a-49e5-9c83-5546be72a734"},"vehicle_type_id":"4","last_reported":1701018338,"current_range_meters":17200,"station_id":"","pricing_plan_id":"free"},{"bike_id":"d67469ee-5362-4610-a163-fe05ae3cf4f7","system_id":"levelo_inurba_marseille","lat":43.32604,"lon":5.430817,"is_reserved":false,"is_disabled":false,"rental_uris":{"android":"levelo://app?vid=d67469ee-5362-4610-a163-fe05ae3cf4f7","ios":"levelo://app?vid=d67469ee-5362-4610-a163-fe05ae3cf4f7"},"vehicle_type_id":"4","last_reported":1701018338,"current_range_meters":5600,"station_id":"","pricing_plan_id":"free"},{"bike_id":"bbfcd2e3-0225-418b-b426-52e91ae6a9b1","system_id":"levelo_inurba_marseille","lat":43.27996,"lon":5.416624,"is_reserved":false,"is_disabled":false,"rental_uris":{"android":"levelo://app?vid=bbfcd2e3-0225-418b-b426-52e91ae6a9b1","ios":"levelo://app?vid=bbfcd2e3-0225-418b-b426-52e91ae6a9b1"},"vehicle_type_id":"4","last_reported":1701018338,"current_range_meters":31200,"station_id":"ce4bho12rcd13ifvqh1g","pricing_plan_id":"free"},{"bike_id":"89b3e652-bb9f-41a6-8cc2-87bd4867ffb1","system_id":"levelo_inurba_marseille","lat":43.27996,"lon":5.416624,"is_reserved":false,"is_disabled":false,"rental_uris":{"android":"levelo://app?vid=89b3e652-bb9f-41a6-8cc2-87bd4867ffb1","ios":"levelo://app?vid=89b3e652-bb9f-41a6-8cc2-87bd4867ffb1"},"vehicle_type_id":"4","last_reported":1701018338,"current_range_meters":7200,"station_id":"ce4bho12rcd13ifvqh1g","pricing_plan_id":"free"},{"bike_id":"3c201c87-5807-42b1-acc1-bb2635631804","system_id":"levelo_inurba_marseille","lat":43.27996,"lon":5.416624,"is_reserved":false,"is_disabled":false,"rental_uris":{"android":"levelo://app?vid=3c201c87-5807-42b1-acc1-bb2635631804","ios":"levelo://app?vid=3c201c87-5807-42b1-acc1-bb2635631804"},"vehicle_type_id":"4","last_reported":1701018338,"current_range_meters":0,"station_id":"ce4bho12rcd13ifvqh1g","pricing_plan_id":"free"},{"bike_id":"83056715-5b6a-4355-88be-e8d09fc71f6f","system_id":"levelo_inurba_marseille","lat":43.265714,"lon":5.372891,"is_reserved":false,"is_disabled":false,"rental_uris":{"android":"levelo://app?vid=83056715-5b6a-4355-88be-e8d09fc71f6f","ios":"levelo://app?vid=83056715-5b6a-4355-88be-e8d09fc71f6f"},"vehicle_type_id":"4","last_reported":1701018338,"current_range_meters":25200,"station_id":"ce4bhg12rcd13ifvqf70","pricing_plan_id":"free"},{"bike_id":"ba8bb63d-105e-4b2c-9c00-c3ef45d88fd0","system_id":"levelo_inurba_marseille","lat":43.265714,"lon":5.372891,"is_reserved":false,"is_disabled":false,"rental_uris":{"android":"levelo://app?vid=ba8bb63d-105e-4b2c-9c00-c3ef45d88fd0","ios":"levelo://app?vid=ba8bb63d-105e-4b2c-9c00-c3ef45d88fd0"},"vehicle_type_id":"4","last_reported":1701018338,"current_range_meters":8000,"station_id":"ce4bhg12rcd13ifvqf70","pricing_plan_id":"free"},{"bike_id":"33b30a47-8ce5-4b9f-b2d2-c41e31f11ad6","system_id":"levelo_inurba_marseille","lat":43.267966,"lon":5.393976,"is_reserved":false,"is_disabled":false,"rental_uris":{"android":"levelo://app?vid=33b30a47-8ce5-4b9f-b2d2-c41e31f11ad6","ios":"levelo://app?vid=33b30a47-8ce5-4b9f-b2d2-c41e31f11ad6"},"vehicle_type_id":"4","last_reported":1701018338,"current_range_meters":28400,"station_id":"ce4bhh12rcd13ifvqfg0","pricing_plan_id":"free"},{"bike_id":"88163ca1-c6bc-4e99-a00a-302f1737d0f2","system_id":"levelo_inurba_marseille","lat":43.267966,"lon":5.393976,"is_reserved":false,"is_disabled":false,"rental_uris":{"android":"levelo://app?vid=88163ca1-c6bc-4e99-a00a-302f1737d0f2","ios":"levelo://app?vid=88163ca1-c6bc-4e99-a00a-302f1737d0f2"},"vehicle_type_id":"4","last_reported":1701018338,"current_range_meters":27600,"station_id":"ce4bhh12rcd13ifvqfg0","pricing_plan_id":"free"},{"bike_id":"0daa42a3-1244-4ec9-8ebd-4dd90d90f2b7","system_id":"levelo_inurba_marseille","lat":43.267966,"lon":5.393976,"is_reserved":false,"is_disabled":false,"rental_uris":{"android":"levelo://app?vid=0daa42a3-1244-4ec9-8ebd-4dd90d90f2b7","ios":"levelo://app?vid=0daa42a3-1244-4ec9-8ebd-4dd90d90f2b7"},"vehicle_type_id":"4","last_reported":1701018338,"current_range_meters":22800,"station_id":"ce4bhh12rcd13ifvqfg0","pricing_plan_id":"free"},{"bike_id":"2b5f0b27-ae58-4e9e-bd76-c585f78e8a73","system_id":"levelo_inurba_marseille","lat":43.26386,"lon":5.37454,"is_reserved":false,"is_disabled":false,"rental_uris":{"android":"levelo://app?vid=2b5f0b27-ae58-4e9e-bd76-c585f78e8a73","ios":"levelo://app?vid=2b5f0b27-ae58-4e9e-bd76-c585f78e8a73"},"vehicle_type_id":"4","last_reported":1701018338,"current_range_meters":6400,"station_id":"","pricing_plan_id":"free"},{"bike_id":"4e51360c-c0f2-4ec8-9cc6-e51aefb6dc54","system_id":"levelo_inurba_marseille","lat":43.26548,"lon":5.390174,"is_reserved":false,"is_disabled":false,"rental_uris":{"android":"levelo://app?vid=4e51360c-c0f2-4ec8-9cc6-e51aefb6dc54","ios":"levelo://app?vid=4e51360c-c0f2-4ec8-9cc6-e51aefb6dc54"},"vehicle_type_id":"4","last_reported":1701018338,"current_range_meters":12000,"station_id":"ce4bhe12rcd13ifvqf30","pricing_plan_id":"free"},{"bike_id":"81417be7-c0f3-482c-a0f1-9cf2b55f2dfc","system_id":"levelo_inurba_marseille","lat":43.265432,"lon":5.390112,"is_reserved":false,"is_disabled":false,"rental_uris":{"android":"levelo://app?vid=81417be7-c0f3-482c-a0f1-9cf2b55f2dfc","ios":"levelo://app?vid=81417be7-c0f3-482c-a0f1-9cf2b55f2dfc"},"vehicle_type_id":"4","last_reported":1701018338,"current_range_meters":25600,"station_id":"ce4bhe12rcd13ifvqf30","pricing_plan_id":"free"},{"bike_id":"ec593df7-85d2-4a7c-a892-75fec147bf75","system_id":"levelo_inurba_marseille","lat":43.31708,"lon":5.43707,"is_reserved":false,"is_disabled":false,"rental_uris":{"android":"levelo://app?vid=ec593df7-85d2-4a7c-a892-75fec147bf75","ios":"levelo://app?vid=ec593df7-85d2-4a7c-a892-75fec147bf75"},"vehicle_type_id":"4","last_reported":1701018338,"current_range_meters":30800,"station_id":"ce4bhp92rcd13ifvqhcg","pricing_plan_id":"free"},{"bike_id":"34e9d94a-a716-4b0c-93f4-cd00b136e1d7","system_id":"levelo_inurba_marseille","lat":43.3171,"lon":5.43709,"is_reserved":false,"is_disabled":false,"rental_uris":{"android":"levelo://app?vid=34e9d94a-a716-4b0c-93f4-cd00b136e1d7","ios":"levelo://app?vid=34e9d94a-a716-4b0c-93f4-cd00b136e1d7"},"vehicle_type_id":"4","last_reported":1701018338,"current_range_meters":0,"station_id":"ce4bhp92rcd13ifvqhcg","pricing_plan_id":"free"},{"bike_id":"cc6ff3ec-d4be-4b32-bfd2-4e5c5328d334","system_id":"levelo_inurba_marseille","lat":43.317104,"lon":5.436818,"is_reserved":false,"is_disabled":false,"rental_uris":{"android":"levelo://app?vid=cc6ff3ec-d4be-4b32-bfd2-4e5c5328d334","ios":"levelo://app?vid=cc6ff3ec-d4be-4b32-bfd2-4e5c5328d334"},"vehicle_type_id":"4","last_reported":1701018338,"current_range_meters":14800,"station_id":"ce4bhp92rcd13ifvqhcg","pricing_plan_id":"free"},{"bike_id":"3b0d8a85-757d-4e5a-8804-f98915973b25","system_id":"levelo_inurba_marseille","lat":43.267959,"lon":5.402687,"is_reserved":false,"is_disabled":false,"rental_uris":{"android":"levelo://app?vid=3b0d8a85-757d-4e5a-8804-f98915973b25","ios":"levelo://app?vid=3b0d8a85-757d-4e5a-8804-f98915973b25"},"vehicle_type_id":"4","last_reported":1701018338,"current_range_meters":29600,"station_id":"ce501612rcd8frsf0b60","pricing_plan_id":"free"},{"bike_id":"cdf2c497-f033-4c0f-80f4-b4e51e4970c2","system_id":"levelo_inurba_marseille","lat":43.27162,"lon":5.410056,"is_reserved":false,"is_disabled":false,"rental_uris":{"android":"levelo://app?vid=cdf2c497-f033-4c0f-80f4-b4e51e4970c2","ios":"levelo://app?vid=cdf2c497-f033-4c0f-80f4-b4e51e4970c2"},"vehicle_type_id":"4","last_reported":1701018338,"current_range_meters":22400,"station_id":"ce4bhl12rcd13ifvqgf0","pricing_plan_id":"free"},{"bike_id":"13efbc1c-d5e6-4098-8f82-49cd483b6f29","system_id":"levelo_inurba_marseille","lat":43.267959,"lon":5.402687,"is_reserved":false,"is_disabled":false,"rental_uris":{"android":"levelo://app?vid=13efbc1c-d5e6-4098-8f82-49cd483b6f29","ios":"levelo://app?vid=13efbc1c-d5e6-4098-8f82-49cd483b6f29"},"vehicle_type_id":"4","last_reported":1701018338,"current_range_meters":30800,"station_id":"ce501612rcd8frsf0b60","pricing_plan_id":"free"},{"bike_id":"a5be7658-2bae-41a2-95e8-8d7354dfd92a","system_id":"levelo_inurba_marseille","lat":43.267959,"lon":5.402687,"is_reserved":false,"is_disabled":false,"rental_uris":{"android":"levelo://app?vid=a5be7658-2bae-41a2-95e8-8d7354dfd92a","ios":"levelo://app?vid=a5be7658-2bae-41a2-95e8-8d7354dfd92a"},"vehicle_type_id":"4","last_reported":1701018338,"current_range_meters":8000,"station_id":"ce501612rcd8frsf0b60","pricing_plan_id":"free"},{"bike_id":"f4f2e1d5-dafa-412d-9b3a-3611814786ce","system_id":"levelo_inurba_marseille","lat":43.298768,"lon":5.43643,"is_reserved":false,"is_disabled":false,"rental_uris":{"android":"levelo://app?vid=f4f2e1d5-dafa-412d-9b3a-3611814786ce","ios":"levelo://app?vid=f4f2e1d5-dafa-412d-9b3a-3611814786ce"},"vehicle_type_id":"4","last_reported":1701018338,"current_range_meters":31600,"station_id":"ce4bhpp2rcd13ifvqhfg","pricing_plan_id":"free"},{"bike_id":"7c5a83ac-336c-4b91-a5ea-82b3c6d6127d","system_id":"levelo_inurba_marseille","lat":43.298768,"lon":5.43643,"is_reserved":false,"is_disabled":false,"rental_uris":{"android":"levelo://app?vid=7c5a83ac-336c-4b91-a5ea-82b3c6d6127d","ios":"levelo://app?vid=7c5a83ac-336c-4b91-a5ea-82b3c6d6127d"},"vehicle_type_id":"4","last_reported":1701018338,"current_range_meters":32000,"station_id":"ce4bhpp2rcd13ifvqhfg","pricing_plan_id":"free"},{"bike_id":"9a5ca6f0-6f31-4d5e-bf3e-7f028d92f2c5","system_id":"levelo_inurba_marseille","lat":43.298768,"lon":5.43643,"is_reserved":false,"is_disabled":false,"rental_uris":{"android":"levelo://app?vid=9a5ca6f0-6f31-4d5e-bf3e-7f028d92f2c5","ios":"levelo://app?vid=9a5ca6f0-6f31-4d5e-bf3e-7f028d92f2c5"},"vehicle_type_id":"4","last_reported":1701018338,"current_range_meters":24000,"station_id":"ce4bhpp2rcd13ifvqhfg","pricing_plan_id":"free"},{"bike_id":"3f341b3a-760d-4088-a3d9-99bad999f571","system_id":"levelo_inurba_marseille","lat":43.281548,"lon":5.42643,"is_reserved":false,"is_disabled":false,"rental_uris":{"android":"levelo://app?vid=3f341b3a-760d-4088-a3d9-99bad999f571","ios":"levelo://app?vid=3f341b3a-760d-4088-a3d9-99bad999f571"},"vehicle_type_id":"4","last_reported":1701018338,"current_range_meters":26800,"station_id":"ce4bhnh2rcd13ifvqgug","pricing_plan_id":"free"},{"bike_id":"24e48de2-b36d-4ce0-b98b-6f1ec8a9571a","system_id":"levelo_inurba_marseille","lat":43.281548,"lon":5.42643,"is_reserved":false,"is_disabled":false,"rental_uris":{"android":"levelo://app?vid=24e48de2-b36d-4ce0-b98b-6f1ec8a9571a","ios":"levelo://app?vid=24e48de2-b36d-4ce0-b98b-6f1ec8a9571a"},"vehicle_type_id":"4","last_reported":1701018338,"current_range_meters":23200,"station_id":"ce4bhnh2rcd13ifvqgug","pricing_plan_id":"free"},{"bike_id":"4bde6c20-2dbd-45f6-bbf4-21e9f766e141","system_id":"levelo_inurba_marseille","lat":43.281548,"lon":5.42643,"is_reserved":false,"is_disabled":false,"rental_uris":{"android":"levelo://app?vid=4bde6c20-2dbd-45f6-bbf4-21e9f766e141","ios":"levelo://app?vid=4bde6c20-2dbd-45f6-bbf4-21e9f766e141"},"vehicle_type_id":"4","last_reported":1701018338,"current_range_meters":6400,"station_id":"ce4bhnh2rcd13ifvqgug","pricing_plan_id":"free"},{"bike_id":"dd381bf3-38f3-4798-9f87-edc1c0e08dd5","system_id":"levelo_inurba_marseille","lat":43.281548,"lon":5.42643,"is_reserved":false,"is_disabled":false,"rental_uris":{"android":"levelo://app?vid=dd381bf3-38f3-4798-9f87-edc1c0e08dd5","ios":"levelo://app?vid=dd381bf3-38f3-4798-9f87-edc1c0e08dd5"},"vehicle_type_id":"4","last_reported":1701018338,"current_range_meters":17200,"station_id":"ce4bhnh2rcd13ifvqgug","pricing_plan_id":"free"},{"bike_id":"cbe7df3a-b52e-4c62-926a-cee5e8f59a14","system_id":"levelo_inurba_marseille","lat":43.2607,"lon":5.393983,"is_reserved":false,"is_disabled":false,"rental_uris":{"android":"levelo://app?vid=cbe7df3a-b52e-4c62-926a-cee5e8f59a14","ios":"levelo://app?vid=cbe7df3a-b52e-4c62-926a-cee5e8f59a14"},"vehicle_type_id":"4","last_reported":1701018338,"current_range_meters":20800,"station_id":"ce4bhh92rcd13ifvqfj0","pricing_plan_id":"free"},{"bike_id":"b859eb4b-2894-429c-8664-6dc18018acc9","system_id":"levelo_inurba_marseille","lat":43.2607,"lon":5.393983,"is_reserved":false,"is_disabled":false,"rental_uris":{"android":"levelo://app?vid=b859eb4b-2894-429c-8664-6dc18018acc9","ios":"levelo://app?vid=b859eb4b-2894-429c-8664-6dc18018acc9"},"vehicle_type_id":"4","last_reported":1701018338,"current_range_meters":25200,"station_id":"ce4bhh92rcd13ifvqfj0","pricing_plan_id":"free"},{"bike_id":"47f4f29e-d916-4492-8f8d-c58eba9e9c12","system_id":"levelo_inurba_marseille","lat":43.2607,"lon":5.393983,"is_reserved":false,"is_disabled":false,"rental_uris":{"android":"levelo://app?vid=47f4f29e-d916-4492-8f8d-c58eba9e9c12","ios":"levelo://app?vid=47f4f29e-d916-4492-8f8d-c58eba9e9c12"},"vehicle_type_id":"4","last_reported":1701018338,"current_range_meters":29600,"station_id":"ce4bhh92rcd13ifvqfj0","pricing_plan_id":"free"},{"bike_id":"956d23ad-05a7-4e8c-b2fa-74354cc1fd48","system_id":"levelo_inurba_marseille","lat":43.2607,"lon":5.393983,"is_reserved":false,"is_disabled":false,"rental_uris":{"android":"levelo://app?vid=956d23ad-05a7-4e8c-b2fa-74354cc1fd48","ios":"levelo://app?vid=956d23ad-05a7-4e8c-b2fa-74354cc1fd48"},"vehicle_type_id":"4","last_reported":1701018338,"current_range_meters":28800,"station_id":"ce4bhh92rcd13ifvqfj0","pricing_plan_id":"free"},{"bike_id":"c85f7616-3a9e-47a4-ae16-28a03e51ab4f","system_id":"levelo_inurba_marseille","lat":43.28929,"lon":5.438754,"is_reserved":false,"is_disabled":false,"rental_uris":{"android":"levelo://app?vid=c85f7616-3a9e-47a4-ae16-28a03e51ab4f","ios":"levelo://app?vid=c85f7616-3a9e-47a4-ae16-28a03e51ab4f"},"vehicle_type_id":"4","last_reported":1701018338,"current_range_meters":8400,"station_id":"","pricing_plan_id":"free"},{"bike_id":"c9f2b3f8-5e82-4dcb-a514-0009dca3b716","system_id":"levelo_inurba_marseille","lat":43.25578,"lon":5.38239,"is_reserved":false,"is_disabled":false,"rental_uris":{"android":"levelo://app?vid=c9f2b3f8-5e82-4dcb-a514-0009dca3b716","ios":"levelo://app?vid=c9f2b3f8-5e82-4dcb-a514-0009dca3b716"},"vehicle_type_id":"4","last_reported":1701018338,"current_range_meters":0,"station_id":"ce4bhih2rcd13ifvqfs0","pricing_plan_id":"free"},{"bike_id":"bb03d128-ef00-4706-a798-f82ccd3fae64","system_id":"levelo_inurba_marseille","lat":43.25572,"lon":5.38233,"is_reserved":false,"is_disabled":false,"rental_uris":{"android":"levelo://app?vid=bb03d128-ef00-4706-a798-f82ccd3fae64","ios":"levelo://app?vid=bb03d128-ef00-4706-a798-f82ccd3fae64"},"vehicle_type_id":"4","last_reported":1701018338,"current_range_meters":2000,"station_id":"ce4bhih2rcd13ifvqfs0","pricing_plan_id":"free"},{"bike_id":"abc628a8-a829-42dd-b48a-b842424a3b57","system_id":"levelo_inurba_marseille","lat":43.258224,"lon":5.394369,"is_reserved":false,"is_disabled":false,"rental_uris":{"android":"levelo://app?vid=abc628a8-a829-42dd-b48a-b842424a3b57","ios":"levelo://app?vid=abc628a8-a829-42dd-b48a-b842424a3b57"},"vehicle_type_id":"4","last_reported":1701018338,"current_range_meters":31200,"station_id":"ce4bhip2rcd13ifvqft0","pricing_plan_id":"free"},{"bike_id":"d8b8d77e-9d4d-4560-b8c1-6acace9e4394","system_id":"levelo_inurba_marseille","lat":43.25571,"lon":5.38246,"is_reserved":false,"is_disabled":false,"rental_uris":{"android":"levelo://app?vid=d8b8d77e-9d4d-4560-b8c1-6acace9e4394","ios":"levelo://app?vid=d8b8d77e-9d4d-4560-b8c1-6acace9e4394"},"vehicle_type_id":"4","last_reported":1701018338,"current_range_meters":31200,"station_id":"ce4bhih2rcd13ifvqfs0","pricing_plan_id":"free"},{"bike_id":"6582409c-d873-401f-add5-3cf9c1daa940","system_id":"levelo_inurba_marseille","lat":43.254947,"lon":5.376454,"is_reserved":false,"is_disabled":false,"rental_uris":{"android":"levelo://app?vid=6582409c-d873-401f-add5-3cf9c1daa940","ios":"levelo://app?vid=6582409c-d873-401f-add5-3cf9c1daa940"},"vehicle_type_id":"4","last_reported":1701018338,"current_range_meters":10000,"station_id":"ce4bhh12rcd13ifvqff0","pricing_plan_id":"free"},{"bike_id":"fdb6d0f6-5744-460a-8a10-7efd583a34ff","system_id":"levelo_inurba_marseille","lat":43.25491,"lon":5.37651,"is_reserved":false,"is_disabled":false,"rental_uris":{"android":"levelo://app?vid=fdb6d0f6-5744-460a-8a10-7efd583a34ff","ios":"levelo://app?vid=fdb6d0f6-5744-460a-8a10-7efd583a34ff"},"vehicle_type_id":"4","last_reported":1701018338,"current_range_meters":27200,"station_id":"ce4bhh12rcd13ifvqff0","pricing_plan_id":"free"},{"bike_id":"fa94e1b3-924d-484c-aa3a-070aacbdbbfd","system_id":"levelo_inurba_marseille","lat":43.27066,"lon":5.42272,"is_reserved":false,"is_disabled":false,"rental_uris":{"android":"levelo://app?vid=fa94e1b3-924d-484c-aa3a-070aacbdbbfd","ios":"levelo://app?vid=fa94e1b3-924d-484c-aa3a-070aacbdbbfd"},"vehicle_type_id":"4","last_reported":1701018338,"current_range_meters":28400,"station_id":"ce4bhk92rcd13ifvqgb0","pricing_plan_id":"free"},{"bike_id":"3764d48b-8e61-4222-bf2f-e0a7f6536aa8","system_id":"levelo_inurba_marseille","lat":43.27064,"lon":5.42274,"is_reserved":false,"is_disabled":false,"rental_uris":{"android":"levelo://app?vid=3764d48b-8e61-4222-bf2f-e0a7f6536aa8","ios":"levelo://app?vid=3764d48b-8e61-4222-bf2f-e0a7f6536aa8"},"vehicle_type_id":"4","last_reported":1701018338,"current_range_meters":29200,"station_id":"ce4bhk92rcd13ifvqgb0","pricing_plan_id":"free"},{"bike_id":"2fe108bb-34ec-4d55-a017-f8b460872c4b","system_id":"levelo_inurba_marseille","lat":43.270721,"lon":5.422764,"is_reserved":false,"is_disabled":false,"rental_uris":{"android":"levelo://app?vid=2fe108bb-34ec-4d55-a017-f8b460872c4b","ios":"levelo://app?vid=2fe108bb-34ec-4d55-a017-f8b460872c4b"},"vehicle_type_id":"4","last_reported":1701018338,"current_range_meters":29200,"station_id":"ce4bhk92rcd13ifvqgb0","pricing_plan_id":"free"},{"bike_id":"50c0c05e-8b46-4cec-ac3a-7160dcbfd7be","system_id":"levelo_inurba_marseille","lat":43.258658,"lon":5.398935,"is_reserved":false,"is_disabled":false,"rental_uris":{"android":"levelo://app?vid=50c0c05e-8b46-4cec-ac3a-7160dcbfd7be","ios":"levelo://app?vid=50c0c05e-8b46-4cec-ac3a-7160dcbfd7be"},"vehicle_type_id":"4","last_reported":1701018338,"current_range_meters":22000,"station_id":"ce4bhl92rcd13ifvqghg","pricing_plan_id":"free"},{"bike_id":"23688042-04a3-41ce-8402-7680d754251a","system_id":"levelo_inurba_marseille","lat":43.259013,"lon":5.409301,"is_reserved":false,"is_disabled":false,"rental_uris":{"android":"levelo://app?vid=23688042-04a3-41ce-8402-7680d754251a","ios":"levelo://app?vid=23688042-04a3-41ce-8402-7680d754251a"},"vehicle_type_id":"4","last_reported":1701018338,"current_range_meters":7200,"station_id":"ce4bhm92rcd13ifvqglg","pricing_plan_id":"free"},{"bike_id":"e9b6a1d5-c740-405d-a6f8-282eec5a3660","system_id":"levelo_inurba_marseille","lat":43.25729,"lon":5.41106,"is_reserved":false,"is_disabled":false,"rental_uris":{"android":"levelo://app?vid=e9b6a1d5-c740-405d-a6f8-282eec5a3660","ios":"levelo://app?vid=e9b6a1d5-c740-405d-a6f8-282eec5a3660"},"vehicle_type_id":"4","last_reported":1701018338,"current_range_meters":15600,"station_id":"ce4bhkp2rcd13ifvqgd0","pricing_plan_id":"free"},{"bike_id":"fc870209-5aff-4dd1-ae31-9b5847a2d23c","system_id":"levelo_inurba_marseille","lat":43.257079,"lon":5.411051,"is_reserved":false,"is_disabled":false,"rental_uris":{"android":"levelo://app?vid=fc870209-5aff-4dd1-ae31-9b5847a2d23c","ios":"levelo://app?vid=fc870209-5aff-4dd1-ae31-9b5847a2d23c"},"vehicle_type_id":"4","last_reported":1701018338,"current_range_meters":18400,"station_id":"ce4bhkp2rcd13ifvqgd0","pricing_plan_id":"free"},{"bike_id":"543aa29a-345d-44be-9327-080150278834","system_id":"levelo_inurba_marseille","lat":43.257079,"lon":5.411051,"is_reserved":false,"is_disabled":false,"rental_uris":{"android":"levelo://app?vid=543aa29a-345d-44be-9327-080150278834","ios":"levelo://app?vid=543aa29a-345d-44be-9327-080150278834"},"vehicle_type_id":"4","last_reported":1701018338,"current_range_meters":31200,"station_id":"ce4bhkp2rcd13ifvqgd0","pricing_plan_id":"free"},{"bike_id":"7d07d8f8-2525-4618-9974-5a4e19894521","system_id":"levelo_inurba_marseille","lat":43.257079,"lon":5.411051,"is_reserved":false,"is_disabled":false,"rental_uris":{"android":"levelo://app?vid=7d07d8f8-2525-4618-9974-5a4e19894521","ios":"levelo://app?vid=7d07d8f8-2525-4618-9974-5a4e19894521"},"vehicle_type_id":"4","last_reported":1701018338,"current_range_meters":29200,"station_id":"ce4bhkp2rcd13ifvqgd0","pricing_plan_id":"free"},{"bike_id":"b3c7c365-e2e2-4c34-95dd-1d2bc661a53c","system_id":"levelo_inurba_marseille","lat":43.250009,"lon":5.389195,"is_reserved":false,"is_disabled":false,"rental_uris":{"android":"levelo://app?vid=b3c7c365-e2e2-4c34-95dd-1d2bc661a53c","ios":"levelo://app?vid=b3c7c365-e2e2-4c34-95dd-1d2bc661a53c"},"vehicle_type_id":"4","last_reported":1701018338,"current_range_meters":17600,"station_id":"ce4bhgp2rcd13ifvqfd0","pricing_plan_id":"free"},{"bike_id":"a3db2d3f-7cb8-4611-8b38-01ed171cfc8d","system_id":"levelo_inurba_marseille","lat":43.250009,"lon":5.389195,"is_reserved":false,"is_disabled":false,"rental_uris":{"android":"levelo://app?vid=a3db2d3f-7cb8-4611-8b38-01ed171cfc8d","ios":"levelo://app?vid=a3db2d3f-7cb8-4611-8b38-01ed171cfc8d"},"vehicle_type_id":"4","last_reported":1701018338,"current_range_meters":20800,"station_id":"ce4bhgp2rcd13ifvqfd0","pricing_plan_id":"free"},{"bike_id":"21e75d00-8156-4063-a5a2-0428cfc125a8","system_id":"levelo_inurba_marseille","lat":43.24811,"lon":5.37459,"is_reserved":false,"is_disabled":false,"rental_uris":{"android":"levelo://app?vid=21e75d00-8156-4063-a5a2-0428cfc125a8","ios":"levelo://app?vid=21e75d00-8156-4063-a5a2-0428cfc125a8"},"vehicle_type_id":"4","last_reported":1701018338,"current_range_meters":30800,"station_id":"ce4bhgh2rcd13ifvqfb0","pricing_plan_id":"free"},{"bike_id":"17cda368-0fb1-4b41-80d7-a22bc06fc1a8","system_id":"levelo_inurba_marseille","lat":43.2479,"lon":5.374457,"is_reserved":false,"is_disabled":false,"rental_uris":{"android":"levelo://app?vid=17cda368-0fb1-4b41-80d7-a22bc06fc1a8","ios":"levelo://app?vid=17cda368-0fb1-4b41-80d7-a22bc06fc1a8"},"vehicle_type_id":"4","last_reported":1701018338,"current_range_meters":19200,"station_id":"ce4bhgh2rcd13ifvqfb0","pricing_plan_id":"free"},{"bike_id":"79a5ae71-c76c-4399-b25d-fe09e3864c72","system_id":"levelo_inurba_marseille","lat":43.24805,"lon":5.37456,"is_reserved":false,"is_disabled":false,"rental_uris":{"android":"levelo://app?vid=79a5ae71-c76c-4399-b25d-fe09e3864c72","ios":"levelo://app?vid=79a5ae71-c76c-4399-b25d-fe09e3864c72"},"vehicle_type_id":"4","last_reported":1701018338,"current_range_meters":15200,"station_id":"ce4bhgh2rcd13ifvqfb0","pricing_plan_id":"free"},{"bike_id":"1f0c50d3-0be5-4fcd-b12e-29cf21c31d91","system_id":"levelo_inurba_marseille","lat":43.2479,"lon":5.374457,"is_reserved":false,"is_disabled":false,"rental_uris":{"android":"levelo://app?vid=1f0c50d3-0be5-4fcd-b12e-29cf21c31d91","ios":"levelo://app?vid=1f0c50d3-0be5-4fcd-b12e-29cf21c31d91"},"vehicle_type_id":"4","last_reported":1701018338,"current_range_meters":30400,"station_id":"ce4bhgh2rcd13ifvqfb0","pricing_plan_id":"free"},{"bike_id":"4f0efb12-87f5-4d11-ad98-fe64cc7903d6","system_id":"levelo_inurba_marseille","lat":43.24805,"lon":5.37465,"is_reserved":false,"is_disabled":false,"rental_uris":{"android":"levelo://app?vid=4f0efb12-87f5-4d11-ad98-fe64cc7903d6","ios":"levelo://app?vid=4f0efb12-87f5-4d11-ad98-fe64cc7903d6"},"vehicle_type_id":"4","last_reported":1701018338,"current_range_meters":30400,"station_id":"ce4bhgh2rcd13ifvqfb0","pricing_plan_id":"free"},{"bike_id":"c98b5d95-31ff-44d5-888b-053d002d6be5","system_id":"levelo_inurba_marseille","lat":43.2479,"lon":5.374457,"is_reserved":false,"is_disabled":false,"rental_uris":{"android":"levelo://app?vid=c98b5d95-31ff-44d5-888b-053d002d6be5","ios":"levelo://app?vid=c98b5d95-31ff-44d5-888b-053d002d6be5"},"vehicle_type_id":"4","last_reported":1701018338,"current_range_meters":19600,"station_id":"ce4bhgh2rcd13ifvqfb0","pricing_plan_id":"free"},{"bike_id":"976642f9-07a6-42c1-98ea-3112272ce277","system_id":"levelo_inurba_marseille","lat":43.2479,"lon":5.374457,"is_reserved":false,"is_disabled":false,"rental_uris":{"android":"levelo://app?vid=976642f9-07a6-42c1-98ea-3112272ce277","ios":"levelo://app?vid=976642f9-07a6-42c1-98ea-3112272ce277"},"vehicle_type_id":"4","last_reported":1701018338,"current_range_meters":28800,"station_id":"ce4bhgh2rcd13ifvqfb0","pricing_plan_id":"free"},{"bike_id":"66739f60-8921-490b-8824-d05cf89b1172","system_id":"levelo_inurba_marseille","lat":43.250897,"lon":5.395161,"is_reserved":false,"is_disabled":false,"rental_uris":{"android":"levelo://app?vid=66739f60-8921-490b-8824-d05cf89b1172","ios":"levelo://app?vid=66739f60-8921-490b-8824-d05cf89b1172"},"vehicle_type_id":"4","last_reported":1701018338,"current_range_meters":23600,"station_id":"ce4bhm12rcd13ifvqgkg","pricing_plan_id":"free"},{"bike_id":"d098be36-e087-470b-a84c-37eb8e051cb0","system_id":"levelo_inurba_marseille","lat":43.250966,"lon":5.395186,"is_reserved":false,"is_disabled":false,"rental_uris":{"android":"levelo://app?vid=d098be36-e087-470b-a84c-37eb8e051cb0","ios":"levelo://app?vid=d098be36-e087-470b-a84c-37eb8e051cb0"},"vehicle_type_id":"4","last_reported":1701018338,"current_range_meters":27600,"station_id":"ce4bhm12rcd13ifvqgkg","pricing_plan_id":"free"},{"bike_id":"3643499a-993b-4e15-b4b9-f571e6c950ca","system_id":"levelo_inurba_marseille","lat":43.24693,"lon":5.382096,"is_reserved":false,"is_disabled":false,"rental_uris":{"android":"levelo://app?vid=3643499a-993b-4e15-b4b9-f571e6c950ca","ios":"levelo://app?vid=3643499a-993b-4e15-b4b9-f571e6c950ca"},"vehicle_type_id":"4","last_reported":1701018338,"current_range_meters":18400,"station_id":"ce4bhih2rcd13ifvqfr0","pricing_plan_id":"free"},{"bike_id":"8877bff2-8f30-4ace-b9f5-1ea132d2ed9c","system_id":"levelo_inurba_marseille","lat":43.24693,"lon":5.382096,"is_reserved":false,"is_disabled":false,"rental_uris":{"android":"levelo://app?vid=8877bff2-8f30-4ace-b9f5-1ea132d2ed9c","ios":"levelo://app?vid=8877bff2-8f30-4ace-b9f5-1ea132d2ed9c"},"vehicle_type_id":"4","last_reported":1701018338,"current_range_meters":20000,"station_id":"ce4bhih2rcd13ifvqfr0","pricing_plan_id":"free"},{"bike_id":"190da73c-a06a-4a47-9763-efe11c5345c5","system_id":"levelo_inurba_marseille","lat":43.25102,"lon":5.403214,"is_reserved":false,"is_disabled":false,"rental_uris":{"android":"levelo://app?vid=190da73c-a06a-4a47-9763-efe11c5345c5","ios":"levelo://app?vid=190da73c-a06a-4a47-9763-efe11c5345c5"},"vehicle_type_id":"4","last_reported":1701018338,"current_range_meters":28800,"station_id":"ce4bhlh2rcd13ifvqgig","pricing_plan_id":"free"},{"bike_id":"6c11779b-604a-46dd-bd48-42d55d02602f","system_id":"levelo_inurba_marseille","lat":43.246569,"lon":5.381661,"is_reserved":false,"is_disabled":false,"rental_uris":{"android":"levelo://app?vid=6c11779b-604a-46dd-bd48-42d55d02602f","ios":"levelo://app?vid=6c11779b-604a-46dd-bd48-42d55d02602f"},"vehicle_type_id":"4","last_reported":1701018338,"current_range_meters":23600,"station_id":"","pricing_plan_id":"free"},{"bike_id":"5d59ecd2-c64e-4c3e-96d5-74e61ba11cdb","system_id":"levelo_inurba_marseille","lat":43.25099,"lon":5.40332,"is_reserved":false,"is_disabled":false,"rental_uris":{"android":"levelo://app?vid=5d59ecd2-c64e-4c3e-96d5-74e61ba11cdb","ios":"levelo://app?vid=5d59ecd2-c64e-4c3e-96d5-74e61ba11cdb"},"vehicle_type_id":"4","last_reported":1701018338,"current_range_meters":30000,"station_id":"ce4bhlh2rcd13ifvqgig","pricing_plan_id":"free"},{"bike_id":"5a6836a4-c7bf-435f-baba-7af1be553b35","system_id":"levelo_inurba_marseille","lat":43.245581,"lon":5.395069,"is_reserved":false,"is_disabled":false,"rental_uris":{"android":"levelo://app?vid=5a6836a4-c7bf-435f-baba-7af1be553b35","ios":"levelo://app?vid=5a6836a4-c7bf-435f-baba-7af1be553b35"},"vehicle_type_id":"4","last_reported":1701018338,"current_range_meters":2400,"station_id":"ce4bhlp2rcd13ifvqgjg","pricing_plan_id":"free"},{"bike_id":"b29dfda8-f720-4aab-afc1-f634e6d91320","system_id":"levelo_inurba_marseille","lat":43.245581,"lon":5.395069,"is_reserved":false,"is_disabled":false,"rental_uris":{"android":"levelo://app?vid=b29dfda8-f720-4aab-afc1-f634e6d91320","ios":"levelo://app?vid=b29dfda8-f720-4aab-afc1-f634e6d91320"},"vehicle_type_id":"4","last_reported":1701018338,"current_range_meters":31200,"station_id":"ce4bhlp2rcd13ifvqgjg","pricing_plan_id":"free"},{"bike_id":"ec6975e5-b4ef-4645-a84b-f878cf082c25","system_id":"levelo_inurba_marseille","lat":43.24079,"lon":5.37769,"is_reserved":false,"is_disabled":false,"rental_uris":{"android":"levelo://app?vid=ec6975e5-b4ef-4645-a84b-f878cf082c25","ios":"levelo://app?vid=ec6975e5-b4ef-4645-a84b-f878cf082c25"},"vehicle_type_id":"4","last_reported":1701018338,"current_range_meters":7200,"station_id":"ce4bhnp2rcd13ifvqgvg","pricing_plan_id":"free"},{"bike_id":"f5edbeb1-04c8-4cf0-a632-82a32063f204","system_id":"levelo_inurba_marseille","lat":43.240623,"lon":5.377642,"is_reserved":false,"is_disabled":false,"rental_uris":{"android":"levelo://app?vid=f5edbeb1-04c8-4cf0-a632-82a32063f204","ios":"levelo://app?vid=f5edbeb1-04c8-4cf0-a632-82a32063f204"},"vehicle_type_id":"4","last_reported":1701018338,"current_range_meters":25200,"station_id":"ce4bhnp2rcd13ifvqgvg","pricing_plan_id":"free"},{"bike_id":"63a2e802-ebdb-41e9-b332-a7bd0f994488","system_id":"levelo_inurba_marseille","lat":43.240623,"lon":5.377642,"is_reserved":false,"is_disabled":false,"rental_uris":{"android":"levelo://app?vid=63a2e802-ebdb-41e9-b332-a7bd0f994488","ios":"levelo://app?vid=63a2e802-ebdb-41e9-b332-a7bd0f994488"},"vehicle_type_id":"4","last_reported":1701018338,"current_range_meters":12000,"station_id":"ce4bhnp2rcd13ifvqgvg","pricing_plan_id":"free"},{"bike_id":"21bd2b51-1683-4e38-9d09-99c16e1be9e1","system_id":"levelo_inurba_marseille","lat":43.240623,"lon":5.377642,"is_reserved":false,"is_disabled":false,"rental_uris":{"android":"levelo://app?vid=21bd2b51-1683-4e38-9d09-99c16e1be9e1","ios":"levelo://app?vid=21bd2b51-1683-4e38-9d09-99c16e1be9e1"},"vehicle_type_id":"4","last_reported":1701018338,"current_range_meters":14400,"station_id":"ce4bhnp2rcd13ifvqgvg","pricing_plan_id":"free"},{"bike_id":"cad75d1d-0cce-4757-84fe-7e2770b7e46d","system_id":"levelo_inurba_marseille","lat":43.240623,"lon":5.377642,"is_reserved":false,"is_disabled":false,"rental_uris":{"android":"levelo://app?vid=cad75d1d-0cce-4757-84fe-7e2770b7e46d","ios":"levelo://app?vid=cad75d1d-0cce-4757-84fe-7e2770b7e46d"},"vehicle_type_id":"4","last_reported":1701018338,"current_range_meters":18000,"station_id":"ce4bhnp2rcd13ifvqgvg","pricing_plan_id":"free"},{"bike_id":"4b4badd5-ff1b-41fe-aa76-845a72303b71","system_id":"levelo_inurba_marseille","lat":43.239588,"lon":5.366238,"is_reserved":false,"is_disabled":false,"rental_uris":{"android":"levelo://app?vid=4b4badd5-ff1b-41fe-aa76-845a72303b71","ios":"levelo://app?vid=4b4badd5-ff1b-41fe-aa76-845a72303b71"},"vehicle_type_id":"4","last_reported":1701018338,"current_range_meters":14400,"station_id":"ce4bhi12rcd13ifvqfp0","pricing_plan_id":"free"},{"bike_id":"a27aa8ca-f8bf-40d0-a0ec-a5a93ed0d294","system_id":"levelo_inurba_marseille","lat":43.239588,"lon":5.366238,"is_reserved":false,"is_disabled":false,"rental_uris":{"android":"levelo://app?vid=a27aa8ca-f8bf-40d0-a0ec-a5a93ed0d294","ios":"levelo://app?vid=a27aa8ca-f8bf-40d0-a0ec-a5a93ed0d294"},"vehicle_type_id":"4","last_reported":1701018338,"current_range_meters":10800,"station_id":"ce4bhi12rcd13ifvqfp0","pricing_plan_id":"free"},{"bike_id":"40f2500b-9afe-4632-9168-89dc8772014f","system_id":"levelo_inurba_marseille","lat":43.241782,"lon":5.397261,"is_reserved":false,"is_disabled":false,"rental_uris":{"android":"levelo://app?vid=40f2500b-9afe-4632-9168-89dc8772014f","ios":"levelo://app?vid=40f2500b-9afe-4632-9168-89dc8772014f"},"vehicle_type_id":"4","last_reported":1701018338,"current_range_meters":31200,"station_id":"ce4bhn12rcd13ifvqgpg","pricing_plan_id":"free"},{"bike_id":"b03204fb-1ac1-4923-ba56-22eaa833dad5","system_id":"levelo_inurba_marseille","lat":43.24178,"lon":5.39729,"is_reserved":false,"is_disabled":false,"rental_uris":{"android":"levelo://app?vid=b03204fb-1ac1-4923-ba56-22eaa833dad5","ios":"levelo://app?vid=b03204fb-1ac1-4923-ba56-22eaa833dad5"},"vehicle_type_id":"4","last_reported":1701018338,"current_range_meters":22000,"station_id":"ce4bhn12rcd13ifvqgpg","pricing_plan_id":"free"},{"bike_id":"65b7ec81-6a3a-4ed8-958c-32f8556e89ad","system_id":"levelo_inurba_marseille","lat":43.231793,"lon":5.400044,"is_reserved":false,"is_disabled":false,"rental_uris":{"android":"levelo://app?vid=65b7ec81-6a3a-4ed8-958c-32f8556e89ad","ios":"levelo://app?vid=65b7ec81-6a3a-4ed8-958c-32f8556e89ad"},"vehicle_type_id":"4","last_reported":1701018338,"current_range_meters":28400,"station_id":"ce4bhn12rcd13ifvqgqg","pricing_plan_id":"free"},{"bike_id":"11257d2d-ead9-4af5-91a2-0ab2c7427312","system_id":"levelo_inurba_marseille","lat":43.231794,"lon":5.400052,"is_reserved":false,"is_disabled":false,"rental_uris":{"android":"levelo://app?vid=11257d2d-ead9-4af5-91a2-0ab2c7427312","ios":"levelo://app?vid=11257d2d-ead9-4af5-91a2-0ab2c7427312"},"vehicle_type_id":"4","last_reported":1701018338,"current_range_meters":27200,"station_id":"ce4bhn12rcd13ifvqgqg","pricing_plan_id":"free"}]}}