{"last_updated":1750771624,"ttl":60,"version":"2.2","data":{"bikes":[{"bike_id":"3da29fb8-fc97-44c6-b9ac-31dd456b2fd4","system_id":"levelo_inurba_marseille","lat":43.33771,"lon":5.37424,"is_reserved":false,"is_disabled":true,"rental_uris":{"android":"levelo://app?vid=3da29fb8-fc97-44c6-b9ac-31dd456b2fd4","ios":"levelo://app?vid=3da29fb8-fc97-44c6-b9ac-31dd456b2fd4"},"vehicle_type_id":"4","last_reported":1750771624,"current_range_meters":0,"station_id":"","pricing_plan_id":"cebpf4jnsgd1na2vs0mg"},{"bike_id":"01861ad8-a8d7-4be6-816e-651927c87584","system_id":"levelo_inurba_marseille","lat":43.33751,"lon":5.37456,"is_reserved":false,"is_disabled":true,"rental_uris":{"android":"levelo://app?vid=01861ad8-a8d7-4be6-816e-651927c87584","ios":"levelo://app?vid=01861ad8-a8d7-4be6-816e-651927c87584"},"vehicle_type_id":"4","last_reported":1750771624,"current_range_meters":0,"station_id":"","pricing_plan_id":"cebpf4jnsgd1na2vs0mg"},{"bike_id":"f0a1d594-9817-42ab-a8d6-aea4947e8858","system_id":"levelo_inurba_marseille","lat":43.28812,"lon":5.43414,"is_reserved":false,"is_disabled":true,"rental_uris":{"android":"levelo://app?vid=f0a1d594-9817-42ab-a8d6-aea4947e8858","ios":"levelo://app?vid=f0a1d594-9817-42ab-a8d6-aea4947e8858"},"vehicle_type_id":"4","last_reported":1750771624,"current_range_meters":0,"station_id":"","pricing_plan_id":"cebpf4jnsgd1na2vs0mg"},{"bike_id":"62a493c7-4534-4419-ad43-0582de34a72a","system_id":"levelo_inurba_marseille","lat":43.21366,"lon":5.355183,"is_reserved":false,"is_disabled":true,"rental_uris":{"android":"levelo://app?vid=62a493c7-4534-4419-ad43-0582de34a72a","ios":"levelo://app?vid=62a493c7-4534-4419-ad43-0582de34a72a"},"vehicle_type_id":"4","last_reported":1750771624,"current_range_meters":0,"station_id":"","pricing_plan_id":"cebpf4jnsgd1na2vs0mg"},{"bike_id":"139d47bd-ff87-42d8-a4c6-89da4be6f80c","system_id":"levelo_inurba_marseille","lat":43.27962,"lon":5.44252,"is_reserved":false,"is_disabled":true,"rental_uris":{"android":"levelo://app?vid=139d47bd-ff87-42d8-a4c6-89da4be6f80c","ios":"levelo://app?vid=139d47bd-ff87-42d8-a4c6-89da4be6f80c"},"vehicle_type_id":"4","last_reported":1750771624,"current_range_meters":0,"station_id":"","pricing_plan_id":"cebpf4jnsgd1na2vs0mg"},{"bike_id":"d07b07aa-5732-4368-b606-c642421b7603","system_id":"levelo_inurba_marseille","lat":43.34336,"lon":5.34906,"is_reserved":false,"is_disabled":true,"rental_uris":{"android":"levelo://app?vid=d07b07aa-5732-4368-b606-c642421b7603","ios":"levelo://app?vid=d07b07aa-5732-4368-b606-c642421b7603"},"vehicle_type_id":"4","last_reported":1750771624,"current_range_meters":0,"station_id":"","pricing_plan_id":"cebpf4jnsgd1na2vs0mg"},{"bike_id":"d6ce388f-ca76-4c7c-9e3f-e6b4d12862f1","system_id":"levelo_inurba_marseille","lat":43.24537,"lon":5.41456,"is_reserved":false,"is_disabled":true,"rental_uris":{"android":"levelo://app?vid=d6ce388f-ca76-4c7c-9e3f-e6b4d12862f1","ios":"levelo://app?vid=d6ce388f-ca76-4c7c-9e3f-e6b4d12862f1"},"vehicle_type_id":"4","last_reported":1750771624,"current_range_meters":0,"station_id":"","pricing_plan_id":"cebpf4jnsgd1na2vs0mg"},{"bike_id":"89746c56-7ee6-49e4-8ab7-922eef7ad7da","system_id":"levelo_inurba_marseille","lat":43.29594,"lon":5.40653,"is_reserved":false,"is_disabled":true,"rental_uris":{"android":"levelo://app?vid=89746c56-7ee6-49e4-8ab7-922eef7ad7da","ios":"levelo://app?vid=89746c56-7ee6-49e4-8ab7-922eef7ad7da"},"vehicle_type_id":"4","last_reported":1750771624,"current_range_meters":0,"station_id":"","pricing_plan_id":"cebpf4jnsgd1na2vs0mg"},{"bike_id":"3a3a1818-f20a-442b-bfcf-0e0a18008f43","system_id":"levelo_inurba_marseille","lat":43.26612,"lon":5.37491,"is_reserved":false,"is_disabled":true,"rental_uris":{"android":"levelo://app?vid=3a3a1818-f20a-442b-bfcf-0e0a18008f43","ios":"levelo://app?vid=3a3a1818-f20a-442b-bfcf-0e0a18008f43"},"vehicle_type_id":"4","last_reported":1750771624,"current_range_meters":0,"station_id":"","pricing_plan_id":"cebpf4jnsgd1na2vs0mg"},{"bike_id":"11d160d1-34e0-4ce8-9789-9603b74a4446","system_id":"levelo_inurba_marseille","lat":43.32706,"lon":5.37483,"is_reserved":false,"is_disabled":true,"rental_uris":{"android":"levelo://app?vid=11d160d1-34e0-4ce8-9789-9603b74a4446","ios":"levelo://app?vid=11d160d1-34e0-4ce8-9789-9603b74a4446"},"vehicle_type_id":"4","last_reported":1750771624,"current_range_meters":0,"station_id":"","pricing_plan_id":"cebpf4jnsgd1na2vs0mg"},{"bike_id":"d6609b4f-333b-43c1-9ebe-8726f5e76e88","system_id":"levelo_inurba_marseille","lat":43.337444,"lon":5.374475,"is_reserved":false,"is_disabled":true,"rental_uris":{"android":"levelo://app?vid=d6609b4f-333b-43c1-9ebe-8726f5e76e88","ios":"levelo://app?vid=d6609b4f-333b-43c1-9ebe-8726f5e76e88"},"vehicle_type_id":"4","last_reported":1750771624,"current_range_meters":0,"station_id":"","pricing_plan_id":"cebpf4jnsgd1na2vs0mg"},{"bike_id":"9cb193d0-906b-4ac2-85c5-eea810b1d20f","system_id":"levelo_inurba_marseille","lat":43.29403,"lon":5.43183,"is_reserved":false,"is_disabled":true,"rental_uris":{"android":"levelo://app?vid=9cb193d0-906b-4ac2-85c5-eea810b1d20f","ios":"levelo://app?vid=9cb193d0-906b-4ac2-85c5-eea810b1d20f"},"vehicle_type_id":"4","last_reported":1750771624,"current_range_meters":0,"station_id":"","pricing_plan_id":"cebpf4jnsgd1na2vs0mg"},{"bike_id":"bd17737b-22d2-4e4f-88e8-4eb661d864c4","system_id":"levelo_inurba_marseille","lat":43.29182,"lon":5.46078,"is_reserved":false,"is_disabled":true,"rental_uris":{"android":"levelo://app?vid=bd17737b-22d2-4e4f-88e8-4eb661d864c4","ios":"levelo://app?vid=bd17737b-22d2-4e4f-88e8-4eb661d864c4"},"vehicle_type_id":"4","last_reported":1750771624,"current_range_meters":0,"station_id":"","pricing_plan_id":"cebpf4jnsgd1na2vs0mg"},{"bike_id":"3d07ef76-af52-42e0-81f1-5f4963c9ee29","system_id":"levelo_inurba_marseille","lat":43.294701,"lon":5.438349,"is_reserved":false,"is_disabled":true,"rental_uris":{"android":"levelo://app?vid=3d07ef76-af52-42e0-81f1-5f4963c9ee29","ios":"levelo://app?vid=3d07ef76-af52-42e0-81f1-5f4963c9ee29"},"vehicle_type_id":"4","last_reported":1750771624,"current_range_meters":0,"station_id":"","pricing_plan_id":"cebpf4jnsgd1na2vs0mg"},{"bike_id":"0c86cdad-b64a-47bf-ba91-5b398064181c","system_id":"levelo_inurba_marseille","lat":43.384196,"lon":5.358629,"is_reserved":false,"is_disabled":true,"rental_uris":{"android":"levelo://app?vid=0c86cdad-b64a-47bf-ba91-5b398064181c","ios":"levelo://app?vid=0c86cdad-b64a-47bf-ba91-5b398064181c"},"vehicle_type_id":"4","last_reported":1750771624,"current_range_meters":0,"station_id":"","pricing_plan_id":"cebpf4jnsgd1na2vs0mg"},{"bike_id":"9a0444bd-8b32-4243-8099-971bb043bb1f","system_id":"levelo_inurba_marseille","lat":43.30848,"lon":5.38174,"is_reserved":false,"is_disabled":true,"rental_uris":{"android":"levelo://app?vid=9a0444bd-8b32-4243-8099-971bb043bb1f","ios":"levelo://app?vid=9a0444bd-8b32-4243-8099-971bb043bb1f"},"vehicle_type_id":"4","last_reported":1750771624,"current_range_meters":0,"station_id":"","pricing_plan_id":"cebpf4jnsgd1na2vs0mg"},{"bike_id":"a6e69e00-9c0a-4230-ba76-ca01ecf1f970","system_id":"levelo_inurba_marseille","lat":43.29963,"lon":5.38497,"is_reserved":false,"is_disabled":true,"rental_uris":{"android":"levelo://app?vid=a6e69e00-9c0a-4230-ba76-ca01ecf1f970","ios":"levelo://app?vid=a6e69e00-9c0a-4230-ba76-ca01ecf1f970"},"vehicle_type_id":"4","last_reported":1750771624,"current_range_meters":0,"station_id":"ce4bgj92rcd13ifvqbd0","pricing_plan_id":"cebpf4jnsgd1na2vs0mg"},{"bike_id":"a704e52d-2c82-4ce8-b293-7a9f861b86a5","system_id":"levelo_inurba_marseille","lat":43.2972,"lon":5.37677,"is_reserved":false,"is_disabled":true,"rental_uris":{"android":"levelo://app?vid=a704e52d-2c82-4ce8-b293-7a9f861b86a5","ios":"levelo://app?vid=a704e52d-2c82-4ce8-b293-7a9f861b86a5"},"vehicle_type_id":"4","last_reported":1750771624,"current_range_meters":0,"station_id":"ce4bgkh2rcd13ifvqbl0","pricing_plan_id":"cebpf4jnsgd1na2vs0mg"},{"bike_id":"6aedfa7f-5ffa-4bfa-b8ed-d00ec3be673e","system_id":"levelo_inurba_marseille","lat":43.30957,"lon":5.39027,"is_reserved":false,"is_disabled":true,"rental_uris":{"android":"levelo://app?vid=6aedfa7f-5ffa-4bfa-b8ed-d00ec3be673e","ios":"levelo://app?vid=6aedfa7f-5ffa-4bfa-b8ed-d00ec3be673e"},"vehicle_type_id":"4","last_reported":1750771624,"current_range_meters":0,"station_id":"ce4bgup2rcd13ifvqco0","pricing_plan_id":"cebpf4jnsgd1na2vs0mg"},{"bike_id":"4a6ed2df-b59f-46d2-8e77-2a06604d607b","system_id":"levelo_inurba_marseille","lat":43.31064,"lon":5.38352,"is_reserved":false,"is_disabled":true,"rental_uris":{"android":"levelo://app?vid=4a6ed2df-b59f-46d2-8e77-2a06604d607b","ios":"levelo://app?vid=4a6ed2df-b59f-46d2-8e77-2a06604d607b"},"vehicle_type_id":"4","last_reported":1750771624,"current_range_meters":0,"station_id":"ce4bgv92rcd13ifvqcr0","pricing_plan_id":"cebpf4jnsgd1na2vs0mg"},{"bike_id":"87961d0c-e178-41be-a9fd-c9ae443fa961","system_id":"levelo_inurba_marseille","lat":43.29412,"lon":5.38631,"is_reserved":false,"is_disabled":true,"rental_uris":{"android":"levelo://app?vid=87961d0c-e178-41be-a9fd-c9ae443fa961","ios":"levelo://app?vid=87961d0c-e178-41be-a9fd-c9ae443fa961"},"vehicle_type_id":"4","last_reported":1750771624,"current_range_meters":0,"station_id":"ce4bh2h2rcd13ifvqdh0","pricing_plan_id":"cebpf4jnsgd1na2vs0mg"},{"bike_id":"d3418ef7-03f7-4086-a823-7898a4722cf9","system_id":"levelo_inurba_marseille","lat":43.29517,"lon":5.39035,"is_reserved":false,"is_disabled":true,"rental_uris":{"android":"levelo://app?vid=d3418ef7-03f7-4086-a823-7898a4722cf9","ios":"levelo://app?vid=d3418ef7-03f7-4086-a823-7898a4722cf9"},"vehicle_type_id":"4","last_reported":1750771624,"current_range_meters":0,"station_id":"ce4bh3p2rcd13ifvqdp0","pricing_plan_id":"cebpf4jnsgd1na2vs0mg"},{"bike_id":"c4a21c70-48e7-4d5f-ad89-8b3272526dd3","system_id":"levelo_inurba_marseille","lat":43.28707,"lon":5.374,"is_reserved":false,"is_disabled":true,"rental_uris":{"android":"levelo://app?vid=c4a21c70-48e7-4d5f-ad89-8b3272526dd3","ios":"levelo://app?vid=c4a21c70-48e7-4d5f-ad89-8b3272526dd3"},"vehicle_type_id":"4","last_reported":1750771624,"current_range_meters":0,"station_id":"ce4bh3p2rcd13ifvqdq0","pricing_plan_id":"cebpf4jnsgd1na2vs0mg"},{"bike_id":"caa82dc5-ed9c-424b-9374-82b980a3d5bc","system_id":"levelo_inurba_marseille","lat":43.29261,"lon":5.38431,"is_reserved":false,"is_disabled":true,"rental_uris":{"android":"levelo://app?vid=caa82dc5-ed9c-424b-9374-82b980a3d5bc","ios":"levelo://app?vid=caa82dc5-ed9c-424b-9374-82b980a3d5bc"},"vehicle_type_id":"4","last_reported":1750771624,"current_range_meters":0,"station_id":"ce4bh692rcd13ifvqea0","pricing_plan_id":"cebpf4jnsgd1na2vs0mg"},{"bike_id":"e70c11dc-291d-439d-ab2d-b164f3000389","system_id":"levelo_inurba_marseille","lat":43.29225,"lon":5.36064,"is_reserved":false,"is_disabled":true,"rental_uris":{"android":"levelo://app?vid=e70c11dc-291d-439d-ab2d-b164f3000389","ios":"levelo://app?vid=e70c11dc-291d-439d-ab2d-b164f3000389"},"vehicle_type_id":"4","last_reported":1750771624,"current_range_meters":0,"station_id":"ce4bhbh2rcd13ifvqeqg","pricing_plan_id":"cebpf4jnsgd1na2vs0mg"},{"bike_id":"7ddb5384-6eb7-494e-8b8a-ef0139ad56d7","system_id":"levelo_inurba_marseille","lat":43.29221,"lon":5.36074,"is_reserved":false,"is_disabled":true,"rental_uris":{"android":"levelo://app?vid=7ddb5384-6eb7-494e-8b8a-ef0139ad56d7","ios":"levelo://app?vid=7ddb5384-6eb7-494e-8b8a-ef0139ad56d7"},"vehicle_type_id":"4","last_reported":1750771624,"current_range_meters":0,"station_id":"ce4bhbh2rcd13ifvqeqg","pricing_plan_id":"cebpf4jnsgd1na2vs0mg"},{"bike_id":"e2842df6-a6b2-44ea-998f-7476a69987b8","system_id":"levelo_inurba_marseille","lat":43.28263,"lon":5.3505,"is_reserved":false,"is_disabled":true,"rental_uris":{"android":"levelo://app?vid=e2842df6-a6b2-44ea-998f-7476a69987b8","ios":"levelo://app?vid=e2842df6-a6b2-44ea-998f-7476a69987b8"},"vehicle_type_id":"4","last_reported":1750771624,"current_range_meters":0,"station_id":"ce4bhbp2rcd13ifvqerg","pricing_plan_id":"cebpf4jnsgd1na2vs0mg"},{"bike_id":"c8481f83-5416-492c-b8ce-b3e9b333c224","system_id":"levelo_inurba_marseille","lat":43.279177,"lon":5.395717,"is_reserved":false,"is_disabled":true,"rental_uris":{"android":"levelo://app?vid=c8481f83-5416-492c-b8ce-b3e9b333c224","ios":"levelo://app?vid=c8481f83-5416-492c-b8ce-b3e9b333c224"},"vehicle_type_id":"4","last_reported":1750771624,"current_range_meters":0,"station_id":"ce4bhf92rcd13ifvqf40","pricing_plan_id":"cebpf4jnsgd1na2vs0mg"},{"bike_id":"bf3255fe-1354-4736-8c41-aa74393ad6f0","system_id":"levelo_inurba_marseille","lat":43.27905,"lon":5.38005,"is_reserved":false,"is_disabled":true,"rental_uris":{"android":"levelo://app?vid=bf3255fe-1354-4736-8c41-aa74393ad6f0","ios":"levelo://app?vid=bf3255fe-1354-4736-8c41-aa74393ad6f0"},"vehicle_type_id":"4","last_reported":1750771624,"current_range_meters":0,"station_id":"ce4bhf92rcd13ifvqf50","pricing_plan_id":"cebpf4jnsgd1na2vs0mg"},{"bike_id":"cbd1d7c6-d886-4812-a433-b6cdaf6b1eea","system_id":"levelo_inurba_marseille","lat":43.27991,"lon":5.3876,"is_reserved":false,"is_disabled":true,"rental_uris":{"android":"levelo://app?vid=cbd1d7c6-d886-4812-a433-b6cdaf6b1eea","ios":"levelo://app?vid=cbd1d7c6-d886-4812-a433-b6cdaf6b1eea"},"vehicle_type_id":"4","last_reported":1750771624,"current_range_meters":0,"station_id":"ce4bhg12rcd13ifvqf80","pricing_plan_id":"cebpf4jnsgd1na2vs0mg"},{"bike_id":"d8113014-9772-4fec-8def-d6b38e88bfd8","system_id":"levelo_inurba_marseille","lat":43.279777,"lon":5.387699,"is_reserved":false,"is_disabled":true,"rental_uris":{"android":"levelo://app?vid=d8113014-9772-4fec-8def-d6b38e88bfd8","ios":"levelo://app?vid=d8113014-9772-4fec-8def-d6b38e88bfd8"},"vehicle_type_id":"4","last_reported":1750771624,"current_range_meters":0,"station_id":"ce4bhg12rcd13ifvqf80","pricing_plan_id":"cebpf4jnsgd1na2vs0mg"},{"bike_id":"35374748-ebe8-42c2-b218-1e58e9b8b1a4","system_id":"levelo_inurba_marseille","lat":43.26185,"lon":5.37448,"is_reserved":false,"is_disabled":true,"rental_uris":{"android":"levelo://app?vid=35374748-ebe8-42c2-b218-1e58e9b8b1a4","ios":"levelo://app?vid=35374748-ebe8-42c2-b218-1e58e9b8b1a4"},"vehicle_type_id":"4","last_reported":1750771624,"current_range_meters":0,"station_id":"ce4bhgp2rcd13ifvqfc0","pricing_plan_id":"cebpf4jnsgd1na2vs0mg"},{"bike_id":"5673c335-3976-464e-a076-dc2780c1ee93","system_id":"levelo_inurba_marseille","lat":43.25493,"lon":5.37698,"is_reserved":false,"is_disabled":true,"rental_uris":{"android":"levelo://app?vid=5673c335-3976-464e-a076-dc2780c1ee93","ios":"levelo://app?vid=5673c335-3976-464e-a076-dc2780c1ee93"},"vehicle_type_id":"4","last_reported":1750771624,"current_range_meters":0,"station_id":"ce4bhh12rcd13ifvqff0","pricing_plan_id":"cebpf4jnsgd1na2vs0mg"},{"bike_id":"7a7936b0-7040-4bc6-9f15-bc10b98425e7","system_id":"levelo_inurba_marseille","lat":43.27555,"lon":5.38419,"is_reserved":false,"is_disabled":true,"rental_uris":{"android":"levelo://app?vid=7a7936b0-7040-4bc6-9f15-bc10b98425e7","ios":"levelo://app?vid=7a7936b0-7040-4bc6-9f15-bc10b98425e7"},"vehicle_type_id":"4","last_reported":1750771624,"current_range_meters":0,"station_id":"ce4bhh92rcd13ifvqfi0","pricing_plan_id":"cebpf4jnsgd1na2vs0mg"},{"bike_id":"d2cad355-9661-4971-bb8b-7e379075b647","system_id":"levelo_inurba_marseille","lat":43.272222,"lon":5.391929,"is_reserved":false,"is_disabled":true,"rental_uris":{"android":"levelo://app?vid=d2cad355-9661-4971-bb8b-7e379075b647","ios":"levelo://app?vid=d2cad355-9661-4971-bb8b-7e379075b647"},"vehicle_type_id":"4","last_reported":1750771624,"current_range_meters":0,"station_id":"ce4bhhp2rcd13ifvqfm0","pricing_plan_id":"cebpf4jnsgd1na2vs0mg"},{"bike_id":"67de2a11-350d-4aa0-bb07-bffb1929fb06","system_id":"levelo_inurba_marseille","lat":43.25939,"lon":5.40915,"is_reserved":false,"is_disabled":true,"rental_uris":{"android":"levelo://app?vid=67de2a11-350d-4aa0-bb07-bffb1929fb06","ios":"levelo://app?vid=67de2a11-350d-4aa0-bb07-bffb1929fb06"},"vehicle_type_id":"4","last_reported":1750771624,"current_range_meters":0,"station_id":"ce4bhm92rcd13ifvqglg","pricing_plan_id":"cebpf4jnsgd1na2vs0mg"},{"bike_id":"87083476-8ff8-4872-805d-8fac97de45bb","system_id":"levelo_inurba_marseille","lat":43.24068,"lon":5.37745,"is_reserved":false,"is_disabled":true,"rental_uris":{"android":"levelo://app?vid=87083476-8ff8-4872-805d-8fac97de45bb","ios":"levelo://app?vid=87083476-8ff8-4872-805d-8fac97de45bb"},"vehicle_type_id":"4","last_reported":1750771624,"current_range_meters":0,"station_id":"ce4bhnp2rcd13ifvqgvg","pricing_plan_id":"cebpf4jnsgd1na2vs0mg"},{"bike_id":"9f3359f4-4b24-4cb1-a098-d4708cecf345","system_id":"levelo_inurba_marseille","lat":43.32542,"lon":5.41427,"is_reserved":false,"is_disabled":true,"rental_uris":{"android":"levelo://app?vid=9f3359f4-4b24-4cb1-a098-d4708cecf345","ios":"levelo://app?vid=9f3359f4-4b24-4cb1-a098-d4708cecf345"},"vehicle_type_id":"4","last_reported":1750771624,"current_range_meters":0,"station_id":"ce4bhq12rcd13ifvqhhg","pricing_plan_id":"cebpf4jnsgd1na2vs0mg"},{"bike_id":"cf0eab26-b7d1-4b13-a38a-4ab94638fe2a","system_id":"levelo_inurba_marseille","lat":43.32339,"lon":5.40621,"is_reserved":false,"is_disabled":true,"rental_uris":{"android":"levelo://app?vid=cf0eab26-b7d1-4b13-a38a-4ab94638fe2a","ios":"levelo://app?vid=cf0eab26-b7d1-4b13-a38a-4ab94638fe2a"},"vehicle_type_id":"4","last_reported":1750771624,"current_range_meters":0,"station_id":"ce4bhq92rcd13ifvqhjg","pricing_plan_id":"cebpf4jnsgd1na2vs0mg"},{"bike_id":"bc96b989-693e-42b8-9c5d-40313f36dc09","system_id":"levelo_inurba_marseille","lat":43.33026,"lon":5.39047,"is_reserved":false,"is_disabled":true,"rental_uris":{"android":"levelo://app?vid=bc96b989-693e-42b8-9c5d-40313f36dc09","ios":"levelo://app?vid=bc96b989-693e-42b8-9c5d-40313f36dc09"},"vehicle_type_id":"4","last_reported":1750771624,"current_range_meters":0,"station_id":"ce4bhr92rcd13ifvqhrg","pricing_plan_id":"cebpf4jnsgd1na2vs0mg"},{"bike_id":"9a37d9b9-b186-4e5a-835f-813d367f04f0","system_id":"levelo_inurba_marseille","lat":43.23192,"lon":5.355524,"is_reserved":false,"is_disabled":true,"rental_uris":{"android":"levelo://app?vid=9a37d9b9-b186-4e5a-835f-813d367f04f0","ios":"levelo://app?vid=9a37d9b9-b186-4e5a-835f-813d367f04f0"},"vehicle_type_id":"4","last_reported":1750771624,"current_range_meters":0,"station_id":"ce4bhu92rcd13ifvqi70","pricing_plan_id":"cebpf4jnsgd1na2vs0mg"},{"bike_id":"e663dd01-a2b9-4186-b446-ffdc9f79429b","system_id":"levelo_inurba_marseille","lat":43.23191,"lon":5.35561,"is_reserved":false,"is_disabled":true,"rental_uris":{"android":"levelo://app?vid=e663dd01-a2b9-4186-b446-ffdc9f79429b","ios":"levelo://app?vid=e663dd01-a2b9-4186-b446-ffdc9f79429b"},"vehicle_type_id":"4","last_reported":1750771624,"current_range_meters":0,"station_id":"ce4bhu92rcd13ifvqi70","pricing_plan_id":"cebpf4jnsgd1na2vs0mg"},{"bike_id":"0c8af8e6-797e-4a39-8e8a-2fc94209fab5","system_id":"levelo_inurba_marseille","lat":43.26808,"lon":5.40274,"is_reserved":false,"is_disabled":true,"rental_uris":{"android":"levelo://app?vid=0c8af8e6-797e-4a39-8e8a-2fc94209fab5","ios":"levelo://app?vid=0c8af8e6-797e-4a39-8e8a-2fc94209fab5"},"vehicle_type_id":"4","last_reported":1750771624,"current_range_meters":0,"station_id":"ce501612rcd8frsf0b60","pricing_plan_id":"cebpf4jnsgd1na2vs0mg"},{"bike_id":"0032b41f-e702-48e0-a561-160b8fb6cb78","system_id":"levelo_inurba_marseille","lat":43.289443,"lon":5.390667,"is_reserved":false,"is_disabled":true,"rental_uris":{"android":"levelo://app?vid=0032b41f-e702-48e0-a561-160b8fb6cb78","ios":"levelo://app?vid=0032b41f-e702-48e0-a561-160b8fb6cb78"},"vehicle_type_id":"4","last_reported":1750771624,"current_range_meters":400,"station_id":"","pricing_plan_id":"cebpf4jnsgd1na2vs0mg"},{"bike_id":"966c3118-e338-4bd3-95cd-4bbc489a0396","system_id":"levelo_inurba_marseille","lat":43.28933,"lon":5.36643,"is_reserved":false,"is_disabled":true,"rental_uris":{"android":"levelo://app?vid=966c3118-e338-4bd3-95cd-4bbc489a0396","ios":"levelo://app?vid=966c3118-e338-4bd3-95cd-4bbc489a0396"},"vehicle_type_id":"4","last_reported":1750771624,"current_range_meters":400,"station_id":"ce4bhap2rcd13ifvqek0","pricing_plan_id":"cebpf4jnsgd1na2vs0mg"},{"bike_id":"2dc4594b-1913-44b4-8e09-50b96caedf9a","system_id":"levelo_inurba_marseille","lat":43.28855,"lon":5.35854,"is_reserved":false,"is_disabled":true,"rental_uris":{"android":"levelo://app?vid=2dc4594b-1913-44b4-8e09-50b96caedf9a","ios":"levelo://app?vid=2dc4594b-1913-44b4-8e09-50b96caedf9a"},"vehicle_type_id":"4","last_reported":1750771624,"current_range_meters":400,"station_id":"ce4bhb12rcd13ifvqem0","pricing_plan_id":"cebpf4jnsgd1na2vs0mg"},{"bike_id":"55cb244d-4feb-41da-85c1-e64a0b4e53cc","system_id":"levelo_inurba_marseille","lat":43.29009,"lon":5.35612,"is_reserved":false,"is_disabled":true,"rental_uris":{"android":"levelo://app?vid=55cb244d-4feb-41da-85c1-e64a0b4e53cc","ios":"levelo://app?vid=55cb244d-4feb-41da-85c1-e64a0b4e53cc"},"vehicle_type_id":"4","last_reported":1750771624,"current_range_meters":800,"station_id":"ce4bhb92rcd13ifvqen0","pricing_plan_id":"cebpf4jnsgd1na2vs0mg"},{"bike_id":"05edebc5-779b-4134-8502-f9698d7ca601","system_id":"levelo_inurba_marseille","lat":43.26255,"lon":5.404,"is_reserved":false,"is_disabled":true,"rental_uris":{"android":"levelo://app?vid=05edebc5-779b-4134-8502-f9698d7ca601","ios":"levelo://app?vid=05edebc5-779b-4134-8502-f9698d7ca601"},"vehicle_type_id":"4","last_reported":1750771624,"current_range_meters":1200,"station_id":"","pricing_plan_id":"cebpf4jnsgd1na2vs0mg"},{"bike_id":"6c933a1b-24df-4829-acc9-f1866880af0e","system_id":"levelo_inurba_marseille","lat":43.30593,"lon":5.37225,"is_reserved":false,"is_disabled":true,"rental_uris":{"android":"levelo://app?vid=6c933a1b-24df-4829-acc9-f1866880af0e","ios":"levelo://app?vid=6c933a1b-24df-4829-acc9-f1866880af0e"},"vehicle_type_id":"4","last_reported":1750771624,"current_range_meters":1200,"station_id":"ce4bgqh2rcd13ifvqc4g","pricing_plan_id":"cebpf4jnsgd1na2vs0mg"},{"bike_id":"3ec75da8-b312-4d03-a492-c6a145f5f2f3","system_id":"levelo_inurba_marseille","lat":43.27428,"lon":5.39413,"is_reserved":false,"is_disabled":true,"rental_uris":{"android":"levelo://app?vid=3ec75da8-b312-4d03-a492-c6a145f5f2f3","ios":"levelo://app?vid=3ec75da8-b312-4d03-a492-c6a145f5f2f3"},"vehicle_type_id":"4","last_reported":1750771624,"current_range_meters":1200,"station_id":"ce4bhdp2rcd13ifvqf20","pricing_plan_id":"cebpf4jnsgd1na2vs0mg"},{"bike_id":"9cbfca37-79c0-44f9-95d6-990931823967","system_id":"levelo_inurba_marseille","lat":43.31881,"lon":5.40733,"is_reserved":false,"is_disabled":true,"rental_uris":{"android":"levelo://app?vid=9cbfca37-79c0-44f9-95d6-990931823967","ios":"levelo://app?vid=9cbfca37-79c0-44f9-95d6-990931823967"},"vehicle_type_id":"4","last_reported":1750771624,"current_range_meters":1200,"station_id":"ce4bhq12rcd13ifvqhig","pricing_plan_id":"cebpf4jnsgd1na2vs0mg"},{"bike_id":"579432b6-7713-4196-9957-dba97628c5bc","system_id":"levelo_inurba_marseille","lat":43.29557,"lon":5.37519,"is_reserved":false,"is_disabled":true,"rental_uris":{"android":"levelo://app?vid=579432b6-7713-4196-9957-dba97628c5bc","ios":"levelo://app?vid=579432b6-7713-4196-9957-dba97628c5bc"},"vehicle_type_id":"4","last_reported":1750771624,"current_range_meters":1600,"station_id":"ce4bgh92rcd13ifvqb50","pricing_plan_id":"cebpf4jnsgd1na2vs0mg"},{"bike_id":"94ed1dba-2ef2-4ad8-b67f-6b53e4cffe4b","system_id":"levelo_inurba_marseille","lat":43.29255,"lon":5.37617,"is_reserved":false,"is_disabled":true,"rental_uris":{"android":"levelo://app?vid=94ed1dba-2ef2-4ad8-b67f-6b53e4cffe4b","ios":"levelo://app?vid=94ed1dba-2ef2-4ad8-b67f-6b53e4cffe4b"},"vehicle_type_id":"4","last_reported":1750771624,"current_range_meters":1600,"station_id":"ce4bgi12rcd13ifvqb80","pricing_plan_id":"cebpf4jnsgd1na2vs0mg"},{"bike_id":"a4ce0c9f-bdbc-4c49-a4e7-ad1c738d2a1b","system_id":"levelo_inurba_marseille","lat":43.29371,"lon":5.3787,"is_reserved":false,"is_disabled":true,"rental_uris":{"android":"levelo://app?vid=a4ce0c9f-bdbc-4c49-a4e7-ad1c738d2a1b","ios":"levelo://app?vid=a4ce0c9f-bdbc-4c49-a4e7-ad1c738d2a1b"},"vehicle_type_id":"4","last_reported":1750771624,"current_range_meters":1600,"station_id":"ce4bgjh2rcd13ifvqbf0","pricing_plan_id":"cebpf4jnsgd1na2vs0mg"},{"bike_id":"c7169a8e-a91d-474d-abd8-a235daec6171","system_id":"levelo_inurba_marseille","lat":43.30487,"lon":5.37904,"is_reserved":false,"is_disabled":true,"rental_uris":{"android":"levelo://app?vid=c7169a8e-a91d-474d-abd8-a235daec6171","ios":"levelo://app?vid=c7169a8e-a91d-474d-abd8-a235daec6171"},"vehicle_type_id":"4","last_reported":1750771624,"current_range_meters":1600,"station_id":"ce4bgup2rcd13ifvqcn0","pricing_plan_id":"cebpf4jnsgd1na2vs0mg"},{"bike_id":"85c58f10-925d-4344-b389-09267487a6fc","system_id":"levelo_inurba_marseille","lat":43.21106,"lon":5.419335,"is_reserved":false,"is_disabled":true,"rental_uris":{"android":"levelo://app?vid=85c58f10-925d-4344-b389-09267487a6fc","ios":"levelo://app?vid=85c58f10-925d-4344-b389-09267487a6fc"},"vehicle_type_id":"4","last_reported":1750771624,"current_range_meters":2000,"station_id":"","pricing_plan_id":"cebpf4jnsgd1na2vs0mg"},{"bike_id":"eac1fc35-07c1-4fa0-8e29-ef9fd5639c62","system_id":"levelo_inurba_marseille","lat":43.29316,"lon":5.375577,"is_reserved":false,"is_disabled":true,"rental_uris":{"android":"levelo://app?vid=eac1fc35-07c1-4fa0-8e29-ef9fd5639c62","ios":"levelo://app?vid=eac1fc35-07c1-4fa0-8e29-ef9fd5639c62"},"vehicle_type_id":"4","last_reported":1750771624,"current_range_meters":2000,"station_id":"","pricing_plan_id":"cebpf4jnsgd1na2vs0mg"},{"bike_id":"9124a503-b12f-4106-aaa6-3c41f4050400","system_id":"levelo_inurba_marseille","lat":43.29295,"lon":5.37462,"is_reserved":false,"is_disabled":true,"rental_uris":{"android":"levelo://app?vid=9124a503-b12f-4106-aaa6-3c41f4050400","ios":"levelo://app?vid=9124a503-b12f-4106-aaa6-3c41f4050400"},"vehicle_type_id":"4","last_reported":1750771624,"current_range_meters":2000,"station_id":"ce4bgi12rcd13ifvqb70","pricing_plan_id":"cebpf4jnsgd1na2vs0mg"},{"bike_id":"de002d9d-83b0-41e6-99fe-f9eb013d6ff3","system_id":"levelo_inurba_marseille","lat":43.21761,"lon":5.34606,"is_reserved":false,"is_disabled":true,"rental_uris":{"android":"levelo://app?vid=de002d9d-83b0-41e6-99fe-f9eb013d6ff3","ios":"levelo://app?vid=de002d9d-83b0-41e6-99fe-f9eb013d6ff3"},"vehicle_type_id":"4","last_reported":1750771624,"current_range_meters":2000,"station_id":"st_cvj6r9ubvosntc0bgbag","pricing_plan_id":"cebpf4jnsgd1na2vs0mg"},{"bike_id":"40ba111b-e581-4ffa-9ea3-eb8555113ac8","system_id":"levelo_inurba_marseille","lat":43.2953,"lon":5.37501,"is_reserved":false,"is_disabled":true,"rental_uris":{"android":"levelo://app?vid=40ba111b-e581-4ffa-9ea3-eb8555113ac8","ios":"levelo://app?vid=40ba111b-e581-4ffa-9ea3-eb8555113ac8"},"vehicle_type_id":"4","last_reported":1750771624,"current_range_meters":2800,"station_id":"ce4bgkp2rcd13ifvqbmg","pricing_plan_id":"cebpf4jnsgd1na2vs0mg"},{"bike_id":"344813c6-6f47-4435-9ac1-29d4158598a4","system_id":"levelo_inurba_marseille","lat":43.27377,"lon":5.36258,"is_reserved":false,"is_disabled":false,"rental_uris":{"android":"levelo://app?vid=344813c6-6f47-4435-9ac1-29d4158598a4","ios":"levelo://app?vid=344813c6-6f47-4435-9ac1-29d4158598a4"},"vehicle_type_id":"4","last_reported":1750771624,"current_range_meters":2800,"station_id":"ce4bhbh2rcd13ifvqeo0","pricing_plan_id":"cebpf4jnsgd1na2vs0mg"},{"bike_id":"177bb99c-95d6-4e0e-b0d8-39b5764c9576","system_id":"levelo_inurba_marseille","lat":43.26213,"lon":5.37448,"is_reserved":false,"is_disabled":false,"rental_uris":{"android":"levelo://app?vid=177bb99c-95d6-4e0e-b0d8-39b5764c9576","ios":"levelo://app?vid=177bb99c-95d6-4e0e-b0d8-39b5764c9576"},"vehicle_type_id":"4","last_reported":1750771624,"current_range_meters":2800,"station_id":"ce4bhgp2rcd13ifvqfc0","pricing_plan_id":"cebpf4jnsgd1na2vs0mg"},{"bike_id":"8b964ade-b36e-4afc-b646-3414d72ed7fb","system_id":"levelo_inurba_marseille","lat":43.31721,"lon":5.424034,"is_reserved":false,"is_disabled":false,"rental_uris":{"android":"levelo://app?vid=8b964ade-b36e-4afc-b646-3414d72ed7fb","ios":"levelo://app?vid=8b964ade-b36e-4afc-b646-3414d72ed7fb"},"vehicle_type_id":"4","last_reported":1750771624,"current_range_meters":2800,"station_id":"ce4bhp92rcd13ifvqhbg","pricing_plan_id":"cebpf4jnsgd1na2vs0mg"},{"bike_id":"adb14e12-762f-44e9-959a-b7191d76c184","system_id":"levelo_inurba_marseille","lat":43.29479,"lon":5.38017,"is_reserved":false,"is_disabled":false,"rental_uris":{"android":"levelo://app?vid=adb14e12-762f-44e9-959a-b7191d76c184","ios":"levelo://app?vid=adb14e12-762f-44e9-959a-b7191d76c184"},"vehicle_type_id":"4","last_reported":1750771624,"current_range_meters":3200,"station_id":"","pricing_plan_id":"cebpf4jnsgd1na2vs0mg"},{"bike_id":"331ab0c5-8e22-4744-888c-aff7d4541c3b","system_id":"levelo_inurba_marseille","lat":43.28571,"lon":5.39499,"is_reserved":false,"is_disabled":false,"rental_uris":{"android":"levelo://app?vid=331ab0c5-8e22-4744-888c-aff7d4541c3b","ios":"levelo://app?vid=331ab0c5-8e22-4744-888c-aff7d4541c3b"},"vehicle_type_id":"4","last_reported":1750771624,"current_range_meters":3200,"station_id":"ce4bh292rcd13ifvqdg0","pricing_plan_id":"cebpf4jnsgd1na2vs0mg"},{"bike_id":"792cd44f-b885-4f67-b26c-375b4230a83e","system_id":"levelo_inurba_marseille","lat":43.28414,"lon":5.34974,"is_reserved":false,"is_disabled":false,"rental_uris":{"android":"levelo://app?vid=792cd44f-b885-4f67-b26c-375b4230a83e","ios":"levelo://app?vid=792cd44f-b885-4f67-b26c-375b4230a83e"},"vehicle_type_id":"4","last_reported":1750771624,"current_range_meters":3200,"station_id":"ce4bhbh2rcd13ifvqepg","pricing_plan_id":"cebpf4jnsgd1na2vs0mg"},{"bike_id":"8c6de0c1-9eaf-4c18-8155-d956789067ae","system_id":"levelo_inurba_marseille","lat":43.27874,"lon":5.44246,"is_reserved":false,"is_disabled":false,"rental_uris":{"android":"levelo://app?vid=8c6de0c1-9eaf-4c18-8155-d956789067ae","ios":"levelo://app?vid=8c6de0c1-9eaf-4c18-8155-d956789067ae"},"vehicle_type_id":"4","last_reported":1750771624,"current_range_meters":3600,"station_id":"","pricing_plan_id":"cebpf4jnsgd1na2vs0mg"},{"bike_id":"a9e5e555-fdaf-49c0-b286-f0f2659b17d0","system_id":"levelo_inurba_marseille","lat":43.28319,"lon":5.43251,"is_reserved":false,"is_disabled":false,"rental_uris":{"android":"levelo://app?vid=a9e5e555-fdaf-49c0-b286-f0f2659b17d0","ios":"levelo://app?vid=a9e5e555-fdaf-49c0-b286-f0f2659b17d0"},"vehicle_type_id":"4","last_reported":1750771624,"current_range_meters":3600,"station_id":"","pricing_plan_id":"cebpf4jnsgd1na2vs0mg"},{"bike_id":"5b6eac19-f999-4fd7-890e-3a0688c250a7","system_id":"levelo_inurba_marseille","lat":43.30323,"lon":5.40445,"is_reserved":false,"is_disabled":false,"rental_uris":{"android":"levelo://app?vid=5b6eac19-f999-4fd7-890e-3a0688c250a7","ios":"levelo://app?vid=5b6eac19-f999-4fd7-890e-3a0688c250a7"},"vehicle_type_id":"4","last_reported":1750771624,"current_range_meters":3600,"station_id":"ce4bh012rcd13ifvqd10","pricing_plan_id":"cebpf4jnsgd1na2vs0mg"},{"bike_id":"9316f274-c310-4b3b-860a-686aa12182bd","system_id":"levelo_inurba_marseille","lat":43.26206,"lon":5.37441,"is_reserved":false,"is_disabled":false,"rental_uris":{"android":"levelo://app?vid=9316f274-c310-4b3b-860a-686aa12182bd","ios":"levelo://app?vid=9316f274-c310-4b3b-860a-686aa12182bd"},"vehicle_type_id":"4","last_reported":1750771624,"current_range_meters":3600,"station_id":"ce4bhgp2rcd13ifvqfc0","pricing_plan_id":"cebpf4jnsgd1na2vs0mg"},{"bike_id":"3b786da0-6dbe-47fc-a1ed-73ea471b429b","system_id":"levelo_inurba_marseille","lat":43.29922,"lon":5.37636,"is_reserved":false,"is_disabled":false,"rental_uris":{"android":"levelo://app?vid=3b786da0-6dbe-47fc-a1ed-73ea471b429b","ios":"levelo://app?vid=3b786da0-6dbe-47fc-a1ed-73ea471b429b"},"vehicle_type_id":"4","last_reported":1750771624,"current_range_meters":4000,"station_id":"","pricing_plan_id":"cebpf4jnsgd1na2vs0mg"},{"bike_id":"779e3316-9236-455a-b57b-282c5b74e8b4","system_id":"levelo_inurba_marseille","lat":43.30143,"lon":5.37423,"is_reserved":false,"is_disabled":false,"rental_uris":{"android":"levelo://app?vid=779e3316-9236-455a-b57b-282c5b74e8b4","ios":"levelo://app?vid=779e3316-9236-455a-b57b-282c5b74e8b4"},"vehicle_type_id":"4","last_reported":1750771624,"current_range_meters":4000,"station_id":"ce4bgs92rcd13ifvqcc0","pricing_plan_id":"cebpf4jnsgd1na2vs0mg"},{"bike_id":"d7c56714-1585-4954-976a-05b319c2a630","system_id":"levelo_inurba_marseille","lat":43.30545,"lon":5.36711,"is_reserved":false,"is_disabled":false,"rental_uris":{"android":"levelo://app?vid=d7c56714-1585-4954-976a-05b319c2a630","ios":"levelo://app?vid=d7c56714-1585-4954-976a-05b319c2a630"},"vehicle_type_id":"4","last_reported":1750771624,"current_range_meters":4800,"station_id":"ce4bgrp2rcd13ifvqc9g","pricing_plan_id":"cebpf4jnsgd1na2vs0mg"},{"bike_id":"11a78d45-d0ec-403b-9e23-b7c14d412d04","system_id":"levelo_inurba_marseille","lat":43.305511,"lon":5.365539,"is_reserved":false,"is_disabled":false,"rental_uris":{"android":"levelo://app?vid=11a78d45-d0ec-403b-9e23-b7c14d412d04","ios":"levelo://app?vid=11a78d45-d0ec-403b-9e23-b7c14d412d04"},"vehicle_type_id":"4","last_reported":1750771624,"current_range_meters":4800,"station_id":"ce4bgs12rcd13ifvqcag","pricing_plan_id":"cebpf4jnsgd1na2vs0mg"},{"bike_id":"460f4839-f159-461d-9251-13ca464ac945","system_id":"levelo_inurba_marseille","lat":43.30542,"lon":5.365512,"is_reserved":false,"is_disabled":false,"rental_uris":{"android":"levelo://app?vid=460f4839-f159-461d-9251-13ca464ac945","ios":"levelo://app?vid=460f4839-f159-461d-9251-13ca464ac945"},"vehicle_type_id":"4","last_reported":1750771624,"current_range_meters":4800,"station_id":"ce4bgs12rcd13ifvqcag","pricing_plan_id":"cebpf4jnsgd1na2vs0mg"},{"bike_id":"e8cdc61b-f771-484b-afb4-4020c0218e61","system_id":"levelo_inurba_marseille","lat":43.30797,"lon":5.38152,"is_reserved":false,"is_disabled":false,"rental_uris":{"android":"levelo://app?vid=e8cdc61b-f771-484b-afb4-4020c0218e61","ios":"levelo://app?vid=e8cdc61b-f771-484b-afb4-4020c0218e61"},"vehicle_type_id":"4","last_reported":1750771624,"current_range_meters":4800,"station_id":"ce4bgt12rcd13ifvqce0","pricing_plan_id":"cebpf4jnsgd1na2vs0mg"},{"bike_id":"4eda3cd9-26b1-4609-817e-89923e8ed0e4","system_id":"levelo_inurba_marseille","lat":43.30209,"lon":5.39463,"is_reserved":false,"is_disabled":false,"rental_uris":{"android":"levelo://app?vid=4eda3cd9-26b1-4609-817e-89923e8ed0e4","ios":"levelo://app?vid=4eda3cd9-26b1-4609-817e-89923e8ed0e4"},"vehicle_type_id":"4","last_reported":1750771624,"current_range_meters":4800,"station_id":"ce4bh0p2rcd13ifvqd70","pricing_plan_id":"cebpf4jnsgd1na2vs0mg"},{"bike_id":"f10e38ce-c08a-4001-873a-ec3e8846285a","system_id":"levelo_inurba_marseille","lat":43.329566,"lon":5.380498,"is_reserved":false,"is_disabled":false,"rental_uris":{"android":"levelo://app?vid=f10e38ce-c08a-4001-873a-ec3e8846285a","ios":"levelo://app?vid=f10e38ce-c08a-4001-873a-ec3e8846285a"},"vehicle_type_id":"4","last_reported":1750771624,"current_range_meters":5600,"station_id":"","pricing_plan_id":"cebpf4jnsgd1na2vs0mg"},{"bike_id":"8eebd78b-7b69-47a4-a1af-2596e4a5df68","system_id":"levelo_inurba_marseille","lat":43.30107,"lon":5.37518,"is_reserved":false,"is_disabled":false,"rental_uris":{"android":"levelo://app?vid=8eebd78b-7b69-47a4-a1af-2596e4a5df68","ios":"levelo://app?vid=8eebd78b-7b69-47a4-a1af-2596e4a5df68"},"vehicle_type_id":"4","last_reported":1750771624,"current_range_meters":5600,"station_id":"","pricing_plan_id":"cebpf4jnsgd1na2vs0mg"},{"bike_id":"17d0afaa-6951-4dde-a43d-60017e75021c","system_id":"levelo_inurba_marseille","lat":43.291681,"lon":5.421175,"is_reserved":false,"is_disabled":false,"rental_uris":{"android":"levelo://app?vid=17d0afaa-6951-4dde-a43d-60017e75021c","ios":"levelo://app?vid=17d0afaa-6951-4dde-a43d-60017e75021c"},"vehicle_type_id":"4","last_reported":1750771624,"current_range_meters":5600,"station_id":"","pricing_plan_id":"cebpf4jnsgd1na2vs0mg"},{"bike_id":"cd7a5494-60a8-4cfe-9353-4a2bac5c6663","system_id":"levelo_inurba_marseille","lat":43.306,"lon":5.3723,"is_reserved":false,"is_disabled":false,"rental_uris":{"android":"levelo://app?vid=cd7a5494-60a8-4cfe-9353-4a2bac5c6663","ios":"levelo://app?vid=cd7a5494-60a8-4cfe-9353-4a2bac5c6663"},"vehicle_type_id":"4","last_reported":1750771624,"current_range_meters":5600,"station_id":"ce4bgqh2rcd13ifvqc4g","pricing_plan_id":"cebpf4jnsgd1na2vs0mg"},{"bike_id":"faed8c13-6777-4e1d-bff5-282d5c37e33e","system_id":"levelo_inurba_marseille","lat":43.30138,"lon":5.37406,"is_reserved":false,"is_disabled":false,"rental_uris":{"android":"levelo://app?vid=faed8c13-6777-4e1d-bff5-282d5c37e33e","ios":"levelo://app?vid=faed8c13-6777-4e1d-bff5-282d5c37e33e"},"vehicle_type_id":"4","last_reported":1750771624,"current_range_meters":5600,"station_id":"ce4bgs92rcd13ifvqcc0","pricing_plan_id":"cebpf4jnsgd1na2vs0mg"},{"bike_id":"38aa1c8f-c633-47e5-9cfe-17a4a046f58e","system_id":"levelo_inurba_marseille","lat":43.30955,"lon":5.39048,"is_reserved":false,"is_disabled":false,"rental_uris":{"android":"levelo://app?vid=38aa1c8f-c633-47e5-9cfe-17a4a046f58e","ios":"levelo://app?vid=38aa1c8f-c633-47e5-9cfe-17a4a046f58e"},"vehicle_type_id":"4","last_reported":1750771624,"current_range_meters":6000,"station_id":"ce4bgup2rcd13ifvqco0","pricing_plan_id":"cebpf4jnsgd1na2vs0mg"},{"bike_id":"6ed60de0-d4d8-4bcf-87eb-77bc6bd99ae7","system_id":"levelo_inurba_marseille","lat":43.3086,"lon":5.38191,"is_reserved":false,"is_disabled":false,"rental_uris":{"android":"levelo://app?vid=6ed60de0-d4d8-4bcf-87eb-77bc6bd99ae7","ios":"levelo://app?vid=6ed60de0-d4d8-4bcf-87eb-77bc6bd99ae7"},"vehicle_type_id":"4","last_reported":1750771624,"current_range_meters":6400,"station_id":"","pricing_plan_id":"cebpf4jnsgd1na2vs0mg"},{"bike_id":"0ea1bad4-6c2b-4acd-b90b-8b6e9eb12697","system_id":"levelo_inurba_marseille","lat":43.29515,"lon":5.39042,"is_reserved":false,"is_disabled":false,"rental_uris":{"android":"levelo://app?vid=0ea1bad4-6c2b-4acd-b90b-8b6e9eb12697","ios":"levelo://app?vid=0ea1bad4-6c2b-4acd-b90b-8b6e9eb12697"},"vehicle_type_id":"4","last_reported":1750771624,"current_range_meters":6400,"station_id":"ce4bh3p2rcd13ifvqdp0","pricing_plan_id":"cebpf4jnsgd1na2vs0mg"},{"bike_id":"50e1d66c-6a2d-4063-b7b2-2a86f24b826b","system_id":"levelo_inurba_marseille","lat":43.26803,"lon":5.40268,"is_reserved":false,"is_disabled":false,"rental_uris":{"android":"levelo://app?vid=50e1d66c-6a2d-4063-b7b2-2a86f24b826b","ios":"levelo://app?vid=50e1d66c-6a2d-4063-b7b2-2a86f24b826b"},"vehicle_type_id":"4","last_reported":1750771624,"current_range_meters":6400,"station_id":"ce501612rcd8frsf0b60","pricing_plan_id":"cebpf4jnsgd1na2vs0mg"},{"bike_id":"70764641-799a-4261-99bd-903918c1b74a","system_id":"levelo_inurba_marseille","lat":43.32892,"lon":5.38409,"is_reserved":false,"is_disabled":false,"rental_uris":{"android":"levelo://app?vid=70764641-799a-4261-99bd-903918c1b74a","ios":"levelo://app?vid=70764641-799a-4261-99bd-903918c1b74a"},"vehicle_type_id":"4","last_reported":1750771624,"current_range_meters":6800,"station_id":"","pricing_plan_id":"cebpf4jnsgd1na2vs0mg"},{"bike_id":"1b7477a8-5f15-417c-901a-d985bb4760cc","system_id":"levelo_inurba_marseille","lat":43.28412,"lon":5.34972,"is_reserved":false,"is_disabled":false,"rental_uris":{"android":"levelo://app?vid=1b7477a8-5f15-417c-901a-d985bb4760cc","ios":"levelo://app?vid=1b7477a8-5f15-417c-901a-d985bb4760cc"},"vehicle_type_id":"4","last_reported":1750771624,"current_range_meters":6800,"station_id":"ce4bhbh2rcd13ifvqepg","pricing_plan_id":"cebpf4jnsgd1na2vs0mg"},{"bike_id":"591d6ee3-6909-422c-86d6-f3f085ba6abf","system_id":"levelo_inurba_marseille","lat":43.26209,"lon":5.37447,"is_reserved":false,"is_disabled":false,"rental_uris":{"android":"levelo://app?vid=591d6ee3-6909-422c-86d6-f3f085ba6abf","ios":"levelo://app?vid=591d6ee3-6909-422c-86d6-f3f085ba6abf"},"vehicle_type_id":"4","last_reported":1750771624,"current_range_meters":6800,"station_id":"ce4bhgp2rcd13ifvqfc0","pricing_plan_id":"cebpf4jnsgd1na2vs0mg"},{"bike_id":"20942cfe-936a-46ca-b62e-9ad2167bf510","system_id":"levelo_inurba_marseille","lat":43.32116,"lon":5.36784,"is_reserved":false,"is_disabled":false,"rental_uris":{"android":"levelo://app?vid=20942cfe-936a-46ca-b62e-9ad2167bf510","ios":"levelo://app?vid=20942cfe-936a-46ca-b62e-9ad2167bf510"},"vehicle_type_id":"4","last_reported":1750771624,"current_range_meters":6800,"station_id":"ce4bhrh2rcd13ifvqhug","pricing_plan_id":"cebpf4jnsgd1na2vs0mg"},{"bike_id":"e3f4e18d-3ac3-4dbe-b701-921ae6e88eba","system_id":"levelo_inurba_marseille","lat":43.30884,"lon":5.3719,"is_reserved":false,"is_disabled":false,"rental_uris":{"android":"levelo://app?vid=e3f4e18d-3ac3-4dbe-b701-921ae6e88eba","ios":"levelo://app?vid=e3f4e18d-3ac3-4dbe-b701-921ae6e88eba"},"vehicle_type_id":"4","last_reported":1750771624,"current_range_meters":7200,"station_id":"ce4bguh2rcd13ifvqckg","pricing_plan_id":"cebpf4jnsgd1na2vs0mg"},{"bike_id":"1c8bbc50-c899-4062-9416-45202fe8c408","system_id":"levelo_inurba_marseille","lat":43.29076,"lon":5.37151,"is_reserved":false,"is_disabled":false,"rental_uris":{"android":"levelo://app?vid=1c8bbc50-c899-4062-9416-45202fe8c408","ios":"levelo://app?vid=1c8bbc50-c899-4062-9416-45202fe8c408"},"vehicle_type_id":"4","last_reported":1750771624,"current_range_meters":7200,"station_id":"ce4bh5p2rcd13ifvqe4g","pricing_plan_id":"cebpf4jnsgd1na2vs0mg"},{"bike_id":"d1dbc170-fe56-4491-9a11-c3d149082527","system_id":"levelo_inurba_marseille","lat":43.32481,"lon":5.36573,"is_reserved":false,"is_disabled":false,"rental_uris":{"android":"levelo://app?vid=d1dbc170-fe56-4491-9a11-c3d149082527","ios":"levelo://app?vid=d1dbc170-fe56-4491-9a11-c3d149082527"},"vehicle_type_id":"4","last_reported":1750771624,"current_range_meters":7200,"station_id":"ce4bhs12rcd13ifvqhvg","pricing_plan_id":"cebpf4jnsgd1na2vs0mg"},{"bike_id":"1ab1bab3-12d2-4158-b1f9-bea75e1dd275","system_id":"levelo_inurba_marseille","lat":43.241833,"lon":5.396958,"is_reserved":false,"is_disabled":false,"rental_uris":{"android":"levelo://app?vid=1ab1bab3-12d2-4158-b1f9-bea75e1dd275","ios":"levelo://app?vid=1ab1bab3-12d2-4158-b1f9-bea75e1dd275"},"vehicle_type_id":"4","last_reported":1750771624,"current_range_meters":8000,"station_id":"","pricing_plan_id":"cebpf4jnsgd1na2vs0mg"},{"bike_id":"8590a58f-6ac7-44cc-a6e5-28e843cd5831","system_id":"levelo_inurba_marseille","lat":43.29624,"lon":5.3772,"is_reserved":false,"is_disabled":false,"rental_uris":{"android":"levelo://app?vid=8590a58f-6ac7-44cc-a6e5-28e843cd5831","ios":"levelo://app?vid=8590a58f-6ac7-44cc-a6e5-28e843cd5831"},"vehicle_type_id":"4","last_reported":1750771624,"current_range_meters":8000,"station_id":"ce4bgi92rcd13ifvqb90","pricing_plan_id":"cebpf4jnsgd1na2vs0mg"},{"bike_id":"d2956739-dfc1-48cd-b85b-e83cfeedddc5","system_id":"levelo_inurba_marseille","lat":43.31224,"lon":5.36901,"is_reserved":false,"is_disabled":false,"rental_uris":{"android":"levelo://app?vid=d2956739-dfc1-48cd-b85b-e83cfeedddc5","ios":"levelo://app?vid=d2956739-dfc1-48cd-b85b-e83cfeedddc5"},"vehicle_type_id":"4","last_reported":1750771624,"current_range_meters":8000,"station_id":"ce4bgl92rcd13ifvqbq0","pricing_plan_id":"cebpf4jnsgd1na2vs0mg"},{"bike_id":"8e691285-deba-44d9-8acf-3c7dc11ed7ba","system_id":"levelo_inurba_marseille","lat":43.28355,"lon":5.38636,"is_reserved":false,"is_disabled":false,"rental_uris":{"android":"levelo://app?vid=8e691285-deba-44d9-8acf-3c7dc11ed7ba","ios":"levelo://app?vid=8e691285-deba-44d9-8acf-3c7dc11ed7ba"},"vehicle_type_id":"4","last_reported":1750771624,"current_range_meters":8000,"station_id":"ce4bh492rcd13ifvqdvg","pricing_plan_id":"cebpf4jnsgd1na2vs0mg"},{"bike_id":"6d98c78f-b906-47ce-a6c6-0921d66dd755","system_id":"levelo_inurba_marseille","lat":43.262068,"lon":5.374438,"is_reserved":false,"is_disabled":false,"rental_uris":{"android":"levelo://app?vid=6d98c78f-b906-47ce-a6c6-0921d66dd755","ios":"levelo://app?vid=6d98c78f-b906-47ce-a6c6-0921d66dd755"},"vehicle_type_id":"4","last_reported":1750771624,"current_range_meters":8000,"station_id":"ce4bhgp2rcd13ifvqfc0","pricing_plan_id":"cebpf4jnsgd1na2vs0mg"},{"bike_id":"8527eef5-3a92-4bba-b4de-34be96ff921e","system_id":"levelo_inurba_marseille","lat":43.32471,"lon":5.36594,"is_reserved":false,"is_disabled":false,"rental_uris":{"android":"levelo://app?vid=8527eef5-3a92-4bba-b4de-34be96ff921e","ios":"levelo://app?vid=8527eef5-3a92-4bba-b4de-34be96ff921e"},"vehicle_type_id":"4","last_reported":1750771624,"current_range_meters":8000,"station_id":"ce4bhs12rcd13ifvqhvg","pricing_plan_id":"cebpf4jnsgd1na2vs0mg"},{"bike_id":"465d2323-f97d-48b0-a820-bc5fa54ae0fa","system_id":"levelo_inurba_marseille","lat":43.283846,"lon":5.45974,"is_reserved":false,"is_disabled":false,"rental_uris":{"android":"levelo://app?vid=465d2323-f97d-48b0-a820-bc5fa54ae0fa","ios":"levelo://app?vid=465d2323-f97d-48b0-a820-bc5fa54ae0fa"},"vehicle_type_id":"4","last_reported":1750771624,"current_range_meters":8400,"station_id":"","pricing_plan_id":"cebpf4jnsgd1na2vs0mg"},{"bike_id":"e5b88363-506f-4f99-bce2-6af7d3a05367","system_id":"levelo_inurba_marseille","lat":43.30563,"lon":5.36543,"is_reserved":false,"is_disabled":false,"rental_uris":{"android":"levelo://app?vid=e5b88363-506f-4f99-bce2-6af7d3a05367","ios":"levelo://app?vid=e5b88363-506f-4f99-bce2-6af7d3a05367"},"vehicle_type_id":"4","last_reported":1750771624,"current_range_meters":8400,"station_id":"ce4bgs12rcd13ifvqcag","pricing_plan_id":"cebpf4jnsgd1na2vs0mg"},{"bike_id":"ea59d985-db53-4f29-8c73-f523181e9295","system_id":"levelo_inurba_marseille","lat":43.26201,"lon":5.37456,"is_reserved":false,"is_disabled":false,"rental_uris":{"android":"levelo://app?vid=ea59d985-db53-4f29-8c73-f523181e9295","ios":"levelo://app?vid=ea59d985-db53-4f29-8c73-f523181e9295"},"vehicle_type_id":"4","last_reported":1750771624,"current_range_meters":8400,"station_id":"ce4bhgp2rcd13ifvqfc0","pricing_plan_id":"cebpf4jnsgd1na2vs0mg"},{"bike_id":"8703a0b9-0d09-48b3-938b-800a9ab674ba","system_id":"levelo_inurba_marseille","lat":43.239682,"lon":5.366318,"is_reserved":false,"is_disabled":false,"rental_uris":{"android":"levelo://app?vid=8703a0b9-0d09-48b3-938b-800a9ab674ba","ios":"levelo://app?vid=8703a0b9-0d09-48b3-938b-800a9ab674ba"},"vehicle_type_id":"4","last_reported":1750771624,"current_range_meters":8400,"station_id":"ce4bhi12rcd13ifvqfp0","pricing_plan_id":"cebpf4jnsgd1na2vs0mg"},{"bike_id":"113b198a-6e1b-46eb-8e6f-7d0d14639408","system_id":"levelo_inurba_marseille","lat":43.28776,"lon":5.36373,"is_reserved":false,"is_disabled":false,"rental_uris":{"android":"levelo://app?vid=113b198a-6e1b-46eb-8e6f-7d0d14639408","ios":"levelo://app?vid=113b198a-6e1b-46eb-8e6f-7d0d14639408"},"vehicle_type_id":"4","last_reported":1750771624,"current_range_meters":8800,"station_id":"","pricing_plan_id":"cebpf4jnsgd1na2vs0mg"},{"bike_id":"07417bdd-df4e-418a-87fd-97658b744ed4","system_id":"levelo_inurba_marseille","lat":43.308874,"lon":5.396618,"is_reserved":false,"is_disabled":false,"rental_uris":{"android":"levelo://app?vid=07417bdd-df4e-418a-87fd-97658b744ed4","ios":"levelo://app?vid=07417bdd-df4e-418a-87fd-97658b744ed4"},"vehicle_type_id":"4","last_reported":1750771624,"current_range_meters":8800,"station_id":"ce4bh012rcd13ifvqcv0","pricing_plan_id":"cebpf4jnsgd1na2vs0mg"},{"bike_id":"0d6d3920-e87e-424a-993b-cf3811806526","system_id":"levelo_inurba_marseille","lat":43.27375,"lon":5.36263,"is_reserved":false,"is_disabled":false,"rental_uris":{"android":"levelo://app?vid=0d6d3920-e87e-424a-993b-cf3811806526","ios":"levelo://app?vid=0d6d3920-e87e-424a-993b-cf3811806526"},"vehicle_type_id":"4","last_reported":1750771624,"current_range_meters":8800,"station_id":"ce4bhbh2rcd13ifvqeo0","pricing_plan_id":"cebpf4jnsgd1na2vs0mg"},{"bike_id":"588a5867-9970-4e05-8294-dd4e9469e6e5","system_id":"levelo_inurba_marseille","lat":43.265525,"lon":5.37295,"is_reserved":false,"is_disabled":false,"rental_uris":{"android":"levelo://app?vid=588a5867-9970-4e05-8294-dd4e9469e6e5","ios":"levelo://app?vid=588a5867-9970-4e05-8294-dd4e9469e6e5"},"vehicle_type_id":"4","last_reported":1750771624,"current_range_meters":8800,"station_id":"ce4bhg12rcd13ifvqf70","pricing_plan_id":"cebpf4jnsgd1na2vs0mg"},{"bike_id":"4ea81869-22a1-4d42-a179-0e8d28091f20","system_id":"levelo_inurba_marseille","lat":43.26207,"lon":5.37442,"is_reserved":false,"is_disabled":false,"rental_uris":{"android":"levelo://app?vid=4ea81869-22a1-4d42-a179-0e8d28091f20","ios":"levelo://app?vid=4ea81869-22a1-4d42-a179-0e8d28091f20"},"vehicle_type_id":"4","last_reported":1750771624,"current_range_meters":8800,"station_id":"ce4bhgp2rcd13ifvqfc0","pricing_plan_id":"cebpf4jnsgd1na2vs0mg"},{"bike_id":"d33dbcf0-b9f5-467c-a4a0-118a8485cb93","system_id":"levelo_inurba_marseille","lat":43.255,"lon":5.3765,"is_reserved":false,"is_disabled":false,"rental_uris":{"android":"levelo://app?vid=d33dbcf0-b9f5-467c-a4a0-118a8485cb93","ios":"levelo://app?vid=d33dbcf0-b9f5-467c-a4a0-118a8485cb93"},"vehicle_type_id":"4","last_reported":1750771624,"current_range_meters":8800,"station_id":"ce4bhh12rcd13ifvqff0","pricing_plan_id":"cebpf4jnsgd1na2vs0mg"},{"bike_id":"087f2159-7753-4646-b13a-36c8508d6b4f","system_id":"levelo_inurba_marseille","lat":43.32476,"lon":5.36566,"is_reserved":false,"is_disabled":false,"rental_uris":{"android":"levelo://app?vid=087f2159-7753-4646-b13a-36c8508d6b4f","ios":"levelo://app?vid=087f2159-7753-4646-b13a-36c8508d6b4f"},"vehicle_type_id":"4","last_reported":1750771624,"current_range_meters":8800,"station_id":"ce4bhs12rcd13ifvqhvg","pricing_plan_id":"cebpf4jnsgd1na2vs0mg"},{"bike_id":"af1ee2aa-9649-4a84-92f8-a833c0e1efe3","system_id":"levelo_inurba_marseille","lat":43.32339,"lon":5.36698,"is_reserved":false,"is_disabled":false,"rental_uris":{"android":"levelo://app?vid=af1ee2aa-9649-4a84-92f8-a833c0e1efe3","ios":"levelo://app?vid=af1ee2aa-9649-4a84-92f8-a833c0e1efe3"},"vehicle_type_id":"4","last_reported":1750771624,"current_range_meters":8800,"station_id":"ce4bhsh2rcd13ifvqi2g","pricing_plan_id":"cebpf4jnsgd1na2vs0mg"},{"bike_id":"a092c41c-0118-4d86-b43e-981a2615e33e","system_id":"levelo_inurba_marseille","lat":43.34685,"lon":5.3456,"is_reserved":false,"is_disabled":false,"rental_uris":{"android":"levelo://app?vid=a092c41c-0118-4d86-b43e-981a2615e33e","ios":"levelo://app?vid=a092c41c-0118-4d86-b43e-981a2615e33e"},"vehicle_type_id":"4","last_reported":1750771624,"current_range_meters":9200,"station_id":"","pricing_plan_id":"cebpf4jnsgd1na2vs0mg"},{"bike_id":"0e701dcf-2620-42ce-bfb6-3ffe713c339b","system_id":"levelo_inurba_marseille","lat":43.22715,"lon":5.34898,"is_reserved":false,"is_disabled":false,"rental_uris":{"android":"levelo://app?vid=0e701dcf-2620-42ce-bfb6-3ffe713c339b","ios":"levelo://app?vid=0e701dcf-2620-42ce-bfb6-3ffe713c339b"},"vehicle_type_id":"4","last_reported":1750771624,"current_range_meters":9200,"station_id":"","pricing_plan_id":"cebpf4jnsgd1na2vs0mg"},{"bike_id":"0e8d5a55-0a0e-400a-ac5f-e6c775b0b2a2","system_id":"levelo_inurba_marseille","lat":43.27608,"lon":5.3614,"is_reserved":false,"is_disabled":false,"rental_uris":{"android":"levelo://app?vid=0e8d5a55-0a0e-400a-ac5f-e6c775b0b2a2","ios":"levelo://app?vid=0e8d5a55-0a0e-400a-ac5f-e6c775b0b2a2"},"vehicle_type_id":"4","last_reported":1750771624,"current_range_meters":9200,"station_id":"ce4bgj92rcd13ifvqbe0","pricing_plan_id":"cebpf4jnsgd1na2vs0mg"},{"bike_id":"23eda1de-7440-4504-9e5b-607db57c6e71","system_id":"levelo_inurba_marseille","lat":43.31368,"lon":5.36665,"is_reserved":false,"is_disabled":false,"rental_uris":{"android":"levelo://app?vid=23eda1de-7440-4504-9e5b-607db57c6e71","ios":"levelo://app?vid=23eda1de-7440-4504-9e5b-607db57c6e71"},"vehicle_type_id":"4","last_reported":1750771624,"current_range_meters":9200,"station_id":"ce4bgr92rcd13ifvqc6g","pricing_plan_id":"cebpf4jnsgd1na2vs0mg"},{"bike_id":"0f8a17d8-ca6e-4acb-9bb7-92544d829fbf","system_id":"levelo_inurba_marseille","lat":43.31371,"lon":5.36729,"is_reserved":false,"is_disabled":false,"rental_uris":{"android":"levelo://app?vid=0f8a17d8-ca6e-4acb-9bb7-92544d829fbf","ios":"levelo://app?vid=0f8a17d8-ca6e-4acb-9bb7-92544d829fbf"},"vehicle_type_id":"4","last_reported":1750771624,"current_range_meters":9200,"station_id":"ce4bgr92rcd13ifvqc6g","pricing_plan_id":"cebpf4jnsgd1na2vs0mg"},{"bike_id":"1b566e6e-664f-4caa-8916-c5253b6c9f6e","system_id":"levelo_inurba_marseille","lat":43.31074,"lon":5.3835,"is_reserved":false,"is_disabled":false,"rental_uris":{"android":"levelo://app?vid=1b566e6e-664f-4caa-8916-c5253b6c9f6e","ios":"levelo://app?vid=1b566e6e-664f-4caa-8916-c5253b6c9f6e"},"vehicle_type_id":"4","last_reported":1750771624,"current_range_meters":9200,"station_id":"ce4bgv92rcd13ifvqcr0","pricing_plan_id":"cebpf4jnsgd1na2vs0mg"},{"bike_id":"42c30b9e-1557-4809-911b-aa587146d14e","system_id":"levelo_inurba_marseille","lat":43.26212,"lon":5.37442,"is_reserved":false,"is_disabled":false,"rental_uris":{"android":"levelo://app?vid=42c30b9e-1557-4809-911b-aa587146d14e","ios":"levelo://app?vid=42c30b9e-1557-4809-911b-aa587146d14e"},"vehicle_type_id":"4","last_reported":1750771624,"current_range_meters":9200,"station_id":"ce4bhgp2rcd13ifvqfc0","pricing_plan_id":"cebpf4jnsgd1na2vs0mg"},{"bike_id":"65db9cbd-7fb2-4cbb-9337-cd4905bc593a","system_id":"levelo_inurba_marseille","lat":43.23962,"lon":5.36638,"is_reserved":false,"is_disabled":false,"rental_uris":{"android":"levelo://app?vid=65db9cbd-7fb2-4cbb-9337-cd4905bc593a","ios":"levelo://app?vid=65db9cbd-7fb2-4cbb-9337-cd4905bc593a"},"vehicle_type_id":"4","last_reported":1750771624,"current_range_meters":9200,"station_id":"ce4bhi12rcd13ifvqfp0","pricing_plan_id":"cebpf4jnsgd1na2vs0mg"},{"bike_id":"4a598fe0-e40e-4f66-92a6-73a6fc446751","system_id":"levelo_inurba_marseille","lat":43.25723,"lon":5.41113,"is_reserved":false,"is_disabled":false,"rental_uris":{"android":"levelo://app?vid=4a598fe0-e40e-4f66-92a6-73a6fc446751","ios":"levelo://app?vid=4a598fe0-e40e-4f66-92a6-73a6fc446751"},"vehicle_type_id":"4","last_reported":1750771624,"current_range_meters":9200,"station_id":"ce4bhkp2rcd13ifvqgd0","pricing_plan_id":"cebpf4jnsgd1na2vs0mg"},{"bike_id":"e127ef7e-24d3-4248-81fa-66c5e7c3e582","system_id":"levelo_inurba_marseille","lat":43.29616,"lon":5.37946,"is_reserved":false,"is_disabled":false,"rental_uris":{"android":"levelo://app?vid=e127ef7e-24d3-4248-81fa-66c5e7c3e582","ios":"levelo://app?vid=e127ef7e-24d3-4248-81fa-66c5e7c3e582"},"vehicle_type_id":"4","last_reported":1750771624,"current_range_meters":9600,"station_id":"","pricing_plan_id":"cebpf4jnsgd1na2vs0mg"},{"bike_id":"e78ef307-4022-4338-93a0-2ae1d165f542","system_id":"levelo_inurba_marseille","lat":43.258147,"lon":5.394404,"is_reserved":false,"is_disabled":false,"rental_uris":{"android":"levelo://app?vid=e78ef307-4022-4338-93a0-2ae1d165f542","ios":"levelo://app?vid=e78ef307-4022-4338-93a0-2ae1d165f542"},"vehicle_type_id":"4","last_reported":1750771624,"current_range_meters":9600,"station_id":"ce4bhip2rcd13ifvqft0","pricing_plan_id":"cebpf4jnsgd1na2vs0mg"},{"bike_id":"cf4df708-b53f-4b70-b463-a9d5f81fd205","system_id":"levelo_inurba_marseille","lat":43.3249,"lon":5.36594,"is_reserved":false,"is_disabled":false,"rental_uris":{"android":"levelo://app?vid=cf4df708-b53f-4b70-b463-a9d5f81fd205","ios":"levelo://app?vid=cf4df708-b53f-4b70-b463-a9d5f81fd205"},"vehicle_type_id":"4","last_reported":1750771624,"current_range_meters":9600,"station_id":"ce4bhs12rcd13ifvqhvg","pricing_plan_id":"cebpf4jnsgd1na2vs0mg"},{"bike_id":"413beb01-5f13-416b-9d73-7f0cf9eeaeac","system_id":"levelo_inurba_marseille","lat":43.32478,"lon":5.36572,"is_reserved":false,"is_disabled":false,"rental_uris":{"android":"levelo://app?vid=413beb01-5f13-416b-9d73-7f0cf9eeaeac","ios":"levelo://app?vid=413beb01-5f13-416b-9d73-7f0cf9eeaeac"},"vehicle_type_id":"4","last_reported":1750771624,"current_range_meters":9600,"station_id":"ce4bhs12rcd13ifvqhvg","pricing_plan_id":"cebpf4jnsgd1na2vs0mg"},{"bike_id":"fb98db90-5c2c-4a99-b10a-f61c2f3a931d","system_id":"levelo_inurba_marseille","lat":43.28606,"lon":5.37063,"is_reserved":false,"is_disabled":false,"rental_uris":{"android":"levelo://app?vid=fb98db90-5c2c-4a99-b10a-f61c2f3a931d","ios":"levelo://app?vid=fb98db90-5c2c-4a99-b10a-f61c2f3a931d"},"vehicle_type_id":"4","last_reported":1750771624,"current_range_meters":9600,"station_id":"ce4bht12rcd13ifvqi60","pricing_plan_id":"cebpf4jnsgd1na2vs0mg"},{"bike_id":"cada33e7-7feb-4285-bb16-b2e63d63815b","system_id":"levelo_inurba_marseille","lat":43.23667,"lon":5.3919,"is_reserved":false,"is_disabled":false,"rental_uris":{"android":"levelo://app?vid=cada33e7-7feb-4285-bb16-b2e63d63815b","ios":"levelo://app?vid=cada33e7-7feb-4285-bb16-b2e63d63815b"},"vehicle_type_id":"4","last_reported":1750771624,"current_range_meters":10000,"station_id":"","pricing_plan_id":"cebpf4jnsgd1na2vs0mg"},{"bike_id":"bb7b3701-6280-447b-8901-6e64a6a00c5d","system_id":"levelo_inurba_marseille","lat":43.30257,"lon":5.37676,"is_reserved":false,"is_disabled":false,"rental_uris":{"android":"levelo://app?vid=bb7b3701-6280-447b-8901-6e64a6a00c5d","ios":"levelo://app?vid=bb7b3701-6280-447b-8901-6e64a6a00c5d"},"vehicle_type_id":"4","last_reported":1750771624,"current_range_meters":10000,"station_id":"ce4bguh2rcd13ifvqcj0","pricing_plan_id":"cebpf4jnsgd1na2vs0mg"},{"bike_id":"a23f790a-1a5e-4e66-b1ab-8996a6723a62","system_id":"levelo_inurba_marseille","lat":43.2465,"lon":5.38888,"is_reserved":false,"is_disabled":false,"rental_uris":{"android":"levelo://app?vid=a23f790a-1a5e-4e66-b1ab-8996a6723a62","ios":"levelo://app?vid=a23f790a-1a5e-4e66-b1ab-8996a6723a62"},"vehicle_type_id":"4","last_reported":1750771624,"current_range_meters":10000,"station_id":"ce4bhg12rcd13ifvqf60","pricing_plan_id":"cebpf4jnsgd1na2vs0mg"},{"bike_id":"d1d0f092-d49d-4706-916c-2f36618f0204","system_id":"levelo_inurba_marseille","lat":43.3172,"lon":5.42415,"is_reserved":false,"is_disabled":false,"rental_uris":{"android":"levelo://app?vid=d1d0f092-d49d-4706-916c-2f36618f0204","ios":"levelo://app?vid=d1d0f092-d49d-4706-916c-2f36618f0204"},"vehicle_type_id":"4","last_reported":1750771624,"current_range_meters":10000,"station_id":"ce4bhp92rcd13ifvqhbg","pricing_plan_id":"cebpf4jnsgd1na2vs0mg"},{"bike_id":"82daa609-66e4-4b91-8a1c-a20f4b557675","system_id":"levelo_inurba_marseille","lat":43.30336,"lon":5.36691,"is_reserved":false,"is_disabled":false,"rental_uris":{"android":"levelo://app?vid=82daa609-66e4-4b91-8a1c-a20f4b557675","ios":"levelo://app?vid=82daa609-66e4-4b91-8a1c-a20f4b557675"},"vehicle_type_id":"4","last_reported":1750771624,"current_range_meters":10800,"station_id":"","pricing_plan_id":"cebpf4jnsgd1na2vs0mg"},{"bike_id":"ef995fd2-dbf9-4f4b-913f-e726e2ba94ed","system_id":"levelo_inurba_marseille","lat":43.29019,"lon":5.38124,"is_reserved":false,"is_disabled":false,"rental_uris":{"android":"levelo://app?vid=ef995fd2-dbf9-4f4b-913f-e726e2ba94ed","ios":"levelo://app?vid=ef995fd2-dbf9-4f4b-913f-e726e2ba94ed"},"vehicle_type_id":"4","last_reported":1750771624,"current_range_meters":10800,"station_id":"ce4bh4p2rcd13ifvqe1g","pricing_plan_id":"cebpf4jnsgd1na2vs0mg"},{"bike_id":"20ee7690-aced-4e48-9e5e-0d7fdfa26dae","system_id":"levelo_inurba_marseille","lat":43.33736,"lon":5.39195,"is_reserved":false,"is_disabled":false,"rental_uris":{"android":"levelo://app?vid=20ee7690-aced-4e48-9e5e-0d7fdfa26dae","ios":"levelo://app?vid=20ee7690-aced-4e48-9e5e-0d7fdfa26dae"},"vehicle_type_id":"4","last_reported":1750771624,"current_range_meters":10800,"station_id":"ce4bhr92rcd13ifvqhsg","pricing_plan_id":"cebpf4jnsgd1na2vs0mg"},{"bike_id":"5a3c89c2-3450-4abf-8f80-3c018505aaa7","system_id":"levelo_inurba_marseille","lat":43.32134,"lon":5.36719,"is_reserved":false,"is_disabled":false,"rental_uris":{"android":"levelo://app?vid=5a3c89c2-3450-4abf-8f80-3c018505aaa7","ios":"levelo://app?vid=5a3c89c2-3450-4abf-8f80-3c018505aaa7"},"vehicle_type_id":"4","last_reported":1750771624,"current_range_meters":10800,"station_id":"ce4bhrh2rcd13ifvqhug","pricing_plan_id":"cebpf4jnsgd1na2vs0mg"},{"bike_id":"47f61834-bf6d-4e53-947c-6e6f678e7e67","system_id":"levelo_inurba_marseille","lat":43.29783,"lon":5.39336,"is_reserved":false,"is_disabled":false,"rental_uris":{"android":"levelo://app?vid=47f61834-bf6d-4e53-947c-6e6f678e7e67","ios":"levelo://app?vid=47f61834-bf6d-4e53-947c-6e6f678e7e67"},"vehicle_type_id":"4","last_reported":1750771624,"current_range_meters":10800,"station_id":"chh1huq6cuj3fo74tm60","pricing_plan_id":"cebpf4jnsgd1na2vs0mg"},{"bike_id":"2e003a64-be04-465d-b398-4a850c63a14c","system_id":"levelo_inurba_marseille","lat":43.2694,"lon":5.40255,"is_reserved":false,"is_disabled":false,"rental_uris":{"android":"levelo://app?vid=2e003a64-be04-465d-b398-4a850c63a14c","ios":"levelo://app?vid=2e003a64-be04-465d-b398-4a850c63a14c"},"vehicle_type_id":"4","last_reported":1750771624,"current_range_meters":10800,"station_id":"cjm6bp8fraef2m0cb0m0","pricing_plan_id":"cebpf4jnsgd1na2vs0mg"},{"bike_id":"ba7009b7-dbb9-4c29-8645-d0a68dca7b4f","system_id":"levelo_inurba_marseille","lat":43.312975,"lon":5.445535,"is_reserved":false,"is_disabled":false,"rental_uris":{"android":"levelo://app?vid=ba7009b7-dbb9-4c29-8645-d0a68dca7b4f","ios":"levelo://app?vid=ba7009b7-dbb9-4c29-8645-d0a68dca7b4f"},"vehicle_type_id":"4","last_reported":1750771624,"current_range_meters":11200,"station_id":"","pricing_plan_id":"cebpf4jnsgd1na2vs0mg"},{"bike_id":"8be42bbb-b38a-47eb-8176-1653cf293a6a","system_id":"levelo_inurba_marseille","lat":43.3024,"lon":5.40102,"is_reserved":false,"is_disabled":false,"rental_uris":{"android":"levelo://app?vid=8be42bbb-b38a-47eb-8176-1653cf293a6a","ios":"levelo://app?vid=8be42bbb-b38a-47eb-8176-1653cf293a6a"},"vehicle_type_id":"4","last_reported":1750771624,"current_range_meters":11200,"station_id":"ce4bgvh2rcd13ifvqcs0","pricing_plan_id":"cebpf4jnsgd1na2vs0mg"},{"bike_id":"9a6d7acc-8967-4c42-9cda-2007df7adfad","system_id":"levelo_inurba_marseille","lat":43.288598,"lon":5.358588,"is_reserved":false,"is_disabled":false,"rental_uris":{"android":"levelo://app?vid=9a6d7acc-8967-4c42-9cda-2007df7adfad","ios":"levelo://app?vid=9a6d7acc-8967-4c42-9cda-2007df7adfad"},"vehicle_type_id":"4","last_reported":1750771624,"current_range_meters":11200,"station_id":"ce4bhb12rcd13ifvqem0","pricing_plan_id":"cebpf4jnsgd1na2vs0mg"},{"bike_id":"9a0dca87-30f2-4ca4-b14d-4bcd7b0bfbd8","system_id":"levelo_inurba_marseille","lat":43.31386,"lon":5.36722,"is_reserved":false,"is_disabled":false,"rental_uris":{"android":"levelo://app?vid=9a0dca87-30f2-4ca4-b14d-4bcd7b0bfbd8","ios":"levelo://app?vid=9a0dca87-30f2-4ca4-b14d-4bcd7b0bfbd8"},"vehicle_type_id":"4","last_reported":1750771624,"current_range_meters":11600,"station_id":"","pricing_plan_id":"cebpf4jnsgd1na2vs0mg"},{"bike_id":"eb9aef24-d500-4cc0-91b5-5d69249f20dd","system_id":"levelo_inurba_marseille","lat":43.30907,"lon":5.36866,"is_reserved":false,"is_disabled":false,"rental_uris":{"android":"levelo://app?vid=eb9aef24-d500-4cc0-91b5-5d69249f20dd","ios":"levelo://app?vid=eb9aef24-d500-4cc0-91b5-5d69249f20dd"},"vehicle_type_id":"4","last_reported":1750771624,"current_range_meters":11600,"station_id":"ce4bgn92rcd13ifvqbvg","pricing_plan_id":"cebpf4jnsgd1na2vs0mg"},{"bike_id":"450a3642-ad05-4765-9a3a-f8f356367bc2","system_id":"levelo_inurba_marseille","lat":43.30572,"lon":5.36504,"is_reserved":false,"is_disabled":false,"rental_uris":{"android":"levelo://app?vid=450a3642-ad05-4765-9a3a-f8f356367bc2","ios":"levelo://app?vid=450a3642-ad05-4765-9a3a-f8f356367bc2"},"vehicle_type_id":"4","last_reported":1750771624,"current_range_meters":11600,"station_id":"ce4bgs12rcd13ifvqcag","pricing_plan_id":"cebpf4jnsgd1na2vs0mg"},{"bike_id":"b2ff852f-ec34-4686-a11f-572218b419d3","system_id":"levelo_inurba_marseille","lat":43.30534,"lon":5.36519,"is_reserved":false,"is_disabled":false,"rental_uris":{"android":"levelo://app?vid=b2ff852f-ec34-4686-a11f-572218b419d3","ios":"levelo://app?vid=b2ff852f-ec34-4686-a11f-572218b419d3"},"vehicle_type_id":"4","last_reported":1750771624,"current_range_meters":11600,"station_id":"ce4bgs12rcd13ifvqcag","pricing_plan_id":"cebpf4jnsgd1na2vs0mg"},{"bike_id":"47bf8688-d9b3-44cc-9163-551973fec25d","system_id":"levelo_inurba_marseille","lat":43.24388,"lon":5.37053,"is_reserved":false,"is_disabled":false,"rental_uris":{"android":"levelo://app?vid=47bf8688-d9b3-44cc-9163-551973fec25d","ios":"levelo://app?vid=47bf8688-d9b3-44cc-9163-551973fec25d"},"vehicle_type_id":"4","last_reported":1750771624,"current_range_meters":11600,"station_id":"ce4bhhh2rcd13ifvqfk0","pricing_plan_id":"cebpf4jnsgd1na2vs0mg"},{"bike_id":"c6c7b929-26ed-4696-9996-8fc006eb331a","system_id":"levelo_inurba_marseille","lat":43.24067,"lon":5.37763,"is_reserved":false,"is_disabled":false,"rental_uris":{"android":"levelo://app?vid=c6c7b929-26ed-4696-9996-8fc006eb331a","ios":"levelo://app?vid=c6c7b929-26ed-4696-9996-8fc006eb331a"},"vehicle_type_id":"4","last_reported":1750771624,"current_range_meters":11600,"station_id":"ce4bhnp2rcd13ifvqgvg","pricing_plan_id":"cebpf4jnsgd1na2vs0mg"},{"bike_id":"d3b4acd1-475d-43e1-bb04-3b5b22c96457","system_id":"levelo_inurba_marseille","lat":43.298957,"lon":5.436709,"is_reserved":false,"is_disabled":false,"rental_uris":{"android":"levelo://app?vid=d3b4acd1-475d-43e1-bb04-3b5b22c96457","ios":"levelo://app?vid=d3b4acd1-475d-43e1-bb04-3b5b22c96457"},"vehicle_type_id":"4","last_reported":1750771624,"current_range_meters":11600,"station_id":"ce4bhpp2rcd13ifvqhfg","pricing_plan_id":"cebpf4jnsgd1na2vs0mg"},{"bike_id":"4b60206d-b944-4b1a-a81d-b2b5aef52e8e","system_id":"levelo_inurba_marseille","lat":43.33604,"lon":5.40997,"is_reserved":false,"is_disabled":false,"rental_uris":{"android":"levelo://app?vid=4b60206d-b944-4b1a-a81d-b2b5aef52e8e","ios":"levelo://app?vid=4b60206d-b944-4b1a-a81d-b2b5aef52e8e"},"vehicle_type_id":"4","last_reported":1750771624,"current_range_meters":11600,"station_id":"ce4bhqh2rcd13ifvqhmg","pricing_plan_id":"cebpf4jnsgd1na2vs0mg"},{"bike_id":"d6d0f443-06ce-4c8f-bcbc-9b23cf2fb96f","system_id":"levelo_inurba_marseille","lat":43.30887,"lon":5.39654,"is_reserved":false,"is_disabled":false,"rental_uris":{"android":"levelo://app?vid=d6d0f443-06ce-4c8f-bcbc-9b23cf2fb96f","ios":"levelo://app?vid=d6d0f443-06ce-4c8f-bcbc-9b23cf2fb96f"},"vehicle_type_id":"4","last_reported":1750771624,"current_range_meters":12000,"station_id":"ce4bh012rcd13ifvqcv0","pricing_plan_id":"cebpf4jnsgd1na2vs0mg"},{"bike_id":"971d2e6f-1868-4cc1-9673-ad1c4755bd9e","system_id":"levelo_inurba_marseille","lat":43.29864,"lon":5.3973,"is_reserved":false,"is_disabled":false,"rental_uris":{"android":"levelo://app?vid=971d2e6f-1868-4cc1-9673-ad1c4755bd9e","ios":"levelo://app?vid=971d2e6f-1868-4cc1-9673-ad1c4755bd9e"},"vehicle_type_id":"4","last_reported":1750771624,"current_range_meters":12000,"station_id":"ce4bh0h2rcd13ifvqd50","pricing_plan_id":"cebpf4jnsgd1na2vs0mg"},{"bike_id":"1b218101-4a42-4ba4-9e1f-5b180c405d4e","system_id":"levelo_inurba_marseille","lat":43.28926,"lon":5.36629,"is_reserved":false,"is_disabled":false,"rental_uris":{"android":"levelo://app?vid=1b218101-4a42-4ba4-9e1f-5b180c405d4e","ios":"levelo://app?vid=1b218101-4a42-4ba4-9e1f-5b180c405d4e"},"vehicle_type_id":"4","last_reported":1750771624,"current_range_meters":12000,"station_id":"ce4bhap2rcd13ifvqek0","pricing_plan_id":"cebpf4jnsgd1na2vs0mg"},{"bike_id":"095eabd1-5dcf-4106-9219-bdac4470d970","system_id":"levelo_inurba_marseille","lat":43.3287,"lon":5.43392,"is_reserved":false,"is_disabled":false,"rental_uris":{"android":"levelo://app?vid=095eabd1-5dcf-4106-9219-bdac4470d970","ios":"levelo://app?vid=095eabd1-5dcf-4106-9219-bdac4470d970"},"vehicle_type_id":"4","last_reported":1750771624,"current_range_meters":12400,"station_id":"","pricing_plan_id":"cebpf4jnsgd1na2vs0mg"},{"bike_id":"ea58c5af-7e24-472a-9042-4626112e91cb","system_id":"levelo_inurba_marseille","lat":43.291979,"lon":5.358054,"is_reserved":false,"is_disabled":false,"rental_uris":{"android":"levelo://app?vid=ea58c5af-7e24-472a-9042-4626112e91cb","ios":"levelo://app?vid=ea58c5af-7e24-472a-9042-4626112e91cb"},"vehicle_type_id":"4","last_reported":1750771624,"current_range_meters":12400,"station_id":"","pricing_plan_id":"cebpf4jnsgd1na2vs0mg"},{"bike_id":"d26891e6-b0bb-4993-a568-bb28a4985eee","system_id":"levelo_inurba_marseille","lat":43.30144,"lon":5.38073,"is_reserved":false,"is_disabled":false,"rental_uris":{"android":"levelo://app?vid=d26891e6-b0bb-4993-a568-bb28a4985eee","ios":"levelo://app?vid=d26891e6-b0bb-4993-a568-bb28a4985eee"},"vehicle_type_id":"4","last_reported":1750771624,"current_range_meters":12400,"station_id":"ce4bgjp2rcd13ifvqbh0","pricing_plan_id":"cebpf4jnsgd1na2vs0mg"},{"bike_id":"110229a7-70cc-4508-9725-32d48e9c8d8d","system_id":"levelo_inurba_marseille","lat":43.31226,"lon":5.36855,"is_reserved":false,"is_disabled":false,"rental_uris":{"android":"levelo://app?vid=110229a7-70cc-4508-9725-32d48e9c8d8d","ios":"levelo://app?vid=110229a7-70cc-4508-9725-32d48e9c8d8d"},"vehicle_type_id":"4","last_reported":1750771624,"current_range_meters":12400,"station_id":"ce4bgl92rcd13ifvqbq0","pricing_plan_id":"cebpf4jnsgd1na2vs0mg"},{"bike_id":"426956d4-9e63-4dbe-8e48-bd7dade37250","system_id":"levelo_inurba_marseille","lat":43.30465,"lon":5.37893,"is_reserved":false,"is_disabled":false,"rental_uris":{"android":"levelo://app?vid=426956d4-9e63-4dbe-8e48-bd7dade37250","ios":"levelo://app?vid=426956d4-9e63-4dbe-8e48-bd7dade37250"},"vehicle_type_id":"4","last_reported":1750771624,"current_range_meters":12400,"station_id":"ce4bgup2rcd13ifvqcn0","pricing_plan_id":"cebpf4jnsgd1na2vs0mg"},{"bike_id":"4c38f877-abaa-4529-8eda-13e09c533639","system_id":"levelo_inurba_marseille","lat":43.295715,"lon":5.39965,"is_reserved":false,"is_disabled":false,"rental_uris":{"android":"levelo://app?vid=4c38f877-abaa-4529-8eda-13e09c533639","ios":"levelo://app?vid=4c38f877-abaa-4529-8eda-13e09c533639"},"vehicle_type_id":"4","last_reported":1750771624,"current_range_meters":12400,"station_id":"ce4bhn92rcd13ifvqgrg","pricing_plan_id":"cebpf4jnsgd1na2vs0mg"},{"bike_id":"2a3c4cf9-98fa-41f9-a29a-b1741c372167","system_id":"levelo_inurba_marseille","lat":43.324855,"lon":5.3657,"is_reserved":false,"is_disabled":false,"rental_uris":{"android":"levelo://app?vid=2a3c4cf9-98fa-41f9-a29a-b1741c372167","ios":"levelo://app?vid=2a3c4cf9-98fa-41f9-a29a-b1741c372167"},"vehicle_type_id":"4","last_reported":1750771624,"current_range_meters":12400,"station_id":"ce4bhs12rcd13ifvqhvg","pricing_plan_id":"cebpf4jnsgd1na2vs0mg"},{"bike_id":"3e0f5345-cfae-479a-9b41-9237c8726756","system_id":"levelo_inurba_marseille","lat":43.29682,"lon":5.36331,"is_reserved":false,"is_disabled":false,"rental_uris":{"android":"levelo://app?vid=3e0f5345-cfae-479a-9b41-9237c8726756","ios":"levelo://app?vid=3e0f5345-cfae-479a-9b41-9237c8726756"},"vehicle_type_id":"4","last_reported":1750771624,"current_range_meters":12800,"station_id":"","pricing_plan_id":"cebpf4jnsgd1na2vs0mg"},{"bike_id":"56e7e0cb-8d98-4329-bf99-d07046a865c2","system_id":"levelo_inurba_marseille","lat":43.309297,"lon":5.401282,"is_reserved":false,"is_disabled":false,"rental_uris":{"android":"levelo://app?vid=56e7e0cb-8d98-4329-bf99-d07046a865c2","ios":"levelo://app?vid=56e7e0cb-8d98-4329-bf99-d07046a865c2"},"vehicle_type_id":"4","last_reported":1750771624,"current_range_meters":12800,"station_id":"ce4bgvp2rcd13ifvqct0","pricing_plan_id":"cebpf4jnsgd1na2vs0mg"},{"bike_id":"3cd3f9f8-a2b9-4416-8245-0a9a38c83a53","system_id":"levelo_inurba_marseille","lat":43.28968,"lon":5.378379,"is_reserved":false,"is_disabled":false,"rental_uris":{"android":"levelo://app?vid=3cd3f9f8-a2b9-4416-8245-0a9a38c83a53","ios":"levelo://app?vid=3cd3f9f8-a2b9-4416-8245-0a9a38c83a53"},"vehicle_type_id":"4","last_reported":1750771624,"current_range_meters":12800,"station_id":"ce4bhmh2rcd13ifvqgmg","pricing_plan_id":"cebpf4jnsgd1na2vs0mg"},{"bike_id":"b6b861fa-fd27-43ad-89fb-4be1a264be92","system_id":"levelo_inurba_marseille","lat":43.25307,"lon":5.37497,"is_reserved":false,"is_disabled":false,"rental_uris":{"android":"levelo://app?vid=b6b861fa-fd27-43ad-89fb-4be1a264be92","ios":"levelo://app?vid=b6b861fa-fd27-43ad-89fb-4be1a264be92"},"vehicle_type_id":"4","last_reported":1750771624,"current_range_meters":13600,"station_id":"","pricing_plan_id":"cebpf4jnsgd1na2vs0mg"},{"bike_id":"7c3f6852-4f29-42a9-a8c1-e2b82bb43fcf","system_id":"levelo_inurba_marseille","lat":43.2927,"lon":5.42676,"is_reserved":false,"is_disabled":false,"rental_uris":{"android":"levelo://app?vid=7c3f6852-4f29-42a9-a8c1-e2b82bb43fcf","ios":"levelo://app?vid=7c3f6852-4f29-42a9-a8c1-e2b82bb43fcf"},"vehicle_type_id":"4","last_reported":1750771624,"current_range_meters":13600,"station_id":"","pricing_plan_id":"cebpf4jnsgd1na2vs0mg"},{"bike_id":"41650879-1c3b-4319-8d79-b9b9122a6f86","system_id":"levelo_inurba_marseille","lat":43.29919,"lon":5.3746,"is_reserved":false,"is_disabled":false,"rental_uris":{"android":"levelo://app?vid=41650879-1c3b-4319-8d79-b9b9122a6f86","ios":"levelo://app?vid=41650879-1c3b-4319-8d79-b9b9122a6f86"},"vehicle_type_id":"4","last_reported":1750771624,"current_range_meters":13600,"station_id":"ce4bgjh2rcd13ifvqbg0","pricing_plan_id":"cebpf4jnsgd1na2vs0mg"},{"bike_id":"19106cc1-4510-46bd-8353-6d2ae140aae4","system_id":"levelo_inurba_marseille","lat":43.21194,"lon":5.35066,"is_reserved":false,"is_disabled":false,"rental_uris":{"android":"levelo://app?vid=19106cc1-4510-46bd-8353-6d2ae140aae4","ios":"levelo://app?vid=19106cc1-4510-46bd-8353-6d2ae140aae4"},"vehicle_type_id":"4","last_reported":1750771624,"current_range_meters":13600,"station_id":"st_cvj6sg6p6f1abm77japg","pricing_plan_id":"cebpf4jnsgd1na2vs0mg"},{"bike_id":"763475c0-a5de-4444-b5fb-a67ccd172449","system_id":"levelo_inurba_marseille","lat":43.2456,"lon":5.37376,"is_reserved":false,"is_disabled":false,"rental_uris":{"android":"levelo://app?vid=763475c0-a5de-4444-b5fb-a67ccd172449","ios":"levelo://app?vid=763475c0-a5de-4444-b5fb-a67ccd172449"},"vehicle_type_id":"4","last_reported":1750771624,"current_range_meters":14000,"station_id":"","pricing_plan_id":"cebpf4jnsgd1na2vs0mg"},{"bike_id":"11ebf4fb-e752-44af-81e3-7d28e8eee9cc","system_id":"levelo_inurba_marseille","lat":43.28126,"lon":5.43205,"is_reserved":false,"is_disabled":false,"rental_uris":{"android":"levelo://app?vid=11ebf4fb-e752-44af-81e3-7d28e8eee9cc","ios":"levelo://app?vid=11ebf4fb-e752-44af-81e3-7d28e8eee9cc"},"vehicle_type_id":"4","last_reported":1750771624,"current_range_meters":14000,"station_id":"","pricing_plan_id":"cebpf4jnsgd1na2vs0mg"},{"bike_id":"76f8e701-a17e-41e7-a26e-647781a4207e","system_id":"levelo_inurba_marseille","lat":43.30793,"lon":5.37647,"is_reserved":false,"is_disabled":false,"rental_uris":{"android":"levelo://app?vid=76f8e701-a17e-41e7-a26e-647781a4207e","ios":"levelo://app?vid=76f8e701-a17e-41e7-a26e-647781a4207e"},"vehicle_type_id":"4","last_reported":1750771624,"current_range_meters":14000,"station_id":"ce4bgv92rcd13ifvqcq0","pricing_plan_id":"cebpf4jnsgd1na2vs0mg"},{"bike_id":"e8803cb1-88d0-47ab-aec2-11e1cc125e32","system_id":"levelo_inurba_marseille","lat":43.29265,"lon":5.38436,"is_reserved":false,"is_disabled":false,"rental_uris":{"android":"levelo://app?vid=e8803cb1-88d0-47ab-aec2-11e1cc125e32","ios":"levelo://app?vid=e8803cb1-88d0-47ab-aec2-11e1cc125e32"},"vehicle_type_id":"4","last_reported":1750771624,"current_range_meters":14000,"station_id":"ce4bh692rcd13ifvqea0","pricing_plan_id":"cebpf4jnsgd1na2vs0mg"},{"bike_id":"d4314e46-ddd9-4777-8e95-5e961c218a4a","system_id":"levelo_inurba_marseille","lat":43.26209,"lon":5.37444,"is_reserved":false,"is_disabled":false,"rental_uris":{"android":"levelo://app?vid=d4314e46-ddd9-4777-8e95-5e961c218a4a","ios":"levelo://app?vid=d4314e46-ddd9-4777-8e95-5e961c218a4a"},"vehicle_type_id":"4","last_reported":1750771624,"current_range_meters":14000,"station_id":"ce4bhgp2rcd13ifvqfc0","pricing_plan_id":"cebpf4jnsgd1na2vs0mg"},{"bike_id":"c572de09-8621-4080-97e0-afd1ccc92bb7","system_id":"levelo_inurba_marseille","lat":43.265,"lon":5.39539,"is_reserved":false,"is_disabled":false,"rental_uris":{"android":"levelo://app?vid=c572de09-8621-4080-97e0-afd1ccc92bb7","ios":"levelo://app?vid=c572de09-8621-4080-97e0-afd1ccc92bb7"},"vehicle_type_id":"4","last_reported":1750771624,"current_range_meters":14000,"station_id":"ce4bhi12rcd13ifvqfq0","pricing_plan_id":"cebpf4jnsgd1na2vs0mg"},{"bike_id":"f7d21a52-3225-4396-9d12-a1ed5d91e907","system_id":"levelo_inurba_marseille","lat":43.29165,"lon":5.3861,"is_reserved":false,"is_disabled":false,"rental_uris":{"android":"levelo://app?vid=f7d21a52-3225-4396-9d12-a1ed5d91e907","ios":"levelo://app?vid=f7d21a52-3225-4396-9d12-a1ed5d91e907"},"vehicle_type_id":"4","last_reported":1750771624,"current_range_meters":14400,"station_id":"","pricing_plan_id":"cebpf4jnsgd1na2vs0mg"},{"bike_id":"2c6e7c9f-c319-488f-97f2-12e7a44da27e","system_id":"levelo_inurba_marseille","lat":43.30553,"lon":5.36528,"is_reserved":false,"is_disabled":false,"rental_uris":{"android":"levelo://app?vid=2c6e7c9f-c319-488f-97f2-12e7a44da27e","ios":"levelo://app?vid=2c6e7c9f-c319-488f-97f2-12e7a44da27e"},"vehicle_type_id":"4","last_reported":1750771624,"current_range_meters":14400,"station_id":"ce4bgs12rcd13ifvqcag","pricing_plan_id":"cebpf4jnsgd1na2vs0mg"},{"bike_id":"a1f29b14-dc91-4a0d-8142-aa8ed1b7f8a4","system_id":"levelo_inurba_marseille","lat":43.28408,"lon":5.34922,"is_reserved":false,"is_disabled":false,"rental_uris":{"android":"levelo://app?vid=a1f29b14-dc91-4a0d-8142-aa8ed1b7f8a4","ios":"levelo://app?vid=a1f29b14-dc91-4a0d-8142-aa8ed1b7f8a4"},"vehicle_type_id":"4","last_reported":1750771624,"current_range_meters":14400,"station_id":"ce4bhbh2rcd13ifvqepg","pricing_plan_id":"cebpf4jnsgd1na2vs0mg"},{"bike_id":"cef721fd-afe4-48d0-89b0-0777a634e87f","system_id":"levelo_inurba_marseille","lat":43.244,"lon":5.37109,"is_reserved":false,"is_disabled":false,"rental_uris":{"android":"levelo://app?vid=cef721fd-afe4-48d0-89b0-0777a634e87f","ios":"levelo://app?vid=cef721fd-afe4-48d0-89b0-0777a634e87f"},"vehicle_type_id":"4","last_reported":1750771624,"current_range_meters":14400,"station_id":"ce4bhhh2rcd13ifvqfk0","pricing_plan_id":"cebpf4jnsgd1na2vs0mg"},{"bike_id":"41fe57df-3ff3-4dcf-84d1-f348b06364d2","system_id":"levelo_inurba_marseille","lat":43.31111,"lon":5.37781,"is_reserved":false,"is_disabled":false,"rental_uris":{"android":"levelo://app?vid=41fe57df-3ff3-4dcf-84d1-f348b06364d2","ios":"levelo://app?vid=41fe57df-3ff3-4dcf-84d1-f348b06364d2"},"vehicle_type_id":"4","last_reported":1750771624,"current_range_meters":14800,"station_id":"ce4bgt92rcd13ifvqcg0","pricing_plan_id":"cebpf4jnsgd1na2vs0mg"},{"bike_id":"ccf15cdc-a4da-4a1a-9cd4-6880ae357a92","system_id":"levelo_inurba_marseille","lat":43.28703,"lon":5.37381,"is_reserved":false,"is_disabled":false,"rental_uris":{"android":"levelo://app?vid=ccf15cdc-a4da-4a1a-9cd4-6880ae357a92","ios":"levelo://app?vid=ccf15cdc-a4da-4a1a-9cd4-6880ae357a92"},"vehicle_type_id":"4","last_reported":1750771624,"current_range_meters":14800,"station_id":"ce4bh3p2rcd13ifvqdq0","pricing_plan_id":"cebpf4jnsgd1na2vs0mg"},{"bike_id":"f8838a41-c2ba-404f-a91e-f0673386e5f1","system_id":"levelo_inurba_marseille","lat":43.2903,"lon":5.38641,"is_reserved":false,"is_disabled":false,"rental_uris":{"android":"levelo://app?vid=f8838a41-c2ba-404f-a91e-f0673386e5f1","ios":"levelo://app?vid=f8838a41-c2ba-404f-a91e-f0673386e5f1"},"vehicle_type_id":"4","last_reported":1750771624,"current_range_meters":14800,"station_id":"ce4bh4p2rcd13ifvqe0g","pricing_plan_id":"cebpf4jnsgd1na2vs0mg"},{"bike_id":"aa663bea-cee2-447e-ac46-7f0939f7bc99","system_id":"levelo_inurba_marseille","lat":43.25086,"lon":5.39524,"is_reserved":false,"is_disabled":false,"rental_uris":{"android":"levelo://app?vid=aa663bea-cee2-447e-ac46-7f0939f7bc99","ios":"levelo://app?vid=aa663bea-cee2-447e-ac46-7f0939f7bc99"},"vehicle_type_id":"4","last_reported":1750771624,"current_range_meters":14800,"station_id":"ce4bhm12rcd13ifvqgkg","pricing_plan_id":"cebpf4jnsgd1na2vs0mg"},{"bike_id":"f30b7e2c-e6a8-47ac-9582-47bca9aac1bf","system_id":"levelo_inurba_marseille","lat":43.33161,"lon":5.38186,"is_reserved":false,"is_disabled":false,"rental_uris":{"android":"levelo://app?vid=f30b7e2c-e6a8-47ac-9582-47bca9aac1bf","ios":"levelo://app?vid=f30b7e2c-e6a8-47ac-9582-47bca9aac1bf"},"vehicle_type_id":"4","last_reported":1750771624,"current_range_meters":15200,"station_id":"","pricing_plan_id":"cebpf4jnsgd1na2vs0mg"},{"bike_id":"7ea3c9bd-f9bd-438e-b9e1-cdbe4f91c60d","system_id":"levelo_inurba_marseille","lat":43.22904,"lon":5.35294,"is_reserved":false,"is_disabled":false,"rental_uris":{"android":"levelo://app?vid=7ea3c9bd-f9bd-438e-b9e1-cdbe4f91c60d","ios":"levelo://app?vid=7ea3c9bd-f9bd-438e-b9e1-cdbe4f91c60d"},"vehicle_type_id":"4","last_reported":1750771624,"current_range_meters":15200,"station_id":"","pricing_plan_id":"cebpf4jnsgd1na2vs0mg"},{"bike_id":"cc1d4dd9-4e03-4866-b18b-0f17e577a4bf","system_id":"levelo_inurba_marseille","lat":43.31074,"lon":5.38353,"is_reserved":false,"is_disabled":false,"rental_uris":{"android":"levelo://app?vid=cc1d4dd9-4e03-4866-b18b-0f17e577a4bf","ios":"levelo://app?vid=cc1d4dd9-4e03-4866-b18b-0f17e577a4bf"},"vehicle_type_id":"4","last_reported":1750771624,"current_range_meters":15200,"station_id":"ce4bgv92rcd13ifvqcr0","pricing_plan_id":"cebpf4jnsgd1na2vs0mg"},{"bike_id":"35b14479-4a4d-4383-83de-c7fea66894b3","system_id":"levelo_inurba_marseille","lat":43.29902,"lon":5.43663,"is_reserved":false,"is_disabled":false,"rental_uris":{"android":"levelo://app?vid=35b14479-4a4d-4383-83de-c7fea66894b3","ios":"levelo://app?vid=35b14479-4a4d-4383-83de-c7fea66894b3"},"vehicle_type_id":"4","last_reported":1750771624,"current_range_meters":15200,"station_id":"ce4bhpp2rcd13ifvqhfg","pricing_plan_id":"cebpf4jnsgd1na2vs0mg"},{"bike_id":"51df9c8d-f116-4628-8c40-f3171ceea641","system_id":"levelo_inurba_marseille","lat":43.28133,"lon":5.44593,"is_reserved":false,"is_disabled":false,"rental_uris":{"android":"levelo://app?vid=51df9c8d-f116-4628-8c40-f3171ceea641","ios":"levelo://app?vid=51df9c8d-f116-4628-8c40-f3171ceea641"},"vehicle_type_id":"4","last_reported":1750771624,"current_range_meters":16000,"station_id":"","pricing_plan_id":"cebpf4jnsgd1na2vs0mg"},{"bike_id":"37639598-87cb-49f2-bb28-e8116a49605f","system_id":"levelo_inurba_marseille","lat":43.22495,"lon":5.34813,"is_reserved":false,"is_disabled":false,"rental_uris":{"android":"levelo://app?vid=37639598-87cb-49f2-bb28-e8116a49605f","ios":"levelo://app?vid=37639598-87cb-49f2-bb28-e8116a49605f"},"vehicle_type_id":"4","last_reported":1750771624,"current_range_meters":16000,"station_id":"","pricing_plan_id":"cebpf4jnsgd1na2vs0mg"},{"bike_id":"51b217be-9488-41c1-b083-6d728251b280","system_id":"levelo_inurba_marseille","lat":43.24355,"lon":5.36871,"is_reserved":false,"is_disabled":false,"rental_uris":{"android":"levelo://app?vid=51b217be-9488-41c1-b083-6d728251b280","ios":"levelo://app?vid=51b217be-9488-41c1-b083-6d728251b280"},"vehicle_type_id":"4","last_reported":1750771624,"current_range_meters":16000,"station_id":"","pricing_plan_id":"cebpf4jnsgd1na2vs0mg"},{"bike_id":"6af11411-eaec-434d-8aec-5ac25bed1ca3","system_id":"levelo_inurba_marseille","lat":43.31341,"lon":5.36733,"is_reserved":false,"is_disabled":false,"rental_uris":{"android":"levelo://app?vid=6af11411-eaec-434d-8aec-5ac25bed1ca3","ios":"levelo://app?vid=6af11411-eaec-434d-8aec-5ac25bed1ca3"},"vehicle_type_id":"4","last_reported":1750771624,"current_range_meters":16000,"station_id":"ce4bgr92rcd13ifvqc6g","pricing_plan_id":"cebpf4jnsgd1na2vs0mg"},{"bike_id":"b87f5e37-a4df-4bc8-a944-6d6d09b0f782","system_id":"levelo_inurba_marseille","lat":43.305389,"lon":5.366996,"is_reserved":false,"is_disabled":false,"rental_uris":{"android":"levelo://app?vid=b87f5e37-a4df-4bc8-a944-6d6d09b0f782","ios":"levelo://app?vid=b87f5e37-a4df-4bc8-a944-6d6d09b0f782"},"vehicle_type_id":"4","last_reported":1750771624,"current_range_meters":16000,"station_id":"ce4bgrp2rcd13ifvqc9g","pricing_plan_id":"cebpf4jnsgd1na2vs0mg"},{"bike_id":"23a3b034-0275-445d-9eaf-69d94dd1d5eb","system_id":"levelo_inurba_marseille","lat":43.27915,"lon":5.39576,"is_reserved":false,"is_disabled":false,"rental_uris":{"android":"levelo://app?vid=23a3b034-0275-445d-9eaf-69d94dd1d5eb","ios":"levelo://app?vid=23a3b034-0275-445d-9eaf-69d94dd1d5eb"},"vehicle_type_id":"4","last_reported":1750771624,"current_range_meters":16000,"station_id":"ce4bhf92rcd13ifvqf40","pricing_plan_id":"cebpf4jnsgd1na2vs0mg"},{"bike_id":"8cd3e3ea-2346-42fe-bba2-e7a68790f830","system_id":"levelo_inurba_marseille","lat":43.25909,"lon":5.40872,"is_reserved":false,"is_disabled":false,"rental_uris":{"android":"levelo://app?vid=8cd3e3ea-2346-42fe-bba2-e7a68790f830","ios":"levelo://app?vid=8cd3e3ea-2346-42fe-bba2-e7a68790f830"},"vehicle_type_id":"4","last_reported":1750771624,"current_range_meters":16000,"station_id":"ce4bhm92rcd13ifvqglg","pricing_plan_id":"cebpf4jnsgd1na2vs0mg"},{"bike_id":"17554c52-9615-46f6-b92a-7d0e6af39209","system_id":"levelo_inurba_marseille","lat":43.231533,"lon":5.43729,"is_reserved":false,"is_disabled":false,"rental_uris":{"android":"levelo://app?vid=17554c52-9615-46f6-b92a-7d0e6af39209","ios":"levelo://app?vid=17554c52-9615-46f6-b92a-7d0e6af39209"},"vehicle_type_id":"4","last_reported":1750771624,"current_range_meters":16000,"station_id":"ce4bhmp2rcd13ifvqgog","pricing_plan_id":"cebpf4jnsgd1na2vs0mg"},{"bike_id":"af112b62-19de-41d4-b8d7-e14d0172315d","system_id":"levelo_inurba_marseille","lat":43.3274,"lon":5.39256,"is_reserved":false,"is_disabled":false,"rental_uris":{"android":"levelo://app?vid=af112b62-19de-41d4-b8d7-e14d0172315d","ios":"levelo://app?vid=af112b62-19de-41d4-b8d7-e14d0172315d"},"vehicle_type_id":"4","last_reported":1750771624,"current_range_meters":16400,"station_id":"","pricing_plan_id":"cebpf4jnsgd1na2vs0mg"},{"bike_id":"9d17ba94-28b9-4307-96c9-7a19692d51f0","system_id":"levelo_inurba_marseille","lat":43.33099,"lon":5.39387,"is_reserved":false,"is_disabled":false,"rental_uris":{"android":"levelo://app?vid=9d17ba94-28b9-4307-96c9-7a19692d51f0","ios":"levelo://app?vid=9d17ba94-28b9-4307-96c9-7a19692d51f0"},"vehicle_type_id":"4","last_reported":1750771624,"current_range_meters":16400,"station_id":"","pricing_plan_id":"cebpf4jnsgd1na2vs0mg"},{"bike_id":"ff1500cc-ac8f-45c9-881c-9fd6595094a3","system_id":"levelo_inurba_marseille","lat":43.31815,"lon":5.40176,"is_reserved":false,"is_disabled":false,"rental_uris":{"android":"levelo://app?vid=ff1500cc-ac8f-45c9-881c-9fd6595094a3","ios":"levelo://app?vid=ff1500cc-ac8f-45c9-881c-9fd6595094a3"},"vehicle_type_id":"4","last_reported":1750771624,"current_range_meters":16400,"station_id":"","pricing_plan_id":"cebpf4jnsgd1na2vs0mg"},{"bike_id":"d3ebe7db-fde8-40a0-ad9c-3bb515e3328d","system_id":"levelo_inurba_marseille","lat":43.30146,"lon":5.3742,"is_reserved":false,"is_disabled":false,"rental_uris":{"android":"levelo://app?vid=d3ebe7db-fde8-40a0-ad9c-3bb515e3328d","ios":"levelo://app?vid=d3ebe7db-fde8-40a0-ad9c-3bb515e3328d"},"vehicle_type_id":"4","last_reported":1750771624,"current_range_meters":16400,"station_id":"ce4bgs92rcd13ifvqcc0","pricing_plan_id":"cebpf4jnsgd1na2vs0mg"},{"bike_id":"a2795f7d-7cbc-4e4c-a22f-2a7dcbd8eef6","system_id":"levelo_inurba_marseille","lat":43.28407,"lon":5.3499,"is_reserved":false,"is_disabled":false,"rental_uris":{"android":"levelo://app?vid=a2795f7d-7cbc-4e4c-a22f-2a7dcbd8eef6","ios":"levelo://app?vid=a2795f7d-7cbc-4e4c-a22f-2a7dcbd8eef6"},"vehicle_type_id":"4","last_reported":1750771624,"current_range_meters":16400,"station_id":"ce4bhbh2rcd13ifvqepg","pricing_plan_id":"cebpf4jnsgd1na2vs0mg"},{"bike_id":"29dc21c4-3b1b-47b1-a5ad-aa5a0a4f0057","system_id":"levelo_inurba_marseille","lat":43.29229,"lon":5.36084,"is_reserved":false,"is_disabled":false,"rental_uris":{"android":"levelo://app?vid=29dc21c4-3b1b-47b1-a5ad-aa5a0a4f0057","ios":"levelo://app?vid=29dc21c4-3b1b-47b1-a5ad-aa5a0a4f0057"},"vehicle_type_id":"4","last_reported":1750771624,"current_range_meters":16400,"station_id":"ce4bhbh2rcd13ifvqeqg","pricing_plan_id":"cebpf4jnsgd1na2vs0mg"},{"bike_id":"4fa1fe6b-8d3c-450c-b5b2-1e5b2cd286be","system_id":"levelo_inurba_marseille","lat":43.31079,"lon":5.42442,"is_reserved":false,"is_disabled":false,"rental_uris":{"android":"levelo://app?vid=4fa1fe6b-8d3c-450c-b5b2-1e5b2cd286be","ios":"levelo://app?vid=4fa1fe6b-8d3c-450c-b5b2-1e5b2cd286be"},"vehicle_type_id":"4","last_reported":1750771624,"current_range_meters":16400,"station_id":"ce4bhp92rcd13ifvqhag","pricing_plan_id":"cebpf4jnsgd1na2vs0mg"},{"bike_id":"f1d9ee1e-40b0-4436-9add-400906aba09e","system_id":"levelo_inurba_marseille","lat":43.32499,"lon":5.36608,"is_reserved":false,"is_disabled":false,"rental_uris":{"android":"levelo://app?vid=f1d9ee1e-40b0-4436-9add-400906aba09e","ios":"levelo://app?vid=f1d9ee1e-40b0-4436-9add-400906aba09e"},"vehicle_type_id":"4","last_reported":1750771624,"current_range_meters":16400,"station_id":"ce4bhs12rcd13ifvqhvg","pricing_plan_id":"cebpf4jnsgd1na2vs0mg"},{"bike_id":"24bec0ac-4c6c-4842-80e7-9983c2b33e58","system_id":"levelo_inurba_marseille","lat":43.21219,"lon":5.35104,"is_reserved":false,"is_disabled":false,"rental_uris":{"android":"levelo://app?vid=24bec0ac-4c6c-4842-80e7-9983c2b33e58","ios":"levelo://app?vid=24bec0ac-4c6c-4842-80e7-9983c2b33e58"},"vehicle_type_id":"4","last_reported":1750771624,"current_range_meters":16800,"station_id":"","pricing_plan_id":"cebpf4jnsgd1na2vs0mg"},{"bike_id":"5884fe4c-9df5-482f-9f2a-30cf5f273d63","system_id":"levelo_inurba_marseille","lat":43.314835,"lon":5.37296,"is_reserved":false,"is_disabled":false,"rental_uris":{"android":"levelo://app?vid=5884fe4c-9df5-482f-9f2a-30cf5f273d63","ios":"levelo://app?vid=5884fe4c-9df5-482f-9f2a-30cf5f273d63"},"vehicle_type_id":"4","last_reported":1750771624,"current_range_meters":16800,"station_id":"ce4bgt12rcd13ifvqcd0","pricing_plan_id":"cebpf4jnsgd1na2vs0mg"},{"bike_id":"1d760dbd-f767-41bb-8cc2-9084da953290","system_id":"levelo_inurba_marseille","lat":43.2953,"lon":5.39391,"is_reserved":false,"is_disabled":false,"rental_uris":{"android":"levelo://app?vid=1d760dbd-f767-41bb-8cc2-9084da953290","ios":"levelo://app?vid=1d760dbd-f767-41bb-8cc2-9084da953290"},"vehicle_type_id":"4","last_reported":1750771624,"current_range_meters":16800,"station_id":"ce4bh292rcd13ifvqdf0","pricing_plan_id":"cebpf4jnsgd1na2vs0mg"},{"bike_id":"379fd03d-bb57-4627-8869-dbb0c277c298","system_id":"levelo_inurba_marseille","lat":43.28434,"lon":5.35014,"is_reserved":false,"is_disabled":false,"rental_uris":{"android":"levelo://app?vid=379fd03d-bb57-4627-8869-dbb0c277c298","ios":"levelo://app?vid=379fd03d-bb57-4627-8869-dbb0c277c298"},"vehicle_type_id":"4","last_reported":1750771624,"current_range_meters":16800,"station_id":"ce4bhbh2rcd13ifvqepg","pricing_plan_id":"cebpf4jnsgd1na2vs0mg"},{"bike_id":"39486cc5-3a58-4e21-b1fd-7a6272ebbaec","system_id":"levelo_inurba_marseille","lat":43.23147,"lon":5.43719,"is_reserved":false,"is_disabled":false,"rental_uris":{"android":"levelo://app?vid=39486cc5-3a58-4e21-b1fd-7a6272ebbaec","ios":"levelo://app?vid=39486cc5-3a58-4e21-b1fd-7a6272ebbaec"},"vehicle_type_id":"4","last_reported":1750771624,"current_range_meters":16800,"station_id":"ce4bhmp2rcd13ifvqgog","pricing_plan_id":"cebpf4jnsgd1na2vs0mg"},{"bike_id":"7cd015d4-a64f-408d-885a-3044d1b6e974","system_id":"levelo_inurba_marseille","lat":43.23166,"lon":5.43734,"is_reserved":false,"is_disabled":false,"rental_uris":{"android":"levelo://app?vid=7cd015d4-a64f-408d-885a-3044d1b6e974","ios":"levelo://app?vid=7cd015d4-a64f-408d-885a-3044d1b6e974"},"vehicle_type_id":"4","last_reported":1750771624,"current_range_meters":16800,"station_id":"ce4bhmp2rcd13ifvqgog","pricing_plan_id":"cebpf4jnsgd1na2vs0mg"},{"bike_id":"b8ce578d-7cf5-4a38-bd36-6a6897c9f454","system_id":"levelo_inurba_marseille","lat":43.29903,"lon":5.43656,"is_reserved":false,"is_disabled":false,"rental_uris":{"android":"levelo://app?vid=b8ce578d-7cf5-4a38-bd36-6a6897c9f454","ios":"levelo://app?vid=b8ce578d-7cf5-4a38-bd36-6a6897c9f454"},"vehicle_type_id":"4","last_reported":1750771624,"current_range_meters":16800,"station_id":"ce4bhpp2rcd13ifvqhfg","pricing_plan_id":"cebpf4jnsgd1na2vs0mg"},{"bike_id":"26a14eba-87a9-47b8-9607-30bd0042d428","system_id":"levelo_inurba_marseille","lat":43.31449,"lon":5.39444,"is_reserved":false,"is_disabled":false,"rental_uris":{"android":"levelo://app?vid=26a14eba-87a9-47b8-9607-30bd0042d428","ios":"levelo://app?vid=26a14eba-87a9-47b8-9607-30bd0042d428"},"vehicle_type_id":"4","last_reported":1750771624,"current_range_meters":17200,"station_id":"","pricing_plan_id":"cebpf4jnsgd1na2vs0mg"},{"bike_id":"b661e39b-4538-41ad-8526-3c320e3612d3","system_id":"levelo_inurba_marseille","lat":43.28407,"lon":5.34986,"is_reserved":false,"is_disabled":false,"rental_uris":{"android":"levelo://app?vid=b661e39b-4538-41ad-8526-3c320e3612d3","ios":"levelo://app?vid=b661e39b-4538-41ad-8526-3c320e3612d3"},"vehicle_type_id":"4","last_reported":1750771624,"current_range_meters":17200,"station_id":"ce4bhbh2rcd13ifvqepg","pricing_plan_id":"cebpf4jnsgd1na2vs0mg"},{"bike_id":"97f657bd-fa9d-458f-b8a1-3646f3322584","system_id":"levelo_inurba_marseille","lat":43.241783,"lon":5.397283,"is_reserved":false,"is_disabled":false,"rental_uris":{"android":"levelo://app?vid=97f657bd-fa9d-458f-b8a1-3646f3322584","ios":"levelo://app?vid=97f657bd-fa9d-458f-b8a1-3646f3322584"},"vehicle_type_id":"4","last_reported":1750771624,"current_range_meters":17200,"station_id":"ce4bhn12rcd13ifvqgpg","pricing_plan_id":"cebpf4jnsgd1na2vs0mg"},{"bike_id":"a689f34a-4051-4799-b5b2-d2783cb112ae","system_id":"levelo_inurba_marseille","lat":43.2419,"lon":5.39752,"is_reserved":false,"is_disabled":false,"rental_uris":{"android":"levelo://app?vid=a689f34a-4051-4799-b5b2-d2783cb112ae","ios":"levelo://app?vid=a689f34a-4051-4799-b5b2-d2783cb112ae"},"vehicle_type_id":"4","last_reported":1750771624,"current_range_meters":17200,"station_id":"ce4bhn12rcd13ifvqgpg","pricing_plan_id":"cebpf4jnsgd1na2vs0mg"},{"bike_id":"a75215ea-3fd1-41a6-9c5e-89a83020f2e6","system_id":"levelo_inurba_marseille","lat":43.29788,"lon":5.39335,"is_reserved":false,"is_disabled":false,"rental_uris":{"android":"levelo://app?vid=a75215ea-3fd1-41a6-9c5e-89a83020f2e6","ios":"levelo://app?vid=a75215ea-3fd1-41a6-9c5e-89a83020f2e6"},"vehicle_type_id":"4","last_reported":1750771624,"current_range_meters":17200,"station_id":"chh1huq6cuj3fo74tm60","pricing_plan_id":"cebpf4jnsgd1na2vs0mg"},{"bike_id":"e2f5b300-4a63-4778-aada-c29a8a0ea1e8","system_id":"levelo_inurba_marseille","lat":43.32575,"lon":5.39256,"is_reserved":false,"is_disabled":false,"rental_uris":{"android":"levelo://app?vid=e2f5b300-4a63-4778-aada-c29a8a0ea1e8","ios":"levelo://app?vid=e2f5b300-4a63-4778-aada-c29a8a0ea1e8"},"vehicle_type_id":"4","last_reported":1750771624,"current_range_meters":17600,"station_id":"","pricing_plan_id":"cebpf4jnsgd1na2vs0mg"},{"bike_id":"ccab6f21-3f21-4fc1-856c-1c31b0b7bdc8","system_id":"levelo_inurba_marseille","lat":43.30273,"lon":5.37692,"is_reserved":false,"is_disabled":false,"rental_uris":{"android":"levelo://app?vid=ccab6f21-3f21-4fc1-856c-1c31b0b7bdc8","ios":"levelo://app?vid=ccab6f21-3f21-4fc1-856c-1c31b0b7bdc8"},"vehicle_type_id":"4","last_reported":1750771624,"current_range_meters":17600,"station_id":"","pricing_plan_id":"cebpf4jnsgd1na2vs0mg"},{"bike_id":"53e6d29f-abce-4954-9035-1519b2229f1c","system_id":"levelo_inurba_marseille","lat":43.30932,"lon":5.40143,"is_reserved":false,"is_disabled":false,"rental_uris":{"android":"levelo://app?vid=53e6d29f-abce-4954-9035-1519b2229f1c","ios":"levelo://app?vid=53e6d29f-abce-4954-9035-1519b2229f1c"},"vehicle_type_id":"4","last_reported":1750771624,"current_range_meters":17600,"station_id":"ce4bgvp2rcd13ifvqct0","pricing_plan_id":"cebpf4jnsgd1na2vs0mg"},{"bike_id":"3eabdee1-ccdc-41bb-a70b-3d217130d0dd","system_id":"levelo_inurba_marseille","lat":43.282678,"lon":5.350571,"is_reserved":false,"is_disabled":false,"rental_uris":{"android":"levelo://app?vid=3eabdee1-ccdc-41bb-a70b-3d217130d0dd","ios":"levelo://app?vid=3eabdee1-ccdc-41bb-a70b-3d217130d0dd"},"vehicle_type_id":"4","last_reported":1750771624,"current_range_meters":17600,"station_id":"ce4bhbp2rcd13ifvqerg","pricing_plan_id":"cebpf4jnsgd1na2vs0mg"},{"bike_id":"602ab407-a79a-4fc2-8a9b-df3168b09d43","system_id":"levelo_inurba_marseille","lat":43.3239,"lon":5.36759,"is_reserved":false,"is_disabled":false,"rental_uris":{"android":"levelo://app?vid=602ab407-a79a-4fc2-8a9b-df3168b09d43","ios":"levelo://app?vid=602ab407-a79a-4fc2-8a9b-df3168b09d43"},"vehicle_type_id":"4","last_reported":1750771624,"current_range_meters":17600,"station_id":"ce4bhsh2rcd13ifvqi2g","pricing_plan_id":"cebpf4jnsgd1na2vs0mg"},{"bike_id":"6d66f760-917a-49b1-b200-d585832e6166","system_id":"levelo_inurba_marseille","lat":43.229304,"lon":5.353684,"is_reserved":false,"is_disabled":false,"rental_uris":{"android":"levelo://app?vid=6d66f760-917a-49b1-b200-d585832e6166","ios":"levelo://app?vid=6d66f760-917a-49b1-b200-d585832e6166"},"vehicle_type_id":"4","last_reported":1750771624,"current_range_meters":17600,"station_id":"cpo3532slgdg3j2ikp40","pricing_plan_id":"cebpf4jnsgd1na2vs0mg"},{"bike_id":"3b951d47-daef-4f47-9b11-1cb55583c0cc","system_id":"levelo_inurba_marseille","lat":43.21222,"lon":5.35057,"is_reserved":false,"is_disabled":false,"rental_uris":{"android":"levelo://app?vid=3b951d47-daef-4f47-9b11-1cb55583c0cc","ios":"levelo://app?vid=3b951d47-daef-4f47-9b11-1cb55583c0cc"},"vehicle_type_id":"4","last_reported":1750771624,"current_range_meters":18000,"station_id":"","pricing_plan_id":"cebpf4jnsgd1na2vs0mg"},{"bike_id":"ec1bbb20-efbe-404b-8beb-e922e0200c0c","system_id":"levelo_inurba_marseille","lat":43.29961,"lon":5.37031,"is_reserved":false,"is_disabled":false,"rental_uris":{"android":"levelo://app?vid=ec1bbb20-efbe-404b-8beb-e922e0200c0c","ios":"levelo://app?vid=ec1bbb20-efbe-404b-8beb-e922e0200c0c"},"vehicle_type_id":"4","last_reported":1750771624,"current_range_meters":18000,"station_id":"","pricing_plan_id":"cebpf4jnsgd1na2vs0mg"},{"bike_id":"bbb78b67-ce19-4b52-97a6-b06213e08554","system_id":"levelo_inurba_marseille","lat":43.31513,"lon":5.37294,"is_reserved":false,"is_disabled":false,"rental_uris":{"android":"levelo://app?vid=bbb78b67-ce19-4b52-97a6-b06213e08554","ios":"levelo://app?vid=bbb78b67-ce19-4b52-97a6-b06213e08554"},"vehicle_type_id":"4","last_reported":1750771624,"current_range_meters":18000,"station_id":"ce4bgt12rcd13ifvqcd0","pricing_plan_id":"cebpf4jnsgd1na2vs0mg"},{"bike_id":"707ba524-9686-4a9b-ba72-2ad3b143c134","system_id":"levelo_inurba_marseille","lat":43.31484,"lon":5.37298,"is_reserved":false,"is_disabled":false,"rental_uris":{"android":"levelo://app?vid=707ba524-9686-4a9b-ba72-2ad3b143c134","ios":"levelo://app?vid=707ba524-9686-4a9b-ba72-2ad3b143c134"},"vehicle_type_id":"4","last_reported":1750771624,"current_range_meters":18000,"station_id":"ce4bgt12rcd13ifvqcd0","pricing_plan_id":"cebpf4jnsgd1na2vs0mg"},{"bike_id":"f7e5103c-802a-4eab-973a-14f837db0b6b","system_id":"levelo_inurba_marseille","lat":43.30915,"lon":5.401291,"is_reserved":false,"is_disabled":false,"rental_uris":{"android":"levelo://app?vid=f7e5103c-802a-4eab-973a-14f837db0b6b","ios":"levelo://app?vid=f7e5103c-802a-4eab-973a-14f837db0b6b"},"vehicle_type_id":"4","last_reported":1750771624,"current_range_meters":18000,"station_id":"ce4bgvp2rcd13ifvqct0","pricing_plan_id":"cebpf4jnsgd1na2vs0mg"},{"bike_id":"398dfd31-01f3-4ef3-a41f-79cd96baad79","system_id":"levelo_inurba_marseille","lat":43.30123,"lon":5.39879,"is_reserved":false,"is_disabled":false,"rental_uris":{"android":"levelo://app?vid=398dfd31-01f3-4ef3-a41f-79cd96baad79","ios":"levelo://app?vid=398dfd31-01f3-4ef3-a41f-79cd96baad79"},"vehicle_type_id":"4","last_reported":1750771624,"current_range_meters":18000,"station_id":"ce4bh0h2rcd13ifvqd40","pricing_plan_id":"cebpf4jnsgd1na2vs0mg"},{"bike_id":"e3cbe31d-3f2f-4c4c-a959-3bdba55d2dad","system_id":"levelo_inurba_marseille","lat":43.229221,"lon":5.353849,"is_reserved":false,"is_disabled":false,"rental_uris":{"android":"levelo://app?vid=e3cbe31d-3f2f-4c4c-a959-3bdba55d2dad","ios":"levelo://app?vid=e3cbe31d-3f2f-4c4c-a959-3bdba55d2dad"},