{"last_updated":1749661768,"ttl":60,"version":"2.2","data":{"bikes":[{"bike_id":"9d4da415-b681-4691-a4d0-d240548507a9","system_id":"levelo_inurba_marseille","lat":43.29422,"lon":5.38606,"is_reserved":false,"is_disabled":true,"rental_uris":{"android":"levelo://app?vid=9d4da415-b681-4691-a4d0-d240548507a9","ios":"levelo://app?vid=9d4da415-b681-4691-a4d0-d240548507a9"},"vehicle_type_id":"4","last_reported":1749661768,"current_range_meters":2800,"station_id":"ce4bh2h2rcd13ifvqdh0","pricing_plan_id":"cebpf4jnsgd1na2vs0mg"},{"bike_id":"c5c311d4-786a-4de3-8f48-be8f0777332d","system_id":"levelo_inurba_marseille","lat":43.289632,"lon":5.385233,"is_reserved":false,"is_disabled":false,"rental_uris":{"android":"levelo://app?vid=c5c311d4-786a-4de3-8f48-be8f0777332d","ios":"levelo://app?vid=c5c311d4-786a-4de3-8f48-be8f0777332d"},"vehicle_type_id":"4","last_reported":1749661768,"current_range_meters":2800,"station_id":"ce4bh612rcd13ifvqe6g","pricing_plan_id":"cebpf4jnsgd1na2vs0mg"},{"bike_id":"4bdc3bd5-f358-4a10-910f-9f745de287b8","system_id":"levelo_inurba_marseille","lat":43.29061,"lon":5.35907,"is_reserved":false,"is_disabled":false,"rental_uris":{"android":"levelo://app?vid=4bdc3bd5-f358-4a10-910f-9f745de287b8","ios":"levelo://app?vid=4bdc3bd5-f358-4a10-910f-9f745de287b8"},"vehicle_type_id":"4","last_reported":1749661768,"current_range_meters":2800,"station_id":"ce4bha92rcd13ifvqeg0","pricing_plan_id":"cebpf4jnsgd1na2vs0mg"},{"bike_id":"a5d06c78-165b-408d-803c-1170f7021952","system_id":"levelo_inurba_marseille","lat":43.28266,"lon":5.35059,"is_reserved":false,"is_disabled":false,"rental_uris":{"android":"levelo://app?vid=a5d06c78-165b-408d-803c-1170f7021952","ios":"levelo://app?vid=a5d06c78-165b-408d-803c-1170f7021952"},"vehicle_type_id":"4","last_reported":1749661768,"current_range_meters":3200,"station_id":"ce4bhbp2rcd13ifvqerg","pricing_plan_id":"cebpf4jnsgd1na2vs0mg"},{"bike_id":"71a6ad24-4e18-4bd8-917d-5666aa0c4d76","system_id":"levelo_inurba_marseille","lat":43.33741,"lon":5.37525,"is_reserved":false,"is_disabled":false,"rental_uris":{"android":"levelo://app?vid=71a6ad24-4e18-4bd8-917d-5666aa0c4d76","ios":"levelo://app?vid=71a6ad24-4e18-4bd8-917d-5666aa0c4d76"},"vehicle_type_id":"4","last_reported":1749661768,"current_range_meters":3200,"station_id":"","pricing_plan_id":"cebpf4jnsgd1na2vs0mg"},{"bike_id":"82ec4954-bc1b-4247-a2e1-0739cced7f52","system_id":"levelo_inurba_marseille","lat":43.295942,"lon":5.405104,"is_reserved":false,"is_disabled":false,"rental_uris":{"android":"levelo://app?vid=82ec4954-bc1b-4247-a2e1-0739cced7f52","ios":"levelo://app?vid=82ec4954-bc1b-4247-a2e1-0739cced7f52"},"vehicle_type_id":"4","last_reported":1749661768,"current_range_meters":3200,"station_id":"ce4bh0h2rcd13ifvqd60","pricing_plan_id":"cebpf4jnsgd1na2vs0mg"},{"bike_id":"1cfa0b01-ada5-459f-9a29-1fa0c4eadab2","system_id":"levelo_inurba_marseille","lat":43.33725,"lon":5.39183,"is_reserved":false,"is_disabled":false,"rental_uris":{"android":"levelo://app?vid=1cfa0b01-ada5-459f-9a29-1fa0c4eadab2","ios":"levelo://app?vid=1cfa0b01-ada5-459f-9a29-1fa0c4eadab2"},"vehicle_type_id":"4","last_reported":1749661768,"current_range_meters":3600,"station_id":"ce4bhr92rcd13ifvqhsg","pricing_plan_id":"cebpf4jnsgd1na2vs0mg"},{"bike_id":"ccd83efa-f699-4014-a51e-b5a22f4c9128","system_id":"levelo_inurba_marseille","lat":43.23963,"lon":5.36626,"is_reserved":false,"is_disabled":false,"rental_uris":{"android":"levelo://app?vid=ccd83efa-f699-4014-a51e-b5a22f4c9128","ios":"levelo://app?vid=ccd83efa-f699-4014-a51e-b5a22f4c9128"},"vehicle_type_id":"4","last_reported":1749661768,"current_range_meters":3600,"station_id":"ce4bhi12rcd13ifvqfp0","pricing_plan_id":"cebpf4jnsgd1na2vs0mg"},{"bike_id":"b824c75c-7eb5-436b-91c5-9bd69bca6411","system_id":"levelo_inurba_marseille","lat":43.32366,"lon":5.36763,"is_reserved":false,"is_disabled":false,"rental_uris":{"android":"levelo://app?vid=b824c75c-7eb5-436b-91c5-9bd69bca6411","ios":"levelo://app?vid=b824c75c-7eb5-436b-91c5-9bd69bca6411"},"vehicle_type_id":"4","last_reported":1749661768,"current_range_meters":3600,"station_id":"ce4bhsh2rcd13ifvqi2g","pricing_plan_id":"cebpf4jnsgd1na2vs0mg"},{"bike_id":"0e224892-4e26-4b1e-a75a-4d7448bab119","system_id":"levelo_inurba_marseille","lat":43.31713,"lon":5.43705,"is_reserved":false,"is_disabled":false,"rental_uris":{"android":"levelo://app?vid=0e224892-4e26-4b1e-a75a-4d7448bab119","ios":"levelo://app?vid=0e224892-4e26-4b1e-a75a-4d7448bab119"},"vehicle_type_id":"4","last_reported":1749661768,"current_range_meters":4000,"station_id":"ce4bhp92rcd13ifvqhcg","pricing_plan_id":"cebpf4jnsgd1na2vs0mg"},{"bike_id":"ca9a8c4b-6811-42ea-b0dd-576a35d0d6f0","system_id":"levelo_inurba_marseille","lat":43.29626,"lon":5.40589,"is_reserved":false,"is_disabled":false,"rental_uris":{"android":"levelo://app?vid=ca9a8c4b-6811-42ea-b0dd-576a35d0d6f0","ios":"levelo://app?vid=ca9a8c4b-6811-42ea-b0dd-576a35d0d6f0"},"vehicle_type_id":"4","last_reported":1749661768,"current_range_meters":4000,"station_id":"ce4bh0h2rcd13ifvqd60","pricing_plan_id":"cebpf4jnsgd1na2vs0mg"},{"bike_id":"72812312-c50c-4725-9b29-75bdc57e7804","system_id":"levelo_inurba_marseille","lat":43.29002,"lon":5.35604,"is_reserved":false,"is_disabled":false,"rental_uris":{"android":"levelo://app?vid=72812312-c50c-4725-9b29-75bdc57e7804","ios":"levelo://app?vid=72812312-c50c-4725-9b29-75bdc57e7804"},"vehicle_type_id":"4","last_reported":1749661768,"current_range_meters":4000,"station_id":"ce4bhb92rcd13ifvqen0","pricing_plan_id":"cebpf4jnsgd1na2vs0mg"},{"bike_id":"7a1854dc-8bf9-4e9e-8603-38569dfdd88f","system_id":"levelo_inurba_marseille","lat":43.27913,"lon":5.3957,"is_reserved":false,"is_disabled":false,"rental_uris":{"android":"levelo://app?vid=7a1854dc-8bf9-4e9e-8603-38569dfdd88f","ios":"levelo://app?vid=7a1854dc-8bf9-4e9e-8603-38569dfdd88f"},"vehicle_type_id":"4","last_reported":1749661768,"current_range_meters":4400,"station_id":"ce4bhf92rcd13ifvqf40","pricing_plan_id":"cebpf4jnsgd1na2vs0mg"},{"bike_id":"571ce02c-9dc7-4918-a04f-3cd0310805f5","system_id":"levelo_inurba_marseille","lat":43.28613,"lon":5.35104,"is_reserved":false,"is_disabled":false,"rental_uris":{"android":"levelo://app?vid=571ce02c-9dc7-4918-a04f-3cd0310805f5","ios":"levelo://app?vid=571ce02c-9dc7-4918-a04f-3cd0310805f5"},"vehicle_type_id":"4","last_reported":1749661768,"current_range_meters":4400,"station_id":"ce4bhch2rcd13ifvqeug","pricing_plan_id":"cebpf4jnsgd1na2vs0mg"},{"bike_id":"0a2cd4f2-b24c-4afc-88b0-5cb6f6a00646","system_id":"levelo_inurba_marseille","lat":43.2464,"lon":5.43583,"is_reserved":false,"is_disabled":true,"rental_uris":{"android":"levelo://app?vid=0a2cd4f2-b24c-4afc-88b0-5cb6f6a00646","ios":"levelo://app?vid=0a2cd4f2-b24c-4afc-88b0-5cb6f6a00646"},"vehicle_type_id":"4","last_reported":1749661768,"current_range_meters":4400,"station_id":"","pricing_plan_id":"cebpf4jnsgd1na2vs0mg"},{"bike_id":"9144c3ca-6597-444c-8662-e688d1b2b4cf","system_id":"levelo_inurba_marseille","lat":43.29941,"lon":5.40211,"is_reserved":false,"is_disabled":false,"rental_uris":{"android":"levelo://app?vid=9144c3ca-6597-444c-8662-e688d1b2b4cf","ios":"levelo://app?vid=9144c3ca-6597-444c-8662-e688d1b2b4cf"},"vehicle_type_id":"4","last_reported":1749661768,"current_range_meters":4800,"station_id":"","pricing_plan_id":"cebpf4jnsgd1na2vs0mg"},{"bike_id":"26d5ce6c-8333-48a4-9887-32d57d614250","system_id":"levelo_inurba_marseille","lat":43.23155,"lon":5.43705,"is_reserved":false,"is_disabled":false,"rental_uris":{"android":"levelo://app?vid=26d5ce6c-8333-48a4-9887-32d57d614250","ios":"levelo://app?vid=26d5ce6c-8333-48a4-9887-32d57d614250"},"vehicle_type_id":"4","last_reported":1749661768,"current_range_meters":4400,"station_id":"ce4bhmp2rcd13ifvqgog","pricing_plan_id":"cebpf4jnsgd1na2vs0mg"},{"bike_id":"c4551147-d69d-4dfd-9d52-f1675d48dd20","system_id":"levelo_inurba_marseille","lat":43.31889,"lon":5.40735,"is_reserved":false,"is_disabled":false,"rental_uris":{"android":"levelo://app?vid=c4551147-d69d-4dfd-9d52-f1675d48dd20","ios":"levelo://app?vid=c4551147-d69d-4dfd-9d52-f1675d48dd20"},"vehicle_type_id":"4","last_reported":1749661768,"current_range_meters":4400,"station_id":"ce4bhq12rcd13ifvqhig","pricing_plan_id":"cebpf4jnsgd1na2vs0mg"},{"bike_id":"4500d98c-d2cd-4111-a0c0-6554c28f95f3","system_id":"levelo_inurba_marseille","lat":43.29045,"lon":5.38629,"is_reserved":false,"is_disabled":false,"rental_uris":{"android":"levelo://app?vid=4500d98c-d2cd-4111-a0c0-6554c28f95f3","ios":"levelo://app?vid=4500d98c-d2cd-4111-a0c0-6554c28f95f3"},"vehicle_type_id":"4","last_reported":1749661768,"current_range_meters":4400,"station_id":"ce4bh4p2rcd13ifvqe0g","pricing_plan_id":"cebpf4jnsgd1na2vs0mg"},{"bike_id":"b2f53c77-0dd4-49de-a6a0-b71003db6300","system_id":"levelo_inurba_marseille","lat":43.24387,"lon":5.37058,"is_reserved":false,"is_disabled":false,"rental_uris":{"android":"levelo://app?vid=b2f53c77-0dd4-49de-a6a0-b71003db6300","ios":"levelo://app?vid=b2f53c77-0dd4-49de-a6a0-b71003db6300"},"vehicle_type_id":"4","last_reported":1749661768,"current_range_meters":4800,"station_id":"ce4bhhh2rcd13ifvqfk0","pricing_plan_id":"cebpf4jnsgd1na2vs0mg"},{"bike_id":"616f1820-db8b-4a26-8ee8-9a62ab210f31","system_id":"levelo_inurba_marseille","lat":43.28632,"lon":5.35128,"is_reserved":false,"is_disabled":false,"rental_uris":{"android":"levelo://app?vid=616f1820-db8b-4a26-8ee8-9a62ab210f31","ios":"levelo://app?vid=616f1820-db8b-4a26-8ee8-9a62ab210f31"},"vehicle_type_id":"4","last_reported":1749661768,"current_range_meters":5600,"station_id":"ce4bhch2rcd13ifvqeug","pricing_plan_id":"cebpf4jnsgd1na2vs0mg"},{"bike_id":"96985ec9-982f-4e5c-b199-711d6b938b36","system_id":"levelo_inurba_marseille","lat":43.28617,"lon":5.35109,"is_reserved":false,"is_disabled":false,"rental_uris":{"android":"levelo://app?vid=96985ec9-982f-4e5c-b199-711d6b938b36","ios":"levelo://app?vid=96985ec9-982f-4e5c-b199-711d6b938b36"},"vehicle_type_id":"4","last_reported":1749661768,"current_range_meters":5600,"station_id":"ce4bhch2rcd13ifvqeug","pricing_plan_id":"cebpf4jnsgd1na2vs0mg"},{"bike_id":"fb8a7b25-328c-43e2-8942-6ffb707e0b69","system_id":"levelo_inurba_marseille","lat":43.25501,"lon":5.3765,"is_reserved":false,"is_disabled":false,"rental_uris":{"android":"levelo://app?vid=fb8a7b25-328c-43e2-8942-6ffb707e0b69","ios":"levelo://app?vid=fb8a7b25-328c-43e2-8942-6ffb707e0b69"},"vehicle_type_id":"4","last_reported":1749661768,"current_range_meters":5600,"station_id":"ce4bhh12rcd13ifvqff0","pricing_plan_id":"cebpf4jnsgd1na2vs0mg"},{"bike_id":"c66e000c-2aa1-49f0-87d5-e55349a0c1a8","system_id":"levelo_inurba_marseille","lat":43.29226,"lon":5.36075,"is_reserved":false,"is_disabled":false,"rental_uris":{"android":"levelo://app?vid=c66e000c-2aa1-49f0-87d5-e55349a0c1a8","ios":"levelo://app?vid=c66e000c-2aa1-49f0-87d5-e55349a0c1a8"},"vehicle_type_id":"4","last_reported":1749661768,"current_range_meters":6000,"station_id":"","pricing_plan_id":"cebpf4jnsgd1na2vs0mg"},{"bike_id":"65cfb3bc-c471-4e5d-b957-db2f5f2ec670","system_id":"levelo_inurba_marseille","lat":43.305428,"lon":5.365504,"is_reserved":false,"is_disabled":true,"rental_uris":{"android":"levelo://app?vid=65cfb3bc-c471-4e5d-b957-db2f5f2ec670","ios":"levelo://app?vid=65cfb3bc-c471-4e5d-b957-db2f5f2ec670"},"vehicle_type_id":"4","last_reported":1749661768,"current_range_meters":6000,"station_id":"","pricing_plan_id":"cebpf4jnsgd1na2vs0mg"},{"bike_id":"7daa0ebb-fbad-494b-b591-a527e34efde3","system_id":"levelo_inurba_marseille","lat":43.27373,"lon":5.36253,"is_reserved":false,"is_disabled":false,"rental_uris":{"android":"levelo://app?vid=7daa0ebb-fbad-494b-b591-a527e34efde3","ios":"levelo://app?vid=7daa0ebb-fbad-494b-b591-a527e34efde3"},"vehicle_type_id":"4","last_reported":1749661768,"current_range_meters":6000,"station_id":"ce4bhbh2rcd13ifvqeo0","pricing_plan_id":"cebpf4jnsgd1na2vs0mg"},{"bike_id":"fef91972-5ad2-40ce-ac9c-144f224d9170","system_id":"levelo_inurba_marseille","lat":43.27044,"lon":5.4026,"is_reserved":false,"is_disabled":false,"rental_uris":{"android":"levelo://app?vid=fef91972-5ad2-40ce-ac9c-144f224d9170","ios":"levelo://app?vid=fef91972-5ad2-40ce-ac9c-144f224d9170"},"vehicle_type_id":"4","last_reported":1749661768,"current_range_meters":6000,"station_id":"ce4bhk92rcd13ifvqgc0","pricing_plan_id":"cebpf4jnsgd1na2vs0mg"},{"bike_id":"dedaa547-546f-4547-a4ea-0591f3cf7793","system_id":"levelo_inurba_marseille","lat":43.30411,"lon":5.39751,"is_reserved":false,"is_disabled":true,"rental_uris":{"android":"levelo://app?vid=dedaa547-546f-4547-a4ea-0591f3cf7793","ios":"levelo://app?vid=dedaa547-546f-4547-a4ea-0591f3cf7793"},"vehicle_type_id":"4","last_reported":1749661768,"current_range_meters":6000,"station_id":"ce4bh092rcd13ifvqd20","pricing_plan_id":"cebpf4jnsgd1na2vs0mg"},{"bike_id":"eea6e50e-c017-48ec-9151-ee735ade9a70","system_id":"levelo_inurba_marseille","lat":43.28408,"lon":5.34982,"is_reserved":false,"is_disabled":false,"rental_uris":{"android":"levelo://app?vid=eea6e50e-c017-48ec-9151-ee735ade9a70","ios":"levelo://app?vid=eea6e50e-c017-48ec-9151-ee735ade9a70"},"vehicle_type_id":"4","last_reported":1749661768,"current_range_meters":6000,"station_id":"ce4bhbh2rcd13ifvqepg","pricing_plan_id":"cebpf4jnsgd1na2vs0mg"},{"bike_id":"a908beed-c63b-4dee-b52c-ddf1428d9de1","system_id":"levelo_inurba_marseille","lat":43.28415,"lon":5.34969,"is_reserved":false,"is_disabled":false,"rental_uris":{"android":"levelo://app?vid=a908beed-c63b-4dee-b52c-ddf1428d9de1","ios":"levelo://app?vid=a908beed-c63b-4dee-b52c-ddf1428d9de1"},"vehicle_type_id":"4","last_reported":1749661768,"current_range_meters":6400,"station_id":"ce4bhbh2rcd13ifvqepg","pricing_plan_id":"cebpf4jnsgd1na2vs0mg"},{"bike_id":"2e7b1af7-5de5-471d-a248-9bbf4fe2651a","system_id":"levelo_inurba_marseille","lat":43.2959,"lon":5.38109,"is_reserved":false,"is_disabled":false,"rental_uris":{"android":"levelo://app?vid=2e7b1af7-5de5-471d-a248-9bbf4fe2651a","ios":"levelo://app?vid=2e7b1af7-5de5-471d-a248-9bbf4fe2651a"},"vehicle_type_id":"4","last_reported":1749661768,"current_range_meters":6400,"station_id":"ce4bgl12rcd13ifvqbo0","pricing_plan_id":"cebpf4jnsgd1na2vs0mg"},{"bike_id":"397bfac2-f298-49e6-ac5e-4908a40b6b6d","system_id":"levelo_inurba_marseille","lat":43.290039,"lon":5.356222,"is_reserved":false,"is_disabled":false,"rental_uris":{"android":"levelo://app?vid=397bfac2-f298-49e6-ac5e-4908a40b6b6d","ios":"levelo://app?vid=397bfac2-f298-49e6-ac5e-4908a40b6b6d"},"vehicle_type_id":"4","last_reported":1749661768,"current_range_meters":2000,"station_id":"ce4bhb92rcd13ifvqen0","pricing_plan_id":"cebpf4jnsgd1na2vs0mg"},{"bike_id":"a9334c0d-cdfc-464f-8eab-e98192ed3454","system_id":"levelo_inurba_marseille","lat":43.29257,"lon":5.39954,"is_reserved":false,"is_disabled":false,"rental_uris":{"android":"levelo://app?vid=a9334c0d-cdfc-464f-8eab-e98192ed3454","ios":"levelo://app?vid=a9334c0d-cdfc-464f-8eab-e98192ed3454"},"vehicle_type_id":"4","last_reported":1749661768,"current_range_meters":6400,"station_id":"","pricing_plan_id":"cebpf4jnsgd1na2vs0mg"},{"bike_id":"693579d8-300f-4642-a1b6-c4556c047c10","system_id":"levelo_inurba_marseille","lat":43.2811,"lon":5.37821,"is_reserved":false,"is_disabled":false,"rental_uris":{"android":"levelo://app?vid=693579d8-300f-4642-a1b6-c4556c047c10","ios":"levelo://app?vid=693579d8-300f-4642-a1b6-c4556c047c10"},"vehicle_type_id":"4","last_reported":1749661768,"current_range_meters":6400,"station_id":"ce4bha12rcd13ifvqee0","pricing_plan_id":"cebpf4jnsgd1na2vs0mg"},{"bike_id":"5e4a237b-962b-4d51-b505-334b456e71bd","system_id":"levelo_inurba_marseille","lat":43.3093,"lon":5.40136,"is_reserved":false,"is_disabled":false,"rental_uris":{"android":"levelo://app?vid=5e4a237b-962b-4d51-b505-334b456e71bd","ios":"levelo://app?vid=5e4a237b-962b-4d51-b505-334b456e71bd"},"vehicle_type_id":"4","last_reported":1749661768,"current_range_meters":6400,"station_id":"ce4bgvp2rcd13ifvqct0","pricing_plan_id":"cebpf4jnsgd1na2vs0mg"},{"bike_id":"2af6ec8c-e348-46cb-96bc-3dbc9cc85673","system_id":"levelo_inurba_marseille","lat":43.31167,"lon":5.38722,"is_reserved":false,"is_disabled":false,"rental_uris":{"android":"levelo://app?vid=2af6ec8c-e348-46cb-96bc-3dbc9cc85673","ios":"levelo://app?vid=2af6ec8c-e348-46cb-96bc-3dbc9cc85673"},"vehicle_type_id":"4","last_reported":1749661768,"current_range_meters":6400,"station_id":"ce4bgv12rcd13ifvqcp0","pricing_plan_id":"cebpf4jnsgd1na2vs0mg"},{"bike_id":"125bd855-10ed-4a56-9707-403f3a8b58a0","system_id":"levelo_inurba_marseille","lat":43.33095,"lon":5.40509,"is_reserved":false,"is_disabled":false,"rental_uris":{"android":"levelo://app?vid=125bd855-10ed-4a56-9707-403f3a8b58a0","ios":"levelo://app?vid=125bd855-10ed-4a56-9707-403f3a8b58a0"},"vehicle_type_id":"4","last_reported":1749661768,"current_range_meters":6400,"station_id":"","pricing_plan_id":"cebpf4jnsgd1na2vs0mg"},{"bike_id":"76bcb7a3-9242-4e37-abaf-5b801c3c9299","system_id":"levelo_inurba_marseille","lat":43.31328,"lon":5.3969,"is_reserved":false,"is_disabled":false,"rental_uris":{"android":"levelo://app?vid=76bcb7a3-9242-4e37-abaf-5b801c3c9299","ios":"levelo://app?vid=76bcb7a3-9242-4e37-abaf-5b801c3c9299"},"vehicle_type_id":"4","last_reported":1749661768,"current_range_meters":6400,"station_id":"ce4bgvp2rcd13ifvqcu0","pricing_plan_id":"cebpf4jnsgd1na2vs0mg"},{"bike_id":"7ac7aca6-8a55-434b-a5bd-373e8aa10f9e","system_id":"levelo_inurba_marseille","lat":43.24808,"lon":5.37455,"is_reserved":false,"is_disabled":false,"rental_uris":{"android":"levelo://app?vid=7ac7aca6-8a55-434b-a5bd-373e8aa10f9e","ios":"levelo://app?vid=7ac7aca6-8a55-434b-a5bd-373e8aa10f9e"},"vehicle_type_id":"4","last_reported":1749661768,"current_range_meters":6800,"station_id":"ce4bhgh2rcd13ifvqfb0","pricing_plan_id":"cebpf4jnsgd1na2vs0mg"},{"bike_id":"23d2cc14-baeb-42ee-bd25-25cfa392a18e","system_id":"levelo_inurba_marseille","lat":43.28574,"lon":5.39509,"is_reserved":false,"is_disabled":false,"rental_uris":{"android":"levelo://app?vid=23d2cc14-baeb-42ee-bd25-25cfa392a18e","ios":"levelo://app?vid=23d2cc14-baeb-42ee-bd25-25cfa392a18e"},"vehicle_type_id":"4","last_reported":1749661768,"current_range_meters":6800,"station_id":"ce4bh292rcd13ifvqdg0","pricing_plan_id":"cebpf4jnsgd1na2vs0mg"},{"bike_id":"3920bce8-7f91-47a9-9e8e-42c82800798e","system_id":"levelo_inurba_marseille","lat":43.29262,"lon":5.40901,"is_reserved":false,"is_disabled":false,"rental_uris":{"android":"levelo://app?vid=3920bce8-7f91-47a9-9e8e-42c82800798e","ios":"levelo://app?vid=3920bce8-7f91-47a9-9e8e-42c82800798e"},"vehicle_type_id":"4","last_reported":1749661768,"current_range_meters":6800,"station_id":"ce4bh192rcd13ifvqdc0","pricing_plan_id":"cebpf4jnsgd1na2vs0mg"},{"bike_id":"5880b27c-a5dc-4bd4-97ef-8963ec44dc64","system_id":"levelo_inurba_marseille","lat":43.28614,"lon":5.35105,"is_reserved":false,"is_disabled":false,"rental_uris":{"android":"levelo://app?vid=5880b27c-a5dc-4bd4-97ef-8963ec44dc64","ios":"levelo://app?vid=5880b27c-a5dc-4bd4-97ef-8963ec44dc64"},"vehicle_type_id":"4","last_reported":1749661768,"current_range_meters":6800,"station_id":"ce4bhch2rcd13ifvqeug","pricing_plan_id":"cebpf4jnsgd1na2vs0mg"},{"bike_id":"e630e1e5-8c93-45fb-9eef-6c479072a116","system_id":"levelo_inurba_marseille","lat":43.30747,"lon":5.42446,"is_reserved":false,"is_disabled":false,"rental_uris":{"android":"levelo://app?vid=e630e1e5-8c93-45fb-9eef-6c479072a116","ios":"levelo://app?vid=e630e1e5-8c93-45fb-9eef-6c479072a116"},"vehicle_type_id":"4","last_reported":1749661768,"current_range_meters":7200,"station_id":"st_cvj6ca6bvosntc0bfgr0","pricing_plan_id":"cebpf4jnsgd1na2vs0mg"},{"bike_id":"583625b0-137e-4572-8419-d53c63af6204","system_id":"levelo_inurba_marseille","lat":43.29027,"lon":5.38639,"is_reserved":false,"is_disabled":false,"rental_uris":{"android":"levelo://app?vid=583625b0-137e-4572-8419-d53c63af6204","ios":"levelo://app?vid=583625b0-137e-4572-8419-d53c63af6204"},"vehicle_type_id":"4","last_reported":1749661768,"current_range_meters":7200,"station_id":"ce4bh4p2rcd13ifvqe0g","pricing_plan_id":"cebpf4jnsgd1na2vs0mg"},{"bike_id":"19e01091-7b95-4e3c-92c5-c3ba0a369351","system_id":"levelo_inurba_marseille","lat":43.30931,"lon":5.40144,"is_reserved":false,"is_disabled":false,"rental_uris":{"android":"levelo://app?vid=19e01091-7b95-4e3c-92c5-c3ba0a369351","ios":"levelo://app?vid=19e01091-7b95-4e3c-92c5-c3ba0a369351"},"vehicle_type_id":"4","last_reported":1749661768,"current_range_meters":8000,"station_id":"ce4bgvp2rcd13ifvqct0","pricing_plan_id":"cebpf4jnsgd1na2vs0mg"},{"bike_id":"bb8d963c-f5c0-4e68-a17d-40f45b2fd1bd","system_id":"levelo_inurba_marseille","lat":43.28616,"lon":5.35106,"is_reserved":false,"is_disabled":false,"rental_uris":{"android":"levelo://app?vid=bb8d963c-f5c0-4e68-a17d-40f45b2fd1bd","ios":"levelo://app?vid=bb8d963c-f5c0-4e68-a17d-40f45b2fd1bd"},"vehicle_type_id":"4","last_reported":1749661768,"current_range_meters":7200,"station_id":"ce4bhch2rcd13ifvqeug","pricing_plan_id":"cebpf4jnsgd1na2vs0mg"},{"bike_id":"c383e124-0648-4c69-89a0-55413285cc73","system_id":"levelo_inurba_marseille","lat":43.28861,"lon":5.35848,"is_reserved":false,"is_disabled":false,"rental_uris":{"android":"levelo://app?vid=c383e124-0648-4c69-89a0-55413285cc73","ios":"levelo://app?vid=c383e124-0648-4c69-89a0-55413285cc73"},"vehicle_type_id":"4","last_reported":1749661768,"current_range_meters":8000,"station_id":"ce4bhb12rcd13ifvqem0","pricing_plan_id":"cebpf4jnsgd1na2vs0mg"},{"bike_id":"5077581b-cebb-46fc-ba69-4fa8272d4810","system_id":"levelo_inurba_marseille","lat":43.21355,"lon":5.35542,"is_reserved":false,"is_disabled":false,"rental_uris":{"android":"levelo://app?vid=5077581b-cebb-46fc-ba69-4fa8272d4810","ios":"levelo://app?vid=5077581b-cebb-46fc-ba69-4fa8272d4810"},"vehicle_type_id":"4","last_reported":1749661768,"current_range_meters":8000,"station_id":"","pricing_plan_id":"cebpf4jnsgd1na2vs0mg"},{"bike_id":"743f3ab7-6e63-4b9a-9ddd-f0853e09f499","system_id":"levelo_inurba_marseille","lat":43.29007,"lon":5.35608,"is_reserved":false,"is_disabled":false,"rental_uris":{"android":"levelo://app?vid=743f3ab7-6e63-4b9a-9ddd-f0853e09f499","ios":"levelo://app?vid=743f3ab7-6e63-4b9a-9ddd-f0853e09f499"},"vehicle_type_id":"4","last_reported":1749661768,"current_range_meters":8000,"station_id":"ce4bhb92rcd13ifvqen0","pricing_plan_id":"cebpf4jnsgd1na2vs0mg"},{"bike_id":"18759061-77d6-468f-98a8-b5bab7d472b0","system_id":"levelo_inurba_marseille","lat":43.26592,"lon":5.39014,"is_reserved":false,"is_disabled":true,"rental_uris":{"android":"levelo://app?vid=18759061-77d6-468f-98a8-b5bab7d472b0","ios":"levelo://app?vid=18759061-77d6-468f-98a8-b5bab7d472b0"},"vehicle_type_id":"4","last_reported":1749661768,"current_range_meters":8000,"station_id":"ce4bhe12rcd13ifvqf30","pricing_plan_id":"cebpf4jnsgd1na2vs0mg"},{"bike_id":"e3de9512-18ae-4aa7-8359-586865c2ae25","system_id":"levelo_inurba_marseille","lat":43.24098,"lon":5.37772,"is_reserved":false,"is_disabled":false,"rental_uris":{"android":"levelo://app?vid=e3de9512-18ae-4aa7-8359-586865c2ae25","ios":"levelo://app?vid=e3de9512-18ae-4aa7-8359-586865c2ae25"},"vehicle_type_id":"4","last_reported":1749661768,"current_range_meters":8000,"station_id":"ce4bhnp2rcd13ifvqgvg","pricing_plan_id":"cebpf4jnsgd1na2vs0mg"},{"bike_id":"ce81f804-a274-484f-a641-28706f036e77","system_id":"levelo_inurba_marseille","lat":43.231867,"lon":5.355633,"is_reserved":false,"is_disabled":false,"rental_uris":{"android":"levelo://app?vid=ce81f804-a274-484f-a641-28706f036e77","ios":"levelo://app?vid=ce81f804-a274-484f-a641-28706f036e77"},"vehicle_type_id":"4","last_reported":1749661768,"current_range_meters":8400,"station_id":"ce4bhu92rcd13ifvqi70","pricing_plan_id":"cebpf4jnsgd1na2vs0mg"},{"bike_id":"552bcec2-da84-4063-b04d-24b3e7d1c4b4","system_id":"levelo_inurba_marseille","lat":43.27378,"lon":5.36248,"is_reserved":false,"is_disabled":false,"rental_uris":{"android":"levelo://app?vid=552bcec2-da84-4063-b04d-24b3e7d1c4b4","ios":"levelo://app?vid=552bcec2-da84-4063-b04d-24b3e7d1c4b4"},"vehicle_type_id":"4","last_reported":1749661768,"current_range_meters":8400,"station_id":"ce4bhbh2rcd13ifvqeo0","pricing_plan_id":"cebpf4jnsgd1na2vs0mg"},{"bike_id":"259b3bb7-470d-4511-af68-f5ff118b0b70","system_id":"levelo_inurba_marseille","lat":43.330169,"lon":5.390528,"is_reserved":false,"is_disabled":false,"rental_uris":{"android":"levelo://app?vid=259b3bb7-470d-4511-af68-f5ff118b0b70","ios":"levelo://app?vid=259b3bb7-470d-4511-af68-f5ff118b0b70"},"vehicle_type_id":"4","last_reported":1749661768,"current_range_meters":8400,"station_id":"ce4bhr92rcd13ifvqhrg","pricing_plan_id":"cebpf4jnsgd1na2vs0mg"},{"bike_id":"3a90ea2e-30d8-4511-a259-95499bfe8edc","system_id":"levelo_inurba_marseille","lat":43.282687,"lon":5.350584,"is_reserved":false,"is_disabled":false,"rental_uris":{"android":"levelo://app?vid=3a90ea2e-30d8-4511-a259-95499bfe8edc","ios":"levelo://app?vid=3a90ea2e-30d8-4511-a259-95499bfe8edc"},"vehicle_type_id":"4","last_reported":1749661768,"current_range_meters":8400,"station_id":"ce4bhb12rcd13ifvqel0","pricing_plan_id":"cebpf4jnsgd1na2vs0mg"},{"bike_id":"6c300130-a97b-4792-a130-444400099a0a","system_id":"levelo_inurba_marseille","lat":43.21196,"lon":5.35069,"is_reserved":false,"is_disabled":false,"rental_uris":{"android":"levelo://app?vid=6c300130-a97b-4792-a130-444400099a0a","ios":"levelo://app?vid=6c300130-a97b-4792-a130-444400099a0a"},"vehicle_type_id":"4","last_reported":1749661768,"current_range_meters":8400,"station_id":"st_cvj6sg6p6f1abm77japg","pricing_plan_id":"cebpf4jnsgd1na2vs0mg"},{"bike_id":"ca27e12a-1f2d-4cf2-be29-12a2b9ff1547","system_id":"levelo_inurba_marseille","lat":43.31721,"lon":5.424,"is_reserved":false,"is_disabled":false,"rental_uris":{"android":"levelo://app?vid=ca27e12a-1f2d-4cf2-be29-12a2b9ff1547","ios":"levelo://app?vid=ca27e12a-1f2d-4cf2-be29-12a2b9ff1547"},"vehicle_type_id":"4","last_reported":1749661768,"current_range_meters":8400,"station_id":"ce4bhp92rcd13ifvqhbg","pricing_plan_id":"cebpf4jnsgd1na2vs0mg"},{"bike_id":"a9207d78-15a0-4302-af7d-8cec70375fbe","system_id":"levelo_inurba_marseille","lat":43.28628,"lon":5.35088,"is_reserved":false,"is_disabled":false,"rental_uris":{"android":"levelo://app?vid=a9207d78-15a0-4302-af7d-8cec70375fbe","ios":"levelo://app?vid=a9207d78-15a0-4302-af7d-8cec70375fbe"},"vehicle_type_id":"4","last_reported":1749661768,"current_range_meters":8400,"station_id":"ce4bhch2rcd13ifvqeug","pricing_plan_id":"cebpf4jnsgd1na2vs0mg"},{"bike_id":"8eb3d170-3268-41f5-addf-0bc8a6ff1f29","system_id":"levelo_inurba_marseille","lat":43.28997,"lon":5.35604,"is_reserved":false,"is_disabled":true,"rental_uris":{"android":"levelo://app?vid=8eb3d170-3268-41f5-addf-0bc8a6ff1f29","ios":"levelo://app?vid=8eb3d170-3268-41f5-addf-0bc8a6ff1f29"},"vehicle_type_id":"4","last_reported":1749661768,"current_range_meters":8400,"station_id":"ce4bhb92rcd13ifvqen0","pricing_plan_id":"cebpf4jnsgd1na2vs0mg"},{"bike_id":"9f5c90d4-06cc-46bc-8756-76d91b10be80","system_id":"levelo_inurba_marseille","lat":43.31119,"lon":5.37769,"is_reserved":false,"is_disabled":false,"rental_uris":{"android":"levelo://app?vid=9f5c90d4-06cc-46bc-8756-76d91b10be80","ios":"levelo://app?vid=9f5c90d4-06cc-46bc-8756-76d91b10be80"},"vehicle_type_id":"4","last_reported":1749661768,"current_range_meters":8400,"station_id":"ce4bgt92rcd13ifvqcg0","pricing_plan_id":"cebpf4jnsgd1na2vs0mg"},{"bike_id":"0fb23770-c01b-46d3-85a5-cc60e4bf8636","system_id":"levelo_inurba_marseille","lat":43.29007,"lon":5.35607,"is_reserved":false,"is_disabled":false,"rental_uris":{"android":"levelo://app?vid=0fb23770-c01b-46d3-85a5-cc60e4bf8636","ios":"levelo://app?vid=0fb23770-c01b-46d3-85a5-cc60e4bf8636"},"vehicle_type_id":"4","last_reported":1749661768,"current_range_meters":8800,"station_id":"ce4bhb92rcd13ifvqen0","pricing_plan_id":"cebpf4jnsgd1na2vs0mg"},{"bike_id":"db396e1d-32fe-4624-82ba-83cd4789809b","system_id":"levelo_inurba_marseille","lat":43.25505,"lon":5.37655,"is_reserved":false,"is_disabled":false,"rental_uris":{"android":"levelo://app?vid=db396e1d-32fe-4624-82ba-83cd4789809b","ios":"levelo://app?vid=db396e1d-32fe-4624-82ba-83cd4789809b"},"vehicle_type_id":"4","last_reported":1749661768,"current_range_meters":8800,"station_id":"ce4bhh12rcd13ifvqff0","pricing_plan_id":"cebpf4jnsgd1na2vs0mg"},{"bike_id":"15890935-4206-46eb-aaf6-abddc419f332","system_id":"levelo_inurba_marseille","lat":43.299698,"lon":5.385008,"is_reserved":false,"is_disabled":true,"rental_uris":{"android":"levelo://app?vid=15890935-4206-46eb-aaf6-abddc419f332","ios":"levelo://app?vid=15890935-4206-46eb-aaf6-abddc419f332"},"vehicle_type_id":"4","last_reported":1749661768,"current_range_meters":8800,"station_id":"ce4bgj92rcd13ifvqbd0","pricing_plan_id":"cebpf4jnsgd1na2vs0mg"},{"bike_id":"4f171823-5f8c-4717-96ad-096e0e3dd510","system_id":"levelo_inurba_marseille","lat":43.308,"lon":5.38152,"is_reserved":false,"is_disabled":false,"rental_uris":{"android":"levelo://app?vid=4f171823-5f8c-4717-96ad-096e0e3dd510","ios":"levelo://app?vid=4f171823-5f8c-4717-96ad-096e0e3dd510"},"vehicle_type_id":"4","last_reported":1749661768,"current_range_meters":8800,"station_id":"ce4bgt12rcd13ifvqce0","pricing_plan_id":"cebpf4jnsgd1na2vs0mg"},{"bike_id":"e41e1863-4b5e-409d-a47e-30d663df267a","system_id":"levelo_inurba_marseille","lat":43.28616,"lon":5.35103,"is_reserved":false,"is_disabled":false,"rental_uris":{"android":"levelo://app?vid=e41e1863-4b5e-409d-a47e-30d663df267a","ios":"levelo://app?vid=e41e1863-4b5e-409d-a47e-30d663df267a"},"vehicle_type_id":"4","last_reported":1749661768,"current_range_meters":8800,"station_id":"ce4bhch2rcd13ifvqeug","pricing_plan_id":"cebpf4jnsgd1na2vs0mg"},{"bike_id":"f85b2c50-4d2b-4d55-957c-2751e1f8c7c4","system_id":"levelo_inurba_marseille","lat":43.3133,"lon":5.39686,"is_reserved":false,"is_disabled":false,"rental_uris":{"android":"levelo://app?vid=f85b2c50-4d2b-4d55-957c-2751e1f8c7c4","ios":"levelo://app?vid=f85b2c50-4d2b-4d55-957c-2751e1f8c7c4"},"vehicle_type_id":"4","last_reported":1749661768,"current_range_meters":8800,"station_id":"ce4bgvp2rcd13ifvqcu0","pricing_plan_id":"cebpf4jnsgd1na2vs0mg"},{"bike_id":"7f38c9e0-11fb-44ce-8190-8840d5a414e8","system_id":"levelo_inurba_marseille","lat":43.29013,"lon":5.35605,"is_reserved":false,"is_disabled":false,"rental_uris":{"android":"levelo://app?vid=7f38c9e0-11fb-44ce-8190-8840d5a414e8","ios":"levelo://app?vid=7f38c9e0-11fb-44ce-8190-8840d5a414e8"},"vehicle_type_id":"4","last_reported":1749661768,"current_range_meters":9200,"station_id":"ce4bhb92rcd13ifvqen0","pricing_plan_id":"cebpf4jnsgd1na2vs0mg"},{"bike_id":"0e92a489-6bfe-4488-b5ee-b5b5c177afe9","system_id":"levelo_inurba_marseille","lat":43.29064,"lon":5.37853,"is_reserved":false,"is_disabled":false,"rental_uris":{"android":"levelo://app?vid=0e92a489-6bfe-4488-b5ee-b5b5c177afe9","ios":"levelo://app?vid=0e92a489-6bfe-4488-b5ee-b5b5c177afe9"},"vehicle_type_id":"4","last_reported":1749661768,"current_range_meters":9200,"station_id":"","pricing_plan_id":"cebpf4jnsgd1na2vs0mg"},{"bike_id":"37c760e2-1950-432c-9dd4-d2b16ce47f5e","system_id":"levelo_inurba_marseille","lat":43.30599,"lon":5.37224,"is_reserved":false,"is_disabled":false,"rental_uris":{"android":"levelo://app?vid=37c760e2-1950-432c-9dd4-d2b16ce47f5e","ios":"levelo://app?vid=37c760e2-1950-432c-9dd4-d2b16ce47f5e"},"vehicle_type_id":"4","last_reported":1749661768,"current_range_meters":9200,"station_id":"ce4bgqh2rcd13ifvqc4g","pricing_plan_id":"cebpf4jnsgd1na2vs0mg"},{"bike_id":"c6714169-b903-4b16-9565-f2609ae4af97","system_id":"levelo_inurba_marseille","lat":43.30336,"lon":5.40427,"is_reserved":false,"is_disabled":false,"rental_uris":{"android":"levelo://app?vid=c6714169-b903-4b16-9565-f2609ae4af97","ios":"levelo://app?vid=c6714169-b903-4b16-9565-f2609ae4af97"},"vehicle_type_id":"4","last_reported":1749661768,"current_range_meters":9200,"station_id":"ce4bh012rcd13ifvqd10","pricing_plan_id":"cebpf4jnsgd1na2vs0mg"},{"bike_id":"14473dde-521d-42d4-86bb-34a37b8a9326","system_id":"levelo_inurba_marseille","lat":43.23958,"lon":5.36657,"is_reserved":false,"is_disabled":false,"rental_uris":{"android":"levelo://app?vid=14473dde-521d-42d4-86bb-34a37b8a9326","ios":"levelo://app?vid=14473dde-521d-42d4-86bb-34a37b8a9326"},"vehicle_type_id":"4","last_reported":1749661768,"current_range_meters":9200,"station_id":"ce4bhi12rcd13ifvqfp0","pricing_plan_id":"cebpf4jnsgd1na2vs0mg"},{"bike_id":"1e20f032-0f6a-40b2-ad29-e4d2225496fa","system_id":"levelo_inurba_marseille","lat":43.30284,"lon":5.37092,"is_reserved":false,"is_disabled":false,"rental_uris":{"android":"levelo://app?vid=1e20f032-0f6a-40b2-ad29-e4d2225496fa","ios":"levelo://app?vid=1e20f032-0f6a-40b2-ad29-e4d2225496fa"},"vehicle_type_id":"4","last_reported":1749661768,"current_range_meters":9200,"station_id":"","pricing_plan_id":"cebpf4jnsgd1na2vs0mg"},{"bike_id":"4005c274-b967-4005-810c-42c83ca88050","system_id":"levelo_inurba_marseille","lat":43.29107,"lon":5.38173,"is_reserved":false,"is_disabled":true,"rental_uris":{"android":"levelo://app?vid=4005c274-b967-4005-810c-42c83ca88050","ios":"levelo://app?vid=4005c274-b967-4005-810c-42c83ca88050"},"vehicle_type_id":"4","last_reported":1749661768,"current_range_meters":9600,"station_id":"ce4bh512rcd13ifvqe2g","pricing_plan_id":"cebpf4jnsgd1na2vs0mg"},{"bike_id":"a5d8bf67-e00f-4b3f-8720-d6497651122a","system_id":"levelo_inurba_marseille","lat":43.284237,"lon":5.349939,"is_reserved":false,"is_disabled":false,"rental_uris":{"android":"levelo://app?vid=a5d8bf67-e00f-4b3f-8720-d6497651122a","ios":"levelo://app?vid=a5d8bf67-e00f-4b3f-8720-d6497651122a"},"vehicle_type_id":"4","last_reported":1749661768,"current_range_meters":9600,"station_id":"ce4bhbh2rcd13ifvqepg","pricing_plan_id":"cebpf4jnsgd1na2vs0mg"},{"bike_id":"7545eda5-1bcb-4caa-9f84-ee0d41ae411e","system_id":"levelo_inurba_marseille","lat":43.29533,"lon":5.39393,"is_reserved":false,"is_disabled":false,"rental_uris":{"android":"levelo://app?vid=7545eda5-1bcb-4caa-9f84-ee0d41ae411e","ios":"levelo://app?vid=7545eda5-1bcb-4caa-9f84-ee0d41ae411e"},"vehicle_type_id":"4","last_reported":1749661768,"current_range_meters":9600,"station_id":"ce4bh292rcd13ifvqdf0","pricing_plan_id":"cebpf4jnsgd1na2vs0mg"},{"bike_id":"84cb6528-a869-4290-84ce-d71954c75e16","system_id":"levelo_inurba_marseille","lat":43.26152,"lon":5.37476,"is_reserved":false,"is_disabled":false,"rental_uris":{"android":"levelo://app?vid=84cb6528-a869-4290-84ce-d71954c75e16","ios":"levelo://app?vid=84cb6528-a869-4290-84ce-d71954c75e16"},"vehicle_type_id":"4","last_reported":1749661768,"current_range_meters":9600,"station_id":"ce4bhgp2rcd13ifvqfc0","pricing_plan_id":"cebpf4jnsgd1na2vs0mg"},{"bike_id":"c5060c99-090e-4bee-9b31-92d67211d3cb","system_id":"levelo_inurba_marseille","lat":43.2571,"lon":5.41131,"is_reserved":false,"is_disabled":false,"rental_uris":{"android":"levelo://app?vid=c5060c99-090e-4bee-9b31-92d67211d3cb","ios":"levelo://app?vid=c5060c99-090e-4bee-9b31-92d67211d3cb"},"vehicle_type_id":"4","last_reported":1749661768,"current_range_meters":9600,"station_id":"ce4bhkp2rcd13ifvqgd0","pricing_plan_id":"cebpf4jnsgd1na2vs0mg"},{"bike_id":"fe7c503e-f275-4283-87d7-2b183f1e4712","system_id":"levelo_inurba_marseille","lat":43.27379,"lon":5.36256,"is_reserved":false,"is_disabled":false,"rental_uris":{"android":"levelo://app?vid=fe7c503e-f275-4283-87d7-2b183f1e4712","ios":"levelo://app?vid=fe7c503e-f275-4283-87d7-2b183f1e4712"},"vehicle_type_id":"4","last_reported":1749661768,"current_range_meters":9600,"station_id":"ce4bhbh2rcd13ifvqeo0","pricing_plan_id":"cebpf4jnsgd1na2vs0mg"},{"bike_id":"e20fd189-7058-442c-958d-8588a3dfeb1a","system_id":"levelo_inurba_marseille","lat":43.28409,"lon":5.34977,"is_reserved":false,"is_disabled":false,"rental_uris":{"android":"levelo://app?vid=e20fd189-7058-442c-958d-8588a3dfeb1a","ios":"levelo://app?vid=e20fd189-7058-442c-958d-8588a3dfeb1a"},"vehicle_type_id":"4","last_reported":1749661768,"current_range_meters":9600,"station_id":"ce4bhbh2rcd13ifvqepg","pricing_plan_id":"cebpf4jnsgd1na2vs0mg"},{"bike_id":"f5db53c2-39c8-4781-b30f-b57c98968b37","system_id":"levelo_inurba_marseille","lat":43.29428,"lon":5.38632,"is_reserved":false,"is_disabled":true,"rental_uris":{"android":"levelo://app?vid=f5db53c2-39c8-4781-b30f-b57c98968b37","ios":"levelo://app?vid=f5db53c2-39c8-4781-b30f-b57c98968b37"},"vehicle_type_id":"4","last_reported":1749661768,"current_range_meters":10000,"station_id":"ce4bh2h2rcd13ifvqdh0","pricing_plan_id":"cebpf4jnsgd1na2vs0mg"},{"bike_id":"e422b217-9d0f-4642-82d8-286030744363","system_id":"levelo_inurba_marseille","lat":43.28613,"lon":5.35105,"is_reserved":false,"is_disabled":false,"rental_uris":{"android":"levelo://app?vid=e422b217-9d0f-4642-82d8-286030744363","ios":"levelo://app?vid=e422b217-9d0f-4642-82d8-286030744363"},"vehicle_type_id":"4","last_reported":1749661768,"current_range_meters":10000,"station_id":"ce4bhch2rcd13ifvqeug","pricing_plan_id":"cebpf4jnsgd1na2vs0mg"},{"bike_id":"5ffc5d75-9066-40cf-9730-75b3d557a59f","system_id":"levelo_inurba_marseille","lat":43.29917,"lon":5.37785,"is_reserved":false,"is_disabled":false,"rental_uris":{"android":"levelo://app?vid=5ffc5d75-9066-40cf-9730-75b3d557a59f","ios":"levelo://app?vid=5ffc5d75-9066-40cf-9730-75b3d557a59f"},"vehicle_type_id":"4","last_reported":1749661768,"current_range_meters":10000,"station_id":"","pricing_plan_id":"cebpf4jnsgd1na2vs0mg"},{"bike_id":"83e45151-cd91-46bf-b82f-372f5864481a","system_id":"levelo_inurba_marseille","lat":43.32339,"lon":5.40619,"is_reserved":false,"is_disabled":false,"rental_uris":{"android":"levelo://app?vid=83e45151-cd91-46bf-b82f-372f5864481a","ios":"levelo://app?vid=83e45151-cd91-46bf-b82f-372f5864481a"},"vehicle_type_id":"4","last_reported":1749661768,"current_range_meters":10000,"station_id":"ce4bhq92rcd13ifvqhjg","pricing_plan_id":"cebpf4jnsgd1na2vs0mg"},{"bike_id":"d20c9ea8-d6b9-40e7-a97c-0697e4218d27","system_id":"levelo_inurba_marseille","lat":43.24389,"lon":5.37064,"is_reserved":false,"is_disabled":false,"rental_uris":{"android":"levelo://app?vid=d20c9ea8-d6b9-40e7-a97c-0697e4218d27","ios":"levelo://app?vid=d20c9ea8-d6b9-40e7-a97c-0697e4218d27"},"vehicle_type_id":"4","last_reported":1749661768,"current_range_meters":9600,"station_id":"ce4bhhh2rcd13ifvqfk0","pricing_plan_id":"cebpf4jnsgd1na2vs0mg"},{"bike_id":"cfcfce5c-fed4-4626-957a-8e755e46dace","system_id":"levelo_inurba_marseille","lat":43.24068,"lon":5.37758,"is_reserved":false,"is_disabled":false,"rental_uris":{"android":"levelo://app?vid=cfcfce5c-fed4-4626-957a-8e755e46dace","ios":"levelo://app?vid=cfcfce5c-fed4-4626-957a-8e755e46dace"},"vehicle_type_id":"4","last_reported":1749661768,"current_range_meters":10000,"station_id":"ce4bhnp2rcd13ifvqgvg","pricing_plan_id":"cebpf4jnsgd1na2vs0mg"},{"bike_id":"9425f25a-8a04-49a7-9b47-1616ac9b5bc0","system_id":"levelo_inurba_marseille","lat":43.265014,"lon":5.39534,"is_reserved":false,"is_disabled":false,"rental_uris":{"android":"levelo://app?vid=9425f25a-8a04-49a7-9b47-1616ac9b5bc0","ios":"levelo://app?vid=9425f25a-8a04-49a7-9b47-1616ac9b5bc0"},"vehicle_type_id":"4","last_reported":1749661768,"current_range_meters":10800,"station_id":"ce4bhi12rcd13ifvqfq0","pricing_plan_id":"cebpf4jnsgd1na2vs0mg"},{"bike_id":"a6a9aa78-7299-47ac-a784-76282a099506","system_id":"levelo_inurba_marseille","lat":43.30237,"lon":5.38175,"is_reserved":false,"is_disabled":true,"rental_uris":{"android":"levelo://app?vid=a6a9aa78-7299-47ac-a784-76282a099506","ios":"levelo://app?vid=a6a9aa78-7299-47ac-a784-76282a099506"},"vehicle_type_id":"4","last_reported":1749661768,"current_range_meters":10800,"station_id":"","pricing_plan_id":"cebpf4jnsgd1na2vs0mg"},{"bike_id":"519d9303-5b48-4976-8f95-f1bca5f44a61","system_id":"levelo_inurba_marseille","lat":43.32512,"lon":5.41523,"is_reserved":false,"is_disabled":false,"rental_uris":{"android":"levelo://app?vid=519d9303-5b48-4976-8f95-f1bca5f44a61","ios":"levelo://app?vid=519d9303-5b48-4976-8f95-f1bca5f44a61"},"vehicle_type_id":"4","last_reported":1749661768,"current_range_meters":10800,"station_id":"","pricing_plan_id":"cebpf4jnsgd1na2vs0mg"},{"bike_id":"4e161173-b509-48ce-8d8a-bd5656f03314","system_id":"levelo_inurba_marseille","lat":43.29007,"lon":5.3561,"is_reserved":false,"is_disabled":false,"rental_uris":{"android":"levelo://app?vid=4e161173-b509-48ce-8d8a-bd5656f03314","ios":"levelo://app?vid=4e161173-b509-48ce-8d8a-bd5656f03314"},"vehicle_type_id":"4","last_reported":1749661768,"current_range_meters":10800,"station_id":"ce4bhb92rcd13ifvqen0","pricing_plan_id":"cebpf4jnsgd1na2vs0mg"},{"bike_id":"1775a59e-9dc0-40f8-9c59-36e8acda4730","system_id":"levelo_inurba_marseille","lat":43.2919,"lon":5.35812,"is_reserved":false,"is_disabled":false,"rental_uris":{"android":"levelo://app?vid=1775a59e-9dc0-40f8-9c59-36e8acda4730","ios":"levelo://app?vid=1775a59e-9dc0-40f8-9c59-36e8acda4730"},"vehicle_type_id":"4","last_reported":1749661768,"current_range_meters":10800,"station_id":"ce4bhb12rcd13ifvqel0","pricing_plan_id":"cebpf4jnsgd1na2vs0mg"},{"bike_id":"84f5a926-1dd6-4535-b647-2764ce0ca103","system_id":"levelo_inurba_marseille","lat":43.321121,"lon":5.367782,"is_reserved":false,"is_disabled":false,"rental_uris":{"android":"levelo://app?vid=84f5a926-1dd6-4535-b647-2764ce0ca103","ios":"levelo://app?vid=84f5a926-1dd6-4535-b647-2764ce0ca103"},"vehicle_type_id":"4","last_reported":1749661768,"current_range_meters":10800,"station_id":"ce4bhrh2rcd13ifvqhug","pricing_plan_id":"cebpf4jnsgd1na2vs0mg"},{"bike_id":"0923e79e-3960-4eec-9027-38089346fe3a","system_id":"levelo_inurba_marseille","lat":43.23189,"lon":5.35564,"is_reserved":false,"is_disabled":true,"rental_uris":{"android":"levelo://app?vid=0923e79e-3960-4eec-9027-38089346fe3a","ios":"levelo://app?vid=0923e79e-3960-4eec-9027-38089346fe3a"},"vehicle_type_id":"4","last_reported":1749661768,"current_range_meters":10800,"station_id":"ce4bhu92rcd13ifvqi70","pricing_plan_id":"cebpf4jnsgd1na2vs0mg"},{"bike_id":"4220c3f1-dd96-4f3e-a186-336464ef48f9","system_id":"levelo_inurba_marseille","lat":43.28426,"lon":5.34984,"is_reserved":false,"is_disabled":false,"rental_uris":{"android":"levelo://app?vid=4220c3f1-dd96-4f3e-a186-336464ef48f9","ios":"levelo://app?vid=4220c3f1-dd96-4f3e-a186-336464ef48f9"},"vehicle_type_id":"4","last_reported":1749661768,"current_range_meters":10800,"station_id":"ce4bhbh2rcd13ifvqepg","pricing_plan_id":"cebpf4jnsgd1na2vs0mg"},{"bike_id":"3dea5b83-989d-4d68-97e2-5caa2520b3e7","system_id":"levelo_inurba_marseille","lat":43.28718,"lon":5.36104,"is_reserved":false,"is_disabled":false,"rental_uris":{"android":"levelo://app?vid=3dea5b83-989d-4d68-97e2-5caa2520b3e7","ios":"levelo://app?vid=3dea5b83-989d-4d68-97e2-5caa2520b3e7"},"vehicle_type_id":"4","last_reported":1749661768,"current_range_meters":11200,"station_id":"cki0cbj6b192h4jlfktg","pricing_plan_id":"cebpf4jnsgd1na2vs0mg"},{"bike_id":"ea9fe96b-731f-4b3b-9b93-cc693a98401b","system_id":"levelo_inurba_marseille","lat":43.28408,"lon":5.37502,"is_reserved":false,"is_disabled":false,"rental_uris":{"android":"levelo://app?vid=ea9fe96b-731f-4b3b-9b93-cc693a98401b","ios":"levelo://app?vid=ea9fe96b-731f-4b3b-9b93-cc693a98401b"},"vehicle_type_id":"4","last_reported":1749661768,"current_range_meters":11200,"station_id":"ce4bh412rcd13ifvqds0","pricing_plan_id":"cebpf4jnsgd1na2vs0mg"},{"bike_id":"e0ee93db-e1af-435e-b0cd-95141b4d30fd","system_id":"levelo_inurba_marseille","lat":43.271826,"lon":5.409932,"is_reserved":false,"is_disabled":true,"rental_uris":{"android":"levelo://app?vid=e0ee93db-e1af-435e-b0cd-95141b4d30fd","ios":"levelo://app?vid=e0ee93db-e1af-435e-b0cd-95141b4d30fd"},"vehicle_type_id":"4","last_reported":1749661768,"current_range_meters":11200,"station_id":"ce4bhl12rcd13ifvqgf0","pricing_plan_id":"cebpf4jnsgd1na2vs0mg"},{"bike_id":"0a77a49a-0445-46d9-b7e7-2583c1abd2ca","system_id":"levelo_inurba_marseille","lat":43.292533,"lon":5.408953,"is_reserved":false,"is_disabled":false,"rental_uris":{"android":"levelo://app?vid=0a77a49a-0445-46d9-b7e7-2583c1abd2ca","ios":"levelo://app?vid=0a77a49a-0445-46d9-b7e7-2583c1abd2ca"},"vehicle_type_id":"4","last_reported":1749661768,"current_range_meters":11200,"station_id":"ce4bh392rcd13ifvqdm0","pricing_plan_id":"cebpf4jnsgd1na2vs0mg"},{"bike_id":"d7fd175c-f9e3-40c2-a480-2670793a4f25","system_id":"levelo_inurba_marseille","lat":43.29005,"lon":5.35603,"is_reserved":false,"is_disabled":false,"rental_uris":{"android":"levelo://app?vid=d7fd175c-f9e3-40c2-a480-2670793a4f25","ios":"levelo://app?vid=d7fd175c-f9e3-40c2-a480-2670793a4f25"},"vehicle_type_id":"4","last_reported":1749661768,"current_range_meters":11200,"station_id":"ce4bhb92rcd13ifvqen0","pricing_plan_id":"cebpf4jnsgd1na2vs0mg"},{"bike_id":"dfa8a562-7c57-4609-9fab-4cc0bd86a23f","system_id":"levelo_inurba_marseille","lat":43.28645,"lon":5.35121,"is_reserved":false,"is_disabled":false,"rental_uris":{"android":"levelo://app?vid=dfa8a562-7c57-4609-9fab-4cc0bd86a23f","ios":"levelo://app?vid=dfa8a562-7c57-4609-9fab-4cc0bd86a23f"},"vehicle_type_id":"4","last_reported":1749661768,"current_range_meters":11600,"station_id":"ce4bhch2rcd13ifvqeug","pricing_plan_id":"cebpf4jnsgd1na2vs0mg"},{"bike_id":"7b2502e3-9c5b-46ad-8086-802aba0bfd96","system_id":"levelo_inurba_marseille","lat":43.30784,"lon":5.37642,"is_reserved":false,"is_disabled":false,"rental_uris":{"android":"levelo://app?vid=7b2502e3-9c5b-46ad-8086-802aba0bfd96","ios":"levelo://app?vid=7b2502e3-9c5b-46ad-8086-802aba0bfd96"},"vehicle_type_id":"4","last_reported":1749661768,"current_range_meters":11200,"station_id":"ce4bgv92rcd13ifvqcq0","pricing_plan_id":"cebpf4jnsgd1na2vs0mg"},{"bike_id":"0423a290-be7a-416a-86b3-78f5b7a2fa98","system_id":"levelo_inurba_marseille","lat":43.31714,"lon":5.37742,"is_reserved":false,"is_disabled":false,"rental_uris":{"android":"levelo://app?vid=0423a290-be7a-416a-86b3-78f5b7a2fa98","ios":"levelo://app?vid=0423a290-be7a-416a-86b3-78f5b7a2fa98"},"vehicle_type_id":"4","last_reported":1749661768,"current_range_meters":11600,"station_id":"ce4bgth2rcd13ifvqch0","pricing_plan_id":"cebpf4jnsgd1na2vs0mg"},{"bike_id":"23d57725-314d-404b-9dd5-9f1ae986e32b","system_id":"levelo_inurba_marseille","lat":43.27381,"lon":5.36264,"is_reserved":false,"is_disabled":false,"rental_uris":{"android":"levelo://app?vid=23d57725-314d-404b-9dd5-9f1ae986e32b","ios":"levelo://app?vid=23d57725-314d-404b-9dd5-9f1ae986e32b"},"vehicle_type_id":"4","last_reported":1749661768,"current_range_meters":11600,"station_id":"ce4bhbh2rcd13ifvqeo0","pricing_plan_id":"cebpf4jnsgd1na2vs0mg"},{"bike_id":"5736ef30-c8dc-4500-b9bb-bd27493fddae","system_id":"levelo_inurba_marseille","lat":43.2958,"lon":5.36741,"is_reserved":false,"is_disabled":false,"rental_uris":{"android":"levelo://app?vid=5736ef30-c8dc-4500-b9bb-bd27493fddae","ios":"levelo://app?vid=5736ef30-c8dc-4500-b9bb-bd27493fddae"},"vehicle_type_id":"4","last_reported":1749661768,"current_range_meters":11600,"station_id":"ce4bgph2rcd13ifvqc2g","pricing_plan_id":"cebpf4jnsgd1na2vs0mg"},{"bike_id":"8b0822a7-64c8-4c2e-94e2-d50f00c1ca16","system_id":"levelo_inurba_marseille","lat":43.28414,"lon":5.34987,"is_reserved":false,"is_disabled":false,"rental_uris":{"android":"levelo://app?vid=8b0822a7-64c8-4c2e-94e2-d50f00c1ca16","ios":"levelo://app?vid=8b0822a7-64c8-4c2e-94e2-d50f00c1ca16"},"vehicle_type_id":"4","last_reported":1749661768,"current_range_meters":12000,"station_id":"ce4bhbh2rcd13ifvqepg","pricing_plan_id":"cebpf4jnsgd1na2vs0mg"},{"bike_id":"f45ecfb6-6d84-4e2a-a549-add3b7ff77b5","system_id":"levelo_inurba_marseille","lat":43.28291,"lon":5.35061,"is_reserved":false,"is_disabled":false,"rental_uris":{"android":"levelo://app?vid=f45ecfb6-6d84-4e2a-a549-add3b7ff77b5","ios":"levelo://app?vid=f45ecfb6-6d84-4e2a-a549-add3b7ff77b5"},"vehicle_type_id":"4","last_reported":1749661768,"current_range_meters":12000,"station_id":"ce4bhbp2rcd13ifvqerg","pricing_plan_id":"cebpf4jnsgd1na2vs0mg"},{"bike_id":"15696423-0e15-4896-92d7-b0bf1b2d7f34","system_id":"levelo_inurba_marseille","lat":43.28371,"lon":5.38615,"is_reserved":false,"is_disabled":false,"rental_uris":{"android":"levelo://app?vid=15696423-0e15-4896-92d7-b0bf1b2d7f34","ios":"levelo://app?vid=15696423-0e15-4896-92d7-b0bf1b2d7f34"},"vehicle_type_id":"4","last_reported":1749661768,"current_range_meters":11600,"station_id":"ce4bh492rcd13ifvqdvg","pricing_plan_id":"cebpf4jnsgd1na2vs0mg"},{"bike_id":"ed8e3742-6af4-4676-9da0-1a2c61b275a4","system_id":"levelo_inurba_marseille","lat":43.27841,"lon":5.3921,"is_reserved":false,"is_disabled":false,"rental_uris":{"android":"levelo://app?vid=ed8e3742-6af4-4676-9da0-1a2c61b275a4","ios":"levelo://app?vid=ed8e3742-6af4-4676-9da0-1a2c61b275a4"},"vehicle_type_id":"4","last_reported":1749661768,"current_range_meters":12000,"station_id":"ce4bhjp2rcd13ifvqga0","pricing_plan_id":"cebpf4jnsgd1na2vs0mg"},{"bike_id":"5f2c9a1c-23b0-401c-9668-03abe33e7310","system_id":"levelo_inurba_marseille","lat":43.29029,"lon":5.38633,"is_reserved":false,"is_disabled":false,"rental_uris":{"android":"levelo://app?vid=5f2c9a1c-23b0-401c-9668-03abe33e7310","ios":"levelo://app?vid=5f2c9a1c-23b0-401c-9668-03abe33e7310"},"vehicle_type_id":"4","last_reported":1749661768,"current_range_meters":12000,"station_id":"ce4bh4p2rcd13ifvqe0g","pricing_plan_id":"cebpf4jnsgd1na2vs0mg"},{"bike_id":"e2ab8eba-7083-4745-9245-927a9e9c668c","system_id":"levelo_inurba_marseille","lat":43.28435,"lon":5.35001,"is_reserved":false,"is_disabled":false,"rental_uris":{"android":"levelo://app?vid=e2ab8eba-7083-4745-9245-927a9e9c668c","ios":"levelo://app?vid=e2ab8eba-7083-4745-9245-927a9e9c668c"},"vehicle_type_id":"4","last_reported":1749661768,"current_range_meters":12000,"station_id":"ce4bhbh2rcd13ifvqepg","pricing_plan_id":"cebpf4jnsgd1na2vs0mg"},{"bike_id":"2c7a13aa-9a16-4880-8e65-7cb3af8d8d1b","system_id":"levelo_inurba_marseille","lat":43.28971,"lon":5.37833,"is_reserved":false,"is_disabled":true,"rental_uris":{"android":"levelo://app?vid=2c7a13aa-9a16-4880-8e65-7cb3af8d8d1b","ios":"levelo://app?vid=2c7a13aa-9a16-4880-8e65-7cb3af8d8d1b"},"vehicle_type_id":"4","last_reported":1749661768,"current_range_meters":12000,"station_id":"ce4bh9p2rcd13ifvqed0","pricing_plan_id":"cebpf4jnsgd1na2vs0mg"},{"bike_id":"8102aa84-6de6-4d5d-8700-5ad54a034ef3","system_id":"levelo_inurba_marseille","lat":43.30327,"lon":5.40436,"is_reserved":false,"is_disabled":false,"rental_uris":{"android":"levelo://app?vid=8102aa84-6de6-4d5d-8700-5ad54a034ef3","ios":"levelo://app?vid=8102aa84-6de6-4d5d-8700-5ad54a034ef3"},"vehicle_type_id":"4","last_reported":1749661768,"current_range_meters":12000,"station_id":"ce4bh012rcd13ifvqd10","pricing_plan_id":"cebpf4jnsgd1na2vs0mg"},{"bike_id":"4519b465-fdc4-4571-bb9f-ef7a0e301420","system_id":"levelo_inurba_marseille","lat":43.2872,"lon":5.36093,"is_reserved":false,"is_disabled":false,"rental_uris":{"android":"levelo://app?vid=4519b465-fdc4-4571-bb9f-ef7a0e301420","ios":"levelo://app?vid=4519b465-fdc4-4571-bb9f-ef7a0e301420"},"vehicle_type_id":"4","last_reported":1749661768,"current_range_meters":12000,"station_id":"cki0cbj6b192h4jlfktg","pricing_plan_id":"cebpf4jnsgd1na2vs0mg"},{"bike_id":"28b51e0d-437e-4abb-a46d-34cdb1e55dff","system_id":"levelo_inurba_marseille","lat":43.27836,"lon":5.39209,"is_reserved":false,"is_disabled":false,"rental_uris":{"android":"levelo://app?vid=28b51e0d-437e-4abb-a46d-34cdb1e55dff","ios":"levelo://app?vid=28b51e0d-437e-4abb-a46d-34cdb1e55dff"},"vehicle_type_id":"4","last_reported":1749661768,"current_range_meters":12000,"station_id":"ce4bhjp2rcd13ifvqga0","pricing_plan_id":"cebpf4jnsgd1na2vs0mg"},{"bike_id":"e459820f-9650-4716-9355-acf2e8d8029f","system_id":"levelo_inurba_marseille","lat":43.26563,"lon":5.39012,"is_reserved":false,"is_disabled":false,"rental_uris":{"android":"levelo://app?vid=e459820f-9650-4716-9355-acf2e8d8029f","ios":"levelo://app?vid=e459820f-9650-4716-9355-acf2e8d8029f"},"vehicle_type_id":"4","last_reported":1749661768,"current_range_meters":12000,"station_id":"ce4bhe12rcd13ifvqf30","pricing_plan_id":"cebpf4jnsgd1na2vs0mg"},{"bike_id":"1acfb620-cad7-48c0-8901-d7a5b74a5b65","system_id":"levelo_inurba_marseille","lat":43.33751,"lon":5.37456,"is_reserved":false,"is_disabled":false,"rental_uris":{"android":"levelo://app?vid=1acfb620-cad7-48c0-8901-d7a5b74a5b65","ios":"levelo://app?vid=1acfb620-cad7-48c0-8901-d7a5b74a5b65"},"vehicle_type_id":"4","last_reported":1749661768,"current_range_meters":12000,"station_id":"","pricing_plan_id":"cebpf4jnsgd1na2vs0mg"},{"bike_id":"71455d28-2646-4598-b7dc-7b6598c787b7","system_id":"levelo_inurba_marseille","lat":43.27375,"lon":5.36259,"is_reserved":false,"is_disabled":false,"rental_uris":{"android":"levelo://app?vid=71455d28-2646-4598-b7dc-7b6598c787b7","ios":"levelo://app?vid=71455d28-2646-4598-b7dc-7b6598c787b7"},"vehicle_type_id":"4","last_reported":1749661768,"current_range_meters":12400,"station_id":"ce4bhbh2rcd13ifvqeo0","pricing_plan_id":"cebpf4jnsgd1na2vs0mg"},{"bike_id":"3eae6340-471a-44d3-9e16-4602cbca9735","system_id":"levelo_inurba_marseille","lat":43.28411,"lon":5.34989,"is_reserved":false,"is_disabled":false,"rental_uris":{"android":"levelo://app?vid=3eae6340-471a-44d3-9e16-4602cbca9735","ios":"levelo://app?vid=3eae6340-471a-44d3-9e16-4602cbca9735"},"vehicle_type_id":"4","last_reported":1749661768,"current_range_meters":12400,"station_id":"ce4bhbh2rcd13ifvqepg","pricing_plan_id":"cebpf4jnsgd1na2vs0mg"},{"bike_id":"17baeb94-ba33-4492-8b16-d29ed965cc3a","system_id":"levelo_inurba_marseille","lat":43.289342,"lon":5.363871,"is_reserved":false,"is_disabled":false,"rental_uris":{"android":"levelo://app?vid=17baeb94-ba33-4492-8b16-d29ed965cc3a","ios":"levelo://app?vid=17baeb94-ba33-4492-8b16-d29ed965cc3a"},"vehicle_type_id":"4","last_reported":1749661768,"current_range_meters":12400,"station_id":"ce4bhc92rcd13ifvqetg","pricing_plan_id":"cebpf4jnsgd1na2vs0mg"},{"bike_id":"be7728f9-2086-4548-a1b3-377a4d2296d8","system_id":"levelo_inurba_marseille","lat":43.26558,"lon":5.37302,"is_reserved":false,"is_disabled":false,"rental_uris":{"android":"levelo://app?vid=be7728f9-2086-4548-a1b3-377a4d2296d8","ios":"levelo://app?vid=be7728f9-2086-4548-a1b3-377a4d2296d8"},"vehicle_type_id":"4","last_reported":1749661768,"current_range_meters":12400,"station_id":"ce4bhg12rcd13ifvqf70","pricing_plan_id":"cebpf4jnsgd1na2vs0mg"},{"bike_id":"747286d8-4f76-469d-bbda-7f38453b5c4c","system_id":"levelo_inurba_marseille","lat":43.29004,"lon":5.35612,"is_reserved":false,"is_disabled":false,"rental_uris":{"android":"levelo://app?vid=747286d8-4f76-469d-bbda-7f38453b5c4c","ios":"levelo://app?vid=747286d8-4f76-469d-bbda-7f38453b5c4c"},"vehicle_type_id":"4","last_reported":1749661768,"current_range_meters":12400,"station_id":"ce4bhb92rcd13ifvqen0","pricing_plan_id":"cebpf4jnsgd1na2vs0mg"},{"bike_id":"91252cb4-db98-4cff-ba49-0337a6eacf8f","system_id":"levelo_inurba_marseille","lat":43.31996,"lon":5.38787,"is_reserved":false,"is_disabled":false,"rental_uris":{"android":"levelo://app?vid=91252cb4-db98-4cff-ba49-0337a6eacf8f","ios":"levelo://app?vid=91252cb4-db98-4cff-ba49-0337a6eacf8f"},"vehicle_type_id":"4","last_reported":1749661768,"current_range_meters":12400,"station_id":"","pricing_plan_id":"cebpf4jnsgd1na2vs0mg"},{"bike_id":"89e5977a-5b5d-4e65-b79e-8bbad7940f80","system_id":"levelo_inurba_marseille","lat":43.30806,"lon":5.38144,"is_reserved":false,"is_disabled":false,"rental_uris":{"android":"levelo://app?vid=89e5977a-5b5d-4e65-b79e-8bbad7940f80","ios":"levelo://app?vid=89e5977a-5b5d-4e65-b79e-8bbad7940f80"},"vehicle_type_id":"4","last_reported":1749661768,"current_range_meters":12800,"station_id":"ce4bgt12rcd13ifvqce0","pricing_plan_id":"cebpf4jnsgd1na2vs0mg"},{"bike_id":"bced8374-62e1-4e52-a095-12023add48fe","system_id":"levelo_inurba_marseille","lat":43.2512,"lon":5.40319,"is_reserved":false,"is_disabled":false,"rental_uris":{"android":"levelo://app?vid=bced8374-62e1-4e52-a095-12023add48fe","ios":"levelo://app?vid=bced8374-62e1-4e52-a095-12023add48fe"},"vehicle_type_id":"4","last_reported":1749661768,"current_range_meters":12800,"station_id":"ce4bhlh2rcd13ifvqgig","pricing_plan_id":"cebpf4jnsgd1na2vs0mg"},{"bike_id":"82616352-e951-4a9d-8896-3495ca848fab","system_id":"levelo_inurba_marseille","lat":43.31711,"lon":5.43706,"is_reserved":false,"is_disabled":false,"rental_uris":{"android":"levelo://app?vid=82616352-e951-4a9d-8896-3495ca848fab","ios":"levelo://app?vid=82616352-e951-4a9d-8896-3495ca848fab"},"vehicle_type_id":"4","last_reported":1749661768,"current_range_meters":12400,"station_id":"ce4bhp92rcd13ifvqhcg","pricing_plan_id":"cebpf4jnsgd1na2vs0mg"},{"bike_id":"830ae87f-d170-4b96-83e4-3eafa07aef07","system_id":"levelo_inurba_marseille","lat":43.29714,"lon":5.36608,"is_reserved":false,"is_disabled":false,"rental_uris":{"android":"levelo://app?vid=830ae87f-d170-4b96-83e4-3eafa07aef07","ios":"levelo://app?vid=830ae87f-d170-4b96-83e4-3eafa07aef07"},"vehicle_type_id":"4","last_reported":1749661768,"current_range_meters":12400,"station_id":"ce4bgn12rcd13ifvqbt0","pricing_plan_id":"cebpf4jnsgd1na2vs0mg"},{"bike_id":"859c6d64-1885-4daa-9e95-5e7e4571efc2","system_id":"levelo_inurba_marseille","lat":43.22945,"lon":5.35367,"is_reserved":false,"is_disabled":false,"rental_uris":{"android":"levelo://app?vid=859c6d64-1885-4daa-9e95-5e7e4571efc2","ios":"levelo://app?vid=859c6d64-1885-4daa-9e95-5e7e4571efc2"},"vehicle_type_id":"4","last_reported":1749661768,"current_range_meters":12800,"station_id":"cpo3532slgdg3j2ikp40","pricing_plan_id":"cebpf4jnsgd1na2vs0mg"},{"bike_id":"bcd43e8f-71a8-4e56-99ea-a447b90ba0b5","system_id":"levelo_inurba_marseille","lat":43.3016,"lon":5.38085,"is_reserved":false,"is_disabled":false,"rental_uris":{"android":"levelo://app?vid=bcd43e8f-71a8-4e56-99ea-a447b90ba0b5","ios":"levelo://app?vid=bcd43e8f-71a8-4e56-99ea-a447b90ba0b5"},"vehicle_type_id":"4","last_reported":1749661768,"current_range_meters":12800,"station_id":"ce4bgjp2rcd13ifvqbh0","pricing_plan_id":"cebpf4jnsgd1na2vs0mg"},{"bike_id":"d422da9d-5b2c-471b-bec0-92e46297dea3","system_id":"levelo_inurba_marseille","lat":43.303399,"lon":5.404626,"is_reserved":false,"is_disabled":false,"rental_uris":{"android":"levelo://app?vid=d422da9d-5b2c-471b-bec0-92e46297dea3","ios":"levelo://app?vid=d422da9d-5b2c-471b-bec0-92e46297dea3"},"vehicle_type_id":"4","last_reported":1749661768,"current_range_meters":12400,"station_id":"ce4bh012rcd13ifvqd10","pricing_plan_id":"cebpf4jnsgd1na2vs0mg"},{"bike_id":"08d78a49-d56a-4007-bfe7-ef80380d51ac","system_id":"levelo_inurba_marseille","lat":43.28283,"lon":5.35056,"is_reserved":false,"is_disabled":false,"rental_uris":{"android":"levelo://app?vid=08d78a49-d56a-4007-bfe7-ef80380d51ac","ios":"levelo://app?vid=08d78a49-d56a-4007-bfe7-ef80380d51ac"},"vehicle_type_id":"4","last_reported":1749661768,"current_range_meters":13600,"station_id":"ce4bhbp2rcd13ifvqerg","pricing_plan_id":"cebpf4jnsgd1na2vs0mg"},{"bike_id":"26458859-f290-440c-ae9c-21fae7264218","system_id":"levelo_inurba_marseille","lat":43.28297,"lon":5.35079,"is_reserved":false,"is_disabled":false,"rental_uris":{"android":"levelo://app?vid=26458859-f290-440c-ae9c-21fae7264218","ios":"levelo://app?vid=26458859-f290-440c-ae9c-21fae7264218"},"vehicle_type_id":"4","last_reported":1749661768,"current_range_meters":13600,"station_id":"ce4bhbp2rcd13ifvqerg","pricing_plan_id":"cebpf4jnsgd1na2vs0mg"},{"bike_id":"f779b611-c10e-4619-9bdb-6b076750df1c","system_id":"levelo_inurba_marseille","lat":43.24068,"lon":5.37764,"is_reserved":false,"is_disabled":false,"rental_uris":{"android":"levelo://app?vid=f779b611-c10e-4619-9bdb-6b076750df1c","ios":"levelo://app?vid=f779b611-c10e-4619-9bdb-6b076750df1c"},"vehicle_type_id":"4","last_reported":1749661768,"current_range_meters":13600,"station_id":"ce4bhnp2rcd13ifvqgvg","pricing_plan_id":"cebpf4jnsgd1na2vs0mg"},{"bike_id":"2fdaed5a-e531-448e-99be-02a818c2740f","system_id":"levelo_inurba_marseille","lat":43.24178,"lon":5.3973,"is_reserved":false,"is_disabled":false,"rental_uris":{"android":"levelo://app?vid=2fdaed5a-e531-448e-99be-02a818c2740f","ios":"levelo://app?vid=2fdaed5a-e531-448e-99be-02a818c2740f"},"vehicle_type_id":"4","last_reported":1749661768,"current_range_meters":14000,"station_id":"ce4bhn12rcd13ifvqgpg","pricing_plan_id":"cebpf4jnsgd1na2vs0mg"},{"bike_id":"4a3a35cd-0d15-4c45-ab32-2eea37174ed6","system_id":"levelo_inurba_marseille","lat":43.29012,"lon":5.35613,"is_reserved":false,"is_disabled":false,"rental_uris":{"android":"levelo://app?vid=4a3a35cd-0d15-4c45-ab32-2eea37174ed6","ios":"levelo://app?vid=4a3a35cd-0d15-4c45-ab32-2eea37174ed6"},"vehicle_type_id":"4","last_reported":1749661768,"current_range_meters":14000,"station_id":"ce4bhb92rcd13ifvqen0","pricing_plan_id":"cebpf4jnsgd1na2vs0mg"},{"bike_id":"1d397edc-2e42-4278-b734-692b64c5a98c","system_id":"levelo_inurba_marseille","lat":43.24808,"lon":5.37456,"is_reserved":false,"is_disabled":false,"rental_uris":{"android":"levelo://app?vid=1d397edc-2e42-4278-b734-692b64c5a98c","ios":"levelo://app?vid=1d397edc-2e42-4278-b734-692b64c5a98c"},"vehicle_type_id":"4","last_reported":1749661768,"current_range_meters":14000,"station_id":"ce4bhgh2rcd13ifvqfb0","pricing_plan_id":"cebpf4jnsgd1na2vs0mg"},{"bike_id":"6dfd5595-654e-42ee-8e58-2a5c3df13ff8","system_id":"levelo_inurba_marseille","lat":43.31625,"lon":5.37329,"is_reserved":false,"is_disabled":false,"rental_uris":{"android":"levelo://app?vid=6dfd5595-654e-42ee-8e58-2a5c3df13ff8","ios":"levelo://app?vid=6dfd5595-654e-42ee-8e58-2a5c3df13ff8"},"vehicle_type_id":"4","last_reported":1749661768,"current_range_meters":14000,"station_id":"","pricing_plan_id":"cebpf4jnsgd1na2vs0mg"},{"bike_id":"b7087c24-3a24-46a4-b9c0-abbecaf2b5a3","system_id":"levelo_inurba_marseille","lat":43.28921,"lon":5.384,"is_reserved":false,"is_disabled":false,"rental_uris":{"android":"levelo://app?vid=b7087c24-3a24-46a4-b9c0-abbecaf2b5a3","ios":"levelo://app?vid=b7087c24-3a24-46a4-b9c0-abbecaf2b5a3"},"vehicle_type_id":"4","last_reported":1749661768,"current_range_meters":13600,"station_id":"ce4bh612rcd13ifvqe6g","pricing_plan_id":"cebpf4jnsgd1na2vs0mg"},{"bike_id":"b3e27b75-36a5-4746-bde0-a53320b3a31d","system_id":"levelo_inurba_marseille","lat":43.30278,"lon":5.3771,"is_reserved":false,"is_disabled":false,"rental_uris":{"android":"levelo://app?vid=b3e27b75-36a5-4746-bde0-a53320b3a31d","ios":"levelo://app?vid=b3e27b75-36a5-4746-bde0-a53320b3a31d"},"vehicle_type_id":"4","last_reported":1749661768,"current_range_meters":14000,"station_id":"ce4bguh2rcd13ifvqcj0","pricing_plan_id":"cebpf4jnsgd1na2vs0mg"},{"bike_id":"01b53ea9-5963-4456-ac52-b335e6cee31c","system_id":"levelo_inurba_marseille","lat":43.28405,"lon":5.349883,"is_reserved":false,"is_disabled":false,"rental_uris":{"android":"levelo://app?vid=01b53ea9-5963-4456-ac52-b335e6cee31c","ios":"levelo://app?vid=01b53ea9-5963-4456-ac52-b335e6cee31c"},"vehicle_type_id":"4","last_reported":1749661768,"current_range_meters":14000,"station_id":"ce4bhbh2rcd13ifvqepg","pricing_plan_id":"cebpf4jnsgd1na2vs0mg"},{"bike_id":"f39cff6d-518d-44a1-8152-1fcd97c5809e","system_id":"levelo_inurba_marseille","lat":43.28415,"lon":5.34998,"is_reserved":false,"is_disabled":false,"rental_uris":{"android":"levelo://app?vid=f39cff6d-518d-44a1-8152-1fcd97c5809e","ios":"levelo://app?vid=f39cff6d-518d-44a1-8152-1fcd97c5809e"},"vehicle_type_id":"4","last_reported":1749661768,"current_range_meters":14000,"station_id":"ce4bhbh2rcd13ifvqepg","pricing_plan_id":"cebpf4jnsgd1na2vs0mg"},{"bike_id":"ec9132ed-4010-4092-91c0-9dcda8f652e7","system_id":"levelo_inurba_marseille","lat":43.25501,"lon":5.3765,"is_reserved":false,"is_disabled":false,"rental_uris":{"android":"levelo://app?vid=ec9132ed-4010-4092-91c0-9dcda8f652e7","ios":"levelo://app?vid=ec9132ed-4010-4092-91c0-9dcda8f652e7"},"vehicle_type_id":"4","last_reported":1749661768,"current_range_meters":14000,"station_id":"ce4bhh12rcd13ifvqff0","pricing_plan_id":"cebpf4jnsgd1na2vs0mg"},{"bike_id":"3d3604e2-7c6c-48fd-9f51-e25f72e6d4d9","system_id":"levelo_inurba_marseille","lat":43.273742,"lon":5.362612,"is_reserved":false,"is_disabled":false,"rental_uris":{"android":"levelo://app?vid=3d3604e2-7c6c-48fd-9f51-e25f72e6d4d9","ios":"levelo://app?vid=3d3604e2-7c6c-48fd-9f51-e25f72e6d4d9"},"vehicle_type_id":"4","last_reported":1749661768,"current_range_meters":14400,"station_id":"ce4bhbh2rcd13ifvqeo0","pricing_plan_id":"cebpf4jnsgd1na2vs0mg"},{"bike_id":"a2421370-e442-436f-a98a-844d44299694","system_id":"levelo_inurba_marseille","lat":43.3237,"lon":5.36757,"is_reserved":false,"is_disabled":false,"rental_uris":{"android":"levelo://app?vid=a2421370-e442-436f-a98a-844d44299694","ios":"levelo://app?vid=a2421370-e442-436f-a98a-844d44299694"},"vehicle_type_id":"4","last_reported":1749661768,"current_range_meters":14400,"station_id":"ce4bhsh2rcd13ifvqi2g","pricing_plan_id":"cebpf4jnsgd1na2vs0mg"},{"bike_id":"9969b261-5380-4df0-848b-44c60f8c928a","system_id":"levelo_inurba_marseille","lat":43.23194,"lon":5.35558,"is_reserved":false,"is_disabled":false,"rental_uris":{"android":"levelo://app?vid=9969b261-5380-4df0-848b-44c60f8c928a","ios":"levelo://app?vid=9969b261-5380-4df0-848b-44c60f8c928a"},"vehicle_type_id":"4","last_reported":1749661768,"current_range_meters":14000,"station_id":"ce4bhu92rcd13ifvqi70","pricing_plan_id":"cebpf4jnsgd1na2vs0mg"},{"bike_id":"03e99185-e778-4ccf-af48-bb80112546c3","system_id":"levelo_inurba_marseille","lat":43.26204,"lon":5.3743,"is_reserved":false,"is_disabled":false,"rental_uris":{"android":"levelo://app?vid=03e99185-e778-4ccf-af48-bb80112546c3","ios":"levelo://app?vid=03e99185-e778-4ccf-af48-bb80112546c3"},"vehicle_type_id":"4","last_reported":1749661768,"current_range_meters":14400,"station_id":"ce4bhgp2rcd13ifvqfc0","pricing_plan_id":"cebpf4jnsgd1na2vs0mg"},{"bike_id":"c0215979-3b36-4db9-bf78-3aa01385e7a3","system_id":"levelo_inurba_marseille","lat":43.29011,"lon":5.35612,"is_reserved":false,"is_disabled":false,"rental_uris":{"android":"levelo://app?vid=c0215979-3b36-4db9-bf78-3aa01385e7a3","ios":"levelo://app?vid=c0215979-3b36-4db9-bf78-3aa01385e7a3"},"vehicle_type_id":"4","last_reported":1749661768,"current_range_meters":14400,"station_id":"ce4bhb92rcd13ifvqen0","pricing_plan_id":"cebpf4jnsgd1na2vs0mg"},{"bike_id":"2158c3fb-d07f-49f6-9c42-0a6d514718bb","system_id":"levelo_inurba_marseille","lat":43.273818,"lon":5.362508,"is_reserved":false,"is_disabled":false,"rental_uris":{"android":"levelo://app?vid=2158c3fb-d07f-49f6-9c42-0a6d514718bb","ios":"levelo://app?vid=2158c3fb-d07f-49f6-9c42-0a6d514718bb"},"vehicle_type_id":"4","last_reported":1749661768,"current_range_meters":14400,"station_id":"ce4bhbh2rcd13ifvqeo0","pricing_plan_id":"cebpf4jnsgd1na2vs0mg"},{"bike_id":"a73a277b-3c39-4414-8c34-445208956d66","system_id":"levelo_inurba_marseille","lat":43.24394,"lon":5.37051,"is_reserved":false,"is_disabled":false,"rental_uris":{"android":"levelo://app?vid=a73a277b-3c39-4414-8c34-445208956d66","ios":"levelo://app?vid=a73a277b-3c39-4414-8c34-445208956d66"},"vehicle_type_id":"4","last_reported":1749661768,"current_range_meters":14000,"station_id":"ce4bhhh2rcd13ifvqfk0","pricing_plan_id":"cebpf4jnsgd1na2vs0mg"},{"bike_id":"354a1076-00d7-46ec-830b-28e28e2cb143","system_id":"levelo_inurba_marseille","lat":43.2926,"lon":5.36835,"is_reserved":false,"is_disabled":true,"rental_uris":{"android":"levelo://app?vid=354a1076-00d7-46ec-830b-28e28e2cb143","ios":"levelo://app?vid=354a1076-00d7-46ec-830b-28e28e2cb143"},"vehicle_type_id":"4","last_reported":1749661768,"current_range_meters":14400,"station_id":"ce4bhbp2rcd13ifvqesg","pricing_plan_id":"cebpf4jnsgd1na2vs0mg"},{"bike_id":"f359f98e-93c9-4118-94ef-1a2f2766aa54","system_id":"levelo_inurba_marseille","lat":43.2917,"lon":5.35832,"is_reserved":false,"is_disabled":false,"rental_uris":{"android":"levelo://app?vid=f359f98e-93c9-4118-94ef-1a2f2766aa54","ios":"levelo://app?vid=f359f98e-93c9-4118-94ef-1a2f2766aa54"},"vehicle_type_id":"4","last_reported":1749661768,"current_range_meters":14800,"station_id":"ce4bhb12rcd13ifvqel0","pricing_plan_id":"cebpf4jnsgd1na2vs0mg"},{"bike_id":"bda29767-691a-4aa3-b3b0-9685ead059d2","system_id":"levelo_inurba_marseille","lat":43.29168,"lon":5.37162,"is_reserved":false,"is_disabled":false,"rental_uris":{"android":"levelo://app?vid=bda29767-691a-4aa3-b3b0-9685ead059d2","ios":"levelo://app?vid=bda29767-691a-4aa3-b3b0-9685ead059d2"},"vehicle_type_id":"4","last_reported":1749661768,"current_range_meters":14800,"station_id":"ce4bha92rcd13ifvqeh0","pricing_plan_id":"cebpf4jnsgd1na2vs0mg"},{"bike_id":"e82995bb-753b-4b29-ba32-dff9b65905ff","system_id":"levelo_inurba_marseille","lat":43.28426,"lon":5.34997,"is_reserved":false,"is_disabled":false,"rental_uris":{"android":"levelo://app?vid=e82995bb-753b-4b29-ba32-dff9b65905ff","ios":"levelo://app?vid=e82995bb-753b-4b29-ba32-dff9b65905ff"},"vehicle_type_id":"4","last_reported":1749661768,"current_range_meters":14800,"station_id":"ce4bhbh2rcd13ifvqepg","pricing_plan_id":"cebpf4jnsgd1na2vs0mg"},{"bike_id":"c61f9f7a-56f7-4007-a0b0-9ef922fe9146","system_id":"levelo_inurba_marseille","lat":43.2901,"lon":5.3561,"is_reserved":false,"is_disabled":false,"rental_uris":{"android":"levelo://app?vid=c61f9f7a-56f7-4007-a0b0-9ef922fe9146","ios":"levelo://app?vid=c61f9f7a-56f7-4007-a0b0-9ef922fe9146"},"vehicle_type_id":"4","last_reported":1749661768,"current_range_meters":14800,"station_id":"ce4bhb92rcd13ifvqen0","pricing_plan_id":"cebpf4jnsgd1na2vs0mg"},{"bike_id":"585ee337-f61b-440d-8902-c3e41deb4cb0","system_id":"levelo_inurba_marseille","lat":43.28287,"lon":5.35084,"is_reserved":false,"is_disabled":false,"rental_uris":{"android":"levelo://app?vid=585ee337-f61b-440d-8902-c3e41deb4cb0","ios":"levelo://app?vid=585ee337-f61b-440d-8902-c3e41deb4cb0"},"vehicle_type_id":"4","last_reported":1749661768,"current_range_meters":14800,"station_id":"ce4bhbp2rcd13ifvqerg","pricing_plan_id":"cebpf4jnsgd1na2vs0mg"},{"bike_id":"9f0d423a-9a6f-4e49-acac-c61f91396adc","system_id":"levelo_inurba_marseille","lat":43.28005,"lon":5.39996,"is_reserved":false,"is_disabled":false,"rental_uris":{"android":"levelo://app?vid=9f0d423a-9a6f-4e49-acac-c61f91396adc","ios":"levelo://app?vid=9f0d423a-9a6f-4e49-acac-c61f91396adc"},"vehicle_type_id":"4","last_reported":1749661768,"current_range_meters":14800,"station_id":"ce4bho92rcd13ifvqh4g","pricing_plan_id":"cebpf4jnsgd1na2vs0mg"},{"bike_id":"130585ff-c51f-4ed4-bf85-74c774cd7297","system_id":"levelo_inurba_marseille","lat":43.27959,"lon":5.38694,"is_reserved":false,"is_disabled":true,"rental_uris":{"android":"levelo://app?vid=130585ff-c51f-4ed4-bf85-74c774cd7297","ios":"levelo://app?vid=130585ff-c51f-4ed4-bf85-74c774cd7297"},"vehicle_type_id":"4","last_reported":1749661768,"current_range_meters":15200,"station_id":"ce4bhg12rcd13ifvqf80","pricing_plan_id":"cebpf4jnsgd1na2vs0mg"},{"bike_id":"d8b1b43f-02cf-4802-ac86-17d8288ba3fe","system_id":"levelo_inurba_marseille","lat":43.278561,"lon":5.407167,"is_reserved":false,"is_disabled":false,"rental_uris":{"android":"levelo://app?vid=d8b1b43f-02cf-4802-ac86-17d8288ba3fe","ios":"levelo://app?vid=d8b1b43f-02cf-4802-ac86-17d8288ba3fe"},"vehicle_type_id":"4","last_reported":1749661768,"current_range_meters":15200,"station_id":"ce4bhnh2rcd13ifvqgtg","pricing_plan_id":"cebpf4jnsgd1na2vs0mg"},{"bike_id":"1fea46fb-cc3a-43cd-825a-297ba67da049","system_id":"levelo_inurba_marseille","lat":43.28408,"lon":5.34981,"is_reserved":false,"is_disabled":false,"rental_uris":{"android":"levelo://app?vid=1fea46fb-cc3a-43cd-825a-297ba67da049","ios":"levelo://app?vid=1fea46fb-cc3a-43cd-825a-297ba67da049"},"vehicle_type_id":"4","last_reported":1749661768,"current_range_meters":15200,"station_id":"ce4bhbh2rcd13ifvqepg","pricing_plan_id":"cebpf4jnsgd1na2vs0mg"},{"bike_id":"e70c17ea-cf15-4cd8-8ca9-87d54374f23f","system_id":"levelo_inurba_marseille","lat":43.286133,"lon":5.350969,"is_reserved":false,"is_disabled":false,"rental_uris":{"android":"levelo://app?vid=e70c17ea-cf15-4cd8-8ca9-87d54374f23f","ios":"levelo://app?vid=e70c17ea-cf15-4cd8-8ca9-87d54374f23f"},"vehicle_type_id":"4","last_reported":1749661768,"current_range_meters":15200,"station_id":"ce4bhch2rcd13ifvqeug","pricing_plan_id":"cebpf4jnsgd1na2vs0mg"},{"bike_id":"6336c8aa-2deb-4681-9e6a-320ab96460a3","system_id":"levelo_inurba_marseille","lat":43.27682,"lon":5.38874,"is_reserved":false,"is_disabled":false,"rental_uris":{"android":"levelo://app?vid=6336c8aa-2deb-4681-9e6a-320ab96460a3","ios":"levelo://app?vid=6336c8aa-2deb-4681-9e6a-320ab96460a3"},"vehicle_type_id":"4","last_reported":1749661768,"current_range_meters":15200,"station_id":"ce4bhi12rcd13ifvqfo0","pricing_plan_id":"cebpf4jnsgd1na2vs0mg"},{"bike_id":"6b096574-7a86-431e-adb1-6c86a9fb9dd0","system_id":"levelo_inurba_marseille","lat":43.26997,"lon":5.40306,"is_reserved":false,"is_disabled":true,"rental_uris":{"android":"levelo://app?vid=6b096574-7a86-431e-adb1-6c86a9fb9dd0","ios":"levelo://app?vid=6b096574-7a86-431e-adb1-6c86a9fb9dd0"},"vehicle_type_id":"4","last_reported":1749661768,"current_range_meters":16000,"station_id":"cjm6bp8fraef2m0cb0m0","pricing_plan_id":"cebpf4jnsgd1na2vs0mg"},{"bike_id":"54265529-c802-41ea-a434-8efe037aed4d","system_id":"levelo_inurba_marseille","lat":43.28407,"lon":5.35008,"is_reserved":false,"is_disabled":false,"rental_uris":{"android":"levelo://app?vid=54265529-c802-41ea-a434-8efe037aed4d","ios":"levelo://app?vid=54265529-c802-41ea-a434-8efe037aed4d"},"vehicle_type_id":"4","last_reported":1749661768,"current_range_meters":16000,"station_id":"ce4bhbh2rcd13ifvqepg","pricing_plan_id":"cebpf4jnsgd1na2vs0mg"},{"bike_id":"7ce03003-40bb-4dfa-ae6d-2796634da079","system_id":"levelo_inurba_marseille","lat":43.29557,"lon":5.42295,"is_reserved":false,"is_disabled":false,"rental_uris":{"android":"levelo://app?vid=7ce03003-40bb-4dfa-ae6d-2796634da079","ios":"levelo://app?vid=7ce03003-40bb-4dfa-ae6d-2796634da079"},"vehicle_type_id":"4","last_reported":1749661768,"current_range_meters":16000,"station_id":"ce4bhph2rcd13ifvqhdg","pricing_plan_id":"cebpf4jnsgd1na2vs0mg"},{"bike_id":"f8ef2747-cbb3-4dd6-ad71-81a61ff1d868","system_id":"levelo_inurba_marseille","lat":43.22942,"lon":5.3538,"is_reserved":false,"is_disabled":false,"rental_uris":{"android":"levelo://app?vid=f8ef2747-cbb3-4dd6-ad71-81a61ff1d868","ios":"levelo://app?vid=f8ef2747-cbb3-4dd6-ad71-81a61ff1d868"},"vehicle_type_id":"4","last_reported":1749661768,"current_range_meters":16000,"station_id":"cpo3532slgdg3j2ikp40","pricing_plan_id":"cebpf4jnsgd1na2vs0mg"},{"bike_id":"2b199de8-93ed-4092-bac0-9bf4e83bd63a","system_id":"levelo_inurba_marseille","lat":43.22933,"lon":5.35372,"is_reserved":false,"is_disabled":false,"rental_uris":{"android":"levelo://app?vid=2b199de8-93ed-4092-bac0-9bf4e83bd63a","ios":"levelo://app?vid=2b199de8-93ed-4092-bac0-9bf4e83bd63a"},"vehicle_type_id":"4","last_reported":1749661768,"current_range_meters":16000,"station_id":"cpo3532slgdg3j2ikp40","pricing_plan_id":"cebpf4jnsgd1na2vs0mg"},{"bike_id":"16ada6bc-7e2a-4771-b1f3-62133403f0ac","system_id":"levelo_inurba_marseille","lat":43.246628,"lon":5.38165,"is_reserved":false,"is_disabled":false,"rental_uris":{"android":"levelo://app?vid=16ada6bc-7e2a-4771-b1f3-62133403f0ac","ios":"levelo://app?vid=16ada6bc-7e2a-4771-b1f3-62133403f0ac"},"vehicle_type_id":"4","last_reported":1749661768,"current_range_meters":16000,"station_id":"ce4bhih2rcd13ifvqfr0","pricing_plan_id":"cebpf4jnsgd1na2vs0mg"},{"bike_id":"048f2f2b-8e86-4fe8-80fa-0a30dafb1ed2","system_id":"levelo_inurba_marseille","lat":43.298596,"lon":5.362928,"is_reserved":false,"is_disabled":false,"rental_uris":{"android":"levelo://app?vid=048f2f2b-8e86-4fe8-80fa-0a30dafb1ed2","ios":"levelo://app?vid=048f2f2b-8e86-4fe8-80fa-0a30dafb1ed2"},"vehicle_type_id":"4","last_reported":1749661768,"current_range_meters":16400,"station_id":"","pricing_plan_id":"cebpf4jnsgd1na2vs0mg"},{"bike_id":"4759e9c6-b81b-4566-9492-c8ff0f8a3efb","system_id":"levelo_inurba_marseille","lat":43.24078,"lon":5.37748,"is_reserved":false,"is_disabled":false,"rental_uris":{"android":"levelo://app?vid=4759e9c6-b81b-4566-9492-c8ff0f8a3efb","ios":"levelo://app?vid=4759e9c6-b81b-4566-9492-c8ff0f8a3efb"},"vehicle_type_id":"4","last_reported":1749661768,"current_range_meters":16400,"station_id":"ce4bhnp2rcd13ifvqgvg","pricing_plan_id":"cebpf4jnsgd1na2vs0mg"},{"bike_id":"3a558fd3-3c3e-4e41-abab-d5c695ba6752","system_id":"levelo_inurba_marseille","lat":43.30211,"lon":5.3946,"is_reserved":false,"is_disabled":false,"rental_uris":{"android":"levelo://app?vid=3a558fd3-3c3e-4e41-abab-d5c695ba6752","ios":"levelo://app?vid=3a558fd3-3c3e-4e41-abab-d5c695ba6752"},"vehicle_type_id":"4","last_reported":1749661768,"current_range_meters":16400,"station_id":"ce4bh0p2rcd13ifvqd70","pricing_plan_id":"cebpf4jnsgd1na2vs0mg"},{"bike_id":"59808e72-1866-4f4a-8f11-f6d75ee68c9b","system_id":"levelo_inurba_marseille","lat":43.28419,"lon":5.34997,"is_reserved":false,"is_disabled":false,"rental_uris":{"android":"levelo://app?vid=59808e72-1866-4f4a-8f11-f6d75ee68c9b","ios":"levelo://app?vid=59808e72-1866-4f4a-8f11-f6d75ee68c9b"},"vehicle_type_id":"4","last_reported":1749661768,"current_range_meters":16400,"station_id":"ce4bhbh2rcd13ifvqepg","pricing_plan_id":"cebpf4jnsgd1na2vs0mg"},{"bike_id":"7f6c80d6-b015-4145-8e00-338178446921","system_id":"levelo_inurba_marseille","lat":43.25102,"lon":5.39517,"is_reserved":false,"is_disabled":true,"rental_uris":{"android":"levelo://app?vid=7f6c80d6-b015-4145-8e00-338178446921","ios":"levelo://app?vid=7f6c80d6-b015-4145-8e00-338178446921"},"vehicle_type_id":"4","last_reported":1749661768,"current_range_meters":16400,"station_id":"ce4bhm12rcd13ifvqgkg","pricing_plan_id":"cebpf4jnsgd1na2vs0mg"},{"bike_id":"25fcf3ba-4605-47ee-bc5f-a8e55c97476e","system_id":"levelo_inurba_marseille","lat":43.26551,"lon":5.37288,"is_reserved":false,"is_disabled":false,"rental_uris":{"android":"levelo://app?vid=25fcf3ba-4605-47ee-bc5f-a8e55c97476e","ios":"levelo://app?vid=25fcf3ba-4605-47ee-bc5f-a8e55c97476e"},"vehicle_type_id":"4","last_reported":1749661768,"current_range_meters":16400,"station_id":"ce4bhg12rcd13ifvqf70","pricing_plan_id":"cebpf4jnsgd1na2vs0mg"},{"bike_id":"90d37cd4-456e-43a2-b8f5-3a3b7fcdd7ef","system_id":"levelo_inurba_marseille","lat":43.28268,"lon":5.35058,"is_reserved":false,"is_disabled":false,"rental_uris":{"android":"levelo://app?vid=90d37cd4-456e-43a2-b8f5-3a3b7fcdd7ef","ios":"levelo://app?vid=90d37cd4-456e-43a2-b8f5-3a3b7fcdd7ef"},"vehicle_type_id":"4","last_reported":1749661768,"current_range_meters":16400,"station_id":"ce4bhbp2rcd13ifvqerg","pricing_plan_id":"cebpf4jnsgd1na2vs0mg"},{"bike_id":"afa6ef97-6495-47bf-9bba-d7235704c410","system_id":"levelo_inurba_marseille","lat":43.30544,"lon":5.38429,"is_reserved":false,"is_disabled":false,"rental_uris":{"android":"levelo://app?vid=afa6ef97-6495-47bf-9bba-d7235704c410","ios":"levelo://app?vid=afa6ef97-6495-47bf-9bba-d7235704c410"},"vehicle_type_id":"4","last_reported":1749661768,"current_range_meters":16000,"station_id":"ce4bgg92rcd13ifvqb30","pricing_plan_id":"cebpf4jnsgd1na2vs0mg"},{"bike_id":"296df5ec-e44a-4bd6-8d2c-54fa109ed1fa","system_id":"levelo_inurba_marseille","lat":43.23962,"lon":5.3663,"is_reserved":false,"is_disabled":false,"rental_uris":{"android":"levelo://app?vid=296df5ec-e44a-4bd6-8d2c-54fa109ed1fa","ios":"levelo://app?vid=296df5ec-e44a-4bd6-8d2c-54fa109ed1fa"},"vehicle_type_id":"4","last_reported":1749661768,"current_range_meters":16400,"station_id":"ce4bhi12rcd13ifvqfp0","pricing_plan_id":"cebpf4jnsgd1na2vs0mg"},{"bike_id":"c8acc72b-5ece-4e56-907d-33af210c0702","system_id":"levelo_inurba_marseille","lat":43.26208,"lon":5.37039,"is_reserved":false,"is_disabled":false,"rental_uris":{"android":"levelo://app?vid=c8acc72b-5ece-4e56-907d-33af210c0702","ios":"levelo://app?vid=c8acc72b-5ece-4e56-907d-33af210c0702"},"vehicle_type_id":"4","last_reported":1749661768,"current_range_meters":16400,"station_id":"","pricing_plan_id":"cebpf4jnsgd1na2vs0mg"},{"bike_id":"98ad6e74-f4a8-4df1-a8cb-50864beb3a70","system_id":"levelo_inurba_marseille","lat":43.28414,"lon":5.34976,"is_reserved":false,"is_disabled":false,"rental_uris":{"android":"levelo://app?vid=98ad6e74-f4a8-4df1-a8cb-50864beb3a70","ios":"levelo://app?vid=98ad6e74-f4a8-4df1-a8cb-50864beb3a70"},"vehicle_type_id":"4","last_reported":1749661768,"current_range_meters":16800,"station_id":"ce4bhbh2rcd13ifvqepg","pricing_plan_id":"cebpf4jnsgd1na2vs0mg"},{"bike_id":"ca8fc65e-0eab-4c08-b74b-9fd1b623657a","system_id":"levelo_inurba_marseille","lat":43.24073,"lon":5.37759,"is_reserved":false,"is_disabled":false,"rental_uris":{"android":"levelo://app?vid=ca8fc65e-0eab-4c08-b74b-9fd1b623657a","ios":"levelo://app?vid=ca8fc65e-0eab-4c08-b74b-9fd1b623657a"},"vehicle_type_id":"4","last_reported":1749661768,"current_range_meters":16800,"station_id":"ce4bhnp2rcd13ifvqgvg","pricing_plan_id":"cebpf4jnsgd1na2vs0mg"},{"bike_id":"26d13d2d-1c53-4e38-b663-c16672655865","system_id":"levelo_inurba_marseille","lat":43.29047,"lon":5.37563,"is_reserved":false,"is_disabled":false,"rental_uris":{"android":"levelo://app?vid=26d13d2d-1c53-4e38-b663-c16672655865","ios":"levelo://app?vid=26d13d2d-1c53-4e38-b663-c16672655865"},"vehicle_type_id":"4","last_reported":1749661768,"current_range_meters":16400,"station_id":"ce4bh692rcd13ifvqe90","pricing_plan_id":"cebpf4jnsgd1na2vs0mg"},{"bike_id":"c0bd4251-d527-48a7-9378-e4e80c1c274f","system_id":"levelo_inurba_marseille","lat":43.31816,"lon":5.3736,"is_reserved":false,"is_disabled":false,"rental_uris":{"android":"levelo://app?vid=c0bd4251-d527-48a7-9378-e4e80c1c274f","ios":"levelo://app?vid=c0bd4251-d527-48a7-9378-e4e80c1c274f"},"vehicle_type_id":"4","last_reported":1749661768,"current_range_meters":16800,"station_id":"","pricing_plan_id":"cebpf4jnsgd1na2vs0mg"},{"bike_id":"684fc0e7-8176-4ffc-9fc3-8f2442f25315","system_id":"levelo_inurba_marseille","lat":43.27364,"lon":5.36255,"is_reserved":false,"is_disabled":false,"rental_uris":{"android":"levelo://app?vid=684fc0e7-8176-4ffc-9fc3-8f2442f25315","ios":"levelo://app?vid=684fc0e7-8176-4ffc-9fc3-8f2442f25315"},"vehicle_type_id":"4","last_reported":1749661768,"current_range_meters":16800,"station_id":"ce4bhbh2rcd13ifvqeo0","pricing_plan_id":"cebpf4jnsgd1na2vs0mg"},{"bike_id":"743245d4-5457-49b9-9efc-d95c90d69b8e","system_id":"levelo_inurba_marseille","lat":43.314873,"lon":5.373081,"is_reserved":false,"is_disabled":false,"rental_uris":{"android":"levelo://app?vid=743245d4-5457-49b9-9efc-d95c90d69b8e","ios":"levelo://app?vid=743245d4-5457-49b9-9efc-d95c90d69b8e"},"vehicle_type_id":"4","last_reported":1749661768,"current_range_meters":16800,"station_id":"ce4bhip2rcd13ifvqft0","pricing_plan_id":"cebpf4jnsgd1na2vs0mg"},{"bike_id":"165ecccf-321b-45ee-abfd-553d9801aac0","system_id":"levelo_inurba_marseille","lat":43.29061,"lon":5.35586,"is_reserved":false,"is_disabled":false,"rental_uris":{"android":"levelo://app?vid=165ecccf-321b-45ee-abfd-553d9801aac0","ios":"levelo://app?vid=165ecccf-321b-45ee-abfd-553d9801aac0"},"vehicle_type_id":"4","last_reported":1749661768,"current_range_meters":16800,"station_id":"","pricing_plan_id":"cebpf4jnsgd1na2vs0mg"},{"bike_id":"8a8da4f9-230b-470b-9402-856b0f3a5ec1","system_id":"levelo_inurba_marseille","lat":43.26558,"lon":5.37281,"is_reserved":false,"is_disabled":false,"rental_uris":{"android":"levelo://app?vid=8a8da4f9-230b-470b-9402-856b0f3a5ec1","ios":"levelo://app?vid=8a8da4f9-230b-470b-9402-856b0f3a5ec1"},"vehicle_type_id":"4","last_reported":1749661768,"current_range_meters":16800,"station_id":"ce4bhg12rcd13ifvqf70","pricing_plan_id":"cebpf4jnsgd1na2vs0mg"},{"bike_id":"478a2f94-8f69-44c5-a79c-2ad3497da700","system_id":"levelo_inurba_marseille","lat":43.28394,"lon":5.3499,"is_reserved":false,"is_disabled":false,"rental_uris":{"android":"levelo://app?vid=478a2f94-8f69-44c5-a79c-2ad3497da700","ios":"levelo://app?vid=478a2f94-8f69-44c5-a79c-2ad3497da700"},"vehicle_type_id":"4","last_reported":1749661768,"current_range_meters":16800,"station_id":"ce4bhbh2rcd13ifvqepg","pricing_plan_id":"cebpf4jnsgd1na2vs0mg"},{"bike_id":"39000b67-ab38-448e-b399-576cb3a70398","system_id":"levelo_inurba_marseille","lat":43.27385,"lon":5.36245,"is_reserved":false,"is_disabled":false,"rental_uris":{"android":"levelo://app?vid=39000b67-ab38-448e-b399-576cb3a70398","ios":"levelo://app?vid=39000b67-ab38-448e-b399-576cb3a70398"},"vehicle_type_id":"4","last_reported":1749661768,"current_range_meters":16800,"station_id":"ce4bhbh2rcd13ifvqeo0","pricing_plan_id":"cebpf4jnsgd1na2vs0mg"},{"bike_id":"92d53ca1-03c3-4309-8325-40b63541cbab","system_id":"levelo_inurba_marseille","lat":43.25082,"lon":5.39521,"is_reserved":false,"is_disabled":true,"rental_uris":{"android":"levelo://app?vid=92d53ca1-03c3-4309-8325-40b63541cbab","ios":"levelo://app?vid=92d53ca1-03c3-4309-8325-40b63541cbab"},"vehicle_type_id":"4","last_reported":1749661768,"current_range_meters":16800,"station_id":"ce4bhm12rcd13ifvqgkg","pricing_plan_id":"cebpf4jnsgd1na2vs0mg"},{"bike_id":"b6bf06f0-8092-4a6f-95cb-0c011fd9e0af","system_id":"levelo_inurba_marseille","lat":43.23966,"lon":5.36633,"is_reserved":false,"is_disabled":false,"rental_uris":{"android":"levelo://app?vid=b6bf06f0-8092-4a6f-95cb-0c011fd9e0af","ios":"levelo://app?vid=b6bf06f0-8092-4a6f-95cb-0c011fd9e0af"},"vehicle_type_id":"4","last_reported":1749661768,"current_range_meters":17200,"station_id":"ce4bhi12rcd13ifvqfp0","pricing_plan_id":"cebpf4jnsgd1na2vs0mg"},{"bike_id":"c887d6c2-3132-4ba9-94a5-3fd697b52b4f","system_id":"levelo_inurba_marseille","lat":43.27366,"lon":5.36263,"is_reserved":false,"is_disabled":false,"rental_uris":{"android":"levelo://app?vid=c887d6c2-3132-4ba9-94a5-3fd697b52b4f","ios":"levelo://app?vid=c887d6c2-3132-4ba9-94a5-3fd697b52b4f"},"vehicle_type_id":"4","last_reported":1749661768,"current_range_meters":17200,"station_id":"ce4bhbh2rcd13ifvqeo0","pricing_plan_id":"cebpf4jnsgd1na2vs0mg"},{"bike_id":"be41fbd3-4530-44e6-8582-ac832cb5cfc7","system_id":"levelo_inurba_marseille","lat":43.26558,"lon":5.37282,"is_reserved":false,"is_disabled":false,"rental_uris":{"android":"levelo://app?vid=be41fbd3-4530-44e6-8582-ac832cb5cfc7","ios":"levelo://app?vid=be41fbd3-4530-44e6-8582-ac832cb5cfc7"},"vehicle_type_id":"4","last_reported":1749661768,"current_range_meters":17200,"station_id":"ce4bhg12rcd13ifvqf70","pricing_plan_id":"cebpf4jnsgd1na2vs0mg"},{"bike_id":"34d138c7-e3a8-42a0-9cf7-3f3c860a279a","system_id":"levelo_inurba_marseille","lat":43.29202,"lon":5.35802,"is_reserved":false,"is_disabled":false,"rental_uris":{"android":"levelo://app?vid=34d138c7-e3a8-42a0-9cf7-3f3c860a279a","ios":"levelo://app?vid=34d138c7-e3a8-42a0-9cf7-3f3c860a279a"},"vehicle_type_id":"4","last_reported":1749661768,"current_range_meters":17200,"station_id":"ce4bhb12rcd13ifvqel0","pricing_plan_id":"cebpf4jnsgd1na2vs0mg"},{"bike_id":"e30ae5c1-ca66-439a-afb0-643a53165404","system_id":"levelo_inurba_marseille","lat":43.29242,"lon":5.36082,"is_reserved":false,"is_disabled":false,"rental_uris":{"android":"levelo://app?vid=e30ae5c1-ca66-439a-afb0-643a53165404","ios":"levelo://app?vid=e30ae5c1-ca66-439a-afb0-643a53165404"},"vehicle_type_id":"4","last_reported":1749661768,"current_range_meters":17200,"station_id":"ce4bhbh2rcd13ifvqeqg","pricing_plan_id":"cebpf4jnsgd1na2vs0mg"},{"bike_id":"25a0d28a-a216-4689-8500-b847a95a3d61","system_id":"levelo_inurba_marseille","lat":43.29008,"lon":5.35616,"is_reserved":false,"is_disabled":false,"rental_uris":{"android":"levelo://app?vid=25a0d28a-a216-4689-8500-b847a95a3d61","ios":"levelo://app?vid=25a0d28a-a216-4689-8500-b847a95a3d61"},"vehicle_type_id":"4","last_reported":1749661768,"current_range_meters":17600,"station_id":"ce4bhb92rcd13ifvqen0","pricing_plan_id":"cebpf4jnsgd1na2vs0mg"},{"bike_id":"b21450a4-463f-4eb5-a5b1-a818c0abb90a","system_id":"levelo_inurba_marseille","lat":43.298922,"lon":5.436639,"is_reserved":false,"is_disabled":false,"rental_uris":{"android":"levelo://app?vid=b21450a4-463f-4eb5-a5b1-a818c0abb90a","ios":"levelo://app?vid=b21450a4-463f-4eb5-a5b1-a818c0abb90a"},"vehicle_type_id":"4","last_reported":1749661768,"current_range_meters":17600,"station_id":"ce4bhpp2rcd13ifvqhfg","pricing_plan_id":"cebpf4jnsgd1na2vs0mg"},{"bike_id":"ba5c58a5-45e4-46f1-b47d-7d585303f993","system_id":"levelo_inurba_marseille","lat":43.28632,"lon":5.35093,"is_reserved":false,"is_disabled":false,"rental_uris":{"android":"levelo://app?vid=ba5c58a5-45e4-46f1-b47d-7d585303f993","ios":"levelo://app?vid=ba5c58a5-45e4-46f1-b47d-7d585303f993"},"vehicle_type_id":"4","last_reported":1749661768,"current_range_meters":17600,"station_id":"ce4bhch2rcd13ifvqeug","pricing_plan_id":"cebpf4jnsgd1na2vs0mg"},{"bike_id":"61c65c12-2f66-41c4-bb38-dbd56f58e8e9","system_id":"levelo_inurba_marseille","lat":43.2866,"lon":5.35066,"is_reserved":false,"is_disabled":false,"rental_uris":{"android":"levelo://app?vid=61c65c12-2f66-41c4-bb38-dbd56f58e8e9","ios":"levelo://app?vid=61c65c12-2f66-41c4-bb38-dbd56f58e8e9"},"vehicle_type_id":"4","last_reported":1749661768,"current_range_meters":18000,"station_id":"ce4bhch2rcd13ifvqeug","pricing_plan_id":"cebpf4jnsgd1na2vs0mg"},{"bike_id":"9946dc27-0dd5-4a7b-b3e6-3fa45c5b292c","system_id":"levelo_inurba_marseille","lat":43.3236,"lon":5.389,"is_reserved":false,"is_disabled":false,"rental_uris":{"android":"levelo://app?vid=9946dc27-0dd5-4a7b-b3e6-3fa45c5b292c","ios":"levelo://app?vid=9946dc27-0dd5-4a7b-b3e6-3fa45c5b292c"},"vehicle_type_id":"4","last_reported":1749661768,"current_range_meters":18000,"station_id":"ce4bhqp2rcd13ifvqhog","pricing_plan_id":"cebpf4jnsgd1na2vs0mg"},{"bike_id":"89952bdf-8423-4dee-a648-f625ccf1e098","system_id":"levelo_inurba_marseille","lat":43.28278,"lon":5.35074,"is_reserved":false,"is_disabled":false,"rental_uris":{"android":"levelo://app?vid=89952bdf-8423-4dee-a648-f625ccf1e098","ios":"levelo://app?vid=89952bdf-8423-4dee-a648-f625ccf1e098"},"vehicle_type_id":"4","last_reported":1749661768,"current_range_meters":18000,"station_id":"ce4bhbp2rcd13ifvqerg","pricing_plan_id":"cebpf4jnsgd1na2vs0mg"},{"bike_id":"ebab0a51-3192-4d53-bb14-9152bd4b60ee","system_id":"levelo_inurba_marseille","lat":43.32542,"lon":5.41421,"is_reserved":false,"is_disabled":false,"rental_uris":{"android":"levelo://app?vid=ebab0a51-3192-4d53-bb14-9152bd4b60ee","ios":"levelo://app?vid=ebab0a51-3192-4d53-bb14-9152bd4b60ee"},"vehicle_type_id":"4","last_reported":1749661768,"current_range_meters":18000,"station_id":"ce4bhq12rcd13ifvqhhg","pricing_plan_id":"cebpf4jnsgd1na2vs0mg"},{"bike_id":"444ca263-b2a2-4a56-b48e-4fda8c3c1323","system_id":"levelo_inurba_marseille","lat":43.27053,"lon":5.40261,"is_reserved":false,"is_disabled":false,"rental_uris":{"android":"levelo://app?vid=444ca263-b2a2-4a56-b48e-4fda8c3c1323","ios":"levelo://app?vid=444ca263-b2a2-4a56-b48e-4fda8c3c1323"},"vehicle_type_id":"4","last_reported":1749661768,"current_range_meters":18000,"station_id":"ce4bhk92rcd13ifvqgc0","pricing_plan_id":"cebpf4jnsgd1na2vs0mg"},{"bike_id":"0b33822a-9a7c-43fc-b0a6-08c1c01b6e6b","system_id":"levelo_inurba_marseille","lat":43.22939,"lon":5.35381,"is_reserved":false,"is_disabled":false,"rental_uris":{"android":"levelo://app?vid=0b33822a-9a7c-43fc-b0a6-08c1c01b6e6b","ios":"levelo://app?vid=0b33822a-9a7c-43fc-b0a6-08c1c01b6e6b"},"vehicle_type_id":"4","last_reported":1749661768,"current_range_meters":18000,"station_id":"cpo3532slgdg3j2ikp40","pricing_plan_id":"cebpf4jnsgd1na2vs0mg"},{"bike_id":"4233a165-29d2-405a-ab27-afef550244c5","system_id":"levelo_inurba_marseille","lat":43.246688,"lon":5.381645,"is_reserved":false,"is_disabled":true,"rental_uris":{"android":"levelo://app?vid=4233a165-29d2-405a-ab27-afef550244c5","ios":"levelo://app?vid=4233a165-29d2-405a-ab27-afef550244c5"},"vehicle_type_id":"4","last_reported":1749661768,"current_range_meters":18000,"station_id":"ce4bhih2rcd13ifvqfr0","pricing_plan_id":"cebpf4jnsgd1na2vs0mg"},{"bike_id":"e0249f4b-8d8b-4dc7-a224-9ea697947c37","system_id":"levelo_inurba_marseille","lat":43.31711,"lon":5.42409,"is_reserved":false,"is_disabled":false,"rental_uris":{"android":"levelo://app?vid=e0249f4b-8d8b-4dc7-a224-9ea697947c37","ios":"levelo://app?vid=e0249f4b-8d8b-4dc7-a224-9ea697947c37"},"vehicle_type_id":"4","last_reported":1749661768,"current_range_meters":18000,"station_id":"ce4bhp92rcd13ifvqhbg","pricing_plan_id":"cebpf4jnsgd1na2vs0mg"},{"bike_id":"fe9f997e-f460-4b16-bdb1-7ed1b9023f57","system_id":"levelo_inurba_marseille","lat":43.286112,"lon":5.37053,"is_reserved":false,"is_disabled":false,"rental_uris":{"android":"levelo://app?vid=fe9f997e-f460-4b16-bdb1-7ed1b9023f57","ios":"levelo://app?vid=fe9f997e-f460-4b16-bdb1-7ed1b9023f57"},"vehicle_type_id":"4","last_reported":1749661768,"current_range_meters":18000,"station_id":"ce4bht12rcd13ifvqi60","pricing_plan_id":"cebpf4jnsgd1na2vs0mg"},{"bike_id":"5b08df2b-a749-488c-8e7c-57ecbbf43710","system_id":"levelo_inurba_marseille","lat":43.28929,"lon":5.36396,"is_reserved":false,"is_disabled":false,"rental_uris":{"android":"levelo://app?vid=5b08df2b-a749-488c-8e7c-57ecbbf43710","ios":"levelo://app?vid=5b08df2b-a749-488c-8e7c-57ecbbf43710"},"vehicle_type_id":"4","last_reported":1749661768,"current_range_meters":18000,"station_id":"ce4bhc92rcd13ifvqetg","pricing_plan_id":"cebpf4jnsgd1na2vs0mg"},{"bike_id":"0ad40ae1-c24a-42a9-9239-4b3edad3f1c1","system_id":"levelo_inurba_marseille","lat":43.28411,"lon":5.34994,"is_reserved":false,"is_disabled":false,"rental_uris":{"android":"levelo://app?vid=0ad40ae1-c24a-42a9-9239-4b3edad3f1c1","ios":"levelo://app?vid=0ad40ae1-c24a-42a9-9239-4b3edad3f1c1"},"vehicle_type_id":"4","last_reported":1749661768,"current_range_meters":18000,"station_id":"ce4bhbh2rcd13ifvqepg","pricing_plan_id":"cebpf4jnsgd1na2vs0mg"},{"bike_id":"d0f5fd5e-82d0-4068-b904-613e884eaef5","system_id":"levelo_inurba_marseille","lat":43.28272,"lon":5.35085,"is_reserved":false,"is_disabled":false,"rental_uris":{"android":"levelo://app?vid=d0f5fd5e-82d0-4068-b904-613e884eaef5","ios":"levelo://app?vid=d0f5fd5e-82d0-4068-b904-613e884eaef5"},"vehicle_type_id":"4","last_reported":1749661768,"current_range_meters":18800,"station_id":"ce4bhbp2rcd13ifvqerg","pricing_plan_id":"cebpf4jnsgd1na2vs0mg"},{"bike_id":"d09dc515-277a-4646-8816-f10cec5d4457","system_id":"levelo_inurba_marseille","lat":43.30919,"lon":5.40191,"is_reserved":false,"is_disabled":true,"rental_uris":{"android":"levelo://app?vid=d09dc515-277a-4646-8816-f10cec5d4457","ios":"levelo://app?vid=d09dc515-277a-4646-8816-f10cec5d4457"},"vehicle_type_id":"4","last_reported":1749661768,"current_range_meters":18800,"station_id":"ce4bgvp2rcd13ifvqct0","pricing_plan_id":"cebpf4jnsgd1na2vs0mg"},{"bike_id":"c744355f-cfaf-4ca0-98de-9fc39ac1da0c","system_id":"levelo_inurba_marseille","lat":43.31886,"lon":5.40744,"is_reserved":false,"is_disabled":false,"rental_uris":{"android":"levelo://app?vid=c744355f-cfaf-4ca0-98de-9fc39ac1da0c","ios":"levelo://app?vid=c744355f-cfaf-4ca0-98de-9fc39ac1da0c"},"vehicle_type_id":"4","last_reported":1749661768,"current_range_meters":18800,"station_id":"ce4bhq12rcd13ifvqhig","pricing_plan_id":"cebpf4jnsgd1na2vs0mg"},{"bike_id":"cfcdcdd5-56f7-440f-bc47-5a156f9494ce","system_id":"levelo_inurba_marseille","lat":43.28613,"lon":5.35097,"is_reserved":false,"is_disabled":false,"rental_uris":{"android":"levelo://app?vid=cfcdcdd5-56f7-440f-bc47-5a156f9494ce","ios":"levelo://app?vid=cfcdcdd5-56f7-440f-bc47-5a156f9494ce"},"vehicle_type_id":"4","last_reported":1749661768,"current_range_meters":18800,"station_id":"ce4bhch2rcd13ifvqeug","pricing_plan_id":"cebpf4jnsgd1na2vs0mg"},{"bike_id":"2df9b5bb-9f86-4fab-bed5-482d2ad52a26","system_id":"levelo_inurba_marseille","lat":43.23961,"lon":5.36632,"is_reserved":false,"is_disabled":false,"rental_uris":{"android":"levelo://app?vid=2df9b5bb-9f86-4fab-bed5-482d2ad52a26","ios":"levelo://app?vid=2df9b5bb-9f86-4fab-bed5-482d2ad52a26"},"vehicle_type_id":"4","last_reported":1749661768,"current_range_meters":18800,"station_id":"ce4bhi12rcd13ifvqfp0","pricing_plan_id":"cebpf4jnsgd1na2vs0mg"},{"bike_id":"7003b93c-725d-412e-9127-fbade718cbc3","system_id":"levelo_inurba_marseille","lat":43.21221,"lon":5.35092,"is_reserved":false,"is_disabled":false,"rental_uris":{"android":"levelo://app?vid=7003b93c-725d-412e-9127-fbade718cbc3","ios":"levelo://app?vid=7003b93c-725d-412e-9127-fbade718cbc3"},"vehicle_type_id":"4","last_reported":1749661768,"current_range_meters":18800,"station_id":"st_cvj6sg6p6f1abm77japg","pricing_plan_id":"cebpf4jnsgd1na2vs0mg"},{"bike_id":"2a7344b5-7126-4cc1-bbd1-a9bb0e44b7bd","system_id":"levelo_inurba_marseille","lat":43.230547,"lon":5.354949,"is_reserved":false,"is_disabled":false,"rental_uris":{"android":"levelo://app?vid=2a7344b5-7126-4cc1-bbd1-a9bb0e44b7bd","ios":"levelo://app?vid=2a7344b5-7126-4cc1-bbd1-a9bb0e44b7bd"},"vehicle_type_id":"4","last_reported":1749661768,"current_range_meters":18800,"station_id":"cpo3342slgdg3j2ifvpg","pricing_plan_id":"cebpf4jnsgd1na2vs0mg"},{"bike_id":"45cb9171-bb7e-418e-bf45-5916b7d21e5e","system_id":"levelo_inurba_marseille","lat":43.32113,"lon":5.3677,"is_reserved":false,"is_disabled":false,"rental_uris":{"android":"levelo://app?vid=45cb9171-bb7e-418e-bf45-5916b7d21e5e","ios":"levelo://app?vid=45cb9171-bb7e-418e-bf45-5916b7d21e5e"},"vehicle_type_id":"4","last_reported":1749661768,"current_range_meters":18800,"station_id":"ce4bhrh2rcd13ifvqhug","pricing_plan_id":"cebpf4jnsgd1na2vs0mg"},{"bike_id":"1aa334d5-afac-4a12-9507-575bce360cf8","system_id":"levelo_inurba_marseille","lat":43.28615,"lon":5.351048,"is_reserved":false,"is_disabled":false,"rental_uris":{"android":"levelo://app?vid=1aa334d5-afac-4a12-9507-575bce360cf8","ios":"levelo://app?vid=1aa334d5-afac-4a12-9507-575bce360cf8"},"vehicle_type_id":"4","last_reported":1749661768,"current_range_meters":18800,"station_id":"ce4bhch2rcd13ifvqeug","pricing_plan_id":"cebpf4jnsgd1na2vs0mg"},{"bike_id":"367044d6-f450-4cfd-acaf-3a4942b927cc","system_id":"levelo_inurba_marseille","lat":43.30312,"lon":5.39241,"is_reserved":false,"is_disabled":false,"rental_uris":{"android":"levelo://app?vid=367044d6-f450-4cfd-acaf-3a4942b927cc","ios":"levelo://app?vid=367044d6-f450-4cfd-acaf-3a4942b927cc"},"vehicle_type_id":"4","last_reported":1749661768,"current_range_meters":18800,"station_id":"ce4bgkh2rcd13ifvqbk0","pricing_plan_id":"cebpf4jnsgd1na2vs0mg"},{"bike_id":"bd0b6c24-6996-4f6f-b862-dca44cbc71ac","system_id":"levelo_inurba_marseille","lat":43.28102,"lon":5.37826,"is_reserved":false,"is_disabled":false,"rental_uris":{"android":"levelo://app?vid=bd0b6c24-6996-4f6f-b862-dca44cbc71ac","ios":"levelo://app?vid=bd0b6c24-6996-4f6f-b862-dca44cbc71ac"},"vehicle_type_id":"4","last_reported":1749661768,"current_range_meters":18800,"station_id":"ce4bha12rcd13ifvqee0","pricing_plan_id":"cebpf4jnsgd1na2vs0mg"},{"bike_id":"11926c67-c581-4a5d-8203-15313e951bcf","system_id":"levelo_inurba_marseille","lat":43.2176,"lon":5.3457,"is_reserved":false,"is_disabled":false,"rental_uris":{"android":"levelo://app?vid=11926c67-c581-4a5d-8203-15313e951bcf","ios":"levelo://app?vid=11926c67-c581-4a5d-8203-15313e951bcf"},"vehicle_type_id":"4","last_reported":1749661768,"current_range_meters":18800,"station_id":"st_cvj6r9ubvosntc0bgbag","pricing_plan_id":"cebpf4jnsgd1na2vs0mg"},{"bike_id":"6abf96d7-80f4-405b-9d46-a7d08b0e6eb7","system_id":"levelo_inurba_marseille","lat":43.28289,"lon":5.35041,"is_reserved":false,"is_disabled":false,"rental_uris":{"android":"levelo://app?vid=6abf96d7-80f4-405b-9d46-a7d08b0e6eb7","ios":"levelo://app?vid=6abf96d7-80f4-405b-9d46-a7d08b0e6eb7"},"vehicle_type_id":"4","last_reported":1749661768,"current_range_meters":18800,"station_id":"ce4bhbp2rcd13ifvqerg","pricing_plan_id":"cebpf4jnsgd1na2vs0mg"},{"bike_id":"97dc308e-5170-4a1b-84db-a44a962e6efa","system_id":"levelo_inurba_marseille","lat":43.24419,"lon":5.37091,"is_reserved":false,"is_disabled":false,"rental_uris":{"android":"levelo://app?vid=97dc308e-5170-4a1b-84db-a44a962e6efa","ios":"levelo://app?vid=97dc308e-5170-4a1b-84db-a44a962e6efa"},"vehicle_type_id":"4","last_reported":1749661768,"current_range_meters":19200,"station_id":"ce4bhhh2rcd13ifvqfk0","pricing_plan_id":"cebpf4jnsgd1na2vs0mg"},{"bike_id":"1ac90903-c5cc-425b-a524-767c78d108bc","system_id":"levelo_inurba_marseille","lat":43.23958,"lon":5.3663,"is_reserved":false,"is_disabled":false,"rental_uris":{"android":"levelo://app?vid=1ac90903-c5cc-425b-a524-767c78d108bc","ios":"levelo://app?vid=1ac90903-c5cc-425b-a524-767c78d108bc"},