{"last_updated":1702811121,"ttl":30,"version":"2.2","data":{"bikes":[{"bike_id":"79a503b9-289d-424c-a5f5-5795c55fdd7a","system_id":"levelo_inurba_marseille","lat":43.314811,"lon":5.373104,"is_reserved":false,"is_disabled":false,"rental_uris":{"android":"levelo://app?vid=79a503b9-289d-424c-a5f5-5795c55fdd7a","ios":"levelo://app?vid=79a503b9-289d-424c-a5f5-5795c55fdd7a"},"vehicle_type_id":"4","last_reported":1702811121,"current_range_meters":26800,"station_id":"ce4bgt12rcd13ifvqcd0","pricing_plan_id":"free"},{"bike_id":"7b0cc67b-8515-42ee-a954-0a2fb7cb29ca","system_id":"levelo_inurba_marseille","lat":43.308865,"lon":5.372035,"is_reserved":false,"is_disabled":false,"rental_uris":{"android":"levelo://app?vid=7b0cc67b-8515-42ee-a954-0a2fb7cb29ca","ios":"levelo://app?vid=7b0cc67b-8515-42ee-a954-0a2fb7cb29ca"},"vehicle_type_id":"4","last_reported":1702811121,"current_range_meters":27600,"station_id":"ce4bguh2rcd13ifvqckg","pricing_plan_id":"free"},{"bike_id":"3f8b821f-e430-4a35-bf14-f8b6e777ea11","system_id":"levelo_inurba_marseille","lat":43.313939,"lon":5.375306,"is_reserved":false,"is_disabled":false,"rental_uris":{"android":"levelo://app?vid=3f8b821f-e430-4a35-bf14-f8b6e777ea11","ios":"levelo://app?vid=3f8b821f-e430-4a35-bf14-f8b6e777ea11"},"vehicle_type_id":"4","last_reported":1702811121,"current_range_meters":0,"station_id":"","pricing_plan_id":"free"},{"bike_id":"fdf38178-c936-4a2a-878e-8021f4326fca","system_id":"levelo_inurba_marseille","lat":43.305712,"lon":5.365641,"is_reserved":false,"is_disabled":false,"rental_uris":{"android":"levelo://app?vid=fdf38178-c936-4a2a-878e-8021f4326fca","ios":"levelo://app?vid=fdf38178-c936-4a2a-878e-8021f4326fca"},"vehicle_type_id":"4","last_reported":1702811121,"current_range_meters":31200,"station_id":"ce4bgs12rcd13ifvqcag","pricing_plan_id":"free"},{"bike_id":"140a9b87-61e9-47c7-a9c8-8518fcaef02a","system_id":"levelo_inurba_marseille","lat":43.305712,"lon":5.365641,"is_reserved":false,"is_disabled":false,"rental_uris":{"android":"levelo://app?vid=140a9b87-61e9-47c7-a9c8-8518fcaef02a","ios":"levelo://app?vid=140a9b87-61e9-47c7-a9c8-8518fcaef02a"},"vehicle_type_id":"4","last_reported":1702811121,"current_range_meters":24400,"station_id":"ce4bgs12rcd13ifvqcag","pricing_plan_id":"free"},{"bike_id":"ffb8790a-d413-4f06-a96d-1e2f6ffe7daa","system_id":"levelo_inurba_marseille","lat":43.305416,"lon":5.367098,"is_reserved":false,"is_disabled":false,"rental_uris":{"android":"levelo://app?vid=ffb8790a-d413-4f06-a96d-1e2f6ffe7daa","ios":"levelo://app?vid=ffb8790a-d413-4f06-a96d-1e2f6ffe7daa"},"vehicle_type_id":"4","last_reported":1702811121,"current_range_meters":24800,"station_id":"ce4bgrp2rcd13ifvqc9g","pricing_plan_id":"free"},{"bike_id":"5113165c-de22-42ee-a775-4f7d8ab69b8c","system_id":"levelo_inurba_marseille","lat":43.305714,"lon":5.365633,"is_reserved":false,"is_disabled":false,"rental_uris":{"android":"levelo://app?vid=5113165c-de22-42ee-a775-4f7d8ab69b8c","ios":"levelo://app?vid=5113165c-de22-42ee-a775-4f7d8ab69b8c"},"vehicle_type_id":"4","last_reported":1702811121,"current_range_meters":27200,"station_id":"ce4bgs12rcd13ifvqcag","pricing_plan_id":"free"},{"bike_id":"955e4ab2-16e5-44e8-a986-a2f50ff96c06","system_id":"levelo_inurba_marseille","lat":43.305382,"lon":5.365389,"is_reserved":false,"is_disabled":false,"rental_uris":{"android":"levelo://app?vid=955e4ab2-16e5-44e8-a986-a2f50ff96c06","ios":"levelo://app?vid=955e4ab2-16e5-44e8-a986-a2f50ff96c06"},"vehicle_type_id":"4","last_reported":1702811121,"current_range_meters":12000,"station_id":"","pricing_plan_id":"free"},{"bike_id":"1656dc4c-a354-447c-ac95-67d395d09313","system_id":"levelo_inurba_marseille","lat":43.305989,"lon":5.37225,"is_reserved":false,"is_disabled":false,"rental_uris":{"android":"levelo://app?vid=1656dc4c-a354-447c-ac95-67d395d09313","ios":"levelo://app?vid=1656dc4c-a354-447c-ac95-67d395d09313"},"vehicle_type_id":"4","last_reported":1702811121,"current_range_meters":23600,"station_id":"ce4bgqh2rcd13ifvqc4g","pricing_plan_id":"free"},{"bike_id":"34d05c29-9824-43ef-8405-f07e32b5e40f","system_id":"levelo_inurba_marseille","lat":43.30614,"lon":5.37221,"is_reserved":false,"is_disabled":false,"rental_uris":{"android":"levelo://app?vid=34d05c29-9824-43ef-8405-f07e32b5e40f","ios":"levelo://app?vid=34d05c29-9824-43ef-8405-f07e32b5e40f"},"vehicle_type_id":"4","last_reported":1702811121,"current_range_meters":18000,"station_id":"ce4bgqh2rcd13ifvqc4g","pricing_plan_id":"free"},{"bike_id":"387d7128-0aa3-468d-bf5b-c5c6918ad224","system_id":"levelo_inurba_marseille","lat":43.305989,"lon":5.37225,"is_reserved":false,"is_disabled":false,"rental_uris":{"android":"levelo://app?vid=387d7128-0aa3-468d-bf5b-c5c6918ad224","ios":"levelo://app?vid=387d7128-0aa3-468d-bf5b-c5c6918ad224"},"vehicle_type_id":"4","last_reported":1702811121,"current_range_meters":28800,"station_id":"ce4bgqh2rcd13ifvqc4g","pricing_plan_id":"free"},{"bike_id":"cb4cdf7b-b769-4b4a-a27e-ebc98df89b07","system_id":"levelo_inurba_marseille","lat":43.305989,"lon":5.37225,"is_reserved":false,"is_disabled":false,"rental_uris":{"android":"levelo://app?vid=cb4cdf7b-b769-4b4a-a27e-ebc98df89b07","ios":"levelo://app?vid=cb4cdf7b-b769-4b4a-a27e-ebc98df89b07"},"vehicle_type_id":"4","last_reported":1702811121,"current_range_meters":30000,"station_id":"ce4bgqh2rcd13ifvqc4g","pricing_plan_id":"free"},{"bike_id":"c4b67dc6-1614-4f06-a3b9-5577d46734de","system_id":"levelo_inurba_marseille","lat":43.30607,"lon":5.37219,"is_reserved":false,"is_disabled":false,"rental_uris":{"android":"levelo://app?vid=c4b67dc6-1614-4f06-a3b9-5577d46734de","ios":"levelo://app?vid=c4b67dc6-1614-4f06-a3b9-5577d46734de"},"vehicle_type_id":"4","last_reported":1702811121,"current_range_meters":22000,"station_id":"ce4bgqh2rcd13ifvqc4g","pricing_plan_id":"free"},{"bike_id":"5e242f92-0b5b-4e05-81ec-75f146b168b3","system_id":"levelo_inurba_marseille","lat":43.305989,"lon":5.37225,"is_reserved":false,"is_disabled":false,"rental_uris":{"android":"levelo://app?vid=5e242f92-0b5b-4e05-81ec-75f146b168b3","ios":"levelo://app?vid=5e242f92-0b5b-4e05-81ec-75f146b168b3"},"vehicle_type_id":"4","last_reported":1702811121,"current_range_meters":30800,"station_id":"ce4bgqh2rcd13ifvqc4g","pricing_plan_id":"free"},{"bike_id":"f99a5682-f4d1-4eb2-a6ef-0f843eb882d2","system_id":"levelo_inurba_marseille","lat":43.305989,"lon":5.37225,"is_reserved":false,"is_disabled":false,"rental_uris":{"android":"levelo://app?vid=f99a5682-f4d1-4eb2-a6ef-0f843eb882d2","ios":"levelo://app?vid=f99a5682-f4d1-4eb2-a6ef-0f843eb882d2"},"vehicle_type_id":"4","last_reported":1702811121,"current_range_meters":29200,"station_id":"ce4bgqh2rcd13ifvqc4g","pricing_plan_id":"free"},{"bike_id":"6275422a-192a-4a59-b916-50882b789a5d","system_id":"levelo_inurba_marseille","lat":43.305989,"lon":5.37225,"is_reserved":false,"is_disabled":false,"rental_uris":{"android":"levelo://app?vid=6275422a-192a-4a59-b916-50882b789a5d","ios":"levelo://app?vid=6275422a-192a-4a59-b916-50882b789a5d"},"vehicle_type_id":"4","last_reported":1702811121,"current_range_meters":31200,"station_id":"ce4bgqh2rcd13ifvqc4g","pricing_plan_id":"free"},{"bike_id":"859df07e-6c88-4227-9495-8ff5eee39e50","system_id":"levelo_inurba_marseille","lat":43.305989,"lon":5.37225,"is_reserved":false,"is_disabled":false,"rental_uris":{"android":"levelo://app?vid=859df07e-6c88-4227-9495-8ff5eee39e50","ios":"levelo://app?vid=859df07e-6c88-4227-9495-8ff5eee39e50"},"vehicle_type_id":"4","last_reported":1702811121,"current_range_meters":28800,"station_id":"ce4bgqh2rcd13ifvqc4g","pricing_plan_id":"free"},{"bike_id":"9ce99ed2-e9a5-4164-9d22-3f1701791f74","system_id":"levelo_inurba_marseille","lat":43.30605,"lon":5.37229,"is_reserved":false,"is_disabled":false,"rental_uris":{"android":"levelo://app?vid=9ce99ed2-e9a5-4164-9d22-3f1701791f74","ios":"levelo://app?vid=9ce99ed2-e9a5-4164-9d22-3f1701791f74"},"vehicle_type_id":"4","last_reported":1702811121,"current_range_meters":20000,"station_id":"ce4bgqh2rcd13ifvqc4g","pricing_plan_id":"free"},{"bike_id":"196344b1-59de-4b65-acf9-0d3a2a018e6e","system_id":"levelo_inurba_marseille","lat":43.30304,"lon":5.368987,"is_reserved":false,"is_disabled":false,"rental_uris":{"android":"levelo://app?vid=196344b1-59de-4b65-acf9-0d3a2a018e6e","ios":"levelo://app?vid=196344b1-59de-4b65-acf9-0d3a2a018e6e"},"vehicle_type_id":"4","last_reported":1702811121,"current_range_meters":22400,"station_id":"ce4bgqh2rcd13ifvqc5g","pricing_plan_id":"free"},{"bike_id":"4f96b997-b58b-476a-9af3-ef3ebf042c82","system_id":"levelo_inurba_marseille","lat":43.30809,"lon":5.38152,"is_reserved":false,"is_disabled":false,"rental_uris":{"android":"levelo://app?vid=4f96b997-b58b-476a-9af3-ef3ebf042c82","ios":"levelo://app?vid=4f96b997-b58b-476a-9af3-ef3ebf042c82"},"vehicle_type_id":"4","last_reported":1702811121,"current_range_meters":28400,"station_id":"ce4bgt12rcd13ifvqce0","pricing_plan_id":"free"},{"bike_id":"9a7ee2d8-7c41-45bc-b894-eae23e573cf0","system_id":"levelo_inurba_marseille","lat":43.308012,"lon":5.381511,"is_reserved":false,"is_disabled":false,"rental_uris":{"android":"levelo://app?vid=9a7ee2d8-7c41-45bc-b894-eae23e573cf0","ios":"levelo://app?vid=9a7ee2d8-7c41-45bc-b894-eae23e573cf0"},"vehicle_type_id":"4","last_reported":1702811121,"current_range_meters":22000,"station_id":"ce4bgt12rcd13ifvqce0","pricing_plan_id":"free"},{"bike_id":"c7b528a0-273f-42ff-88b5-c9aa0d6fe17a","system_id":"levelo_inurba_marseille","lat":43.308012,"lon":5.381511,"is_reserved":false,"is_disabled":false,"rental_uris":{"android":"levelo://app?vid=c7b528a0-273f-42ff-88b5-c9aa0d6fe17a","ios":"levelo://app?vid=c7b528a0-273f-42ff-88b5-c9aa0d6fe17a"},"vehicle_type_id":"4","last_reported":1702811121,"current_range_meters":26800,"station_id":"ce4bgt12rcd13ifvqce0","pricing_plan_id":"free"},{"bike_id":"2c1455a5-040e-4e6f-9c58-8499341a4105","system_id":"levelo_inurba_marseille","lat":43.304606,"lon":5.379026,"is_reserved":false,"is_disabled":false,"rental_uris":{"android":"levelo://app?vid=2c1455a5-040e-4e6f-9c58-8499341a4105","ios":"levelo://app?vid=2c1455a5-040e-4e6f-9c58-8499341a4105"},"vehicle_type_id":"4","last_reported":1702811121,"current_range_meters":27600,"station_id":"ce4bgup2rcd13ifvqcn0","pricing_plan_id":"free"},{"bike_id":"10e68dc9-796c-41eb-bfe9-a446884fb483","system_id":"levelo_inurba_marseille","lat":43.304606,"lon":5.379026,"is_reserved":false,"is_disabled":false,"rental_uris":{"android":"levelo://app?vid=10e68dc9-796c-41eb-bfe9-a446884fb483","ios":"levelo://app?vid=10e68dc9-796c-41eb-bfe9-a446884fb483"},"vehicle_type_id":"4","last_reported":1702811121,"current_range_meters":31600,"station_id":"ce4bgup2rcd13ifvqcn0","pricing_plan_id":"free"},{"bike_id":"e5fc7f28-ee49-431f-8673-24c668ccc31d","system_id":"levelo_inurba_marseille","lat":43.304606,"lon":5.379026,"is_reserved":false,"is_disabled":false,"rental_uris":{"android":"levelo://app?vid=e5fc7f28-ee49-431f-8673-24c668ccc31d","ios":"levelo://app?vid=e5fc7f28-ee49-431f-8673-24c668ccc31d"},"vehicle_type_id":"4","last_reported":1702811121,"current_range_meters":27200,"station_id":"ce4bgup2rcd13ifvqcn0","pricing_plan_id":"free"},{"bike_id":"5ca9f29a-17d8-49d6-86a6-d00d5193fa14","system_id":"levelo_inurba_marseille","lat":43.304606,"lon":5.379026,"is_reserved":false,"is_disabled":false,"rental_uris":{"android":"levelo://app?vid=5ca9f29a-17d8-49d6-86a6-d00d5193fa14","ios":"levelo://app?vid=5ca9f29a-17d8-49d6-86a6-d00d5193fa14"},"vehicle_type_id":"4","last_reported":1702811121,"current_range_meters":24000,"station_id":"ce4bgup2rcd13ifvqcn0","pricing_plan_id":"free"},{"bike_id":"d93a5622-3885-4c88-b4de-f33b1bee13f9","system_id":"levelo_inurba_marseille","lat":43.304606,"lon":5.379026,"is_reserved":false,"is_disabled":false,"rental_uris":{"android":"levelo://app?vid=d93a5622-3885-4c88-b4de-f33b1bee13f9","ios":"levelo://app?vid=d93a5622-3885-4c88-b4de-f33b1bee13f9"},"vehicle_type_id":"4","last_reported":1702811121,"current_range_meters":29200,"station_id":"ce4bgup2rcd13ifvqcn0","pricing_plan_id":"free"},{"bike_id":"f7a38474-5b1f-43e6-8fab-4d92cca23854","system_id":"levelo_inurba_marseille","lat":43.304606,"lon":5.379026,"is_reserved":false,"is_disabled":false,"rental_uris":{"android":"levelo://app?vid=f7a38474-5b1f-43e6-8fab-4d92cca23854","ios":"levelo://app?vid=f7a38474-5b1f-43e6-8fab-4d92cca23854"},"vehicle_type_id":"4","last_reported":1702811121,"current_range_meters":22000,"station_id":"ce4bgup2rcd13ifvqcn0","pricing_plan_id":"free"},{"bike_id":"04285bb9-26a8-49bc-8e87-f0df2515bb14","system_id":"levelo_inurba_marseille","lat":43.304606,"lon":5.379026,"is_reserved":false,"is_disabled":false,"rental_uris":{"android":"levelo://app?vid=04285bb9-26a8-49bc-8e87-f0df2515bb14","ios":"levelo://app?vid=04285bb9-26a8-49bc-8e87-f0df2515bb14"},"vehicle_type_id":"4","last_reported":1702811121,"current_range_meters":29200,"station_id":"ce4bgup2rcd13ifvqcn0","pricing_plan_id":"free"},{"bike_id":"88f7ea2a-62f7-4a88-9e9d-900940b4d7e5","system_id":"levelo_inurba_marseille","lat":43.324771,"lon":5.36557,"is_reserved":false,"is_disabled":false,"rental_uris":{"android":"levelo://app?vid=88f7ea2a-62f7-4a88-9e9d-900940b4d7e5","ios":"levelo://app?vid=88f7ea2a-62f7-4a88-9e9d-900940b4d7e5"},"vehicle_type_id":"4","last_reported":1702811121,"current_range_meters":29200,"station_id":"ce4bhs12rcd13ifvqhvg","pricing_plan_id":"free"},{"bike_id":"dd62cb3a-3f08-44cf-8561-0c89ff17ac35","system_id":"levelo_inurba_marseille","lat":43.313551,"lon":5.384709,"is_reserved":false,"is_disabled":false,"rental_uris":{"android":"levelo://app?vid=dd62cb3a-3f08-44cf-8561-0c89ff17ac35","ios":"levelo://app?vid=dd62cb3a-3f08-44cf-8561-0c89ff17ac35"},"vehicle_type_id":"4","last_reported":1702811121,"current_range_meters":17600,"station_id":"ce4bgt92rcd13ifvqcf0","pricing_plan_id":"free"},{"bike_id":"1f1c425b-2296-4ba6-97da-56f09d50acbe","system_id":"levelo_inurba_marseille","lat":43.301429,"lon":5.37413,"is_reserved":false,"is_disabled":false,"rental_uris":{"android":"levelo://app?vid=1f1c425b-2296-4ba6-97da-56f09d50acbe","ios":"levelo://app?vid=1f1c425b-2296-4ba6-97da-56f09d50acbe"},"vehicle_type_id":"4","last_reported":1702811121,"current_range_meters":18400,"station_id":"ce4bgs92rcd13ifvqcc0","pricing_plan_id":"free"},{"bike_id":"01242d90-1298-4007-b9f8-f81ae8a86696","system_id":"levelo_inurba_marseille","lat":43.313571,"lon":5.384829,"is_reserved":false,"is_disabled":false,"rental_uris":{"android":"levelo://app?vid=01242d90-1298-4007-b9f8-f81ae8a86696","ios":"levelo://app?vid=01242d90-1298-4007-b9f8-f81ae8a86696"},"vehicle_type_id":"4","last_reported":1702811121,"current_range_meters":28800,"station_id":"ce4bgt92rcd13ifvqcf0","pricing_plan_id":"free"},{"bike_id":"0c8e276c-deaa-4395-97ea-1417e6e024ec","system_id":"levelo_inurba_marseille","lat":43.299724,"lon":5.371829,"is_reserved":false,"is_disabled":false,"rental_uris":{"android":"levelo://app?vid=0c8e276c-deaa-4395-97ea-1417e6e024ec","ios":"levelo://app?vid=0c8e276c-deaa-4395-97ea-1417e6e024ec"},"vehicle_type_id":"4","last_reported":1702811121,"current_range_meters":19200,"station_id":"ce4bgr92rcd13ifvqc7g","pricing_plan_id":"free"},{"bike_id":"f6b39348-9601-48ed-8fde-9a57ad4b1f75","system_id":"levelo_inurba_marseille","lat":43.29851,"lon":5.36291,"is_reserved":false,"is_disabled":false,"rental_uris":{"android":"levelo://app?vid=f6b39348-9601-48ed-8fde-9a57ad4b1f75","ios":"levelo://app?vid=f6b39348-9601-48ed-8fde-9a57ad4b1f75"},"vehicle_type_id":"4","last_reported":1702811121,"current_range_meters":29200,"station_id":"ce4bgpp2rcd13ifvqc3g","pricing_plan_id":"free"},{"bike_id":"63f0cf97-4394-4147-b6f6-089e73aea2e2","system_id":"levelo_inurba_marseille","lat":43.298433,"lon":5.362774,"is_reserved":false,"is_disabled":false,"rental_uris":{"android":"levelo://app?vid=63f0cf97-4394-4147-b6f6-089e73aea2e2","ios":"levelo://app?vid=63f0cf97-4394-4147-b6f6-089e73aea2e2"},"vehicle_type_id":"4","last_reported":1702811121,"current_range_meters":22800,"station_id":"ce4bgpp2rcd13ifvqc3g","pricing_plan_id":"free"},{"bike_id":"c4e77394-aef9-4077-b745-e99148625344","system_id":"levelo_inurba_marseille","lat":43.32733,"lon":5.36707,"is_reserved":false,"is_disabled":false,"rental_uris":{"android":"levelo://app?vid=c4e77394-aef9-4077-b745-e99148625344","ios":"levelo://app?vid=c4e77394-aef9-4077-b745-e99148625344"},"vehicle_type_id":"4","last_reported":1702811121,"current_range_meters":19200,"station_id":"","pricing_plan_id":"free"},{"bike_id":"819cb438-2e9c-4e0b-902b-5e19ef554d5c","system_id":"levelo_inurba_marseille","lat":43.305514,"lon":5.384359,"is_reserved":false,"is_disabled":false,"rental_uris":{"android":"levelo://app?vid=819cb438-2e9c-4e0b-902b-5e19ef554d5c","ios":"levelo://app?vid=819cb438-2e9c-4e0b-902b-5e19ef554d5c"},"vehicle_type_id":"4","last_reported":1702811121,"current_range_meters":12400,"station_id":"ce4bgg92rcd13ifvqb30","pricing_plan_id":"free"},{"bike_id":"db735cc7-3077-479c-83dd-9057c1e0ae64","system_id":"levelo_inurba_marseille","lat":43.298433,"lon":5.362774,"is_reserved":false,"is_disabled":false,"rental_uris":{"android":"levelo://app?vid=db735cc7-3077-479c-83dd-9057c1e0ae64","ios":"levelo://app?vid=db735cc7-3077-479c-83dd-9057c1e0ae64"},"vehicle_type_id":"4","last_reported":1702811121,"current_range_meters":26000,"station_id":"ce4bgpp2rcd13ifvqc3g","pricing_plan_id":"free"},{"bike_id":"8a129343-0c28-40ca-9d39-4d8945b675e2","system_id":"levelo_inurba_marseille","lat":43.311722,"lon":5.387247,"is_reserved":false,"is_disabled":false,"rental_uris":{"android":"levelo://app?vid=8a129343-0c28-40ca-9d39-4d8945b675e2","ios":"levelo://app?vid=8a129343-0c28-40ca-9d39-4d8945b675e2"},"vehicle_type_id":"4","last_reported":1702811121,"current_range_meters":2800,"station_id":"ce4bgv12rcd13ifvqcp0","pricing_plan_id":"free"},{"bike_id":"b20e2bff-5684-487e-9bd9-544d063a3936","system_id":"levelo_inurba_marseille","lat":43.297794,"lon":5.370888,"is_reserved":false,"is_disabled":false,"rental_uris":{"android":"levelo://app?vid=b20e2bff-5684-487e-9bd9-544d063a3936","ios":"levelo://app?vid=b20e2bff-5684-487e-9bd9-544d063a3936"},"vehicle_type_id":"4","last_reported":1702811121,"current_range_meters":28000,"station_id":"ce4bgop2rcd13ifvqc1g","pricing_plan_id":"free"},{"bike_id":"6132e363-6fc3-45e3-87bf-fc40337a0436","system_id":"levelo_inurba_marseille","lat":43.322872,"lon":5.382756,"is_reserved":false,"is_disabled":false,"rental_uris":{"android":"levelo://app?vid=6132e363-6fc3-45e3-87bf-fc40337a0436","ios":"levelo://app?vid=6132e363-6fc3-45e3-87bf-fc40337a0436"},"vehicle_type_id":"4","last_reported":1702811121,"current_range_meters":30000,"station_id":"ce4bhr12rcd13ifvqhqg","pricing_plan_id":"free"},{"bike_id":"d552ebbe-3535-4233-b783-27841fdde344","system_id":"levelo_inurba_marseille","lat":43.32823,"lon":5.3667,"is_reserved":false,"is_disabled":false,"rental_uris":{"android":"levelo://app?vid=d552ebbe-3535-4233-b783-27841fdde344","ios":"levelo://app?vid=d552ebbe-3535-4233-b783-27841fdde344"},"vehicle_type_id":"4","last_reported":1702811121,"current_range_meters":31200,"station_id":"ce4bhs92rcd13ifvqi0g","pricing_plan_id":"free"},{"bike_id":"257e2c60-5deb-4d9a-9e2e-c2fc09067537","system_id":"levelo_inurba_marseille","lat":43.328284,"lon":5.366816,"is_reserved":false,"is_disabled":false,"rental_uris":{"android":"levelo://app?vid=257e2c60-5deb-4d9a-9e2e-c2fc09067537","ios":"levelo://app?vid=257e2c60-5deb-4d9a-9e2e-c2fc09067537"},"vehicle_type_id":"4","last_reported":1702811121,"current_range_meters":14800,"station_id":"ce4bhs92rcd13ifvqi0g","pricing_plan_id":"free"},{"bike_id":"f1491da4-2f54-4445-8640-37b7b5e9b0bd","system_id":"levelo_inurba_marseille","lat":43.32829,"lon":5.36676,"is_reserved":false,"is_disabled":false,"rental_uris":{"android":"levelo://app?vid=f1491da4-2f54-4445-8640-37b7b5e9b0bd","ios":"levelo://app?vid=f1491da4-2f54-4445-8640-37b7b5e9b0bd"},"vehicle_type_id":"4","last_reported":1702811121,"current_range_meters":30400,"station_id":"ce4bhs92rcd13ifvqi0g","pricing_plan_id":"free"},{"bike_id":"4e48940f-d394-4692-9dfb-0b97cf360b17","system_id":"levelo_inurba_marseille","lat":43.3283,"lon":5.36691,"is_reserved":false,"is_disabled":false,"rental_uris":{"android":"levelo://app?vid=4e48940f-d394-4692-9dfb-0b97cf360b17","ios":"levelo://app?vid=4e48940f-d394-4692-9dfb-0b97cf360b17"},"vehicle_type_id":"4","last_reported":1702811121,"current_range_meters":23600,"station_id":"ce4bhs92rcd13ifvqi0g","pricing_plan_id":"free"},{"bike_id":"c2e8db70-2991-4692-ab34-0f4bdf5e108e","system_id":"levelo_inurba_marseille","lat":43.32833,"lon":5.36677,"is_reserved":false,"is_disabled":false,"rental_uris":{"android":"levelo://app?vid=c2e8db70-2991-4692-ab34-0f4bdf5e108e","ios":"levelo://app?vid=c2e8db70-2991-4692-ab34-0f4bdf5e108e"},"vehicle_type_id":"4","last_reported":1702811121,"current_range_meters":23600,"station_id":"ce4bhs92rcd13ifvqi0g","pricing_plan_id":"free"},{"bike_id":"5028e81c-ab90-407c-8fb9-8359e2e50b5f","system_id":"levelo_inurba_marseille","lat":43.297163,"lon":5.365866,"is_reserved":false,"is_disabled":false,"rental_uris":{"android":"levelo://app?vid=5028e81c-ab90-407c-8fb9-8359e2e50b5f","ios":"levelo://app?vid=5028e81c-ab90-407c-8fb9-8359e2e50b5f"},"vehicle_type_id":"4","last_reported":1702811121,"current_range_meters":26000,"station_id":"ce4bgn12rcd13ifvqbt0","pricing_plan_id":"free"},{"bike_id":"f1ae8b73-ba64-4a47-8c3d-90e47434b3a8","system_id":"levelo_inurba_marseille","lat":43.297163,"lon":5.365866,"is_reserved":false,"is_disabled":false,"rental_uris":{"android":"levelo://app?vid=f1ae8b73-ba64-4a47-8c3d-90e47434b3a8","ios":"levelo://app?vid=f1ae8b73-ba64-4a47-8c3d-90e47434b3a8"},"vehicle_type_id":"4","last_reported":1702811121,"current_range_meters":11600,"station_id":"ce4bgn12rcd13ifvqbt0","pricing_plan_id":"free"},{"bike_id":"c9b37866-86bb-4a4e-adf7-ab56f3c550f9","system_id":"levelo_inurba_marseille","lat":43.297163,"lon":5.365866,"is_reserved":false,"is_disabled":false,"rental_uris":{"android":"levelo://app?vid=c9b37866-86bb-4a4e-adf7-ab56f3c550f9","ios":"levelo://app?vid=c9b37866-86bb-4a4e-adf7-ab56f3c550f9"},"vehicle_type_id":"4","last_reported":1702811121,"current_range_meters":15200,"station_id":"ce4bgn12rcd13ifvqbt0","pricing_plan_id":"free"},{"bike_id":"c2ae535f-f9eb-4529-ac7a-05433723504a","system_id":"levelo_inurba_marseille","lat":43.29573,"lon":5.367355,"is_reserved":false,"is_disabled":false,"rental_uris":{"android":"levelo://app?vid=c2ae535f-f9eb-4529-ac7a-05433723504a","ios":"levelo://app?vid=c2ae535f-f9eb-4529-ac7a-05433723504a"},"vehicle_type_id":"4","last_reported":1702811121,"current_range_meters":31600,"station_id":"ce4bgph2rcd13ifvqc2g","pricing_plan_id":"free"},{"bike_id":"28ed62d3-b828-4b3a-97c7-e277625d825b","system_id":"levelo_inurba_marseille","lat":43.29573,"lon":5.367355,"is_reserved":false,"is_disabled":false,"rental_uris":{"android":"levelo://app?vid=28ed62d3-b828-4b3a-97c7-e277625d825b","ios":"levelo://app?vid=28ed62d3-b828-4b3a-97c7-e277625d825b"},"vehicle_type_id":"4","last_reported":1702811121,"current_range_meters":29200,"station_id":"ce4bgph2rcd13ifvqc2g","pricing_plan_id":"free"},{"bike_id":"e0b23d5e-528e-4d51-be0b-9546f480d59b","system_id":"levelo_inurba_marseille","lat":43.296131,"lon":5.370773,"is_reserved":false,"is_disabled":false,"rental_uris":{"android":"levelo://app?vid=e0b23d5e-528e-4d51-be0b-9546f480d59b","ios":"levelo://app?vid=e0b23d5e-528e-4d51-be0b-9546f480d59b"},"vehicle_type_id":"4","last_reported":1702811121,"current_range_meters":19600,"station_id":"ce4bgnh2rcd13ifvqc0g","pricing_plan_id":"free"},{"bike_id":"2fac78a8-8f12-4b4f-9049-5e101c43c8d6","system_id":"levelo_inurba_marseille","lat":43.29573,"lon":5.367355,"is_reserved":false,"is_disabled":false,"rental_uris":{"android":"levelo://app?vid=2fac78a8-8f12-4b4f-9049-5e101c43c8d6","ios":"levelo://app?vid=2fac78a8-8f12-4b4f-9049-5e101c43c8d6"},"vehicle_type_id":"4","last_reported":1702811121,"current_range_meters":27600,"station_id":"ce4bgph2rcd13ifvqc2g","pricing_plan_id":"free"},{"bike_id":"2e4327a4-5c68-42c9-a75e-2a5f9b2ba77b","system_id":"levelo_inurba_marseille","lat":43.317557,"lon":5.390173,"is_reserved":false,"is_disabled":false,"rental_uris":{"android":"levelo://app?vid=2e4327a4-5c68-42c9-a75e-2a5f9b2ba77b","ios":"levelo://app?vid=2e4327a4-5c68-42c9-a75e-2a5f9b2ba77b"},"vehicle_type_id":"4","last_reported":1702811121,"current_range_meters":31600,"station_id":"ce4bhqp2rcd13ifvqhng","pricing_plan_id":"free"},{"bike_id":"668278d5-fd65-4d95-8d32-ef2280501078","system_id":"levelo_inurba_marseille","lat":43.317557,"lon":5.390173,"is_reserved":false,"is_disabled":false,"rental_uris":{"android":"levelo://app?vid=668278d5-fd65-4d95-8d32-ef2280501078","ios":"levelo://app?vid=668278d5-fd65-4d95-8d32-ef2280501078"},"vehicle_type_id":"4","last_reported":1702811121,"current_range_meters":30800,"station_id":"ce4bhqp2rcd13ifvqhng","pricing_plan_id":"free"},{"bike_id":"25e1280f-c083-4d97-b0e0-4f3519970379","system_id":"levelo_inurba_marseille","lat":43.295828,"lon":5.37502,"is_reserved":false,"is_disabled":false,"rental_uris":{"android":"levelo://app?vid=25e1280f-c083-4d97-b0e0-4f3519970379","ios":"levelo://app?vid=25e1280f-c083-4d97-b0e0-4f3519970379"},"vehicle_type_id":"4","last_reported":1702811121,"current_range_meters":22800,"station_id":"ce4bgh92rcd13ifvqb50","pricing_plan_id":"free"},{"bike_id":"da2bf830-8371-4987-8296-d78e324a9b5b","system_id":"levelo_inurba_marseille","lat":43.29645,"lon":5.37942,"is_reserved":false,"is_disabled":false,"rental_uris":{"android":"levelo://app?vid=da2bf830-8371-4987-8296-d78e324a9b5b","ios":"levelo://app?vid=da2bf830-8371-4987-8296-d78e324a9b5b"},"vehicle_type_id":"4","last_reported":1702811121,"current_range_meters":800,"station_id":"","pricing_plan_id":"free"},{"bike_id":"2d339ccb-9fe7-4132-b39e-b9bd4a932749","system_id":"levelo_inurba_marseille","lat":43.32367,"lon":5.388836,"is_reserved":false,"is_disabled":false,"rental_uris":{"android":"levelo://app?vid=2d339ccb-9fe7-4132-b39e-b9bd4a932749","ios":"levelo://app?vid=2d339ccb-9fe7-4132-b39e-b9bd4a932749"},"vehicle_type_id":"4","last_reported":1702811121,"current_range_meters":12000,"station_id":"ce4bhqp2rcd13ifvqhog","pricing_plan_id":"free"},{"bike_id":"7ff21894-2f32-4658-85e2-91c4f4d495d4","system_id":"levelo_inurba_marseille","lat":43.32357,"lon":5.38884,"is_reserved":false,"is_disabled":false,"rental_uris":{"android":"levelo://app?vid=7ff21894-2f32-4658-85e2-91c4f4d495d4","ios":"levelo://app?vid=7ff21894-2f32-4658-85e2-91c4f4d495d4"},"vehicle_type_id":"4","last_reported":1702811121,"current_range_meters":31200,"station_id":"ce4bhqp2rcd13ifvqhog","pricing_plan_id":"free"},{"bike_id":"31954c81-37ea-46a3-a087-7d824ac76191","system_id":"levelo_inurba_marseille","lat":43.32361,"lon":5.38884,"is_reserved":false,"is_disabled":false,"rental_uris":{"android":"levelo://app?vid=31954c81-37ea-46a3-a087-7d824ac76191","ios":"levelo://app?vid=31954c81-37ea-46a3-a087-7d824ac76191"},"vehicle_type_id":"4","last_reported":1702811121,"current_range_meters":31200,"station_id":"ce4bhqp2rcd13ifvqhog","pricing_plan_id":"free"},{"bike_id":"deaa3365-e742-4560-8687-e1b5d78d5124","system_id":"levelo_inurba_marseille","lat":43.293009,"lon":5.374584,"is_reserved":false,"is_disabled":false,"rental_uris":{"android":"levelo://app?vid=deaa3365-e742-4560-8687-e1b5d78d5124","ios":"levelo://app?vid=deaa3365-e742-4560-8687-e1b5d78d5124"},"vehicle_type_id":"4","last_reported":1702811121,"current_range_meters":13200,"station_id":"ce4bgi12rcd13ifvqb70","pricing_plan_id":"free"},{"bike_id":"30add594-7f1e-4a26-9c0e-cb12dbc5dee6","system_id":"levelo_inurba_marseille","lat":43.293009,"lon":5.374584,"is_reserved":false,"is_disabled":false,"rental_uris":{"android":"levelo://app?vid=30add594-7f1e-4a26-9c0e-cb12dbc5dee6","ios":"levelo://app?vid=30add594-7f1e-4a26-9c0e-cb12dbc5dee6"},"vehicle_type_id":"4","last_reported":1702811121,"current_range_meters":7200,"station_id":"ce4bgi12rcd13ifvqb70","pricing_plan_id":"free"},{"bike_id":"372875ca-c5e9-4ae4-9c4e-03116afd7ae8","system_id":"levelo_inurba_marseille","lat":43.29529,"lon":5.385581,"is_reserved":false,"is_disabled":false,"rental_uris":{"android":"levelo://app?vid=372875ca-c5e9-4ae4-9c4e-03116afd7ae8","ios":"levelo://app?vid=372875ca-c5e9-4ae4-9c4e-03116afd7ae8"},"vehicle_type_id":"4","last_reported":1702811121,"current_range_meters":24800,"station_id":"ce4bgih2rcd13ifvqba0","pricing_plan_id":"free"},{"bike_id":"e46ed458-0a52-4208-87e3-27c10e24679e","system_id":"levelo_inurba_marseille","lat":43.29529,"lon":5.385581,"is_reserved":false,"is_disabled":false,"rental_uris":{"android":"levelo://app?vid=e46ed458-0a52-4208-87e3-27c10e24679e","ios":"levelo://app?vid=e46ed458-0a52-4208-87e3-27c10e24679e"},"vehicle_type_id":"4","last_reported":1702811121,"current_range_meters":29600,"station_id":"ce4bgih2rcd13ifvqba0","pricing_plan_id":"free"},{"bike_id":"56b2af51-c6db-4447-8797-134d8b95f329","system_id":"levelo_inurba_marseille","lat":43.29529,"lon":5.385581,"is_reserved":false,"is_disabled":false,"rental_uris":{"android":"levelo://app?vid=56b2af51-c6db-4447-8797-134d8b95f329","ios":"levelo://app?vid=56b2af51-c6db-4447-8797-134d8b95f329"},"vehicle_type_id":"4","last_reported":1702811121,"current_range_meters":16000,"station_id":"ce4bgih2rcd13ifvqba0","pricing_plan_id":"free"},{"bike_id":"8d87de90-9cb6-4d8b-a4e8-faf1ab183be6","system_id":"levelo_inurba_marseille","lat":43.289184,"lon":5.366408,"is_reserved":false,"is_disabled":false,"rental_uris":{"android":"levelo://app?vid=8d87de90-9cb6-4d8b-a4e8-faf1ab183be6","ios":"levelo://app?vid=8d87de90-9cb6-4d8b-a4e8-faf1ab183be6"},"vehicle_type_id":"4","last_reported":1702811121,"current_range_meters":6800,"station_id":"ce4bhap2rcd13ifvqek0","pricing_plan_id":"free"},{"bike_id":"2bb7c0d7-2dae-4dda-93c3-707734b39d4e","system_id":"levelo_inurba_marseille","lat":43.290327,"lon":5.375711,"is_reserved":false,"is_disabled":false,"rental_uris":{"android":"levelo://app?vid=2bb7c0d7-2dae-4dda-93c3-707734b39d4e","ios":"levelo://app?vid=2bb7c0d7-2dae-4dda-93c3-707734b39d4e"},"vehicle_type_id":"4","last_reported":1702811121,"current_range_meters":14800,"station_id":"ce4bh692rcd13ifvqe90","pricing_plan_id":"free"},{"bike_id":"110fcf81-45b4-44bc-8fe8-4482597a9c16","system_id":"levelo_inurba_marseille","lat":43.29417,"lon":5.38631,"is_reserved":false,"is_disabled":false,"rental_uris":{"android":"levelo://app?vid=110fcf81-45b4-44bc-8fe8-4482597a9c16","ios":"levelo://app?vid=110fcf81-45b4-44bc-8fe8-4482597a9c16"},"vehicle_type_id":"4","last_reported":1702811121,"current_range_meters":2400,"station_id":"ce4bh2h2rcd13ifvqdh0","pricing_plan_id":"free"},{"bike_id":"8183d1e7-e6c9-4f7d-a043-a3ada7a7879e","system_id":"levelo_inurba_marseille","lat":43.294153,"lon":5.386305,"is_reserved":false,"is_disabled":false,"rental_uris":{"android":"levelo://app?vid=8183d1e7-e6c9-4f7d-a043-a3ada7a7879e","ios":"levelo://app?vid=8183d1e7-e6c9-4f7d-a043-a3ada7a7879e"},"vehicle_type_id":"4","last_reported":1702811121,"current_range_meters":25200,"station_id":"ce4bh2h2rcd13ifvqdh0","pricing_plan_id":"free"},{"bike_id":"5cedef30-c32a-4d59-a88e-edb7f2af6d95","system_id":"levelo_inurba_marseille","lat":43.289184,"lon":5.366408,"is_reserved":false,"is_disabled":false,"rental_uris":{"android":"levelo://app?vid=5cedef30-c32a-4d59-a88e-edb7f2af6d95","ios":"levelo://app?vid=5cedef30-c32a-4d59-a88e-edb7f2af6d95"},"vehicle_type_id":"4","last_reported":1702811121,"current_range_meters":13600,"station_id":"ce4bhap2rcd13ifvqek0","pricing_plan_id":"free"},{"bike_id":"99772cde-5b4c-412f-8da3-5e6c2ee9e583","system_id":"levelo_inurba_marseille","lat":43.292644,"lon":5.384257,"is_reserved":false,"is_disabled":false,"rental_uris":{"android":"levelo://app?vid=99772cde-5b4c-412f-8da3-5e6c2ee9e583","ios":"levelo://app?vid=99772cde-5b4c-412f-8da3-5e6c2ee9e583"},"vehicle_type_id":"4","last_reported":1702811121,"current_range_meters":23200,"station_id":"ce4bh692rcd13ifvqea0","pricing_plan_id":"free"},{"bike_id":"da31ae0e-06a3-40f1-b3ea-fe5d56a9135a","system_id":"levelo_inurba_marseille","lat":43.292642,"lon":5.384254,"is_reserved":false,"is_disabled":false,"rental_uris":{"android":"levelo://app?vid=da31ae0e-06a3-40f1-b3ea-fe5d56a9135a","ios":"levelo://app?vid=da31ae0e-06a3-40f1-b3ea-fe5d56a9135a"},"vehicle_type_id":"4","last_reported":1702811121,"current_range_meters":21200,"station_id":"ce4bh692rcd13ifvqea0","pricing_plan_id":"free"},{"bike_id":"0019cc72-50a3-4298-937a-c3025a814462","system_id":"levelo_inurba_marseille","lat":43.3304,"lon":5.38917,"is_reserved":false,"is_disabled":false,"rental_uris":{"android":"levelo://app?vid=0019cc72-50a3-4298-937a-c3025a814462","ios":"levelo://app?vid=0019cc72-50a3-4298-937a-c3025a814462"},"vehicle_type_id":"4","last_reported":1702811121,"current_range_meters":5200,"station_id":"ce4bhr92rcd13ifvqhrg","pricing_plan_id":"free"},{"bike_id":"36c093eb-5aac-4d75-97ac-6cee114ed7c3","system_id":"levelo_inurba_marseille","lat":43.294162,"lon":5.386292,"is_reserved":false,"is_disabled":false,"rental_uris":{"android":"levelo://app?vid=36c093eb-5aac-4d75-97ac-6cee114ed7c3","ios":"levelo://app?vid=36c093eb-5aac-4d75-97ac-6cee114ed7c3"},"vehicle_type_id":"4","last_reported":1702811121,"current_range_meters":30400,"station_id":"ce4bh2h2rcd13ifvqdh0","pricing_plan_id":"free"},{"bike_id":"4b378b2d-0a02-47d3-950c-272271ed5865","system_id":"levelo_inurba_marseille","lat":43.290995,"lon":5.381361,"is_reserved":false,"is_disabled":false,"rental_uris":{"android":"levelo://app?vid=4b378b2d-0a02-47d3-950c-272271ed5865","ios":"levelo://app?vid=4b378b2d-0a02-47d3-950c-272271ed5865"},"vehicle_type_id":"4","last_reported":1702811121,"current_range_meters":14000,"station_id":"ce4bh512rcd13ifvqe2g","pricing_plan_id":"free"},{"bike_id":"ad0f6538-ba65-40b7-bd35-329a98101cc1","system_id":"levelo_inurba_marseille","lat":43.289841,"lon":5.354838,"is_reserved":false,"is_disabled":false,"rental_uris":{"android":"levelo://app?vid=ad0f6538-ba65-40b7-bd35-329a98101cc1","ios":"levelo://app?vid=ad0f6538-ba65-40b7-bd35-329a98101cc1"},"vehicle_type_id":"4","last_reported":1702811121,"current_range_meters":7200,"station_id":"","pricing_plan_id":"free"},{"bike_id":"4a654c57-3008-4f1d-add9-c1ca56dbb09e","system_id":"levelo_inurba_marseille","lat":43.28868,"lon":5.35857,"is_reserved":false,"is_disabled":false,"rental_uris":{"android":"levelo://app?vid=4a654c57-3008-4f1d-add9-c1ca56dbb09e","ios":"levelo://app?vid=4a654c57-3008-4f1d-add9-c1ca56dbb09e"},"vehicle_type_id":"4","last_reported":1702811121,"current_range_meters":30800,"station_id":"ce4bhb12rcd13ifvqem0","pricing_plan_id":"free"},{"bike_id":"8e87b907-1205-4326-8c7e-5b02724dca97","system_id":"levelo_inurba_marseille","lat":43.30924,"lon":5.40137,"is_reserved":false,"is_disabled":false,"rental_uris":{"android":"levelo://app?vid=8e87b907-1205-4326-8c7e-5b02724dca97","ios":"levelo://app?vid=8e87b907-1205-4326-8c7e-5b02724dca97"},"vehicle_type_id":"4","last_reported":1702811121,"current_range_meters":23600,"station_id":"ce4bgvp2rcd13ifvqct0","pricing_plan_id":"free"},{"bike_id":"f0cd831c-cfb9-44c7-9487-103b6df223ca","system_id":"levelo_inurba_marseille","lat":43.337445,"lon":5.374592,"is_reserved":false,"is_disabled":false,"rental_uris":{"android":"levelo://app?vid=f0cd831c-cfb9-44c7-9487-103b6df223ca","ios":"levelo://app?vid=f0cd831c-cfb9-44c7-9487-103b6df223ca"},"vehicle_type_id":"4","last_reported":1702811121,"current_range_meters":25600,"station_id":"","pricing_plan_id":"free"},{"bike_id":"ef80ceab-dc9f-4b6c-8f52-707d5177f481","system_id":"levelo_inurba_marseille","lat":43.33752,"lon":5.37466,"is_reserved":false,"is_disabled":false,"rental_uris":{"android":"levelo://app?vid=ef80ceab-dc9f-4b6c-8f52-707d5177f481","ios":"levelo://app?vid=ef80ceab-dc9f-4b6c-8f52-707d5177f481"},"vehicle_type_id":"4","last_reported":1702811121,"current_range_meters":25200,"station_id":"","pricing_plan_id":"free"},{"bike_id":"74029e47-c92e-4a09-93e2-966e816bf173","system_id":"levelo_inurba_marseille","lat":43.33754,"lon":5.37465,"is_reserved":false,"is_disabled":false,"rental_uris":{"android":"levelo://app?vid=74029e47-c92e-4a09-93e2-966e816bf173","ios":"levelo://app?vid=74029e47-c92e-4a09-93e2-966e816bf173"},"vehicle_type_id":"4","last_reported":1702811121,"current_range_meters":28800,"station_id":"","pricing_plan_id":"free"},{"bike_id":"90af23d1-673e-4413-b5ce-552e47d61d81","system_id":"levelo_inurba_marseille","lat":43.30636,"lon":5.40087,"is_reserved":false,"is_disabled":false,"rental_uris":{"android":"levelo://app?vid=90af23d1-673e-4413-b5ce-552e47d61d81","ios":"levelo://app?vid=90af23d1-673e-4413-b5ce-552e47d61d81"},"vehicle_type_id":"4","last_reported":1702811121,"current_range_meters":24800,"station_id":"ce4bh112rcd13ifvqda0","pricing_plan_id":"free"},{"bike_id":"405f24ec-56d0-4d9a-bff3-2f8cbf4cf083","system_id":"levelo_inurba_marseille","lat":43.301117,"lon":5.398795,"is_reserved":false,"is_disabled":false,"rental_uris":{"android":"levelo://app?vid=405f24ec-56d0-4d9a-bff3-2f8cbf4cf083","ios":"levelo://app?vid=405f24ec-56d0-4d9a-bff3-2f8cbf4cf083"},"vehicle_type_id":"4","last_reported":1702811121,"current_range_meters":19200,"station_id":"ce4bh0h2rcd13ifvqd40","pricing_plan_id":"free"},{"bike_id":"81fed76f-6a90-40ff-8a0b-f0a9a5c3cabb","system_id":"levelo_inurba_marseille","lat":43.30138,"lon":5.39889,"is_reserved":false,"is_disabled":false,"rental_uris":{"android":"levelo://app?vid=81fed76f-6a90-40ff-8a0b-f0a9a5c3cabb","ios":"levelo://app?vid=81fed76f-6a90-40ff-8a0b-f0a9a5c3cabb"},"vehicle_type_id":"4","last_reported":1702811121,"current_range_meters":3200,"station_id":"ce4bh0h2rcd13ifvqd40","pricing_plan_id":"free"},{"bike_id":"feb385e5-fe5b-401e-9ff7-b656a1b0ad87","system_id":"levelo_inurba_marseille","lat":43.290345,"lon":5.38646,"is_reserved":false,"is_disabled":false,"rental_uris":{"android":"levelo://app?vid=feb385e5-fe5b-401e-9ff7-b656a1b0ad87","ios":"levelo://app?vid=feb385e5-fe5b-401e-9ff7-b656a1b0ad87"},"vehicle_type_id":"4","last_reported":1702811121,"current_range_meters":27200,"station_id":"ce4bh4p2rcd13ifvqe0g","pricing_plan_id":"free"},{"bike_id":"29534202-8e77-41e9-acc1-6fef4278bb1a","system_id":"levelo_inurba_marseille","lat":43.302759,"lon":5.400793,"is_reserved":false,"is_disabled":false,"rental_uris":{"android":"levelo://app?vid=29534202-8e77-41e9-acc1-6fef4278bb1a","ios":"levelo://app?vid=29534202-8e77-41e9-acc1-6fef4278bb1a"},"vehicle_type_id":"4","last_reported":1702811121,"current_range_meters":28800,"station_id":"ce4bgvh2rcd13ifvqcs0","pricing_plan_id":"free"},{"bike_id":"a23b95a9-98c0-42e4-aa8b-1bd7ca8c73c0","system_id":"levelo_inurba_marseille","lat":43.30256,"lon":5.40086,"is_reserved":false,"is_disabled":false,"rental_uris":{"android":"levelo://app?vid=a23b95a9-98c0-42e4-aa8b-1bd7ca8c73c0","ios":"levelo://app?vid=a23b95a9-98c0-42e4-aa8b-1bd7ca8c73c0"},"vehicle_type_id":"4","last_reported":1702811121,"current_range_meters":7200,"station_id":"ce4bgvh2rcd13ifvqcs0","pricing_plan_id":"free"},{"bike_id":"9e4e906f-3270-433e-aefc-cf8849c30cfb","system_id":"levelo_inurba_marseille","lat":43.286039,"lon":5.370681,"is_reserved":false,"is_disabled":false,"rental_uris":{"android":"levelo://app?vid=9e4e906f-3270-433e-aefc-cf8849c30cfb","ios":"levelo://app?vid=9e4e906f-3270-433e-aefc-cf8849c30cfb"},"vehicle_type_id":"4","last_reported":1702811121,"current_range_meters":14800,"station_id":"ce4bht12rcd13ifvqi60","pricing_plan_id":"free"},{"bike_id":"845222fc-16a1-45df-8757-0290a23805b3","system_id":"levelo_inurba_marseille","lat":43.317121,"lon":5.404844,"is_reserved":false,"is_disabled":false,"rental_uris":{"android":"levelo://app?vid=845222fc-16a1-45df-8757-0290a23805b3","ios":"levelo://app?vid=845222fc-16a1-45df-8757-0290a23805b3"},"vehicle_type_id":"4","last_reported":1702811121,"current_range_meters":20800,"station_id":"ce4bh012rcd13ifvqd00","pricing_plan_id":"free"},{"bike_id":"0b91a135-abb8-49c8-bd5e-87ca9c3b6970","system_id":"levelo_inurba_marseille","lat":43.28618,"lon":5.35107,"is_reserved":false,"is_disabled":false,"rental_uris":{"android":"levelo://app?vid=0b91a135-abb8-49c8-bd5e-87ca9c3b6970","ios":"levelo://app?vid=0b91a135-abb8-49c8-bd5e-87ca9c3b6970"},"vehicle_type_id":"4","last_reported":1702811121,"current_range_meters":18800,"station_id":"ce4bhch2rcd13ifvqeug","pricing_plan_id":"free"},{"bike_id":"ee364f1e-ebbd-49bf-8db1-78c37e1cc9de","system_id":"levelo_inurba_marseille","lat":43.285856,"lon":5.350771,"is_reserved":false,"is_disabled":false,"rental_uris":{"android":"levelo://app?vid=ee364f1e-ebbd-49bf-8db1-78c37e1cc9de","ios":"levelo://app?vid=ee364f1e-ebbd-49bf-8db1-78c37e1cc9de"},"vehicle_type_id":"4","last_reported":1702811121,"current_range_meters":16000,"station_id":"ce4bhch2rcd13ifvqeug","pricing_plan_id":"free"},{"bike_id":"c97eab0e-b25d-483a-8f3e-86f1c047c500","system_id":"levelo_inurba_marseille","lat":43.28616,"lon":5.35097,"is_reserved":false,"is_disabled":false,"rental_uris":{"android":"levelo://app?vid=c97eab0e-b25d-483a-8f3e-86f1c047c500","ios":"levelo://app?vid=c97eab0e-b25d-483a-8f3e-86f1c047c500"},"vehicle_type_id":"4","last_reported":1702811121,"current_range_meters":25200,"station_id":"ce4bhch2rcd13ifvqeug","pricing_plan_id":"free"},{"bike_id":"0ad2e20c-1807-44ba-bd8d-2b54d255ea26","system_id":"levelo_inurba_marseille","lat":43.285856,"lon":5.350771,"is_reserved":false,"is_disabled":false,"rental_uris":{"android":"levelo://app?vid=0ad2e20c-1807-44ba-bd8d-2b54d255ea26","ios":"levelo://app?vid=0ad2e20c-1807-44ba-bd8d-2b54d255ea26"},"vehicle_type_id":"4","last_reported":1702811121,"current_range_meters":22400,"station_id":"ce4bhch2rcd13ifvqeug","pricing_plan_id":"free"},{"bike_id":"f3339a89-d6de-47c9-9b03-1cdd8e90ab84","system_id":"levelo_inurba_marseille","lat":43.28614,"lon":5.35096,"is_reserved":false,"is_disabled":false,"rental_uris":{"android":"levelo://app?vid=f3339a89-d6de-47c9-9b03-1cdd8e90ab84","ios":"levelo://app?vid=f3339a89-d6de-47c9-9b03-1cdd8e90ab84"},"vehicle_type_id":"4","last_reported":1702811121,"current_range_meters":5200,"station_id":"ce4bhch2rcd13ifvqeug","pricing_plan_id":"free"},{"bike_id":"752e19db-6f82-42f8-965a-61e216637074","system_id":"levelo_inurba_marseille","lat":43.2861,"lon":5.35104,"is_reserved":false,"is_disabled":false,"rental_uris":{"android":"levelo://app?vid=752e19db-6f82-42f8-965a-61e216637074","ios":"levelo://app?vid=752e19db-6f82-42f8-965a-61e216637074"},"vehicle_type_id":"4","last_reported":1702811121,"current_range_meters":31200,"station_id":"ce4bhch2rcd13ifvqeug","pricing_plan_id":"free"},{"bike_id":"d51d9011-1a2a-42a3-8053-6872d4a0c02c","system_id":"levelo_inurba_marseille","lat":43.28609,"lon":5.351,"is_reserved":false,"is_disabled":false,"rental_uris":{"android":"levelo://app?vid=d51d9011-1a2a-42a3-8053-6872d4a0c02c","ios":"levelo://app?vid=d51d9011-1a2a-42a3-8053-6872d4a0c02c"},"vehicle_type_id":"4","last_reported":1702811121,"current_range_meters":26800,"station_id":"ce4bhch2rcd13ifvqeug","pricing_plan_id":"free"},{"bike_id":"2dfa5049-0e1b-4839-b5c3-156910a65dbd","system_id":"levelo_inurba_marseille","lat":43.33165,"lon":5.39814,"is_reserved":false,"is_disabled":false,"rental_uris":{"android":"levelo://app?vid=2dfa5049-0e1b-4839-b5c3-156910a65dbd","ios":"levelo://app?vid=2dfa5049-0e1b-4839-b5c3-156910a65dbd"},"vehicle_type_id":"4","last_reported":1702811121,"current_range_meters":6800,"station_id":"","pricing_plan_id":"free"},{"bike_id":"77d91f51-d3a1-4cb7-83f8-0003bf3a5726","system_id":"levelo_inurba_marseille","lat":43.25102,"lon":5.403214,"is_reserved":false,"is_disabled":false,"rental_uris":{"android":"levelo://app?vid=77d91f51-d3a1-4cb7-83f8-0003bf3a5726","ios":"levelo://app?vid=77d91f51-d3a1-4cb7-83f8-0003bf3a5726"},"vehicle_type_id":"4","last_reported":1702811121,"current_range_meters":5200,"station_id":"ce4bhlh2rcd13ifvqgig","pricing_plan_id":"free"},{"bike_id":"5ec0f8ba-b798-496f-806f-deb4ce3500de","system_id":"levelo_inurba_marseille","lat":43.319179,"lon":5.407725,"is_reserved":false,"is_disabled":false,"rental_uris":{"android":"levelo://app?vid=5ec0f8ba-b798-496f-806f-deb4ce3500de","ios":"levelo://app?vid=5ec0f8ba-b798-496f-806f-deb4ce3500de"},"vehicle_type_id":"4","last_reported":1702811121,"current_range_meters":30400,"station_id":"ce4bhq12rcd13ifvqhig","pricing_plan_id":"free"},{"bike_id":"b1bba2b6-372d-49dd-b13b-1b4d710db23d","system_id":"levelo_inurba_marseille","lat":43.323464,"lon":5.406297,"is_reserved":false,"is_disabled":false,"rental_uris":{"android":"levelo://app?vid=b1bba2b6-372d-49dd-b13b-1b4d710db23d","ios":"levelo://app?vid=b1bba2b6-372d-49dd-b13b-1b4d710db23d"},"vehicle_type_id":"4","last_reported":1702811121,"current_range_meters":31600,"station_id":"ce4bhq92rcd13ifvqhjg","pricing_plan_id":"free"},{"bike_id":"2727c664-bd75-4b2f-b8dd-f20bae895db9","system_id":"levelo_inurba_marseille","lat":43.323464,"lon":5.406297,"is_reserved":false,"is_disabled":false,"rental_uris":{"android":"levelo://app?vid=2727c664-bd75-4b2f-b8dd-f20bae895db9","ios":"levelo://app?vid=2727c664-bd75-4b2f-b8dd-f20bae895db9"},"vehicle_type_id":"4","last_reported":1702811121,"current_range_meters":23600,"station_id":"ce4bhq92rcd13ifvqhjg","pricing_plan_id":"free"},{"bike_id":"6832ce59-ffed-4ea7-bc24-df05114178f2","system_id":"levelo_inurba_marseille","lat":43.284793,"lon":5.384119,"is_reserved":false,"is_disabled":false,"rental_uris":{"android":"levelo://app?vid=6832ce59-ffed-4ea7-bc24-df05114178f2","ios":"levelo://app?vid=6832ce59-ffed-4ea7-bc24-df05114178f2"},"vehicle_type_id":"4","last_reported":1702811121,"current_range_meters":22800,"station_id":"ce4bh512rcd13ifvqe3g","pricing_plan_id":"free"},{"bike_id":"3b8839f6-6d9a-403e-ae16-eede0812a979","system_id":"levelo_inurba_marseille","lat":43.284793,"lon":5.384119,"is_reserved":false,"is_disabled":false,"rental_uris":{"android":"levelo://app?vid=3b8839f6-6d9a-403e-ae16-eede0812a979","ios":"levelo://app?vid=3b8839f6-6d9a-403e-ae16-eede0812a979"},"vehicle_type_id":"4","last_reported":1702811121,"current_range_meters":20800,"station_id":"ce4bh512rcd13ifvqe3g","pricing_plan_id":"free"},{"bike_id":"acec6643-22d6-4df5-863a-eebc85b5213c","system_id":"levelo_inurba_marseille","lat":43.283494,"lon":5.380945,"is_reserved":false,"is_disabled":false,"rental_uris":{"android":"levelo://app?vid=acec6643-22d6-4df5-863a-eebc85b5213c","ios":"levelo://app?vid=acec6643-22d6-4df5-863a-eebc85b5213c"},"vehicle_type_id":"4","last_reported":1702811121,"current_range_meters":26800,"station_id":"ce4bh412rcd13ifvqdr0","pricing_plan_id":"free"},{"bike_id":"2fc40980-61cc-4ee7-8d1a-e1832ad51db0","system_id":"levelo_inurba_marseille","lat":43.284219,"lon":5.3497,"is_reserved":false,"is_disabled":false,"rental_uris":{"android":"levelo://app?vid=2fc40980-61cc-4ee7-8d1a-e1832ad51db0","ios":"levelo://app?vid=2fc40980-61cc-4ee7-8d1a-e1832ad51db0"},"vehicle_type_id":"4","last_reported":1702811121,"current_range_meters":31600,"station_id":"ce4bhbh2rcd13ifvqepg","pricing_plan_id":"free"},{"bike_id":"33078583-ef39-48ae-bb4a-e788719806c8","system_id":"levelo_inurba_marseille","lat":43.282754,"lon":5.350519,"is_reserved":false,"is_disabled":false,"rental_uris":{"android":"levelo://app?vid=33078583-ef39-48ae-bb4a-e788719806c8","ios":"levelo://app?vid=33078583-ef39-48ae-bb4a-e788719806c8"},"vehicle_type_id":"4","last_reported":1702811121,"current_range_meters":10000,"station_id":"ce4bhbp2rcd13ifvqerg","pricing_plan_id":"free"},{"bike_id":"8143b80f-88ba-4970-8359-e5b0e37d1b23","system_id":"levelo_inurba_marseille","lat":43.280382,"lon":5.369291,"is_reserved":false,"is_disabled":false,"rental_uris":{"android":"levelo://app?vid=8143b80f-88ba-4970-8359-e5b0e37d1b23","ios":"levelo://app?vid=8143b80f-88ba-4970-8359-e5b0e37d1b23"},"vehicle_type_id":"4","last_reported":1702811121,"current_range_meters":3200,"station_id":"ce4bha12rcd13ifvqef0","pricing_plan_id":"free"},{"bike_id":"18480f3b-b636-427e-b429-e06871504cf4","system_id":"levelo_inurba_marseille","lat":43.280382,"lon":5.369291,"is_reserved":false,"is_disabled":false,"rental_uris":{"android":"levelo://app?vid=18480f3b-b636-427e-b429-e06871504cf4","ios":"levelo://app?vid=18480f3b-b636-427e-b429-e06871504cf4"},"vehicle_type_id":"4","last_reported":1702811121,"current_range_meters":10800,"station_id":"ce4bha12rcd13ifvqef0","pricing_plan_id":"free"},{"bike_id":"d2b3a949-d029-4a2b-9bad-853b9b0aacf7","system_id":"levelo_inurba_marseille","lat":43.326605,"lon":5.409903,"is_reserved":false,"is_disabled":false,"rental_uris":{"android":"levelo://app?vid=d2b3a949-d029-4a2b-9bad-853b9b0aacf7","ios":"levelo://app?vid=d2b3a949-d029-4a2b-9bad-853b9b0aacf7"},"vehicle_type_id":"4","last_reported":1702811121,"current_range_meters":30800,"station_id":"ce4bhpp2rcd13ifvqhgg","pricing_plan_id":"free"},{"bike_id":"050ecf85-14e0-4001-9e17-62b649ceaa00","system_id":"levelo_inurba_marseille","lat":43.326605,"lon":5.409903,"is_reserved":false,"is_disabled":false,"rental_uris":{"android":"levelo://app?vid=050ecf85-14e0-4001-9e17-62b649ceaa00","ios":"levelo://app?vid=050ecf85-14e0-4001-9e17-62b649ceaa00"},"vehicle_type_id":"4","last_reported":1702811121,"current_range_meters":30400,"station_id":"ce4bhpp2rcd13ifvqhgg","pricing_plan_id":"free"},{"bike_id":"3a57e97e-0661-4678-8660-64daa6b84577","system_id":"levelo_inurba_marseille","lat":43.299579,"lon":5.413255,"is_reserved":false,"is_disabled":false,"rental_uris":{"android":"levelo://app?vid=3a57e97e-0661-4678-8660-64daa6b84577","ios":"levelo://app?vid=3a57e97e-0661-4678-8660-64daa6b84577"},"vehicle_type_id":"4","last_reported":1702811121,"current_range_meters":19200,"station_id":"ce4bhp12rcd13ifvqh9g","pricing_plan_id":"free"},{"bike_id":"bc6854b1-1c97-475b-94f4-a5fb757841a1","system_id":"levelo_inurba_marseille","lat":43.299577,"lon":5.413277,"is_reserved":false,"is_disabled":false,"rental_uris":{"android":"levelo://app?vid=bc6854b1-1c97-475b-94f4-a5fb757841a1","ios":"levelo://app?vid=bc6854b1-1c97-475b-94f4-a5fb757841a1"},"vehicle_type_id":"4","last_reported":1702811121,"current_range_meters":28400,"station_id":"ce4bhp12rcd13ifvqh9g","pricing_plan_id":"free"},{"bike_id":"f960d567-48cf-4670-a39f-5a7afe25863b","system_id":"levelo_inurba_marseille","lat":43.279742,"lon":5.38744,"is_reserved":false,"is_disabled":false,"rental_uris":{"android":"levelo://app?vid=f960d567-48cf-4670-a39f-5a7afe25863b","ios":"levelo://app?vid=f960d567-48cf-4670-a39f-5a7afe25863b"},"vehicle_type_id":"4","last_reported":1702811121,"current_range_meters":30800,"station_id":"ce4bhg12rcd13ifvqf80","pricing_plan_id":"free"},{"bike_id":"90b088e4-4fb5-4090-87e9-841845639121","system_id":"levelo_inurba_marseille","lat":43.292569,"lon":5.409107,"is_reserved":false,"is_disabled":false,"rental_uris":{"android":"levelo://app?vid=90b088e4-4fb5-4090-87e9-841845639121","ios":"levelo://app?vid=90b088e4-4fb5-4090-87e9-841845639121"},"vehicle_type_id":"4","last_reported":1702811121,"current_range_meters":0,"station_id":"ce4bh192rcd13ifvqdc0","pricing_plan_id":"free"},{"bike_id":"ef4ebfe6-544f-427a-ab41-4e8fcd066bd6","system_id":"levelo_inurba_marseille","lat":43.276141,"lon":5.361002,"is_reserved":false,"is_disabled":false,"rental_uris":{"android":"levelo://app?vid=ef4ebfe6-544f-427a-ab41-4e8fcd066bd6","ios":"levelo://app?vid=ef4ebfe6-544f-427a-ab41-4e8fcd066bd6"},"vehicle_type_id":"4","last_reported":1702811121,"current_range_meters":30800,"station_id":"ce4bgj92rcd13ifvqbe0","pricing_plan_id":"free"},{"bike_id":"3337a375-1c8b-4100-9c1e-7370b07e559b","system_id":"levelo_inurba_marseille","lat":43.280784,"lon":5.396622,"is_reserved":false,"is_disabled":false,"rental_uris":{"android":"levelo://app?vid=3337a375-1c8b-4100-9c1e-7370b07e559b","ios":"levelo://app?vid=3337a375-1c8b-4100-9c1e-7370b07e559b"},"vehicle_type_id":"4","last_reported":1702811121,"current_range_meters":29600,"station_id":"ce4bho12rcd13ifvqh2g","pricing_plan_id":"free"},{"bike_id":"005e71b8-6df4-4728-86bc-e04d447edd38","system_id":"levelo_inurba_marseille","lat":43.273613,"lon":5.362705,"is_reserved":false,"is_disabled":false,"rental_uris":{"android":"levelo://app?vid=005e71b8-6df4-4728-86bc-e04d447edd38","ios":"levelo://app?vid=005e71b8-6df4-4728-86bc-e04d447edd38"},"vehicle_type_id":"4","last_reported":1702811121,"current_range_meters":28000,"station_id":"ce4bhbh2rcd13ifvqeo0","pricing_plan_id":"free"},{"bike_id":"e15426ac-43b1-46a3-bfa0-5e340802bdee","system_id":"levelo_inurba_marseille","lat":43.336134,"lon":5.410341,"is_reserved":false,"is_disabled":false,"rental_uris":{"android":"levelo://app?vid=e15426ac-43b1-46a3-bfa0-5e340802bdee","ios":"levelo://app?vid=e15426ac-43b1-46a3-bfa0-5e340802bdee"},"vehicle_type_id":"4","last_reported":1702811121,"current_range_meters":24000,"station_id":"ce4bhqh2rcd13ifvqhmg","pricing_plan_id":"free"},{"bike_id":"2bed3501-fcea-4a7a-8a65-1bedf3ad5bdc","system_id":"levelo_inurba_marseille","lat":43.336134,"lon":5.410341,"is_reserved":false,"is_disabled":false,"rental_uris":{"android":"levelo://app?vid=2bed3501-fcea-4a7a-8a65-1bedf3ad5bdc","ios":"levelo://app?vid=2bed3501-fcea-4a7a-8a65-1bedf3ad5bdc"},"vehicle_type_id":"4","last_reported":1702811121,"current_range_meters":32000,"station_id":"ce4bhqh2rcd13ifvqhmg","pricing_plan_id":"free"},{"bike_id":"ea3d35f6-b07e-4308-ae51-5376e9d8e7cc","system_id":"levelo_inurba_marseille","lat":43.273434,"lon":5.364491,"is_reserved":false,"is_disabled":false,"rental_uris":{"android":"levelo://app?vid=ea3d35f6-b07e-4308-ae51-5376e9d8e7cc","ios":"levelo://app?vid=ea3d35f6-b07e-4308-ae51-5376e9d8e7cc"},"vehicle_type_id":"4","last_reported":1702811121,"current_range_meters":12800,"station_id":"","pricing_plan_id":"free"},{"bike_id":"5bdf2c0b-0976-40cb-9d50-66955973d266","system_id":"levelo_inurba_marseille","lat":43.260225,"lon":5.375455,"is_reserved":false,"is_disabled":false,"rental_uris":{"android":"levelo://app?vid=5bdf2c0b-0976-40cb-9d50-66955973d266","ios":"levelo://app?vid=5bdf2c0b-0976-40cb-9d50-66955973d266"},"vehicle_type_id":"4","last_reported":1702811121,"current_range_meters":12400,"station_id":"ce4bhgh2rcd13ifvqfa0","pricing_plan_id":"free"},{"bike_id":"6cb0c20f-91c9-4fdd-920d-ba0bd7960208","system_id":"levelo_inurba_marseille","lat":43.310785,"lon":5.424305,"is_reserved":false,"is_disabled":false,"rental_uris":{"android":"levelo://app?vid=6cb0c20f-91c9-4fdd-920d-ba0bd7960208","ios":"levelo://app?vid=6cb0c20f-91c9-4fdd-920d-ba0bd7960208"},"vehicle_type_id":"4","last_reported":1702811121,"current_range_meters":22000,"station_id":"ce4bhp92rcd13ifvqhag","pricing_plan_id":"free"},{"bike_id":"251de0dc-299e-4a18-abf1-eec4ea9c23e2","system_id":"levelo_inurba_marseille","lat":43.310785,"lon":5.424305,"is_reserved":false,"is_disabled":false,"rental_uris":{"android":"levelo://app?vid=251de0dc-299e-4a18-abf1-eec4ea9c23e2","ios":"levelo://app?vid=251de0dc-299e-4a18-abf1-eec4ea9c23e2"},"vehicle_type_id":"4","last_reported":1702811121,"current_range_meters":31200,"station_id":"ce4bhp92rcd13ifvqhag","pricing_plan_id":"free"},{"bike_id":"a3776f53-cea4-49f3-8100-19e61a426b19","system_id":"levelo_inurba_marseille","lat":43.310785,"lon":5.424305,"is_reserved":false,"is_disabled":false,"rental_uris":{"android":"levelo://app?vid=a3776f53-cea4-49f3-8100-19e61a426b19","ios":"levelo://app?vid=a3776f53-cea4-49f3-8100-19e61a426b19"},"vehicle_type_id":"4","last_reported":1702811121,"current_range_meters":18000,"station_id":"ce4bhp92rcd13ifvqhag","pricing_plan_id":"free"},{"bike_id":"6cafcd50-5756-4ad3-b29b-b85e323da656","system_id":"levelo_inurba_marseille","lat":43.310785,"lon":5.424305,"is_reserved":false,"is_disabled":false,"rental_uris":{"android":"levelo://app?vid=6cafcd50-5756-4ad3-b29b-b85e323da656","ios":"levelo://app?vid=6cafcd50-5756-4ad3-b29b-b85e323da656"},"vehicle_type_id":"4","last_reported":1702811121,"current_range_meters":24800,"station_id":"ce4bhp92rcd13ifvqhag","pricing_plan_id":"free"},{"bike_id":"f97f3ae3-0746-4a73-8a97-072f8aa9cb10","system_id":"levelo_inurba_marseille","lat":43.310785,"lon":5.424305,"is_reserved":false,"is_disabled":false,"rental_uris":{"android":"levelo://app?vid=f97f3ae3-0746-4a73-8a97-072f8aa9cb10","ios":"levelo://app?vid=f97f3ae3-0746-4a73-8a97-072f8aa9cb10"},"vehicle_type_id":"4","last_reported":1702811121,"current_range_meters":31600,"station_id":"ce4bhp92rcd13ifvqhag","pricing_plan_id":"free"},{"bike_id":"16aab86d-d31d-4a4a-8644-d8799245d8e9","system_id":"levelo_inurba_marseille","lat":43.310785,"lon":5.424305,"is_reserved":false,"is_disabled":false,"rental_uris":{"android":"levelo://app?vid=16aab86d-d31d-4a4a-8644-d8799245d8e9","ios":"levelo://app?vid=16aab86d-d31d-4a4a-8644-d8799245d8e9"},"vehicle_type_id":"4","last_reported":1702811121,"current_range_meters":29600,"station_id":"ce4bhp92rcd13ifvqhag","pricing_plan_id":"free"},{"bike_id":"43844db9-0392-4da0-9a6e-40bbf1d336e6","system_id":"levelo_inurba_marseille","lat":43.340804,"lon":5.410219,"is_reserved":false,"is_disabled":false,"rental_uris":{"android":"levelo://app?vid=43844db9-0392-4da0-9a6e-40bbf1d336e6","ios":"levelo://app?vid=43844db9-0392-4da0-9a6e-40bbf1d336e6"},"vehicle_type_id":"4","last_reported":1702811121,"current_range_meters":29600,"station_id":"ce4bhqh2rcd13ifvqhlg","pricing_plan_id":"free"},{"bike_id":"cb8657c1-f91a-4cfd-a573-28533970bdba","system_id":"levelo_inurba_marseille","lat":43.340804,"lon":5.410219,"is_reserved":false,"is_disabled":false,"rental_uris":{"android":"levelo://app?vid=cb8657c1-f91a-4cfd-a573-28533970bdba","ios":"levelo://app?vid=cb8657c1-f91a-4cfd-a573-28533970bdba"},"vehicle_type_id":"4","last_reported":1702811121,"current_range_meters":28800,"station_id":"ce4bhqh2rcd13ifvqhlg","pricing_plan_id":"free"},{"bike_id":"3ca2c2d2-99b0-4aa6-a05d-e30f02e6a7fb","system_id":"levelo_inurba_marseille","lat":43.276092,"lon":5.395289,"is_reserved":false,"is_disabled":false,"rental_uris":{"android":"levelo://app?vid=3ca2c2d2-99b0-4aa6-a05d-e30f02e6a7fb","ios":"levelo://app?vid=3ca2c2d2-99b0-4aa6-a05d-e30f02e6a7fb"},"vehicle_type_id":"4","last_reported":1702811121,"current_range_meters":18800,"station_id":"","pricing_plan_id":"free"},{"bike_id":"25f4d2f7-e7f7-4a99-b612-420976ff507b","system_id":"levelo_inurba_marseille","lat":43.273129,"lon":5.390725,"is_reserved":false,"is_disabled":false,"rental_uris":{"android":"levelo://app?vid=25f4d2f7-e7f7-4a99-b612-420976ff507b","ios":"levelo://app?vid=25f4d2f7-e7f7-4a99-b612-420976ff507b"},"vehicle_type_id":"4","last_reported":1702811121,"current_range_meters":9600,"station_id":"ce4bhgp2rcd13ifvqfe0","pricing_plan_id":"free"},{"bike_id":"392ac33e-8e46-4e6d-9cbe-866b2e0604e0","system_id":"levelo_inurba_marseille","lat":43.274099,"lon":5.394019,"is_reserved":false,"is_disabled":false,"rental_uris":{"android":"levelo://app?vid=392ac33e-8e46-4e6d-9cbe-866b2e0604e0","ios":"levelo://app?vid=392ac33e-8e46-4e6d-9cbe-866b2e0604e0"},"vehicle_type_id":"4","last_reported":1702811121,"current_range_meters":20000,"station_id":"ce4bhdp2rcd13ifvqf20","pricing_plan_id":"free"},{"bike_id":"7caa92d7-69c7-457d-bca7-15bb9746b625","system_id":"levelo_inurba_marseille","lat":43.274099,"lon":5.394019,"is_reserved":false,"is_disabled":false,"rental_uris":{"android":"levelo://app?vid=7caa92d7-69c7-457d-bca7-15bb9746b625","ios":"levelo://app?vid=7caa92d7-69c7-457d-bca7-15bb9746b625"},"vehicle_type_id":"4","last_reported":1702811121,"current_range_meters":22000,"station_id":"ce4bhdp2rcd13ifvqf20","pricing_plan_id":"free"},{"bike_id":"cc8b3a40-55de-40ee-b286-f97cb157ef99","system_id":"levelo_inurba_marseille","lat":43.274099,"lon":5.394019,"is_reserved":false,"is_disabled":false,"rental_uris":{"android":"levelo://app?vid=cc8b3a40-55de-40ee-b286-f97cb157ef99","ios":"levelo://app?vid=cc8b3a40-55de-40ee-b286-f97cb157ef99"},"vehicle_type_id":"4","last_reported":1702811121,"current_range_meters":26400,"station_id":"ce4bhdp2rcd13ifvqf20","pricing_plan_id":"free"},{"bike_id":"826939a9-21e4-4a40-8aaf-a253527a8bfa","system_id":"levelo_inurba_marseille","lat":43.304096,"lon":5.425385,"is_reserved":false,"is_disabled":false,"rental_uris":{"android":"levelo://app?vid=826939a9-21e4-4a40-8aaf-a253527a8bfa","ios":"levelo://app?vid=826939a9-21e4-4a40-8aaf-a253527a8bfa"},"vehicle_type_id":"4","last_reported":1702811121,"current_range_meters":3600,"station_id":"ce4bhoh2rcd13ifvqh6g","pricing_plan_id":"free"},{"bike_id":"4bca820e-2868-48c4-b84f-df0d0619c012","system_id":"levelo_inurba_marseille","lat":43.304205,"lon":5.42549,"is_reserved":false,"is_disabled":false,"rental_uris":{"android":"levelo://app?vid=4bca820e-2868-48c4-b84f-df0d0619c012","ios":"levelo://app?vid=4bca820e-2868-48c4-b84f-df0d0619c012"},"vehicle_type_id":"4","last_reported":1702811121,"current_range_meters":26800,"station_id":"ce4bhoh2rcd13ifvqh6g","pricing_plan_id":"free"},{"bike_id":"6fa8d114-da1f-4c1a-a70f-7ac5844b987d","system_id":"levelo_inurba_marseille","lat":43.272118,"lon":5.391758,"is_reserved":false,"is_disabled":false,"rental_uris":{"android":"levelo://app?vid=6fa8d114-da1f-4c1a-a70f-7ac5844b987d","ios":"levelo://app?vid=6fa8d114-da1f-4c1a-a70f-7ac5844b987d"},"vehicle_type_id":"4","last_reported":1702811121,"current_range_meters":21600,"station_id":"ce4bhhp2rcd13ifvqfm0","pricing_plan_id":"free"},{"bike_id":"7c5e5a9a-9f39-4a14-9573-d5b8ab599dd5","system_id":"levelo_inurba_marseille","lat":43.27188,"lon":5.39224,"is_reserved":false,"is_disabled":false,"rental_uris":{"android":"levelo://app?vid=7c5e5a9a-9f39-4a14-9573-d5b8ab599dd5","ios":"levelo://app?vid=7c5e5a9a-9f39-4a14-9573-d5b8ab599dd5"},"vehicle_type_id":"4","last_reported":1702811121,"current_range_meters":18400,"station_id":"ce4bhhp2rcd13ifvqfm0","pricing_plan_id":"free"},{"bike_id":"c0d4131f-8d8d-4750-bf09-aa224f883954","system_id":"levelo_inurba_marseille","lat":43.27948,"lon":5.41045,"is_reserved":false,"is_disabled":false,"rental_uris":{"android":"levelo://app?vid=c0d4131f-8d8d-4750-bf09-aa224f883954","ios":"levelo://app?vid=c0d4131f-8d8d-4750-bf09-aa224f883954"},"vehicle_type_id":"4","last_reported":1702811121,"current_range_meters":0,"station_id":"ce4bhnp2rcd13ifvqh0g","pricing_plan_id":"free"},{"bike_id":"db774753-4382-453e-a138-c32d538f9839","system_id":"levelo_inurba_marseille","lat":43.358673,"lon":5.356739,"is_reserved":false,"is_disabled":false,"rental_uris":{"android":"levelo://app?vid=db774753-4382-453e-a138-c32d538f9839","ios":"levelo://app?vid=db774753-4382-453e-a138-c32d538f9839"},"vehicle_type_id":"4","last_reported":1702811121,"current_range_meters":11600,"station_id":"","pricing_plan_id":"free"},{"bike_id":"fe149645-1e45-4364-8ff5-4b80a93bb984","system_id":"levelo_inurba_marseille","lat":43.26681,"lon":5.382694,"is_reserved":false,"is_disabled":false,"rental_uris":{"android":"levelo://app?vid=fe149645-1e45-4364-8ff5-4b80a93bb984","ios":"levelo://app?vid=fe149645-1e45-4364-8ff5-4b80a93bb984"},"vehicle_type_id":"4","last_reported":1702811121,"current_range_meters":20000,"station_id":"ce4bhg92rcd13ifvqf90","pricing_plan_id":"free"},{"bike_id":"22a06de4-5066-4c36-b94f-1589b81b3263","system_id":"levelo_inurba_marseille","lat":43.26681,"lon":5.382694,"is_reserved":false,"is_disabled":false,"rental_uris":{"android":"levelo://app?vid=22a06de4-5066-4c36-b94f-1589b81b3263","ios":"levelo://app?vid=22a06de4-5066-4c36-b94f-1589b81b3263"},"vehicle_type_id":"4","last_reported":1702811121,"current_range_meters":28400,"station_id":"ce4bhg92rcd13ifvqf90","pricing_plan_id":"free"},{"bike_id":"3ec397f0-b8da-4e84-be43-f4abb20ebecf","system_id":"levelo_inurba_marseille","lat":43.276624,"lon":5.411776,"is_reserved":false,"is_disabled":false,"rental_uris":{"android":"levelo://app?vid=3ec397f0-b8da-4e84-be43-f4abb20ebecf","ios":"levelo://app?vid=3ec397f0-b8da-4e84-be43-f4abb20ebecf"},"vehicle_type_id":"4","last_reported":1702811121,"current_range_meters":28400,"station_id":"","pricing_plan_id":"free"},{"bike_id":"8a74afc9-c8ee-428c-95f4-83fc1e519239","system_id":"levelo_inurba_marseille","lat":43.280007,"lon":5.416648,"is_reserved":false,"is_disabled":false,"rental_uris":{"android":"levelo://app?vid=8a74afc9-c8ee-428c-95f4-83fc1e519239","ios":"levelo://app?vid=8a74afc9-c8ee-428c-95f4-83fc1e519239"},"vehicle_type_id":"4","last_reported":1702811121,"current_range_meters":0,"station_id":"ce4bho12rcd13ifvqh1g","pricing_plan_id":"free"},{"bike_id":"a9d6c772-6107-4b1c-aca7-c146eb2ab9be","system_id":"levelo_inurba_marseille","lat":43.267966,"lon":5.393976,"is_reserved":false,"is_disabled":false,"rental_uris":{"android":"levelo://app?vid=a9d6c772-6107-4b1c-aca7-c146eb2ab9be","ios":"levelo://app?vid=a9d6c772-6107-4b1c-aca7-c146eb2ab9be"},"vehicle_type_id":"4","last_reported":1702811121,"current_range_meters":31600,"station_id":"ce4bhh12rcd13ifvqfg0","pricing_plan_id":"free"},{"bike_id":"4f3f0c2f-97b0-4c14-93b2-199ce651b479","system_id":"levelo_inurba_marseille","lat":43.267966,"lon":5.393976,"is_reserved":false,"is_disabled":false,"rental_uris":{"android":"levelo://app?vid=4f3f0c2f-97b0-4c14-93b2-199ce651b479","ios":"levelo://app?vid=4f3f0c2f-97b0-4c14-93b2-199ce651b479"},"vehicle_type_id":"4","last_reported":1702811121,"current_range_meters":22800,"station_id":"ce4bhh12rcd13ifvqfg0","pricing_plan_id":"free"},{"bike_id":"11792dc4-f14d-4df8-828b-17478bc48a07","system_id":"levelo_inurba_marseille","lat":43.265714,"lon":5.372891,"is_reserved":false,"is_disabled":false,"rental_uris":{"android":"levelo://app?vid=11792dc4-f14d-4df8-828b-17478bc48a07","ios":"levelo://app?vid=11792dc4-f14d-4df8-828b-17478bc48a07"},"vehicle_type_id":"4","last_reported":1702811121,"current_range_meters":14000,"station_id":"ce4bhg12rcd13ifvqf70","pricing_plan_id":"free"},{"bike_id":"1947af37-ac15-4ced-9080-fe6d611d7cb7","system_id":"levelo_inurba_marseille","lat":43.286595,"lon":5.386795,"is_reserved":false,"is_disabled":false,"rental_uris":{"android":"levelo://app?vid=1947af37-ac15-4ced-9080-fe6d611d7cb7","ios":"levelo://app?vid=1947af37-ac15-4ced-9080-fe6d611d7cb7"},"vehicle_type_id":"4","last_reported":1702811121,"current_range_meters":25600,"station_id":"ce4bh492rcd13ifvqdug","pricing_plan_id":"free"},{"bike_id":"c4a6971f-a23d-4658-a9dc-f4dbd6cc7eab","system_id":"levelo_inurba_marseille","lat":43.261782,"lon":5.374515,"is_reserved":false,"is_disabled":false,"rental_uris":{"android":"levelo://app?vid=c4a6971f-a23d-4658-a9dc-f4dbd6cc7eab","ios":"levelo://app?vid=c4a6971f-a23d-4658-a9dc-f4dbd6cc7eab"},"vehicle_type_id":"4","last_reported":1702811121,"current_range_meters":20000,"station_id":"ce4bhgp2rcd13ifvqfc0","pricing_plan_id":"free"},{"bike_id":"a97af327-f707-472d-a3db-fc467bb0eea5","system_id":"levelo_inurba_marseille","lat":43.261782,"lon":5.374515,"is_reserved":false,"is_disabled":false,"rental_uris":{"android":"levelo://app?vid=a97af327-f707-472d-a3db-fc467bb0eea5","ios":"levelo://app?vid=a97af327-f707-472d-a3db-fc467bb0eea5"},"vehicle_type_id":"4","last_reported":1702811121,"current_range_meters":23600,"station_id":"ce4bhgp2rcd13ifvqfc0","pricing_plan_id":"free"},{"bike_id":"6b0f41d2-1558-4b68-9317-5326f7c51615","system_id":"levelo_inurba_marseille","lat":43.261782,"lon":5.374515,"is_reserved":false,"is_disabled":false,"rental_uris":{"android":"levelo://app?vid=6b0f41d2-1558-4b68-9317-5326f7c51615","ios":"levelo://app?vid=6b0f41d2-1558-4b68-9317-5326f7c51615"},"vehicle_type_id":"4","last_reported":1702811121,"current_range_meters":26400,"station_id":"ce4bhgp2rcd13ifvqfc0","pricing_plan_id":"free"},{"bike_id":"921391fc-c7fd-4da7-9ae6-39551a54a16d","system_id":"levelo_inurba_marseille","lat":43.262012,"lon":5.379307,"is_reserved":false,"is_disabled":false,"rental_uris":{"android":"levelo://app?vid=921391fc-c7fd-4da7-9ae6-39551a54a16d","ios":"levelo://app?vid=921391fc-c7fd-4da7-9ae6-39551a54a16d"},"vehicle_type_id":"4","last_reported":1702811121,"current_range_meters":24800,"station_id":"ce4bhjp2rcd13ifvqg90","pricing_plan_id":"free"},{"bike_id":"7743d713-d033-44f0-9919-d35e21ec4494","system_id":"levelo_inurba_marseille","lat":43.26502,"lon":5.39539,"is_reserved":false,"is_disabled":false,"rental_uris":{"android":"levelo://app?vid=7743d713-d033-44f0-9919-d35e21ec4494","ios":"levelo://app?vid=7743d713-d033-44f0-9919-d35e21ec4494"},"vehicle_type_id":"4","last_reported":1702811121,"current_range_meters":18000,"station_id":"","pricing_plan_id":"free"},{"bike_id":"b6518228-12c3-4225-894a-5f7dce8e8e5d","system_id":"levelo_inurba_marseille","lat":43.26497,"lon":5.39535,"is_reserved":false,"is_disabled":false,"rental_uris":{"android":"levelo://app?vid=b6518228-12c3-4225-894a-5f7dce8e8e5d","ios":"levelo://app?vid=b6518228-12c3-4225-894a-5f7dce8e8e5d"},"vehicle_type_id":"4","last_reported":1702811121,"current_range_meters":0,"station_id":"","pricing_plan_id":"free"},{"bike_id":"4c30ab0b-cc54-4ba6-ae72-a8fb812c2d2c","system_id":"levelo_inurba_marseille","lat":43.26498,"lon":5.3955,"is_reserved":false,"is_disabled":false,"rental_uris":{"android":"levelo://app?vid=4c30ab0b-cc54-4ba6-ae72-a8fb812c2d2c","ios":"levelo://app?vid=4c30ab0b-cc54-4ba6-ae72-a8fb812c2d2c"},"vehicle_type_id":"4","last_reported":1702811121,"current_range_meters":24400,"station_id":"","pricing_plan_id":"free"},{"bike_id":"f2318a53-9471-42dc-8d4f-a7730a7a36c8","system_id":"levelo_inurba_marseille","lat":43.264946,"lon":5.395417,"is_reserved":false,"is_disabled":false,"rental_uris":{"android":"levelo://app?vid=f2318a53-9471-42dc-8d4f-a7730a7a36c8","ios":"levelo://app?vid=f2318a53-9471-42dc-8d4f-a7730a7a36c8"},"vehicle_type_id":"4","last_reported":1702811121,"current_range_meters":2400,"station_id":"","pricing_plan_id":"free"},{"bike_id":"1027c1c2-ba39-4720-b00d-2c56da016646","system_id":"levelo_inurba_marseille","lat":43.26496,"lon":5.39548,"is_reserved":false,"is_disabled":false,"rental_uris":{"android":"levelo://app?vid=1027c1c2-ba39-4720-b00d-2c56da016646","ios":"levelo://app?vid=1027c1c2-ba39-4720-b00d-2c56da016646"},"vehicle_type_id":"4","last_reported":1702811121,"current_range_meters":28000,"station_id":"","pricing_plan_id":"free"},{"bike_id":"1765264f-1e74-4ce5-841e-c97748fde2f9","system_id":"levelo_inurba_marseille","lat":43.26495,"lon":5.39555,"is_reserved":false,"is_disabled":false,"rental_uris":{"android":"levelo://app?vid=1765264f-1e74-4ce5-841e-c97748fde2f9","ios":"levelo://app?vid=1765264f-1e74-4ce5-841e-c97748fde2f9"},"vehicle_type_id":"4","last_reported":1702811121,"current_range_meters":22800,"station_id":"","pricing_plan_id":"free"},{"bike_id":"7a85893a-7a2e-4136-aa77-946ebe94efae","system_id":"levelo_inurba_marseille","lat":43.26491,"lon":5.39543,"is_reserved":false,"is_disabled":false,"rental_uris":{"android":"levelo://app?vid=7a85893a-7a2e-4136-aa77-946ebe94efae","ios":"levelo://app?vid=7a85893a-7a2e-4136-aa77-946ebe94efae"},"vehicle_type_id":"4","last_reported":1702811121,"current_range_meters":18800,"station_id":"","pricing_plan_id":"free"},{"bike_id":"84d23a6b-18c6-4e12-abea-edef63349583","system_id":"levelo_inurba_marseille","lat":43.298768,"lon":5.43643,"is_reserved":false,"is_disabled":false,"rental_uris":{"android":"levelo://app?vid=84d23a6b-18c6-4e12-abea-edef63349583","ios":"levelo://app?vid=84d23a6b-18c6-4e12-abea-edef63349583"},"vehicle_type_id":"4","last_reported":1702811121,"current_range_meters":22400,"station_id":"ce4bhpp2rcd13ifvqhfg","pricing_plan_id":"free"},{"bike_id":"d084d587-4b27-4e47-8734-14f6d302ab83","system_id":"levelo_inurba_marseille","lat":43.298768,"lon":5.43643,"is_reserved":false,"is_disabled":false,"rental_uris":{"android":"levelo://app?vid=d084d587-4b27-4e47-8734-14f6d302ab83","ios":"levelo://app?vid=d084d587-4b27-4e47-8734-14f6d302ab83"},"vehicle_type_id":"4","last_reported":1702811121,"current_range_meters":32000,"station_id":"ce4bhpp2rcd13ifvqhfg","pricing_plan_id":"free"},{"bike_id":"78f60701-8b22-4faf-9ad4-10254c27fa94","system_id":"levelo_inurba_marseille","lat":43.298768,"lon":5.43643,"is_reserved":false,"is_disabled":false,"rental_uris":{"android":"levelo://app?vid=78f60701-8b22-4faf-9ad4-10254c27fa94","ios":"levelo://app?vid=78f60701-8b22-4faf-9ad4-10254c27fa94"},"vehicle_type_id":"4","last_reported":1702811121,"current_range_meters":23200,"station_id":"ce4bhpp2rcd13ifvqhfg","pricing_plan_id":"free"},{"bike_id":"f937336a-c9a9-48e6-a2eb-3b9ca31bb1c2","system_id":"levelo_inurba_marseille","lat":43.260225,"lon":5.375455,"is_reserved":false,"is_disabled":false,"rental_uris":{"android":"levelo://app?vid=f937336a-c9a9-48e6-a2eb-3b9ca31bb1c2","ios":"levelo://app?vid=f937336a-c9a9-48e6-a2eb-3b9ca31bb1c2"},"vehicle_type_id":"4","last_reported":1702811121,"current_range_meters":22400,"station_id":"ce4bhgh2rcd13ifvqfa0","pricing_plan_id":"free"},{"bike_id":"4aea8348-023e-413e-9aa7-9704d55d30be","system_id":"levelo_inurba_marseille","lat":43.260225,"lon":5.375455,"is_reserved":false,"is_disabled":false,"rental_uris":{"android":"levelo://app?vid=4aea8348-023e-413e-9aa7-9704d55d30be","ios":"levelo://app?vid=4aea8348-023e-413e-9aa7-9704d55d30be"},"vehicle_type_id":"4","last_reported":1702811121,"current_range_meters":1600,"station_id":"ce4bhgh2rcd13ifvqfa0","pricing_plan_id":"free"},{"bike_id":"07b9da9b-d40e-4207-958c-32d3db0de7c1","system_id":"levelo_inurba_marseille","lat":43.260219,"lon":5.37546,"is_reserved":false,"is_disabled":false,"rental_uris":{"android":"levelo://app?vid=07b9da9b-d40e-4207-958c-32d3db0de7c1","ios":"levelo://app?vid=07b9da9b-d40e-4207-958c-32d3db0de7c1"},"vehicle_type_id":"4","last_reported":1702811121,"current_range_meters":13600,"station_id":"ce4bhgh2rcd13ifvqfa0","pricing_plan_id":"free"},{"bike_id":"56d120e9-7f5f-4477-97bf-8dfa3b542850","system_id":"levelo_inurba_marseille","lat":43.281548,"lon":5.42643,"is_reserved":false,"is_disabled":false,"rental_uris":{"android":"levelo://app?vid=56d120e9-7f5f-4477-97bf-8dfa3b542850","ios":"levelo://app?vid=56d120e9-7f5f-4477-97bf-8dfa3b542850"},"vehicle_type_id":"4","last_reported":1702811121,"current_range_meters":20800,"station_id":"ce4bhnh2rcd13ifvqgug","pricing_plan_id":"free"},{"bike_id":"1d3dc963-dada-4257-8490-86427255d67c","system_id":"levelo_inurba_marseille","lat":43.281548,"lon":5.42643,"is_reserved":false,"is_disabled":false,"rental_uris":{"android":"levelo://app?vid=1d3dc963-dada-4257-8490-86427255d67c","ios":"levelo://app?vid=1d3dc963-dada-4257-8490-86427255d67c"},"vehicle_type_id":"4","last_reported":1702811121,"current_range_meters":26000,"station_id":"ce4bhnh2rcd13ifvqgug","pricing_plan_id":"free"},{"bike_id":"cb1dcb41-80e1-4183-a32a-eec2f4e17970","system_id":"levelo_inurba_marseille","lat":43.281548,"lon":5.42643,"is_reserved":false,"is_disabled":false,"rental_uris":{"android":"levelo://app?vid=cb1dcb41-80e1-4183-a32a-eec2f4e17970","ios":"levelo://app?vid=cb1dcb41-80e1-4183-a32a-eec2f4e17970"},"vehicle_type_id":"4","last_reported":1702811121,"current_range_meters":17600,"station_id":"ce4bhnh2rcd13ifvqgug","pricing_plan_id":"free"},{"bike_id":"71252ba5-5619-4f36-b490-0c5903f0700e","system_id":"levelo_inurba_marseille","lat":43.281548,"lon":5.42643,"is_reserved":false,"is_disabled":false,"rental_uris":{"android":"levelo://app?vid=71252ba5-5619-4f36-b490-0c5903f0700e","ios":"levelo://app?vid=71252ba5-5619-4f36-b490-0c5903f0700e"},"vehicle_type_id":"4","last_reported":1702811121,"current_range_meters":3600,"station_id":"ce4bhnh2rcd13ifvqgug","pricing_plan_id":"free"},{"bike_id":"22afafb4-509d-4c4f-87d3-f4844f631844","system_id":"levelo_inurba_marseille","lat":43.281548,"lon":5.42643,"is_reserved":false,"is_disabled":false,"rental_uris":{"android":"levelo://app?vid=22afafb4-509d-4c4f-87d3-f4844f631844","ios":"levelo://app?vid=22afafb4-509d-4c4f-87d3-f4844f631844"},"vehicle_type_id":"4","last_reported":1702811121,"current_range_meters":26000,"station_id":"ce4bhnh2rcd13ifvqgug","pricing_plan_id":"free"},{"bike_id":"0fbb9982-628a-458e-8599-3a52f552df95","system_id":"levelo_inurba_marseille","lat":43.281548,"lon":5.42643,"is_reserved":false,"is_disabled":false,"rental_uris":{"android":"levelo://app?vid=0fbb9982-628a-458e-8599-3a52f552df95","ios":"levelo://app?vid=0fbb9982-628a-458e-8599-3a52f552df95"},"vehicle_type_id":"4","last_reported":1702811121,"current_range_meters":30400,"station_id":"ce4bhnh2rcd13ifvqgug","pricing_plan_id":"free"},{"bike_id":"4dd764f6-774c-4512-8b0e-1beb34d8f863","system_id":"levelo_inurba_marseille","lat":43.281548,"lon":5.42643,"is_reserved":false,"is_disabled":false,"rental_uris":{"android":"levelo://app?vid=4dd764f6-774c-4512-8b0e-1beb34d8f863","ios":"levelo://app?vid=4dd764f6-774c-4512-8b0e-1beb34d8f863"},"vehicle_type_id":"4","last_reported":1702811121,"current_range_meters":31200,"station_id":"ce4bhnh2rcd13ifvqgug","pricing_plan_id":"free"},{"bike_id":"d179c498-6590-4265-ba74-db4d632b80df","system_id":"levelo_inurba_marseille","lat":43.281548,"lon":5.42643,"is_reserved":false,"is_disabled":false,"rental_uris":{"android":"levelo://app?vid=d179c498-6590-4265-ba74-db4d632b80df","ios":"levelo://app?vid=d179c498-6590-4265-ba74-db4d632b80df"},"vehicle_type_id":"4","last_reported":1702811121,"current_range_meters":32000,"station_id":"ce4bhnh2rcd13ifvqgug","pricing_plan_id":"free"},{"bike_id":"c15ae3b7-8e97-4a88-a9b4-a63f88042490","system_id":"levelo_inurba_marseille","lat":43.281548,"lon":5.42643,"is_reserved":false,"is_disabled":false,"rental_uris":{"android":"levelo://app?vid=c15ae3b7-8e97-4a88-a9b4-a63f88042490","ios":"levelo://app?vid=c15ae3b7-8e97-4a88-a9b4-a63f88042490"},"vehicle_type_id":"4","last_reported":1702811121,"current_range_meters":2000,"station_id":"ce4bhnh2rcd13ifvqgug","pricing_plan_id":"free"},{"bike_id":"e67adb0b-4217-4b03-8657-2f9486792d7e","system_id":"levelo_inurba_marseille","lat":43.2607,"lon":5.393983,"is_reserved":false,"is_disabled":false,"rental_uris":{"android":"levelo://app?vid=e67adb0b-4217-4b03-8657-2f9486792d7e","ios":"levelo://app?vid=e67adb0b-4217-4b03-8657-2f9486792d7e"},"vehicle_type_id":"4","last_reported":1702811121,"current_range_meters":30800,"station_id":"ce4bhh92rcd13ifvqfj0","pricing_plan_id":"free"},{"bike_id":"86e8efcc-9a9d-4657-8fc4-7b76fe514acc","system_id":"levelo_inurba_marseille","lat":43.275028,"lon":5.424534,"is_reserved":false,"is_disabled":false,"rental_uris":{"android":"levelo://app?vid=86e8efcc-9a9d-4657-8fc4-7b76fe514acc","ios":"levelo://app?vid=86e8efcc-9a9d-4657-8fc4-7b76fe514acc"},"vehicle_type_id":"4","last_reported":1702811121,"current_range_meters":10800,"station_id":"ce4bhn92rcd13ifvqgrg","pricing_plan_id":"free"},{"bike_id":"41bc15f8-3b1d-4ccf-944e-034bbcc08f91","system_id":"levelo_inurba_marseille","lat":43.275028,"lon":5.424534,"is_reserved":false,"is_disabled":false,"rental_uris":{"android":"levelo://app?vid=41bc15f8-3b1d-4ccf-944e-034bbcc08f91","ios":"levelo://app?vid=41bc15f8-3b1d-4ccf-944e-034bbcc08f91"},"vehicle_type_id":"4","last_reported":1702811121,"current_range_meters":30400,"station_id":"ce4bhn92rcd13ifvqgrg","pricing_plan_id":"free"},{"bike_id":"26edb7e5-1cc5-434c-a417-271b88181037","system_id":"levelo_inurba_marseille","lat":43.275028,"lon":5.424534,"is_reserved":false,"is_disabled":false,"rental_uris":{"android":"levelo://app?vid=26edb7e5-1cc5-434c-a417-271b88181037","ios":"levelo://app?vid=26edb7e5-1cc5-434c-a417-271b88181037"},"vehicle_type_id":"4","last_reported":1702811121,"current_range_meters":28400,"station_id":"ce4bhn92rcd13ifvqgrg","pricing_plan_id":"free"},{"bike_id":"b6836b5c-bf87-43d1-afcb-477e491235ab","system_id":"levelo_inurba_marseille","lat":43.260873,"lon":5.397653,"is_reserved":false,"is_disabled":false,"rental_uris":{"android":"levelo://app?vid=b6836b5c-bf87-43d1-afcb-477e491235ab","ios":"levelo://app?vid=b6836b5c-bf87-43d1-afcb-477e491235ab"},"vehicle_type_id":"4","last_reported":1702811121,"current_range_meters":1200,"station_id":"","pricing_plan_id":"free"},{"bike_id":"9a221386-4eef-461d-8e18-f3fc3f633bbb","system_id":"levelo_inurba_marseille","lat":43.25739,"lon":5.38979,"is_reserved":false,"is_disabled":false,"rental_uris":{"android":"levelo://app?vid=9a221386-4eef-461d-8e18-f3fc3f633bbb","ios":"levelo://app?vid=9a221386-4eef-461d-8e18-f3fc3f633bbb"},"vehicle_type_id":"4","last_reported":1702811121,"current_range_meters":30000,"station_id":"","pricing_plan_id":"free"},{"bike_id":"cb4aa066-0acd-450f-a854-69855bd4d7ee","system_id":"levelo_inurba_marseille","lat":43.25828,"lon":5.39431,"is_reserved":false,"is_disabled":false,"rental_uris":{"android":"levelo://app?vid=cb4aa066-0acd-450f-a854-69855bd4d7ee","ios":"levelo://app?vid=cb4aa066-0acd-450f-a854-69855bd4d7ee"},"vehicle_type_id":"4","last_reported":1702811121,"current_range_meters":25600,"station_id":"ce4bhip2rcd13ifvqft0","pricing_plan_id":"free"},{"bike_id":"77ac79d5-c24d-4edd-95f5-261a49d22ea1","system_id":"levelo_inurba_marseille","lat":43.25583,"lon":5.38233,"is_reserved":false,"is_disabled":false,"rental_uris":{"android":"levelo://app?vid=77ac79d5-c24d-4edd-95f5-261a49d22ea1","ios":"levelo://app?vid=77ac79d5-c24d-4edd-95f5-261a49d22ea1"},"vehicle_type_id":"4","last_reported":1702811121,"current_range_meters":12800,"station_id":"ce4bhih2rcd13ifvqfs0","pricing_plan_id":"free"},{"bike_id":"2acb0db4-d2b7-4f74-a872-0c2246105d42","system_id":"levelo_inurba_marseille","lat":43.25828,"lon":5.39438,"is_reserved":false,"is_disabled":false,"rental_uris":{"android":"levelo://app?vid=2acb0db4-d2b7-4f74-a872-0c2246105d42","ios":"levelo://app?vid=2acb0db4-d2b7-4f74-a872-0c2246105d42"},"vehicle_type_id":"4","last_reported":1702811121,"current_range_meters":21600,"station_id":"ce4bhip2rcd13ifvqft0","pricing_plan_id":"free"},{"bike_id":"62de9976-dd34-404c-96bc-3d17794f52cd","system_id":"levelo_inurba_marseille","lat":43.25579,"lon":5.38231,"is_reserved":false,"is_disabled":false,"rental_uris":{"android":"levelo://app?vid=62de9976-dd34-404c-96bc-3d17794f52cd","ios":"levelo://app?vid=62de9976-dd34-404c-96bc-3d17794f52cd"},"vehicle_type_id":"4","last_reported":1702811121,"current_range_meters":29600,"station_id":"ce4bhih2rcd13ifvqfs0","pricing_plan_id":"free"},{"bike_id":"73642b6a-15ef-4544-8c7c-ec9b51c6f4e1","system_id":"levelo_inurba_marseille","lat":43.25578,"lon":5.3823,"is_reserved":false,"is_disabled":false,"rental_uris":{"android":"levelo://app?vid=73642b6a-15ef-4544-8c7c-ec9b51c6f4e1","ios":"levelo://app?vid=73642b6a-15ef-4544-8c7c-ec9b51c6f4e1"},"vehicle_type_id":"4","last_reported":1702811121,"current_range_meters":25200,"station_id":"ce4bhih2rcd13ifvqfs0","pricing_plan_id":"free"},{"bike_id":"fa92de3d-5026-4d12-a072-d2de0d99176f","system_id":"levelo_inurba_marseille","lat":43.25578,"lon":5.3823,"is_reserved":false,"is_disabled":false,"rental_uris":{"android":"levelo://app?vid=fa92de3d-5026-4d12-a072-d2de0d99176f","ios":"levelo://app?vid=fa92de3d-5026-4d12-a072-d2de0d99176f"},"vehicle_type_id":"4","last_reported":1702811121,"current_range_meters":17600,"station_id":"ce4bhih2rcd13ifvqfs0","pricing_plan_id":"free"},{"bike_id":"e868ad5a-8607-4e58-8bbe-8e6759ac085a","system_id":"levelo_inurba_marseille","lat":43.25576,"lon":5.3823,"is_reserved":false,"is_disabled":false,"rental_uris":{"android":"levelo://app?vid=e868ad5a-8607-4e58-8bbe-8e6759ac085a","ios":"levelo://app?vid=e868ad5a-8607-4e58-8bbe-8e6759ac085a"},"vehicle_type_id":"4","last_reported":1702811121,"current_range_meters":22800,"station_id":"ce4bhih2rcd13ifvqfs0","pricing_plan_id":"free"},{"bike_id":"4a14eb90-0bcc-46d5-a7ef-68f7a4f98435","system_id":"levelo_inurba_marseille","lat":43.25576,"lon":5.38235,"is_reserved":false,"is_disabled":false,"rental_uris":{"android":"levelo://app?vid=4a14eb90-0bcc-46d5-a7ef-68f7a4f98435","ios":"levelo://app?vid=4a14eb90-0bcc-46d5-a7ef-68f7a4f98435"},"vehicle_type_id":"4","last_reported":1702811121,"current_range_meters":29600,"station_id":"ce4bhih2rcd13ifvqfs0","pricing_plan_id":"free"},{"bike_id":"7a582b40-2371-4bb6-b6c9-3eebc8b67da8","system_id":"levelo_inurba_marseille","lat":43.25499,"lon":5.37649,"is_reserved":false,"is_disabled":false,"rental_uris":{"android":"levelo://app?vid=7a582b40-2371-4bb6-b6c9-3eebc8b67da8","ios":"levelo://app?vid=7a582b40-2371-4bb6-b6c9-3eebc8b67da8"},"vehicle_type_id":"4","last_reported":1702811121,"current_range_meters":15200,"station_id":"ce4bhh12rcd13ifvqff0","pricing_plan_id":"free"},{"bike_id":"ab5a09e3-c072-4a16-b4ec-b13f219ca9ba","system_id":"levelo_inurba_marseille","lat":43.25498,"lon":5.37647,"is_reserved":false,"is_disabled":false,"rental_uris":{"android":"levelo://app?vid=ab5a09e3-c072-4a16-b4ec-b13f219ca9ba","ios":"levelo://app?vid=ab5a09e3-c072-4a16-b4ec-b13f219ca9ba"},"vehicle_type_id":"4","last_reported":1702811121,"current_range_meters":21600,"station_id":"ce4bhh12rcd13ifvqff0","pricing_plan_id":"free"},{"bike_id":"ca09182d-f85e-490e-8b5c-94486064e272","system_id":"levelo_inurba_marseille","lat":43.254947,"lon":5.376454,"is_reserved":false,"is_disabled":false,"rental_uris":{"android":"levelo://app?vid=ca09182d-f85e-490e-8b5c-94486064e272","ios":"levelo://app?vid=ca09182d-f85e-490e-8b5c-94486064e272"},"vehicle_type_id":"4","last_reported":1702811121,"current_range_meters":28000,"station_id":"ce4bhh12rcd13ifvqff0","pricing_plan_id":"free"},{"bike_id":"67ac76b9-d69f-42cf-b861-38e636d9e23e","system_id":"levelo_inurba_marseille","lat":43.25498,"lon":5.3765,"is_reserved":false,"is_disabled":false,"rental_uris":{"android":"levelo://app?vid=67ac76b9-d69f-42cf-b861-38e636d9e23e","ios":"levelo://app?vid=67ac76b9-d69f-42cf-b861-38e636d9e23e"},"vehicle_type_id":"4","last_reported":1702811121,"current_range_meters":26400,"station_id":"ce4bhh12rcd13ifvqff0","pricing_plan_id":"free"},{"bike_id":"e650bb41-64fd-4d3c-b646-23c994a756b9","system_id":"levelo_inurba_marseille","lat":43.25497,"lon":5.37648,"is_reserved":false,"is_disabled":false,"rental_uris":{"android":"levelo://app?vid=e650bb41-64fd-4d3c-b646-23c994a756b9","ios":"levelo://app?vid=e650bb41-64fd-4d3c-b646-23c994a756b9"},"vehicle_type_id":"4","last_reported":1702811121,"current_range_meters":22400,"station_id":"ce4bhh12rcd13ifvqff0","pricing_plan_id":"free"},{"bike_id":"cd7237e2-5c04-4af1-b2c3-bb908fd64e5d","system_id":"levelo_inurba_marseille","lat":43.25497,"lon":5.37649,"is_reserved":false,"is_disabled":false,"rental_uris":{"android":"levelo://app?vid=cd7237e2-5c04-4af1-b2c3-bb908fd64e5d","ios":"levelo://app?vid=cd7237e2-5c04-4af1-b2c3-bb908fd64e5d"},"vehicle_type_id":"4","last_reported":1702811121,"current_range_meters":18400,"station_id":"ce4bhh12rcd13ifvqff0","pricing_plan_id":"free"},{"bike_id":"e52cfc14-258a-4671-80e6-8f149767bd21","system_id":"levelo_inurba_marseille","lat":43.25497,"lon":5.37649,"is_reserved":false,"is_disabled":false,"rental_uris":{"android":"levelo://app?vid=e52cfc14-258a-4671-80e6-8f149767bd21","ios":"levelo://app?vid=e52cfc14-258a-4671-80e6-8f149767bd21"},"vehicle_type_id":"4","last_reported":1702811121,"current_range_meters":12400,"station_id":"ce4bhh12rcd13ifvqff0","pricing_plan_id":"free"},{"bike_id":"b7b9f492-0af9-46ff-8b31-3a7906180874","system_id":"levelo_inurba_marseille","lat":43.25497,"lon":5.37649,"is_reserved":false,"is_disabled":false,"rental_uris":{"android":"levelo://app?vid=b7b9f492-0af9-46ff-8b31-3a7906180874","ios":"levelo://app?vid=b7b9f492-0af9-46ff-8b31-3a7906180874"},"vehicle_type_id":"4","last_reported":1702811121,"current_range_meters":3600,"station_id":"ce4bhh12rcd13ifvqff0","pricing_plan_id":"free"},{"bike_id":"947bd8ef-34e9-47ae-9f34-7d97f76cae41","system_id":"levelo_inurba_marseille","lat":43.25497,"lon":5.37651,"is_reserved":false,"is_disabled":false,"rental_uris":{"android":"levelo://app?vid=947bd8ef-34e9-47ae-9f34-7d97f76cae41","ios":"levelo://app?vid=947bd8ef-34e9-47ae-9f34-7d97f76cae41"},"vehicle_type_id":"4","last_reported":1702811121,"current_range_meters":22800,"station_id":"ce4bhh12rcd13ifvqff0","pricing_plan_id":"free"},{"bike_id":"1ace9c64-be15-4225-91cc-d1d5e2234176","system_id":"levelo_inurba_marseille","lat":43.254947,"lon":5.376454,"is_reserved":false,"is_disabled":false,"rental_uris":{"android":"levelo://app?vid=1ace9c64-be15-4225-91cc-d1d5e2234176","ios":"levelo://app?vid=1ace9c64-be15-4225-91cc-d1d5e2234176"},"vehicle_type_id":"4","last_reported":1702811121,"current_range_meters":31200,"station_id":"ce4bhh12rcd13ifvqff0","pricing_plan_id":"free"},{"bike_id":"04827576-03c1-4517-8c81-dbcc995a56ae","system_id":"levelo_inurba_marseille","lat":43.254947,"lon":5.376454,"is_reserved":false,"is_disabled":false,"rental_uris":{"android":"levelo://app?vid=04827576-03c1-4517-8c81-dbcc995a56ae","ios":"levelo://app?vid=04827576-03c1-4517-8c81-dbcc995a56ae"},"vehicle_type_id":"4","last_reported":1702811121,"current_range_meters":18000,"station_id":"ce4bhh12rcd13ifvqff0","pricing_plan_id":"free"},{"bike_id":"e22bfa2e-887e-4f39-94a3-367bba166b50","system_id":"levelo_inurba_marseille","lat":43.270721,"lon":5.422764,"is_reserved":false,"is_disabled":false,"rental_uris":{"android":"levelo://app?vid=e22bfa2e-887e-4f39-94a3-367bba166b50","ios":"levelo://app?vid=e22bfa2e-887e-4f39-94a3-367bba166b50"},"vehicle_type_id":"4","last_reported":1702811121,"current_range_meters":6400,"station_id":"ce4bhk92rcd13ifvqgb0","pricing_plan_id":"free"},{"bike_id":"e341de01-5fcc-4f5d-9a6e-add29695d1df","system_id":"levelo_inurba_marseille","lat":43.25932,"lon":5.40917,"is_reserved":false,"is_disabled":false,"rental_uris":{"android":"levelo://app?vid=e341de01-5fcc-4f5d-9a6e-add29695d1df","ios":"levelo://app?vid=e341de01-5fcc-4f5d-9a6e-add29695d1df"},"vehicle_type_id":"4","last_reported":1702811121,"current_range_meters":18000,"station_id":"ce4bhm92rcd13ifvqglg","pricing_plan_id":"free"},{"bike_id":"486de631-4303-438d-8a28-45c67f8e2772","system_id":"levelo_inurba_marseille","lat":43.259317,"lon":5.40917,"is_reserved":false,"is_disabled":false,"rental_uris":{"android":"levelo://app?vid=486de631-4303-438d-8a28-45c67f8e2772","ios":"levelo://app?vid=486de631-4303-438d-8a28-45c67f8e2772"},"vehicle_type_id":"4","last_reported":1702811121,"current_range_meters":18800,"station_id":"ce4bhm92rcd13ifvqglg","pricing_plan_id":"free"},{"bike_id":"790f0c85-435e-464f-af9f-df0afa087a9d","system_id":"levelo_inurba_marseille","lat":43.25929,"lon":5.40911,"is_reserved":false,"is_disabled":false,"rental_uris":{"android":"levelo://app?vid=790f0c85-435e-464f-af9f-df0afa087a9d","ios":"levelo://app?vid=790f0c85-435e-464f-af9f-df0afa087a9d"},"vehicle_type_id":"4","last_reported":1702811121,"current_range_meters":31600,"station_id":"ce4bhm92rcd13ifvqglg","pricing_plan_id":"free"},{"bike_id":"c42c8265-a87f-4db6-b8a4-696660579129","system_id":"levelo_inurba_marseille","lat":43.257079,"lon":5.411051,"is_reserved":false,"is_disabled":false,"rental_uris":{"android":"levelo://app?vid=c42c8265-a87f-4db6-b8a4-696660579129","ios":"levelo://app?vid=c42c8265-a87f-4db6-b8a4-696660579129"},"vehicle_type_id":"4","last_reported":1702811121,"current_range_meters":30000,"station_id":"ce4bhkp2rcd13ifvqgd0","pricing_plan_id":"free"},{"bike_id":"3cec78b0-b5aa-41c7-86c1-de0e9bda6db8","system_id":"levelo_inurba_marseille","lat":43.25006,"lon":5.38915,"is_reserved":false,"is_disabled":false,"rental_uris":{"android":"levelo://app?vid=3cec78b0-b5aa-41c7-86c1-de0e9bda6db8","ios":"levelo://app?vid=3cec78b0-b5aa-41c7-86c1-de0e9bda6db8"},"vehicle_type_id":"4","last_reported":1702811121,"current_range_meters":12000,"station_id":"ce4bhgp2rcd13ifvqfd0","pricing_plan_id":"free"},{"bike_id":"cd85378a-d94a-4bf0-ac61-805af92ff8f4","system_id":"levelo_inurba_marseille","lat":43.2479,"lon":5.374457,"is_reserved":false,"is_disabled":false,"rental_uris":{"android":"levelo://app?vid=cd85378a-d94a-4bf0-ac61-805af92ff8f4","ios":"levelo://app?vid=cd85378a-d94a-4bf0-ac61-805af92ff8f4"},"vehicle_type_id":"4","last_reported":1702811121,"current_range_meters":22800,"station_id":"ce4bhgh2rcd13ifvqfb0","pricing_plan_id":"free"},{"bike_id":"2e4234da-1b13-4996-98d8-8f2f2cc93757","system_id":"levelo_inurba_marseille","lat":43.250009,"lon":5.389195,"is_reserved":false,"is_disabled":false,"rental_uris":{"android":"levelo://app?vid=2e4234da-1b13-4996-98d8-8f2f2cc93757","ios":"levelo://app?vid=2e4234da-1b13-4996-98d8-8f2f2cc93757"},"vehicle_type_id":"4","last_reported":1702811121,"current_range_meters":15600,"station_id":"ce4bhgp2rcd13ifvqfd0","pricing_plan_id":"free"},{"bike_id":"7b29ee7f-149b-4304-ae3e-56a9d6d7abdf","system_id":"levelo_inurba_marseille","lat":43.24811,"lon":5.3746,"is_reserved":false,"is_disabled":false,"rental_uris":{"android":"levelo://app?vid=7b29ee7f-149b-4304-ae3e-56a9d6d7abdf","ios":"levelo://app?vid=7b29ee7f-149b-4304-ae3e-56a9d6d7abdf"},"vehicle_type_id":"4","last_reported":1702811121,"current_range_meters":21200,"station_id":"ce4bhgh2rcd13ifvqfb0","pricing_plan_id":"free"},{"bike_id":"068fd7d6-15a7-4d1a-aa2a-d4034349bc14","system_id":"levelo_inurba_marseille","lat":43.2479,"lon":5.374457,"is_reserved":false,"is_disabled":false,"rental_uris":{"android":"levelo://app?vid=068fd7d6-15a7-4d1a-aa2a-d4034349bc14","ios":"levelo://app?vid=068fd7d6-15a7-4d1a-aa2a-d4034349bc14"},"vehicle_type_id":"4","last_reported":1702811121,"current_range_meters":27200,"station_id":"ce4bhgh2rcd13ifvqfb0","pricing_plan_id":"free"},{"bike_id":"fdfe0c96-8a2f-42f4-a5d8-562e26184c4b","system_id":"levelo_inurba_marseille","lat":43.2479,"lon":5.374457,"is_reserved":false,"is_disabled":false,"rental_uris":{"android":"levelo://app?vid=fdfe0c96-8a2f-42f4-a5d8-562e26184c4b","ios":"levelo://app?vid=fdfe0c96-8a2f-42f4-a5d8-562e26184c4b"},"vehicle_type_id":"4","last_reported":1702811121,"current_range_meters":29200,"station_id":"ce4bhgh2rcd13ifvqfb0","pricing_plan_id":"free"},{"bike_id":"ee532cd1-a24f-4ae9-9ea7-2b685739bb0e","system_id":"levelo_inurba_marseille","lat":43.2479,"lon":5.374457,"is_reserved":false,"is_disabled":false,"rental_uris":{"android":"levelo://app?vid=ee532cd1-a24f-4ae9-9ea7-2b685739bb0e","ios":"levelo://app?vid=ee532cd1-a24f-4ae9-9ea7-2b685739bb0e"},"vehicle_type_id":"4","last_reported":1702811121,"current_range_meters":25200,"station_id":"ce4bhgh2rcd13ifvqfb0","pricing_plan_id":"free"},{"bike_id":"639c2119-0628-4038-9bfc-0f2d42541bd5","system_id":"levelo_inurba_marseille","lat":43.2479,"lon":5.374457,"is_reserved":false,"is_disabled":false,"rental_uris":{"android":"levelo://app?vid=639c2119-0628-4038-9bfc-0f2d42541bd5","ios":"levelo://app?vid=639c2119-0628-4038-9bfc-0f2d42541bd5"},"vehicle_type_id":"4","last_reported":1702811121,"current_range_meters":27600,"station_id":"ce4bhgh2rcd13ifvqfb0","pricing_plan_id":"free"},{"bike_id":"94831cca-2d72-4df5-a4c3-ec10f794d54a","system_id":"levelo_inurba_marseille","lat":43.25102,"lon":5.403214,"is_reserved":false,"is_disabled":false,"rental_uris":{"android":"levelo://app?vid=94831cca-2d72-4df5-a4c3-ec10f794d54a","ios":"levelo://app?vid=94831cca-2d72-4df5-a4c3-ec10f794d54a"},"vehicle_type_id":"4","last_reported":1702811121,"current_range_meters":30000,"station_id":"ce4bhlh2rcd13ifvqgig","pricing_plan_id":"free"},{"bike_id":"42da00cb-9a1a-4134-a3cd-175f717a977e","system_id":"levelo_inurba_marseille","lat":43.25102,"lon":5.403214,"is_reserved":false,"is_disabled":false,"rental_uris":{"android":"levelo://app?vid=42da00cb-9a1a-4134-a3cd-175f717a977e","ios":"levelo://app?vid=42da00cb-9a1a-4134-a3cd-175f717a977e"},"vehicle_type_id":"4","last_reported":1702811121,"current_range_meters":26400,"station_id":"ce4bhlh2rcd13ifvqgig","pricing_plan_id":"free"},{"bike_id":"f8dfd7a2-00c4-4756-a467-83d8f6a87c99","system_id":"levelo_inurba_marseille","lat":43.25102,"lon":5.403214,"is_reserved":false,"is_disabled":false,"rental_uris":{"android":"levelo://app?vid=f8dfd7a2-00c4-4756-a467-83d8f6a87c99","ios":"levelo://app?vid=f8dfd7a2-00c4-4756-a467-83d8f6a87c99"},"vehicle_type_id":"4","last_reported":1702811121,"current_range_meters":28400,"station_id":"ce4bhlh2rcd13ifvqgig","pricing_plan_id":"free"},{"bike_id":"cda151f2-9ad2-46c9-9115-b73ba9a06619","system_id":"levelo_inurba_marseille","lat":43.252189,"lon":5.406417,"is_reserved":false,"is_disabled":false,"rental_uris":{"android":"levelo://app?vid=cda151f2-9ad2-46c9-9115-b73ba9a06619","ios":"levelo://app?vid=cda151f2-9ad2-46c9-9115-b73ba9a06619"},"vehicle_type_id":"4","last_reported":1702811121,"current_range_meters":0,"station_id":"","pricing_plan_id":"free"},{"bike_id":"bbd82a1b-984d-4c04-9189-5036c574f8da","system_id":"levelo_inurba_marseille","lat":43.25102,"lon":5.403214,"is_reserved":false,"is_disabled":false,"rental_uris":{"android":"levelo://app?vid=bbd82a1b-984d-4c04-9189-5036c574f8da","ios":"levelo://app?vid=bbd82a1b-984d-4c04-9189-5036c574f8da"},"vehicle_type_id":"4","last_reported":1702811121,"current_range_meters":30000,"station_id":"ce4bhlh2rcd13ifvqgig","pricing_plan_id":"free"},{"bike_id":"795ce9c2-4c86-4b7e-843d-04e04ff1717d","system_id":"levelo_inurba_marseille","lat":43.25102,"lon":5.403214,"is_reserved":false,"is_disabled":false,"rental_uris":{"android":"levelo://app?vid=795ce9c2-4c86-4b7e-843d-04e04ff1717d","ios":"levelo://app?vid=795ce9c2-4c86-4b7e-843d-04e04ff1717d"},"vehicle_type_id":"4","last_reported":1702811121,"current_range_meters":20000,"station_id":"ce4bhlh2rcd13ifvqgig","pricing_plan_id":"free"},{"bike_id":"1b6c8273-588b-4df2-9c79-86e687b93aa0","system_id":"levelo_inurba_marseille","lat":43.25102,"lon":5.403214,"is_reserved":false,"is_disabled":false,"rental_uris":{"android":"levelo://app?vid=1b6c8273-588b-4df2-9c79-86e687b93aa0","ios":"levelo://app?vid=1b6c8273-588b-4df2-9c79-86e687b93aa0"},"vehicle_type_id":"4","last_reported":1702811121,"current_range_meters":28800,"station_id":"ce4bhlh2rcd13ifvqgig","pricing_plan_id":"free"},{"bike_id":"3a342296-cbb3-4a72-9d8f-830899303254","system_id":"levelo_inurba_marseille","lat":43.243884,"lon":5.370737,"is_reserved":false,"is_disabled":false,"rental_uris":{"android":"levelo://app?vid=3a342296-cbb3-4a72-9d8f-830899303254","ios":"levelo://app?vid=3a342296-cbb3-4a72-9d8f-830899303254"},"vehicle_type_id":"4","last_reported":1702811121,"current_range_meters":24800,"station_id":"ce4bhhh2rcd13ifvqfk0","pricing_plan_id":"free"},{"bike_id":"e048174b-9a5a-45c9-9a41-3e830b6d71c5","system_id":"levelo_inurba_marseille","lat":43.243884,"lon":5.370737,"is_reserved":false,"is_disabled":false,"rental_uris":{"android":"levelo://app?vid=e048174b-9a5a-45c9-9a41-3e830b6d71c5","ios":"levelo://app?vid=e048174b-9a5a-45c9-9a41-3e830b6d71c5"},"vehicle_type_id":"4","last_reported":1702811121,"current_range_meters":14400,"station_id":"ce4bhhh2rcd13ifvqfk0","pricing_plan_id":"free"},{"bike_id":"0cbaa13e-7693-4357-aafe-b4bcfaab68d5","system_id":"levelo_inurba_marseille","lat":43.243884,"lon":5.370736,"is_reserved":false,"is_disabled":false,"rental_uris":{"android":"levelo://app?vid=0cbaa13e-7693-4357-aafe-b4bcfaab68d5","ios":"levelo://app?vid=0cbaa13e-7693-4357-aafe-b4bcfaab68d5"},"vehicle_type_id":"4","last_reported":1702811121,"current_range_meters":24800,"station_id":"ce4bhhh2rcd13ifvqfk0","pricing_plan_id":"free"},{"bike_id":"fb6b216e-c8bc-4f8b-9f09-6e8cc477e48d","system_id":"levelo_inurba_marseille","lat":43.243884,"lon":5.370736,"is_reserved":false,"is_disabled":false,"rental_uris":{"android":"levelo://app?vid=fb6b216e-c8bc-4f8b-9f09-6e8cc477e48d","ios":"levelo://app?vid=fb6b216e-c8bc-4f8b-9f09-6e8cc477e48d"},"vehicle_type_id":"4","last_reported":1702811121,"current_range_meters":25600,"station_id":"ce4bhhh2rcd13ifvqfk0","pricing_plan_id":"free"},{"bike_id":"a4ccbe62-8c48-4f40-b637-643e05b69ed0","system_id":"levelo_inurba_marseille","lat":43.245581,"lon":5.395069,"is_reserved":false,"is_disabled":false,"rental_uris":{"android":"levelo://app?vid=a4ccbe62-8c48-4f40-b637-643e05b69ed0","ios":"levelo://app?vid=a4ccbe62-8c48-4f40-b637-643e05b69ed0"},"vehicle_type_id":"4","last_reported":1702811121,"current_range_meters":31200,"station_id":"ce4bhlp2rcd13ifvqgjg","pricing_plan_id":"free"},{"bike_id":"25eae511-d7a6-4a45-ae64-36564b876a9f","system_id":"levelo_inurba_marseille","lat":43.245581,"lon":5.395069,"is_reserved":false,"is_disabled":false,"rental_uris":{"android":"levelo://app?vid=25eae511-d7a6-4a45-ae64-36564b876a9f","ios":"levelo://app?vid=25eae511-d7a6-4a45-ae64-36564b876a9f"},"vehicle_type_id":"4","last_reported":1702811121,"current_range_meters":24800,"station_id":"ce4bhlp2rcd13ifvqgjg","pricing_plan_id":"free"},{"bike_id":"fa7cee73-03d6-430c-b56f-31e93cf9947e","system_id":"levelo_inurba_marseille","lat":43.245581,"lon":5.395069,"is_reserved":false,"is_disabled":false,"rental_uris":{"android":"levelo://app?vid=fa7cee73-03d6-430c-b56f-31e93cf9947e","ios":"levelo://app?vid=fa7cee73-03d6-430c-b56f-31e93cf9947e"},"vehicle_type_id":"4","last_reported":1702811121,"current_range_meters":17200,"station_id":"ce4bhlp2rcd13ifvqgjg","pricing_plan_id":"free"},