{"last_updated":1751123354,"ttl":60,"version":"2.2","data":{"bikes":[{"bike_id":"3da29fb8-fc97-44c6-b9ac-31dd456b2fd4","system_id":"levelo_inurba_marseille","lat":43.33771,"lon":5.37424,"is_reserved":false,"is_disabled":true,"rental_uris":{"android":"levelo://app?vid=3da29fb8-fc97-44c6-b9ac-31dd456b2fd4","ios":"levelo://app?vid=3da29fb8-fc97-44c6-b9ac-31dd456b2fd4"},"vehicle_type_id":"4","last_reported":1751123354,"current_range_meters":0,"station_id":"","pricing_plan_id":"cebpf4jnsgd1na2vs0mg"},{"bike_id":"01861ad8-a8d7-4be6-816e-651927c87584","system_id":"levelo_inurba_marseille","lat":43.33751,"lon":5.37456,"is_reserved":false,"is_disabled":true,"rental_uris":{"android":"levelo://app?vid=01861ad8-a8d7-4be6-816e-651927c87584","ios":"levelo://app?vid=01861ad8-a8d7-4be6-816e-651927c87584"},"vehicle_type_id":"4","last_reported":1751123354,"current_range_meters":0,"station_id":"","pricing_plan_id":"cebpf4jnsgd1na2vs0mg"},{"bike_id":"e9a7f2ce-f5b2-41e5-b572-5533013492a4","system_id":"levelo_inurba_marseille","lat":43.337444,"lon":5.374475,"is_reserved":false,"is_disabled":true,"rental_uris":{"android":"levelo://app?vid=e9a7f2ce-f5b2-41e5-b572-5533013492a4","ios":"levelo://app?vid=e9a7f2ce-f5b2-41e5-b572-5533013492a4"},"vehicle_type_id":"4","last_reported":1751123354,"current_range_meters":0,"station_id":"","pricing_plan_id":"cebpf4jnsgd1na2vs0mg"},{"bike_id":"666ef40e-8142-4330-a1bf-355f72ca0910","system_id":"levelo_inurba_marseille","lat":43.26304,"lon":5.40003,"is_reserved":false,"is_disabled":true,"rental_uris":{"android":"levelo://app?vid=666ef40e-8142-4330-a1bf-355f72ca0910","ios":"levelo://app?vid=666ef40e-8142-4330-a1bf-355f72ca0910"},"vehicle_type_id":"4","last_reported":1751123354,"current_range_meters":0,"station_id":"","pricing_plan_id":"cebpf4jnsgd1na2vs0mg"},{"bike_id":"24f3c2fe-a92a-4fa2-845a-1a05863f6e31","system_id":"levelo_inurba_marseille","lat":43.2997,"lon":5.38503,"is_reserved":false,"is_disabled":true,"rental_uris":{"android":"levelo://app?vid=24f3c2fe-a92a-4fa2-845a-1a05863f6e31","ios":"levelo://app?vid=24f3c2fe-a92a-4fa2-845a-1a05863f6e31"},"vehicle_type_id":"4","last_reported":1751123354,"current_range_meters":0,"station_id":"ce4bgj92rcd13ifvqbd0","pricing_plan_id":"cebpf4jnsgd1na2vs0mg"},{"bike_id":"11157c85-18e9-4dd9-8640-2dc58a5c587d","system_id":"levelo_inurba_marseille","lat":43.31117,"lon":5.37769,"is_reserved":false,"is_disabled":true,"rental_uris":{"android":"levelo://app?vid=11157c85-18e9-4dd9-8640-2dc58a5c587d","ios":"levelo://app?vid=11157c85-18e9-4dd9-8640-2dc58a5c587d"},"vehicle_type_id":"4","last_reported":1751123354,"current_range_meters":0,"station_id":"ce4bgt92rcd13ifvqcg0","pricing_plan_id":"cebpf4jnsgd1na2vs0mg"},{"bike_id":"a0aa7f48-2c07-453d-845a-eaeace62b973","system_id":"levelo_inurba_marseille","lat":43.31118,"lon":5.37755,"is_reserved":false,"is_disabled":true,"rental_uris":{"android":"levelo://app?vid=a0aa7f48-2c07-453d-845a-eaeace62b973","ios":"levelo://app?vid=a0aa7f48-2c07-453d-845a-eaeace62b973"},"vehicle_type_id":"4","last_reported":1751123354,"current_range_meters":0,"station_id":"ce4bgt92rcd13ifvqcg0","pricing_plan_id":"cebpf4jnsgd1na2vs0mg"},{"bike_id":"75cab988-317f-4e1a-b4c2-dbe86287d2d3","system_id":"levelo_inurba_marseille","lat":43.30154,"lon":5.39848,"is_reserved":false,"is_disabled":true,"rental_uris":{"android":"levelo://app?vid=75cab988-317f-4e1a-b4c2-dbe86287d2d3","ios":"levelo://app?vid=75cab988-317f-4e1a-b4c2-dbe86287d2d3"},"vehicle_type_id":"4","last_reported":1751123354,"current_range_meters":0,"station_id":"ce4bh0h2rcd13ifvqd40","pricing_plan_id":"cebpf4jnsgd1na2vs0mg"},{"bike_id":"286ece31-da9c-4110-aca8-625a1f0c9ef9","system_id":"levelo_inurba_marseille","lat":43.30091,"lon":5.39072,"is_reserved":false,"is_disabled":true,"rental_uris":{"android":"levelo://app?vid=286ece31-da9c-4110-aca8-625a1f0c9ef9","ios":"levelo://app?vid=286ece31-da9c-4110-aca8-625a1f0c9ef9"},"vehicle_type_id":"4","last_reported":1751123354,"current_range_meters":0,"station_id":"ce4bh192rcd13ifvqdb0","pricing_plan_id":"cebpf4jnsgd1na2vs0mg"},{"bike_id":"84451d6c-9d9a-4288-8b5a-a4516e9a102b","system_id":"levelo_inurba_marseille","lat":43.29191,"lon":5.35812,"is_reserved":false,"is_disabled":true,"rental_uris":{"android":"levelo://app?vid=84451d6c-9d9a-4288-8b5a-a4516e9a102b","ios":"levelo://app?vid=84451d6c-9d9a-4288-8b5a-a4516e9a102b"},"vehicle_type_id":"4","last_reported":1751123354,"current_range_meters":0,"station_id":"ce4bhb12rcd13ifvqel0","pricing_plan_id":"cebpf4jnsgd1na2vs0mg"},{"bike_id":"ec0fd724-bbf4-443e-b582-6b37db7c00f7","system_id":"levelo_inurba_marseille","lat":43.29282,"lon":5.36826,"is_reserved":false,"is_disabled":true,"rental_uris":{"android":"levelo://app?vid=ec0fd724-bbf4-443e-b582-6b37db7c00f7","ios":"levelo://app?vid=ec0fd724-bbf4-443e-b582-6b37db7c00f7"},"vehicle_type_id":"4","last_reported":1751123354,"current_range_meters":0,"station_id":"ce4bhbp2rcd13ifvqesg","pricing_plan_id":"cebpf4jnsgd1na2vs0mg"},{"bike_id":"1df6a594-628e-4ce2-acc8-e462d7108b29","system_id":"levelo_inurba_marseille","lat":43.27925,"lon":5.39577,"is_reserved":false,"is_disabled":true,"rental_uris":{"android":"levelo://app?vid=1df6a594-628e-4ce2-acc8-e462d7108b29","ios":"levelo://app?vid=1df6a594-628e-4ce2-acc8-e462d7108b29"},"vehicle_type_id":"4","last_reported":1751123354,"current_range_meters":0,"station_id":"ce4bhf92rcd13ifvqf40","pricing_plan_id":"cebpf4jnsgd1na2vs0mg"},{"bike_id":"38d7023a-ade7-454f-9de7-0a5e5dff2344","system_id":"levelo_inurba_marseille","lat":43.265518,"lon":5.3733,"is_reserved":false,"is_disabled":true,"rental_uris":{"android":"levelo://app?vid=38d7023a-ade7-454f-9de7-0a5e5dff2344","ios":"levelo://app?vid=38d7023a-ade7-454f-9de7-0a5e5dff2344"},"vehicle_type_id":"4","last_reported":1751123354,"current_range_meters":0,"station_id":"ce4bhg12rcd13ifvqf70","pricing_plan_id":"cebpf4jnsgd1na2vs0mg"},{"bike_id":"3374c096-efed-4320-a5cf-13db6511cf4e","system_id":"levelo_inurba_marseille","lat":43.27218,"lon":5.39165,"is_reserved":false,"is_disabled":true,"rental_uris":{"android":"levelo://app?vid=3374c096-efed-4320-a5cf-13db6511cf4e","ios":"levelo://app?vid=3374c096-efed-4320-a5cf-13db6511cf4e"},"vehicle_type_id":"4","last_reported":1751123354,"current_range_meters":0,"station_id":"ce4bhhp2rcd13ifvqfm0","pricing_plan_id":"cebpf4jnsgd1na2vs0mg"},{"bike_id":"2df312be-8bb3-4711-ae80-de06e3d5af68","system_id":"levelo_inurba_marseille","lat":43.27213,"lon":5.39173,"is_reserved":false,"is_disabled":true,"rental_uris":{"android":"levelo://app?vid=2df312be-8bb3-4711-ae80-de06e3d5af68","ios":"levelo://app?vid=2df312be-8bb3-4711-ae80-de06e3d5af68"},"vehicle_type_id":"4","last_reported":1751123354,"current_range_meters":0,"station_id":"ce4bhhp2rcd13ifvqfm0","pricing_plan_id":"cebpf4jnsgd1na2vs0mg"},{"bike_id":"340bb302-680f-4e09-b94c-7062f21d6dd4","system_id":"levelo_inurba_marseille","lat":43.23186,"lon":5.39994,"is_reserved":false,"is_disabled":true,"rental_uris":{"android":"levelo://app?vid=340bb302-680f-4e09-b94c-7062f21d6dd4","ios":"levelo://app?vid=340bb302-680f-4e09-b94c-7062f21d6dd4"},"vehicle_type_id":"4","last_reported":1751123354,"current_range_meters":0,"station_id":"ce4bhn12rcd13ifvqgqg","pricing_plan_id":"cebpf4jnsgd1na2vs0mg"},{"bike_id":"70297cd5-6baf-44f3-9341-0e1e52cbeb3e","system_id":"levelo_inurba_marseille","lat":43.28725,"lon":5.39995,"is_reserved":false,"is_disabled":true,"rental_uris":{"android":"levelo://app?vid=70297cd5-6baf-44f3-9341-0e1e52cbeb3e","ios":"levelo://app?vid=70297cd5-6baf-44f3-9341-0e1e52cbeb3e"},"vehicle_type_id":"4","last_reported":1751123354,"current_range_meters":0,"station_id":"ce4bho92rcd13ifvqh3g","pricing_plan_id":"cebpf4jnsgd1na2vs0mg"},{"bike_id":"92d3bb11-4cf3-47e6-bc0f-ff80eea58ad1","system_id":"levelo_inurba_marseille","lat":43.30387,"lon":5.42474,"is_reserved":false,"is_disabled":true,"rental_uris":{"android":"levelo://app?vid=92d3bb11-4cf3-47e6-bc0f-ff80eea58ad1","ios":"levelo://app?vid=92d3bb11-4cf3-47e6-bc0f-ff80eea58ad1"},"vehicle_type_id":"4","last_reported":1751123354,"current_range_meters":0,"station_id":"ce4bhoh2rcd13ifvqh6g","pricing_plan_id":"cebpf4jnsgd1na2vs0mg"},{"bike_id":"c8ce0351-fe68-40b1-beb5-45d8ee0eed11","system_id":"levelo_inurba_marseille","lat":43.30376,"lon":5.424867,"is_reserved":false,"is_disabled":true,"rental_uris":{"android":"levelo://app?vid=c8ce0351-fe68-40b1-beb5-45d8ee0eed11","ios":"levelo://app?vid=c8ce0351-fe68-40b1-beb5-45d8ee0eed11"},"vehicle_type_id":"4","last_reported":1751123354,"current_range_meters":0,"station_id":"ce4bhoh2rcd13ifvqh6g","pricing_plan_id":"cebpf4jnsgd1na2vs0mg"},{"bike_id":"fde70215-ce15-4258-a0bf-27a465a43a0d","system_id":"levelo_inurba_marseille","lat":43.32105,"lon":5.36791,"is_reserved":false,"is_disabled":true,"rental_uris":{"android":"levelo://app?vid=fde70215-ce15-4258-a0bf-27a465a43a0d","ios":"levelo://app?vid=fde70215-ce15-4258-a0bf-27a465a43a0d"},"vehicle_type_id":"4","last_reported":1751123354,"current_range_meters":0,"station_id":"ce4bhrh2rcd13ifvqhug","pricing_plan_id":"cebpf4jnsgd1na2vs0mg"},{"bike_id":"38d01765-5414-4f3d-b96c-a482eae367ca","system_id":"levelo_inurba_marseille","lat":43.21747,"lon":5.346,"is_reserved":false,"is_disabled":true,"rental_uris":{"android":"levelo://app?vid=38d01765-5414-4f3d-b96c-a482eae367ca","ios":"levelo://app?vid=38d01765-5414-4f3d-b96c-a482eae367ca"},"vehicle_type_id":"4","last_reported":1751123354,"current_range_meters":0,"station_id":"st_cvj6r9ubvosntc0bgbag","pricing_plan_id":"cebpf4jnsgd1na2vs0mg"},{"bike_id":"070a5204-3e73-4cf5-9fda-520c8795969f","system_id":"levelo_inurba_marseille","lat":43.21744,"lon":5.34607,"is_reserved":false,"is_disabled":true,"rental_uris":{"android":"levelo://app?vid=070a5204-3e73-4cf5-9fda-520c8795969f","ios":"levelo://app?vid=070a5204-3e73-4cf5-9fda-520c8795969f"},"vehicle_type_id":"4","last_reported":1751123354,"current_range_meters":0,"station_id":"st_cvj6r9ubvosntc0bgbag","pricing_plan_id":"cebpf4jnsgd1na2vs0mg"},{"bike_id":"f47876d7-9c85-474e-92c5-7a242e08b67c","system_id":"levelo_inurba_marseille","lat":43.30576,"lon":5.37546,"is_reserved":false,"is_disabled":true,"rental_uris":{"android":"levelo://app?vid=f47876d7-9c85-474e-92c5-7a242e08b67c","ios":"levelo://app?vid=f47876d7-9c85-474e-92c5-7a242e08b67c"},"vehicle_type_id":"4","last_reported":1751123354,"current_range_meters":400,"station_id":"","pricing_plan_id":"cebpf4jnsgd1na2vs0mg"},{"bike_id":"5b31cd5e-bfb0-4daa-8de3-0317c8d4de23","system_id":"levelo_inurba_marseille","lat":43.30547,"lon":5.36561,"is_reserved":false,"is_disabled":true,"rental_uris":{"android":"levelo://app?vid=5b31cd5e-bfb0-4daa-8de3-0317c8d4de23","ios":"levelo://app?vid=5b31cd5e-bfb0-4daa-8de3-0317c8d4de23"},"vehicle_type_id":"4","last_reported":1751123354,"current_range_meters":400,"station_id":"ce4bgs12rcd13ifvqcag","pricing_plan_id":"cebpf4jnsgd1na2vs0mg"},{"bike_id":"03c8dfca-99fa-460b-9f56-61af89594bd4","system_id":"levelo_inurba_marseille","lat":43.29257,"lon":5.40907,"is_reserved":false,"is_disabled":true,"rental_uris":{"android":"levelo://app?vid=03c8dfca-99fa-460b-9f56-61af89594bd4","ios":"levelo://app?vid=03c8dfca-99fa-460b-9f56-61af89594bd4"},"vehicle_type_id":"4","last_reported":1751123354,"current_range_meters":800,"station_id":"ce4bh192rcd13ifvqdc0","pricing_plan_id":"cebpf4jnsgd1na2vs0mg"},{"bike_id":"321b395e-089c-4bdc-86f8-27874e1fbcbf","system_id":"levelo_inurba_marseille","lat":43.28272,"lon":5.35068,"is_reserved":false,"is_disabled":true,"rental_uris":{"android":"levelo://app?vid=321b395e-089c-4bdc-86f8-27874e1fbcbf","ios":"levelo://app?vid=321b395e-089c-4bdc-86f8-27874e1fbcbf"},"vehicle_type_id":"4","last_reported":1751123354,"current_range_meters":800,"station_id":"ce4bhbp2rcd13ifvqerg","pricing_plan_id":"cebpf4jnsgd1na2vs0mg"},{"bike_id":"3bfba248-e866-4e52-8a3b-49b3d59808c1","system_id":"levelo_inurba_marseille","lat":43.28613,"lon":5.35106,"is_reserved":false,"is_disabled":true,"rental_uris":{"android":"levelo://app?vid=3bfba248-e866-4e52-8a3b-49b3d59808c1","ios":"levelo://app?vid=3bfba248-e866-4e52-8a3b-49b3d59808c1"},"vehicle_type_id":"4","last_reported":1751123354,"current_range_meters":800,"station_id":"ce4bhch2rcd13ifvqeug","pricing_plan_id":"cebpf4jnsgd1na2vs0mg"},{"bike_id":"2e4b3190-9cc9-47cf-87ca-5dc482ba5b0d","system_id":"levelo_inurba_marseille","lat":43.23149,"lon":5.43706,"is_reserved":false,"is_disabled":true,"rental_uris":{"android":"levelo://app?vid=2e4b3190-9cc9-47cf-87ca-5dc482ba5b0d","ios":"levelo://app?vid=2e4b3190-9cc9-47cf-87ca-5dc482ba5b0d"},"vehicle_type_id":"4","last_reported":1751123354,"current_range_meters":800,"station_id":"ce4bhmp2rcd13ifvqgog","pricing_plan_id":"cebpf4jnsgd1na2vs0mg"},{"bike_id":"3ed97791-4fd1-4beb-9e6b-4998740d59d9","system_id":"levelo_inurba_marseille","lat":43.271719,"lon":5.410008,"is_reserved":false,"is_disabled":true,"rental_uris":{"android":"levelo://app?vid=3ed97791-4fd1-4beb-9e6b-4998740d59d9","ios":"levelo://app?vid=3ed97791-4fd1-4beb-9e6b-4998740d59d9"},"vehicle_type_id":"4","last_reported":1751123354,"current_range_meters":1600,"station_id":"","pricing_plan_id":"cebpf4jnsgd1na2vs0mg"},{"bike_id":"5d07c5c9-0fd6-4a82-acd5-3d7d6609d9f1","system_id":"levelo_inurba_marseille","lat":43.31126,"lon":5.37756,"is_reserved":false,"is_disabled":true,"rental_uris":{"android":"levelo://app?vid=5d07c5c9-0fd6-4a82-acd5-3d7d6609d9f1","ios":"levelo://app?vid=5d07c5c9-0fd6-4a82-acd5-3d7d6609d9f1"},"vehicle_type_id":"4","last_reported":1751123354,"current_range_meters":2000,"station_id":"ce4bgt92rcd13ifvqcg0","pricing_plan_id":"cebpf4jnsgd1na2vs0mg"},{"bike_id":"f2e165ff-b7a7-43f3-87bb-6ba3852c39b6","system_id":"levelo_inurba_marseille","lat":43.25111,"lon":5.40322,"is_reserved":false,"is_disabled":true,"rental_uris":{"android":"levelo://app?vid=f2e165ff-b7a7-43f3-87bb-6ba3852c39b6","ios":"levelo://app?vid=f2e165ff-b7a7-43f3-87bb-6ba3852c39b6"},"vehicle_type_id":"4","last_reported":1751123354,"current_range_meters":2000,"station_id":"ce4bhlh2rcd13ifvqgig","pricing_plan_id":"cebpf4jnsgd1na2vs0mg"},{"bike_id":"45d43726-d5ed-4f93-a063-bdc9c3c87a61","system_id":"levelo_inurba_marseille","lat":43.24166,"lon":5.3639,"is_reserved":false,"is_disabled":true,"rental_uris":{"android":"levelo://app?vid=45d43726-d5ed-4f93-a063-bdc9c3c87a61","ios":"levelo://app?vid=45d43726-d5ed-4f93-a063-bdc9c3c87a61"},"vehicle_type_id":"4","last_reported":1751123354,"current_range_meters":2000,"station_id":"cpo36qri1sfpv3e86is0","pricing_plan_id":"cebpf4jnsgd1na2vs0mg"},{"bike_id":"416ff97f-b496-45d1-a451-5405d9d6b8ae","system_id":"levelo_inurba_marseille","lat":43.31203,"lon":5.37233,"is_reserved":false,"is_disabled":false,"rental_uris":{"android":"levelo://app?vid=416ff97f-b496-45d1-a451-5405d9d6b8ae","ios":"levelo://app?vid=416ff97f-b496-45d1-a451-5405d9d6b8ae"},"vehicle_type_id":"4","last_reported":1751123354,"current_range_meters":2800,"station_id":"","pricing_plan_id":"cebpf4jnsgd1na2vs0mg"},{"bike_id":"59e8fa50-65ff-40b1-beee-b38245ee417e","system_id":"levelo_inurba_marseille","lat":43.31688,"lon":5.40473,"is_reserved":false,"is_disabled":false,"rental_uris":{"android":"levelo://app?vid=59e8fa50-65ff-40b1-beee-b38245ee417e","ios":"levelo://app?vid=59e8fa50-65ff-40b1-beee-b38245ee417e"},"vehicle_type_id":"4","last_reported":1751123354,"current_range_meters":3200,"station_id":"ce4bh012rcd13ifvqd00","pricing_plan_id":"cebpf4jnsgd1na2vs0mg"},{"bike_id":"2fbcd197-9c72-413c-9dfd-3b142a4332bc","system_id":"levelo_inurba_marseille","lat":43.30608,"lon":5.37239,"is_reserved":false,"is_disabled":false,"rental_uris":{"android":"levelo://app?vid=2fbcd197-9c72-413c-9dfd-3b142a4332bc","ios":"levelo://app?vid=2fbcd197-9c72-413c-9dfd-3b142a4332bc"},"vehicle_type_id":"4","last_reported":1751123354,"current_range_meters":3600,"station_id":"ce4bgqh2rcd13ifvqc4g","pricing_plan_id":"cebpf4jnsgd1na2vs0mg"},{"bike_id":"38373ec1-ecd8-4d77-843c-383024d363ad","system_id":"levelo_inurba_marseille","lat":43.28157,"lon":5.42648,"is_reserved":false,"is_disabled":false,"rental_uris":{"android":"levelo://app?vid=38373ec1-ecd8-4d77-843c-383024d363ad","ios":"levelo://app?vid=38373ec1-ecd8-4d77-843c-383024d363ad"},"vehicle_type_id":"4","last_reported":1751123354,"current_range_meters":3600,"station_id":"ce4bhnh2rcd13ifvqgug","pricing_plan_id":"cebpf4jnsgd1na2vs0mg"},{"bike_id":"c807d895-684c-43c1-8ece-0e60f16e9126","system_id":"levelo_inurba_marseille","lat":43.2808,"lon":5.39665,"is_reserved":false,"is_disabled":false,"rental_uris":{"android":"levelo://app?vid=c807d895-684c-43c1-8ece-0e60f16e9126","ios":"levelo://app?vid=c807d895-684c-43c1-8ece-0e60f16e9126"},"vehicle_type_id":"4","last_reported":1751123354,"current_range_meters":3600,"station_id":"ce4bho12rcd13ifvqh2g","pricing_plan_id":"cebpf4jnsgd1na2vs0mg"},{"bike_id":"af4d7c4f-c944-421e-8f79-19ac0341bf6b","system_id":"levelo_inurba_marseille","lat":43.258638,"lon":5.39899,"is_reserved":false,"is_disabled":false,"rental_uris":{"android":"levelo://app?vid=af4d7c4f-c944-421e-8f79-19ac0341bf6b","ios":"levelo://app?vid=af4d7c4f-c944-421e-8f79-19ac0341bf6b"},"vehicle_type_id":"4","last_reported":1751123354,"current_range_meters":4000,"station_id":"","pricing_plan_id":"cebpf4jnsgd1na2vs0mg"},{"bike_id":"0d7139b6-c867-469e-9f5b-3a674c9aad78","system_id":"levelo_inurba_marseille","lat":43.28618,"lon":5.35108,"is_reserved":false,"is_disabled":false,"rental_uris":{"android":"levelo://app?vid=0d7139b6-c867-469e-9f5b-3a674c9aad78","ios":"levelo://app?vid=0d7139b6-c867-469e-9f5b-3a674c9aad78"},"vehicle_type_id":"4","last_reported":1751123354,"current_range_meters":4000,"station_id":"ce4bhch2rcd13ifvqeug","pricing_plan_id":"cebpf4jnsgd1na2vs0mg"},{"bike_id":"7f3a0d3b-3b78-477f-95a6-822ec0200f93","system_id":"levelo_inurba_marseille","lat":43.28436,"lon":5.39214,"is_reserved":false,"is_disabled":false,"rental_uris":{"android":"levelo://app?vid=7f3a0d3b-3b78-477f-95a6-822ec0200f93","ios":"levelo://app?vid=7f3a0d3b-3b78-477f-95a6-822ec0200f93"},"vehicle_type_id":"4","last_reported":1751123354,"current_range_meters":4000,"station_id":"ce4bhoh2rcd13ifvqh5g","pricing_plan_id":"cebpf4jnsgd1na2vs0mg"},{"bike_id":"0a034962-a078-4cd8-ab5c-29a2f15ac163","system_id":"levelo_inurba_marseille","lat":43.2988,"lon":5.43661,"is_reserved":false,"is_disabled":false,"rental_uris":{"android":"levelo://app?vid=0a034962-a078-4cd8-ab5c-29a2f15ac163","ios":"levelo://app?vid=0a034962-a078-4cd8-ab5c-29a2f15ac163"},"vehicle_type_id":"4","last_reported":1751123354,"current_range_meters":4000,"station_id":"ce4bhpp2rcd13ifvqhfg","pricing_plan_id":"cebpf4jnsgd1na2vs0mg"},{"bike_id":"dcea07ca-9323-4b9b-98f6-e1fc9b106559","system_id":"levelo_inurba_marseille","lat":43.30349,"lon":5.37623,"is_reserved":false,"is_disabled":false,"rental_uris":{"android":"levelo://app?vid=dcea07ca-9323-4b9b-98f6-e1fc9b106559","ios":"levelo://app?vid=dcea07ca-9323-4b9b-98f6-e1fc9b106559"},"vehicle_type_id":"4","last_reported":1751123354,"current_range_meters":4800,"station_id":"","pricing_plan_id":"cebpf4jnsgd1na2vs0mg"},{"bike_id":"4b8da722-ee9e-48a4-a5e5-3a8a10364708","system_id":"levelo_inurba_marseille","lat":43.31228,"lon":5.37816,"is_reserved":false,"is_disabled":false,"rental_uris":{"android":"levelo://app?vid=4b8da722-ee9e-48a4-a5e5-3a8a10364708","ios":"levelo://app?vid=4b8da722-ee9e-48a4-a5e5-3a8a10364708"},"vehicle_type_id":"4","last_reported":1751123354,"current_range_meters":5600,"station_id":"","pricing_plan_id":"cebpf4jnsgd1na2vs0mg"},{"bike_id":"73a03650-973e-42b0-bad4-545481e15f73","system_id":"levelo_inurba_marseille","lat":43.312394,"lon":5.39059,"is_reserved":false,"is_disabled":false,"rental_uris":{"android":"levelo://app?vid=73a03650-973e-42b0-bad4-545481e15f73","ios":"levelo://app?vid=73a03650-973e-42b0-bad4-545481e15f73"},"vehicle_type_id":"4","last_reported":1751123354,"current_range_meters":5600,"station_id":"","pricing_plan_id":"cebpf4jnsgd1na2vs0mg"},{"bike_id":"f2a7085c-ad5b-4d8b-b65b-36b380b6e51a","system_id":"levelo_inurba_marseille","lat":43.254974,"lon":5.376497,"is_reserved":false,"is_disabled":false,"rental_uris":{"android":"levelo://app?vid=f2a7085c-ad5b-4d8b-b65b-36b380b6e51a","ios":"levelo://app?vid=f2a7085c-ad5b-4d8b-b65b-36b380b6e51a"},"vehicle_type_id":"4","last_reported":1751123354,"current_range_meters":5600,"station_id":"ce4bhh12rcd13ifvqff0","pricing_plan_id":"cebpf4jnsgd1na2vs0mg"},{"bike_id":"a4881825-635e-4e77-9408-b193343f1648","system_id":"levelo_inurba_marseille","lat":43.25118,"lon":5.40324,"is_reserved":false,"is_disabled":false,"rental_uris":{"android":"levelo://app?vid=a4881825-635e-4e77-9408-b193343f1648","ios":"levelo://app?vid=a4881825-635e-4e77-9408-b193343f1648"},"vehicle_type_id":"4","last_reported":1751123354,"current_range_meters":5600,"station_id":"ce4bhlh2rcd13ifvqgig","pricing_plan_id":"cebpf4jnsgd1na2vs0mg"},{"bike_id":"3f95b2b1-e888-433d-94cf-b604900fa1b0","system_id":"levelo_inurba_marseille","lat":43.28618,"lon":5.35104,"is_reserved":false,"is_disabled":false,"rental_uris":{"android":"levelo://app?vid=3f95b2b1-e888-433d-94cf-b604900fa1b0","ios":"levelo://app?vid=3f95b2b1-e888-433d-94cf-b604900fa1b0"},"vehicle_type_id":"4","last_reported":1751123354,"current_range_meters":6000,"station_id":"ce4bhch2rcd13ifvqeug","pricing_plan_id":"cebpf4jnsgd1na2vs0mg"},{"bike_id":"b7d0d8a1-c5dd-4278-8b3b-f5786872fe32","system_id":"levelo_inurba_marseille","lat":43.32117,"lon":5.3677,"is_reserved":false,"is_disabled":false,"rental_uris":{"android":"levelo://app?vid=b7d0d8a1-c5dd-4278-8b3b-f5786872fe32","ios":"levelo://app?vid=b7d0d8a1-c5dd-4278-8b3b-f5786872fe32"},"vehicle_type_id":"4","last_reported":1751123354,"current_range_meters":6000,"station_id":"ce4bhrh2rcd13ifvqhug","pricing_plan_id":"cebpf4jnsgd1na2vs0mg"},{"bike_id":"32910c86-f40b-49bb-a1d8-aed9a66a4d81","system_id":"levelo_inurba_marseille","lat":43.25008,"lon":5.38922,"is_reserved":false,"is_disabled":false,"rental_uris":{"android":"levelo://app?vid=32910c86-f40b-49bb-a1d8-aed9a66a4d81","ios":"levelo://app?vid=32910c86-f40b-49bb-a1d8-aed9a66a4d81"},"vehicle_type_id":"4","last_reported":1751123354,"current_range_meters":6400,"station_id":"ce4bhgp2rcd13ifvqfd0","pricing_plan_id":"cebpf4jnsgd1na2vs0mg"},{"bike_id":"79ab2294-0f95-4655-a566-ae295c9fe189","system_id":"levelo_inurba_marseille","lat":43.25496,"lon":5.3765,"is_reserved":false,"is_disabled":false,"rental_uris":{"android":"levelo://app?vid=79ab2294-0f95-4655-a566-ae295c9fe189","ios":"levelo://app?vid=79ab2294-0f95-4655-a566-ae295c9fe189"},"vehicle_type_id":"4","last_reported":1751123354,"current_range_meters":6400,"station_id":"ce4bhh12rcd13ifvqff0","pricing_plan_id":"cebpf4jnsgd1na2vs0mg"},{"bike_id":"085ace82-6e58-45ff-b478-a4754992909f","system_id":"levelo_inurba_marseille","lat":43.241705,"lon":5.363864,"is_reserved":false,"is_disabled":false,"rental_uris":{"android":"levelo://app?vid=085ace82-6e58-45ff-b478-a4754992909f","ios":"levelo://app?vid=085ace82-6e58-45ff-b478-a4754992909f"},"vehicle_type_id":"4","last_reported":1751123354,"current_range_meters":6400,"station_id":"cpo36qri1sfpv3e86is0","pricing_plan_id":"cebpf4jnsgd1na2vs0mg"},{"bike_id":"d2baea8b-8565-4afb-898d-dab9cae6358b","system_id":"levelo_inurba_marseille","lat":43.241672,"lon":5.363895,"is_reserved":false,"is_disabled":false,"rental_uris":{"android":"levelo://app?vid=d2baea8b-8565-4afb-898d-dab9cae6358b","ios":"levelo://app?vid=d2baea8b-8565-4afb-898d-dab9cae6358b"},"vehicle_type_id":"4","last_reported":1751123354,"current_range_meters":6800,"station_id":"","pricing_plan_id":"cebpf4jnsgd1na2vs0mg"},{"bike_id":"c97cf55a-085c-44a0-8d57-1f5c3601e354","system_id":"levelo_inurba_marseille","lat":43.25113,"lon":5.40322,"is_reserved":false,"is_disabled":false,"rental_uris":{"android":"levelo://app?vid=c97cf55a-085c-44a0-8d57-1f5c3601e354","ios":"levelo://app?vid=c97cf55a-085c-44a0-8d57-1f5c3601e354"},"vehicle_type_id":"4","last_reported":1751123354,"current_range_meters":6800,"station_id":"ce4bhlh2rcd13ifvqgig","pricing_plan_id":"cebpf4jnsgd1na2vs0mg"},{"bike_id":"a440f2f6-8cf8-4348-9ba1-e21002a18a07","system_id":"levelo_inurba_marseille","lat":43.32085,"lon":5.36769,"is_reserved":false,"is_disabled":false,"rental_uris":{"android":"levelo://app?vid=a440f2f6-8cf8-4348-9ba1-e21002a18a07","ios":"levelo://app?vid=a440f2f6-8cf8-4348-9ba1-e21002a18a07"},"vehicle_type_id":"4","last_reported":1751123354,"current_range_meters":6800,"station_id":"ce4bhrh2rcd13ifvqhug","pricing_plan_id":"cebpf4jnsgd1na2vs0mg"},{"bike_id":"d93518a7-acea-49d1-8b1d-66917831e25a","system_id":"levelo_inurba_marseille","lat":43.28387,"lon":5.39538,"is_reserved":false,"is_disabled":false,"rental_uris":{"android":"levelo://app?vid=d93518a7-acea-49d1-8b1d-66917831e25a","ios":"levelo://app?vid=d93518a7-acea-49d1-8b1d-66917831e25a"},"vehicle_type_id":"4","last_reported":1751123354,"current_range_meters":8000,"station_id":"","pricing_plan_id":"cebpf4jnsgd1na2vs0mg"},{"bike_id":"d34b0340-e709-4c73-9929-90a67c9d7238","system_id":"levelo_inurba_marseille","lat":43.23966,"lon":5.36627,"is_reserved":false,"is_disabled":false,"rental_uris":{"android":"levelo://app?vid=d34b0340-e709-4c73-9929-90a67c9d7238","ios":"levelo://app?vid=d34b0340-e709-4c73-9929-90a67c9d7238"},"vehicle_type_id":"4","last_reported":1751123354,"current_range_meters":8000,"station_id":"ce4bhi12rcd13ifvqfp0","pricing_plan_id":"cebpf4jnsgd1na2vs0mg"},{"bike_id":"b8bb2e23-43bd-4c4e-90fb-465ddc9cc35c","system_id":"levelo_inurba_marseille","lat":43.28462,"lon":5.3588,"is_reserved":false,"is_disabled":false,"rental_uris":{"android":"levelo://app?vid=b8bb2e23-43bd-4c4e-90fb-465ddc9cc35c","ios":"levelo://app?vid=b8bb2e23-43bd-4c4e-90fb-465ddc9cc35c"},"vehicle_type_id":"4","last_reported":1751123354,"current_range_meters":8400,"station_id":"ce4bhah2rcd13ifvqei0","pricing_plan_id":"cebpf4jnsgd1na2vs0mg"},{"bike_id":"ac9e068c-7e05-4813-a335-b15a67889ef2","system_id":"levelo_inurba_marseille","lat":43.28271,"lon":5.35071,"is_reserved":false,"is_disabled":false,"rental_uris":{"android":"levelo://app?vid=ac9e068c-7e05-4813-a335-b15a67889ef2","ios":"levelo://app?vid=ac9e068c-7e05-4813-a335-b15a67889ef2"},"vehicle_type_id":"4","last_reported":1751123354,"current_range_meters":8400,"station_id":"ce4bhbp2rcd13ifvqerg","pricing_plan_id":"cebpf4jnsgd1na2vs0mg"},{"bike_id":"e56f1648-31e4-4e58-8957-140ad75b0686","system_id":"levelo_inurba_marseille","lat":43.25086,"lon":5.39528,"is_reserved":false,"is_disabled":false,"rental_uris":{"android":"levelo://app?vid=e56f1648-31e4-4e58-8957-140ad75b0686","ios":"levelo://app?vid=e56f1648-31e4-4e58-8957-140ad75b0686"},"vehicle_type_id":"4","last_reported":1751123354,"current_range_meters":8400,"station_id":"ce4bhm12rcd13ifvqgkg","pricing_plan_id":"cebpf4jnsgd1na2vs0mg"},{"bike_id":"1c8ab180-05fd-405f-9922-b2b2c2d5142f","system_id":"levelo_inurba_marseille","lat":43.32096,"lon":5.3675,"is_reserved":false,"is_disabled":false,"rental_uris":{"android":"levelo://app?vid=1c8ab180-05fd-405f-9922-b2b2c2d5142f","ios":"levelo://app?vid=1c8ab180-05fd-405f-9922-b2b2c2d5142f"},"vehicle_type_id":"4","last_reported":1751123354,"current_range_meters":8400,"station_id":"ce4bhrh2rcd13ifvqhug","pricing_plan_id":"cebpf4jnsgd1na2vs0mg"},{"bike_id":"00a880d0-1d03-4593-b2c8-de3d4e75c385","system_id":"levelo_inurba_marseille","lat":43.24805,"lon":5.37462,"is_reserved":false,"is_disabled":false,"rental_uris":{"android":"levelo://app?vid=00a880d0-1d03-4593-b2c8-de3d4e75c385","ios":"levelo://app?vid=00a880d0-1d03-4593-b2c8-de3d4e75c385"},"vehicle_type_id":"4","last_reported":1751123354,"current_range_meters":8800,"station_id":"ce4bhgh2rcd13ifvqfb0","pricing_plan_id":"cebpf4jnsgd1na2vs0mg"},{"bike_id":"03047c0b-d3f2-4299-b292-04c7da92b080","system_id":"levelo_inurba_marseille","lat":43.21195,"lon":5.35072,"is_reserved":false,"is_disabled":false,"rental_uris":{"android":"levelo://app?vid=03047c0b-d3f2-4299-b292-04c7da92b080","ios":"levelo://app?vid=03047c0b-d3f2-4299-b292-04c7da92b080"},"vehicle_type_id":"4","last_reported":1751123354,"current_range_meters":9200,"station_id":"","pricing_plan_id":"cebpf4jnsgd1na2vs0mg"},{"bike_id":"f48fdea1-2a26-4196-80fe-6c19cdd467cf","system_id":"levelo_inurba_marseille","lat":43.31084,"lon":5.42436,"is_reserved":false,"is_disabled":false,"rental_uris":{"android":"levelo://app?vid=f48fdea1-2a26-4196-80fe-6c19cdd467cf","ios":"levelo://app?vid=f48fdea1-2a26-4196-80fe-6c19cdd467cf"},"vehicle_type_id":"4","last_reported":1751123354,"current_range_meters":9200,"station_id":"ce4bhp92rcd13ifvqhag","pricing_plan_id":"cebpf4jnsgd1na2vs0mg"},{"bike_id":"a6b8dee1-fa21-496b-918d-908eb6a95ebe","system_id":"levelo_inurba_marseille","lat":43.32657,"lon":5.40985,"is_reserved":false,"is_disabled":false,"rental_uris":{"android":"levelo://app?vid=a6b8dee1-fa21-496b-918d-908eb6a95ebe","ios":"levelo://app?vid=a6b8dee1-fa21-496b-918d-908eb6a95ebe"},"vehicle_type_id":"4","last_reported":1751123354,"current_range_meters":9200,"station_id":"ce4bhpp2rcd13ifvqhgg","pricing_plan_id":"cebpf4jnsgd1na2vs0mg"},{"bike_id":"d2887453-a430-488a-8f62-6ed2416ba536","system_id":"levelo_inurba_marseille","lat":43.29196,"lon":5.35804,"is_reserved":false,"is_disabled":false,"rental_uris":{"android":"levelo://app?vid=d2887453-a430-488a-8f62-6ed2416ba536","ios":"levelo://app?vid=d2887453-a430-488a-8f62-6ed2416ba536"},"vehicle_type_id":"4","last_reported":1751123354,"current_range_meters":9600,"station_id":"ce4bhb12rcd13ifvqel0","pricing_plan_id":"cebpf4jnsgd1na2vs0mg"},{"bike_id":"0b7a1f21-edda-4e9a-907b-5b47b2ae5706","system_id":"levelo_inurba_marseille","lat":43.29276,"lon":5.36839,"is_reserved":false,"is_disabled":false,"rental_uris":{"android":"levelo://app?vid=0b7a1f21-edda-4e9a-907b-5b47b2ae5706","ios":"levelo://app?vid=0b7a1f21-edda-4e9a-907b-5b47b2ae5706"},"vehicle_type_id":"4","last_reported":1751123354,"current_range_meters":9600,"station_id":"ce4bhbp2rcd13ifvqesg","pricing_plan_id":"cebpf4jnsgd1na2vs0mg"},{"bike_id":"d5e70777-ad97-4594-91b6-43ede9611b14","system_id":"levelo_inurba_marseille","lat":43.32122,"lon":5.36775,"is_reserved":false,"is_disabled":false,"rental_uris":{"android":"levelo://app?vid=d5e70777-ad97-4594-91b6-43ede9611b14","ios":"levelo://app?vid=d5e70777-ad97-4594-91b6-43ede9611b14"},"vehicle_type_id":"4","last_reported":1751123354,"current_range_meters":9600,"station_id":"ce4bhrh2rcd13ifvqhug","pricing_plan_id":"cebpf4jnsgd1na2vs0mg"},{"bike_id":"62960455-c2dc-40bd-8878-541e26730d97","system_id":"levelo_inurba_marseille","lat":43.21746,"lon":5.3461,"is_reserved":false,"is_disabled":false,"rental_uris":{"android":"levelo://app?vid=62960455-c2dc-40bd-8878-541e26730d97","ios":"levelo://app?vid=62960455-c2dc-40bd-8878-541e26730d97"},"vehicle_type_id":"4","last_reported":1751123354,"current_range_meters":9600,"station_id":"st_cvj6r9ubvosntc0bgbag","pricing_plan_id":"cebpf4jnsgd1na2vs0mg"},{"bike_id":"7bf6117a-62a7-4ae3-a5ec-deb790f03356","system_id":"levelo_inurba_marseille","lat":43.241669,"lon":5.363931,"is_reserved":false,"is_disabled":false,"rental_uris":{"android":"levelo://app?vid=7bf6117a-62a7-4ae3-a5ec-deb790f03356","ios":"levelo://app?vid=7bf6117a-62a7-4ae3-a5ec-deb790f03356"},"vehicle_type_id":"4","last_reported":1751123354,"current_range_meters":10000,"station_id":"","pricing_plan_id":"cebpf4jnsgd1na2vs0mg"},{"bike_id":"5a5250d6-68f6-4047-a0a7-83550553e833","system_id":"levelo_inurba_marseille","lat":43.295118,"lon":5.375055,"is_reserved":false,"is_disabled":false,"rental_uris":{"android":"levelo://app?vid=5a5250d6-68f6-4047-a0a7-83550553e833","ios":"levelo://app?vid=5a5250d6-68f6-4047-a0a7-83550553e833"},"vehicle_type_id":"4","last_reported":1751123354,"current_range_meters":10000,"station_id":"ce4bgkp2rcd13ifvqbmg","pricing_plan_id":"cebpf4jnsgd1na2vs0mg"},{"bike_id":"b4121008-3b28-491e-8c98-c9326f7003f6","system_id":"levelo_inurba_marseille","lat":43.28412,"lon":5.35003,"is_reserved":false,"is_disabled":false,"rental_uris":{"android":"levelo://app?vid=b4121008-3b28-491e-8c98-c9326f7003f6","ios":"levelo://app?vid=b4121008-3b28-491e-8c98-c9326f7003f6"},"vehicle_type_id":"4","last_reported":1751123354,"current_range_meters":10000,"station_id":"ce4bhbh2rcd13ifvqepg","pricing_plan_id":"cebpf4jnsgd1na2vs0mg"},{"bike_id":"7b994d9b-2fc0-4274-bf5c-96bda9d0ecc5","system_id":"levelo_inurba_marseille","lat":43.28415,"lon":5.34981,"is_reserved":false,"is_disabled":false,"rental_uris":{"android":"levelo://app?vid=7b994d9b-2fc0-4274-bf5c-96bda9d0ecc5","ios":"levelo://app?vid=7b994d9b-2fc0-4274-bf5c-96bda9d0ecc5"},"vehicle_type_id":"4","last_reported":1751123354,"current_range_meters":10000,"station_id":"ce4bhbh2rcd13ifvqepg","pricing_plan_id":"cebpf4jnsgd1na2vs0mg"},{"bike_id":"6279adad-038a-4853-9d1f-8faeb0e1e6d6","system_id":"levelo_inurba_marseille","lat":43.25109,"lon":5.40306,"is_reserved":false,"is_disabled":false,"rental_uris":{"android":"levelo://app?vid=6279adad-038a-4853-9d1f-8faeb0e1e6d6","ios":"levelo://app?vid=6279adad-038a-4853-9d1f-8faeb0e1e6d6"},"vehicle_type_id":"4","last_reported":1751123354,"current_range_meters":10000,"station_id":"ce4bhlh2rcd13ifvqgig","pricing_plan_id":"cebpf4jnsgd1na2vs0mg"},{"bike_id":"e6ce70f7-9138-485c-a4db-2c9174614cff","system_id":"levelo_inurba_marseille","lat":43.31792,"lon":5.36847,"is_reserved":false,"is_disabled":false,"rental_uris":{"android":"levelo://app?vid=e6ce70f7-9138-485c-a4db-2c9174614cff","ios":"levelo://app?vid=e6ce70f7-9138-485c-a4db-2c9174614cff"},"vehicle_type_id":"4","last_reported":1751123354,"current_range_meters":10800,"station_id":"","pricing_plan_id":"cebpf4jnsgd1na2vs0mg"},{"bike_id":"b101ca3c-0945-4c03-aecd-cb61c372ddb7","system_id":"levelo_inurba_marseille","lat":43.32659,"lon":5.40995,"is_reserved":false,"is_disabled":false,"rental_uris":{"android":"levelo://app?vid=b101ca3c-0945-4c03-aecd-cb61c372ddb7","ios":"levelo://app?vid=b101ca3c-0945-4c03-aecd-cb61c372ddb7"},"vehicle_type_id":"4","last_reported":1751123354,"current_range_meters":10800,"station_id":"ce4bhpp2rcd13ifvqhgg","pricing_plan_id":"cebpf4jnsgd1na2vs0mg"},{"bike_id":"13726ea4-91b3-4b24-87ce-db653217d50c","system_id":"levelo_inurba_marseille","lat":43.32129,"lon":5.36772,"is_reserved":false,"is_disabled":false,"rental_uris":{"android":"levelo://app?vid=13726ea4-91b3-4b24-87ce-db653217d50c","ios":"levelo://app?vid=13726ea4-91b3-4b24-87ce-db653217d50c"},"vehicle_type_id":"4","last_reported":1751123354,"current_range_meters":10800,"station_id":"ce4bhrh2rcd13ifvqhug","pricing_plan_id":"cebpf4jnsgd1na2vs0mg"},{"bike_id":"bbc4a376-bee7-4ad5-a49a-1022d27c1489","system_id":"levelo_inurba_marseille","lat":43.32074,"lon":5.36741,"is_reserved":false,"is_disabled":false,"rental_uris":{"android":"levelo://app?vid=bbc4a376-bee7-4ad5-a49a-1022d27c1489","ios":"levelo://app?vid=bbc4a376-bee7-4ad5-a49a-1022d27c1489"},"vehicle_type_id":"4","last_reported":1751123354,"current_range_meters":10800,"station_id":"ce4bhrh2rcd13ifvqhug","pricing_plan_id":"cebpf4jnsgd1na2vs0mg"},{"bike_id":"b266b36d-c328-4691-8298-fd36d6e08d51","system_id":"levelo_inurba_marseille","lat":43.22915,"lon":5.3534,"is_reserved":false,"is_disabled":false,"rental_uris":{"android":"levelo://app?vid=b266b36d-c328-4691-8298-fd36d6e08d51","ios":"levelo://app?vid=b266b36d-c328-4691-8298-fd36d6e08d51"},"vehicle_type_id":"4","last_reported":1751123354,"current_range_meters":10800,"station_id":"cpo3532slgdg3j2ikp40","pricing_plan_id":"cebpf4jnsgd1na2vs0mg"},{"bike_id":"bafb9f53-fda3-4c1f-a761-d4353bc1d5f3","system_id":"levelo_inurba_marseille","lat":43.26567,"lon":5.39006,"is_reserved":false,"is_disabled":false,"rental_uris":{"android":"levelo://app?vid=bafb9f53-fda3-4c1f-a761-d4353bc1d5f3","ios":"levelo://app?vid=bafb9f53-fda3-4c1f-a761-d4353bc1d5f3"},"vehicle_type_id":"4","last_reported":1751123354,"current_range_meters":11200,"station_id":"ce4bhe12rcd13ifvqf30","pricing_plan_id":"cebpf4jnsgd1na2vs0mg"},{"bike_id":"3b699354-e969-4058-96b9-5229d2af8a52","system_id":"levelo_inurba_marseille","lat":43.23195,"lon":5.35558,"is_reserved":false,"is_disabled":false,"rental_uris":{"android":"levelo://app?vid=3b699354-e969-4058-96b9-5229d2af8a52","ios":"levelo://app?vid=3b699354-e969-4058-96b9-5229d2af8a52"},"vehicle_type_id":"4","last_reported":1751123354,"current_range_meters":11200,"station_id":"ce4bhu92rcd13ifvqi70","pricing_plan_id":"cebpf4jnsgd1na2vs0mg"},{"bike_id":"44b677c8-76ed-4eac-8888-58151f9d5d6e","system_id":"levelo_inurba_marseille","lat":43.31959,"lon":5.36758,"is_reserved":false,"is_disabled":false,"rental_uris":{"android":"levelo://app?vid=44b677c8-76ed-4eac-8888-58151f9d5d6e","ios":"levelo://app?vid=44b677c8-76ed-4eac-8888-58151f9d5d6e"},"vehicle_type_id":"4","last_reported":1751123354,"current_range_meters":11600,"station_id":"","pricing_plan_id":"cebpf4jnsgd1na2vs0mg"},{"bike_id":"cad703dc-3986-4ca4-8a9a-b047b42c575b","system_id":"levelo_inurba_marseille","lat":43.30886,"lon":5.39658,"is_reserved":false,"is_disabled":false,"rental_uris":{"android":"levelo://app?vid=cad703dc-3986-4ca4-8a9a-b047b42c575b","ios":"levelo://app?vid=cad703dc-3986-4ca4-8a9a-b047b42c575b"},"vehicle_type_id":"4","last_reported":1751123354,"current_range_meters":11600,"station_id":"ce4bh012rcd13ifvqcv0","pricing_plan_id":"cebpf4jnsgd1na2vs0mg"},{"bike_id":"30c0217c-1f6a-42d3-92a3-fa665e0953d8","system_id":"levelo_inurba_marseille","lat":43.28416,"lon":5.34979,"is_reserved":false,"is_disabled":false,"rental_uris":{"android":"levelo://app?vid=30c0217c-1f6a-42d3-92a3-fa665e0953d8","ios":"levelo://app?vid=30c0217c-1f6a-42d3-92a3-fa665e0953d8"},"vehicle_type_id":"4","last_reported":1751123354,"current_range_meters":11600,"station_id":"ce4bhbh2rcd13ifvqepg","pricing_plan_id":"cebpf4jnsgd1na2vs0mg"},{"bike_id":"2cbd26d7-8ccb-4bca-b892-7ed090bc3322","system_id":"levelo_inurba_marseille","lat":43.23205,"lon":5.35517,"is_reserved":false,"is_disabled":false,"rental_uris":{"android":"levelo://app?vid=2cbd26d7-8ccb-4bca-b892-7ed090bc3322","ios":"levelo://app?vid=2cbd26d7-8ccb-4bca-b892-7ed090bc3322"},"vehicle_type_id":"4","last_reported":1751123354,"current_range_meters":11600,"station_id":"ce4bhu92rcd13ifvqi70","pricing_plan_id":"cebpf4jnsgd1na2vs0mg"},{"bike_id":"8a50aac5-39f1-4536-bea7-43efb3a7f1fe","system_id":"levelo_inurba_marseille","lat":43.21742,"lon":5.34613,"is_reserved":false,"is_disabled":false,"rental_uris":{"android":"levelo://app?vid=8a50aac5-39f1-4536-bea7-43efb3a7f1fe","ios":"levelo://app?vid=8a50aac5-39f1-4536-bea7-43efb3a7f1fe"},"vehicle_type_id":"4","last_reported":1751123354,"current_range_meters":11600,"station_id":"st_cvj6r9ubvosntc0bgbag","pricing_plan_id":"cebpf4jnsgd1na2vs0mg"},{"bike_id":"46762a4b-8748-44db-8f19-3b5a75a621f4","system_id":"levelo_inurba_marseille","lat":43.27379,"lon":5.36255,"is_reserved":false,"is_disabled":false,"rental_uris":{"android":"levelo://app?vid=46762a4b-8748-44db-8f19-3b5a75a621f4","ios":"levelo://app?vid=46762a4b-8748-44db-8f19-3b5a75a621f4"},"vehicle_type_id":"4","last_reported":1751123354,"current_range_meters":12000,"station_id":"ce4bhbh2rcd13ifvqeo0","pricing_plan_id":"cebpf4jnsgd1na2vs0mg"},{"bike_id":"3b4747d9-5fb3-4b09-a2c5-dc6ab0513641","system_id":"levelo_inurba_marseille","lat":43.28416,"lon":5.34991,"is_reserved":false,"is_disabled":false,"rental_uris":{"android":"levelo://app?vid=3b4747d9-5fb3-4b09-a2c5-dc6ab0513641","ios":"levelo://app?vid=3b4747d9-5fb3-4b09-a2c5-dc6ab0513641"},"vehicle_type_id":"4","last_reported":1751123354,"current_range_meters":12000,"station_id":"ce4bhbh2rcd13ifvqepg","pricing_plan_id":"cebpf4jnsgd1na2vs0mg"},{"bike_id":"b1abe80e-0b82-4f6c-8de0-cb6a27e4b156","system_id":"levelo_inurba_marseille","lat":43.24169,"lon":5.36411,"is_reserved":false,"is_disabled":false,"rental_uris":{"android":"levelo://app?vid=b1abe80e-0b82-4f6c-8de0-cb6a27e4b156","ios":"levelo://app?vid=b1abe80e-0b82-4f6c-8de0-cb6a27e4b156"},"vehicle_type_id":"4","last_reported":1751123354,"current_range_meters":12000,"station_id":"cpo36qri1sfpv3e86is0","pricing_plan_id":"cebpf4jnsgd1na2vs0mg"},{"bike_id":"c791c2be-0055-4ac2-9858-22dc61888270","system_id":"levelo_inurba_marseille","lat":43.31701,"lon":5.37762,"is_reserved":false,"is_disabled":false,"rental_uris":{"android":"levelo://app?vid=c791c2be-0055-4ac2-9858-22dc61888270","ios":"levelo://app?vid=c791c2be-0055-4ac2-9858-22dc61888270"},"vehicle_type_id":"4","last_reported":1751123354,"current_range_meters":12400,"station_id":"ce4bgth2rcd13ifvqch0","pricing_plan_id":"cebpf4jnsgd1na2vs0mg"},{"bike_id":"e33cafd1-8c4d-4f35-aba6-5250478e97ac","system_id":"levelo_inurba_marseille","lat":43.28414,"lon":5.34994,"is_reserved":false,"is_disabled":false,"rental_uris":{"android":"levelo://app?vid=e33cafd1-8c4d-4f35-aba6-5250478e97ac","ios":"levelo://app?vid=e33cafd1-8c4d-4f35-aba6-5250478e97ac"},"vehicle_type_id":"4","last_reported":1751123354,"current_range_meters":12400,"station_id":"ce4bhbh2rcd13ifvqepg","pricing_plan_id":"cebpf4jnsgd1na2vs0mg"},{"bike_id":"a0dba401-b1cc-4426-ba9b-d31b09bd8210","system_id":"levelo_inurba_marseille","lat":43.25506,"lon":5.37656,"is_reserved":false,"is_disabled":false,"rental_uris":{"android":"levelo://app?vid=a0dba401-b1cc-4426-ba9b-d31b09bd8210","ios":"levelo://app?vid=a0dba401-b1cc-4426-ba9b-d31b09bd8210"},"vehicle_type_id":"4","last_reported":1751123354,"current_range_meters":12400,"station_id":"ce4bhh12rcd13ifvqff0","pricing_plan_id":"cebpf4jnsgd1na2vs0mg"},{"bike_id":"d74bafd1-099b-4460-b9a5-a470cc03bde1","system_id":"levelo_inurba_marseille","lat":43.26204,"lon":5.37929,"is_reserved":false,"is_disabled":false,"rental_uris":{"android":"levelo://app?vid=d74bafd1-099b-4460-b9a5-a470cc03bde1","ios":"levelo://app?vid=d74bafd1-099b-4460-b9a5-a470cc03bde1"},"vehicle_type_id":"4","last_reported":1751123354,"current_range_meters":12400,"station_id":"ce4bhjp2rcd13ifvqg90","pricing_plan_id":"cebpf4jnsgd1na2vs0mg"},{"bike_id":"476f9898-d204-453e-98a6-6b2482b0e936","system_id":"levelo_inurba_marseille","lat":43.29977,"lon":5.41299,"is_reserved":false,"is_disabled":false,"rental_uris":{"android":"levelo://app?vid=476f9898-d204-453e-98a6-6b2482b0e936","ios":"levelo://app?vid=476f9898-d204-453e-98a6-6b2482b0e936"},"vehicle_type_id":"4","last_reported":1751123354,"current_range_meters":12400,"station_id":"ce4bhp12rcd13ifvqh9g","pricing_plan_id":"cebpf4jnsgd1na2vs0mg"},{"bike_id":"cad68b02-a3df-454d-a25d-0bc2f7e60def","system_id":"levelo_inurba_marseille","lat":43.306046,"lon":5.372282,"is_reserved":false,"is_disabled":false,"rental_uris":{"android":"levelo://app?vid=cad68b02-a3df-454d-a25d-0bc2f7e60def","ios":"levelo://app?vid=cad68b02-a3df-454d-a25d-0bc2f7e60def"},"vehicle_type_id":"4","last_reported":1751123354,"current_range_meters":12800,"station_id":"ce4bgqh2rcd13ifvqc4g","pricing_plan_id":"cebpf4jnsgd1na2vs0mg"},{"bike_id":"ea248ffa-6c3b-4d9c-a6a7-0e22e3215f87","system_id":"levelo_inurba_marseille","lat":43.28618,"lon":5.35111,"is_reserved":false,"is_disabled":false,"rental_uris":{"android":"levelo://app?vid=ea248ffa-6c3b-4d9c-a6a7-0e22e3215f87","ios":"levelo://app?vid=ea248ffa-6c3b-4d9c-a6a7-0e22e3215f87"},"vehicle_type_id":"4","last_reported":1751123354,"current_range_meters":12800,"station_id":"ce4bhch2rcd13ifvqeug","pricing_plan_id":"cebpf4jnsgd1na2vs0mg"},{"bike_id":"4d2ec8f1-3c8e-4c63-9eda-e3630ad1860f","system_id":"levelo_inurba_marseille","lat":43.2439,"lon":5.37062,"is_reserved":false,"is_disabled":false,"rental_uris":{"android":"levelo://app?vid=4d2ec8f1-3c8e-4c63-9eda-e3630ad1860f","ios":"levelo://app?vid=4d2ec8f1-3c8e-4c63-9eda-e3630ad1860f"},"vehicle_type_id":"4","last_reported":1751123354,"current_range_meters":12800,"station_id":"ce4bhhh2rcd13ifvqfk0","pricing_plan_id":"cebpf4jnsgd1na2vs0mg"},{"bike_id":"32983323-0cd0-407c-af59-7a38a9d92fd7","system_id":"levelo_inurba_marseille","lat":43.23209,"lon":5.39962,"is_reserved":false,"is_disabled":false,"rental_uris":{"android":"levelo://app?vid=32983323-0cd0-407c-af59-7a38a9d92fd7","ios":"levelo://app?vid=32983323-0cd0-407c-af59-7a38a9d92fd7"},"vehicle_type_id":"4","last_reported":1751123354,"current_range_meters":12800,"station_id":"ce4bhn12rcd13ifvqgqg","pricing_plan_id":"cebpf4jnsgd1na2vs0mg"},{"bike_id":"f7d8169e-63a7-4f9e-af82-7c37c892016c","system_id":"levelo_inurba_marseille","lat":43.32044,"lon":5.41546,"is_reserved":false,"is_disabled":false,"rental_uris":{"android":"levelo://app?vid=f7d8169e-63a7-4f9e-af82-7c37c892016c","ios":"levelo://app?vid=f7d8169e-63a7-4f9e-af82-7c37c892016c"},"vehicle_type_id":"4","last_reported":1751123354,"current_range_meters":12800,"station_id":"ce4bhq92rcd13ifvqhkg","pricing_plan_id":"cebpf4jnsgd1na2vs0mg"},{"bike_id":"873ce198-d36d-4815-8778-b72bd2ca0116","system_id":"levelo_inurba_marseille","lat":43.32106,"lon":5.36823,"is_reserved":false,"is_disabled":false,"rental_uris":{"android":"levelo://app?vid=873ce198-d36d-4815-8778-b72bd2ca0116","ios":"levelo://app?vid=873ce198-d36d-4815-8778-b72bd2ca0116"},"vehicle_type_id":"4","last_reported":1751123354,"current_range_meters":12800,"station_id":"ce4bhrh2rcd13ifvqhug","pricing_plan_id":"cebpf4jnsgd1na2vs0mg"},{"bike_id":"962af267-d53f-46b3-80f5-26c7fbd343ce","system_id":"levelo_inurba_marseille","lat":43.22516,"lon":5.34776,"is_reserved":false,"is_disabled":false,"rental_uris":{"android":"levelo://app?vid=962af267-d53f-46b3-80f5-26c7fbd343ce","ios":"levelo://app?vid=962af267-d53f-46b3-80f5-26c7fbd343ce"},"vehicle_type_id":"4","last_reported":1751123354,"current_range_meters":12800,"station_id":"st_cvj5dfep6f1abm77gieg","pricing_plan_id":"cebpf4jnsgd1na2vs0mg"},{"bike_id":"db6aaebb-75a1-4c34-bf9a-52b3d4679d75","system_id":"levelo_inurba_marseille","lat":43.21744,"lon":5.34616,"is_reserved":false,"is_disabled":false,"rental_uris":{"android":"levelo://app?vid=db6aaebb-75a1-4c34-bf9a-52b3d4679d75","ios":"levelo://app?vid=db6aaebb-75a1-4c34-bf9a-52b3d4679d75"},"vehicle_type_id":"4","last_reported":1751123354,"current_range_meters":12800,"station_id":"st_cvj6r9ubvosntc0bgbag","pricing_plan_id":"cebpf4jnsgd1na2vs0mg"},{"bike_id":"13fabc0f-5bfd-4dc8-9136-84b1659cd66b","system_id":"levelo_inurba_marseille","lat":43.21195,"lon":5.35068,"is_reserved":false,"is_disabled":false,"rental_uris":{"android":"levelo://app?vid=13fabc0f-5bfd-4dc8-9136-84b1659cd66b","ios":"levelo://app?vid=13fabc0f-5bfd-4dc8-9136-84b1659cd66b"},"vehicle_type_id":"4","last_reported":1751123354,"current_range_meters":12800,"station_id":"st_cvj6sg6p6f1abm77japg","pricing_plan_id":"cebpf4jnsgd1na2vs0mg"},{"bike_id":"14e8ef37-e834-4d76-9946-e98f7a083a2f","system_id":"levelo_inurba_marseille","lat":43.21199,"lon":5.35031,"is_reserved":false,"is_disabled":false,"rental_uris":{"android":"levelo://app?vid=14e8ef37-e834-4d76-9946-e98f7a083a2f","ios":"levelo://app?vid=14e8ef37-e834-4d76-9946-e98f7a083a2f"},"vehicle_type_id":"4","last_reported":1751123354,"current_range_meters":13600,"station_id":"","pricing_plan_id":"cebpf4jnsgd1na2vs0mg"},{"bike_id":"12c7fc9f-7c7b-4185-9b2f-badd0c17e36b","system_id":"levelo_inurba_marseille","lat":43.24735,"lon":5.37452,"is_reserved":false,"is_disabled":false,"rental_uris":{"android":"levelo://app?vid=12c7fc9f-7c7b-4185-9b2f-badd0c17e36b","ios":"levelo://app?vid=12c7fc9f-7c7b-4185-9b2f-badd0c17e36b"},"vehicle_type_id":"4","last_reported":1751123354,"current_range_meters":13600,"station_id":"","pricing_plan_id":"cebpf4jnsgd1na2vs0mg"},{"bike_id":"721165c1-ef6f-40cc-8d33-af3a7999864b","system_id":"levelo_inurba_marseille","lat":43.32622,"lon":5.37889,"is_reserved":false,"is_disabled":false,"rental_uris":{"android":"levelo://app?vid=721165c1-ef6f-40cc-8d33-af3a7999864b","ios":"levelo://app?vid=721165c1-ef6f-40cc-8d33-af3a7999864b"},"vehicle_type_id":"4","last_reported":1751123354,"current_range_meters":13600,"station_id":"","pricing_plan_id":"cebpf4jnsgd1na2vs0mg"},{"bike_id":"c7067ed1-f9ee-40ab-a529-1c223a6eea73","system_id":"levelo_inurba_marseille","lat":43.28421,"lon":5.3499,"is_reserved":false,"is_disabled":false,"rental_uris":{"android":"levelo://app?vid=c7067ed1-f9ee-40ab-a529-1c223a6eea73","ios":"levelo://app?vid=c7067ed1-f9ee-40ab-a529-1c223a6eea73"},"vehicle_type_id":"4","last_reported":1751123354,"current_range_meters":13600,"station_id":"ce4bhbh2rcd13ifvqepg","pricing_plan_id":"cebpf4jnsgd1na2vs0mg"},{"bike_id":"465d715d-c466-435a-83c2-03d320454a0a","system_id":"levelo_inurba_marseille","lat":43.2841,"lon":5.3501,"is_reserved":false,"is_disabled":false,"rental_uris":{"android":"levelo://app?vid=465d715d-c466-435a-83c2-03d320454a0a","ios":"levelo://app?vid=465d715d-c466-435a-83c2-03d320454a0a"},"vehicle_type_id":"4","last_reported":1751123354,"current_range_meters":13600,"station_id":"ce4bhbh2rcd13ifvqepg","pricing_plan_id":"cebpf4jnsgd1na2vs0mg"},{"bike_id":"4aeaf653-d823-4fb0-b0d6-e6f59346d5eb","system_id":"levelo_inurba_marseille","lat":43.28945,"lon":5.36393,"is_reserved":false,"is_disabled":false,"rental_uris":{"android":"levelo://app?vid=4aeaf653-d823-4fb0-b0d6-e6f59346d5eb","ios":"levelo://app?vid=4aeaf653-d823-4fb0-b0d6-e6f59346d5eb"},"vehicle_type_id":"4","last_reported":1751123354,"current_range_meters":13600,"station_id":"ce4bhc92rcd13ifvqetg","pricing_plan_id":"cebpf4jnsgd1na2vs0mg"},{"bike_id":"60e4fa96-b645-4844-83f9-d9db16e542c5","system_id":"levelo_inurba_marseille","lat":43.28622,"lon":5.35096,"is_reserved":false,"is_disabled":false,"rental_uris":{"android":"levelo://app?vid=60e4fa96-b645-4844-83f9-d9db16e542c5","ios":"levelo://app?vid=60e4fa96-b645-4844-83f9-d9db16e542c5"},"vehicle_type_id":"4","last_reported":1751123354,"current_range_meters":13600,"station_id":"ce4bhch2rcd13ifvqeug","pricing_plan_id":"cebpf4jnsgd1na2vs0mg"},{"bike_id":"3337c17d-efd8-49a0-bc88-053185eb88e9","system_id":"levelo_inurba_marseille","lat":43.23976,"lon":5.36619,"is_reserved":false,"is_disabled":false,"rental_uris":{"android":"levelo://app?vid=3337c17d-efd8-49a0-bc88-053185eb88e9","ios":"levelo://app?vid=3337c17d-efd8-49a0-bc88-053185eb88e9"},"vehicle_type_id":"4","last_reported":1751123354,"current_range_meters":13600,"station_id":"ce4bhi12rcd13ifvqfp0","pricing_plan_id":"cebpf4jnsgd1na2vs0mg"},{"bike_id":"a7883090-0e10-4075-944b-a3cca54bc544","system_id":"levelo_inurba_marseille","lat":43.225066,"lon":5.347826,"is_reserved":false,"is_disabled":false,"rental_uris":{"android":"levelo://app?vid=a7883090-0e10-4075-944b-a3cca54bc544","ios":"levelo://app?vid=a7883090-0e10-4075-944b-a3cca54bc544"},"vehicle_type_id":"4","last_reported":1751123354,"current_range_meters":13600,"station_id":"st_cvj5dfep6f1abm77gieg","pricing_plan_id":"cebpf4jnsgd1na2vs0mg"},{"bike_id":"f968d202-80a8-4878-9694-a88c6aa70c2e","system_id":"levelo_inurba_marseille","lat":43.28372,"lon":5.38622,"is_reserved":false,"is_disabled":false,"rental_uris":{"android":"levelo://app?vid=f968d202-80a8-4878-9694-a88c6aa70c2e","ios":"levelo://app?vid=f968d202-80a8-4878-9694-a88c6aa70c2e"},"vehicle_type_id":"4","last_reported":1751123354,"current_range_meters":14000,"station_id":"ce4bh492rcd13ifvqdvg","pricing_plan_id":"cebpf4jnsgd1na2vs0mg"},{"bike_id":"762acdc5-9b99-47a0-bda1-ee8060271245","system_id":"levelo_inurba_marseille","lat":43.21181,"lon":5.35078,"is_reserved":false,"is_disabled":false,"rental_uris":{"android":"levelo://app?vid=762acdc5-9b99-47a0-bda1-ee8060271245","ios":"levelo://app?vid=762acdc5-9b99-47a0-bda1-ee8060271245"},"vehicle_type_id":"4","last_reported":1751123354,"current_range_meters":14400,"station_id":"","pricing_plan_id":"cebpf4jnsgd1na2vs0mg"},{"bike_id":"0ca717a1-45d0-467a-befd-9d85a9b7f044","system_id":"levelo_inurba_marseille","lat":43.30305,"lon":5.40103,"is_reserved":false,"is_disabled":false,"rental_uris":{"android":"levelo://app?vid=0ca717a1-45d0-467a-befd-9d85a9b7f044","ios":"levelo://app?vid=0ca717a1-45d0-467a-befd-9d85a9b7f044"},"vehicle_type_id":"4","last_reported":1751123354,"current_range_meters":14400,"station_id":"ce4bgvh2rcd13ifvqcs0","pricing_plan_id":"cebpf4jnsgd1na2vs0mg"},{"bike_id":"772bba56-e5c2-435c-82ef-5a2ba48431dd","system_id":"levelo_inurba_marseille","lat":43.25488,"lon":5.37641,"is_reserved":false,"is_disabled":false,"rental_uris":{"android":"levelo://app?vid=772bba56-e5c2-435c-82ef-5a2ba48431dd","ios":"levelo://app?vid=772bba56-e5c2-435c-82ef-5a2ba48431dd"},"vehicle_type_id":"4","last_reported":1751123354,"current_range_meters":14400,"station_id":"ce4bhh12rcd13ifvqff0","pricing_plan_id":"cebpf4jnsgd1na2vs0mg"},{"bike_id":"52f9100a-34c4-414d-abb5-d5c6bbbda80c","system_id":"levelo_inurba_marseille","lat":43.269413,"lon":5.402591,"is_reserved":false,"is_disabled":false,"rental_uris":{"android":"levelo://app?vid=52f9100a-34c4-414d-abb5-d5c6bbbda80c","ios":"levelo://app?vid=52f9100a-34c4-414d-abb5-d5c6bbbda80c"},"vehicle_type_id":"4","last_reported":1751123354,"current_range_meters":14400,"station_id":"cjm6bp8fraef2m0cb0m0","pricing_plan_id":"cebpf4jnsgd1na2vs0mg"},{"bike_id":"2c1659bc-e9af-44a2-a225-8d246b50e7d4","system_id":"levelo_inurba_marseille","lat":43.23068,"lon":5.35489,"is_reserved":false,"is_disabled":false,"rental_uris":{"android":"levelo://app?vid=2c1659bc-e9af-44a2-a225-8d246b50e7d4","ios":"levelo://app?vid=2c1659bc-e9af-44a2-a225-8d246b50e7d4"},"vehicle_type_id":"4","last_reported":1751123354,"current_range_meters":14400,"station_id":"cpo3342slgdg3j2ifvpg","pricing_plan_id":"cebpf4jnsgd1na2vs0mg"},{"bike_id":"964ceafc-a17f-4b98-a26e-079e76227c48","system_id":"levelo_inurba_marseille","lat":43.24166,"lon":5.36398,"is_reserved":false,"is_disabled":false,"rental_uris":{"android":"levelo://app?vid=964ceafc-a17f-4b98-a26e-079e76227c48","ios":"levelo://app?vid=964ceafc-a17f-4b98-a26e-079e76227c48"},"vehicle_type_id":"4","last_reported":1751123354,"current_range_meters":14400,"station_id":"cpo36qri1sfpv3e86is0","pricing_plan_id":"cebpf4jnsgd1na2vs0mg"},{"bike_id":"f0057ca2-de2d-4464-8902-068dc3677e00","system_id":"levelo_inurba_marseille","lat":43.21173,"lon":5.35056,"is_reserved":false,"is_disabled":false,"rental_uris":{"android":"levelo://app?vid=f0057ca2-de2d-4464-8902-068dc3677e00","ios":"levelo://app?vid=f0057ca2-de2d-4464-8902-068dc3677e00"},"vehicle_type_id":"4","last_reported":1751123354,"current_range_meters":14400,"station_id":"st_cvj6sg6p6f1abm77japg","pricing_plan_id":"cebpf4jnsgd1na2vs0mg"},{"bike_id":"802b2630-8376-4119-a81f-42e77fef6b85","system_id":"levelo_inurba_marseille","lat":43.28432,"lon":5.34998,"is_reserved":false,"is_disabled":false,"rental_uris":{"android":"levelo://app?vid=802b2630-8376-4119-a81f-42e77fef6b85","ios":"levelo://app?vid=802b2630-8376-4119-a81f-42e77fef6b85"},"vehicle_type_id":"4","last_reported":1751123354,"current_range_meters":14800,"station_id":"ce4bhbh2rcd13ifvqepg","pricing_plan_id":"cebpf4jnsgd1na2vs0mg"},{"bike_id":"1c65bfc3-ae68-44a0-8cca-6287af1d3354","system_id":"levelo_inurba_marseille","lat":43.26554,"lon":5.37283,"is_reserved":false,"is_disabled":false,"rental_uris":{"android":"levelo://app?vid=1c65bfc3-ae68-44a0-8cca-6287af1d3354","ios":"levelo://app?vid=1c65bfc3-ae68-44a0-8cca-6287af1d3354"},"vehicle_type_id":"4","last_reported":1751123354,"current_range_meters":14800,"station_id":"ce4bhg12rcd13ifvqf70","pricing_plan_id":"cebpf4jnsgd1na2vs0mg"},{"bike_id":"6af79a00-84aa-4908-a347-34425e08c383","system_id":"levelo_inurba_marseille","lat":43.30251,"lon":5.37605,"is_reserved":false,"is_disabled":false,"rental_uris":{"android":"levelo://app?vid=6af79a00-84aa-4908-a347-34425e08c383","ios":"levelo://app?vid=6af79a00-84aa-4908-a347-34425e08c383"},"vehicle_type_id":"4","last_reported":1751123354,"current_range_meters":15200,"station_id":"","pricing_plan_id":"cebpf4jnsgd1na2vs0mg"},{"bike_id":"ca19068c-dc7b-4333-a697-6b700804156d","system_id":"levelo_inurba_marseille","lat":43.30132,"lon":5.38781,"is_reserved":false,"is_disabled":false,"rental_uris":{"android":"levelo://app?vid=ca19068c-dc7b-4333-a697-6b700804156d","ios":"levelo://app?vid=ca19068c-dc7b-4333-a697-6b700804156d"},"vehicle_type_id":"4","last_reported":1751123354,"current_range_meters":15200,"station_id":"ce4bghh2rcd13ifvqb60","pricing_plan_id":"cebpf4jnsgd1na2vs0mg"},{"bike_id":"c4e23027-fb76-4e12-a17a-e866f2d0c4a5","system_id":"levelo_inurba_marseille","lat":43.26054,"lon":5.37535,"is_reserved":false,"is_disabled":false,"rental_uris":{"android":"levelo://app?vid=c4e23027-fb76-4e12-a17a-e866f2d0c4a5","ios":"levelo://app?vid=c4e23027-fb76-4e12-a17a-e866f2d0c4a5"},"vehicle_type_id":"4","last_reported":1751123354,"current_range_meters":15200,"station_id":"ce4bhgh2rcd13ifvqfa0","pricing_plan_id":"cebpf4jnsgd1na2vs0mg"},{"bike_id":"91b65e10-0e4e-418a-bcf7-105b8872a5de","system_id":"levelo_inurba_marseille","lat":43.22934,"lon":5.35384,"is_reserved":false,"is_disabled":false,"rental_uris":{"android":"levelo://app?vid=91b65e10-0e4e-418a-bcf7-105b8872a5de","ios":"levelo://app?vid=91b65e10-0e4e-418a-bcf7-105b8872a5de"},"vehicle_type_id":"4","last_reported":1751123354,"current_range_meters":15200,"station_id":"cpo3532slgdg3j2ikp40","pricing_plan_id":"cebpf4jnsgd1na2vs0mg"},{"bike_id":"88b8ee42-d548-4bef-bb1f-1707daa9f46c","system_id":"levelo_inurba_marseille","lat":43.29271,"lon":5.37627,"is_reserved":false,"is_disabled":false,"rental_uris":{"android":"levelo://app?vid=88b8ee42-d548-4bef-bb1f-1707daa9f46c","ios":"levelo://app?vid=88b8ee42-d548-4bef-bb1f-1707daa9f46c"},"vehicle_type_id":"4","last_reported":1751123354,"current_range_meters":16000,"station_id":"ce4bgi12rcd13ifvqb80","pricing_plan_id":"cebpf4jnsgd1na2vs0mg"},{"bike_id":"9a721d67-8eef-475d-96f7-78188a5b0787","system_id":"levelo_inurba_marseille","lat":43.284087,"lon":5.349987,"is_reserved":false,"is_disabled":false,"rental_uris":{"android":"levelo://app?vid=9a721d67-8eef-475d-96f7-78188a5b0787","ios":"levelo://app?vid=9a721d67-8eef-475d-96f7-78188a5b0787"},"vehicle_type_id":"4","last_reported":1751123354,"current_range_meters":16000,"station_id":"ce4bhbh2rcd13ifvqepg","pricing_plan_id":"cebpf4jnsgd1na2vs0mg"},{"bike_id":"b15719eb-c574-4ddf-901f-326f2f01a26c","system_id":"levelo_inurba_marseille","lat":43.28264,"lon":5.35066,"is_reserved":false,"is_disabled":false,"rental_uris":{"android":"levelo://app?vid=b15719eb-c574-4ddf-901f-326f2f01a26c","ios":"levelo://app?vid=b15719eb-c574-4ddf-901f-326f2f01a26c"},"vehicle_type_id":"4","last_reported":1751123354,"current_range_meters":16000,"station_id":"ce4bhbp2rcd13ifvqerg","pricing_plan_id":"cebpf4jnsgd1na2vs0mg"},{"bike_id":"b67c76c7-916b-4bba-a6a1-cdc3633ae261","system_id":"levelo_inurba_marseille","lat":43.29277,"lon":5.36843,"is_reserved":false,"is_disabled":false,"rental_uris":{"android":"levelo://app?vid=b67c76c7-916b-4bba-a6a1-cdc3633ae261","ios":"levelo://app?vid=b67c76c7-916b-4bba-a6a1-cdc3633ae261"},"vehicle_type_id":"4","last_reported":1751123354,"current_range_meters":16000,"station_id":"ce4bhbp2rcd13ifvqesg","pricing_plan_id":"cebpf4jnsgd1na2vs0mg"},{"bike_id":"7025df18-330e-42a4-bc8d-a4cf9b4b300e","system_id":"levelo_inurba_marseille","lat":43.24794,"lon":5.37428,"is_reserved":false,"is_disabled":false,"rental_uris":{"android":"levelo://app?vid=7025df18-330e-42a4-bc8d-a4cf9b4b300e","ios":"levelo://app?vid=7025df18-330e-42a4-bc8d-a4cf9b4b300e"},"vehicle_type_id":"4","last_reported":1751123354,"current_range_meters":16000,"station_id":"ce4bhgh2rcd13ifvqfb0","pricing_plan_id":"cebpf4jnsgd1na2vs0mg"},{"bike_id":"f810be2a-3c00-446f-9ba1-1f3840ce349d","system_id":"levelo_inurba_marseille","lat":43.32111,"lon":5.36773,"is_reserved":false,"is_disabled":false,"rental_uris":{"android":"levelo://app?vid=f810be2a-3c00-446f-9ba1-1f3840ce349d","ios":"levelo://app?vid=f810be2a-3c00-446f-9ba1-1f3840ce349d"},"vehicle_type_id":"4","last_reported":1751123354,"current_range_meters":16000,"station_id":"ce4bhrh2rcd13ifvqhug","pricing_plan_id":"cebpf4jnsgd1na2vs0mg"},{"bike_id":"2a9a5366-8dad-42f1-bee6-ffb042c54776","system_id":"levelo_inurba_marseille","lat":43.21192,"lon":5.3507,"is_reserved":false,"is_disabled":false,"rental_uris":{"android":"levelo://app?vid=2a9a5366-8dad-42f1-bee6-ffb042c54776","ios":"levelo://app?vid=2a9a5366-8dad-42f1-bee6-ffb042c54776"},"vehicle_type_id":"4","last_reported":1751123354,"current_range_meters":16000,"station_id":"st_cvj6sg6p6f1abm77japg","pricing_plan_id":"cebpf4jnsgd1na2vs0mg"},{"bike_id":"e5e9e78b-4730-43b1-8651-5c571c638bbb","system_id":"levelo_inurba_marseille","lat":43.21187,"lon":5.35055,"is_reserved":false,"is_disabled":false,"rental_uris":{"android":"levelo://app?vid=e5e9e78b-4730-43b1-8651-5c571c638bbb","ios":"levelo://app?vid=e5e9e78b-4730-43b1-8651-5c571c638bbb"},"vehicle_type_id":"4","last_reported":1751123354,"current_range_meters":16000,"station_id":"st_cvj6sg6p6f1abm77japg","pricing_plan_id":"cebpf4jnsgd1na2vs0mg"},{"bike_id":"4f7da216-f811-4c57-9e64-cdee7467bddd","system_id":"levelo_inurba_marseille","lat":43.225108,"lon":5.347871,"is_reserved":false,"is_disabled":false,"rental_uris":{"android":"levelo://app?vid=4f7da216-f811-4c57-9e64-cdee7467bddd","ios":"levelo://app?vid=4f7da216-f811-4c57-9e64-cdee7467bddd"},"vehicle_type_id":"4","last_reported":1751123354,"current_range_meters":16400,"station_id":"","pricing_plan_id":"cebpf4jnsgd1na2vs0mg"},{"bike_id":"2db90f96-ae81-4c0c-a3e2-f663811f240a","system_id":"levelo_inurba_marseille","lat":43.28861,"lon":5.3931,"is_reserved":false,"is_disabled":false,"rental_uris":{"android":"levelo://app?vid=2db90f96-ae81-4c0c-a3e2-f663811f240a","ios":"levelo://app?vid=2db90f96-ae81-4c0c-a3e2-f663811f240a"},"vehicle_type_id":"4","last_reported":1751123354,"current_range_meters":16400,"station_id":"ce4bh2p2rcd13ifvqdi0","pricing_plan_id":"cebpf4jnsgd1na2vs0mg"},{"bike_id":"86ca2c09-239c-4691-b6c8-16a4b4c7926e","system_id":"levelo_inurba_marseille","lat":43.3171,"lon":5.43705,"is_reserved":false,"is_disabled":false,"rental_uris":{"android":"levelo://app?vid=86ca2c09-239c-4691-b6c8-16a4b4c7926e","ios":"levelo://app?vid=86ca2c09-239c-4691-b6c8-16a4b4c7926e"},"vehicle_type_id":"4","last_reported":1751123354,"current_range_meters":16400,"station_id":"ce4bhp92rcd13ifvqhcg","pricing_plan_id":"cebpf4jnsgd1na2vs0mg"},{"bike_id":"9660d42f-62ac-4258-8a45-8063dd7e7505","system_id":"levelo_inurba_marseille","lat":43.225057,"lon":5.347846,"is_reserved":false,"is_disabled":false,"rental_uris":{"android":"levelo://app?vid=9660d42f-62ac-4258-8a45-8063dd7e7505","ios":"levelo://app?vid=9660d42f-62ac-4258-8a45-8063dd7e7505"},"vehicle_type_id":"4","last_reported":1751123354,"current_range_meters":16400,"station_id":"st_cvj5dfep6f1abm77gieg","pricing_plan_id":"cebpf4jnsgd1na2vs0mg"},{"bike_id":"c0a2de0a-20e3-4e62-848e-f0dbd6b2e588","system_id":"levelo_inurba_marseille","lat":43.225,"lon":5.34795,"is_reserved":false,"is_disabled":false,"rental_uris":{"android":"levelo://app?vid=c0a2de0a-20e3-4e62-848e-f0dbd6b2e588","ios":"levelo://app?vid=c0a2de0a-20e3-4e62-848e-f0dbd6b2e588"},"vehicle_type_id":"4","last_reported":1751123354,"current_range_meters":16400,"station_id":"st_cvj5dfep6f1abm77gieg","pricing_plan_id":"cebpf4jnsgd1na2vs0mg"},{"bike_id":"d308c658-b19c-49c0-8014-5506ff26f69a","system_id":"levelo_inurba_marseille","lat":43.23072,"lon":5.40496,"is_reserved":false,"is_disabled":false,"rental_uris":{"android":"levelo://app?vid=d308c658-b19c-49c0-8014-5506ff26f69a","ios":"levelo://app?vid=d308c658-b19c-49c0-8014-5506ff26f69a"},"vehicle_type_id":"4","last_reported":1751123354,"current_range_meters":16800,"station_id":"","pricing_plan_id":"cebpf4jnsgd1na2vs0mg"},{"bike_id":"3a75f00f-da7e-4c4b-9146-8b409ba68115","system_id":"levelo_inurba_marseille","lat":43.3124,"lon":5.36869,"is_reserved":false,"is_disabled":false,"rental_uris":{"android":"levelo://app?vid=3a75f00f-da7e-4c4b-9146-8b409ba68115","ios":"levelo://app?vid=3a75f00f-da7e-4c4b-9146-8b409ba68115"},"vehicle_type_id":"4","last_reported":1751123354,"current_range_meters":16800,"station_id":"ce4bgl92rcd13ifvqbq0","pricing_plan_id":"cebpf4jnsgd1na2vs0mg"},{"bike_id":"910652eb-a9d3-4ea9-95a8-4aadc7afb032","system_id":"levelo_inurba_marseille","lat":43.2843,"lon":5.34998,"is_reserved":false,"is_disabled":false,"rental_uris":{"android":"levelo://app?vid=910652eb-a9d3-4ea9-95a8-4aadc7afb032","ios":"levelo://app?vid=910652eb-a9d3-4ea9-95a8-4aadc7afb032"},"vehicle_type_id":"4","last_reported":1751123354,"current_range_meters":16800,"station_id":"ce4bhbh2rcd13ifvqepg","pricing_plan_id":"cebpf4jnsgd1na2vs0mg"},{"bike_id":"2d64210f-bc56-457a-9e63-d4602ac1eb88","system_id":"levelo_inurba_marseille","lat":43.26225,"lon":5.37451,"is_reserved":false,"is_disabled":false,"rental_uris":{"android":"levelo://app?vid=2d64210f-bc56-457a-9e63-d4602ac1eb88","ios":"levelo://app?vid=2d64210f-bc56-457a-9e63-d4602ac1eb88"},"vehicle_type_id":"4","last_reported":1751123354,"current_range_meters":16800,"station_id":"ce4bhgp2rcd13ifvqfc0","pricing_plan_id":"cebpf4jnsgd1na2vs0mg"},{"bike_id":"e3b267d0-a453-4d41-b0e7-28ba57344ba5","system_id":"levelo_inurba_marseille","lat":43.24166,"lon":5.36391,"is_reserved":false,"is_disabled":false,"rental_uris":{"android":"levelo://app?vid=e3b267d0-a453-4d41-b0e7-28ba57344ba5","ios":"levelo://app?vid=e3b267d0-a453-4d41-b0e7-28ba57344ba5"},"vehicle_type_id":"4","last_reported":1751123354,"current_range_meters":16800,"station_id":"cpo36qri1sfpv3e86is0","pricing_plan_id":"cebpf4jnsgd1na2vs0mg"},{"bike_id":"5d5e13a4-10cc-485c-a362-06d02242e666","system_id":"levelo_inurba_marseille","lat":43.21182,"lon":5.35064,"is_reserved":false,"is_disabled":false,"rental_uris":{"android":"levelo://app?vid=5d5e13a4-10cc-485c-a362-06d02242e666","ios":"levelo://app?vid=5d5e13a4-10cc-485c-a362-06d02242e666"},"vehicle_type_id":"4","last_reported":1751123354,"current_range_meters":16800,"station_id":"st_cvj6sg6p6f1abm77japg","pricing_plan_id":"cebpf4jnsgd1na2vs0mg"},{"bike_id":"b13877a6-4825-4d82-b46b-67fa8ad66c5d","system_id":"levelo_inurba_marseille","lat":43.21193,"lon":5.35061,"is_reserved":false,"is_disabled":false,"rental_uris":{"android":"levelo://app?vid=b13877a6-4825-4d82-b46b-67fa8ad66c5d","ios":"levelo://app?vid=b13877a6-4825-4d82-b46b-67fa8ad66c5d"},"vehicle_type_id":"4","last_reported":1751123354,"current_range_meters":16800,"station_id":"st_cvj6sg6p6f1abm77japg","pricing_plan_id":"cebpf4jnsgd1na2vs0mg"},{"bike_id":"735fb3ec-51d3-42a0-b0e0-35a6ef148211","system_id":"levelo_inurba_marseille","lat":43.31284,"lon":5.37302,"is_reserved":false,"is_disabled":false,"rental_uris":{"android":"levelo://app?vid=735fb3ec-51d3-42a0-b0e0-35a6ef148211","ios":"levelo://app?vid=735fb3ec-51d3-42a0-b0e0-35a6ef148211"},"vehicle_type_id":"4","last_reported":1751123354,"current_range_meters":17200,"station_id":"","pricing_plan_id":"cebpf4jnsgd1na2vs0mg"},{"bike_id":"b40f44c5-a3f7-4166-867f-9d460fa5082a","system_id":"levelo_inurba_marseille","lat":43.30523,"lon":5.36536,"is_reserved":false,"is_disabled":false,"rental_uris":{"android":"levelo://app?vid=b40f44c5-a3f7-4166-867f-9d460fa5082a","ios":"levelo://app?vid=b40f44c5-a3f7-4166-867f-9d460fa5082a"},"vehicle_type_id":"4","last_reported":1751123354,"current_range_meters":17200,"station_id":"ce4bgs12rcd13ifvqcag","pricing_plan_id":"cebpf4jnsgd1na2vs0mg"},{"bike_id":"d12a7f98-cb1f-4dc2-ac56-844b9ebb3f0a","system_id":"levelo_inurba_marseille","lat":43.30143,"lon":5.37415,"is_reserved":false,"is_disabled":false,"rental_uris":{"android":"levelo://app?vid=d12a7f98-cb1f-4dc2-ac56-844b9ebb3f0a","ios":"levelo://app?vid=d12a7f98-cb1f-4dc2-ac56-844b9ebb3f0a"},"vehicle_type_id":"4","last_reported":1751123354,"current_range_meters":17200,"station_id":"ce4bgs92rcd13ifvqcc0","pricing_plan_id":"cebpf4jnsgd1na2vs0mg"},{"bike_id":"9e26d216-5bdb-4392-81ba-41dd859112d6","system_id":"levelo_inurba_marseille","lat":43.31332,"lon":5.39707,"is_reserved":false,"is_disabled":false,"rental_uris":{"android":"levelo://app?vid=9e26d216-5bdb-4392-81ba-41dd859112d6","ios":"levelo://app?vid=9e26d216-5bdb-4392-81ba-41dd859112d6"},"vehicle_type_id":"4","last_reported":1751123354,"current_range_meters":17200,"station_id":"ce4bgvp2rcd13ifvqcu0","pricing_plan_id":"cebpf4jnsgd1na2vs0mg"},{"bike_id":"908cd11d-d19a-40a4-a488-254614ce5263","system_id":"levelo_inurba_marseille","lat":43.23059,"lon":5.35495,"is_reserved":false,"is_disabled":false,"rental_uris":{"android":"levelo://app?vid=908cd11d-d19a-40a4-a488-254614ce5263","ios":"levelo://app?vid=908cd11d-d19a-40a4-a488-254614ce5263"},"vehicle_type_id":"4","last_reported":1751123354,"current_range_meters":17200,"station_id":"cpo3342slgdg3j2ifvpg","pricing_plan_id":"cebpf4jnsgd1na2vs0mg"},{"bike_id":"e5e3cd02-05df-4eb6-ae19-0375beaace7c","system_id":"levelo_inurba_marseille","lat":43.24171,"lon":5.36404,"is_reserved":false,"is_disabled":false,"rental_uris":{"android":"levelo://app?vid=e5e3cd02-05df-4eb6-ae19-0375beaace7c","ios":"levelo://app?vid=e5e3cd02-05df-4eb6-ae19-0375beaace7c"},"vehicle_type_id":"4","last_reported":1751123354,"current_range_meters":17200,"station_id":"cpo36qri1sfpv3e86is0","pricing_plan_id":"cebpf4jnsgd1na2vs0mg"},{"bike_id":"aff4423e-c2af-4b70-b9bd-2bdc17fafffc","system_id":"levelo_inurba_marseille","lat":43.24162,"lon":5.36392,"is_reserved":false,"is_disabled":false,"rental_uris":{"android":"levelo://app?vid=aff4423e-c2af-4b70-b9bd-2bdc17fafffc","ios":"levelo://app?vid=aff4423e-c2af-4b70-b9bd-2bdc17fafffc"},"vehicle_type_id":"4","last_reported":1751123354,"current_range_meters":17200,"station_id":"cpo36qri1sfpv3e86is0","pricing_plan_id":"cebpf4jnsgd1na2vs0mg"},{"bike_id":"9063a283-04e6-416a-b7fe-b3ed16db32dd","system_id":"levelo_inurba_marseille","lat":43.21204,"lon":5.3508,"is_reserved":false,"is_disabled":false,"rental_uris":{"android":"levelo://app?vid=9063a283-04e6-416a-b7fe-b3ed16db32dd","ios":"levelo://app?vid=9063a283-04e6-416a-b7fe-b3ed16db32dd"},"vehicle_type_id":"4","last_reported":1751123354,"current_range_meters":17200,"station_id":"st_cvj6sg6p6f1abm77japg","pricing_plan_id":"cebpf4jnsgd1na2vs0mg"},{"bike_id":"66abb35b-0e37-4ddd-bf66-70dc62e8f63c","system_id":"levelo_inurba_marseille","lat":43.22851,"lon":5.35132,"is_reserved":false,"is_disabled":false,"rental_uris":{"android":"levelo://app?vid=66abb35b-0e37-4ddd-bf66-70dc62e8f63c","ios":"levelo://app?vid=66abb35b-0e37-4ddd-bf66-70dc62e8f63c"},"vehicle_type_id":"4","last_reported":1751123354,"current_range_meters":17600,"station_id":"","pricing_plan_id":"cebpf4jnsgd1na2vs0mg"},{"bike_id":"70273705-0512-4b12-b8c8-41029d1b123c","system_id":"levelo_inurba_marseille","lat":43.30365,"lon":5.36793,"is_reserved":false,"is_disabled":false,"rental_uris":{"android":"levelo://app?vid=70273705-0512-4b12-b8c8-41029d1b123c","ios":"levelo://app?vid=70273705-0512-4b12-b8c8-41029d1b123c"},"vehicle_type_id":"4","last_reported":1751123354,"current_range_meters":17600,"station_id":"","pricing_plan_id":"cebpf4jnsgd1na2vs0mg"},{"bike_id":"c595d0e1-c778-4abe-9c79-a9dd74f54e27","system_id":"levelo_inurba_marseille","lat":43.24452,"lon":5.37247,"is_reserved":false,"is_disabled":false,"rental_uris":{"android":"levelo://app?vid=c595d0e1-c778-4abe-9c79-a9dd74f54e27","ios":"levelo://app?vid=c595d0e1-c778-4abe-9c79-a9dd74f54e27"},"vehicle_type_id":"4","last_reported":1751123354,"current_range_meters":17600,"station_id":"","pricing_plan_id":"cebpf4jnsgd1na2vs0mg"},{"bike_id":"07ca4d32-f8d4-4205-8a35-c7ff63def9dc","system_id":"levelo_inurba_marseille","lat":43.225078,"lon":5.347877,"is_reserved":false,"is_disabled":false,"rental_uris":{"android":"levelo://app?vid=07ca4d32-f8d4-4205-8a35-c7ff63def9dc","ios":"levelo://app?vid=07ca4d32-f8d4-4205-8a35-c7ff63def9dc"},"vehicle_type_id":"4","last_reported":1751123354,"current_range_meters":17600,"station_id":"","pricing_plan_id":"cebpf4jnsgd1na2vs0mg"},{"bike_id":"27826b8d-873d-44dc-85a8-9d89bfb9511a","system_id":"levelo_inurba_marseille","lat":43.28266,"lon":5.35077,"is_reserved":false,"is_disabled":false,"rental_uris":{"android":"levelo://app?vid=27826b8d-873d-44dc-85a8-9d89bfb9511a","ios":"levelo://app?vid=27826b8d-873d-44dc-85a8-9d89bfb9511a"},"vehicle_type_id":"4","last_reported":1751123354,"current_range_meters":17600,"station_id":"ce4bhbp2rcd13ifvqerg","pricing_plan_id":"cebpf4jnsgd1na2vs0mg"},{"bike_id":"ebb4429a-5f0a-4a79-8af3-b27bee1db28b","system_id":"levelo_inurba_marseille","lat":43.25504,"lon":5.37661,"is_reserved":false,"is_disabled":false,"rental_uris":{"android":"levelo://app?vid=ebb4429a-5f0a-4a79-8af3-b27bee1db28b","ios":"levelo://app?vid=ebb4429a-5f0a-4a79-8af3-b27bee1db28b"},"vehicle_type_id":"4","last_reported":1751123354,"current_range_meters":17600,"station_id":"ce4bhh12rcd13ifvqff0","pricing_plan_id":"cebpf4jnsgd1na2vs0mg"},{"bike_id":"355d4b22-51d0-4a90-ac3d-ae3e504bdd4d","system_id":"levelo_inurba_marseille","lat":43.29808,"lon":5.38109,"is_reserved":false,"is_disabled":false,"rental_uris":{"android":"levelo://app?vid=355d4b22-51d0-4a90-ac3d-ae3e504bdd4d","ios":"levelo://app?vid=355d4b22-51d0-4a90-ac3d-ae3e504bdd4d"},"vehicle_type_id":"4","last_reported":1751123354,"current_range_meters":18000,"station_id":"ce4bgip2rcd13ifvqbb0","pricing_plan_id":"cebpf4jnsgd1na2vs0mg"},{"bike_id":"b18670cb-dfc0-44c9-9f9a-405cfe4ca685","system_id":"levelo_inurba_marseille","lat":43.27368,"lon":5.36263,"is_reserved":false,"is_disabled":false,"rental_uris":{"android":"levelo://app?vid=b18670cb-dfc0-44c9-9f9a-405cfe4ca685","ios":"levelo://app?vid=b18670cb-dfc0-44c9-9f9a-405cfe4ca685"},"vehicle_type_id":"4","last_reported":1751123354,"current_range_meters":18000,"station_id":"ce4bhbh2rcd13ifvqeo0","pricing_plan_id":"cebpf4jnsgd1na2vs0mg"},{"bike_id":"9cd1e3bd-a7bd-4a0b-862b-b5ef38ac73c1","system_id":"levelo_inurba_marseille","lat":43.28267,"lon":5.35063,"is_reserved":false,"is_disabled":false,"rental_uris":{"android":"levelo://app?vid=9cd1e3bd-a7bd-4a0b-862b-b5ef38ac73c1","ios":"levelo://app?vid=9cd1e3bd-a7bd-4a0b-862b-b5ef38ac73c1"},"vehicle_type_id":"4","last_reported":1751123354,"current_range_meters":18000,"station_id":"ce4bhbp2rcd13ifvqerg","pricing_plan_id":"cebpf4jnsgd1na2vs0mg"},{"bike_id":"e0d25799-cb17-4211-bfde-68ae2503bf1f","system_id":"levelo_inurba_marseille","lat":43.23077,"lon":5.35492,"is_reserved":false,"is_disabled":false,"rental_uris":{"android":"levelo://app?vid=e0d25799-cb17-4211-bfde-68ae2503bf1f","ios":"levelo://app?vid=e0d25799-cb17-4211-bfde-68ae2503bf1f"},"vehicle_type_id":"4","last_reported":1751123354,"current_range_meters":18000,"station_id":"cpo3342slgdg3j2ifvpg","pricing_plan_id":"cebpf4jnsgd1na2vs0mg"},{"bike_id":"792b80b4-905a-4277-9591-ec1829b5bde0","system_id":"levelo_inurba_marseille","lat":43.21742,"lon":5.34605,"is_reserved":false,"is_disabled":false,"rental_uris":{"android":"levelo://app?vid=792b80b4-905a-4277-9591-ec1829b5bde0","ios":"levelo://app?vid=792b80b4-905a-4277-9591-ec1829b5bde0"},"vehicle_type_id":"4","last_reported":1751123354,"current_range_meters":18000,"station_id":"st_cvj6r9ubvosntc0bgbag","pricing_plan_id":"cebpf4jnsgd1na2vs0mg"},{"bike_id":"8e41df63-5922-4cd3-94e1-83a309f71dc9","system_id":"levelo_inurba_marseille","lat":43.21201,"lon":5.35076,"is_reserved":false,"is_disabled":false,"rental_uris":{"android":"levelo://app?vid=8e41df63-5922-4cd3-94e1-83a309f71dc9","ios":"levelo://app?vid=8e41df63-5922-4cd3-94e1-83a309f71dc9"},"vehicle_type_id":"4","last_reported":1751123354,"current_range_meters":18000,"station_id":"st_cvj6sg6p6f1abm77japg","pricing_plan_id":"cebpf4jnsgd1na2vs0mg"},{"bike_id":"e8ea605e-e138-4e5e-ba06-7b44d8d7c125","system_id":"levelo_inurba_marseille","lat":43.21203,"lon":5.35076,"is_reserved":false,"is_disabled":false,"rental_uris":{"android":"levelo://app?vid=e8ea605e-e138-4e5e-ba06-7b44d8d7c125","ios":"levelo://app?vid=e8ea605e-e138-4e5e-ba06-7b44d8d7c125"},"vehicle_type_id":"4","last_reported":1751123354,"current_range_meters":18000,"station_id":"st_cvj6sg6p6f1abm77japg","pricing_plan_id":"cebpf4jnsgd1na2vs0mg"},{"bike_id":"3a7e54b5-a2f5-42f3-a085-743ac5e93398","system_id":"levelo_inurba_marseille","lat":43.25183,"lon":5.42218,"is_reserved":false,"is_disabled":false,"rental_uris":{"android":"levelo://app?vid=3a7e54b5-a2f5-42f3-a085-743ac5e93398","ios":"levelo://app?vid=3a7e54b5-a2f5-42f3-a085-743ac5e93398"},"vehicle_type_id":"4","last_reported":1751123354,"current_range_meters":18800,"station_id":"","pricing_plan_id":"cebpf4jnsgd1na2vs0mg"},{"bike_id":"fede116f-fe8f-4996-bd86-bef08c43bb15","system_id":"levelo_inurba_marseille","lat":43.284187,"lon":5.349913,"is_reserved":false,"is_disabled":false,"rental_uris":{"android":"levelo://app?vid=fede116f-fe8f-4996-bd86-bef08c43bb15","ios":"levelo://app?vid=fede116f-fe8f-4996-bd86-bef08c43bb15"},"vehicle_type_id":"4","last_reported":1751123354,"current_range_meters":18800,"station_id":"ce4bhbh2rcd13ifvqepg","pricing_plan_id":"cebpf4jnsgd1na2vs0mg"},{"bike_id":"fc5e6d0b-d35a-49a0-ac78-ca0abd494902","system_id":"levelo_inurba_marseille","lat":43.27058,"lon":5.40259,"is_reserved":false,"is_disabled":false,"rental_uris":{"android":"levelo://app?vid=fc5e6d0b-d35a-49a0-ac78-ca0abd494902","ios":"levelo://app?vid=fc5e6d0b-d35a-49a0-ac78-ca0abd494902"},"vehicle_type_id":"4","last_reported":1751123354,"current_range_meters":18800,"station_id":"ce4bhk92rcd13ifvqgc0","pricing_plan_id":"cebpf4jnsgd1na2vs0mg"},{"bike_id":"4e1c3609-99bc-4cd9-8c95-a2db39a047ca","system_id":"levelo_inurba_marseille","lat":43.25083,"lon":5.39523,"is_reserved":false,"is_disabled":false,"rental_uris":{"android":"levelo://app?vid=4e1c3609-99bc-4cd9-8c95-a2db39a047ca","ios":"levelo://app?vid=4e1c3609-99bc-4cd9-8c95-a2db39a047ca"},"vehicle_type_id":"4","last_reported":1751123354,"current_range_meters":18800,"station_id":"ce4bhm12rcd13ifvqgkg","pricing_plan_id":"cebpf4jnsgd1na2vs0mg"},{"bike_id":"2791c8b1-87f0-4e1e-ac79-aa373ba3bd45","system_id":"levelo_inurba_marseille","lat":43.26942,"lon":5.40248,"is_reserved":false,"is_disabled":false,"rental_uris":{"android":"levelo://app?vid=2791c8b1-87f0-4e1e-ac79-aa373ba3bd45","ios":"levelo://app?vid=2791c8b1-87f0-4e1e-ac79-aa373ba3bd45"},"vehicle_type_id":"4","last_reported":1751123354,"current_range_meters":18800,"station_id":"cjm6bp8fraef2m0cb0m0","pricing_plan_id":"cebpf4jnsgd1na2vs0mg"},{"bike_id":"20621cc5-5aa6-4bda-8935-4c6180cabdcd","system_id":"levelo_inurba_marseille","lat":43.23061,"lon":5.35493,"is_reserved":false,"is_disabled":false,"rental_uris":{"android":"levelo://app?vid=20621cc5-5aa6-4bda-8935-4c6180cabdcd","ios":"levelo://app?vid=20621cc5-5aa6-4bda-8935-4c6180cabdcd"},"vehicle_type_id":"4","last_reported":1751123354,"current_range_meters":18800,"station_id":"cpo3342slgdg3j2ifvpg","pricing_plan_id":"cebpf4jnsgd1na2vs0mg"},{"bike_id":"72df8c60-f190-4633-b0af-a27bfeb7314d","system_id":"levelo_inurba_marseille","lat":43.241675,"lon":5.363903,"is_reserved":false,"is_disabled":false,"rental_uris":{"android":"levelo://app?vid=72df8c60-f190-4633-b0af-a27bfeb7314d","ios":"levelo://app?vid=72df8c60-f190-4633-b0af-a27bfeb7314d"},"vehicle_type_id":"4","last_reported":1751123354,"current_range_meters":18800,"station_id":"cpo36qri1sfpv3e86is0","pricing_plan_id":"cebpf4jnsgd1na2vs0mg"},{"bike_id":"818ee4b7-31e6-44dc-86be-67f7b3013149","system_id":"levelo_inurba_marseille","lat":43.28417,"lon":5.34999,"is_reserved":false,"is_disabled":false,"rental_uris":{"android":"levelo://app?vid=818ee4b7-31e6-44dc-86be-67f7b3013149","ios":"levelo://app?vid=818ee4b7-31e6-44dc-86be-67f7b3013149"},"vehicle_type_id":"4","last_reported":1751123354,"current_range_meters":19200,"station_id":"ce4bhbh2rcd13ifvqepg","pricing_plan_id":"cebpf4jnsgd1na2vs0mg"},{"bike_id":"52a55483-18a4-48f9-824c-dbeb7dbe8b47","system_id":"levelo_inurba_marseille","lat":43.28253,"lon":5.35083,"is_reserved":false,"is_disabled":false,"rental_uris":{"android":"levelo://app?vid=52a55483-18a4-48f9-824c-dbeb7dbe8b47","ios":"levelo://app?vid=52a55483-18a4-48f9-824c-dbeb7dbe8b47"},"vehicle_type_id":"4","last_reported":1751123354,"current_range_meters":19200,"station_id":"ce4bhbp2rcd13ifvqerg","pricing_plan_id":"cebpf4jnsgd1na2vs0mg"},{"bike_id":"bc0333fd-1397-4952-b6c9-b389233d6324","system_id":"levelo_inurba_marseille","lat":43.25537,"lon":5.3764,"is_reserved":false,"is_disabled":false,"rental_uris":{"android":"levelo://app?vid=bc0333fd-1397-4952-b6c9-b389233d6324","ios":"levelo://app?vid=bc0333fd-1397-4952-b6c9-b389233d6324"},"vehicle_type_id":"4","last_reported":1751123354,"current_range_meters":19200,"station_id":"ce4bhh12rcd13ifvqff0","pricing_plan_id":"cebpf4jnsgd1na2vs0mg"},{"bike_id":"ef8a4047-8bb9-4757-964b-ecbbd506b4a5","system_id":"levelo_inurba_marseille","lat":43.2781,"lon":5.4071,"is_reserved":false,"is_disabled":false,"rental_uris":{"android":"levelo://app?vid=ef8a4047-8bb9-4757-964b-ecbbd506b4a5","ios":"levelo://app?vid=ef8a4047-8bb9-4757-964b-ecbbd506b4a5"},"vehicle_type_id":"4","last_reported":1751123354,"current_range_meters":19200,"station_id":"ce4bhnh2rcd13ifvqgtg","pricing_plan_id":"cebpf4jnsgd1na2vs0mg"},{"bike_id":"39391c58-0ced-47c1-ad0c-ead1501fc7b8","system_id":"levelo_inurba_marseille","lat":43.21774,"lon":5.34579,"is_reserved":false,"is_disabled":false,"rental_uris":{"android":"levelo://app?vid=39391c58-0ced-47c1-ad0c-ead1501fc7b8","ios":"levelo://app?vid=39391c58-0ced-47c1-ad0c-ead1501fc7b8"},"vehicle_type_id":"4","last_reported":1751123354,"current_range_meters":19200,"station_id":"st_cvj6r9ubvosntc0bgbag","pricing_plan_id":"cebpf4jnsgd1na2vs0mg"},{"bike_id":"6e53ad1f-d4f5-4de6-9418-67b290ec993f","system_id":"levelo_inurba_marseille","lat":43.30941,"lon":5.4103,"is_reserved":false,"is_disabled":false,"rental_uris":{"android":"levelo://app?vid=6e53ad1f-d4f5-4de6-9418-67b290ec993f","ios":"levelo://app?vid=6e53ad1f-d4f5-4de6-9418-67b290ec993f"},"vehicle_type_id":"4","last_reported":1751123354,"current_range_meters":19600,"station_id":"","pricing_plan_id":"cebpf4jnsgd1na2vs0mg"},{"bike_id":"cb53ac26-ab5f-4bce-a461-2da90c3a1360","system_id":"levelo_inurba_marseille","lat":43.30147,"lon":5.37422,"is_reserved":false,"is_disabled":false,"rental_uris":{"android":"levelo://app?vid=cb53ac26-ab5f-4bce-a461-2da90c3a1360","ios":"levelo://app?vid=cb53ac26-ab5f-4bce-a461-2da90c3a1360"},"vehicle_type_id":"4","last_reported":1751123354,"current_range_meters":19600,"station_id":"ce4bgs92rcd13ifvqcc0","pricing_plan_id":"cebpf4jnsgd1na2vs0mg"},{"bike_id":"c9f7eddb-8f87-48af-8efc-acad948d2a2a","system_id":"levelo_inurba_marseille","lat":43.30924,"lon":5.4014,"is_reserved":false,"is_disabled":false,"rental_uris":{"android":"levelo://app?vid=c9f7eddb-8f87-48af-8efc-acad948d2a2a","ios":"levelo://app?vid=c9f7eddb-8f87-48af-8efc-acad948d2a2a"},"vehicle_type_id":"4","last_reported":1751123354,"current_range_meters":19600,"station_id":"ce4bgvp2rcd13ifvqct0","pricing_plan_id":"cebpf4jnsgd1na2vs0mg"},{"bike_id":"cb44a532-23a5-4326-9bac-3f2af8d9b9b9","system_id":"levelo_inurba_marseille","lat":43.28708,"lon":5.37377,"is_reserved":false,"is_disabled":false,"rental_uris":{"android":"levelo://app?vid=cb44a532-23a5-4326-9bac-3f2af8d9b9b9","ios":"levelo://app?vid=cb44a532-23a5-4326-9bac-3f2af8d9b9b9"},"vehicle_type_id":"4","last_reported":1751123354,"current_range_meters":19600,"station_id":"ce4bh3p2rcd13ifvqdq0","pricing_plan_id":"cebpf4jnsgd1na2vs0mg"},{"bike_id":"1f752ded-b8ec-4bc6-8178-64fe3a965820","system_id":"levelo_inurba_marseille","lat":43.24393,"lon":5.37058,"is_reserved":false,"is_disabled":false,"rental_uris":{"android":"levelo://app?vid=1f752ded-b8ec-4bc6-8178-64fe3a965820","ios":"levelo://app?vid=1f752ded-b8ec-4bc6-8178-64fe3a965820"},"vehicle_type_id":"4","last_reported":1751123354,"current_range_meters":19600,"station_id":"ce4bhhh2rcd13ifvqfk0","pricing_plan_id":"cebpf4jnsgd1na2vs0mg"},{"bike_id":"17c28019-f07f-4c65-b151-03a06fd4a125","system_id":"levelo_inurba_marseille","lat":43.27057,"lon":5.40262,"is_reserved":false,"is_disabled":false,"rental_uris":{"android":"levelo://app?vid=17c28019-f07f-4c65-b151-03a06fd4a125","ios":"levelo://app?vid=17c28019-f07f-4c65-b151-03a06fd4a125"},"vehicle_type_id":"4","last_reported":1751123354,"current_range_meters":19600,"station_id":"ce4bhk92rcd13ifvqgc0","pricing_plan_id":"cebpf4jnsgd1na2vs0mg"},{"bike_id":"3e82f598-9d1d-4257-8afa-a4dc7305de09","system_id":"levelo_inurba_marseille","lat":43.21185,"lon":5.35071,"is_reserved":false,"is_disabled":false,"rental_uris":{"android":"levelo://app?vid=3e82f598-9d1d-4257-8afa-a4dc7305de09","ios":"levelo://app?vid=3e82f598-9d1d-4257-8afa-a4dc7305de09"},"vehicle_type_id":"4","last_reported":1751123354,"current_range_meters":19600,"station_id":"st_cvj6sg6p6f1abm77japg","pricing_plan_id":"cebpf4jnsgd1na2vs0mg"},{"bike_id":"bf24b26e-7f51-4120-9a48-54c87edaa2f7","system_id":"levelo_inurba_marseille","lat":43.21198,"lon":5.35061,"is_reserved":false,"is_disabled":false,"rental_uris":{"android":"levelo://app?vid=bf24b26e-7f51-4120-9a48-54c87edaa2f7","ios":"levelo://app?vid=bf24b26e-7f51-4120-9a48-54c87edaa2f7"},"vehicle_type_id":"4","last_reported":1751123354,"current_range_meters":19600,"station_id":"st_cvj6sg6p6f1abm77japg","pricing_plan_id":"cebpf4jnsgd1na2vs0mg"},{"bike_id":"fcad9888-fad6-41e0-b317-83b146129f2a","system_id":"levelo_inurba_marseille","lat":43.227813,"lon":5.352002,"is_reserved":false,"is_disabled":false,"rental_uris":{"android":"levelo://app?vid=fcad9888-fad6-41e0-b317-83b146129f2a","ios":"levelo://app?vid=fcad9888-fad6-41e0-b317-83b146129f2a"},"vehicle_type_id":"4","last_reported":1751123354,"current_range_meters":20000,"station_id":"","pricing_plan_id":"cebpf4jnsgd1na2vs0mg"},{"bike_id":"7cd73daf-6410-4b72-a872-e5224e9d29ff","system_id":"levelo_inurba_marseille","lat":43.27405,"lon":5.41201,"is_reserved":false,"is_disabled":false,"rental_uris":{"android":"levelo://app?vid=7cd73daf-6410-4b72-a872-e5224e9d29ff","ios":"levelo://app?vid=7cd73daf-6410-4b72-a872-e5224e9d29ff"},"vehicle_type_id":"4","last_reported":1751123354,"current_range_meters":20000,"station_id":"","pricing_plan_id":"cebpf4jnsgd1na2vs0mg"},{"bike_id":"9e935be1-9b04-4b32-8164-1473bb36cc97","system_id":"levelo_inurba_marseille","lat":43.30949,"lon":5.39039,"is_reserved":false,"is_disabled":false,"rental_uris":{"android":"levelo://app?vid=9e935be1-9b04-4b32-8164-1473bb36cc97","ios":"levelo://app?vid=9e935be1-9b04-4b32-8164-1473bb36cc97"},"vehicle_type_id":"4","last_reported":1751123354,"current_range_meters":20000,"station_id":"ce4bgup2rcd13ifvqco0","pricing_plan_id":"cebpf4jnsgd1na2vs0mg"},{"bike_id":"12be8f37-8184-4cc5-8592-6962e0ccbe51","system_id":"levelo_inurba_marseille","lat":43.30958,"lon":5.39049,"is_reserved":false,"is_disabled":false,"rental_uris":{"android":"levelo://app?vid=12be8f37-8184-4cc5-8592-6962e0ccbe51","ios":"levelo://app?vid=12be8f37-8184-4cc5-8592-6962e0ccbe51"},"vehicle_type_id":"4","last_reported":1751123354,"current_range_meters":20000,"station_id":"ce4bgup2rcd13ifvqco0","pricing_plan_id":"cebpf4jnsgd1na2vs0mg"},{"bike_id":"30543df3-106d-49d9-9680-b9d7c150d601","system_id":"levelo_inurba_marseille","lat":43.306456,"lon":5.40104,"is_reserved":false,"is_disabled":false,"rental_uris":{"android":"levelo://app?vid=30543df3-106d-49d9-9680-b9d7c150d601","ios":"levelo://app?vid=30543df3-106d-49d9-9680-b9d7c150d601"},"vehicle_type_id":"4","last_reported":1751123354,"current_range_meters":20000,"station_id":"ce4bh112rcd13ifvqda0","pricing_plan_id":"cebpf4jnsgd1na2vs0mg"},{"bike_id":"d69c345f-8a74-4006-802c-84ca9125ad77","system_id":"levelo_inurba_marseille","lat":43.29274,"lon":5.40115,"is_reserved":false,"is_disabled":false,"rental_uris":{"android":"levelo://app?vid=d69c345f-8a74-4006-802c-84ca9125ad77","ios":"levelo://app?vid=d69c345f-8a74-4006-802c-84ca9125ad77"},"vehicle_type_id":"4","last_reported":1751123354,"current_range_meters":20000,"station_id":"ce4bh312rcd13ifvqdk0","pricing_plan_id":"cebpf4jnsgd1na2vs0mg"},{"bike_id":"41d758e7-f5f3-472a-a769-61425a92f53d","system_id":"levelo_inurba_marseille","lat":43.26552,"lon":5.37284,"is_reserved":false,"is_disabled":false,"rental_uris":{"android":"levelo://app?vid=41d758e7-f5f3-472a-a769-61425a92f53d","ios":"levelo://app?vid=41d758e7-f5f3-472a-a769-61425a92f53d"},"vehicle_type_id":"4","last_reported":1751123354,"current_range_meters":20000,"station_id":"ce4bhg12rcd13ifvqf70","pricing_plan_id":"cebpf4jnsgd1na2vs0mg"},{"bike_id":"ef3c7a34-1da5-4637-ab5a-13bf797bd855","system_id":"levelo_inurba_marseille","lat":43.26215,"lon":5.37433,"is_reserved":false,"is_disabled":false,"rental_uris":{"android":"levelo://app?vid=ef3c7a34-1da5-4637-ab5a-13bf797bd855","ios":"levelo://app?vid=ef3c7a34-1da5-4637-ab5a-13bf797bd855"},"vehicle_type_id":"4","last_reported":1751123354,"current_range_meters":20000,"station_id":"ce4bhgp2rcd13ifvqfc0","pricing_plan_id":"cebpf4jnsgd1na2vs0mg"},{"bike_id":"ed92a9c0-fb64-496e-9fee-b9638536839a","system_id":"levelo_inurba_marseille","lat":43.23204,"lon":5.3555,"is_reserved":false,"is_disabled":false,"rental_uris":{"android":"levelo://app?vid=ed92a9c0-fb64-496e-9fee-b9638536839a","ios":"levelo://app?vid=ed92a9c0-fb64-496e-9fee-b9638536839a"},"vehicle_type_id":"4","last_reported":1751123354,"current_range_meters":20000,"station_id":"ce4bhu92rcd13ifvqi70","pricing_plan_id":"cebpf4jnsgd1na2vs0mg"},{"bike_id":"7f212f1e-9b22-4ad3-88bb-18d999719345","system_id":"levelo_inurba_marseille","lat":43.21185,"lon":5.35087,"is_reserved":false,"is_disabled":false,"rental_uris":{"android":"levelo://app?vid=7f212f1e-9b22-4ad3-88bb-18d999719345","ios":"levelo://app?vid=7f212f1e-9b22-4ad3-88bb-18d999719345"},"vehicle_type_id":"4","last_reported":1751123354,"current_range_meters":20000,"station_id":"st_cvj6sg6p6f1abm77japg","pricing_plan_id":"cebpf4jnsgd1na2vs0mg"},{"bike_id":"a9630ab3-af3e-40cc-bf70-7f7d162d6165","system_id":"levelo_inurba_marseille","lat":43.299348,"lon":5.365522,"is_reserved":false,"is_disabled":false,"rental_uris":{"android":"levelo://app?vid=a9630ab3-af3e-40cc-bf70-7f7d162d6165","ios":"levelo://app?vid=a9630ab3-af3e-40cc-bf70-7f7d162d6165"},"vehicle_type_id":"4","last_reported":1751123354,"current_range_meters":20400,"station_id":"ce4bgm92rcd13ifvqbr0","pricing_plan_id":"cebpf4jnsgd1na2vs0mg"},{"bike_id":"6eeba832-d80c-4caa-805b-c2c69389ef0d","system_id":"levelo_inurba_marseille","lat":43.28279,"lon":5.35078,"is_reserved":false,"is_disabled":false,"rental_uris":{"android":"levelo://app?vid=6eeba832-d80c-4caa-805b-c2c69389ef0d","ios":"levelo://app?vid=6eeba832-d80c-4caa-805b-c2c69389ef0d"},"vehicle_type_id":"4","last_reported":1751123354,"current_range_meters":20400,"station_id":"ce4bhbp2rcd13ifvqerg","pricing_plan_id":"cebpf4jnsgd1na2vs0mg"},{"bike_id":"7f8218ac-4241-47de-9356-9b0fe91827b8","system_id":"levelo_inurba_marseille","lat":43.24384,"lon":5.37055,"is_reserved":false,"is_disabled":false,"rental_uris":{"android":"levelo://app?vid=7f8218ac-4241-47de-9356-9b0fe91827b8","ios":"levelo://app?vid=7f8218ac-4241-47de-9356-9b0fe91827b8"},"vehicle_type_id":"4","last_reported":1751123354,"current_range_meters":20400,"station_id":"ce4bhhh2rcd13ifvqfk0","pricing_plan_id":"cebpf4jnsgd1na2vs0mg"},{"bike_id":"e7641e58-176f-485d-9342-129003cdc52b","system_id":"levelo_inurba_marseille","lat":43.32112,"lon":5.36767,"is_reserved":false,"is_disabled":false,"rental_uris":{"android":"levelo://app?vid=e7641e58-176f-485d-9342-129003cdc52b","ios":"levelo://app?vid=e7641e58-176f-485d-9342-129003cdc52b"},"vehicle_type_id":"4","last_reported":1751123354,"current_range_meters":20400,"station_id":"ce4bhrh2rcd13ifvqhug","pricing_plan_id":"cebpf4jnsgd1na2vs0mg"},{"bike_id":"25194d50-47bb-4b9f-a1d5-22735f98d53e","system_id":"levelo_inurba_marseille","lat":43.288566,"lon":5.358437,"is_reserved":false,"is_disabled":false,"rental_uris":{"android":"levelo://app?vid=25194d50-47bb-4b9f-a1d5-22735f98d53e","ios":"levelo://app?vid=25194d50-47bb-4b9f-a1d5-22735f98d53e"},"vehicle_type_id":"4","last_reported":1751123354,"current_range_meters":20800,"station_id":"ce4bhb12rcd13ifvqem0","pricing_plan_id":"cebpf4jnsgd1na2vs0mg"},{"bike_id":"622b2287-a04e-43e3-ac9d-7dbbacabec95","system_id":"levelo_inurba_marseille","lat":43.2841,"lon":5.35008,"is_reserved":false,"is_disabled":false,"rental_uris":{"android":"levelo://app?vid=622b2287-a04e-43e3-ac9d-7dbbacabec95","ios":"levelo://app?vid=622b2287-a04e-43e3-ac9d-7dbbacabec95"},"vehicle_type_id":"4","last_reported":1751123354,"current_range_meters":20800,"station_id":"ce4bhbh2rcd13ifvqepg","pricing_plan_id":"cebpf4jnsgd1na2vs0mg"},{"bike_id":"108380d7-0c6f-4f4b-a7f1-0b1b5aef0f6e","system_id":"levelo_inurba_marseille","lat":43.26562,"lon":5.37277,"is_reserved":false,"is_disabled":false,"rental_uris":{"android":"levelo://app?vid=108380d7-0c6f-4f4b-a7f1-0b1b5aef0f6e","ios":"levelo://app?vid=108380d7-0c6f-4f4b-a7f1-0b1b5aef0f6e"},"vehicle_type_id":"4","last_reported":1751123354,"current_range_meters":20800,"station_id":"ce4bhg12rcd13ifvqf70","pricing_plan_id":"cebpf4jnsgd1na2vs0mg"},{"bike_id":"85fd6766-2829-496d-9b70-fe0dd8b9529f","system_id":"levelo_inurba_marseille","lat":43.25502,"lon":5.37638,"is_reserved":false,"is_disabled":false,"rental_uris":{"android":"levelo://app?vid=85fd6766-2829-496d-9b70-fe0dd8b9529f","ios":"levelo://app?vid=85fd6766-2829-496d-9b70-fe0dd8b9529f"},"vehicle_type_id":"4","last_reported":1751123354,"current_range_meters":20800,"station_id":"ce4bhh12rcd13ifvqff0","pricing_plan_id":"cebpf4jnsgd1na2vs0mg"},{"bike_id":"6796914d-2ce5-4882-9d87-b68567886885","system_id":"levelo_inurba_marseille","lat":43.231937,"lon":5.3555,"is_reserved":false,"is_disabled":false,"rental_uris":{"android":"levelo://app?vid=6796914d-2ce5-4882-9d87-b68567886885","ios":"levelo://app?vid=6796914d-2ce5-4882-9d87-b68567886885"},"vehicle_type_id":"4","last_reported":1751123354,"current_range_meters":20800,"station_id":"ce4bhu92rcd13ifvqi70","pricing_plan_id":"cebpf4jnsgd1na2vs0mg"},{"bike_id":"0530d8ac-0114-461d-a8ba-09ea5add6fae","system_id":"levelo_inurba_marseille","lat":43.24201,"lon":5.36388,"is_reserved":false,"is_disabled":false,"rental_uris":{"android":"levelo://app?vid=0530d8ac-0114-461d-a8ba-09ea5add6fae","ios":"levelo://app?vid=0530d8ac-0114-461d-a8ba-09ea5add6fae"},"vehicle_type_id":"4","last_reported":1751123354,"current_range_meters":20800,"station_id":"cpo36qri1sfpv3e86is0","pricing_plan_id":"cebpf4jnsgd1na2vs0mg"},{"bike_id":"23a5372d-fbf4-413e-8a6f-a36b72cbf8c4","system_id":"levelo_inurba_marseille","lat":43.29911,"lon":5.38139,"is_reserved":false,"is_disabled":false,"rental_uris":{"android":"levelo://app?vid=23a5372d-fbf4-413e-8a6f-a36b72cbf8c4","ios":"levelo://app?vid=23a5372d-fbf4-413e-8a6f-a36b72cbf8c4"},"vehicle_type_id":"4","last_reported":1751123354,"current_range_meters":21600,"station_id":"ce4bgj12rcd13ifvqbc0","pricing_plan_id":"cebpf4jnsgd1na2vs0mg"},{"bike_id":"b5cb6185-bd08-476e-a851-d9da96e3fe3b","system_id":"levelo_inurba_marseille","lat":43.273632,"lon":5.362541,"is_reserved":false,"is_disabled":false,"rental_uris":{"android":"levelo://app?vid=b5cb6185-bd08-476e-a851-d9da96e3fe3b","ios":"levelo://app?vid=b5cb6185-bd08-476e-a851-d9da96e3fe3b"},"vehicle_type_id":"4","last_reported":1751123354,"current_range_meters":21600,"station_id":"ce4bhbh2rcd13ifvqeo0","pricing_plan_id":"cebpf4jnsgd1na2vs0mg"},{"bike_id":"54e6c144-89e2-4352-bee4-0bc5a4da8819","system_id":"levelo_inurba_marseille","lat":43.32658,"lon":5.40986,"is_reserved":false,"is_disabled":false,"rental_uris":{"android":"levelo://app?vid=54e6c144-89e2-4352-bee4-0bc5a4da8819","ios":"levelo://app?vid=54e6c144-89e2-4352-bee4-0bc5a4da8819"},"vehicle_type_id":"4","last_reported":1751123354,"current_range_meters":21600,"station_id":"ce4bhpp2rcd13ifvqhgg","pricing_plan_id":"cebpf4jnsgd1na2vs0mg"},{"bike_id":"180c3e6c-6583-40e1-b536-3bf976f900da","system_id":"levelo_inurba_marseille","lat":43.24169,"lon":5.36386,"is_reserved":false,"is_disabled":false,"rental_uris":{"android":"levelo://app?vid=180c3e6c-6583-40e1-b536-3bf976f900da","ios":"levelo://app?vid=180c3e6c-6583-40e1-b536-3bf976f900da"},"vehicle_type_id":"4","last_reported":1751123354,"current_range_meters":21600,"station_id":"cpo36qri1sfpv3e86is0","pricing_plan_id":"cebpf4jnsgd1na2vs0mg"},{"bike_id":"4d3923dd-a9b1-4dbd-b174-d0882d864754","system_id":"levelo_inurba_marseille","lat":43.29937,"lon":5.36552,"is_reserved":false,"is_disabled":false,"rental_uris":{"android":"levelo://app?vid=4d3923dd-a9b1-4dbd-b174-d0882d864754","ios":"levelo://app?vid=4d3923dd-a9b1-4dbd-b174-d0882d864754"},"vehicle_type_id":"4","last_reported":1751123354,"current_range_meters":22000,"station_id":"ce4bgm92rcd13ifvqbr0","pricing_plan_id":"cebpf4jnsgd1na2vs0mg"},{"bike_id":"d4ac4454-39ce-49f5-9c8a-e5845093676f","system_id":"levelo_inurba_marseille","lat":43.28415,"lon":5.34991,"is_reserved":false,"is_disabled":false,"rental_uris":{"android":"levelo://app?vid=d4ac4454-39ce-49f5-9c8a-e5845093676f","ios":"levelo://app?vid=d4ac4454-39ce-49f5-9c8a-e5845093676f"},"vehicle_type_id":"4","last_reported":1751123354,"current_range_meters":22000,"station_id":"ce4bhbh2rcd13ifvqepg","pricing_plan_id":"cebpf4jnsgd1na2vs0mg"},{"bike_id":"10e0cc2e-10cc-4c9b-ba21-9d4c088b1b63","system_id":"levelo_inurba_marseille","lat":43.29894,"lon":5.43651,"is_reserved":false,"is_disabled":false,"rental_uris":{"android":"levelo://app?vid=10e0cc2e-10cc-4c9b-ba21-9d4c088b1b63","ios":"levelo://app?vid=10e0cc2e-10cc-4c9b-ba21-9d4c088b1b63"},"vehicle_type_id":"4","last_reported":1751123354,"current_range_meters":22000,"station_id":"ce4bhpp2rcd13ifvqhfg","pricing_plan_id":"cebpf4jnsgd1na2vs0mg"},{"bike_id":"2a8dfd6c-801a-42f1-91ce-8e25cb9ed277","system_id":"levelo_inurba_marseille","lat":43.21745,"lon":5.34597,"is_reserved":false,"is_disabled":false,"rental_uris":{"android":"levelo://app?vid=2a8dfd6c-801a-42f1-91ce-8e25cb9ed277","ios":"levelo://app?vid=2a8dfd6c-801a-42f1-91ce-8e25cb9ed277"},"vehicle_type_id":"4","last_reported":1751123354,"current_range_meters":22000,"station_id":"st_cvj6r9ubvosntc0bgbag","pricing_plan_id":"cebpf4jnsgd1na2vs0mg"},{"bike_id":"bfbf956d-bf2d-455d-af06-cab128bc4806","system_id":"levelo_inurba_marseille","lat":43.21741,"lon":5.34616,"is_reserved":false,"is_disabled":false,"rental_uris":{"android":"levelo://app?vid=bfbf956d-bf2d-455d-af06-cab128bc4806","ios":"levelo://app?vid=bfbf956d-bf2d-455d-af06-cab128bc4806"},"vehicle_type_id":"4","last_reported":1751123354,"current_range_meters":22000,"station_id":"st_cvj6r9ubvosntc0bgbag","pricing_plan_id":"cebpf4jnsgd1na2vs0mg"},{"bike_id":"ff359b06-e82b-4518-b602-f9c62162a27d","system_id":"levelo_inurba_marseille","lat":43.21181,"lon":5.35061,"is_reserved":false,"is_disabled":false,"rental_uris":{"android":"levelo://app?vid=ff359b06-e82b-4518-b602-f9c62162a27d","ios":"levelo://app?vid=ff359b06-e82b-4518-b602-f9c62162a27d"},"vehicle_type_id":"4","last_reported":1751123354,"current_range_meters":22000,"station_id":"st_cvj6sg6p6f1abm77japg","pricing_plan_id":"cebpf4jnsgd1na2vs0mg"},{"bike_id":"9b21541a-edfa-4c28-a626-87d8c52e11d9","system_id":"levelo_inurba_marseille","lat":43.31761,"lon":5.37435,"is_reserved":false,"is_disabled":false,"rental_uris":{"android":"levelo://app?vid=9b21541a-edfa-4c28-a626-87d8c52e11d9","ios":"levelo://app?vid=9b21541a-edfa-4c28-a626-87d8c52e11d9"},"vehicle_type_id":"4","last_reported":1751123354,"current_range_meters":22400,"station_id":"","pricing_plan_id":"cebpf4jnsgd1na2vs0mg"},{"bike_id":"1ac664aa-f2a4-4b75-879f-dcb93272d133","system_id":"levelo_inurba_marseille","lat":43.32029,"lon":5.40948,"is_reserved":false,"is_disabled":false,"rental_uris":{"android":"levelo://app?vid=1ac664aa-f2a4-4b75-879f-dcb93272d133","ios":"levelo://app?vid=1ac664aa-f2a4-4b75-879f-dcb93272d133"},"vehicle_type_id":"4","last_reported":1751123354,"current_range_meters":22400,"station_id":"","pricing_plan_id":"cebpf4jnsgd1na2vs0mg"},{"bike_id":"0a4a86ea-1ba8-4dd8-8b87-70308b5fc867","system_id":"levelo_inurba_marseille","lat":43.32485,"lon":5.36566,"is_reserved":false,"is_disabled":false,"rental_uris":{"android":"levelo://app?vid=0a4a86ea-1ba8-4dd8-8b87-70308b5fc867","ios":"levelo://app?vid=0a4a86ea-1ba8-4dd8-8b87-70308b5fc867"},"vehicle_type_id":"4","last_reported":1751123354,"current_range_meters":22400,"station_id":"ce4bhs12rcd13ifvqhvg","pricing_plan_id":"cebpf4jnsgd1na2vs0mg"},{"bike_id":"3eabe1e2-f9f5-41cb-a4ed-73ca7f909c5c","system_id":"levelo_inurba_marseille","lat":43.21218,"lon":5.35071,"is_reserved":false,"is_disabled":false,"rental_uris":{"android":"levelo://app?vid=3eabe1e2-f9f5-41cb-a4ed-73ca7f909c5c","ios":"levelo://app?vid=3eabe1e2-f9f5-41cb-a4ed-73ca7f909c5c"},"vehicle_type_id":"4","last_reported":1751123354,"current_range_meters":22400,"station_id":"st_cvj6sg6p6f1abm77japg","pricing_plan_id":"cebpf4jnsgd1na2vs0mg"},