{"last_updated":1687061250,"ttl":30,"version":"2.2","data":{"bikes":[{"bike_id":"75916f50-03a5-4bea-8546-9493d8da4d8d","system_id":"levelo_inurba_marseille","lat":43.313391,"lon":5.36706,"is_reserved":false,"is_disabled":false,"rental_uris":{"android":"levelo://app?vid=75916f50-03a5-4bea-8546-9493d8da4d8d","ios":"levelo://app?vid=75916f50-03a5-4bea-8546-9493d8da4d8d"},"vehicle_type_id":"4","last_reported":1687061251,"current_range_meters":30000,"station_id":"ce4bgr92rcd13ifvqc6g","pricing_plan_id":"free"},{"bike_id":"833cc643-7a0b-43b4-8611-0dc0a866c5ca","system_id":"levelo_inurba_marseille","lat":43.312239,"lon":5.368562,"is_reserved":false,"is_disabled":false,"rental_uris":{"android":"levelo://app?vid=833cc643-7a0b-43b4-8611-0dc0a866c5ca","ios":"levelo://app?vid=833cc643-7a0b-43b4-8611-0dc0a866c5ca"},"vehicle_type_id":"4","last_reported":1687061251,"current_range_meters":28400,"station_id":"ce4bgl92rcd13ifvqbq0","pricing_plan_id":"free"},{"bike_id":"dedc3ad0-0be1-4d87-903e-cf8d553fbb72","system_id":"levelo_inurba_marseille","lat":43.309076,"lon":5.368465,"is_reserved":false,"is_disabled":false,"rental_uris":{"android":"levelo://app?vid=dedc3ad0-0be1-4d87-903e-cf8d553fbb72","ios":"levelo://app?vid=dedc3ad0-0be1-4d87-903e-cf8d553fbb72"},"vehicle_type_id":"4","last_reported":1687061251,"current_range_meters":28400,"station_id":"ce4bgn92rcd13ifvqbvg","pricing_plan_id":"free"},{"bike_id":"54e3ee41-bdab-4e4a-8439-064e49ad71eb","system_id":"levelo_inurba_marseille","lat":43.309076,"lon":5.368465,"is_reserved":false,"is_disabled":false,"rental_uris":{"android":"levelo://app?vid=54e3ee41-bdab-4e4a-8439-064e49ad71eb","ios":"levelo://app?vid=54e3ee41-bdab-4e4a-8439-064e49ad71eb"},"vehicle_type_id":"4","last_reported":1687061251,"current_range_meters":30800,"station_id":"ce4bgn92rcd13ifvqbvg","pricing_plan_id":"free"},{"bike_id":"fe46bd7f-7d22-4fad-aad1-922a14959065","system_id":"levelo_inurba_marseille","lat":43.314811,"lon":5.373103,"is_reserved":false,"is_disabled":false,"rental_uris":{"android":"levelo://app?vid=fe46bd7f-7d22-4fad-aad1-922a14959065","ios":"levelo://app?vid=fe46bd7f-7d22-4fad-aad1-922a14959065"},"vehicle_type_id":"4","last_reported":1687061251,"current_range_meters":29200,"station_id":"ce4bgt12rcd13ifvqcd0","pricing_plan_id":"free"},{"bike_id":"8bc94eb9-4ba7-467d-8d24-2332a826656a","system_id":"levelo_inurba_marseille","lat":43.314811,"lon":5.373104,"is_reserved":false,"is_disabled":false,"rental_uris":{"android":"levelo://app?vid=8bc94eb9-4ba7-467d-8d24-2332a826656a","ios":"levelo://app?vid=8bc94eb9-4ba7-467d-8d24-2332a826656a"},"vehicle_type_id":"4","last_reported":1687061251,"current_range_meters":31200,"station_id":"ce4bgt12rcd13ifvqcd0","pricing_plan_id":"free"},{"bike_id":"d914db77-80a8-47e7-ad64-8d7391a0e4da","system_id":"levelo_inurba_marseille","lat":43.31494,"lon":5.37313,"is_reserved":false,"is_disabled":false,"rental_uris":{"android":"levelo://app?vid=d914db77-80a8-47e7-ad64-8d7391a0e4da","ios":"levelo://app?vid=d914db77-80a8-47e7-ad64-8d7391a0e4da"},"vehicle_type_id":"4","last_reported":1687061251,"current_range_meters":0,"station_id":"ce4bgt12rcd13ifvqcd0","pricing_plan_id":"free"},{"bike_id":"9c746439-937e-436d-8c66-cb90c42aae7f","system_id":"levelo_inurba_marseille","lat":43.31431,"lon":5.37352,"is_reserved":false,"is_disabled":false,"rental_uris":{"android":"levelo://app?vid=9c746439-937e-436d-8c66-cb90c42aae7f","ios":"levelo://app?vid=9c746439-937e-436d-8c66-cb90c42aae7f"},"vehicle_type_id":"4","last_reported":1687061251,"current_range_meters":26800,"station_id":"","pricing_plan_id":"free"},{"bike_id":"bc5dfdcd-9f3f-442f-8ff0-f90c18be3eef","system_id":"levelo_inurba_marseille","lat":43.30816,"lon":5.37045,"is_reserved":false,"is_disabled":false,"rental_uris":{"android":"levelo://app?vid=bc5dfdcd-9f3f-442f-8ff0-f90c18be3eef","ios":"levelo://app?vid=bc5dfdcd-9f3f-442f-8ff0-f90c18be3eef"},"vehicle_type_id":"4","last_reported":1687061251,"current_range_meters":0,"station_id":"","pricing_plan_id":"free"},{"bike_id":"22c42002-1ae8-4f76-851f-ffa7d3b64b5f","system_id":"levelo_inurba_marseille","lat":43.30894,"lon":5.37193,"is_reserved":false,"is_disabled":false,"rental_uris":{"android":"levelo://app?vid=22c42002-1ae8-4f76-851f-ffa7d3b64b5f","ios":"levelo://app?vid=22c42002-1ae8-4f76-851f-ffa7d3b64b5f"},"vehicle_type_id":"4","last_reported":1687061251,"current_range_meters":29600,"station_id":"","pricing_plan_id":"free"},{"bike_id":"6aac2261-6429-438f-9bec-9b37afaafe12","system_id":"levelo_inurba_marseille","lat":43.308614,"lon":5.372098,"is_reserved":false,"is_disabled":false,"rental_uris":{"android":"levelo://app?vid=6aac2261-6429-438f-9bec-9b37afaafe12","ios":"levelo://app?vid=6aac2261-6429-438f-9bec-9b37afaafe12"},"vehicle_type_id":"4","last_reported":1687061251,"current_range_meters":7200,"station_id":"ce4bguh2rcd13ifvqckg","pricing_plan_id":"free"},{"bike_id":"51472929-791f-405e-bb95-451458815176","system_id":"levelo_inurba_marseille","lat":43.308614,"lon":5.372098,"is_reserved":false,"is_disabled":false,"rental_uris":{"android":"levelo://app?vid=51472929-791f-405e-bb95-451458815176","ios":"levelo://app?vid=51472929-791f-405e-bb95-451458815176"},"vehicle_type_id":"4","last_reported":1687061251,"current_range_meters":9200,"station_id":"ce4bguh2rcd13ifvqckg","pricing_plan_id":"free"},{"bike_id":"85190e52-d303-42aa-9712-580390df24ae","system_id":"levelo_inurba_marseille","lat":43.30533,"lon":5.36727,"is_reserved":false,"is_disabled":false,"rental_uris":{"android":"levelo://app?vid=85190e52-d303-42aa-9712-580390df24ae","ios":"levelo://app?vid=85190e52-d303-42aa-9712-580390df24ae"},"vehicle_type_id":"4","last_reported":1687061251,"current_range_meters":22000,"station_id":"ce4bgrp2rcd13ifvqc9g","pricing_plan_id":"free"},{"bike_id":"d7210806-7dfb-4344-a5bd-402ad073b5b9","system_id":"levelo_inurba_marseille","lat":43.305706,"lon":5.365654,"is_reserved":false,"is_disabled":false,"rental_uris":{"android":"levelo://app?vid=d7210806-7dfb-4344-a5bd-402ad073b5b9","ios":"levelo://app?vid=d7210806-7dfb-4344-a5bd-402ad073b5b9"},"vehicle_type_id":"4","last_reported":1687061251,"current_range_meters":14000,"station_id":"ce4bgs12rcd13ifvqcag","pricing_plan_id":"free"},{"bike_id":"40c4c396-ac4e-4ba0-82b4-7f2a15203fe3","system_id":"levelo_inurba_marseille","lat":43.305368,"lon":5.367343,"is_reserved":false,"is_disabled":false,"rental_uris":{"android":"levelo://app?vid=40c4c396-ac4e-4ba0-82b4-7f2a15203fe3","ios":"levelo://app?vid=40c4c396-ac4e-4ba0-82b4-7f2a15203fe3"},"vehicle_type_id":"4","last_reported":1687061251,"current_range_meters":22800,"station_id":"ce4bgrp2rcd13ifvqc9g","pricing_plan_id":"free"},{"bike_id":"a28d60f7-4a5d-4a53-b37f-297bac07b940","system_id":"levelo_inurba_marseille","lat":43.305706,"lon":5.365654,"is_reserved":false,"is_disabled":false,"rental_uris":{"android":"levelo://app?vid=a28d60f7-4a5d-4a53-b37f-297bac07b940","ios":"levelo://app?vid=a28d60f7-4a5d-4a53-b37f-297bac07b940"},"vehicle_type_id":"4","last_reported":1687061251,"current_range_meters":31200,"station_id":"ce4bgs12rcd13ifvqcag","pricing_plan_id":"free"},{"bike_id":"c80a2ace-c699-4c19-a46a-bda66b35bf51","system_id":"levelo_inurba_marseille","lat":43.305989,"lon":5.37225,"is_reserved":false,"is_disabled":false,"rental_uris":{"android":"levelo://app?vid=c80a2ace-c699-4c19-a46a-bda66b35bf51","ios":"levelo://app?vid=c80a2ace-c699-4c19-a46a-bda66b35bf51"},"vehicle_type_id":"4","last_reported":1687061251,"current_range_meters":31200,"station_id":"ce4bgqh2rcd13ifvqc4g","pricing_plan_id":"free"},{"bike_id":"947ed3f2-d80d-4632-8103-a033ad32d36f","system_id":"levelo_inurba_marseille","lat":43.311125,"lon":5.377624,"is_reserved":false,"is_disabled":false,"rental_uris":{"android":"levelo://app?vid=947ed3f2-d80d-4632-8103-a033ad32d36f","ios":"levelo://app?vid=947ed3f2-d80d-4632-8103-a033ad32d36f"},"vehicle_type_id":"4","last_reported":1687061251,"current_range_meters":30800,"station_id":"ce4bgt92rcd13ifvqcg0","pricing_plan_id":"free"},{"bike_id":"a570d20f-6784-47db-b63a-0c489e10aa4c","system_id":"levelo_inurba_marseille","lat":43.311125,"lon":5.377624,"is_reserved":false,"is_disabled":false,"rental_uris":{"android":"levelo://app?vid=a570d20f-6784-47db-b63a-0c489e10aa4c","ios":"levelo://app?vid=a570d20f-6784-47db-b63a-0c489e10aa4c"},"vehicle_type_id":"4","last_reported":1687061251,"current_range_meters":31200,"station_id":"ce4bgt92rcd13ifvqcg0","pricing_plan_id":"free"},{"bike_id":"37da0864-4427-4449-9f08-aa4e5343910b","system_id":"levelo_inurba_marseille","lat":43.311125,"lon":5.377624,"is_reserved":false,"is_disabled":false,"rental_uris":{"android":"levelo://app?vid=37da0864-4427-4449-9f08-aa4e5343910b","ios":"levelo://app?vid=37da0864-4427-4449-9f08-aa4e5343910b"},"vehicle_type_id":"4","last_reported":1687061251,"current_range_meters":31200,"station_id":"ce4bgt92rcd13ifvqcg0","pricing_plan_id":"free"},{"bike_id":"63e6915d-c3e4-413a-b115-63ee7078b836","system_id":"levelo_inurba_marseille","lat":43.311125,"lon":5.377624,"is_reserved":false,"is_disabled":false,"rental_uris":{"android":"levelo://app?vid=63e6915d-c3e4-413a-b115-63ee7078b836","ios":"levelo://app?vid=63e6915d-c3e4-413a-b115-63ee7078b836"},"vehicle_type_id":"4","last_reported":1687061251,"current_range_meters":9200,"station_id":"ce4bgt92rcd13ifvqcg0","pricing_plan_id":"free"},{"bike_id":"e3e9fd85-ed0c-40ae-b59c-07460723f262","system_id":"levelo_inurba_marseille","lat":43.311125,"lon":5.377624,"is_reserved":false,"is_disabled":false,"rental_uris":{"android":"levelo://app?vid=e3e9fd85-ed0c-40ae-b59c-07460723f262","ios":"levelo://app?vid=e3e9fd85-ed0c-40ae-b59c-07460723f262"},"vehicle_type_id":"4","last_reported":1687061251,"current_range_meters":31600,"station_id":"ce4bgt92rcd13ifvqcg0","pricing_plan_id":"free"},{"bike_id":"81f6f95d-2fb7-4e41-a65d-302cf42482d1","system_id":"levelo_inurba_marseille","lat":43.31113,"lon":5.37766,"is_reserved":false,"is_disabled":false,"rental_uris":{"android":"levelo://app?vid=81f6f95d-2fb7-4e41-a65d-302cf42482d1","ios":"levelo://app?vid=81f6f95d-2fb7-4e41-a65d-302cf42482d1"},"vehicle_type_id":"4","last_reported":1687061251,"current_range_meters":31200,"station_id":"ce4bgt92rcd13ifvqcg0","pricing_plan_id":"free"},{"bike_id":"8b44c22c-a6f9-47c0-832a-548c9cdc5f22","system_id":"levelo_inurba_marseille","lat":43.311125,"lon":5.377624,"is_reserved":false,"is_disabled":false,"rental_uris":{"android":"levelo://app?vid=8b44c22c-a6f9-47c0-832a-548c9cdc5f22","ios":"levelo://app?vid=8b44c22c-a6f9-47c0-832a-548c9cdc5f22"},"vehicle_type_id":"4","last_reported":1687061251,"current_range_meters":31600,"station_id":"ce4bgt92rcd13ifvqcg0","pricing_plan_id":"free"},{"bike_id":"ff809a52-c8c8-4c17-b4f9-30f22a540c0a","system_id":"levelo_inurba_marseille","lat":43.311125,"lon":5.377624,"is_reserved":false,"is_disabled":false,"rental_uris":{"android":"levelo://app?vid=ff809a52-c8c8-4c17-b4f9-30f22a540c0a","ios":"levelo://app?vid=ff809a52-c8c8-4c17-b4f9-30f22a540c0a"},"vehicle_type_id":"4","last_reported":1687061251,"current_range_meters":31600,"station_id":"ce4bgt92rcd13ifvqcg0","pricing_plan_id":"free"},{"bike_id":"ac50e590-f86b-481d-bfc1-b07518d87000","system_id":"levelo_inurba_marseille","lat":43.311125,"lon":5.377624,"is_reserved":false,"is_disabled":false,"rental_uris":{"android":"levelo://app?vid=ac50e590-f86b-481d-bfc1-b07518d87000","ios":"levelo://app?vid=ac50e590-f86b-481d-bfc1-b07518d87000"},"vehicle_type_id":"4","last_reported":1687061251,"current_range_meters":29200,"station_id":"ce4bgt92rcd13ifvqcg0","pricing_plan_id":"free"},{"bike_id":"2424216c-0462-4ad0-b127-d0366c91b61c","system_id":"levelo_inurba_marseille","lat":43.31699,"lon":5.37724,"is_reserved":false,"is_disabled":false,"rental_uris":{"android":"levelo://app?vid=2424216c-0462-4ad0-b127-d0366c91b61c","ios":"levelo://app?vid=2424216c-0462-4ad0-b127-d0366c91b61c"},"vehicle_type_id":"4","last_reported":1687061251,"current_range_meters":30000,"station_id":"ce4bgth2rcd13ifvqch0","pricing_plan_id":"free"},{"bike_id":"142ea6ff-5a56-4e78-a0fb-fc43c2431b5c","system_id":"levelo_inurba_marseille","lat":43.3171,"lon":5.37747,"is_reserved":false,"is_disabled":false,"rental_uris":{"android":"levelo://app?vid=142ea6ff-5a56-4e78-a0fb-fc43c2431b5c","ios":"levelo://app?vid=142ea6ff-5a56-4e78-a0fb-fc43c2431b5c"},"vehicle_type_id":"4","last_reported":1687061251,"current_range_meters":29600,"station_id":"ce4bgth2rcd13ifvqch0","pricing_plan_id":"free"},{"bike_id":"dc24202a-fe47-4c38-8054-5ecb143a4c13","system_id":"levelo_inurba_marseille","lat":43.317075,"lon":5.377367,"is_reserved":false,"is_disabled":false,"rental_uris":{"android":"levelo://app?vid=dc24202a-fe47-4c38-8054-5ecb143a4c13","ios":"levelo://app?vid=dc24202a-fe47-4c38-8054-5ecb143a4c13"},"vehicle_type_id":"4","last_reported":1687061251,"current_range_meters":29600,"station_id":"ce4bgth2rcd13ifvqch0","pricing_plan_id":"free"},{"bike_id":"03c63a22-5af4-4731-b58c-68faf2f7a292","system_id":"levelo_inurba_marseille","lat":43.31946,"lon":5.37482,"is_reserved":false,"is_disabled":false,"rental_uris":{"android":"levelo://app?vid=03c63a22-5af4-4731-b58c-68faf2f7a292","ios":"levelo://app?vid=03c63a22-5af4-4731-b58c-68faf2f7a292"},"vehicle_type_id":"4","last_reported":1687061251,"current_range_meters":30000,"station_id":"","pricing_plan_id":"free"},{"bike_id":"3bbb518e-9a83-40f5-84e5-3a5e60f17226","system_id":"levelo_inurba_marseille","lat":43.317075,"lon":5.377367,"is_reserved":false,"is_disabled":false,"rental_uris":{"android":"levelo://app?vid=3bbb518e-9a83-40f5-84e5-3a5e60f17226","ios":"levelo://app?vid=3bbb518e-9a83-40f5-84e5-3a5e60f17226"},"vehicle_type_id":"4","last_reported":1687061251,"current_range_meters":24800,"station_id":"ce4bgth2rcd13ifvqch0","pricing_plan_id":"free"},{"bike_id":"0db3308e-a308-4e01-b972-880bec556f3d","system_id":"levelo_inurba_marseille","lat":43.31712,"lon":5.37763,"is_reserved":false,"is_disabled":false,"rental_uris":{"android":"levelo://app?vid=0db3308e-a308-4e01-b972-880bec556f3d","ios":"levelo://app?vid=0db3308e-a308-4e01-b972-880bec556f3d"},"vehicle_type_id":"4","last_reported":1687061251,"current_range_meters":24400,"station_id":"ce4bgth2rcd13ifvqch0","pricing_plan_id":"free"},{"bike_id":"5f5c9924-a1db-4b30-90b4-253c9aaee8df","system_id":"levelo_inurba_marseille","lat":43.30304,"lon":5.368987,"is_reserved":false,"is_disabled":false,"rental_uris":{"android":"levelo://app?vid=5f5c9924-a1db-4b30-90b4-253c9aaee8df","ios":"levelo://app?vid=5f5c9924-a1db-4b30-90b4-253c9aaee8df"},"vehicle_type_id":"4","last_reported":1687061251,"current_range_meters":21200,"station_id":"ce4bgqh2rcd13ifvqc5g","pricing_plan_id":"free"},{"bike_id":"6982dac1-91c9-4ff0-843d-a6411196b11b","system_id":"levelo_inurba_marseille","lat":43.30304,"lon":5.368987,"is_reserved":false,"is_disabled":false,"rental_uris":{"android":"levelo://app?vid=6982dac1-91c9-4ff0-843d-a6411196b11b","ios":"levelo://app?vid=6982dac1-91c9-4ff0-843d-a6411196b11b"},"vehicle_type_id":"4","last_reported":1687061251,"current_range_meters":30000,"station_id":"ce4bgqh2rcd13ifvqc5g","pricing_plan_id":"free"},{"bike_id":"4af2e187-f1af-483b-9b2d-0d330f1ffc70","system_id":"levelo_inurba_marseille","lat":43.303046,"lon":5.368981,"is_reserved":false,"is_disabled":false,"rental_uris":{"android":"levelo://app?vid=4af2e187-f1af-483b-9b2d-0d330f1ffc70","ios":"levelo://app?vid=4af2e187-f1af-483b-9b2d-0d330f1ffc70"},"vehicle_type_id":"4","last_reported":1687061251,"current_range_meters":31200,"station_id":"ce4bgqh2rcd13ifvqc5g","pricing_plan_id":"free"},{"bike_id":"54105187-4d93-4d9f-90b5-aa0b4942a62d","system_id":"levelo_inurba_marseille","lat":43.315289,"lon":5.380349,"is_reserved":false,"is_disabled":false,"rental_uris":{"android":"levelo://app?vid=54105187-4d93-4d9f-90b5-aa0b4942a62d","ios":"levelo://app?vid=54105187-4d93-4d9f-90b5-aa0b4942a62d"},"vehicle_type_id":"4","last_reported":1687061251,"current_range_meters":31200,"station_id":"ce4bhsp2rcd13ifvqi50","pricing_plan_id":"free"},{"bike_id":"94107f06-e304-40bf-9c9b-91d6304d67c0","system_id":"levelo_inurba_marseille","lat":43.315289,"lon":5.380349,"is_reserved":false,"is_disabled":false,"rental_uris":{"android":"levelo://app?vid=94107f06-e304-40bf-9c9b-91d6304d67c0","ios":"levelo://app?vid=94107f06-e304-40bf-9c9b-91d6304d67c0"},"vehicle_type_id":"4","last_reported":1687061251,"current_range_meters":17600,"station_id":"ce4bhsp2rcd13ifvqi50","pricing_plan_id":"free"},{"bike_id":"b85b5121-185e-43fc-81a0-dad6dc9eb430","system_id":"levelo_inurba_marseille","lat":43.315289,"lon":5.380349,"is_reserved":false,"is_disabled":false,"rental_uris":{"android":"levelo://app?vid=b85b5121-185e-43fc-81a0-dad6dc9eb430","ios":"levelo://app?vid=b85b5121-185e-43fc-81a0-dad6dc9eb430"},"vehicle_type_id":"4","last_reported":1687061251,"current_range_meters":21600,"station_id":"ce4bhsp2rcd13ifvqi50","pricing_plan_id":"free"},{"bike_id":"8d51db3c-ddf0-4868-a42f-0868b9c8ed86","system_id":"levelo_inurba_marseille","lat":43.31532,"lon":5.38035,"is_reserved":false,"is_disabled":false,"rental_uris":{"android":"levelo://app?vid=8d51db3c-ddf0-4868-a42f-0868b9c8ed86","ios":"levelo://app?vid=8d51db3c-ddf0-4868-a42f-0868b9c8ed86"},"vehicle_type_id":"4","last_reported":1687061251,"current_range_meters":31200,"station_id":"ce4bhsp2rcd13ifvqi50","pricing_plan_id":"free"},{"bike_id":"b05dad50-0197-4544-a415-ef3f823f99bf","system_id":"levelo_inurba_marseille","lat":43.308012,"lon":5.381511,"is_reserved":false,"is_disabled":false,"rental_uris":{"android":"levelo://app?vid=b05dad50-0197-4544-a415-ef3f823f99bf","ios":"levelo://app?vid=b05dad50-0197-4544-a415-ef3f823f99bf"},"vehicle_type_id":"4","last_reported":1687061251,"current_range_meters":31200,"station_id":"ce4bgt12rcd13ifvqce0","pricing_plan_id":"free"},{"bike_id":"ae33307b-fcd5-479b-9ae1-9002ed226c6e","system_id":"levelo_inurba_marseille","lat":43.308012,"lon":5.381511,"is_reserved":false,"is_disabled":false,"rental_uris":{"android":"levelo://app?vid=ae33307b-fcd5-479b-9ae1-9002ed226c6e","ios":"levelo://app?vid=ae33307b-fcd5-479b-9ae1-9002ed226c6e"},"vehicle_type_id":"4","last_reported":1687061251,"current_range_meters":31200,"station_id":"ce4bgt12rcd13ifvqce0","pricing_plan_id":"free"},{"bike_id":"a520d7ca-17c1-493b-9561-b9e1c75cae91","system_id":"levelo_inurba_marseille","lat":43.308012,"lon":5.381511,"is_reserved":false,"is_disabled":false,"rental_uris":{"android":"levelo://app?vid=a520d7ca-17c1-493b-9561-b9e1c75cae91","ios":"levelo://app?vid=a520d7ca-17c1-493b-9561-b9e1c75cae91"},"vehicle_type_id":"4","last_reported":1687061251,"current_range_meters":28800,"station_id":"ce4bgt12rcd13ifvqce0","pricing_plan_id":"free"},{"bike_id":"c79da9f1-69de-4cd5-b481-14733e33f349","system_id":"levelo_inurba_marseille","lat":43.308012,"lon":5.381511,"is_reserved":false,"is_disabled":false,"rental_uris":{"android":"levelo://app?vid=c79da9f1-69de-4cd5-b481-14733e33f349","ios":"levelo://app?vid=c79da9f1-69de-4cd5-b481-14733e33f349"},"vehicle_type_id":"4","last_reported":1687061251,"current_range_meters":19600,"station_id":"ce4bgt12rcd13ifvqce0","pricing_plan_id":"free"},{"bike_id":"2c600982-9579-4867-8c17-6bea54af6e79","system_id":"levelo_inurba_marseille","lat":43.308012,"lon":5.381511,"is_reserved":false,"is_disabled":false,"rental_uris":{"android":"levelo://app?vid=2c600982-9579-4867-8c17-6bea54af6e79","ios":"levelo://app?vid=2c600982-9579-4867-8c17-6bea54af6e79"},"vehicle_type_id":"4","last_reported":1687061251,"current_range_meters":25200,"station_id":"ce4bgt12rcd13ifvqce0","pricing_plan_id":"free"},{"bike_id":"ede8fd9a-8e39-4e5b-b4e1-4b1ac522f932","system_id":"levelo_inurba_marseille","lat":43.304606,"lon":5.379026,"is_reserved":false,"is_disabled":false,"rental_uris":{"android":"levelo://app?vid=ede8fd9a-8e39-4e5b-b4e1-4b1ac522f932","ios":"levelo://app?vid=ede8fd9a-8e39-4e5b-b4e1-4b1ac522f932"},"vehicle_type_id":"4","last_reported":1687061251,"current_range_meters":30400,"station_id":"ce4bgup2rcd13ifvqcn0","pricing_plan_id":"free"},{"bike_id":"9e5f4c10-ea50-4a32-a84d-11b8df68a189","system_id":"levelo_inurba_marseille","lat":43.304606,"lon":5.379026,"is_reserved":false,"is_disabled":false,"rental_uris":{"android":"levelo://app?vid=9e5f4c10-ea50-4a32-a84d-11b8df68a189","ios":"levelo://app?vid=9e5f4c10-ea50-4a32-a84d-11b8df68a189"},"vehicle_type_id":"4","last_reported":1687061251,"current_range_meters":24400,"station_id":"ce4bgup2rcd13ifvqcn0","pricing_plan_id":"free"},{"bike_id":"90673d94-9f73-4e56-88f7-3d56ffe099ae","system_id":"levelo_inurba_marseille","lat":43.304606,"lon":5.379026,"is_reserved":false,"is_disabled":false,"rental_uris":{"android":"levelo://app?vid=90673d94-9f73-4e56-88f7-3d56ffe099ae","ios":"levelo://app?vid=90673d94-9f73-4e56-88f7-3d56ffe099ae"},"vehicle_type_id":"4","last_reported":1687061251,"current_range_meters":24000,"station_id":"ce4bgup2rcd13ifvqcn0","pricing_plan_id":"free"},{"bike_id":"43fc693e-f2a9-4aec-8fd9-d094bb02cb70","system_id":"levelo_inurba_marseille","lat":43.304606,"lon":5.379026,"is_reserved":false,"is_disabled":false,"rental_uris":{"android":"levelo://app?vid=43fc693e-f2a9-4aec-8fd9-d094bb02cb70","ios":"levelo://app?vid=43fc693e-f2a9-4aec-8fd9-d094bb02cb70"},"vehicle_type_id":"4","last_reported":1687061251,"current_range_meters":18800,"station_id":"ce4bgup2rcd13ifvqcn0","pricing_plan_id":"free"},{"bike_id":"50072f04-ed73-4d35-a212-d2c834ebf79f","system_id":"levelo_inurba_marseille","lat":43.304606,"lon":5.379026,"is_reserved":false,"is_disabled":false,"rental_uris":{"android":"levelo://app?vid=50072f04-ed73-4d35-a212-d2c834ebf79f","ios":"levelo://app?vid=50072f04-ed73-4d35-a212-d2c834ebf79f"},"vehicle_type_id":"4","last_reported":1687061251,"current_range_meters":13600,"station_id":"ce4bgup2rcd13ifvqcn0","pricing_plan_id":"free"},{"bike_id":"2af58f89-da6c-4881-a491-0f999477af01","system_id":"levelo_inurba_marseille","lat":43.304606,"lon":5.379026,"is_reserved":false,"is_disabled":false,"rental_uris":{"android":"levelo://app?vid=2af58f89-da6c-4881-a491-0f999477af01","ios":"levelo://app?vid=2af58f89-da6c-4881-a491-0f999477af01"},"vehicle_type_id":"4","last_reported":1687061251,"current_range_meters":28400,"station_id":"ce4bgup2rcd13ifvqcn0","pricing_plan_id":"free"},{"bike_id":"2f5df8d4-eeea-43e4-b573-c96ac0ec1954","system_id":"levelo_inurba_marseille","lat":43.302784,"lon":5.377158,"is_reserved":false,"is_disabled":false,"rental_uris":{"android":"levelo://app?vid=2f5df8d4-eeea-43e4-b573-c96ac0ec1954","ios":"levelo://app?vid=2f5df8d4-eeea-43e4-b573-c96ac0ec1954"},"vehicle_type_id":"4","last_reported":1687061251,"current_range_meters":31200,"station_id":"ce4bguh2rcd13ifvqcj0","pricing_plan_id":"free"},{"bike_id":"cd44c2eb-0348-42ee-8b2c-278d020db24b","system_id":"levelo_inurba_marseille","lat":43.30143,"lon":5.37413,"is_reserved":false,"is_disabled":false,"rental_uris":{"android":"levelo://app?vid=cd44c2eb-0348-42ee-8b2c-278d020db24b","ios":"levelo://app?vid=cd44c2eb-0348-42ee-8b2c-278d020db24b"},"vehicle_type_id":"4","last_reported":1687061251,"current_range_meters":20000,"station_id":"ce4bgs92rcd13ifvqcc0","pricing_plan_id":"free"},{"bike_id":"c3a20bf1-be18-49ec-bc85-5c426920862f","system_id":"levelo_inurba_marseille","lat":43.319935,"lon":5.381699,"is_reserved":false,"is_disabled":false,"rental_uris":{"android":"levelo://app?vid=c3a20bf1-be18-49ec-bc85-5c426920862f","ios":"levelo://app?vid=c3a20bf1-be18-49ec-bc85-5c426920862f"},"vehicle_type_id":"4","last_reported":1687061251,"current_range_meters":30800,"station_id":"ce4bhr12rcd13ifvqhpg","pricing_plan_id":"free"},{"bike_id":"40e7df5d-04d5-43a9-926f-863219d91841","system_id":"levelo_inurba_marseille","lat":43.319935,"lon":5.381699,"is_reserved":false,"is_disabled":false,"rental_uris":{"android":"levelo://app?vid=40e7df5d-04d5-43a9-926f-863219d91841","ios":"levelo://app?vid=40e7df5d-04d5-43a9-926f-863219d91841"},"vehicle_type_id":"4","last_reported":1687061251,"current_range_meters":31200,"station_id":"ce4bhr12rcd13ifvqhpg","pricing_plan_id":"free"},{"bike_id":"3c3aa989-db63-4017-86a4-556c2b8f3d59","system_id":"levelo_inurba_marseille","lat":43.319935,"lon":5.381699,"is_reserved":false,"is_disabled":false,"rental_uris":{"android":"levelo://app?vid=3c3aa989-db63-4017-86a4-556c2b8f3d59","ios":"levelo://app?vid=3c3aa989-db63-4017-86a4-556c2b8f3d59"},"vehicle_type_id":"4","last_reported":1687061251,"current_range_meters":19600,"station_id":"ce4bhr12rcd13ifvqhpg","pricing_plan_id":"free"},{"bike_id":"4c755050-5aed-45e0-9296-927fc41158ba","system_id":"levelo_inurba_marseille","lat":43.319935,"lon":5.381699,"is_reserved":false,"is_disabled":false,"rental_uris":{"android":"levelo://app?vid=4c755050-5aed-45e0-9296-927fc41158ba","ios":"levelo://app?vid=4c755050-5aed-45e0-9296-927fc41158ba"},"vehicle_type_id":"4","last_reported":1687061251,"current_range_meters":27200,"station_id":"ce4bhr12rcd13ifvqhpg","pricing_plan_id":"free"},{"bike_id":"485bc12e-b97d-460d-a761-3f26cdf7abb4","system_id":"levelo_inurba_marseille","lat":43.319935,"lon":5.381699,"is_reserved":false,"is_disabled":false,"rental_uris":{"android":"levelo://app?vid=485bc12e-b97d-460d-a761-3f26cdf7abb4","ios":"levelo://app?vid=485bc12e-b97d-460d-a761-3f26cdf7abb4"},"vehicle_type_id":"4","last_reported":1687061251,"current_range_meters":28400,"station_id":"ce4bhr12rcd13ifvqhpg","pricing_plan_id":"free"},{"bike_id":"1a9de762-4764-4f83-94a4-7ab491da31e3","system_id":"levelo_inurba_marseille","lat":43.319935,"lon":5.381699,"is_reserved":false,"is_disabled":false,"rental_uris":{"android":"levelo://app?vid=1a9de762-4764-4f83-94a4-7ab491da31e3","ios":"levelo://app?vid=1a9de762-4764-4f83-94a4-7ab491da31e3"},"vehicle_type_id":"4","last_reported":1687061251,"current_range_meters":19200,"station_id":"ce4bhr12rcd13ifvqhpg","pricing_plan_id":"free"},{"bike_id":"73500cb0-2847-4e0a-819e-cb228cb6302a","system_id":"levelo_inurba_marseille","lat":43.3136,"lon":5.384924,"is_reserved":false,"is_disabled":false,"rental_uris":{"android":"levelo://app?vid=73500cb0-2847-4e0a-819e-cb228cb6302a","ios":"levelo://app?vid=73500cb0-2847-4e0a-819e-cb228cb6302a"},"vehicle_type_id":"4","last_reported":1687061251,"current_range_meters":27200,"station_id":"","pricing_plan_id":"free"},{"bike_id":"41f713cf-57e6-4fbf-8af1-f7b8b384babd","system_id":"levelo_inurba_marseille","lat":43.31355,"lon":5.38498,"is_reserved":false,"is_disabled":false,"rental_uris":{"android":"levelo://app?vid=41f713cf-57e6-4fbf-8af1-f7b8b384babd","ios":"levelo://app?vid=41f713cf-57e6-4fbf-8af1-f7b8b384babd"},"vehicle_type_id":"4","last_reported":1687061251,"current_range_meters":25200,"station_id":"ce4bgt92rcd13ifvqcf0","pricing_plan_id":"free"},{"bike_id":"1d47b2e2-b6b2-467e-89b2-30c2b3dd988b","system_id":"levelo_inurba_marseille","lat":43.31372,"lon":5.38525,"is_reserved":false,"is_disabled":false,"rental_uris":{"android":"levelo://app?vid=1d47b2e2-b6b2-467e-89b2-30c2b3dd988b","ios":"levelo://app?vid=1d47b2e2-b6b2-467e-89b2-30c2b3dd988b"},"vehicle_type_id":"4","last_reported":1687061251,"current_range_meters":13200,"station_id":"","pricing_plan_id":"free"},{"bike_id":"f2992cf5-dfd3-472e-b093-7b85e1def542","system_id":"levelo_inurba_marseille","lat":43.299222,"lon":5.365554,"is_reserved":false,"is_disabled":false,"rental_uris":{"android":"levelo://app?vid=f2992cf5-dfd3-472e-b093-7b85e1def542","ios":"levelo://app?vid=f2992cf5-dfd3-472e-b093-7b85e1def542"},"vehicle_type_id":"4","last_reported":1687061251,"current_range_meters":30800,"station_id":"ce4bgm92rcd13ifvqbr0","pricing_plan_id":"free"},{"bike_id":"e9d9970e-e4d3-4b50-ab0a-5f64013b4a2e","system_id":"levelo_inurba_marseille","lat":43.29921,"lon":5.36566,"is_reserved":false,"is_disabled":false,"rental_uris":{"android":"levelo://app?vid=e9d9970e-e4d3-4b50-ab0a-5f64013b4a2e","ios":"levelo://app?vid=e9d9970e-e4d3-4b50-ab0a-5f64013b4a2e"},"vehicle_type_id":"4","last_reported":1687061251,"current_range_meters":29200,"station_id":"ce4bgm92rcd13ifvqbr0","pricing_plan_id":"free"},{"bike_id":"03e3aae1-431f-4bcb-a077-7200d3268ac0","system_id":"levelo_inurba_marseille","lat":43.299222,"lon":5.365554,"is_reserved":false,"is_disabled":false,"rental_uris":{"android":"levelo://app?vid=03e3aae1-431f-4bcb-a077-7200d3268ac0","ios":"levelo://app?vid=03e3aae1-431f-4bcb-a077-7200d3268ac0"},"vehicle_type_id":"4","last_reported":1687061251,"current_range_meters":29600,"station_id":"ce4bgm92rcd13ifvqbr0","pricing_plan_id":"free"},{"bike_id":"330412da-b9eb-49fa-9ba0-9288ee9ddd31","system_id":"levelo_inurba_marseille","lat":43.30041,"lon":5.37512,"is_reserved":false,"is_disabled":false,"rental_uris":{"android":"levelo://app?vid=330412da-b9eb-49fa-9ba0-9288ee9ddd31","ios":"levelo://app?vid=330412da-b9eb-49fa-9ba0-9288ee9ddd31"},"vehicle_type_id":"4","last_reported":1687061251,"current_range_meters":16400,"station_id":"","pricing_plan_id":"free"},{"bike_id":"691058ef-3225-465e-90fd-12f259766037","system_id":"levelo_inurba_marseille","lat":43.298433,"lon":5.362774,"is_reserved":false,"is_disabled":false,"rental_uris":{"android":"levelo://app?vid=691058ef-3225-465e-90fd-12f259766037","ios":"levelo://app?vid=691058ef-3225-465e-90fd-12f259766037"},"vehicle_type_id":"4","last_reported":1687061251,"current_range_meters":31200,"station_id":"ce4bgpp2rcd13ifvqc3g","pricing_plan_id":"free"},{"bike_id":"b6495f56-fb2a-48b5-b4af-6209b2768595","system_id":"levelo_inurba_marseille","lat":43.305364,"lon":5.384119,"is_reserved":false,"is_disabled":false,"rental_uris":{"android":"levelo://app?vid=b6495f56-fb2a-48b5-b4af-6209b2768595","ios":"levelo://app?vid=b6495f56-fb2a-48b5-b4af-6209b2768595"},"vehicle_type_id":"4","last_reported":1687061251,"current_range_meters":29200,"station_id":"ce4bgg92rcd13ifvqb30","pricing_plan_id":"free"},{"bike_id":"33937691-a545-41b7-b0b2-52e4a239767f","system_id":"levelo_inurba_marseille","lat":43.298433,"lon":5.362774,"is_reserved":false,"is_disabled":false,"rental_uris":{"android":"levelo://app?vid=33937691-a545-41b7-b0b2-52e4a239767f","ios":"levelo://app?vid=33937691-a545-41b7-b0b2-52e4a239767f"},"vehicle_type_id":"4","last_reported":1687061251,"current_range_meters":25200,"station_id":"ce4bgpp2rcd13ifvqc3g","pricing_plan_id":"free"},{"bike_id":"7180f0ad-7a5d-424a-b519-84480e387faf","system_id":"levelo_inurba_marseille","lat":43.29843,"lon":5.36272,"is_reserved":false,"is_disabled":false,"rental_uris":{"android":"levelo://app?vid=7180f0ad-7a5d-424a-b519-84480e387faf","ios":"levelo://app?vid=7180f0ad-7a5d-424a-b519-84480e387faf"},"vehicle_type_id":"4","last_reported":1687061251,"current_range_meters":28800,"station_id":"ce4bgpp2rcd13ifvqc3g","pricing_plan_id":"free"},{"bike_id":"89025839-cc7b-4268-9218-a327e619ea0c","system_id":"levelo_inurba_marseille","lat":43.305364,"lon":5.384119,"is_reserved":false,"is_disabled":false,"rental_uris":{"android":"levelo://app?vid=89025839-cc7b-4268-9218-a327e619ea0c","ios":"levelo://app?vid=89025839-cc7b-4268-9218-a327e619ea0c"},"vehicle_type_id":"4","last_reported":1687061251,"current_range_meters":14800,"station_id":"ce4bgg92rcd13ifvqb30","pricing_plan_id":"free"},{"bike_id":"6179a3a9-9b13-4c55-84b6-fb9afc5ab5d9","system_id":"levelo_inurba_marseille","lat":43.299243,"lon":5.374807,"is_reserved":false,"is_disabled":false,"rental_uris":{"android":"levelo://app?vid=6179a3a9-9b13-4c55-84b6-fb9afc5ab5d9","ios":"levelo://app?vid=6179a3a9-9b13-4c55-84b6-fb9afc5ab5d9"},"vehicle_type_id":"4","last_reported":1687061251,"current_range_meters":26400,"station_id":"ce4bgjh2rcd13ifvqbg0","pricing_plan_id":"free"},{"bike_id":"87d94680-cb9b-4a9a-a11b-3c1f095a6825","system_id":"levelo_inurba_marseille","lat":43.311722,"lon":5.387247,"is_reserved":false,"is_disabled":false,"rental_uris":{"android":"levelo://app?vid=87d94680-cb9b-4a9a-a11b-3c1f095a6825","ios":"levelo://app?vid=87d94680-cb9b-4a9a-a11b-3c1f095a6825"},"vehicle_type_id":"4","last_reported":1687061251,"current_range_meters":27600,"station_id":"ce4bgv12rcd13ifvqcp0","pricing_plan_id":"free"},{"bike_id":"942ef8ab-5ced-4671-bb9f-b9b0e881a07f","system_id":"levelo_inurba_marseille","lat":43.297794,"lon":5.370888,"is_reserved":false,"is_disabled":false,"rental_uris":{"android":"levelo://app?vid=942ef8ab-5ced-4671-bb9f-b9b0e881a07f","ios":"levelo://app?vid=942ef8ab-5ced-4671-bb9f-b9b0e881a07f"},"vehicle_type_id":"4","last_reported":1687061251,"current_range_meters":29600,"station_id":"ce4bgop2rcd13ifvqc1g","pricing_plan_id":"free"},{"bike_id":"5a3d057e-bbd5-40c5-982e-f22c9ac8f3e3","system_id":"levelo_inurba_marseille","lat":43.328371,"lon":5.366909,"is_reserved":false,"is_disabled":false,"rental_uris":{"android":"levelo://app?vid=5a3d057e-bbd5-40c5-982e-f22c9ac8f3e3","ios":"levelo://app?vid=5a3d057e-bbd5-40c5-982e-f22c9ac8f3e3"},"vehicle_type_id":"4","last_reported":1687061251,"current_range_meters":3600,"station_id":"ce4bhs92rcd13ifvqi0g","pricing_plan_id":"free"},{"bike_id":"6d5ccf33-759a-4c7a-af82-9f67388b4177","system_id":"levelo_inurba_marseille","lat":43.328371,"lon":5.366909,"is_reserved":false,"is_disabled":false,"rental_uris":{"android":"levelo://app?vid=6d5ccf33-759a-4c7a-af82-9f67388b4177","ios":"levelo://app?vid=6d5ccf33-759a-4c7a-af82-9f67388b4177"},"vehicle_type_id":"4","last_reported":1687061251,"current_range_meters":31200,"station_id":"ce4bhs92rcd13ifvqi0g","pricing_plan_id":"free"},{"bike_id":"731cce5d-c725-402d-b941-54910a08f036","system_id":"levelo_inurba_marseille","lat":43.32826,"lon":5.36693,"is_reserved":false,"is_disabled":false,"rental_uris":{"android":"levelo://app?vid=731cce5d-c725-402d-b941-54910a08f036","ios":"levelo://app?vid=731cce5d-c725-402d-b941-54910a08f036"},"vehicle_type_id":"4","last_reported":1687061251,"current_range_meters":31200,"station_id":"ce4bhs92rcd13ifvqi0g","pricing_plan_id":"free"},{"bike_id":"3b343a5c-8423-476a-a7c8-83278a85a66d","system_id":"levelo_inurba_marseille","lat":43.328371,"lon":5.366909,"is_reserved":false,"is_disabled":false,"rental_uris":{"android":"levelo://app?vid=3b343a5c-8423-476a-a7c8-83278a85a66d","ios":"levelo://app?vid=3b343a5c-8423-476a-a7c8-83278a85a66d"},"vehicle_type_id":"4","last_reported":1687061251,"current_range_meters":1600,"station_id":"ce4bhs92rcd13ifvqi0g","pricing_plan_id":"free"},{"bike_id":"69bf5c29-7e5d-45c7-b1b2-514d42707ee7","system_id":"levelo_inurba_marseille","lat":43.328371,"lon":5.366909,"is_reserved":false,"is_disabled":false,"rental_uris":{"android":"levelo://app?vid=69bf5c29-7e5d-45c7-b1b2-514d42707ee7","ios":"levelo://app?vid=69bf5c29-7e5d-45c7-b1b2-514d42707ee7"},"vehicle_type_id":"4","last_reported":1687061251,"current_range_meters":31200,"station_id":"ce4bhs92rcd13ifvqi0g","pricing_plan_id":"free"},{"bike_id":"dba9e30e-a749-43fa-a75b-51b691339771","system_id":"levelo_inurba_marseille","lat":43.328371,"lon":5.366909,"is_reserved":false,"is_disabled":false,"rental_uris":{"android":"levelo://app?vid=dba9e30e-a749-43fa-a75b-51b691339771","ios":"levelo://app?vid=dba9e30e-a749-43fa-a75b-51b691339771"},"vehicle_type_id":"4","last_reported":1687061251,"current_range_meters":31200,"station_id":"ce4bhs92rcd13ifvqi0g","pricing_plan_id":"free"},{"bike_id":"637809e1-0b3d-44b1-a319-0f460e3654ec","system_id":"levelo_inurba_marseille","lat":43.297163,"lon":5.365866,"is_reserved":false,"is_disabled":false,"rental_uris":{"android":"levelo://app?vid=637809e1-0b3d-44b1-a319-0f460e3654ec","ios":"levelo://app?vid=637809e1-0b3d-44b1-a319-0f460e3654ec"},"vehicle_type_id":"4","last_reported":1687061251,"current_range_meters":26400,"station_id":"ce4bgn12rcd13ifvqbt0","pricing_plan_id":"free"},{"bike_id":"979569af-879a-4a1e-8a12-deac7e037d87","system_id":"levelo_inurba_marseille","lat":43.297163,"lon":5.365866,"is_reserved":false,"is_disabled":false,"rental_uris":{"android":"levelo://app?vid=979569af-879a-4a1e-8a12-deac7e037d87","ios":"levelo://app?vid=979569af-879a-4a1e-8a12-deac7e037d87"},"vehicle_type_id":"4","last_reported":1687061251,"current_range_meters":24800,"station_id":"ce4bgn12rcd13ifvqbt0","pricing_plan_id":"free"},{"bike_id":"176f4894-d7fc-460e-aa5d-7c8c1e206dc3","system_id":"levelo_inurba_marseille","lat":43.297163,"lon":5.365866,"is_reserved":false,"is_disabled":false,"rental_uris":{"android":"levelo://app?vid=176f4894-d7fc-460e-aa5d-7c8c1e206dc3","ios":"levelo://app?vid=176f4894-d7fc-460e-aa5d-7c8c1e206dc3"},"vehicle_type_id":"4","last_reported":1687061251,"current_range_meters":12800,"station_id":"ce4bgn12rcd13ifvqbt0","pricing_plan_id":"free"},{"bike_id":"88d0330c-5bb0-4a19-9b65-d4683b42e015","system_id":"levelo_inurba_marseille","lat":43.29683,"lon":5.36046,"is_reserved":false,"is_disabled":false,"rental_uris":{"android":"levelo://app?vid=88d0330c-5bb0-4a19-9b65-d4683b42e015","ios":"levelo://app?vid=88d0330c-5bb0-4a19-9b65-d4683b42e015"},"vehicle_type_id":"4","last_reported":1687061251,"current_range_meters":4000,"station_id":"","pricing_plan_id":"free"},{"bike_id":"24f41ca5-b432-4feb-a0c8-a15026b97306","system_id":"levelo_inurba_marseille","lat":43.296131,"lon":5.370773,"is_reserved":false,"is_disabled":false,"rental_uris":{"android":"levelo://app?vid=24f41ca5-b432-4feb-a0c8-a15026b97306","ios":"levelo://app?vid=24f41ca5-b432-4feb-a0c8-a15026b97306"},"vehicle_type_id":"4","last_reported":1687061251,"current_range_meters":13600,"station_id":"ce4bgnh2rcd13ifvqc0g","pricing_plan_id":"free"},{"bike_id":"2334412f-9062-4c58-8a6a-27e37fd3e912","system_id":"levelo_inurba_marseille","lat":43.296921,"lon":5.376579,"is_reserved":false,"is_disabled":false,"rental_uris":{"android":"levelo://app?vid=2334412f-9062-4c58-8a6a-27e37fd3e912","ios":"levelo://app?vid=2334412f-9062-4c58-8a6a-27e37fd3e912"},"vehicle_type_id":"4","last_reported":1687061251,"current_range_meters":28800,"station_id":"ce4bgkh2rcd13ifvqbl0","pricing_plan_id":"free"},{"bike_id":"bd6ba8ea-4aec-4e7e-acab-02769d34d490","system_id":"levelo_inurba_marseille","lat":43.299028,"lon":5.381509,"is_reserved":false,"is_disabled":false,"rental_uris":{"android":"levelo://app?vid=bd6ba8ea-4aec-4e7e-acab-02769d34d490","ios":"levelo://app?vid=bd6ba8ea-4aec-4e7e-acab-02769d34d490"},"vehicle_type_id":"4","last_reported":1687061251,"current_range_meters":26400,"station_id":"ce4bgj12rcd13ifvqbc0","pricing_plan_id":"free"},{"bike_id":"17b1963f-896c-4329-9599-6410f9ff2054","system_id":"levelo_inurba_marseille","lat":43.299028,"lon":5.381509,"is_reserved":false,"is_disabled":false,"rental_uris":{"android":"levelo://app?vid=17b1963f-896c-4329-9599-6410f9ff2054","ios":"levelo://app?vid=17b1963f-896c-4329-9599-6410f9ff2054"},"vehicle_type_id":"4","last_reported":1687061251,"current_range_meters":17200,"station_id":"ce4bgj12rcd13ifvqbc0","pricing_plan_id":"free"},{"bike_id":"c20fc709-62b2-40e3-bb75-6f322cf410ea","system_id":"levelo_inurba_marseille","lat":43.299028,"lon":5.381509,"is_reserved":false,"is_disabled":false,"rental_uris":{"android":"levelo://app?vid=c20fc709-62b2-40e3-bb75-6f322cf410ea","ios":"levelo://app?vid=c20fc709-62b2-40e3-bb75-6f322cf410ea"},"vehicle_type_id":"4","last_reported":1687061251,"current_range_meters":24000,"station_id":"ce4bgj12rcd13ifvqbc0","pricing_plan_id":"free"},{"bike_id":"c52d9d68-b043-48e5-b989-bf1a25946a12","system_id":"levelo_inurba_marseille","lat":43.299028,"lon":5.381509,"is_reserved":false,"is_disabled":false,"rental_uris":{"android":"levelo://app?vid=c52d9d68-b043-48e5-b989-bf1a25946a12","ios":"levelo://app?vid=c52d9d68-b043-48e5-b989-bf1a25946a12"},"vehicle_type_id":"4","last_reported":1687061251,"current_range_meters":26000,"station_id":"ce4bgj12rcd13ifvqbc0","pricing_plan_id":"free"},{"bike_id":"c33fca14-438a-4532-8d69-625b73bc7672","system_id":"levelo_inurba_marseille","lat":43.299028,"lon":5.381509,"is_reserved":false,"is_disabled":false,"rental_uris":{"android":"levelo://app?vid=c33fca14-438a-4532-8d69-625b73bc7672","ios":"levelo://app?vid=c33fca14-438a-4532-8d69-625b73bc7672"},"vehicle_type_id":"4","last_reported":1687061251,"current_range_meters":11600,"station_id":"ce4bgj12rcd13ifvqbc0","pricing_plan_id":"free"},{"bike_id":"3f6fc75e-d9a7-4759-b637-6aa9608e1e7f","system_id":"levelo_inurba_marseille","lat":43.317557,"lon":5.390173,"is_reserved":false,"is_disabled":false,"rental_uris":{"android":"levelo://app?vid=3f6fc75e-d9a7-4759-b637-6aa9608e1e7f","ios":"levelo://app?vid=3f6fc75e-d9a7-4759-b637-6aa9608e1e7f"},"vehicle_type_id":"4","last_reported":1687061251,"current_range_meters":26000,"station_id":"ce4bhqp2rcd13ifvqhng","pricing_plan_id":"free"},{"bike_id":"4a10882c-7152-4233-bc08-3e7673adbd38","system_id":"levelo_inurba_marseille","lat":43.317557,"lon":5.390173,"is_reserved":false,"is_disabled":false,"rental_uris":{"android":"levelo://app?vid=4a10882c-7152-4233-bc08-3e7673adbd38","ios":"levelo://app?vid=4a10882c-7152-4233-bc08-3e7673adbd38"},"vehicle_type_id":"4","last_reported":1687061251,"current_range_meters":26400,"station_id":"ce4bhqp2rcd13ifvqhng","pricing_plan_id":"free"},{"bike_id":"c18824e4-26d3-48f7-af69-27c44319ec26","system_id":"levelo_inurba_marseille","lat":43.317557,"lon":5.390173,"is_reserved":false,"is_disabled":false,"rental_uris":{"android":"levelo://app?vid=c18824e4-26d3-48f7-af69-27c44319ec26","ios":"levelo://app?vid=c18824e4-26d3-48f7-af69-27c44319ec26"},"vehicle_type_id":"4","last_reported":1687061251,"current_range_meters":30000,"station_id":"ce4bhqp2rcd13ifvqhng","pricing_plan_id":"free"},{"bike_id":"60c2731c-b219-4de5-8fad-68f9f3511d1c","system_id":"levelo_inurba_marseille","lat":43.317557,"lon":5.390173,"is_reserved":false,"is_disabled":false,"rental_uris":{"android":"levelo://app?vid=60c2731c-b219-4de5-8fad-68f9f3511d1c","ios":"levelo://app?vid=60c2731c-b219-4de5-8fad-68f9f3511d1c"},"vehicle_type_id":"4","last_reported":1687061251,"current_range_meters":23200,"station_id":"ce4bhqp2rcd13ifvqhng","pricing_plan_id":"free"},{"bike_id":"dab115bf-1cab-4b8d-ad6a-67fda1d71234","system_id":"levelo_inurba_marseille","lat":43.317557,"lon":5.390173,"is_reserved":false,"is_disabled":false,"rental_uris":{"android":"levelo://app?vid=dab115bf-1cab-4b8d-ad6a-67fda1d71234","ios":"levelo://app?vid=dab115bf-1cab-4b8d-ad6a-67fda1d71234"},"vehicle_type_id":"4","last_reported":1687061251,"current_range_meters":26000,"station_id":"ce4bhqp2rcd13ifvqhng","pricing_plan_id":"free"},{"bike_id":"5d013f89-ac78-47e7-aefc-360a338c7d81","system_id":"levelo_inurba_marseille","lat":43.317557,"lon":5.390173,"is_reserved":false,"is_disabled":false,"rental_uris":{"android":"levelo://app?vid=5d013f89-ac78-47e7-aefc-360a338c7d81","ios":"levelo://app?vid=5d013f89-ac78-47e7-aefc-360a338c7d81"},"vehicle_type_id":"4","last_reported":1687061251,"current_range_meters":31200,"station_id":"ce4bhqp2rcd13ifvqhng","pricing_plan_id":"free"},{"bike_id":"d89a6111-594c-4044-bab7-fa8ad5f81068","system_id":"levelo_inurba_marseille","lat":43.317557,"lon":5.390173,"is_reserved":false,"is_disabled":false,"rental_uris":{"android":"levelo://app?vid=d89a6111-594c-4044-bab7-fa8ad5f81068","ios":"levelo://app?vid=d89a6111-594c-4044-bab7-fa8ad5f81068"},"vehicle_type_id":"4","last_reported":1687061251,"current_range_meters":31200,"station_id":"ce4bhqp2rcd13ifvqhng","pricing_plan_id":"free"},{"bike_id":"68bc4434-43d5-4e40-8c18-7e5b768b551f","system_id":"levelo_inurba_marseille","lat":43.298037,"lon":5.381066,"is_reserved":false,"is_disabled":false,"rental_uris":{"android":"levelo://app?vid=68bc4434-43d5-4e40-8c18-7e5b768b551f","ios":"levelo://app?vid=68bc4434-43d5-4e40-8c18-7e5b768b551f"},"vehicle_type_id":"4","last_reported":1687061251,"current_range_meters":21600,"station_id":"ce4bgip2rcd13ifvqbb0","pricing_plan_id":"free"},{"bike_id":"250c8a96-8498-4211-b8f3-1b00a8d1fbaf","system_id":"levelo_inurba_marseille","lat":43.296477,"lon":5.37768,"is_reserved":false,"is_disabled":false,"rental_uris":{"android":"levelo://app?vid=250c8a96-8498-4211-b8f3-1b00a8d1fbaf","ios":"levelo://app?vid=250c8a96-8498-4211-b8f3-1b00a8d1fbaf"},"vehicle_type_id":"4","last_reported":1687061251,"current_range_meters":14000,"station_id":"","pricing_plan_id":"free"},{"bike_id":"9e464fc2-6068-47b4-9fc7-c0412795b371","system_id":"levelo_inurba_marseille","lat":43.304274,"lon":5.388873,"is_reserved":false,"is_disabled":false,"rental_uris":{"android":"levelo://app?vid=9e464fc2-6068-47b4-9fc7-c0412795b371","ios":"levelo://app?vid=9e464fc2-6068-47b4-9fc7-c0412795b371"},"vehicle_type_id":"4","last_reported":1687061251,"current_range_meters":27600,"station_id":"ce4bgk12rcd13ifvqbi0","pricing_plan_id":"free"},{"bike_id":"85969516-6fd0-4e15-862c-d9175841a980","system_id":"levelo_inurba_marseille","lat":43.30424,"lon":5.38887,"is_reserved":false,"is_disabled":false,"rental_uris":{"android":"levelo://app?vid=85969516-6fd0-4e15-862c-d9175841a980","ios":"levelo://app?vid=85969516-6fd0-4e15-862c-d9175841a980"},"vehicle_type_id":"4","last_reported":1687061251,"current_range_meters":18800,"station_id":"ce4bgk12rcd13ifvqbi0","pricing_plan_id":"free"},{"bike_id":"b9844620-2a5b-4458-9c34-186163dd77a8","system_id":"levelo_inurba_marseille","lat":43.30424,"lon":5.3889,"is_reserved":false,"is_disabled":false,"rental_uris":{"android":"levelo://app?vid=b9844620-2a5b-4458-9c34-186163dd77a8","ios":"levelo://app?vid=b9844620-2a5b-4458-9c34-186163dd77a8"},"vehicle_type_id":"4","last_reported":1687061251,"current_range_meters":20000,"station_id":"ce4bgk12rcd13ifvqbi0","pricing_plan_id":"free"},{"bike_id":"3e6ecdb2-ea7f-46fb-8082-a1e448764643","system_id":"levelo_inurba_marseille","lat":43.304274,"lon":5.388873,"is_reserved":false,"is_disabled":false,"rental_uris":{"android":"levelo://app?vid=3e6ecdb2-ea7f-46fb-8082-a1e448764643","ios":"levelo://app?vid=3e6ecdb2-ea7f-46fb-8082-a1e448764643"},"vehicle_type_id":"4","last_reported":1687061251,"current_range_meters":12000,"station_id":"ce4bgk12rcd13ifvqbi0","pricing_plan_id":"free"},{"bike_id":"f632d761-42bb-476b-a895-6312bdabc091","system_id":"levelo_inurba_marseille","lat":43.304278,"lon":5.388868,"is_reserved":false,"is_disabled":false,"rental_uris":{"android":"levelo://app?vid=f632d761-42bb-476b-a895-6312bdabc091","ios":"levelo://app?vid=f632d761-42bb-476b-a895-6312bdabc091"},"vehicle_type_id":"4","last_reported":1687061251,"current_range_meters":22400,"station_id":"ce4bgk12rcd13ifvqbi0","pricing_plan_id":"free"},{"bike_id":"d5d73057-88c3-4171-82e3-c37873e71025","system_id":"levelo_inurba_marseille","lat":43.299717,"lon":5.384845,"is_reserved":false,"is_disabled":false,"rental_uris":{"android":"levelo://app?vid=d5d73057-88c3-4171-82e3-c37873e71025","ios":"levelo://app?vid=d5d73057-88c3-4171-82e3-c37873e71025"},"vehicle_type_id":"4","last_reported":1687061251,"current_range_meters":20800,"station_id":"ce4bgj92rcd13ifvqbd0","pricing_plan_id":"free"},{"bike_id":"7095470f-ec38-450b-8f31-43cd36bb0124","system_id":"levelo_inurba_marseille","lat":43.299717,"lon":5.384845,"is_reserved":false,"is_disabled":false,"rental_uris":{"android":"levelo://app?vid=7095470f-ec38-450b-8f31-43cd36bb0124","ios":"levelo://app?vid=7095470f-ec38-450b-8f31-43cd36bb0124"},"vehicle_type_id":"4","last_reported":1687061251,"current_range_meters":28400,"station_id":"ce4bgj92rcd13ifvqbd0","pricing_plan_id":"free"},{"bike_id":"eb56f040-d7e3-440c-9d05-82afe187dd21","system_id":"levelo_inurba_marseille","lat":43.29982,"lon":5.38527,"is_reserved":false,"is_disabled":false,"rental_uris":{"android":"levelo://app?vid=eb56f040-d7e3-440c-9d05-82afe187dd21","ios":"levelo://app?vid=eb56f040-d7e3-440c-9d05-82afe187dd21"},"vehicle_type_id":"4","last_reported":1687061251,"current_range_meters":30400,"station_id":"","pricing_plan_id":"free"},{"bike_id":"57f97489-c42b-4c9d-8f2a-d39ab8b39f5a","system_id":"levelo_inurba_marseille","lat":43.32367,"lon":5.388836,"is_reserved":false,"is_disabled":false,"rental_uris":{"android":"levelo://app?vid=57f97489-c42b-4c9d-8f2a-d39ab8b39f5a","ios":"levelo://app?vid=57f97489-c42b-4c9d-8f2a-d39ab8b39f5a"},"vehicle_type_id":"4","last_reported":1687061251,"current_range_meters":11600,"station_id":"ce4bhqp2rcd13ifvqhog","pricing_plan_id":"free"},{"bike_id":"6bf2229b-f534-4647-b322-42cb17c0e26c","system_id":"levelo_inurba_marseille","lat":43.32367,"lon":5.388836,"is_reserved":false,"is_disabled":false,"rental_uris":{"android":"levelo://app?vid=6bf2229b-f534-4647-b322-42cb17c0e26c","ios":"levelo://app?vid=6bf2229b-f534-4647-b322-42cb17c0e26c"},"vehicle_type_id":"4","last_reported":1687061251,"current_range_meters":18400,"station_id":"ce4bhqp2rcd13ifvqhog","pricing_plan_id":"free"},{"bike_id":"27dd78af-fbb0-48ba-b80d-f7fbb1608659","system_id":"levelo_inurba_marseille","lat":43.32367,"lon":5.388836,"is_reserved":false,"is_disabled":false,"rental_uris":{"android":"levelo://app?vid=27dd78af-fbb0-48ba-b80d-f7fbb1608659","ios":"levelo://app?vid=27dd78af-fbb0-48ba-b80d-f7fbb1608659"},"vehicle_type_id":"4","last_reported":1687061251,"current_range_meters":31200,"station_id":"ce4bhqp2rcd13ifvqhog","pricing_plan_id":"free"},{"bike_id":"516c0ce3-d332-458a-9ade-293bc05411d3","system_id":"levelo_inurba_marseille","lat":43.32367,"lon":5.388836,"is_reserved":false,"is_disabled":false,"rental_uris":{"android":"levelo://app?vid=516c0ce3-d332-458a-9ade-293bc05411d3","ios":"levelo://app?vid=516c0ce3-d332-458a-9ade-293bc05411d3"},"vehicle_type_id":"4","last_reported":1687061251,"current_range_meters":19200,"station_id":"ce4bhqp2rcd13ifvqhog","pricing_plan_id":"free"},{"bike_id":"a5d34394-8ea3-4622-ac56-bc8a8abe2d11","system_id":"levelo_inurba_marseille","lat":43.32367,"lon":5.388836,"is_reserved":false,"is_disabled":false,"rental_uris":{"android":"levelo://app?vid=a5d34394-8ea3-4622-ac56-bc8a8abe2d11","ios":"levelo://app?vid=a5d34394-8ea3-4622-ac56-bc8a8abe2d11"},"vehicle_type_id":"4","last_reported":1687061251,"current_range_meters":31200,"station_id":"ce4bhqp2rcd13ifvqhog","pricing_plan_id":"free"},{"bike_id":"2c9ad911-25e0-4222-8751-d809dfadd582","system_id":"levelo_inurba_marseille","lat":43.32367,"lon":5.388836,"is_reserved":false,"is_disabled":false,"rental_uris":{"android":"levelo://app?vid=2c9ad911-25e0-4222-8751-d809dfadd582","ios":"levelo://app?vid=2c9ad911-25e0-4222-8751-d809dfadd582"},"vehicle_type_id":"4","last_reported":1687061251,"current_range_meters":22800,"station_id":"ce4bhqp2rcd13ifvqhog","pricing_plan_id":"free"},{"bike_id":"6b4d4d55-f9ce-4a35-a295-795e3acc7e51","system_id":"levelo_inurba_marseille","lat":43.32367,"lon":5.388836,"is_reserved":false,"is_disabled":false,"rental_uris":{"android":"levelo://app?vid=6b4d4d55-f9ce-4a35-a295-795e3acc7e51","ios":"levelo://app?vid=6b4d4d55-f9ce-4a35-a295-795e3acc7e51"},"vehicle_type_id":"4","last_reported":1687061251,"current_range_meters":27600,"station_id":"ce4bhqp2rcd13ifvqhog","pricing_plan_id":"free"},{"bike_id":"994ffda2-4c5a-4608-9f56-696508fcf4bd","system_id":"levelo_inurba_marseille","lat":43.32367,"lon":5.388836,"is_reserved":false,"is_disabled":false,"rental_uris":{"android":"levelo://app?vid=994ffda2-4c5a-4608-9f56-696508fcf4bd","ios":"levelo://app?vid=994ffda2-4c5a-4608-9f56-696508fcf4bd"},"vehicle_type_id":"4","last_reported":1687061251,"current_range_meters":14000,"station_id":"ce4bhqp2rcd13ifvqhog","pricing_plan_id":"free"},{"bike_id":"c25bbca6-334a-48c9-b2aa-c69eb97c9d81","system_id":"levelo_inurba_marseille","lat":43.32367,"lon":5.388836,"is_reserved":false,"is_disabled":false,"rental_uris":{"android":"levelo://app?vid=c25bbca6-334a-48c9-b2aa-c69eb97c9d81","ios":"levelo://app?vid=c25bbca6-334a-48c9-b2aa-c69eb97c9d81"},"vehicle_type_id":"4","last_reported":1687061251,"current_range_meters":11600,"station_id":"ce4bhqp2rcd13ifvqhog","pricing_plan_id":"free"},{"bike_id":"05d585c0-9c9e-4f05-83e5-50aae80e7424","system_id":"levelo_inurba_marseille","lat":43.32367,"lon":5.388836,"is_reserved":false,"is_disabled":false,"rental_uris":{"android":"levelo://app?vid=05d585c0-9c9e-4f05-83e5-50aae80e7424","ios":"levelo://app?vid=05d585c0-9c9e-4f05-83e5-50aae80e7424"},"vehicle_type_id":"4","last_reported":1687061251,"current_range_meters":31200,"station_id":"ce4bhqp2rcd13ifvqhog","pricing_plan_id":"free"},{"bike_id":"1990d528-71a2-43c5-bd5d-f170453d975a","system_id":"levelo_inurba_marseille","lat":43.293009,"lon":5.374584,"is_reserved":false,"is_disabled":false,"rental_uris":{"android":"levelo://app?vid=1990d528-71a2-43c5-bd5d-f170453d975a","ios":"levelo://app?vid=1990d528-71a2-43c5-bd5d-f170453d975a"},"vehicle_type_id":"4","last_reported":1687061251,"current_range_meters":22000,"station_id":"ce4bgi12rcd13ifvqb70","pricing_plan_id":"free"},{"bike_id":"77df2bf4-4245-4cdf-988b-e80dfbcbb74a","system_id":"levelo_inurba_marseille","lat":43.305994,"lon":5.393687,"is_reserved":false,"is_disabled":false,"rental_uris":{"android":"levelo://app?vid=77df2bf4-4245-4cdf-988b-e80dfbcbb74a","ios":"levelo://app?vid=77df2bf4-4245-4cdf-988b-e80dfbcbb74a"},"vehicle_type_id":"4","last_reported":1687061251,"current_range_meters":26000,"station_id":"ce4bh0p2rcd13ifvqd80","pricing_plan_id":"free"},{"bike_id":"226a859c-6de7-4c2f-b2ce-ef276cde9e35","system_id":"levelo_inurba_marseille","lat":43.30298,"lon":5.39202,"is_reserved":false,"is_disabled":false,"rental_uris":{"android":"levelo://app?vid=226a859c-6de7-4c2f-b2ce-ef276cde9e35","ios":"levelo://app?vid=226a859c-6de7-4c2f-b2ce-ef276cde9e35"},"vehicle_type_id":"4","last_reported":1687061251,"current_range_meters":31200,"station_id":"ce4bgkh2rcd13ifvqbk0","pricing_plan_id":"free"},{"bike_id":"d00cfc28-48f3-46ed-a33d-2b9f02ac8a89","system_id":"levelo_inurba_marseille","lat":43.302992,"lon":5.392136,"is_reserved":false,"is_disabled":false,"rental_uris":{"android":"levelo://app?vid=d00cfc28-48f3-46ed-a33d-2b9f02ac8a89","ios":"levelo://app?vid=d00cfc28-48f3-46ed-a33d-2b9f02ac8a89"},"vehicle_type_id":"4","last_reported":1687061251,"current_range_meters":30400,"station_id":"ce4bgkh2rcd13ifvqbk0","pricing_plan_id":"free"},{"bike_id":"f3d69386-4391-49d4-a81a-a68ad8d3922c","system_id":"levelo_inurba_marseille","lat":43.2936,"lon":5.37835,"is_reserved":false,"is_disabled":false,"rental_uris":{"android":"levelo://app?vid=f3d69386-4391-49d4-a81a-a68ad8d3922c","ios":"levelo://app?vid=f3d69386-4391-49d4-a81a-a68ad8d3922c"},"vehicle_type_id":"4","last_reported":1687061251,"current_range_meters":20000,"station_id":"ce4bgjh2rcd13ifvqbf0","pricing_plan_id":"free"},{"bike_id":"3c294bab-5a69-4dc1-9249-1336a975450d","system_id":"levelo_inurba_marseille","lat":43.30298,"lon":5.3922,"is_reserved":false,"is_disabled":false,"rental_uris":{"android":"levelo://app?vid=3c294bab-5a69-4dc1-9249-1336a975450d","ios":"levelo://app?vid=3c294bab-5a69-4dc1-9249-1336a975450d"},"vehicle_type_id":"4","last_reported":1687061251,"current_range_meters":31200,"station_id":"ce4bgkh2rcd13ifvqbk0","pricing_plan_id":"free"},{"bike_id":"8f62ce70-d718-44ec-a596-3565bace4363","system_id":"levelo_inurba_marseille","lat":43.292311,"lon":5.360731,"is_reserved":false,"is_disabled":false,"rental_uris":{"android":"levelo://app?vid=8f62ce70-d718-44ec-a596-3565bace4363","ios":"levelo://app?vid=8f62ce70-d718-44ec-a596-3565bace4363"},"vehicle_type_id":"4","last_reported":1687061251,"current_range_meters":28400,"station_id":"ce4bhbh2rcd13ifvqeqg","pricing_plan_id":"free"},{"bike_id":"09feb393-6ca6-4efa-9e5a-a126168db2c3","system_id":"levelo_inurba_marseille","lat":43.30085,"lon":5.390856,"is_reserved":false,"is_disabled":false,"rental_uris":{"android":"levelo://app?vid=09feb393-6ca6-4efa-9e5a-a126168db2c3","ios":"levelo://app?vid=09feb393-6ca6-4efa-9e5a-a126168db2c3"},"vehicle_type_id":"4","last_reported":1687061251,"current_range_meters":26000,"station_id":"ce4bh192rcd13ifvqdb0","pricing_plan_id":"free"},{"bike_id":"46289fa7-65b2-43e0-962d-7f4b0c7e7f37","system_id":"levelo_inurba_marseille","lat":43.30897,"lon":5.3963,"is_reserved":false,"is_disabled":false,"rental_uris":{"android":"levelo://app?vid=46289fa7-65b2-43e0-962d-7f4b0c7e7f37","ios":"levelo://app?vid=46289fa7-65b2-43e0-962d-7f4b0c7e7f37"},"vehicle_type_id":"4","last_reported":1687061251,"current_range_meters":24400,"station_id":"ce4bh012rcd13ifvqcv0","pricing_plan_id":"free"},{"bike_id":"955d65fa-a55e-48d0-990c-99e8890e9820","system_id":"levelo_inurba_marseille","lat":43.313291,"lon":5.396838,"is_reserved":false,"is_disabled":false,"rental_uris":{"android":"levelo://app?vid=955d65fa-a55e-48d0-990c-99e8890e9820","ios":"levelo://app?vid=955d65fa-a55e-48d0-990c-99e8890e9820"},"vehicle_type_id":"4","last_reported":1687061251,"current_range_meters":14800,"station_id":"ce4bgvp2rcd13ifvqcu0","pricing_plan_id":"free"},{"bike_id":"426905e2-11bb-43f4-8a7a-9e1e7b6a6d8b","system_id":"levelo_inurba_marseille","lat":43.309038,"lon":5.396546,"is_reserved":false,"is_disabled":false,"rental_uris":{"android":"levelo://app?vid=426905e2-11bb-43f4-8a7a-9e1e7b6a6d8b","ios":"levelo://app?vid=426905e2-11bb-43f4-8a7a-9e1e7b6a6d8b"},"vehicle_type_id":"4","last_reported":1687061251,"current_range_meters":12400,"station_id":"ce4bh012rcd13ifvqcv0","pricing_plan_id":"free"},{"bike_id":"2c2bd094-5ccd-443b-8115-70615c977b46","system_id":"levelo_inurba_marseille","lat":43.313291,"lon":5.396838,"is_reserved":false,"is_disabled":false,"rental_uris":{"android":"levelo://app?vid=2c2bd094-5ccd-443b-8115-70615c977b46","ios":"levelo://app?vid=2c2bd094-5ccd-443b-8115-70615c977b46"},"vehicle_type_id":"4","last_reported":1687061251,"current_range_meters":23600,"station_id":"ce4bgvp2rcd13ifvqcu0","pricing_plan_id":"free"},{"bike_id":"fdec3b17-726b-4ffe-b2dc-8da9341fb36c","system_id":"levelo_inurba_marseille","lat":43.29191,"lon":5.35789,"is_reserved":false,"is_disabled":false,"rental_uris":{"android":"levelo://app?vid=fdec3b17-726b-4ffe-b2dc-8da9341fb36c","ios":"levelo://app?vid=fdec3b17-726b-4ffe-b2dc-8da9341fb36c"},"vehicle_type_id":"4","last_reported":1687061251,"current_range_meters":30000,"station_id":"ce4bhb12rcd13ifvqel0","pricing_plan_id":"free"},{"bike_id":"2062b11c-a9c7-48c7-81d6-71a310c44278","system_id":"levelo_inurba_marseille","lat":43.30872,"lon":5.39644,"is_reserved":false,"is_disabled":false,"rental_uris":{"android":"levelo://app?vid=2062b11c-a9c7-48c7-81d6-71a310c44278","ios":"levelo://app?vid=2062b11c-a9c7-48c7-81d6-71a310c44278"},"vehicle_type_id":"4","last_reported":1687061251,"current_range_meters":31200,"station_id":"","pricing_plan_id":"free"},{"bike_id":"207ecc72-159c-4ae7-88aa-5dc2fac9a3d8","system_id":"levelo_inurba_marseille","lat":43.313291,"lon":5.396838,"is_reserved":false,"is_disabled":false,"rental_uris":{"android":"levelo://app?vid=207ecc72-159c-4ae7-88aa-5dc2fac9a3d8","ios":"levelo://app?vid=207ecc72-159c-4ae7-88aa-5dc2fac9a3d8"},"vehicle_type_id":"4","last_reported":1687061251,"current_range_meters":28400,"station_id":"ce4bgvp2rcd13ifvqcu0","pricing_plan_id":"free"},{"bike_id":"1175779c-621d-4b79-aeaf-18ccf584fda9","system_id":"levelo_inurba_marseille","lat":43.30876,"lon":5.39647,"is_reserved":false,"is_disabled":false,"rental_uris":{"android":"levelo://app?vid=1175779c-621d-4b79-aeaf-18ccf584fda9","ios":"levelo://app?vid=1175779c-621d-4b79-aeaf-18ccf584fda9"},"vehicle_type_id":"4","last_reported":1687061251,"current_range_meters":24800,"station_id":"","pricing_plan_id":"free"},{"bike_id":"80dfa593-6862-42a7-9871-f730c2af4749","system_id":"levelo_inurba_marseille","lat":43.313291,"lon":5.396838,"is_reserved":false,"is_disabled":false,"rental_uris":{"android":"levelo://app?vid=80dfa593-6862-42a7-9871-f730c2af4749","ios":"levelo://app?vid=80dfa593-6862-42a7-9871-f730c2af4749"},"vehicle_type_id":"4","last_reported":1687061251,"current_range_meters":31200,"station_id":"ce4bgvp2rcd13ifvqcu0","pricing_plan_id":"free"},{"bike_id":"7b01f786-7470-4639-b779-eb329fba145a","system_id":"levelo_inurba_marseille","lat":43.30875,"lon":5.39649,"is_reserved":false,"is_disabled":false,"rental_uris":{"android":"levelo://app?vid=7b01f786-7470-4639-b779-eb329fba145a","ios":"levelo://app?vid=7b01f786-7470-4639-b779-eb329fba145a"},"vehicle_type_id":"4","last_reported":1687061251,"current_range_meters":26800,"station_id":"","pricing_plan_id":"free"},{"bike_id":"279e04c7-e537-4d5f-b788-544376849e28","system_id":"levelo_inurba_marseille","lat":43.313291,"lon":5.396838,"is_reserved":false,"is_disabled":false,"rental_uris":{"android":"levelo://app?vid=279e04c7-e537-4d5f-b788-544376849e28","ios":"levelo://app?vid=279e04c7-e537-4d5f-b788-544376849e28"},"vehicle_type_id":"4","last_reported":1687061251,"current_range_meters":31200,"station_id":"ce4bgvp2rcd13ifvqcu0","pricing_plan_id":"free"},{"bike_id":"2b0aedbb-f6c9-4026-8f50-60792a4d6c25","system_id":"levelo_inurba_marseille","lat":43.30871,"lon":5.3965,"is_reserved":false,"is_disabled":false,"rental_uris":{"android":"levelo://app?vid=2b0aedbb-f6c9-4026-8f50-60792a4d6c25","ios":"levelo://app?vid=2b0aedbb-f6c9-4026-8f50-60792a4d6c25"},"vehicle_type_id":"4","last_reported":1687061251,"current_range_meters":19200,"station_id":"","pricing_plan_id":"free"},{"bike_id":"7bade496-d447-4f1b-a0ea-43edcbdd13b1","system_id":"levelo_inurba_marseille","lat":43.309038,"lon":5.396546,"is_reserved":false,"is_disabled":false,"rental_uris":{"android":"levelo://app?vid=7bade496-d447-4f1b-a0ea-43edcbdd13b1","ios":"levelo://app?vid=7bade496-d447-4f1b-a0ea-43edcbdd13b1"},"vehicle_type_id":"4","last_reported":1687061251,"current_range_meters":24400,"station_id":"ce4bh012rcd13ifvqcv0","pricing_plan_id":"free"},{"bike_id":"e05e75c0-1aed-45d1-8a0b-51902ea6a4b2","system_id":"levelo_inurba_marseille","lat":43.29529,"lon":5.385581,"is_reserved":false,"is_disabled":false,"rental_uris":{"android":"levelo://app?vid=e05e75c0-1aed-45d1-8a0b-51902ea6a4b2","ios":"levelo://app?vid=e05e75c0-1aed-45d1-8a0b-51902ea6a4b2"},"vehicle_type_id":"4","last_reported":1687061251,"current_range_meters":30400,"station_id":"ce4bgih2rcd13ifvqba0","pricing_plan_id":"free"},{"bike_id":"28e3cbb3-9bba-4560-9833-d31c08a9d573","system_id":"levelo_inurba_marseille","lat":43.290624,"lon":5.359245,"is_reserved":false,"is_disabled":false,"rental_uris":{"android":"levelo://app?vid=28e3cbb3-9bba-4560-9833-d31c08a9d573","ios":"levelo://app?vid=28e3cbb3-9bba-4560-9833-d31c08a9d573"},"vehicle_type_id":"4","last_reported":1687061251,"current_range_meters":29200,"station_id":"ce4bha92rcd13ifvqeg0","pricing_plan_id":"free"},{"bike_id":"8af4c35b-397f-410e-8733-49ee375b7dc0","system_id":"levelo_inurba_marseille","lat":43.302008,"lon":5.394694,"is_reserved":false,"is_disabled":false,"rental_uris":{"android":"levelo://app?vid=8af4c35b-397f-410e-8733-49ee375b7dc0","ios":"levelo://app?vid=8af4c35b-397f-410e-8733-49ee375b7dc0"},"vehicle_type_id":"4","last_reported":1687061251,"current_range_meters":28800,"station_id":"ce4bh0p2rcd13ifvqd70","pricing_plan_id":"free"},{"bike_id":"1743d1fe-ee02-459e-ac0d-6c270c98c590","system_id":"levelo_inurba_marseille","lat":43.290624,"lon":5.359245,"is_reserved":false,"is_disabled":false,"rental_uris":{"android":"levelo://app?vid=1743d1fe-ee02-459e-ac0d-6c270c98c590","ios":"levelo://app?vid=1743d1fe-ee02-459e-ac0d-6c270c98c590"},"vehicle_type_id":"4","last_reported":1687061251,"current_range_meters":31200,"station_id":"ce4bha92rcd13ifvqeg0","pricing_plan_id":"free"},{"bike_id":"6a8b856a-2769-4865-86dc-9a97782975f0","system_id":"levelo_inurba_marseille","lat":43.29037,"lon":5.3592,"is_reserved":false,"is_disabled":false,"rental_uris":{"android":"levelo://app?vid=6a8b856a-2769-4865-86dc-9a97782975f0","ios":"levelo://app?vid=6a8b856a-2769-4865-86dc-9a97782975f0"},"vehicle_type_id":"4","last_reported":1687061251,"current_range_meters":0,"station_id":"ce4bha92rcd13ifvqeg0","pricing_plan_id":"free"},{"bike_id":"88950928-f9de-4116-a4f7-2573e4140727","system_id":"levelo_inurba_marseille","lat":43.290631,"lon":5.359244,"is_reserved":false,"is_disabled":false,"rental_uris":{"android":"levelo://app?vid=88950928-f9de-4116-a4f7-2573e4140727","ios":"levelo://app?vid=88950928-f9de-4116-a4f7-2573e4140727"},"vehicle_type_id":"4","last_reported":1687061251,"current_range_meters":30800,"station_id":"ce4bha92rcd13ifvqeg0","pricing_plan_id":"free"},{"bike_id":"e79a85ad-033c-4a85-bceb-c775f8fdd557","system_id":"levelo_inurba_marseille","lat":43.289468,"lon":5.363719,"is_reserved":false,"is_disabled":false,"rental_uris":{"android":"levelo://app?vid=e79a85ad-033c-4a85-bceb-c775f8fdd557","ios":"levelo://app?vid=e79a85ad-033c-4a85-bceb-c775f8fdd557"},"vehicle_type_id":"4","last_reported":1687061251,"current_range_meters":26000,"station_id":"ce4bhc92rcd13ifvqetg","pricing_plan_id":"free"},{"bike_id":"51e5446b-3f27-4917-bf7f-07649293f753","system_id":"levelo_inurba_marseille","lat":43.292642,"lon":5.384254,"is_reserved":false,"is_disabled":false,"rental_uris":{"android":"levelo://app?vid=51e5446b-3f27-4917-bf7f-07649293f753","ios":"levelo://app?vid=51e5446b-3f27-4917-bf7f-07649293f753"},"vehicle_type_id":"4","last_reported":1687061251,"current_range_meters":26800,"station_id":"ce4bh692rcd13ifvqea0","pricing_plan_id":"free"},{"bike_id":"bc871c24-d7fa-4be6-8d2e-33f3739145fe","system_id":"levelo_inurba_marseille","lat":43.30411,"lon":5.39757,"is_reserved":false,"is_disabled":false,"rental_uris":{"android":"levelo://app?vid=bc871c24-d7fa-4be6-8d2e-33f3739145fe","ios":"levelo://app?vid=bc871c24-d7fa-4be6-8d2e-33f3739145fe"},"vehicle_type_id":"4","last_reported":1687061251,"current_range_meters":31200,"station_id":"ce4bh092rcd13ifvqd20","pricing_plan_id":"free"},{"bike_id":"07e10cdf-e3c6-4ac1-875f-031bc6c5f47c","system_id":"levelo_inurba_marseille","lat":43.304274,"lon":5.397513,"is_reserved":false,"is_disabled":false,"rental_uris":{"android":"levelo://app?vid=07e10cdf-e3c6-4ac1-875f-031bc6c5f47c","ios":"levelo://app?vid=07e10cdf-e3c6-4ac1-875f-031bc6c5f47c"},"vehicle_type_id":"4","last_reported":1687061251,"current_range_meters":31200,"station_id":"ce4bh092rcd13ifvqd20","pricing_plan_id":"free"},{"bike_id":"a6fa5d2e-257b-4d29-b15b-ced973c9f431","system_id":"levelo_inurba_marseille","lat":43.33037,"lon":5.38916,"is_reserved":false,"is_disabled":false,"rental_uris":{"android":"levelo://app?vid=a6fa5d2e-257b-4d29-b15b-ced973c9f431","ios":"levelo://app?vid=a6fa5d2e-257b-4d29-b15b-ced973c9f431"},"vehicle_type_id":"4","last_reported":1687061251,"current_range_meters":30800,"station_id":"ce4bhr92rcd13ifvqhrg","pricing_plan_id":"free"},{"bike_id":"38eb09af-7166-42b9-865e-84246929498f","system_id":"levelo_inurba_marseille","lat":43.292642,"lon":5.384254,"is_reserved":false,"is_disabled":false,"rental_uris":{"android":"levelo://app?vid=38eb09af-7166-42b9-865e-84246929498f","ios":"levelo://app?vid=38eb09af-7166-42b9-865e-84246929498f"},"vehicle_type_id":"4","last_reported":1687061251,"current_range_meters":31200,"station_id":"ce4bh692rcd13ifvqea0","pricing_plan_id":"free"},{"bike_id":"7a19f85c-3a1e-497c-ac40-4aee991e94ff","system_id":"levelo_inurba_marseille","lat":43.33036,"lon":5.38919,"is_reserved":false,"is_disabled":false,"rental_uris":{"android":"levelo://app?vid=7a19f85c-3a1e-497c-ac40-4aee991e94ff","ios":"levelo://app?vid=7a19f85c-3a1e-497c-ac40-4aee991e94ff"},"vehicle_type_id":"4","last_reported":1687061251,"current_range_meters":31200,"station_id":"ce4bhr92rcd13ifvqhrg","pricing_plan_id":"free"},{"bike_id":"34e8793d-3e78-430c-9712-0f9923b8824e","system_id":"levelo_inurba_marseille","lat":43.3304,"lon":5.38915,"is_reserved":false,"is_disabled":false,"rental_uris":{"android":"levelo://app?vid=34e8793d-3e78-430c-9712-0f9923b8824e","ios":"levelo://app?vid=34e8793d-3e78-430c-9712-0f9923b8824e"},"vehicle_type_id":"4","last_reported":1687061251,"current_range_meters":30800,"station_id":"ce4bhr92rcd13ifvqhrg","pricing_plan_id":"free"},{"bike_id":"8fff2c6b-7de2-42eb-b9c7-b4957e635223","system_id":"levelo_inurba_marseille","lat":43.33036,"lon":5.38921,"is_reserved":false,"is_disabled":false,"rental_uris":{"android":"levelo://app?vid=8fff2c6b-7de2-42eb-b9c7-b4957e635223","ios":"levelo://app?vid=8fff2c6b-7de2-42eb-b9c7-b4957e635223"},"vehicle_type_id":"4","last_reported":1687061251,"current_range_meters":22000,"station_id":"ce4bhr92rcd13ifvqhrg","pricing_plan_id":"free"},{"bike_id":"46a8e731-9ddb-4ace-907b-cbe70799f0ca","system_id":"levelo_inurba_marseille","lat":43.33038,"lon":5.38921,"is_reserved":false,"is_disabled":false,"rental_uris":{"android":"levelo://app?vid=46a8e731-9ddb-4ace-907b-cbe70799f0ca","ios":"levelo://app?vid=46a8e731-9ddb-4ace-907b-cbe70799f0ca"},"vehicle_type_id":"4","last_reported":1687061251,"current_range_meters":30000,"station_id":"ce4bhr92rcd13ifvqhrg","pricing_plan_id":"free"},{"bike_id":"af779039-8539-4a60-9c5e-b3e41fc1f3ab","system_id":"levelo_inurba_marseille","lat":43.33042,"lon":5.38917,"is_reserved":false,"is_disabled":false,"rental_uris":{"android":"levelo://app?vid=af779039-8539-4a60-9c5e-b3e41fc1f3ab","ios":"levelo://app?vid=af779039-8539-4a60-9c5e-b3e41fc1f3ab"},"vehicle_type_id":"4","last_reported":1687061251,"current_range_meters":18800,"station_id":"ce4bhr92rcd13ifvqhrg","pricing_plan_id":"free"},{"bike_id":"40e59e64-9295-42a0-9590-a684a2d1ed78","system_id":"levelo_inurba_marseille","lat":43.3304,"lon":5.3892,"is_reserved":false,"is_disabled":false,"rental_uris":{"android":"levelo://app?vid=40e59e64-9295-42a0-9590-a684a2d1ed78","ios":"levelo://app?vid=40e59e64-9295-42a0-9590-a684a2d1ed78"},"vehicle_type_id":"4","last_reported":1687061251,"current_range_meters":18400,"station_id":"ce4bhr92rcd13ifvqhrg","pricing_plan_id":"free"},{"bike_id":"1d1c3bac-939d-4f5c-a916-018b2bbe5bb7","system_id":"levelo_inurba_marseille","lat":43.33043,"lon":5.38916,"is_reserved":false,"is_disabled":false,"rental_uris":{"android":"levelo://app?vid=1d1c3bac-939d-4f5c-a916-018b2bbe5bb7","ios":"levelo://app?vid=1d1c3bac-939d-4f5c-a916-018b2bbe5bb7"},"vehicle_type_id":"4","last_reported":1687061251,"current_range_meters":28800,"station_id":"ce4bhr92rcd13ifvqhrg","pricing_plan_id":"free"},{"bike_id":"69b9077c-e52f-467f-924c-edaaf68c6e10","system_id":"levelo_inurba_marseille","lat":43.33039,"lon":5.38922,"is_reserved":false,"is_disabled":false,"rental_uris":{"android":"levelo://app?vid=69b9077c-e52f-467f-924c-edaaf68c6e10","ios":"levelo://app?vid=69b9077c-e52f-467f-924c-edaaf68c6e10"},"vehicle_type_id":"4","last_reported":1687061251,"current_range_meters":31200,"station_id":"ce4bhr92rcd13ifvqhrg","pricing_plan_id":"free"},{"bike_id":"55c4fc83-4495-499d-8f80-4b519db72cd9","system_id":"levelo_inurba_marseille","lat":43.33042,"lon":5.38918,"is_reserved":false,"is_disabled":false,"rental_uris":{"android":"levelo://app?vid=55c4fc83-4495-499d-8f80-4b519db72cd9","ios":"levelo://app?vid=55c4fc83-4495-499d-8f80-4b519db72cd9"},"vehicle_type_id":"4","last_reported":1687061251,"current_range_meters":31200,"station_id":"ce4bhr92rcd13ifvqhrg","pricing_plan_id":"free"},{"bike_id":"95c066a4-e4d6-47f9-9ac2-324b145985cd","system_id":"levelo_inurba_marseille","lat":43.3304,"lon":5.38922,"is_reserved":false,"is_disabled":false,"rental_uris":{"android":"levelo://app?vid=95c066a4-e4d6-47f9-9ac2-324b145985cd","ios":"levelo://app?vid=95c066a4-e4d6-47f9-9ac2-324b145985cd"},"vehicle_type_id":"4","last_reported":1687061251,"current_range_meters":13600,"station_id":"ce4bhr92rcd13ifvqhrg","pricing_plan_id":"free"},{"bike_id":"f95d8be0-c840-4b03-9e0d-b8050ae0f057","system_id":"levelo_inurba_marseille","lat":43.33045,"lon":5.38921,"is_reserved":false,"is_disabled":false,"rental_uris":{"android":"levelo://app?vid=f95d8be0-c840-4b03-9e0d-b8050ae0f057","ios":"levelo://app?vid=f95d8be0-c840-4b03-9e0d-b8050ae0f057"},"vehicle_type_id":"4","last_reported":1687061251,"current_range_meters":27200,"station_id":"ce4bhr92rcd13ifvqhrg","pricing_plan_id":"free"},{"bike_id":"9c364d7e-5058-4a30-b5d2-24af4ab53001","system_id":"levelo_inurba_marseille","lat":43.290104,"lon":5.356111,"is_reserved":false,"is_disabled":false,"rental_uris":{"android":"levelo://app?vid=9c364d7e-5058-4a30-b5d2-24af4ab53001","ios":"levelo://app?vid=9c364d7e-5058-4a30-b5d2-24af4ab53001"},"vehicle_type_id":"4","last_reported":1687061251,"current_range_meters":4000,"station_id":"ce4bhb92rcd13ifvqen0","pricing_plan_id":"free"},{"bike_id":"f4e4a199-5a9f-46c0-ad3d-df1754db95c4","system_id":"levelo_inurba_marseille","lat":43.28993,"lon":5.35612,"is_reserved":false,"is_disabled":false,"rental_uris":{"android":"levelo://app?vid=f4e4a199-5a9f-46c0-ad3d-df1754db95c4","ios":"levelo://app?vid=f4e4a199-5a9f-46c0-ad3d-df1754db95c4"},"vehicle_type_id":"4","last_reported":1687061251,"current_range_meters":4000,"station_id":"ce4bhb92rcd13ifvqen0","pricing_plan_id":"free"},{"bike_id":"4c52032b-ce52-4452-8b9f-9f212148fcc7","system_id":"levelo_inurba_marseille","lat":43.29587,"lon":5.39069,"is_reserved":false,"is_disabled":false,"rental_uris":{"android":"levelo://app?vid=4c52032b-ce52-4452-8b9f-9f212148fcc7","ios":"levelo://app?vid=4c52032b-ce52-4452-8b9f-9f212148fcc7"},"vehicle_type_id":"4","last_reported":1687061251,"current_range_meters":6800,"station_id":"","pricing_plan_id":"free"},{"bike_id":"3528c3e4-67b8-415e-b1bf-1c2c1a553ff1","system_id":"levelo_inurba_marseille","lat":43.290995,"lon":5.381361,"is_reserved":false,"is_disabled":false,"rental_uris":{"android":"levelo://app?vid=3528c3e4-67b8-415e-b1bf-1c2c1a553ff1","ios":"levelo://app?vid=3528c3e4-67b8-415e-b1bf-1c2c1a553ff1"},"vehicle_type_id":"4","last_reported":1687061251,"current_range_meters":29200,"station_id":"ce4bh512rcd13ifvqe2g","pricing_plan_id":"free"},{"bike_id":"192f3e53-f4bf-4bb2-9b9f-05071f5366f1","system_id":"levelo_inurba_marseille","lat":43.297815,"lon":5.393548,"is_reserved":false,"is_disabled":false,"rental_uris":{"android":"levelo://app?vid=192f3e53-f4bf-4bb2-9b9f-05071f5366f1","ios":"levelo://app?vid=192f3e53-f4bf-4bb2-9b9f-05071f5366f1"},"vehicle_type_id":"4","last_reported":1687061251,"current_range_meters":13200,"station_id":"chh1huq6cuj3fo74tm60","pricing_plan_id":"free"},{"bike_id":"ea6b209a-54c3-415c-8b5b-09656dd120f1","system_id":"levelo_inurba_marseille","lat":43.297815,"lon":5.393548,"is_reserved":false,"is_disabled":false,"rental_uris":{"android":"levelo://app?vid=ea6b209a-54c3-415c-8b5b-09656dd120f1","ios":"levelo://app?vid=ea6b209a-54c3-415c-8b5b-09656dd120f1"},"vehicle_type_id":"4","last_reported":1687061251,"current_range_meters":22000,"station_id":"chh1huq6cuj3fo74tm60","pricing_plan_id":"free"},{"bike_id":"1f06d9f4-2284-4de2-a168-44b150193abe","system_id":"levelo_inurba_marseille","lat":43.29793,"lon":5.39352,"is_reserved":false,"is_disabled":false,"rental_uris":{"android":"levelo://app?vid=1f06d9f4-2284-4de2-a168-44b150193abe","ios":"levelo://app?vid=1f06d9f4-2284-4de2-a168-44b150193abe"},"vehicle_type_id":"4","last_reported":1687061251,"current_range_meters":0,"station_id":"chh1huq6cuj3fo74tm60","pricing_plan_id":"free"},{"bike_id":"57e4515f-5abb-42e3-9895-a0a53ffa2d33","system_id":"levelo_inurba_marseille","lat":43.297815,"lon":5.393548,"is_reserved":false,"is_disabled":false,"rental_uris":{"android":"levelo://app?vid=57e4515f-5abb-42e3-9895-a0a53ffa2d33","ios":"levelo://app?vid=57e4515f-5abb-42e3-9895-a0a53ffa2d33"},"vehicle_type_id":"4","last_reported":1687061251,"current_range_meters":23200,"station_id":"chh1huq6cuj3fo74tm60","pricing_plan_id":"free"},{"bike_id":"b9b44b37-7edf-4ab6-8685-17eb58a26dbc","system_id":"levelo_inurba_marseille","lat":43.295169,"lon":5.390426,"is_reserved":false,"is_disabled":false,"rental_uris":{"android":"levelo://app?vid=b9b44b37-7edf-4ab6-8685-17eb58a26dbc","ios":"levelo://app?vid=b9b44b37-7edf-4ab6-8685-17eb58a26dbc"},"vehicle_type_id":"4","last_reported":1687061251,"current_range_meters":29200,"station_id":"ce4bh3p2rcd13ifvqdp0","pricing_plan_id":"free"},{"bike_id":"5d670bdf-8a30-4f11-9f44-e2f3cc59b612","system_id":"levelo_inurba_marseille","lat":43.28862,"lon":5.35856,"is_reserved":false,"is_disabled":false,"rental_uris":{"android":"levelo://app?vid=5d670bdf-8a30-4f11-9f44-e2f3cc59b612","ios":"levelo://app?vid=5d670bdf-8a30-4f11-9f44-e2f3cc59b612"},"vehicle_type_id":"4","last_reported":1687061251,"current_range_meters":23200,"station_id":"ce4bhb12rcd13ifvqem0","pricing_plan_id":"free"},{"bike_id":"226e53f5-5932-4c01-9445-4efc35d7ce9f","system_id":"levelo_inurba_marseille","lat":43.2886,"lon":5.35861,"is_reserved":false,"is_disabled":false,"rental_uris":{"android":"levelo://app?vid=226e53f5-5932-4c01-9445-4efc35d7ce9f","ios":"levelo://app?vid=226e53f5-5932-4c01-9445-4efc35d7ce9f"},"vehicle_type_id":"4","last_reported":1687061251,"current_range_meters":22000,"station_id":"ce4bhb12rcd13ifvqem0","pricing_plan_id":"free"},{"bike_id":"cbe14383-b435-4a6a-8577-5c18ba89ff5e","system_id":"levelo_inurba_marseille","lat":43.28856,"lon":5.358371,"is_reserved":false,"is_disabled":false,"rental_uris":{"android":"levelo://app?vid=cbe14383-b435-4a6a-8577-5c18ba89ff5e","ios":"levelo://app?vid=cbe14383-b435-4a6a-8577-5c18ba89ff5e"},"vehicle_type_id":"4","last_reported":1687061251,"current_range_meters":30000,"station_id":"ce4bhb12rcd13ifvqem0","pricing_plan_id":"free"},{"bike_id":"c087bfce-1851-4c81-8fb2-ae37e2d281fd","system_id":"levelo_inurba_marseille","lat":43.28848,"lon":5.35849,"is_reserved":false,"is_disabled":false,"rental_uris":{"android":"levelo://app?vid=c087bfce-1851-4c81-8fb2-ae37e2d281fd","ios":"levelo://app?vid=c087bfce-1851-4c81-8fb2-ae37e2d281fd"},"vehicle_type_id":"4","last_reported":1687061251,"current_range_meters":0,"station_id":"ce4bhb12rcd13ifvqem0","pricing_plan_id":"free"},{"bike_id":"2c61e288-c6ea-42a7-a7e6-3adc41ce6c8c","system_id":"levelo_inurba_marseille","lat":43.28847,"lon":5.35845,"is_reserved":false,"is_disabled":false,"rental_uris":{"android":"levelo://app?vid=2c61e288-c6ea-42a7-a7e6-3adc41ce6c8c","ios":"levelo://app?vid=2c61e288-c6ea-42a7-a7e6-3adc41ce6c8c"},"vehicle_type_id":"4","last_reported":1687061251,"current_range_meters":26800,"station_id":"ce4bhb12rcd13ifvqem0","pricing_plan_id":"free"},{"bike_id":"c0fb8083-e02d-4dec-b1b9-fa095e6c5b75","system_id":"levelo_inurba_marseille","lat":43.337396,"lon":5.374526,"is_reserved":false,"is_disabled":false,"rental_uris":{"android":"levelo://app?vid=c0fb8083-e02d-4dec-b1b9-fa095e6c5b75","ios":"levelo://app?vid=c0fb8083-e02d-4dec-b1b9-fa095e6c5b75"},"vehicle_type_id":"4","last_reported":1687061251,"current_range_meters":0,"station_id":"ce4bhp92rcd13ifvqhag","pricing_plan_id":"free"},{"bike_id":"7f0d50c0-8280-4a8e-b711-6a807627f475","system_id":"levelo_inurba_marseille","lat":43.309371,"lon":5.401449,"is_reserved":false,"is_disabled":false,"rental_uris":{"android":"levelo://app?vid=7f0d50c0-8280-4a8e-b711-6a807627f475","ios":"levelo://app?vid=7f0d50c0-8280-4a8e-b711-6a807627f475"},"vehicle_type_id":"4","last_reported":1687061251,"current_range_meters":28400,"station_id":"ce4bgvp2rcd13ifvqct0","pricing_plan_id":"free"},{"bike_id":"7701a17e-3305-4c9e-95b6-42a700bb9ef2","system_id":"levelo_inurba_marseille","lat":43.309371,"lon":5.401449,"is_reserved":false,"is_disabled":false,"rental_uris":{"android":"levelo://app?vid=7701a17e-3305-4c9e-95b6-42a700bb9ef2","ios":"levelo://app?vid=7701a17e-3305-4c9e-95b6-42a700bb9ef2"},"vehicle_type_id":"4","last_reported":1687061251,"current_range_meters":24800,"station_id":"ce4bgvp2rcd13ifvqct0","pricing_plan_id":"free"},{"bike_id":"84a1f1ce-a420-4d0a-90be-142424567589","system_id":"levelo_inurba_marseille","lat":43.309371,"lon":5.401449,"is_reserved":false,"is_disabled":false,"rental_uris":{"android":"levelo://app?vid=84a1f1ce-a420-4d0a-90be-142424567589","ios":"levelo://app?vid=84a1f1ce-a420-4d0a-90be-142424567589"},"vehicle_type_id":"4","last_reported":1687061251,"current_range_meters":3600,"station_id":"ce4bgvp2rcd13ifvqct0","pricing_plan_id":"free"},{"bike_id":"4f356222-17b5-4ae9-9064-9f9fc4ff12ee","system_id":"levelo_inurba_marseille","lat":43.309371,"lon":5.401449,"is_reserved":false,"is_disabled":false,"rental_uris":{"android":"levelo://app?vid=4f356222-17b5-4ae9-9064-9f9fc4ff12ee","ios":"levelo://app?vid=4f356222-17b5-4ae9-9064-9f9fc4ff12ee"},"vehicle_type_id":"4","last_reported":1687061251,"current_range_meters":12400,"station_id":"ce4bgvp2rcd13ifvqct0","pricing_plan_id":"free"},{"bike_id":"e2136027-c5da-4737-8f84-5f5835af5a92","system_id":"levelo_inurba_marseille","lat":43.309371,"lon":5.401449,"is_reserved":false,"is_disabled":false,"rental_uris":{"android":"levelo://app?vid=e2136027-c5da-4737-8f84-5f5835af5a92","ios":"levelo://app?vid=e2136027-c5da-4737-8f84-5f5835af5a92"},"vehicle_type_id":"4","last_reported":1687061251,"current_range_meters":27600,"station_id":"ce4bgvp2rcd13ifvqct0","pricing_plan_id":"free"},{"bike_id":"ea80c343-c793-4178-8b39-a2fb4a390341","system_id":"levelo_inurba_marseille","lat":43.309371,"lon":5.401449,"is_reserved":false,"is_disabled":false,"rental_uris":{"android":"levelo://app?vid=ea80c343-c793-4178-8b39-a2fb4a390341","ios":"levelo://app?vid=ea80c343-c793-4178-8b39-a2fb4a390341"},"vehicle_type_id":"4","last_reported":1687061251,"current_range_meters":30800,"station_id":"ce4bgvp2rcd13ifvqct0","pricing_plan_id":"free"},{"bike_id":"41a8749b-6d93-4d1b-8e52-c5f60f65ae7c","system_id":"levelo_inurba_marseille","lat":43.33752,"lon":5.37443,"is_reserved":false,"is_disabled":false,"rental_uris":{"android":"levelo://app?vid=41a8749b-6d93-4d1b-8e52-c5f60f65ae7c","ios":"levelo://app?vid=41a8749b-6d93-4d1b-8e52-c5f60f65ae7c"},"vehicle_type_id":"4","last_reported":1687061251,"current_range_meters":28400,"station_id":"","pricing_plan_id":"free"},{"bike_id":"70ff8571-1cf2-4147-a7ae-e48cb29b3526","system_id":"levelo_inurba_marseille","lat":43.30642,"lon":5.4007,"is_reserved":false,"is_disabled":false,"rental_uris":{"android":"levelo://app?vid=70ff8571-1cf2-4147-a7ae-e48cb29b3526","ios":"levelo://app?vid=70ff8571-1cf2-4147-a7ae-e48cb29b3526"},"vehicle_type_id":"4","last_reported":1687061251,"current_range_meters":13200,"station_id":"ce4bh112rcd13ifvqda0","pricing_plan_id":"free"},{"bike_id":"7add96d3-64c8-4892-b080-a6eab9a74b8d","system_id":"levelo_inurba_marseille","lat":43.309371,"lon":5.401449,"is_reserved":false,"is_disabled":false,"rental_uris":{"android":"levelo://app?vid=7add96d3-64c8-4892-b080-a6eab9a74b8d","ios":"levelo://app?vid=7add96d3-64c8-4892-b080-a6eab9a74b8d"},"vehicle_type_id":"4","last_reported":1687061251,"current_range_meters":8400,"station_id":"ce4bgvp2rcd13ifvqct0","pricing_plan_id":"free"},{"bike_id":"9431a51f-e68a-4914-b96e-57b1f86f7e68","system_id":"levelo_inurba_marseille","lat":43.3064,"lon":5.4007,"is_reserved":false,"is_disabled":false,"rental_uris":{"android":"levelo://app?vid=9431a51f-e68a-4914-b96e-57b1f86f7e68","ios":"levelo://app?vid=9431a51f-e68a-4914-b96e-57b1f86f7e68"},"vehicle_type_id":"4","last_reported":1687061251,"current_range_meters":25600,"station_id":"ce4bh112rcd13ifvqda0","pricing_plan_id":"free"},{"bike_id":"62a093da-a0fe-468c-a21b-e310e8a5a031","system_id":"levelo_inurba_marseille","lat":43.30643,"lon":5.40074,"is_reserved":false,"is_disabled":false,"rental_uris":{"android":"levelo://app?vid=62a093da-a0fe-468c-a21b-e310e8a5a031","ios":"levelo://app?vid=62a093da-a0fe-468c-a21b-e310e8a5a031"},"vehicle_type_id":"4","last_reported":1687061251,"current_range_meters":13200,"station_id":"ce4bh112rcd13ifvqda0","pricing_plan_id":"free"},{"bike_id":"0d2f385d-207e-4e83-9707-797f3496c11d","system_id":"levelo_inurba_marseille","lat":43.30638,"lon":5.40076,"is_reserved":false,"is_disabled":false,"rental_uris":{"android":"levelo://app?vid=0d2f385d-207e-4e83-9707-797f3496c11d","ios":"levelo://app?vid=0d2f385d-207e-4e83-9707-797f3496c11d"},"vehicle_type_id":"4","last_reported":1687061251,"current_range_meters":9600,"station_id":"ce4bh112rcd13ifvqda0","pricing_plan_id":"free"},{"bike_id":"9fc2d521-b395-4924-8b62-ed7954c12a57","system_id":"levelo_inurba_marseille","lat":43.30637,"lon":5.40077,"is_reserved":false,"is_disabled":false,"rental_uris":{"android":"levelo://app?vid=9fc2d521-b395-4924-8b62-ed7954c12a57","ios":"levelo://app?vid=9fc2d521-b395-4924-8b62-ed7954c12a57"},"vehicle_type_id":"4","last_reported":1687061251,"current_range_meters":24800,"station_id":"ce4bh112rcd13ifvqda0","pricing_plan_id":"free"},{"bike_id":"0a863b74-b1d7-4a4d-b636-8de9698db32b","system_id":"levelo_inurba_marseille","lat":43.30632,"lon":5.40077,"is_reserved":false,"is_disabled":false,"rental_uris":{"android":"levelo://app?vid=0a863b74-b1d7-4a4d-b636-8de9698db32b","ios":"levelo://app?vid=0a863b74-b1d7-4a4d-b636-8de9698db32b"},"vehicle_type_id":"4","last_reported":1687061251,"current_range_meters":12400,"station_id":"ce4bh112rcd13ifvqda0","pricing_plan_id":"free"},{"bike_id":"7d0ef628-e3f0-4bd9-a5b0-fac4814cd11a","system_id":"levelo_inurba_marseille","lat":43.30644,"lon":5.40088,"is_reserved":false,"is_disabled":false,"rental_uris":{"android":"levelo://app?vid=7d0ef628-e3f0-4bd9-a5b0-fac4814cd11a","ios":"levelo://app?vid=7d0ef628-e3f0-4bd9-a5b0-fac4814cd11a"},"vehicle_type_id":"4","last_reported":1687061251,"current_range_meters":11600,"station_id":"ce4bh112rcd13ifvqda0","pricing_plan_id":"free"},{"bike_id":"79aeb243-40b9-4c4f-b95b-90e1c217502f","system_id":"levelo_inurba_marseille","lat":43.30641,"lon":5.40087,"is_reserved":false,"is_disabled":false,"rental_uris":{"android":"levelo://app?vid=79aeb243-40b9-4c4f-b95b-90e1c217502f","ios":"levelo://app?vid=79aeb243-40b9-4c4f-b95b-90e1c217502f"},"vehicle_type_id":"4","last_reported":1687061251,"current_range_meters":31200,"station_id":"ce4bh112rcd13ifvqda0","pricing_plan_id":"free"},{"bike_id":"48d6f00d-753f-40e3-9f71-4210cb93f08c","system_id":"levelo_inurba_marseille","lat":43.30642,"lon":5.401031,"is_reserved":false,"is_disabled":false,"rental_uris":{"android":"levelo://app?vid=48d6f00d-753f-40e3-9f71-4210cb93f08c","ios":"levelo://app?vid=48d6f00d-753f-40e3-9f71-4210cb93f08c"},"vehicle_type_id":"4","last_reported":1687061251,"current_range_meters":18400,"station_id":"ce4bh112rcd13ifvqda0","pricing_plan_id":"free"},{"bike_id":"fc3b0c39-8f5a-4a19-91d7-eb32340781b9","system_id":"levelo_inurba_marseille","lat":43.30642,"lon":5.401031,"is_reserved":false,"is_disabled":false,"rental_uris":{"android":"levelo://app?vid=fc3b0c39-8f5a-4a19-91d7-eb32340781b9","ios":"levelo://app?vid=fc3b0c39-8f5a-4a19-91d7-eb32340781b9"},"vehicle_type_id":"4","last_reported":1687061251,"current_range_meters":0,"station_id":"ce4bh112rcd13ifvqda0","pricing_plan_id":"free"},{"bike_id":"f0037f54-8573-4706-b742-9472dec2a208","system_id":"levelo_inurba_marseille","lat":43.30637,"lon":5.40087,"is_reserved":false,"is_disabled":false,"rental_uris":{"android":"levelo://app?vid=f0037f54-8573-4706-b742-9472dec2a208","ios":"levelo://app?vid=f0037f54-8573-4706-b742-9472dec2a208"},"vehicle_type_id":"4","last_reported":1687061251,"current_range_meters":31200,"station_id":"ce4bh112rcd13ifvqda0","pricing_plan_id":"free"},{"bike_id":"5218e874-f9c5-4a82-bbe7-680919eaef8e","system_id":"levelo_inurba_marseille","lat":43.30642,"lon":5.401031,"is_reserved":false,"is_disabled":false,"rental_uris":{"android":"levelo://app?vid=5218e874-f9c5-4a82-bbe7-680919eaef8e","ios":"levelo://app?vid=5218e874-f9c5-4a82-bbe7-680919eaef8e"},"vehicle_type_id":"4","last_reported":1687061251,"current_range_meters":30800,"station_id":"ce4bh112rcd13ifvqda0","pricing_plan_id":"free"},{"bike_id":"395f5e88-55af-47d4-b488-3c0c072cd6d6","system_id":"levelo_inurba_marseille","lat":43.30629,"lon":5.40092,"is_reserved":false,"is_disabled":false,"rental_uris":{"android":"levelo://app?vid=395f5e88-55af-47d4-b488-3c0c072cd6d6","ios":"levelo://app?vid=395f5e88-55af-47d4-b488-3c0c072cd6d6"},"vehicle_type_id":"4","last_reported":1687061251,"current_range_meters":31200,"station_id":"ce4bh112rcd13ifvqda0","pricing_plan_id":"free"},{"bike_id":"a55ba0c6-7995-4acd-8526-06c892f11f87","system_id":"levelo_inurba_marseille","lat":43.301117,"lon":5.398795,"is_reserved":false,"is_disabled":false,"rental_uris":{"android":"levelo://app?vid=a55ba0c6-7995-4acd-8526-06c892f11f87","ios":"levelo://app?vid=a55ba0c6-7995-4acd-8526-06c892f11f87"},"vehicle_type_id":"4","last_reported":1687061251,"current_range_meters":29600,"station_id":"ce4bh0h2rcd13ifvqd40","pricing_plan_id":"free"},{"bike_id":"cdb41768-83f7-4c24-9b4c-280f19c1a3d4","system_id":"levelo_inurba_marseille","lat":43.301117,"lon":5.398795,"is_reserved":false,"is_disabled":false,"rental_uris":{"android":"levelo://app?vid=cdb41768-83f7-4c24-9b4c-280f19c1a3d4","ios":"levelo://app?vid=cdb41768-83f7-4c24-9b4c-280f19c1a3d4"},"vehicle_type_id":"4","last_reported":1687061251,"current_range_meters":30000,"station_id":"ce4bh0h2rcd13ifvqd40","pricing_plan_id":"free"},{"bike_id":"3969b9ce-a75e-4f8e-bfd1-967e07326d2c","system_id":"levelo_inurba_marseille","lat":43.301117,"lon":5.398795,"is_reserved":false,"is_disabled":false,"rental_uris":{"android":"levelo://app?vid=3969b9ce-a75e-4f8e-bfd1-967e07326d2c","ios":"levelo://app?vid=3969b9ce-a75e-4f8e-bfd1-967e07326d2c"},"vehicle_type_id":"4","last_reported":1687061251,"current_range_meters":26000,"station_id":"ce4bh0h2rcd13ifvqd40","pricing_plan_id":"free"},{"bike_id":"d7609247-8dc9-4f3d-ac68-99205e3a7833","system_id":"levelo_inurba_marseille","lat":43.30119,"lon":5.3987,"is_reserved":false,"is_disabled":false,"rental_uris":{"android":"levelo://app?vid=d7609247-8dc9-4f3d-ac68-99205e3a7833","ios":"levelo://app?vid=d7609247-8dc9-4f3d-ac68-99205e3a7833"},"vehicle_type_id":"4","last_reported":1687061251,"current_range_meters":13200,"station_id":"ce4bh0h2rcd13ifvqd40","pricing_plan_id":"free"},{"bike_id":"c785f083-7452-4d1b-ae2d-f5afd58be341","system_id":"levelo_inurba_marseille","lat":43.298681,"lon":5.397225,"is_reserved":false,"is_disabled":false,"rental_uris":{"android":"levelo://app?vid=c785f083-7452-4d1b-ae2d-f5afd58be341","ios":"levelo://app?vid=c785f083-7452-4d1b-ae2d-f5afd58be341"},"vehicle_type_id":"4","last_reported":1687061251,"current_range_meters":27600,"station_id":"ce4bh0h2rcd13ifvqd50","pricing_plan_id":"free"},{"bike_id":"69650e63-036e-44dd-9550-f7f4bbfcc2d0","system_id":"levelo_inurba_marseille","lat":43.29881,"lon":5.39736,"is_reserved":false,"is_disabled":false,"rental_uris":{"android":"levelo://app?vid=69650e63-036e-44dd-9550-f7f4bbfcc2d0","ios":"levelo://app?vid=69650e63-036e-44dd-9550-f7f4bbfcc2d0"},"vehicle_type_id":"4","last_reported":1687061251,"current_range_meters":22400,"station_id":"ce4bh0h2rcd13ifvqd50","pricing_plan_id":"free"},{"bike_id":"877f38c0-8bef-4ac6-865a-3a6eade24f98","system_id":"levelo_inurba_marseille","lat":43.286591,"lon":5.363346,"is_reserved":false,"is_disabled":false,"rental_uris":{"android":"levelo://app?vid=877f38c0-8bef-4ac6-865a-3a6eade24f98","ios":"levelo://app?vid=877f38c0-8bef-4ac6-865a-3a6eade24f98"},"vehicle_type_id":"4","last_reported":1687061251,"current_range_meters":19600,"station_id":"ce4bhah2rcd13ifvqej0","pricing_plan_id":"free"},{"bike_id":"75e4cba5-e5cb-4c04-b0dc-82ae5c2b3686","system_id":"levelo_inurba_marseille","lat":43.298681,"lon":5.397225,"is_reserved":false,"is_disabled":false,"rental_uris":{"android":"levelo://app?vid=75e4cba5-e5cb-4c04-b0dc-82ae5c2b3686","ios":"levelo://app?vid=75e4cba5-e5cb-4c04-b0dc-82ae5c2b3686"},"vehicle_type_id":"4","last_reported":1687061251,"current_range_meters":26800,"station_id":"ce4bh0h2rcd13ifvqd50","pricing_plan_id":"free"},{"bike_id":"3582910f-9b14-4016-a5a8-c11c16333f00","system_id":"levelo_inurba_marseille","lat":43.298681,"lon":5.397225,"is_reserved":false,"is_disabled":false,"rental_uris":{"android":"levelo://app?vid=3582910f-9b14-4016-a5a8-c11c16333f00","ios":"levelo://app?vid=3582910f-9b14-4016-a5a8-c11c16333f00"},"vehicle_type_id":"4","last_reported":1687061251,"current_range_meters":30000,"station_id":"ce4bh0h2rcd13ifvqd50","pricing_plan_id":"free"},{"bike_id":"4df64033-ff54-45f8-85d9-e0ab2c47b944","system_id":"levelo_inurba_marseille","lat":43.29879,"lon":5.39737,"is_reserved":false,"is_disabled":false,"rental_uris":{"android":"levelo://app?vid=4df64033-ff54-45f8-85d9-e0ab2c47b944","ios":"levelo://app?vid=4df64033-ff54-45f8-85d9-e0ab2c47b944"},"vehicle_type_id":"4","last_reported":1687061251,"current_range_meters":26400,"station_id":"ce4bh0h2rcd13ifvqd50","pricing_plan_id":"free"},{"bike_id":"85b30dc9-5c99-4471-8d69-a95d819eab94","system_id":"levelo_inurba_marseille","lat":43.29884,"lon":5.39743,"is_reserved":false,"is_disabled":false,"rental_uris":{"android":"levelo://app?vid=85b30dc9-5c99-4471-8d69-a95d819eab94","ios":"levelo://app?vid=85b30dc9-5c99-4471-8d69-a95d819eab94"},"vehicle_type_id":"4","last_reported":1687061251,"current_range_meters":19200,"station_id":"ce4bh0h2rcd13ifvqd50","pricing_plan_id":"free"},{"bike_id":"683d132e-74eb-48a7-b48f-8dadddca1d4f","system_id":"levelo_inurba_marseille","lat":43.286591,"lon":5.363346,"is_reserved":false,"is_disabled":false,"rental_uris":{"android":"levelo://app?vid=683d132e-74eb-48a7-b48f-8dadddca1d4f","ios":"levelo://app?vid=683d132e-74eb-48a7-b48f-8dadddca1d4f"},"vehicle_type_id":"4","last_reported":1687061251,"current_range_meters":24400,"station_id":"ce4bhah2rcd13ifvqej0","pricing_plan_id":"free"},{"bike_id":"416a8fbb-a253-4839-a02e-62f8fdcf2e24","system_id":"levelo_inurba_marseille","lat":43.298681,"lon":5.397225,"is_reserved":false,"is_disabled":false,"rental_uris":{"android":"levelo://app?vid=416a8fbb-a253-4839-a02e-62f8fdcf2e24","ios":"levelo://app?vid=416a8fbb-a253-4839-a02e-62f8fdcf2e24"},"vehicle_type_id":"4","last_reported":1687061251,"current_range_meters":18400,"station_id":"ce4bh0h2rcd13ifvqd50","pricing_plan_id":"free"},{"bike_id":"e21616df-ea58-4771-93f0-84d2fd6c505d","system_id":"levelo_inurba_marseille","lat":43.29876,"lon":5.39739,"is_reserved":false,"is_disabled":false,"rental_uris":{"android":"levelo://app?vid=e21616df-ea58-4771-93f0-84d2fd6c505d","ios":"levelo://app?vid=e21616df-ea58-4771-93f0-84d2fd6c505d"},"vehicle_type_id":"4","last_reported":1687061251,"current_range_meters":24000,"station_id":"ce4bh0h2rcd13ifvqd50","pricing_plan_id":"free"},{"bike_id":"b73a22d3-477f-4696-b59b-1d050d1d320e","system_id":"levelo_inurba_marseille","lat":43.29873,"lon":5.39738,"is_reserved":false,"is_disabled":false,"rental_uris":{"android":"levelo://app?vid=b73a22d3-477f-4696-b59b-1d050d1d320e","ios":"levelo://app?vid=b73a22d3-477f-4696-b59b-1d050d1d320e"},"vehicle_type_id":"4","last_reported":1687061251,"current_range_meters":24000,"station_id":"ce4bh0h2rcd13ifvqd50","pricing_plan_id":"free"},{"bike_id":"93369fd3-5575-41cd-a635-fc72f719be1a","system_id":"levelo_inurba_marseille","lat":43.286591,"lon":5.363346,"is_reserved":false,"is_disabled":false,"rental_uris":{"android":"levelo://app?vid=93369fd3-5575-41cd-a635-fc72f719be1a","ios":"levelo://app?vid=93369fd3-5575-41cd-a635-fc72f719be1a"},"vehicle_type_id":"4","last_reported":1687061251,"current_range_meters":31600,"station_id":"ce4bhah2rcd13ifvqej0","pricing_plan_id":"free"},{"bike_id":"07010885-1443-4b8f-94a8-c3881f0295d6","system_id":"levelo_inurba_marseille","lat":43.286591,"lon":5.363346,"is_reserved":false,"is_disabled":false,"rental_uris":{"android":"levelo://app?vid=07010885-1443-4b8f-94a8-c3881f0295d6","ios":"levelo://app?vid=07010885-1443-4b8f-94a8-c3881f0295d6"},"vehicle_type_id":"4","last_reported":1687061251,"current_range_meters":26800,"station_id":"ce4bhah2rcd13ifvqej0","pricing_plan_id":"free"},{"bike_id":"9cfea76c-1017-4c15-8e5d-97e7c696c50e","system_id":"levelo_inurba_marseille","lat":43.29869,"lon":5.39738,"is_reserved":false,"is_disabled":false,"rental_uris":{"android":"levelo://app?vid=9cfea76c-1017-4c15-8e5d-97e7c696c50e","ios":"levelo://app?vid=9cfea76c-1017-4c15-8e5d-97e7c696c50e"},"vehicle_type_id":"4","last_reported":1687061251,"current_range_meters":21200,"station_id":"ce4bh0h2rcd13ifvqd50","pricing_plan_id":"free"},{"bike_id":"1333a0f0-66eb-45f5-96ed-bbb5d4fff252","system_id":"levelo_inurba_marseille","lat":43.286593,"lon":5.363346,"is_reserved":false,"is_disabled":false,"rental_uris":{"android":"levelo://app?vid=1333a0f0-66eb-45f5-96ed-bbb5d4fff252","ios":"levelo://app?vid=1333a0f0-66eb-45f5-96ed-bbb5d4fff252"},"vehicle_type_id":"4","last_reported":1687061251,"current_range_meters":21200,"station_id":"ce4bhah2rcd13ifvqej0","pricing_plan_id":"free"},{"bike_id":"f81e5fdf-ba1f-4b21-9310-168ac9e7497e","system_id":"levelo_inurba_marseille","lat":43.286593,"lon":5.363346,"is_reserved":false,"is_disabled":false,"rental_uris":{"android":"levelo://app?vid=f81e5fdf-ba1f-4b21-9310-168ac9e7497e","ios":"levelo://app?vid=f81e5fdf-ba1f-4b21-9310-168ac9e7497e"},"vehicle_type_id":"4","last_reported":1687061251,"current_range_meters":0,"station_id":"ce4bhah2rcd13ifvqej0","pricing_plan_id":"free"},{"bike_id":"7772b93e-f56a-4d7d-9c2f-6ebee52e74bd","system_id":"levelo_inurba_marseille","lat":43.286591,"lon":5.363346,"is_reserved":false,"is_disabled":false,"rental_uris":{"android":"levelo://app?vid=7772b93e-f56a-4d7d-9c2f-6ebee52e74bd","ios":"levelo://app?vid=7772b93e-f56a-4d7d-9c2f-6ebee52e74bd"},"vehicle_type_id":"4","last_reported":1687061251,"current_range_meters":26000,"station_id":"ce4bhah2rcd13ifvqej0","pricing_plan_id":"free"},{"bike_id":"5d050b3e-4fa0-4619-a31e-581192da1f1f","system_id":"levelo_inurba_marseille","lat":43.286593,"lon":5.363346,"is_reserved":false,"is_disabled":false,"rental_uris":{"android":"levelo://app?vid=5d050b3e-4fa0-4619-a31e-581192da1f1f","ios":"levelo://app?vid=5d050b3e-4fa0-4619-a31e-581192da1f1f"},"vehicle_type_id":"4","last_reported":1687061251,"current_range_meters":21200,"station_id":"ce4bhah2rcd13ifvqej0","pricing_plan_id":"free"},{"bike_id":"e289cb38-4969-4fcf-8261-2a18b3228371","system_id":"levelo_inurba_marseille","lat":43.295194,"lon":5.39397,"is_reserved":false,"is_disabled":false,"rental_uris":{"android":"levelo://app?vid=e289cb38-4969-4fcf-8261-2a18b3228371","ios":"levelo://app?vid=e289cb38-4969-4fcf-8261-2a18b3228371"},"vehicle_type_id":"4","last_reported":1687061251,"current_range_meters":28400,"station_id":"ce4bh292rcd13ifvqdf0","pricing_plan_id":"free"},{"bike_id":"9b28ffd6-736e-4196-b535-1b376254a709","system_id":"levelo_inurba_marseille","lat":43.295194,"lon":5.39397,"is_reserved":false,"is_disabled":false,"rental_uris":{"android":"levelo://app?vid=9b28ffd6-736e-4196-b535-1b376254a709","ios":"levelo://app?vid=9b28ffd6-736e-4196-b535-1b376254a709"},"vehicle_type_id":"4","last_reported":1687061251,"current_range_meters":17600,"station_id":"ce4bh292rcd13ifvqdf0","pricing_plan_id":"free"},{"bike_id":"aefac8dc-2088-40c2-8cc8-59b2439ececf","system_id":"levelo_inurba_marseille","lat":43.295194,"lon":5.39397,"is_reserved":false,"is_disabled":false,"rental_uris":{"android":"levelo://app?vid=aefac8dc-2088-40c2-8cc8-59b2439ececf","ios":"levelo://app?vid=aefac8dc-2088-40c2-8cc8-59b2439ececf"},"vehicle_type_id":"4","last_reported":1687061251,"current_range_meters":27600,"station_id":"ce4bh292rcd13ifvqdf0","pricing_plan_id":"free"},{"bike_id":"6e40926a-356b-4831-8b76-bfd9bcdd471c","system_id":"levelo_inurba_marseille","lat":43.302759,"lon":5.400793,"is_reserved":false,"is_disabled":false,"rental_uris":{"android":"levelo://app?vid=6e40926a-356b-4831-8b76-bfd9bcdd471c","ios":"levelo://app?vid=6e40926a-356b-4831-8b76-bfd9bcdd471c"},"vehicle_type_id":"4","last_reported":1687061251,"current_range_meters":26800,"station_id":"ce4bgvh2rcd13ifvqcs0","pricing_plan_id":"free"},{"bike_id":"a0f2f5a0-472f-4011-afad-98482cbca724","system_id":"levelo_inurba_marseille","lat":43.302759,"lon":5.400793,"is_reserved":false,"is_disabled":false,"rental_uris":{"android":"levelo://app?vid=a0f2f5a0-472f-4011-afad-98482cbca724","ios":"levelo://app?vid=a0f2f5a0-472f-4011-afad-98482cbca724"},"vehicle_type_id":"4","last_reported":1687061251,"current_range_meters":28000,"station_id":"ce4bgvh2rcd13ifvqcs0","pricing_plan_id":"free"},{"bike_id":"363358b6-1711-4e58-99d3-4183c9c5eb18","system_id":"levelo_inurba_marseille","lat":43.302759,"lon":5.400793,"is_reserved":false,"is_disabled":false,"rental_uris":{"android":"levelo://app?vid=363358b6-1711-4e58-99d3-4183c9c5eb18","ios":"levelo://app?vid=363358b6-1711-4e58-99d3-4183c9c5eb18"},"vehicle_type_id":"4","last_reported":1687061251,"current_range_meters":22000,"station_id":"ce4bgvh2rcd13ifvqcs0","pricing_plan_id":"free"},{"bike_id":"b9d11a7a-8b84-44d9-9906-bfd0c7fdc492","system_id":"levelo_inurba_marseille","lat":43.302759,"lon":5.400793,"is_reserved":false,"is_disabled":false,"rental_uris":{"android":"levelo://app?vid=b9d11a7a-8b84-44d9-9906-bfd0c7fdc492","ios":"levelo://app?vid=b9d11a7a-8b84-44d9-9906-bfd0c7fdc492"},"vehicle_type_id":"4","last_reported":1687061251,"current_range_meters":21600,"station_id":"ce4bgvh2rcd13ifvqcs0","pricing_plan_id":"free"},{"bike_id":"6f35365f-4551-4154-8104-fe3909afd746","system_id":"levelo_inurba_marseille","lat":43.302759,"lon":5.400793,"is_reserved":false,"is_disabled":false,"rental_uris":{"android":"levelo://app?vid=6f35365f-4551-4154-8104-fe3909afd746","ios":"levelo://app?vid=6f35365f-4551-4154-8104-fe3909afd746"},