{"last_updated":1779272202,"ttl":60,"version":"2.2","data":{"bikes":[{"bike_id":"7d641315-6110-49cb-a9dd-d637ff032de1","system_id":"levelo_inurba_marseille","lat":43.337444,"lon":5.374475,"is_reserved":false,"is_disabled":false,"rental_uris":{"android":"levelo://app?vid=7d641315-6110-49cb-a9dd-d637ff032de1","ios":"levelo://app?vid=7d641315-6110-49cb-a9dd-d637ff032de1"},"vehicle_type_id":"4","last_reported":1779272203,"current_range_meters":0,"station_id":"","pricing_plan_id":"cebpf4jnsgd1na2vs0mg"},{"bike_id":"bc12875f-9dcb-4f14-8ec4-c5a179682ba7","system_id":"levelo_inurba_marseille","lat":43.27919,"lon":5.39576,"is_reserved":false,"is_disabled":false,"rental_uris":{"android":"levelo://app?vid=bc12875f-9dcb-4f14-8ec4-c5a179682ba7","ios":"levelo://app?vid=bc12875f-9dcb-4f14-8ec4-c5a179682ba7"},"vehicle_type_id":"4","last_reported":1779272203,"current_range_meters":2800,"station_id":"ce4bhf92rcd13ifvqf40","pricing_plan_id":"cebpf4jnsgd1na2vs0mg"},{"bike_id":"30bfbc81-60cb-4ccb-b307-1f7e3995d19a","system_id":"levelo_inurba_marseille","lat":43.28987,"lon":5.35594,"is_reserved":false,"is_disabled":false,"rental_uris":{"android":"levelo://app?vid=30bfbc81-60cb-4ccb-b307-1f7e3995d19a","ios":"levelo://app?vid=30bfbc81-60cb-4ccb-b307-1f7e3995d19a"},"vehicle_type_id":"4","last_reported":1779272203,"current_range_meters":2800,"station_id":"ce4bhb92rcd13ifvqen0","pricing_plan_id":"cebpf4jnsgd1na2vs0mg"},{"bike_id":"b0f701be-92b9-4bcc-8993-ceaafa52f710","system_id":"levelo_inurba_marseille","lat":43.29703,"lon":5.37207,"is_reserved":false,"is_disabled":false,"rental_uris":{"android":"levelo://app?vid=b0f701be-92b9-4bcc-8993-ceaafa52f710","ios":"levelo://app?vid=b0f701be-92b9-4bcc-8993-ceaafa52f710"},"vehicle_type_id":"4","last_reported":1779272203,"current_range_meters":2800,"station_id":"","pricing_plan_id":"cebpf4jnsgd1na2vs0mg"},{"bike_id":"0581d8c8-a002-411b-8e55-8a8ea16cde78","system_id":"levelo_inurba_marseille","lat":43.28462,"lon":5.3588,"is_reserved":false,"is_disabled":false,"rental_uris":{"android":"levelo://app?vid=0581d8c8-a002-411b-8e55-8a8ea16cde78","ios":"levelo://app?vid=0581d8c8-a002-411b-8e55-8a8ea16cde78"},"vehicle_type_id":"4","last_reported":1779272203,"current_range_meters":2800,"station_id":"ce4bhah2rcd13ifvqei0","pricing_plan_id":"cebpf4jnsgd1na2vs0mg"},{"bike_id":"1aa42c18-42cb-4e7b-b79d-bcd5251398c8","system_id":"levelo_inurba_marseille","lat":43.21754,"lon":5.34655,"is_reserved":false,"is_disabled":false,"rental_uris":{"android":"levelo://app?vid=1aa42c18-42cb-4e7b-b79d-bcd5251398c8","ios":"levelo://app?vid=1aa42c18-42cb-4e7b-b79d-bcd5251398c8"},"vehicle_type_id":"4","last_reported":1779272203,"current_range_meters":2800,"station_id":"st_cvj6r9ubvosntc0bgbag","pricing_plan_id":"cebpf4jnsgd1na2vs0mg"},{"bike_id":"3fc4ae7e-c2cb-4403-949a-eb1610fb7745","system_id":"levelo_inurba_marseille","lat":43.30154,"lon":5.38083,"is_reserved":false,"is_disabled":false,"rental_uris":{"android":"levelo://app?vid=3fc4ae7e-c2cb-4403-949a-eb1610fb7745","ios":"levelo://app?vid=3fc4ae7e-c2cb-4403-949a-eb1610fb7745"},"vehicle_type_id":"4","last_reported":1779272203,"current_range_meters":2800,"station_id":"ce4bgjp2rcd13ifvqbh0","pricing_plan_id":"cebpf4jnsgd1na2vs0mg"},{"bike_id":"53e492c8-c2a2-4774-9dbe-319bd1600b31","system_id":"levelo_inurba_marseille","lat":43.284123,"lon":5.349848,"is_reserved":false,"is_disabled":false,"rental_uris":{"android":"levelo://app?vid=53e492c8-c2a2-4774-9dbe-319bd1600b31","ios":"levelo://app?vid=53e492c8-c2a2-4774-9dbe-319bd1600b31"},"vehicle_type_id":"4","last_reported":1779272203,"current_range_meters":2800,"station_id":"ce4bhbh2rcd13ifvqepg","pricing_plan_id":"cebpf4jnsgd1na2vs0mg"},{"bike_id":"440c7748-7ecb-4a7b-9edf-23f7ecefa3a9","system_id":"levelo_inurba_marseille","lat":43.23168,"lon":5.4367,"is_reserved":false,"is_disabled":false,"rental_uris":{"android":"levelo://app?vid=440c7748-7ecb-4a7b-9edf-23f7ecefa3a9","ios":"levelo://app?vid=440c7748-7ecb-4a7b-9edf-23f7ecefa3a9"},"vehicle_type_id":"4","last_reported":1779272203,"current_range_meters":2800,"station_id":"ce4bhmp2rcd13ifvqgog","pricing_plan_id":"cebpf4jnsgd1na2vs0mg"},{"bike_id":"e13cfac9-1445-41be-a9c6-0c093851b014","system_id":"levelo_inurba_marseille","lat":43.231507,"lon":5.437147,"is_reserved":false,"is_disabled":false,"rental_uris":{"android":"levelo://app?vid=e13cfac9-1445-41be-a9c6-0c093851b014","ios":"levelo://app?vid=e13cfac9-1445-41be-a9c6-0c093851b014"},"vehicle_type_id":"4","last_reported":1779272203,"current_range_meters":2800,"station_id":"ce4bhmp2rcd13ifvqgog","pricing_plan_id":"cebpf4jnsgd1na2vs0mg"},{"bike_id":"604c8d35-0292-4781-b66d-7833a0f007ea","system_id":"levelo_inurba_marseille","lat":43.33542,"lon":5.37466,"is_reserved":false,"is_disabled":false,"rental_uris":{"android":"levelo://app?vid=604c8d35-0292-4781-b66d-7833a0f007ea","ios":"levelo://app?vid=604c8d35-0292-4781-b66d-7833a0f007ea"},"vehicle_type_id":"4","last_reported":1779272203,"current_range_meters":3200,"station_id":"st_d46tts09ee8s73dlu43g","pricing_plan_id":"cebpf4jnsgd1na2vs0mg"},{"bike_id":"45f3397b-1835-4738-9d87-fc9f9d884570","system_id":"levelo_inurba_marseille","lat":43.23203,"lon":5.3553,"is_reserved":false,"is_disabled":false,"rental_uris":{"android":"levelo://app?vid=45f3397b-1835-4738-9d87-fc9f9d884570","ios":"levelo://app?vid=45f3397b-1835-4738-9d87-fc9f9d884570"},"vehicle_type_id":"4","last_reported":1779272203,"current_range_meters":3200,"station_id":"ce4bhu92rcd13ifvqi70","pricing_plan_id":"cebpf4jnsgd1na2vs0mg"},{"bike_id":"9d45a253-1d3a-41f8-95ed-2518452886d5","system_id":"levelo_inurba_marseille","lat":43.25518,"lon":5.37646,"is_reserved":false,"is_disabled":false,"rental_uris":{"android":"levelo://app?vid=9d45a253-1d3a-41f8-95ed-2518452886d5","ios":"levelo://app?vid=9d45a253-1d3a-41f8-95ed-2518452886d5"},"vehicle_type_id":"4","last_reported":1779272203,"current_range_meters":3200,"station_id":"ce4bhh12rcd13ifvqff0","pricing_plan_id":"cebpf4jnsgd1na2vs0mg"},{"bike_id":"4a8fff30-cbc5-491d-8d3e-d22b568d1485","system_id":"levelo_inurba_marseille","lat":43.26465,"lon":5.37414,"is_reserved":false,"is_disabled":false,"rental_uris":{"android":"levelo://app?vid=4a8fff30-cbc5-491d-8d3e-d22b568d1485","ios":"levelo://app?vid=4a8fff30-cbc5-491d-8d3e-d22b568d1485"},"vehicle_type_id":"4","last_reported":1779272203,"current_range_meters":3200,"station_id":"","pricing_plan_id":"cebpf4jnsgd1na2vs0mg"},{"bike_id":"cd1dc5b4-310f-4c4a-bc55-2ffbc8ea9bb1","system_id":"levelo_inurba_marseille","lat":43.29061,"lon":5.37136,"is_reserved":false,"is_disabled":true,"rental_uris":{"android":"levelo://app?vid=cd1dc5b4-310f-4c4a-bc55-2ffbc8ea9bb1","ios":"levelo://app?vid=cd1dc5b4-310f-4c4a-bc55-2ffbc8ea9bb1"},"vehicle_type_id":"4","last_reported":1779272203,"current_range_meters":3200,"station_id":"ce4bh5p2rcd13ifvqe4g","pricing_plan_id":"cebpf4jnsgd1na2vs0mg"},{"bike_id":"a57b6d8c-426e-41f2-88fd-ed699a7b5fab","system_id":"levelo_inurba_marseille","lat":43.32105,"lon":5.36794,"is_reserved":false,"is_disabled":false,"rental_uris":{"android":"levelo://app?vid=a57b6d8c-426e-41f2-88fd-ed699a7b5fab","ios":"levelo://app?vid=a57b6d8c-426e-41f2-88fd-ed699a7b5fab"},"vehicle_type_id":"4","last_reported":1779272203,"current_range_meters":3200,"station_id":"ce4bhrh2rcd13ifvqhug","pricing_plan_id":"cebpf4jnsgd1na2vs0mg"},{"bike_id":"8a3e6237-1092-4b9d-85d0-d4077f29ce06","system_id":"levelo_inurba_marseille","lat":43.28613,"lon":5.35105,"is_reserved":false,"is_disabled":false,"rental_uris":{"android":"levelo://app?vid=8a3e6237-1092-4b9d-85d0-d4077f29ce06","ios":"levelo://app?vid=8a3e6237-1092-4b9d-85d0-d4077f29ce06"},"vehicle_type_id":"4","last_reported":1779272203,"current_range_meters":3200,"station_id":"ce4bhch2rcd13ifvqeug","pricing_plan_id":"cebpf4jnsgd1na2vs0mg"},{"bike_id":"01a535c2-2aa8-486c-b4e8-7a7aace55e7e","system_id":"levelo_inurba_marseille","lat":43.21759,"lon":5.346,"is_reserved":false,"is_disabled":false,"rental_uris":{"android":"levelo://app?vid=01a535c2-2aa8-486c-b4e8-7a7aace55e7e","ios":"levelo://app?vid=01a535c2-2aa8-486c-b4e8-7a7aace55e7e"},"vehicle_type_id":"4","last_reported":1779272203,"current_range_meters":3200,"station_id":"st_cvj6r9ubvosntc0bgbag","pricing_plan_id":"cebpf4jnsgd1na2vs0mg"},{"bike_id":"d5507518-cb58-4fc3-a22b-de5ad3c6e51d","system_id":"levelo_inurba_marseille","lat":43.29824,"lon":5.44077,"is_reserved":false,"is_disabled":false,"rental_uris":{"android":"levelo://app?vid=d5507518-cb58-4fc3-a22b-de5ad3c6e51d","ios":"levelo://app?vid=d5507518-cb58-4fc3-a22b-de5ad3c6e51d"},"vehicle_type_id":"4","last_reported":1779272203,"current_range_meters":3200,"station_id":"st_d3jp68qikq2c7381ktn0","pricing_plan_id":"cebpf4jnsgd1na2vs0mg"},{"bike_id":"cfbfdf60-d81e-4d76-86b0-d916d82fdeb8","system_id":"levelo_inurba_marseille","lat":43.21753,"lon":5.34601,"is_reserved":false,"is_disabled":false,"rental_uris":{"android":"levelo://app?vid=cfbfdf60-d81e-4d76-86b0-d916d82fdeb8","ios":"levelo://app?vid=cfbfdf60-d81e-4d76-86b0-d916d82fdeb8"},"vehicle_type_id":"4","last_reported":1779272203,"current_range_meters":3200,"station_id":"st_cvj6r9ubvosntc0bgbag","pricing_plan_id":"cebpf4jnsgd1na2vs0mg"},{"bike_id":"ce5431d8-204b-46f9-ba33-8b0fd34db53a","system_id":"levelo_inurba_marseille","lat":43.27567,"lon":5.38402,"is_reserved":false,"is_disabled":false,"rental_uris":{"android":"levelo://app?vid=ce5431d8-204b-46f9-ba33-8b0fd34db53a","ios":"levelo://app?vid=ce5431d8-204b-46f9-ba33-8b0fd34db53a"},"vehicle_type_id":"4","last_reported":1779272203,"current_range_meters":3200,"station_id":"ce4bhh92rcd13ifvqfi0","pricing_plan_id":"cebpf4jnsgd1na2vs0mg"},{"bike_id":"7a6d895d-4aa8-4fe1-bd5d-665fd2acc0a7","system_id":"levelo_inurba_marseille","lat":43.28433,"lon":5.34983,"is_reserved":false,"is_disabled":false,"rental_uris":{"android":"levelo://app?vid=7a6d895d-4aa8-4fe1-bd5d-665fd2acc0a7","ios":"levelo://app?vid=7a6d895d-4aa8-4fe1-bd5d-665fd2acc0a7"},"vehicle_type_id":"4","last_reported":1779272203,"current_range_meters":3200,"station_id":"ce4bhbh2rcd13ifvqepg","pricing_plan_id":"cebpf4jnsgd1na2vs0mg"},{"bike_id":"ed8972b6-551c-4612-9891-8699e7d3a000","system_id":"levelo_inurba_marseille","lat":43.23161,"lon":5.43717,"is_reserved":false,"is_disabled":false,"rental_uris":{"android":"levelo://app?vid=ed8972b6-551c-4612-9891-8699e7d3a000","ios":"levelo://app?vid=ed8972b6-551c-4612-9891-8699e7d3a000"},"vehicle_type_id":"4","last_reported":1779272203,"current_range_meters":3200,"station_id":"ce4bhmp2rcd13ifvqgog","pricing_plan_id":"cebpf4jnsgd1na2vs0mg"},{"bike_id":"e8703d1e-38d7-4a37-8b34-74e110535cc7","system_id":"levelo_inurba_marseille","lat":43.25093,"lon":5.39493,"is_reserved":false,"is_disabled":false,"rental_uris":{"android":"levelo://app?vid=e8703d1e-38d7-4a37-8b34-74e110535cc7","ios":"levelo://app?vid=e8703d1e-38d7-4a37-8b34-74e110535cc7"},"vehicle_type_id":"4","last_reported":1779272203,"current_range_meters":3600,"station_id":"ce4bhm12rcd13ifvqgkg","pricing_plan_id":"cebpf4jnsgd1na2vs0mg"},{"bike_id":"630671bf-dc9b-4bb7-8f5f-c919b9b617c0","system_id":"levelo_inurba_marseille","lat":43.28622,"lon":5.39872,"is_reserved":false,"is_disabled":false,"rental_uris":{"android":"levelo://app?vid=630671bf-dc9b-4bb7-8f5f-c919b9b617c0","ios":"levelo://app?vid=630671bf-dc9b-4bb7-8f5f-c919b9b617c0"},"vehicle_type_id":"4","last_reported":1779272203,"current_range_meters":3600,"station_id":"st_d4a7ka997mjs738ck50g","pricing_plan_id":"cebpf4jnsgd1na2vs0mg"},{"bike_id":"38881c01-82e8-4068-bbb5-a8bf487332c0","system_id":"levelo_inurba_marseille","lat":43.28271,"lon":5.35063,"is_reserved":false,"is_disabled":false,"rental_uris":{"android":"levelo://app?vid=38881c01-82e8-4068-bbb5-a8bf487332c0","ios":"levelo://app?vid=38881c01-82e8-4068-bbb5-a8bf487332c0"},"vehicle_type_id":"4","last_reported":1779272203,"current_range_meters":3600,"station_id":"ce4bhbp2rcd13ifvqerg","pricing_plan_id":"cebpf4jnsgd1na2vs0mg"},{"bike_id":"3cccce80-22e0-41b2-aa45-8bbdd2fc7525","system_id":"levelo_inurba_marseille","lat":43.251206,"lon":5.403306,"is_reserved":false,"is_disabled":false,"rental_uris":{"android":"levelo://app?vid=3cccce80-22e0-41b2-aa45-8bbdd2fc7525","ios":"levelo://app?vid=3cccce80-22e0-41b2-aa45-8bbdd2fc7525"},"vehicle_type_id":"4","last_reported":1779272203,"current_range_meters":3600,"station_id":"ce4bhlh2rcd13ifvqgig","pricing_plan_id":"cebpf4jnsgd1na2vs0mg"},{"bike_id":"51213c28-981b-4d1e-a08f-01be4d391a4f","system_id":"levelo_inurba_marseille","lat":43.276186,"lon":5.361004,"is_reserved":false,"is_disabled":true,"rental_uris":{"android":"levelo://app?vid=51213c28-981b-4d1e-a08f-01be4d391a4f","ios":"levelo://app?vid=51213c28-981b-4d1e-a08f-01be4d391a4f"},"vehicle_type_id":"4","last_reported":1779272203,"current_range_meters":3600,"station_id":"ce4bgj92rcd13ifvqbe0","pricing_plan_id":"cebpf4jnsgd1na2vs0mg"},{"bike_id":"baac81a7-a10e-40e8-ab83-506b3901e6a3","system_id":"levelo_inurba_marseille","lat":43.25966,"lon":5.40852,"is_reserved":false,"is_disabled":false,"rental_uris":{"android":"levelo://app?vid=baac81a7-a10e-40e8-ab83-506b3901e6a3","ios":"levelo://app?vid=baac81a7-a10e-40e8-ab83-506b3901e6a3"},"vehicle_type_id":"4","last_reported":1779272203,"current_range_meters":3600,"station_id":"","pricing_plan_id":"cebpf4jnsgd1na2vs0mg"},{"bike_id":"89dcf81e-d685-4eb4-82aa-fe68a85d332a","system_id":"levelo_inurba_marseille","lat":43.32109,"lon":5.3677,"is_reserved":false,"is_disabled":false,"rental_uris":{"android":"levelo://app?vid=89dcf81e-d685-4eb4-82aa-fe68a85d332a","ios":"levelo://app?vid=89dcf81e-d685-4eb4-82aa-fe68a85d332a"},"vehicle_type_id":"4","last_reported":1779272203,"current_range_meters":3600,"station_id":"ce4bhrh2rcd13ifvqhug","pricing_plan_id":"cebpf4jnsgd1na2vs0mg"},{"bike_id":"21d67278-74d8-4591-9f6e-19aaa85a39ab","system_id":"levelo_inurba_marseille","lat":43.33724,"lon":5.3919,"is_reserved":false,"is_disabled":false,"rental_uris":{"android":"levelo://app?vid=21d67278-74d8-4591-9f6e-19aaa85a39ab","ios":"levelo://app?vid=21d67278-74d8-4591-9f6e-19aaa85a39ab"},"vehicle_type_id":"4","last_reported":1779272203,"current_range_meters":3600,"station_id":"ce4bhr92rcd13ifvqhsg","pricing_plan_id":"cebpf4jnsgd1na2vs0mg"},{"bike_id":"2726f499-d13e-4e13-a134-f9d9ce05bb54","system_id":"levelo_inurba_marseille","lat":43.25941,"lon":5.40935,"is_reserved":false,"is_disabled":false,"rental_uris":{"android":"levelo://app?vid=2726f499-d13e-4e13-a134-f9d9ce05bb54","ios":"levelo://app?vid=2726f499-d13e-4e13-a134-f9d9ce05bb54"},"vehicle_type_id":"4","last_reported":1779272203,"current_range_meters":3600,"station_id":"ce4bhm92rcd13ifvqglg","pricing_plan_id":"cebpf4jnsgd1na2vs0mg"},{"bike_id":"4ed4ff22-73d1-425d-bbf0-b9ecfb88b98c","system_id":"levelo_inurba_marseille","lat":43.303218,"lon":5.404362,"is_reserved":false,"is_disabled":false,"rental_uris":{"android":"levelo://app?vid=4ed4ff22-73d1-425d-bbf0-b9ecfb88b98c","ios":"levelo://app?vid=4ed4ff22-73d1-425d-bbf0-b9ecfb88b98c"},"vehicle_type_id":"4","last_reported":1779272203,"current_range_meters":3600,"station_id":"ce4bh012rcd13ifvqd10","pricing_plan_id":"cebpf4jnsgd1na2vs0mg"},{"bike_id":"53e1a6ea-d784-4f7d-a440-309fc5e00a10","system_id":"levelo_inurba_marseille","lat":43.24169,"lon":5.39709,"is_reserved":false,"is_disabled":false,"rental_uris":{"android":"levelo://app?vid=53e1a6ea-d784-4f7d-a440-309fc5e00a10","ios":"levelo://app?vid=53e1a6ea-d784-4f7d-a440-309fc5e00a10"},"vehicle_type_id":"4","last_reported":1779272203,"current_range_meters":4000,"station_id":"ce4bhn12rcd13ifvqgpg","pricing_plan_id":"cebpf4jnsgd1na2vs0mg"},{"bike_id":"40e11415-186d-4a53-ac50-ac693db6945a","system_id":"levelo_inurba_marseille","lat":43.33535,"lon":5.37469,"is_reserved":false,"is_disabled":false,"rental_uris":{"android":"levelo://app?vid=40e11415-186d-4a53-ac50-ac693db6945a","ios":"levelo://app?vid=40e11415-186d-4a53-ac50-ac693db6945a"},"vehicle_type_id":"4","last_reported":1779272203,"current_range_meters":4000,"station_id":"st_d46tts09ee8s73dlu43g","pricing_plan_id":"cebpf4jnsgd1na2vs0mg"},{"bike_id":"33f1022a-86ed-42b2-a2fa-b6b00d8323f5","system_id":"levelo_inurba_marseille","lat":43.31118,"lon":5.37784,"is_reserved":false,"is_disabled":false,"rental_uris":{"android":"levelo://app?vid=33f1022a-86ed-42b2-a2fa-b6b00d8323f5","ios":"levelo://app?vid=33f1022a-86ed-42b2-a2fa-b6b00d8323f5"},"vehicle_type_id":"4","last_reported":1779272203,"current_range_meters":4000,"station_id":"ce4bgt92rcd13ifvqcg0","pricing_plan_id":"cebpf4jnsgd1na2vs0mg"},{"bike_id":"aba484fa-9c1f-4692-91ba-3f224183faf0","system_id":"levelo_inurba_marseille","lat":43.27989,"lon":5.41675,"is_reserved":false,"is_disabled":false,"rental_uris":{"android":"levelo://app?vid=aba484fa-9c1f-4692-91ba-3f224183faf0","ios":"levelo://app?vid=aba484fa-9c1f-4692-91ba-3f224183faf0"},"vehicle_type_id":"4","last_reported":1779272203,"current_range_meters":4000,"station_id":"ce4bho12rcd13ifvqh1g","pricing_plan_id":"cebpf4jnsgd1na2vs0mg"},{"bike_id":"59675d20-7a2b-48d0-bbc2-63712e04c9fe","system_id":"levelo_inurba_marseille","lat":43.301541,"lon":5.380562,"is_reserved":false,"is_disabled":false,"rental_uris":{"android":"levelo://app?vid=59675d20-7a2b-48d0-bbc2-63712e04c9fe","ios":"levelo://app?vid=59675d20-7a2b-48d0-bbc2-63712e04c9fe"},"vehicle_type_id":"4","last_reported":1779272203,"current_range_meters":4000,"station_id":"ce4bgjp2rcd13ifvqbh0","pricing_plan_id":"cebpf4jnsgd1na2vs0mg"},{"bike_id":"b905ca94-3071-4f16-9ce5-d80026149c93","system_id":"levelo_inurba_marseille","lat":43.31717,"lon":5.43692,"is_reserved":false,"is_disabled":false,"rental_uris":{"android":"levelo://app?vid=b905ca94-3071-4f16-9ce5-d80026149c93","ios":"levelo://app?vid=b905ca94-3071-4f16-9ce5-d80026149c93"},"vehicle_type_id":"4","last_reported":1779272203,"current_range_meters":4000,"station_id":"ce4bhp92rcd13ifvqhcg","pricing_plan_id":"cebpf4jnsgd1na2vs0mg"},{"bike_id":"5ae71c89-f24e-43a9-9449-81e65bb0da93","system_id":"levelo_inurba_marseille","lat":43.30186,"lon":5.38081,"is_reserved":false,"is_disabled":false,"rental_uris":{"android":"levelo://app?vid=5ae71c89-f24e-43a9-9449-81e65bb0da93","ios":"levelo://app?vid=5ae71c89-f24e-43a9-9449-81e65bb0da93"},"vehicle_type_id":"4","last_reported":1779272203,"current_range_meters":4000,"station_id":"ce4bgjp2rcd13ifvqbh0","pricing_plan_id":"cebpf4jnsgd1na2vs0mg"},{"bike_id":"d18fd8b8-7a40-4078-9a1d-6a41c9dd13ed","system_id":"levelo_inurba_marseille","lat":43.25336,"lon":5.42174,"is_reserved":false,"is_disabled":false,"rental_uris":{"android":"levelo://app?vid=d18fd8b8-7a40-4078-9a1d-6a41c9dd13ed","ios":"levelo://app?vid=d18fd8b8-7a40-4078-9a1d-6a41c9dd13ed"},"vehicle_type_id":"4","last_reported":1779272203,"current_range_meters":4000,"station_id":"st_d2m65c5bi1j21697t3ng","pricing_plan_id":"cebpf4jnsgd1na2vs0mg"},{"bike_id":"408701cc-3f2d-4c32-b20d-587f50ccde82","system_id":"levelo_inurba_marseille","lat":43.305578,"lon":5.367156,"is_reserved":false,"is_disabled":false,"rental_uris":{"android":"levelo://app?vid=408701cc-3f2d-4c32-b20d-587f50ccde82","ios":"levelo://app?vid=408701cc-3f2d-4c32-b20d-587f50ccde82"},"vehicle_type_id":"4","last_reported":1779272203,"current_range_meters":4000,"station_id":"","pricing_plan_id":"cebpf4jnsgd1na2vs0mg"},{"bike_id":"d5c46757-4325-48b1-ad4a-cdd8d03623ec","system_id":"levelo_inurba_marseille","lat":43.30939,"lon":5.39042,"is_reserved":false,"is_disabled":false,"rental_uris":{"android":"levelo://app?vid=d5c46757-4325-48b1-ad4a-cdd8d03623ec","ios":"levelo://app?vid=d5c46757-4325-48b1-ad4a-cdd8d03623ec"},"vehicle_type_id":"4","last_reported":1779272203,"current_range_meters":4400,"station_id":"ce4bgup2rcd13ifvqco0","pricing_plan_id":"cebpf4jnsgd1na2vs0mg"},{"bike_id":"61e9b390-5cdc-4dfb-bf91-93751eb6d831","system_id":"levelo_inurba_marseille","lat":43.28943,"lon":5.36631,"is_reserved":false,"is_disabled":false,"rental_uris":{"android":"levelo://app?vid=61e9b390-5cdc-4dfb-bf91-93751eb6d831","ios":"levelo://app?vid=61e9b390-5cdc-4dfb-bf91-93751eb6d831"},"vehicle_type_id":"4","last_reported":1779272203,"current_range_meters":4400,"station_id":"ce4bhap2rcd13ifvqek0","pricing_plan_id":"cebpf4jnsgd1na2vs0mg"},{"bike_id":"d84aacc0-92ab-464b-a3ed-91d8e50b07ae","system_id":"levelo_inurba_marseille","lat":43.25845,"lon":5.39402,"is_reserved":false,"is_disabled":false,"rental_uris":{"android":"levelo://app?vid=d84aacc0-92ab-464b-a3ed-91d8e50b07ae","ios":"levelo://app?vid=d84aacc0-92ab-464b-a3ed-91d8e50b07ae"},"vehicle_type_id":"4","last_reported":1779272203,"current_range_meters":4400,"station_id":"ce4bhip2rcd13ifvqft0","pricing_plan_id":"cebpf4jnsgd1na2vs0mg"},{"bike_id":"c16bdf38-82db-498e-bdad-5b264882e7bf","system_id":"levelo_inurba_marseille","lat":43.28928,"lon":5.38759,"is_reserved":false,"is_disabled":false,"rental_uris":{"android":"levelo://app?vid=c16bdf38-82db-498e-bdad-5b264882e7bf","ios":"levelo://app?vid=c16bdf38-82db-498e-bdad-5b264882e7bf"},"vehicle_type_id":"4","last_reported":1779272203,"current_range_meters":4400,"station_id":"","pricing_plan_id":"cebpf4jnsgd1na2vs0mg"},{"bike_id":"854da997-21ff-48c4-ae70-cc3a0937e1c9","system_id":"levelo_inurba_marseille","lat":43.33543,"lon":5.37454,"is_reserved":false,"is_disabled":false,"rental_uris":{"android":"levelo://app?vid=854da997-21ff-48c4-ae70-cc3a0937e1c9","ios":"levelo://app?vid=854da997-21ff-48c4-ae70-cc3a0937e1c9"},"vehicle_type_id":"4","last_reported":1779272203,"current_range_meters":4400,"station_id":"st_d46tts09ee8s73dlu43g","pricing_plan_id":"cebpf4jnsgd1na2vs0mg"},{"bike_id":"291bce7d-95a9-4f5c-a2d8-de5b55889c52","system_id":"levelo_inurba_marseille","lat":43.29381,"lon":5.40152,"is_reserved":false,"is_disabled":false,"rental_uris":{"android":"levelo://app?vid=291bce7d-95a9-4f5c-a2d8-de5b55889c52","ios":"levelo://app?vid=291bce7d-95a9-4f5c-a2d8-de5b55889c52"},"vehicle_type_id":"4","last_reported":1779272203,"current_range_meters":4400,"station_id":"","pricing_plan_id":"cebpf4jnsgd1na2vs0mg"},{"bike_id":"352e87ab-7f64-4215-983c-02181695008c","system_id":"levelo_inurba_marseille","lat":43.301853,"lon":5.366311,"is_reserved":false,"is_disabled":false,"rental_uris":{"android":"levelo://app?vid=352e87ab-7f64-4215-983c-02181695008c","ios":"levelo://app?vid=352e87ab-7f64-4215-983c-02181695008c"},"vehicle_type_id":"4","last_reported":1779272203,"current_range_meters":4400,"station_id":"ce4bgrh2rcd13ifvqc8g","pricing_plan_id":"cebpf4jnsgd1na2vs0mg"},{"bike_id":"6816ad20-e267-4121-b319-c804c7fe4cde","system_id":"levelo_inurba_marseille","lat":43.28011,"lon":5.39977,"is_reserved":false,"is_disabled":false,"rental_uris":{"android":"levelo://app?vid=6816ad20-e267-4121-b319-c804c7fe4cde","ios":"levelo://app?vid=6816ad20-e267-4121-b319-c804c7fe4cde"},"vehicle_type_id":"4","last_reported":1779272203,"current_range_meters":4800,"station_id":"ce4bho92rcd13ifvqh4g","pricing_plan_id":"cebpf4jnsgd1na2vs0mg"},{"bike_id":"b1a6e6b5-5ba4-46e0-90da-12ee580df0dd","system_id":"levelo_inurba_marseille","lat":43.26809,"lon":5.4029,"is_reserved":false,"is_disabled":false,"rental_uris":{"android":"levelo://app?vid=b1a6e6b5-5ba4-46e0-90da-12ee580df0dd","ios":"levelo://app?vid=b1a6e6b5-5ba4-46e0-90da-12ee580df0dd"},"vehicle_type_id":"4","last_reported":1779272203,"current_range_meters":4800,"station_id":"ce501612rcd8frsf0b60","pricing_plan_id":"cebpf4jnsgd1na2vs0mg"},{"bike_id":"7d598e7d-cc9f-4d62-8939-525cafc83dfc","system_id":"levelo_inurba_marseille","lat":43.3053,"lon":5.3654,"is_reserved":false,"is_disabled":false,"rental_uris":{"android":"levelo://app?vid=7d598e7d-cc9f-4d62-8939-525cafc83dfc","ios":"levelo://app?vid=7d598e7d-cc9f-4d62-8939-525cafc83dfc"},"vehicle_type_id":"4","last_reported":1779272203,"current_range_meters":4800,"station_id":"ce4bgs12rcd13ifvqcag","pricing_plan_id":"cebpf4jnsgd1na2vs0mg"},{"bike_id":"89ab6489-a10e-470c-a5c5-1cccccde9d92","system_id":"levelo_inurba_marseille","lat":43.29096,"lon":5.3815,"is_reserved":false,"is_disabled":false,"rental_uris":{"android":"levelo://app?vid=89ab6489-a10e-470c-a5c5-1cccccde9d92","ios":"levelo://app?vid=89ab6489-a10e-470c-a5c5-1cccccde9d92"},"vehicle_type_id":"4","last_reported":1779272203,"current_range_meters":4800,"station_id":"ce4bh512rcd13ifvqe2g","pricing_plan_id":"cebpf4jnsgd1na2vs0mg"},{"bike_id":"a8ea8d83-c9cd-4629-a246-ef8bdb83bc4d","system_id":"levelo_inurba_marseille","lat":43.31049,"lon":5.37535,"is_reserved":false,"is_disabled":false,"rental_uris":{"android":"levelo://app?vid=a8ea8d83-c9cd-4629-a246-ef8bdb83bc4d","ios":"levelo://app?vid=a8ea8d83-c9cd-4629-a246-ef8bdb83bc4d"},"vehicle_type_id":"4","last_reported":1779272203,"current_range_meters":4800,"station_id":"","pricing_plan_id":"cebpf4jnsgd1na2vs0mg"},{"bike_id":"9fbae477-97a5-460c-b2da-0618c4b54827","system_id":"levelo_inurba_marseille","lat":43.28438,"lon":5.39197,"is_reserved":false,"is_disabled":true,"rental_uris":{"android":"levelo://app?vid=9fbae477-97a5-460c-b2da-0618c4b54827","ios":"levelo://app?vid=9fbae477-97a5-460c-b2da-0618c4b54827"},"vehicle_type_id":"4","last_reported":1779272203,"current_range_meters":4800,"station_id":"ce4bhoh2rcd13ifvqh5g","pricing_plan_id":"cebpf4jnsgd1na2vs0mg"},{"bike_id":"a4016515-44a0-44bc-b848-9d0e2dfe58bf","system_id":"levelo_inurba_marseille","lat":43.29615,"lon":5.3717,"is_reserved":false,"is_disabled":false,"rental_uris":{"android":"levelo://app?vid=a4016515-44a0-44bc-b848-9d0e2dfe58bf","ios":"levelo://app?vid=a4016515-44a0-44bc-b848-9d0e2dfe58bf"},"vehicle_type_id":"4","last_reported":1779272203,"current_range_meters":4800,"station_id":"ce4bgnh2rcd13ifvqc0g","pricing_plan_id":"cebpf4jnsgd1na2vs0mg"},{"bike_id":"750e6561-e621-4f1c-979a-6361147637b3","system_id":"levelo_inurba_marseille","lat":43.306561,"lon":5.400816,"is_reserved":false,"is_disabled":false,"rental_uris":{"android":"levelo://app?vid=750e6561-e621-4f1c-979a-6361147637b3","ios":"levelo://app?vid=750e6561-e621-4f1c-979a-6361147637b3"},"vehicle_type_id":"4","last_reported":1779272203,"current_range_meters":4800,"station_id":"ce4bh112rcd13ifvqda0","pricing_plan_id":"cebpf4jnsgd1na2vs0mg"},{"bike_id":"6218c5ab-e371-41c7-9f3a-c2c1e97665c1","system_id":"levelo_inurba_marseille","lat":43.26351,"lon":5.41094,"is_reserved":false,"is_disabled":false,"rental_uris":{"android":"levelo://app?vid=6218c5ab-e371-41c7-9f3a-c2c1e97665c1","ios":"levelo://app?vid=6218c5ab-e371-41c7-9f3a-c2c1e97665c1"},"vehicle_type_id":"4","last_reported":1779272203,"current_range_meters":4800,"station_id":"st_d4e5ca6na9uc73bfl5fg","pricing_plan_id":"cebpf4jnsgd1na2vs0mg"},{"bike_id":"2097df7d-581a-4ae7-8dbb-f903961d7969","system_id":"levelo_inurba_marseille","lat":43.2972,"lon":5.36616,"is_reserved":false,"is_disabled":false,"rental_uris":{"android":"levelo://app?vid=2097df7d-581a-4ae7-8dbb-f903961d7969","ios":"levelo://app?vid=2097df7d-581a-4ae7-8dbb-f903961d7969"},"vehicle_type_id":"4","last_reported":1779272203,"current_range_meters":4800,"station_id":"ce4bgn12rcd13ifvqbt0","pricing_plan_id":"cebpf4jnsgd1na2vs0mg"},{"bike_id":"62444a22-1ca5-4026-ba93-c9e8227f39c2","system_id":"levelo_inurba_marseille","lat":43.2862,"lon":5.35109,"is_reserved":false,"is_disabled":false,"rental_uris":{"android":"levelo://app?vid=62444a22-1ca5-4026-ba93-c9e8227f39c2","ios":"levelo://app?vid=62444a22-1ca5-4026-ba93-c9e8227f39c2"},"vehicle_type_id":"4","last_reported":1779272203,"current_range_meters":4800,"station_id":"ce4bhch2rcd13ifvqeug","pricing_plan_id":"cebpf4jnsgd1na2vs0mg"},{"bike_id":"877aff4a-39d3-4bc9-9fb1-f03230c32990","system_id":"levelo_inurba_marseille","lat":43.32106,"lon":5.3678,"is_reserved":false,"is_disabled":false,"rental_uris":{"android":"levelo://app?vid=877aff4a-39d3-4bc9-9fb1-f03230c32990","ios":"levelo://app?vid=877aff4a-39d3-4bc9-9fb1-f03230c32990"},"vehicle_type_id":"4","last_reported":1779272203,"current_range_meters":5600,"station_id":"ce4bhrh2rcd13ifvqhug","pricing_plan_id":"cebpf4jnsgd1na2vs0mg"},{"bike_id":"88e061d4-200e-450e-b7c2-b8c848567f43","system_id":"levelo_inurba_marseille","lat":43.24793,"lon":5.37454,"is_reserved":false,"is_disabled":false,"rental_uris":{"android":"levelo://app?vid=88e061d4-200e-450e-b7c2-b8c848567f43","ios":"levelo://app?vid=88e061d4-200e-450e-b7c2-b8c848567f43"},"vehicle_type_id":"4","last_reported":1779272203,"current_range_meters":5600,"station_id":"ce4bhgh2rcd13ifvqfb0","pricing_plan_id":"cebpf4jnsgd1na2vs0mg"},{"bike_id":"e1edea3c-a9ec-4e1d-ae51-331278ede585","system_id":"levelo_inurba_marseille","lat":43.31024,"lon":5.39292,"is_reserved":false,"is_disabled":false,"rental_uris":{"android":"levelo://app?vid=e1edea3c-a9ec-4e1d-ae51-331278ede585","ios":"levelo://app?vid=e1edea3c-a9ec-4e1d-ae51-331278ede585"},"vehicle_type_id":"4","last_reported":1779272203,"current_range_meters":5600,"station_id":"","pricing_plan_id":"cebpf4jnsgd1na2vs0mg"},{"bike_id":"4140dec1-dcd5-418b-9170-217af5d2267a","system_id":"levelo_inurba_marseille","lat":43.2937,"lon":5.37859,"is_reserved":false,"is_disabled":false,"rental_uris":{"android":"levelo://app?vid=4140dec1-dcd5-418b-9170-217af5d2267a","ios":"levelo://app?vid=4140dec1-dcd5-418b-9170-217af5d2267a"},"vehicle_type_id":"4","last_reported":1779272203,"current_range_meters":5600,"station_id":"ce4bgjh2rcd13ifvqbf0","pricing_plan_id":"cebpf4jnsgd1na2vs0mg"},{"bike_id":"9a2791df-3b3d-4174-9724-913f145afdff","system_id":"levelo_inurba_marseille","lat":43.29247,"lon":5.36841,"is_reserved":false,"is_disabled":false,"rental_uris":{"android":"levelo://app?vid=9a2791df-3b3d-4174-9724-913f145afdff","ios":"levelo://app?vid=9a2791df-3b3d-4174-9724-913f145afdff"},"vehicle_type_id":"4","last_reported":1779272203,"current_range_meters":5600,"station_id":"ce4bhbp2rcd13ifvqesg","pricing_plan_id":"cebpf4jnsgd1na2vs0mg"},{"bike_id":"c1b45781-15e0-4057-b2cc-335c1b4b1327","system_id":"levelo_inurba_marseille","lat":43.25085,"lon":5.39489,"is_reserved":false,"is_disabled":false,"rental_uris":{"android":"levelo://app?vid=c1b45781-15e0-4057-b2cc-335c1b4b1327","ios":"levelo://app?vid=c1b45781-15e0-4057-b2cc-335c1b4b1327"},"vehicle_type_id":"4","last_reported":1779272203,"current_range_meters":5600,"station_id":"ce4bhm12rcd13ifvqgkg","pricing_plan_id":"cebpf4jnsgd1na2vs0mg"},{"bike_id":"3ce864cd-b5db-4f4f-ab08-af85ba6695c8","system_id":"levelo_inurba_marseille","lat":43.286609,"lon":5.363481,"is_reserved":false,"is_disabled":false,"rental_uris":{"android":"levelo://app?vid=3ce864cd-b5db-4f4f-ab08-af85ba6695c8","ios":"levelo://app?vid=3ce864cd-b5db-4f4f-ab08-af85ba6695c8"},"vehicle_type_id":"4","last_reported":1779272203,"current_range_meters":5600,"station_id":"ce4bhah2rcd13ifvqej0","pricing_plan_id":"cebpf4jnsgd1na2vs0mg"},{"bike_id":"7eda17fe-0540-414b-b3cd-386c19b035c4","system_id":"levelo_inurba_marseille","lat":43.30355,"lon":5.41876,"is_reserved":false,"is_disabled":false,"rental_uris":{"android":"levelo://app?vid=7eda17fe-0540-414b-b3cd-386c19b035c4","ios":"levelo://app?vid=7eda17fe-0540-414b-b3cd-386c19b035c4"},"vehicle_type_id":"4","last_reported":1779272203,"current_range_meters":5600,"station_id":"ce4bhop2rcd13ifvqh7g","pricing_plan_id":"cebpf4jnsgd1na2vs0mg"},{"bike_id":"6dcbf503-4b85-4d5b-a332-8e5f2f976af2","system_id":"levelo_inurba_marseille","lat":43.30479,"lon":5.37901,"is_reserved":false,"is_disabled":false,"rental_uris":{"android":"levelo://app?vid=6dcbf503-4b85-4d5b-a332-8e5f2f976af2","ios":"levelo://app?vid=6dcbf503-4b85-4d5b-a332-8e5f2f976af2"},"vehicle_type_id":"4","last_reported":1779272203,"current_range_meters":5600,"station_id":"ce4bgup2rcd13ifvqcn0","pricing_plan_id":"cebpf4jnsgd1na2vs0mg"},{"bike_id":"6384a48c-7ea4-4f26-a2ff-b9ad05657d37","system_id":"levelo_inurba_marseille","lat":43.31336,"lon":5.36729,"is_reserved":false,"is_disabled":false,"rental_uris":{"android":"levelo://app?vid=6384a48c-7ea4-4f26-a2ff-b9ad05657d37","ios":"levelo://app?vid=6384a48c-7ea4-4f26-a2ff-b9ad05657d37"},"vehicle_type_id":"4","last_reported":1779272203,"current_range_meters":5600,"station_id":"ce4bgr92rcd13ifvqc6g","pricing_plan_id":"cebpf4jnsgd1na2vs0mg"},{"bike_id":"fdb21c0a-88ca-429d-a3b4-bbb8df888db3","system_id":"levelo_inurba_marseille","lat":43.24652,"lon":5.38871,"is_reserved":false,"is_disabled":false,"rental_uris":{"android":"levelo://app?vid=fdb21c0a-88ca-429d-a3b4-bbb8df888db3","ios":"levelo://app?vid=fdb21c0a-88ca-429d-a3b4-bbb8df888db3"},"vehicle_type_id":"4","last_reported":1779272203,"current_range_meters":6000,"station_id":"ce4bhg12rcd13ifvqf60","pricing_plan_id":"cebpf4jnsgd1na2vs0mg"},{"bike_id":"2b9eb15f-7e1c-44fe-bde9-0d099582b00b","system_id":"levelo_inurba_marseille","lat":43.34135,"lon":5.40901,"is_reserved":false,"is_disabled":false,"rental_uris":{"android":"levelo://app?vid=2b9eb15f-7e1c-44fe-bde9-0d099582b00b","ios":"levelo://app?vid=2b9eb15f-7e1c-44fe-bde9-0d099582b00b"},"vehicle_type_id":"4","last_reported":1779272203,"current_range_meters":6000,"station_id":"ce4bhqh2rcd13ifvqhlg","pricing_plan_id":"cebpf4jnsgd1na2vs0mg"},{"bike_id":"8e0c3a71-88fb-4dca-a732-c4fb201abb3e","system_id":"levelo_inurba_marseille","lat":43.30592,"lon":5.37461,"is_reserved":false,"is_disabled":false,"rental_uris":{"android":"levelo://app?vid=8e0c3a71-88fb-4dca-a732-c4fb201abb3e","ios":"levelo://app?vid=8e0c3a71-88fb-4dca-a732-c4fb201abb3e"},"vehicle_type_id":"4","last_reported":1779272203,"current_range_meters":6000,"station_id":"","pricing_plan_id":"cebpf4jnsgd1na2vs0mg"},{"bike_id":"668bb7ea-e890-4867-b444-969d9384fab7","system_id":"levelo_inurba_marseille","lat":43.25281,"lon":5.39435,"is_reserved":false,"is_disabled":false,"rental_uris":{"android":"levelo://app?vid=668bb7ea-e890-4867-b444-969d9384fab7","ios":"levelo://app?vid=668bb7ea-e890-4867-b444-969d9384fab7"},"vehicle_type_id":"4","last_reported":1779272203,"current_range_meters":6000,"station_id":"","pricing_plan_id":"cebpf4jnsgd1na2vs0mg"},{"bike_id":"4f987ea9-b2cf-4f02-bf03-0214ce368fbc","system_id":"levelo_inurba_marseille","lat":43.298816,"lon":5.383704,"is_reserved":false,"is_disabled":false,"rental_uris":{"android":"levelo://app?vid=4f987ea9-b2cf-4f02-bf03-0214ce368fbc","ios":"levelo://app?vid=4f987ea9-b2cf-4f02-bf03-0214ce368fbc"},"vehicle_type_id":"4","last_reported":1779272203,"current_range_meters":6000,"station_id":"ce4bgj12rcd13ifvqbc0","pricing_plan_id":"cebpf4jnsgd1na2vs0mg"},{"bike_id":"cfd8774f-7d51-48ec-8267-56110e90adf9","system_id":"levelo_inurba_marseille","lat":43.31036,"lon":5.37197,"is_reserved":false,"is_disabled":false,"rental_uris":{"android":"levelo://app?vid=cfd8774f-7d51-48ec-8267-56110e90adf9","ios":"levelo://app?vid=cfd8774f-7d51-48ec-8267-56110e90adf9"},"vehicle_type_id":"4","last_reported":1779272203,"current_range_meters":6000,"station_id":"st_d4kl2rp97mjs73e7tdfg","pricing_plan_id":"cebpf4jnsgd1na2vs0mg"},{"bike_id":"39023a14-bc46-4568-bb2e-8f31dc07a27b","system_id":"levelo_inurba_marseille","lat":43.25134,"lon":5.40286,"is_reserved":false,"is_disabled":false,"rental_uris":{"android":"levelo://app?vid=39023a14-bc46-4568-bb2e-8f31dc07a27b","ios":"levelo://app?vid=39023a14-bc46-4568-bb2e-8f31dc07a27b"},"vehicle_type_id":"4","last_reported":1779272203,"current_range_meters":6000,"station_id":"ce4bhlh2rcd13ifvqgig","pricing_plan_id":"cebpf4jnsgd1na2vs0mg"},{"bike_id":"bf929a97-e08e-4a83-8641-84c5a52b4035","system_id":"levelo_inurba_marseille","lat":43.29542,"lon":5.3855,"is_reserved":false,"is_disabled":false,"rental_uris":{"android":"levelo://app?vid=bf929a97-e08e-4a83-8641-84c5a52b4035","ios":"levelo://app?vid=bf929a97-e08e-4a83-8641-84c5a52b4035"},"vehicle_type_id":"4","last_reported":1779272203,"current_range_meters":6400,"station_id":"ce4bgih2rcd13ifvqba0","pricing_plan_id":"cebpf4jnsgd1na2vs0mg"},{"bike_id":"1537ff86-4c07-4043-a319-565b4fb3369d","system_id":"levelo_inurba_marseille","lat":43.28603,"lon":5.38139,"is_reserved":false,"is_disabled":false,"rental_uris":{"android":"levelo://app?vid=1537ff86-4c07-4043-a319-565b4fb3369d","ios":"levelo://app?vid=1537ff86-4c07-4043-a319-565b4fb3369d"},"vehicle_type_id":"4","last_reported":1779272203,"current_range_meters":6400,"station_id":"","pricing_plan_id":"cebpf4jnsgd1na2vs0mg"},{"bike_id":"1feb2e2b-a5f0-45fd-bd97-d839eef9fb86","system_id":"levelo_inurba_marseille","lat":43.27207,"lon":5.39161,"is_reserved":false,"is_disabled":false,"rental_uris":{"android":"levelo://app?vid=1feb2e2b-a5f0-45fd-bd97-d839eef9fb86","ios":"levelo://app?vid=1feb2e2b-a5f0-45fd-bd97-d839eef9fb86"},"vehicle_type_id":"4","last_reported":1779272203,"current_range_meters":6400,"station_id":"ce4bhhp2rcd13ifvqfm0","pricing_plan_id":"cebpf4jnsgd1na2vs0mg"},{"bike_id":"7c7fb249-fc8e-4d79-a1ce-dd5b0f183060","system_id":"levelo_inurba_marseille","lat":43.29799,"lon":5.44092,"is_reserved":false,"is_disabled":false,"rental_uris":{"android":"levelo://app?vid=7c7fb249-fc8e-4d79-a1ce-dd5b0f183060","ios":"levelo://app?vid=7c7fb249-fc8e-4d79-a1ce-dd5b0f183060"},"vehicle_type_id":"4","last_reported":1779272203,"current_range_meters":6400,"station_id":"st_d3jp68qikq2c7381ktn0","pricing_plan_id":"cebpf4jnsgd1na2vs0mg"},{"bike_id":"1d8a0de7-dee9-4c46-b0dc-9cb1beff9b47","system_id":"levelo_inurba_marseille","lat":43.28407,"lon":5.34969,"is_reserved":false,"is_disabled":false,"rental_uris":{"android":"levelo://app?vid=1d8a0de7-dee9-4c46-b0dc-9cb1beff9b47","ios":"levelo://app?vid=1d8a0de7-dee9-4c46-b0dc-9cb1beff9b47"},"vehicle_type_id":"4","last_reported":1779272203,"current_range_meters":6400,"station_id":"ce4bhbh2rcd13ifvqepg","pricing_plan_id":"cebpf4jnsgd1na2vs0mg"},{"bike_id":"e7b2834d-0414-4c8b-95bb-dbeba87a5cba","system_id":"levelo_inurba_marseille","lat":43.33049,"lon":5.38944,"is_reserved":false,"is_disabled":false,"rental_uris":{"android":"levelo://app?vid=e7b2834d-0414-4c8b-95bb-dbeba87a5cba","ios":"levelo://app?vid=e7b2834d-0414-4c8b-95bb-dbeba87a5cba"},"vehicle_type_id":"4","last_reported":1779272203,"current_range_meters":6400,"station_id":"","pricing_plan_id":"cebpf4jnsgd1na2vs0mg"},{"bike_id":"3f42a6d9-721c-4045-81f8-56e377ee5c6e","system_id":"levelo_inurba_marseille","lat":43.26485,"lon":5.39561,"is_reserved":false,"is_disabled":true,"rental_uris":{"android":"levelo://app?vid=3f42a6d9-721c-4045-81f8-56e377ee5c6e","ios":"levelo://app?vid=3f42a6d9-721c-4045-81f8-56e377ee5c6e"},"vehicle_type_id":"4","last_reported":1779272203,"current_range_meters":6400,"station_id":"ce4bhi12rcd13ifvqfq0","pricing_plan_id":"cebpf4jnsgd1na2vs0mg"},{"bike_id":"94133b29-971d-48eb-9475-ae0b64fbd116","system_id":"levelo_inurba_marseille","lat":43.28195,"lon":5.38156,"is_reserved":false,"is_disabled":false,"rental_uris":{"android":"levelo://app?vid=94133b29-971d-48eb-9475-ae0b64fbd116","ios":"levelo://app?vid=94133b29-971d-48eb-9475-ae0b64fbd116"},"vehicle_type_id":"4","last_reported":1779272203,"current_range_meters":6400,"station_id":"","pricing_plan_id":"cebpf4jnsgd1na2vs0mg"},{"bike_id":"b7d4ade3-e85f-4f7e-94a5-38cdc2fff6da","system_id":"levelo_inurba_marseille","lat":43.305,"lon":5.36528,"is_reserved":false,"is_disabled":false,"rental_uris":{"android":"levelo://app?vid=b7d4ade3-e85f-4f7e-94a5-38cdc2fff6da","ios":"levelo://app?vid=b7d4ade3-e85f-4f7e-94a5-38cdc2fff6da"},"vehicle_type_id":"4","last_reported":1779272203,"current_range_meters":6400,"station_id":"","pricing_plan_id":"cebpf4jnsgd1na2vs0mg"},{"bike_id":"0a5bffd6-3afe-44a7-9100-698fa93b8669","system_id":"levelo_inurba_marseille","lat":43.24165,"lon":5.36404,"is_reserved":false,"is_disabled":false,"rental_uris":{"android":"levelo://app?vid=0a5bffd6-3afe-44a7-9100-698fa93b8669","ios":"levelo://app?vid=0a5bffd6-3afe-44a7-9100-698fa93b8669"},"vehicle_type_id":"4","last_reported":1779272203,"current_range_meters":6400,"station_id":"cpo36qri1sfpv3e86is0","pricing_plan_id":"cebpf4jnsgd1na2vs0mg"},{"bike_id":"425b94e0-d5bd-4d72-a306-8b6eeb1f1138","system_id":"levelo_inurba_marseille","lat":43.31342,"lon":5.36743,"is_reserved":false,"is_disabled":false,"rental_uris":{"android":"levelo://app?vid=425b94e0-d5bd-4d72-a306-8b6eeb1f1138","ios":"levelo://app?vid=425b94e0-d5bd-4d72-a306-8b6eeb1f1138"},"vehicle_type_id":"4","last_reported":1779272203,"current_range_meters":6400,"station_id":"ce4bgr92rcd13ifvqc6g","pricing_plan_id":"cebpf4jnsgd1na2vs0mg"},{"bike_id":"ec17e644-1d7d-402e-b369-f62e304f81d9","system_id":"levelo_inurba_marseille","lat":43.28266,"lon":5.35045,"is_reserved":false,"is_disabled":false,"rental_uris":{"android":"levelo://app?vid=ec17e644-1d7d-402e-b369-f62e304f81d9","ios":"levelo://app?vid=ec17e644-1d7d-402e-b369-f62e304f81d9"},"vehicle_type_id":"4","last_reported":1779272203,"current_range_meters":6400,"station_id":"ce4bhbp2rcd13ifvqerg","pricing_plan_id":"cebpf4jnsgd1na2vs0mg"},{"bike_id":"19fad16c-2a02-4b40-8e84-9e9209f4c16e","system_id":"levelo_inurba_marseille","lat":43.30273,"lon":5.37711,"is_reserved":false,"is_disabled":false,"rental_uris":{"android":"levelo://app?vid=19fad16c-2a02-4b40-8e84-9e9209f4c16e","ios":"levelo://app?vid=19fad16c-2a02-4b40-8e84-9e9209f4c16e"},"vehicle_type_id":"4","last_reported":1779272203,"current_range_meters":6400,"station_id":"ce4bguh2rcd13ifvqcj0","pricing_plan_id":"cebpf4jnsgd1na2vs0mg"},{"bike_id":"670b0f73-47a9-4cbb-a159-b85821ebf7ec","system_id":"levelo_inurba_marseille","lat":43.24183,"lon":5.39722,"is_reserved":false,"is_disabled":false,"rental_uris":{"android":"levelo://app?vid=670b0f73-47a9-4cbb-a159-b85821ebf7ec","ios":"levelo://app?vid=670b0f73-47a9-4cbb-a159-b85821ebf7ec"},"vehicle_type_id":"4","last_reported":1779272203,"current_range_meters":6400,"station_id":"ce4bhn12rcd13ifvqgpg","pricing_plan_id":"cebpf4jnsgd1na2vs0mg"},{"bike_id":"5e1c053e-e0de-4c49-8e7b-bc445f47fba0","system_id":"levelo_inurba_marseille","lat":43.27051,"lon":5.38294,"is_reserved":false,"is_disabled":false,"rental_uris":{"android":"levelo://app?vid=5e1c053e-e0de-4c49-8e7b-bc445f47fba0","ios":"levelo://app?vid=5e1c053e-e0de-4c49-8e7b-bc445f47fba0"},"vehicle_type_id":"4","last_reported":1779272203,"current_range_meters":6400,"station_id":"st_d3n2fo6cfp8s73cte1j0","pricing_plan_id":"cebpf4jnsgd1na2vs0mg"},{"bike_id":"2eaa9b2b-8efe-40ff-b2ce-c519f26bfd1e","system_id":"levelo_inurba_marseille","lat":43.337444,"lon":5.374475,"is_reserved":false,"is_disabled":false,"rental_uris":{"android":"levelo://app?vid=2eaa9b2b-8efe-40ff-b2ce-c519f26bfd1e","ios":"levelo://app?vid=2eaa9b2b-8efe-40ff-b2ce-c519f26bfd1e"},"vehicle_type_id":"4","last_reported":1779272203,"current_range_meters":6800,"station_id":"","pricing_plan_id":"cebpf4jnsgd1na2vs0mg"},{"bike_id":"e781c19a-ef5a-4532-a919-3acfcf3c38ec","system_id":"levelo_inurba_marseille","lat":43.31393,"lon":5.36642,"is_reserved":false,"is_disabled":false,"rental_uris":{"android":"levelo://app?vid=e781c19a-ef5a-4532-a919-3acfcf3c38ec","ios":"levelo://app?vid=e781c19a-ef5a-4532-a919-3acfcf3c38ec"},"vehicle_type_id":"4","last_reported":1779272203,"current_range_meters":6800,"station_id":"","pricing_plan_id":"cebpf4jnsgd1na2vs0mg"},{"bike_id":"34af6e72-8a50-4feb-96ea-f1be90c9a4e0","system_id":"levelo_inurba_marseille","lat":43.30352,"lon":5.42534,"is_reserved":false,"is_disabled":false,"rental_uris":{"android":"levelo://app?vid=34af6e72-8a50-4feb-96ea-f1be90c9a4e0","ios":"levelo://app?vid=34af6e72-8a50-4feb-96ea-f1be90c9a4e0"},"vehicle_type_id":"4","last_reported":1779272203,"current_range_meters":6800,"station_id":"","pricing_plan_id":"cebpf4jnsgd1na2vs0mg"},{"bike_id":"26593257-712f-4288-8b95-b25d3c17ba27","system_id":"levelo_inurba_marseille","lat":43.28624,"lon":5.35098,"is_reserved":false,"is_disabled":false,"rental_uris":{"android":"levelo://app?vid=26593257-712f-4288-8b95-b25d3c17ba27","ios":"levelo://app?vid=26593257-712f-4288-8b95-b25d3c17ba27"},"vehicle_type_id":"4","last_reported":1779272203,"current_range_meters":6800,"station_id":"ce4bhch2rcd13ifvqeug","pricing_plan_id":"cebpf4jnsgd1na2vs0mg"},{"bike_id":"00617469-a8ee-4e26-a2b5-2d5ead55b9e8","system_id":"levelo_inurba_marseille","lat":43.24633,"lon":5.38899,"is_reserved":false,"is_disabled":true,"rental_uris":{"android":"levelo://app?vid=00617469-a8ee-4e26-a2b5-2d5ead55b9e8","ios":"levelo://app?vid=00617469-a8ee-4e26-a2b5-2d5ead55b9e8"},"vehicle_type_id":"4","last_reported":1779272203,"current_range_meters":6800,"station_id":"ce4bhg12rcd13ifvqf60","pricing_plan_id":"cebpf4jnsgd1na2vs0mg"},{"bike_id":"6448c6c8-8045-4dab-8370-7f5d397b098d","system_id":"levelo_inurba_marseille","lat":43.25579,"lon":5.38225,"is_reserved":false,"is_disabled":false,"rental_uris":{"android":"levelo://app?vid=6448c6c8-8045-4dab-8370-7f5d397b098d","ios":"levelo://app?vid=6448c6c8-8045-4dab-8370-7f5d397b098d"},"vehicle_type_id":"4","last_reported":1779272203,"current_range_meters":6800,"station_id":"ce4bhih2rcd13ifvqfs0","pricing_plan_id":"cebpf4jnsgd1na2vs0mg"},{"bike_id":"64cc47ae-dd74-43d9-8d80-fa1e85dc707d","system_id":"levelo_inurba_marseille","lat":43.28266,"lon":5.35077,"is_reserved":false,"is_disabled":false,"rental_uris":{"android":"levelo://app?vid=64cc47ae-dd74-43d9-8d80-fa1e85dc707d","ios":"levelo://app?vid=64cc47ae-dd74-43d9-8d80-fa1e85dc707d"},"vehicle_type_id":"4","last_reported":1779272203,"current_range_meters":6800,"station_id":"ce4bhbp2rcd13ifvqerg","pricing_plan_id":"cebpf4jnsgd1na2vs0mg"},{"bike_id":"d83738f7-7288-4df5-8860-664f8739b2e8","system_id":"levelo_inurba_marseille","lat":43.27963,"lon":5.41031,"is_reserved":false,"is_disabled":false,"rental_uris":{"android":"levelo://app?vid=d83738f7-7288-4df5-8860-664f8739b2e8","ios":"levelo://app?vid=d83738f7-7288-4df5-8860-664f8739b2e8"},"vehicle_type_id":"4","last_reported":1779272203,"current_range_meters":6800,"station_id":"ce4bhnp2rcd13ifvqh0g","pricing_plan_id":"cebpf4jnsgd1na2vs0mg"},{"bike_id":"c5e95928-6e8e-4584-8060-5ade0166760d","system_id":"levelo_inurba_marseille","lat":43.24814,"lon":5.37465,"is_reserved":false,"is_disabled":false,"rental_uris":{"android":"levelo://app?vid=c5e95928-6e8e-4584-8060-5ade0166760d","ios":"levelo://app?vid=c5e95928-6e8e-4584-8060-5ade0166760d"},"vehicle_type_id":"4","last_reported":1779272203,"current_range_meters":6800,"station_id":"ce4bhgh2rcd13ifvqfb0","pricing_plan_id":"cebpf4jnsgd1na2vs0mg"},{"bike_id":"049e0550-765b-4e19-b4ba-d382bad31388","system_id":"levelo_inurba_marseille","lat":43.30374,"lon":5.42486,"is_reserved":false,"is_disabled":false,"rental_uris":{"android":"levelo://app?vid=049e0550-765b-4e19-b4ba-d382bad31388","ios":"levelo://app?vid=049e0550-765b-4e19-b4ba-d382bad31388"},"vehicle_type_id":"4","last_reported":1779272203,"current_range_meters":6800,"station_id":"ce4bhoh2rcd13ifvqh6g","pricing_plan_id":"cebpf4jnsgd1na2vs0mg"},{"bike_id":"7ff7868a-2992-4ed0-8b89-9cb9d41a9769","system_id":"levelo_inurba_marseille","lat":43.25008,"lon":5.3893,"is_reserved":false,"is_disabled":false,"rental_uris":{"android":"levelo://app?vid=7ff7868a-2992-4ed0-8b89-9cb9d41a9769","ios":"levelo://app?vid=7ff7868a-2992-4ed0-8b89-9cb9d41a9769"},"vehicle_type_id":"4","last_reported":1779272203,"current_range_meters":6800,"station_id":"ce4bhgp2rcd13ifvqfd0","pricing_plan_id":"cebpf4jnsgd1na2vs0mg"},{"bike_id":"1de71714-b9ff-4767-a828-04068ba3bf84","system_id":"levelo_inurba_marseille","lat":43.32422,"lon":5.36522,"is_reserved":false,"is_disabled":false,"rental_uris":{"android":"levelo://app?vid=1de71714-b9ff-4767-a828-04068ba3bf84","ios":"levelo://app?vid=1de71714-b9ff-4767-a828-04068ba3bf84"},"vehicle_type_id":"4","last_reported":1779272203,"current_range_meters":6800,"station_id":"","pricing_plan_id":"cebpf4jnsgd1na2vs0mg"},{"bike_id":"9a3a22df-7cdd-4292-9e48-67ed05cc1285","system_id":"levelo_inurba_marseille","lat":43.24805,"lon":5.37456,"is_reserved":false,"is_disabled":false,"rental_uris":{"android":"levelo://app?vid=9a3a22df-7cdd-4292-9e48-67ed05cc1285","ios":"levelo://app?vid=9a3a22df-7cdd-4292-9e48-67ed05cc1285"},"vehicle_type_id":"4","last_reported":1779272203,"current_range_meters":6800,"station_id":"ce4bhgh2rcd13ifvqfb0","pricing_plan_id":"cebpf4jnsgd1na2vs0mg"},{"bike_id":"5b79dd66-1ee2-4ab0-91c0-6e1c5356befe","system_id":"levelo_inurba_marseille","lat":43.30475,"lon":5.37906,"is_reserved":false,"is_disabled":false,"rental_uris":{"android":"levelo://app?vid=5b79dd66-1ee2-4ab0-91c0-6e1c5356befe","ios":"levelo://app?vid=5b79dd66-1ee2-4ab0-91c0-6e1c5356befe"},"vehicle_type_id":"4","last_reported":1779272203,"current_range_meters":6800,"station_id":"ce4bgup2rcd13ifvqcn0","pricing_plan_id":"cebpf4jnsgd1na2vs0mg"},{"bike_id":"ff26a0ce-1300-4a14-824b-0d8ecc854269","system_id":"levelo_inurba_marseille","lat":43.24461,"lon":5.42541,"is_reserved":false,"is_disabled":false,"rental_uris":{"android":"levelo://app?vid=ff26a0ce-1300-4a14-824b-0d8ecc854269","ios":"levelo://app?vid=ff26a0ce-1300-4a14-824b-0d8ecc854269"},"vehicle_type_id":"4","last_reported":1779272203,"current_range_meters":6800,"station_id":"st_d4a3vfp97mjs738cd8kg","pricing_plan_id":"cebpf4jnsgd1na2vs0mg"},{"bike_id":"46be8dd3-948b-467e-ad94-fd338307b9c7","system_id":"levelo_inurba_marseille","lat":43.29978,"lon":5.36737,"is_reserved":false,"is_disabled":false,"rental_uris":{"android":"levelo://app?vid=46be8dd3-948b-467e-ad94-fd338307b9c7","ios":"levelo://app?vid=46be8dd3-948b-467e-ad94-fd338307b9c7"},"vehicle_type_id":"4","last_reported":1779272203,"current_range_meters":6800,"station_id":"","pricing_plan_id":"cebpf4jnsgd1na2vs0mg"},{"bike_id":"8b4fc509-3dfd-4c45-bf80-55515ed28219","system_id":"levelo_inurba_marseille","lat":43.28295,"lon":5.35078,"is_reserved":false,"is_disabled":false,"rental_uris":{"android":"levelo://app?vid=8b4fc509-3dfd-4c45-bf80-55515ed28219","ios":"levelo://app?vid=8b4fc509-3dfd-4c45-bf80-55515ed28219"},"vehicle_type_id":"4","last_reported":1779272203,"current_range_meters":6800,"station_id":"ce4bhbp2rcd13ifvqerg","pricing_plan_id":"cebpf4jnsgd1na2vs0mg"},{"bike_id":"c2141300-84ff-47fa-99f3-6dc5beb51dc8","system_id":"levelo_inurba_marseille","lat":43.30543,"lon":5.36494,"is_reserved":false,"is_disabled":false,"rental_uris":{"android":"levelo://app?vid=c2141300-84ff-47fa-99f3-6dc5beb51dc8","ios":"levelo://app?vid=c2141300-84ff-47fa-99f3-6dc5beb51dc8"},"vehicle_type_id":"4","last_reported":1779272203,"current_range_meters":6800,"station_id":"","pricing_plan_id":"cebpf4jnsgd1na2vs0mg"},{"bike_id":"1945c429-a6b3-4afe-8b4e-c989148ef8b4","system_id":"levelo_inurba_marseille","lat":43.28627,"lon":5.37679,"is_reserved":false,"is_disabled":false,"rental_uris":{"android":"levelo://app?vid=1945c429-a6b3-4afe-8b4e-c989148ef8b4","ios":"levelo://app?vid=1945c429-a6b3-4afe-8b4e-c989148ef8b4"},"vehicle_type_id":"4","last_reported":1779272203,"current_range_meters":6800,"station_id":"","pricing_plan_id":"cebpf4jnsgd1na2vs0mg"},{"bike_id":"ca1c46ac-a51b-4100-a080-e8b002e382ed","system_id":"levelo_inurba_marseille","lat":43.24991,"lon":5.3894,"is_reserved":false,"is_disabled":false,"rental_uris":{"android":"levelo://app?vid=ca1c46ac-a51b-4100-a080-e8b002e382ed","ios":"levelo://app?vid=ca1c46ac-a51b-4100-a080-e8b002e382ed"},"vehicle_type_id":"4","last_reported":1779272203,"current_range_meters":7200,"station_id":"ce4bhgp2rcd13ifvqfd0","pricing_plan_id":"cebpf4jnsgd1na2vs0mg"},{"bike_id":"3a50c5a4-deb8-4283-a331-71ea6e0504a8","system_id":"levelo_inurba_marseille","lat":43.28534,"lon":5.44101,"is_reserved":false,"is_disabled":false,"rental_uris":{"android":"levelo://app?vid=3a50c5a4-deb8-4283-a331-71ea6e0504a8","ios":"levelo://app?vid=3a50c5a4-deb8-4283-a331-71ea6e0504a8"},"vehicle_type_id":"4","last_reported":1779272203,"current_range_meters":7200,"station_id":"st_d3j3df2ikq2c7380ej80","pricing_plan_id":"cebpf4jnsgd1na2vs0mg"},{"bike_id":"df9a8e29-b2b3-47c5-8270-dd94d1c5bf49","system_id":"levelo_inurba_marseille","lat":43.25515,"lon":5.37651,"is_reserved":false,"is_disabled":false,"rental_uris":{"android":"levelo://app?vid=df9a8e29-b2b3-47c5-8270-dd94d1c5bf49","ios":"levelo://app?vid=df9a8e29-b2b3-47c5-8270-dd94d1c5bf49"},"vehicle_type_id":"4","last_reported":1779272203,"current_range_meters":7200,"station_id":"ce4bhh12rcd13ifvqff0","pricing_plan_id":"cebpf4jnsgd1na2vs0mg"},{"bike_id":"a9db7984-3ae1-421b-95e8-20c035358768","system_id":"levelo_inurba_marseille","lat":43.25897,"lon":5.40927,"is_reserved":false,"is_disabled":false,"rental_uris":{"android":"levelo://app?vid=a9db7984-3ae1-421b-95e8-20c035358768","ios":"levelo://app?vid=a9db7984-3ae1-421b-95e8-20c035358768"},"vehicle_type_id":"4","last_reported":1779272203,"current_range_meters":7200,"station_id":"ce4bhm92rcd13ifvqglg","pricing_plan_id":"cebpf4jnsgd1na2vs0mg"},{"bike_id":"4cf5899f-760e-4c98-a83a-74f687ec566d","system_id":"levelo_inurba_marseille","lat":43.30299,"lon":5.39204,"is_reserved":false,"is_disabled":true,"rental_uris":{"android":"levelo://app?vid=4cf5899f-760e-4c98-a83a-74f687ec566d","ios":"levelo://app?vid=4cf5899f-760e-4c98-a83a-74f687ec566d"},"vehicle_type_id":"4","last_reported":1779272203,"current_range_meters":7200,"station_id":"ce4bgkh2rcd13ifvqbk0","pricing_plan_id":"cebpf4jnsgd1na2vs0mg"},{"bike_id":"c2e162fe-25f0-49da-ae9f-6fa8527e0782","system_id":"levelo_inurba_marseille","lat":43.27923,"lon":5.39577,"is_reserved":false,"is_disabled":false,"rental_uris":{"android":"levelo://app?vid=c2e162fe-25f0-49da-ae9f-6fa8527e0782","ios":"levelo://app?vid=c2e162fe-25f0-49da-ae9f-6fa8527e0782"},"vehicle_type_id":"4","last_reported":1779272203,"current_range_meters":7200,"station_id":"ce4bhf92rcd13ifvqf40","pricing_plan_id":"cebpf4jnsgd1na2vs0mg"},{"bike_id":"eb8564d3-80fc-4217-82f1-a7d32de7d789","system_id":"levelo_inurba_marseille","lat":43.31212,"lon":5.36853,"is_reserved":false,"is_disabled":false,"rental_uris":{"android":"levelo://app?vid=eb8564d3-80fc-4217-82f1-a7d32de7d789","ios":"levelo://app?vid=eb8564d3-80fc-4217-82f1-a7d32de7d789"},"vehicle_type_id":"4","last_reported":1779272203,"current_range_meters":7200,"station_id":"ce4bgl92rcd13ifvqbq0","pricing_plan_id":"cebpf4jnsgd1na2vs0mg"},{"bike_id":"6160ae8e-a0ef-40fb-a824-ac8b6555538f","system_id":"levelo_inurba_marseille","lat":43.26648,"lon":5.38961,"is_reserved":false,"is_disabled":false,"rental_uris":{"android":"levelo://app?vid=6160ae8e-a0ef-40fb-a824-ac8b6555538f","ios":"levelo://app?vid=6160ae8e-a0ef-40fb-a824-ac8b6555538f"},"vehicle_type_id":"4","last_reported":1779272203,"current_range_meters":7200,"station_id":"","pricing_plan_id":"cebpf4jnsgd1na2vs0mg"},{"bike_id":"fb79ccb0-5165-43cf-b83e-7185c384d3cb","system_id":"levelo_inurba_marseille","lat":43.27686,"lon":5.3887,"is_reserved":false,"is_disabled":false,"rental_uris":{"android":"levelo://app?vid=fb79ccb0-5165-43cf-b83e-7185c384d3cb","ios":"levelo://app?vid=fb79ccb0-5165-43cf-b83e-7185c384d3cb"},"vehicle_type_id":"4","last_reported":1779272203,"current_range_meters":7200,"station_id":"ce4bhi12rcd13ifvqfo0","pricing_plan_id":"cebpf4jnsgd1na2vs0mg"},{"bike_id":"de64f65e-f8f2-4a89-8787-edc16c7860b6","system_id":"levelo_inurba_marseille","lat":43.30965,"lon":5.39034,"is_reserved":false,"is_disabled":false,"rental_uris":{"android":"levelo://app?vid=de64f65e-f8f2-4a89-8787-edc16c7860b6","ios":"levelo://app?vid=de64f65e-f8f2-4a89-8787-edc16c7860b6"},"vehicle_type_id":"4","last_reported":1779272203,"current_range_meters":7200,"station_id":"ce4bgup2rcd13ifvqco0","pricing_plan_id":"cebpf4jnsgd1na2vs0mg"},{"bike_id":"f8c0a213-b548-4be9-9178-9619b08698ad","system_id":"levelo_inurba_marseille","lat":43.255136,"lon":5.376682,"is_reserved":false,"is_disabled":false,"rental_uris":{"android":"levelo://app?vid=f8c0a213-b548-4be9-9178-9619b08698ad","ios":"levelo://app?vid=f8c0a213-b548-4be9-9178-9619b08698ad"},"vehicle_type_id":"4","last_reported":1779272203,"current_range_meters":7200,"station_id":"ce4bhh12rcd13ifvqff0","pricing_plan_id":"cebpf4jnsgd1na2vs0mg"},{"bike_id":"59b610e9-ff8d-4859-b088-17f86cf50579","system_id":"levelo_inurba_marseille","lat":43.21195,"lon":5.35048,"is_reserved":false,"is_disabled":false,"rental_uris":{"android":"levelo://app?vid=59b610e9-ff8d-4859-b088-17f86cf50579","ios":"levelo://app?vid=59b610e9-ff8d-4859-b088-17f86cf50579"},"vehicle_type_id":"4","last_reported":1779272203,"current_range_meters":7200,"station_id":"st_cvj6sg6p6f1abm77japg","pricing_plan_id":"cebpf4jnsgd1na2vs0mg"},{"bike_id":"89561db4-e185-495d-90d1-bf55fdd96cf7","system_id":"levelo_inurba_marseille","lat":43.308846,"lon":5.371927,"is_reserved":false,"is_disabled":false,"rental_uris":{"android":"levelo://app?vid=89561db4-e185-495d-90d1-bf55fdd96cf7","ios":"levelo://app?vid=89561db4-e185-495d-90d1-bf55fdd96cf7"},"vehicle_type_id":"4","last_reported":1779272203,"current_range_meters":7200,"station_id":"ce4bguh2rcd13ifvqckg","pricing_plan_id":"cebpf4jnsgd1na2vs0mg"},{"bike_id":"bc3fe07f-ae95-42d2-91f0-d34745765c9e","system_id":"levelo_inurba_marseille","lat":43.2446,"lon":5.42528,"is_reserved":false,"is_disabled":false,"rental_uris":{"android":"levelo://app?vid=bc3fe07f-ae95-42d2-91f0-d34745765c9e","ios":"levelo://app?vid=bc3fe07f-ae95-42d2-91f0-d34745765c9e"},"vehicle_type_id":"4","last_reported":1779272203,"current_range_meters":7200,"station_id":"st_d4a3vfp97mjs738cd8kg","pricing_plan_id":"cebpf4jnsgd1na2vs0mg"},{"bike_id":"f00dbe32-4e32-429b-b63a-54e922cc0105","system_id":"levelo_inurba_marseille","lat":43.27325,"lon":5.39064,"is_reserved":false,"is_disabled":true,"rental_uris":{"android":"levelo://app?vid=f00dbe32-4e32-429b-b63a-54e922cc0105","ios":"levelo://app?vid=f00dbe32-4e32-429b-b63a-54e922cc0105"},"vehicle_type_id":"4","last_reported":1779272203,"current_range_meters":7200,"station_id":"ce4bhgp2rcd13ifvqfe0","pricing_plan_id":"cebpf4jnsgd1na2vs0mg"},{"bike_id":"e5f21e43-5d32-4047-8237-8cf74b2ebfd3","system_id":"levelo_inurba_marseille","lat":43.31378,"lon":5.36707,"is_reserved":false,"is_disabled":false,"rental_uris":{"android":"levelo://app?vid=e5f21e43-5d32-4047-8237-8cf74b2ebfd3","ios":"levelo://app?vid=e5f21e43-5d32-4047-8237-8cf74b2ebfd3"},"vehicle_type_id":"4","last_reported":1779272203,"current_range_meters":7200,"station_id":"ce4bgr92rcd13ifvqc6g","pricing_plan_id":"cebpf4jnsgd1na2vs0mg"},{"bike_id":"ab3d0653-ceb0-447c-b6ee-1608aa7ac29d","system_id":"levelo_inurba_marseille","lat":43.29188,"lon":5.45992,"is_reserved":false,"is_disabled":false,"rental_uris":{"android":"levelo://app?vid=ab3d0653-ceb0-447c-b6ee-1608aa7ac29d","ios":"levelo://app?vid=ab3d0653-ceb0-447c-b6ee-1608aa7ac29d"},"vehicle_type_id":"4","last_reported":1779272203,"current_range_meters":7200,"station_id":"","pricing_plan_id":"cebpf4jnsgd1na2vs0mg"},{"bike_id":"134e31f8-eb37-47c8-a2da-3b77010f783c","system_id":"levelo_inurba_marseille","lat":43.23152,"lon":5.43723,"is_reserved":false,"is_disabled":false,"rental_uris":{"android":"levelo://app?vid=134e31f8-eb37-47c8-a2da-3b77010f783c","ios":"levelo://app?vid=134e31f8-eb37-47c8-a2da-3b77010f783c"},"vehicle_type_id":"4","last_reported":1779272203,"current_range_meters":7200,"station_id":"ce4bhmp2rcd13ifvqgog","pricing_plan_id":"cebpf4jnsgd1na2vs0mg"},{"bike_id":"0767357f-258e-4f02-98a0-f29dca689ffa","system_id":"levelo_inurba_marseille","lat":43.30148,"lon":5.38056,"is_reserved":false,"is_disabled":false,"rental_uris":{"android":"levelo://app?vid=0767357f-258e-4f02-98a0-f29dca689ffa","ios":"levelo://app?vid=0767357f-258e-4f02-98a0-f29dca689ffa"},"vehicle_type_id":"4","last_reported":1779272203,"current_range_meters":7200,"station_id":"ce4bgjp2rcd13ifvqbh0","pricing_plan_id":"cebpf4jnsgd1na2vs0mg"},{"bike_id":"5e9ce31d-21ed-4a90-9e3e-7e5d06395890","system_id":"levelo_inurba_marseille","lat":43.29614,"lon":5.37149,"is_reserved":false,"is_disabled":false,"rental_uris":{"android":"levelo://app?vid=5e9ce31d-21ed-4a90-9e3e-7e5d06395890","ios":"levelo://app?vid=5e9ce31d-21ed-4a90-9e3e-7e5d06395890"},"vehicle_type_id":"4","last_reported":1779272203,"current_range_meters":7200,"station_id":"ce4bgnh2rcd13ifvqc0g","pricing_plan_id":"cebpf4jnsgd1na2vs0mg"},{"bike_id":"6250ffe7-79ff-44c7-9cb0-8e00e5268802","system_id":"levelo_inurba_marseille","lat":43.27906,"lon":5.39584,"is_reserved":false,"is_disabled":false,"rental_uris":{"android":"levelo://app?vid=6250ffe7-79ff-44c7-9cb0-8e00e5268802","ios":"levelo://app?vid=6250ffe7-79ff-44c7-9cb0-8e00e5268802"},"vehicle_type_id":"4","last_reported":1779272203,"current_range_meters":7200,"station_id":"ce4bhf92rcd13ifvqf40","pricing_plan_id":"cebpf4jnsgd1na2vs0mg"},{"bike_id":"5a297e80-d2f0-4fb4-9886-093528a3567a","system_id":"levelo_inurba_marseille","lat":43.31417,"lon":5.37359,"is_reserved":false,"is_disabled":true,"rental_uris":{"android":"levelo://app?vid=5a297e80-d2f0-4fb4-9886-093528a3567a","ios":"levelo://app?vid=5a297e80-d2f0-4fb4-9886-093528a3567a"},"vehicle_type_id":"4","last_reported":1779272203,"current_range_meters":8000,"station_id":"","pricing_plan_id":"cebpf4jnsgd1na2vs0mg"},{"bike_id":"dabea4bb-406d-4d7a-91e0-634e2125a114","system_id":"levelo_inurba_marseille","lat":43.29876,"lon":5.38909,"is_reserved":false,"is_disabled":false,"rental_uris":{"android":"levelo://app?vid=dabea4bb-406d-4d7a-91e0-634e2125a114","ios":"levelo://app?vid=dabea4bb-406d-4d7a-91e0-634e2125a114"},"vehicle_type_id":"4","last_reported":1779272203,"current_range_meters":8000,"station_id":"ce4bh392rcd13ifvqdl0","pricing_plan_id":"cebpf4jnsgd1na2vs0mg"},{"bike_id":"e2dbfa81-f244-4557-86ef-d30813c40ea5","system_id":"levelo_inurba_marseille","lat":43.27174,"lon":5.39136,"is_reserved":false,"is_disabled":false,"rental_uris":{"android":"levelo://app?vid=e2dbfa81-f244-4557-86ef-d30813c40ea5","ios":"levelo://app?vid=e2dbfa81-f244-4557-86ef-d30813c40ea5"},"vehicle_type_id":"4","last_reported":1779272203,"current_range_meters":8000,"station_id":"","pricing_plan_id":"cebpf4jnsgd1na2vs0mg"},{"bike_id":"4e4957b0-d91c-4928-b027-1d999239f18f","system_id":"levelo_inurba_marseille","lat":43.269583,"lon":5.386362,"is_reserved":false,"is_disabled":false,"rental_uris":{"android":"levelo://app?vid=4e4957b0-d91c-4928-b027-1d999239f18f","ios":"levelo://app?vid=4e4957b0-d91c-4928-b027-1d999239f18f"},"vehicle_type_id":"4","last_reported":1779272203,"current_range_meters":8000,"station_id":"ce4bhh92rcd13ifvqfh0","pricing_plan_id":"cebpf4jnsgd1na2vs0mg"},{"bike_id":"28921807-37d4-4112-a650-45cf8cb75302","system_id":"levelo_inurba_marseille","lat":43.30172,"lon":5.38077,"is_reserved":false,"is_disabled":false,"rental_uris":{"android":"levelo://app?vid=28921807-37d4-4112-a650-45cf8cb75302","ios":"levelo://app?vid=28921807-37d4-4112-a650-45cf8cb75302"},"vehicle_type_id":"4","last_reported":1779272203,"current_range_meters":8000,"station_id":"ce4bgjp2rcd13ifvqbh0","pricing_plan_id":"cebpf4jnsgd1na2vs0mg"},{"bike_id":"c202bc15-6fd2-4b5b-b9f8-fe2a7981a9a0","system_id":"levelo_inurba_marseille","lat":43.23338,"lon":5.35891,"is_reserved":false,"is_disabled":false,"rental_uris":{"android":"levelo://app?vid=c202bc15-6fd2-4b5b-b9f8-fe2a7981a9a0","ios":"levelo://app?vid=c202bc15-6fd2-4b5b-b9f8-fe2a7981a9a0"},"vehicle_type_id":"4","last_reported":1779272203,"current_range_meters":8000,"station_id":"","pricing_plan_id":"cebpf4jnsgd1na2vs0mg"},{"bike_id":"358e9c2a-da83-44dd-afd2-276e520a9c32","system_id":"levelo_inurba_marseille","lat":43.28267,"lon":5.35075,"is_reserved":false,"is_disabled":false,"rental_uris":{"android":"levelo://app?vid=358e9c2a-da83-44dd-afd2-276e520a9c32","ios":"levelo://app?vid=358e9c2a-da83-44dd-afd2-276e520a9c32"},"vehicle_type_id":"4","last_reported":1779272203,"current_range_meters":8000,"station_id":"ce4bhbp2rcd13ifvqerg","pricing_plan_id":"cebpf4jnsgd1na2vs0mg"},{"bike_id":"1e76825c-1b49-48b7-ab19-33695876e1b8","system_id":"levelo_inurba_marseille","lat":43.24789,"lon":5.3748,"is_reserved":false,"is_disabled":false,"rental_uris":{"android":"levelo://app?vid=1e76825c-1b49-48b7-ab19-33695876e1b8","ios":"levelo://app?vid=1e76825c-1b49-48b7-ab19-33695876e1b8"},"vehicle_type_id":"4","last_reported":1779272203,"current_range_meters":8000,"station_id":"ce4bhgh2rcd13ifvqfb0","pricing_plan_id":"cebpf4jnsgd1na2vs0mg"},{"bike_id":"59725e5d-5988-4600-a02a-249f60629df5","system_id":"levelo_inurba_marseille","lat":43.31233,"lon":5.38888,"is_reserved":false,"is_disabled":false,"rental_uris":{"android":"levelo://app?vid=59725e5d-5988-4600-a02a-249f60629df5","ios":"levelo://app?vid=59725e5d-5988-4600-a02a-249f60629df5"},"vehicle_type_id":"4","last_reported":1779272203,"current_range_meters":8000,"station_id":"","pricing_plan_id":"cebpf4jnsgd1na2vs0mg"},{"bike_id":"ed0a2e31-3f52-4952-819a-710fa6677d96","system_id":"levelo_inurba_marseille","lat":43.28688,"lon":5.46679,"is_reserved":false,"is_disabled":false,"rental_uris":{"android":"levelo://app?vid=ed0a2e31-3f52-4952-819a-710fa6677d96","ios":"levelo://app?vid=ed0a2e31-3f52-4952-819a-710fa6677d96"},"vehicle_type_id":"4","last_reported":1779272203,"current_range_meters":8000,"station_id":"st_d6tc3vkotcvc738tfjhg","pricing_plan_id":"cebpf4jnsgd1na2vs0mg"},{"bike_id":"35496c86-d400-4c90-a4c1-de493e3c9bf3","system_id":"levelo_inurba_marseille","lat":43.26207,"lon":5.37929,"is_reserved":false,"is_disabled":false,"rental_uris":{"android":"levelo://app?vid=35496c86-d400-4c90-a4c1-de493e3c9bf3","ios":"levelo://app?vid=35496c86-d400-4c90-a4c1-de493e3c9bf3"},"vehicle_type_id":"4","last_reported":1779272203,"current_range_meters":8000,"station_id":"ce4bhjp2rcd13ifvqg90","pricing_plan_id":"cebpf4jnsgd1na2vs0mg"},{"bike_id":"ca5d0b98-e2b4-457a-8554-743d13fecc2f","system_id":"levelo_inurba_marseille","lat":43.26366,"lon":5.41074,"is_reserved":false,"is_disabled":false,"rental_uris":{"android":"levelo://app?vid=ca5d0b98-e2b4-457a-8554-743d13fecc2f","ios":"levelo://app?vid=ca5d0b98-e2b4-457a-8554-743d13fecc2f"},"vehicle_type_id":"4","last_reported":1779272203,"current_range_meters":8000,"station_id":"st_d4e5ca6na9uc73bfl5fg","pricing_plan_id":"cebpf4jnsgd1na2vs0mg"},{"bike_id":"a6a34c40-e83f-4157-90a2-0201993264f1","system_id":"levelo_inurba_marseille","lat":43.26214,"lon":5.4043,"is_reserved":false,"is_disabled":false,"rental_uris":{"android":"levelo://app?vid=a6a34c40-e83f-4157-90a2-0201993264f1","ios":"levelo://app?vid=a6a34c40-e83f-4157-90a2-0201993264f1"},"vehicle_type_id":"4","last_reported":1779272203,"current_range_meters":8000,"station_id":"ce4bhmh2rcd13ifvqgmg","pricing_plan_id":"cebpf4jnsgd1na2vs0mg"},{"bike_id":"bbd9a3c3-8c16-4b76-8c40-960bb85485af","system_id":"levelo_inurba_marseille","lat":43.27954,"lon":5.38704,"is_reserved":false,"is_disabled":false,"rental_uris":{"android":"levelo://app?vid=bbd9a3c3-8c16-4b76-8c40-960bb85485af","ios":"levelo://app?vid=bbd9a3c3-8c16-4b76-8c40-960bb85485af"},"vehicle_type_id":"4","last_reported":1779272203,"current_range_meters":8000,"station_id":"ce4bhg12rcd13ifvqf80","pricing_plan_id":"cebpf4jnsgd1na2vs0mg"},{"bike_id":"eaf724ab-5439-4aa9-927e-00abbd6f75be","system_id":"levelo_inurba_marseille","lat":43.29578,"lon":5.36751,"is_reserved":false,"is_disabled":false,"rental_uris":{"android":"levelo://app?vid=eaf724ab-5439-4aa9-927e-00abbd6f75be","ios":"levelo://app?vid=eaf724ab-5439-4aa9-927e-00abbd6f75be"},"vehicle_type_id":"4","last_reported":1779272203,"current_range_meters":8000,"station_id":"ce4bgph2rcd13ifvqc2g","pricing_plan_id":"cebpf4jnsgd1na2vs0mg"},{"bike_id":"c32c6a23-0d47-4d06-82f5-2acbe1a035ef","system_id":"levelo_inurba_marseille","lat":43.2828,"lon":5.35063,"is_reserved":false,"is_disabled":false,"rental_uris":{"android":"levelo://app?vid=c32c6a23-0d47-4d06-82f5-2acbe1a035ef","ios":"levelo://app?vid=c32c6a23-0d47-4d06-82f5-2acbe1a035ef"},"vehicle_type_id":"4","last_reported":1779272203,"current_range_meters":8000,"station_id":"ce4bhbp2rcd13ifvqerg","pricing_plan_id":"cebpf4jnsgd1na2vs0mg"},{"bike_id":"4ac606e3-9fdb-4729-8e6b-cf1d9bc2543f","system_id":"levelo_inurba_marseille","lat":43.24811,"lon":5.37466,"is_reserved":false,"is_disabled":false,"rental_uris":{"android":"levelo://app?vid=4ac606e3-9fdb-4729-8e6b-cf1d9bc2543f","ios":"levelo://app?vid=4ac606e3-9fdb-4729-8e6b-cf1d9bc2543f"},"vehicle_type_id":"4","last_reported":1779272203,"current_range_meters":8000,"station_id":"ce4bhgh2rcd13ifvqfb0","pricing_plan_id":"cebpf4jnsgd1na2vs0mg"},{"bike_id":"88791c01-6cb0-47b5-ba10-6ef0ba9b522c","system_id":"levelo_inurba_marseille","lat":43.23197,"lon":5.35543,"is_reserved":false,"is_disabled":false,"rental_uris":{"android":"levelo://app?vid=88791c01-6cb0-47b5-ba10-6ef0ba9b522c","ios":"levelo://app?vid=88791c01-6cb0-47b5-ba10-6ef0ba9b522c"},"vehicle_type_id":"4","last_reported":1779272203,"current_range_meters":8000,"station_id":"ce4bhu92rcd13ifvqi70","pricing_plan_id":"cebpf4jnsgd1na2vs0mg"},{"bike_id":"6f29d64e-4b9d-4917-a7f5-10afed3c490d","system_id":"levelo_inurba_marseille","lat":43.29511,"lon":5.39026,"is_reserved":false,"is_disabled":false,"rental_uris":{"android":"levelo://app?vid=6f29d64e-4b9d-4917-a7f5-10afed3c490d","ios":"levelo://app?vid=6f29d64e-4b9d-4917-a7f5-10afed3c490d"},"vehicle_type_id":"4","last_reported":1779272203,"current_range_meters":8000,"station_id":"ce4bh3p2rcd13ifvqdp0","pricing_plan_id":"cebpf4jnsgd1na2vs0mg"},{"bike_id":"a9ecdf3d-d058-4d96-8a15-53a583bb9732","system_id":"levelo_inurba_marseille","lat":43.27403,"lon":5.39334,"is_reserved":false,"is_disabled":false,"rental_uris":{"android":"levelo://app?vid=a9ecdf3d-d058-4d96-8a15-53a583bb9732","ios":"levelo://app?vid=a9ecdf3d-d058-4d96-8a15-53a583bb9732"},"vehicle_type_id":"4","last_reported":1779272203,"current_range_meters":8000,"station_id":"","pricing_plan_id":"cebpf4jnsgd1na2vs0mg"},{"bike_id":"ca53cce9-f349-46ad-9641-f6e1ff7ae6ef","system_id":"levelo_inurba_marseille","lat":43.304169,"lon":5.412894,"is_reserved":false,"is_disabled":false,"rental_uris":{"android":"levelo://app?vid=ca53cce9-f349-46ad-9641-f6e1ff7ae6ef","ios":"levelo://app?vid=ca53cce9-f349-46ad-9641-f6e1ff7ae6ef"},"vehicle_type_id":"4","last_reported":1779272203,"current_range_meters":8000,"station_id":"ce4bhop2rcd13ifvqh8g","pricing_plan_id":"cebpf4jnsgd1na2vs0mg"},{"bike_id":"f7c0230e-ed97-4f98-b053-4847a49bfcd9","system_id":"levelo_inurba_marseille","lat":43.27063,"lon":5.40247,"is_reserved":false,"is_disabled":false,"rental_uris":{"android":"levelo://app?vid=f7c0230e-ed97-4f98-b053-4847a49bfcd9","ios":"levelo://app?vid=f7c0230e-ed97-4f98-b053-4847a49bfcd9"},"vehicle_type_id":"4","last_reported":1779272203,"current_range_meters":8400,"station_id":"ce4bhk92rcd13ifvqgc0","pricing_plan_id":"cebpf4jnsgd1na2vs0mg"},{"bike_id":"5342d850-f471-43b0-b392-4cc60cce1434","system_id":"levelo_inurba_marseille","lat":43.28847,"lon":5.39291,"is_reserved":false,"is_disabled":false,"rental_uris":{"android":"levelo://app?vid=5342d850-f471-43b0-b392-4cc60cce1434","ios":"levelo://app?vid=5342d850-f471-43b0-b392-4cc60cce1434"},"vehicle_type_id":"4","last_reported":1779272203,"current_range_meters":8400,"station_id":"ce4bh2p2rcd13ifvqdi0","pricing_plan_id":"cebpf4jnsgd1na2vs0mg"},{"bike_id":"329879ad-2a95-4a91-a92b-a011049ce117","system_id":"levelo_inurba_marseille","lat":43.27915,"lon":5.39587,"is_reserved":false,"is_disabled":false,"rental_uris":{"android":"levelo://app?vid=329879ad-2a95-4a91-a92b-a011049ce117","ios":"levelo://app?vid=329879ad-2a95-4a91-a92b-a011049ce117"},"vehicle_type_id":"4","last_reported":1779272203,"current_range_meters":8400,"station_id":"ce4bhf92rcd13ifvqf40","pricing_plan_id":"cebpf4jnsgd1na2vs0mg"},{"bike_id":"4bcaa86d-b674-4086-a73c-62e1b30eeb80","system_id":"levelo_inurba_marseille","lat":43.2884,"lon":5.42505,"is_reserved":false,"is_disabled":false,"rental_uris":{"android":"levelo://app?vid=4bcaa86d-b674-4086-a73c-62e1b30eeb80","ios":"levelo://app?vid=4bcaa86d-b674-4086-a73c-62e1b30eeb80"},"vehicle_type_id":"4","last_reported":1779272203,"current_range_meters":8400,"station_id":"st_d3b462108ojc7389ooeg","pricing_plan_id":"cebpf4jnsgd1na2vs0mg"},{"bike_id":"e38caa21-a14a-4197-88a1-db68aad57c56","system_id":"levelo_inurba_marseille","lat":43.28695,"lon":5.46695,"is_reserved":false,"is_disabled":false,"rental_uris":{"android":"levelo://app?vid=e38caa21-a14a-4197-88a1-db68aad57c56","ios":"levelo://app?vid=e38caa21-a14a-4197-88a1-db68aad57c56"},"vehicle_type_id":"4","last_reported":1779272203,"current_range_meters":8400,"station_id":"st_d6tc3vkotcvc738tfjhg","pricing_plan_id":"cebpf4jnsgd1na2vs0mg"},{"bike_id":"381a1687-3b4c-4e43-ada7-0b296f458493","system_id":"levelo_inurba_marseille","lat":43.28744,"lon":5.46723,"is_reserved":false,"is_disabled":false,"rental_uris":{"android":"levelo://app?vid=381a1687-3b4c-4e43-ada7-0b296f458493","ios":"levelo://app?vid=381a1687-3b4c-4e43-ada7-0b296f458493"},"vehicle_type_id":"4","last_reported":1779272203,"current_range_meters":8400,"station_id":"","pricing_plan_id":"cebpf4jnsgd1na2vs0mg"},{"bike_id":"47c9cb97-371d-4e9f-9c20-83aba40029f7","system_id":"levelo_inurba_marseille","lat":43.225321,"lon":5.348338,"is_reserved":false,"is_disabled":false,"rental_uris":{"android":"levelo://app?vid=47c9cb97-371d-4e9f-9c20-83aba40029f7","ios":"levelo://app?vid=47c9cb97-371d-4e9f-9c20-83aba40029f7"},"vehicle_type_id":"4","last_reported":1779272203,"current_range_meters":8400,"station_id":"st_cvj5dfep6f1abm77gieg","pricing_plan_id":"cebpf4jnsgd1na2vs0mg"},{"bike_id":"51498d75-9af5-4013-969a-723de0aa6489","system_id":"levelo_inurba_marseille","lat":43.27182,"lon":5.40985,"is_reserved":false,"is_disabled":false,"rental_uris":{"android":"levelo://app?vid=51498d75-9af5-4013-969a-723de0aa6489","ios":"levelo://app?vid=51498d75-9af5-4013-969a-723de0aa6489"},"vehicle_type_id":"4","last_reported":1779272203,"current_range_meters":8400,"station_id":"ce4bhl12rcd13ifvqgf0","pricing_plan_id":"cebpf4jnsgd1na2vs0mg"},{"bike_id":"e00e03e8-b2b4-41d0-ac50-050fa56e2c50","system_id":"levelo_inurba_marseille","lat":43.32494,"lon":5.38266,"is_reserved":false,"is_disabled":false,"rental_uris":{"android":"levelo://app?vid=e00e03e8-b2b4-41d0-ac50-050fa56e2c50","ios":"levelo://app?vid=e00e03e8-b2b4-41d0-ac50-050fa56e2c50"},"vehicle_type_id":"4","last_reported":1779272203,"current_range_meters":8400,"station_id":"st_d4asgbiv49dc73anf9m0","pricing_plan_id":"cebpf4jnsgd1na2vs0mg"},{"bike_id":"e0612c08-ef6f-4b38-9b9f-058e3e24e9fe","system_id":"levelo_inurba_marseille","lat":43.31732,"lon":5.40441,"is_reserved":false,"is_disabled":false,"rental_uris":{"android":"levelo://app?vid=e0612c08-ef6f-4b38-9b9f-058e3e24e9fe","ios":"levelo://app?vid=e0612c08-ef6f-4b38-9b9f-058e3e24e9fe"},"vehicle_type_id":"4","last_reported":1779272203,"current_range_meters":8400,"station_id":"","pricing_plan_id":"cebpf4jnsgd1na2vs0mg"},{"bike_id":"f34e8471-fefc-4376-b1c8-963190393bc7","system_id":"levelo_inurba_marseille","lat":43.30473,"lon":5.37907,"is_reserved":false,"is_disabled":false,"rental_uris":{"android":"levelo://app?vid=f34e8471-fefc-4376-b1c8-963190393bc7","ios":"levelo://app?vid=f34e8471-fefc-4376-b1c8-963190393bc7"},"vehicle_type_id":"4","last_reported":1779272203,"current_range_meters":8800,"station_id":"ce4bgup2rcd13ifvqcn0","pricing_plan_id":"cebpf4jnsgd1na2vs0mg"},{"bike_id":"dd5bca8d-4a0a-4bc1-8cec-b991e57c6089","system_id":"levelo_inurba_marseille","lat":43.24165,"lon":5.36382,"is_reserved":false,"is_disabled":false,"rental_uris":{"android":"levelo://app?vid=dd5bca8d-4a0a-4bc1-8cec-b991e57c6089","ios":"levelo://app?vid=dd5bca8d-4a0a-4bc1-8cec-b991e57c6089"},"vehicle_type_id":"4","last_reported":1779272203,"current_range_meters":8800,"station_id":"cpo36qri1sfpv3e86is0","pricing_plan_id":"cebpf4jnsgd1na2vs0mg"},{"bike_id":"5240a5f6-9271-48c6-b2b8-4861fa100d4d","system_id":"levelo_inurba_marseille","lat":43.25581,"lon":5.38222,"is_reserved":false,"is_disabled":false,"rental_uris":{"android":"levelo://app?vid=5240a5f6-9271-48c6-b2b8-4861fa100d4d","ios":"levelo://app?vid=5240a5f6-9271-48c6-b2b8-4861fa100d4d"},"vehicle_type_id":"4","last_reported":1779272203,"current_range_meters":8800,"station_id":"ce4bhih2rcd13ifvqfs0","pricing_plan_id":"cebpf4jnsgd1na2vs0mg"},{"bike_id":"ad8d675e-a161-4ee7-8c6f-d76ddc454031","system_id":"levelo_inurba_marseille","lat":43.26072,"lon":5.41536,"is_reserved":false,"is_disabled":false,"rental_uris":{"android":"levelo://app?vid=ad8d675e-a161-4ee7-8c6f-d76ddc454031","ios":"levelo://app?vid=ad8d675e-a161-4ee7-8c6f-d76ddc454031"},"vehicle_type_id":"4","last_reported":1779272203,"current_range_meters":8800,"station_id":"","pricing_plan_id":"cebpf4jnsgd1na2vs0mg"},{"bike_id":"a3071a58-220a-49d7-933f-639eaa20dffd","system_id":"levelo_inurba_marseille","lat":43.28742,"lon":5.42714,"is_reserved":false,"is_disabled":false,"rental_uris":{"android":"levelo://app?vid=a3071a58-220a-49d7-933f-639eaa20dffd","ios":"levelo://app?vid=a3071a58-220a-49d7-933f-639eaa20dffd"},"vehicle_type_id":"4","last_reported":1779272203,"current_range_meters":8800,"station_id":"","pricing_plan_id":"cebpf4jnsgd1na2vs0mg"},{"bike_id":"0fcd54e6-8eec-4b91-b372-3576a17dee23","system_id":"levelo_inurba_marseille","lat":43.28224,"lon":5.39066,"is_reserved":false,"is_disabled":false,"rental_uris":{"android":"levelo://app?vid=0fcd54e6-8eec-4b91-b372-3576a17dee23","ios":"levelo://app?vid=0fcd54e6-8eec-4b91-b372-3576a17dee23"},"vehicle_type_id":"4","last_reported":1779272203,"current_range_meters":8800,"station_id":"ce4bhn92rcd13ifvqgsg","pricing_plan_id":"cebpf4jnsgd1na2vs0mg"},{"bike_id":"fcab34a2-2e38-4e08-9924-a9cfef68c63b","system_id":"levelo_inurba_marseille","lat":43.27057,"lon":5.38297,"is_reserved":false,"is_disabled":false,"rental_uris":{"android":"levelo://app?vid=fcab34a2-2e38-4e08-9924-a9cfef68c63b","ios":"levelo://app?vid=fcab34a2-2e38-4e08-9924-a9cfef68c63b"},"vehicle_type_id":"4","last_reported":1779272203,"current_range_meters":8800,"station_id":"st_d3n2fo6cfp8s73cte1j0","pricing_plan_id":"cebpf4jnsgd1na2vs0mg"},{"bike_id":"ce846c1b-c591-4052-bcfb-ec3dfdf726ef","system_id":"levelo_inurba_marseille","lat":43.33649,"lon":5.40942,"is_reserved":false,"is_disabled":false,"rental_uris":{"android":"levelo://app?vid=ce846c1b-c591-4052-bcfb-ec3dfdf726ef","ios":"levelo://app?vid=ce846c1b-c591-4052-bcfb-ec3dfdf726ef"},"vehicle_type_id":"4","last_reported":1779272203,"current_range_meters":8800,"station_id":"","pricing_plan_id":"cebpf4jnsgd1na2vs0mg"},{"bike_id":"bde72329-39a4-47e8-8cdc-1be46ec770b8","system_id":"levelo_inurba_marseille","lat":43.30878,"lon":5.38201,"is_reserved":false,"is_disabled":false,"rental_uris":{"android":"levelo://app?vid=bde72329-39a4-47e8-8cdc-1be46ec770b8","ios":"levelo://app?vid=bde72329-39a4-47e8-8cdc-1be46ec770b8"},"vehicle_type_id":"4","last_reported":1779272203,"current_range_meters":8800,"station_id":"","pricing_plan_id":"cebpf4jnsgd1na2vs0mg"},{"bike_id":"01a37915-bea0-40e8-945b-097973d77a47","system_id":"levelo_inurba_marseille","lat":43.29574,"lon":5.37484,"is_reserved":false,"is_disabled":false,"rental_uris":{"android":"levelo://app?vid=01a37915-bea0-40e8-945b-097973d77a47","ios":"levelo://app?vid=01a37915-bea0-40e8-945b-097973d77a47"},"vehicle_type_id":"4","last_reported":1779272203,"current_range_meters":8800,"station_id":"ce4bgh92rcd13ifvqb50","pricing_plan_id":"cebpf4jnsgd1na2vs0mg"},{"bike_id":"436ff71f-aa20-4960-860a-6b23b4eeba27","system_id":"levelo_inurba_marseille","lat":43.258283,"lon":5.394437,"is_reserved":false,"is_disabled":true,"rental_uris":{"android":"levelo://app?vid=436ff71f-aa20-4960-860a-6b23b4eeba27","ios":"levelo://app?vid=436ff71f-aa20-4960-860a-6b23b4eeba27"},"vehicle_type_id":"4","last_reported":1779272203,"current_range_meters":8800,"station_id":"ce4bhip2rcd13ifvqft0","pricing_plan_id":"cebpf4jnsgd1na2vs0mg"},{"bike_id":"875195bd-5030-4fee-a8a9-884f13278518","system_id":"levelo_inurba_marseille","lat":43.25301,"lon":5.42154,"is_reserved":false,"is_disabled":true,"rental_uris":{"android":"levelo://app?vid=875195bd-5030-4fee-a8a9-884f13278518","ios":"levelo://app?vid=875195bd-5030-4fee-a8a9-884f13278518"},"vehicle_type_id":"4","last_reported":1779272203,"current_range_meters":8800,"station_id":"st_d2m65c5bi1j21697t3ng","pricing_plan_id":"cebpf4jnsgd1na2vs0mg"},{"bike_id":"c24e2754-fd92-4539-9260-c0dde076501f","system_id":"levelo_inurba_marseille","lat":43.30149,"lon":5.38064,"is_reserved":false,"is_disabled":false,"rental_uris":{"android":"levelo://app?vid=c24e2754-fd92-4539-9260-c0dde076501f","ios":"levelo://app?vid=c24e2754-fd92-4539-9260-c0dde076501f"},"vehicle_type_id":"4","last_reported":1779272203,"current_range_meters":8800,"station_id":"ce4bgjp2rcd13ifvqbh0","pricing_plan_id":"cebpf4jnsgd1na2vs0mg"},{"bike_id":"b9ce9a6b-ed04-4504-86e1-1e4d604c520f","system_id":"levelo_inurba_marseille","lat":43.27606,"lon":5.42319,"is_reserved":false,"is_disabled":false,"rental_uris":{"android":"levelo://app?vid=b9ce9a6b-ed04-4504-86e1-1e4d604c520f","ios":"levelo://app?vid=b9ce9a6b-ed04-4504-86e1-1e4d604c520f"},"vehicle_type_id":"4","last_reported":1779272203,"current_range_meters":8800,"station_id":"","pricing_plan_id":"cebpf4jnsgd1na2vs0mg"},{"bike_id":"deb3821b-7de9-4b29-aa6b-14ee8653f40b","system_id":"levelo_inurba_marseille","lat":43.29004,"lon":5.356211,"is_reserved":false,"is_disabled":false,"rental_uris":{"android":"levelo://app?vid=deb3821b-7de9-4b29-aa6b-14ee8653f40b","ios":"levelo://app?vid=deb3821b-7de9-4b29-aa6b-14ee8653f40b"},"vehicle_type_id":"4","last_reported":1779272203,"current_range_meters":9200,"station_id":"ce4bhb92rcd13ifvqen0","pricing_plan_id":"cebpf4jnsgd1na2vs0mg"},{"bike_id":"772bcf96-0f22-4227-8336-f4885da10df0","system_id":"levelo_inurba_marseille","lat":43.30456,"lon":5.37915,"is_reserved":false,"is_disabled":true,"rental_uris":{"android":"levelo://app?vid=772bcf96-0f22-4227-8336-f4885da10df0","ios":"levelo://app?vid=772bcf96-0f22-4227-8336-f4885da10df0"},"vehicle_type_id":"4","last_reported":1779272203,"current_range_meters":9200,"station_id":"ce4bgup2rcd13ifvqcn0","pricing_plan_id":"cebpf4jnsgd1na2vs0mg"},{"bike_id":"c5e693a5-5aee-4f2f-b3d3-ad6fe1a5da64","system_id":"levelo_inurba_marseille","lat":43.3246,"lon":5.36574,"is_reserved":false,"is_disabled":false,"rental_uris":{"android":"levelo://app?vid=c5e693a5-5aee-4f2f-b3d3-ad6fe1a5da64","ios":"levelo://app?vid=c5e693a5-5aee-4f2f-b3d3-ad6fe1a5da64"},"vehicle_type_id":"4","last_reported":1779272203,"current_range_meters":9200,"station_id":"ce4bhs12rcd13ifvqhvg","pricing_plan_id":"cebpf4jnsgd1na2vs0mg"},{"bike_id":"86a0fb52-613b-4a6c-942d-1abbde400b19","system_id":"levelo_inurba_marseille","lat":43.28414,"lon":5.34985,"is_reserved":false,"is_disabled":true,"rental_uris":{"android":"levelo://app?vid=86a0fb52-613b-4a6c-942d-1abbde400b19","ios":"levelo://app?vid=86a0fb52-613b-4a6c-942d-1abbde400b19"},"vehicle_type_id":"4","last_reported":1779272203,"current_range_meters":9200,"station_id":"ce4bhbh2rcd13ifvqepg","pricing_plan_id":"cebpf4jnsgd1na2vs0mg"},{"bike_id":"aad75fce-f297-4a66-8546-74ab6bfcd851","system_id":"levelo_inurba_marseille","lat":43.24158,"lon":5.36417,"is_reserved":false,"is_disabled":false,"rental_uris":{"android":"levelo://app?vid=aad75fce-f297-4a66-8546-74ab6bfcd851","ios":"levelo://app?vid=aad75fce-f297-4a66-8546-74ab6bfcd851"},"vehicle_type_id":"4","last_reported":1779272203,"current_range_meters":9200,"station_id":"cpo36qri1sfpv3e86is0","pricing_plan_id":"cebpf4jnsgd1na2vs0mg"},{"bike_id":"0aa6b170-d3f6-4643-8b2a-afbccf106a36","system_id":"levelo_inurba_marseille","lat":43.31117,"lon":5.36773,"is_reserved":false,"is_disabled":false,"rental_uris":{"android":"levelo://app?vid=0aa6b170-d3f6-4643-8b2a-afbccf106a36","ios":"levelo://app?vid=0aa6b170-d3f6-4643-8b2a-afbccf106a36"},"vehicle_type_id":"4","last_reported":1779272203,"current_range_meters":9200,"station_id":"","pricing_plan_id":"cebpf4jnsgd1na2vs0mg"},{"bike_id":"feaf3150-5dcd-4833-90bd-79d92481dea3","system_id":"levelo_inurba_marseille","lat":43.23141,"lon":5.43721,"is_reserved":false,"is_disabled":false,"rental_uris":{"android":"levelo://app?vid=feaf3150-5dcd-4833-90bd-79d92481dea3","ios":"levelo://app?vid=feaf3150-5dcd-4833-90bd-79d92481dea3"},"vehicle_type_id":"4","last_reported":1779272203,"current_range_meters":9200,"station_id":"ce4bhmp2rcd13ifvqgog","pricing_plan_id":"cebpf4jnsgd1na2vs0mg"},{"bike_id":"180b495f-4cd7-4270-b294-6726405c848b","system_id":"levelo_inurba_marseille","lat":43.30148,"lon":5.38095,"is_reserved":false,"is_disabled":false,"rental_uris":{"android":"levelo://app?vid=180b495f-4cd7-4270-b294-6726405c848b","ios":"levelo://app?vid=180b495f-4cd7-4270-b294-6726405c848b"},"vehicle_type_id":"4","last_reported":1779272203,"current_range_meters":9200,"station_id":"ce4bgjp2rcd13ifvqbh0","pricing_plan_id":"cebpf4jnsgd1na2vs0mg"},{"bike_id":"352d87dd-105b-4e07-8acf-df938bc891b3","system_id":"levelo_inurba_marseille","lat":43.30524,"lon":5.36514,"is_reserved":false,"is_disabled":false,"rental_uris":{"android":"levelo://app?vid=352d87dd-105b-4e07-8acf-df938bc891b3","ios":"levelo://app?vid=352d87dd-105b-4e07-8acf-df938bc891b3"},"vehicle_type_id":"4","last_reported":1779272203,"current_range_meters":9200,"station_id":"","pricing_plan_id":"cebpf4jnsgd1na2vs0mg"},{"bike_id":"b4a237c3-68db-4556-b686-d82ef4ff26bb","system_id":"levelo_inurba_marseille","lat":43.29497,"lon":5.4331,"is_reserved":false,"is_disabled":false,"rental_uris":{"android":"levelo://app?vid=b4a237c3-68db-4556-b686-d82ef4ff26bb","ios":"levelo://app?vid=b4a237c3-68db-4556-b686-d82ef4ff26bb"},"vehicle_type_id":"4","last_reported":1779272203,"current_range_meters":9200,"station_id":"st_d3j5ugp08ojc73fj9d10","pricing_plan_id":"cebpf4jnsgd1na2vs0mg"},{"bike_id":"f9ef3e85-0deb-412d-b7d9-cac168e3fd90","system_id":"levelo_inurba_marseille","lat":43.23783,"lon":5.36637,"is_reserved":false,"is_disabled":false,"rental_uris":{"android":"levelo://app?vid=f9ef3e85-0deb-412d-b7d9-cac168e3fd90","ios":"levelo://app?vid=f9ef3e85-0deb-412d-b7d9-cac168e3fd90"},"vehicle_type_id":"4","last_reported":1779272203,"current_range_meters":9200,"station_id":"st_d3nk18o9ro0c73en2l3g","pricing_plan_id":"cebpf4jnsgd1na2vs0mg"},{"bike_id":"7777e539-6398-46f2-8e09-4ee426a5f66a","system_id":"levelo_inurba_marseille","lat":43.28109,"lon":5.37829,"is_reserved":false,"is_disabled":false,"rental_uris":{"android":"levelo://app?vid=7777e539-6398-46f2-8e09-4ee426a5f66a","ios":"levelo://app?vid=7777e539-6398-46f2-8e09-4ee426a5f66a"},"vehicle_type_id":"4","last_reported":1779272203,"current_range_meters":9200,"station_id":"ce4bha12rcd13ifvqee0","pricing_plan_id":"cebpf4jnsgd1na2vs0mg"},{"bike_id":"2e78de2d-d8e3-4391-988b-4d1154738233","system_id":"levelo_inurba_marseille","lat":43.2616,"lon":5.38064,"is_reserved":false,"is_disabled":false,"rental_uris":{"android":"levelo://app?vid=2e78de2d-d8e3-4391-988b-4d1154738233","ios":"levelo://app?vid=2e78de2d-d8e3-4391-988b-4d1154738233"},"vehicle_type_id":"4","last_reported":1779272203,"current_range_meters":9200,"station_id":"","pricing_plan_id":"cebpf4jnsgd1na2vs0mg"},{"bike_id":"36a836a9-c4b7-48ee-a4fb-e988674aec43","system_id":"levelo_inurba_marseille","lat":43.30237,"lon":5.40036,"is_reserved":false,"is_disabled":false,"rental_uris":{"android":"levelo://app?vid=36a836a9-c4b7-48ee-a4fb-e988674aec43","ios":"levelo://app?vid=36a836a9-c4b7-48ee-a4fb-e988674aec43"},"vehicle_type_id":"4","last_reported":1779272203,"current_range_meters":9600,"station_id":"","pricing_plan_id":"cebpf4jnsgd1na2vs0mg"},{"bike_id":"0ea6bcdd-097c-4a47-8912-03b2e7fc8778","system_id":"levelo_inurba_marseille","lat":43.30774,"lon":5.37651,"is_reserved":false,"is_disabled":true,"rental_uris":{"android":"levelo://app?vid=0ea6bcdd-097c-4a47-8912-03b2e7fc8778","ios":"levelo://app?vid=0ea6bcdd-097c-4a47-8912-03b2e7fc8778"},"vehicle_type_id":"4","last_reported":1779272203,"current_range_meters":9600,"station_id":"ce4bgv92rcd13ifvqcq0","pricing_plan_id":"cebpf4jnsgd1na2vs0mg"},{"bike_id":"52a748c9-d51e-45e9-9580-09504f1e613a","system_id":"levelo_inurba_marseille","lat":43.27567,"lon":5.42428,"is_reserved":false,"is_disabled":false,"rental_uris":{"android":"levelo://app?vid=52a748c9-d51e-45e9-9580-09504f1e613a","ios":"levelo://app?vid=52a748c9-d51e-45e9-9580-09504f1e613a"},"vehicle_type_id":"4","last_reported":1779272203,"current_range_meters":9600,"station_id":"","pricing_plan_id":"cebpf4jnsgd1na2vs0mg"},{"bike_id":"dd288fbd-5cb9-4589-83d1-3af3962cbb76","system_id":"levelo_inurba_marseille","lat":43.28009,"lon":5.40011,"is_reserved":false,"is_disabled":false,"rental_uris":{"android":"levelo://app?vid=dd288fbd-5cb9-4589-83d1-3af3962cbb76","ios":"levelo://app?vid=dd288fbd-5cb9-4589-83d1-3af3962cbb76"},"vehicle_type_id":"4","last_reported":1779272203,"current_range_meters":9600,"station_id":"ce4bho92rcd13ifvqh4g","pricing_plan_id":"cebpf4jnsgd1na2vs0mg"},{"bike_id":"6bc3e3ac-0193-4224-b31a-2d54e0f0856a","system_id":"levelo_inurba_marseille","lat":43.21751,"lon":5.34597,"is_reserved":false,"is_disabled":false,"rental_uris":{"android":"levelo://app?vid=6bc3e3ac-0193-4224-b31a-2d54e0f0856a","ios":"levelo://app?vid=6bc3e3ac-0193-4224-b31a-2d54e0f0856a"},"vehicle_type_id":"4","last_reported":1779272203,"current_range_meters":9600,"station_id":"st_cvj6r9ubvosntc0bgbag","pricing_plan_id":"cebpf4jnsgd1na2vs0mg"},{"bike_id":"c1857a8e-57d4-4141-99c4-15e4e0fd1111","system_id":"levelo_inurba_marseille","lat":43.24775,"lon":5.37492,"is_reserved":false,"is_disabled":false,"rental_uris":{"android":"levelo://app?vid=c1857a8e-57d4-4141-99c4-15e4e0fd1111","ios":"levelo://app?vid=c1857a8e-57d4-4141-99c4-15e4e0fd1111"},"vehicle_type_id":"4","last_reported":1779272203,"current_range_meters":9600,"station_id":"ce4bhgh2rcd13ifvqfb0","pricing_plan_id":"cebpf4jnsgd1na2vs0mg"},{"bike_id":"2867f625-8401-41e4-a87f-2a6c444dd23d","system_id":"levelo_inurba_marseille","lat":43.31455,"lon":5.37354,"is_reserved":false,"is_disabled":false,"rental_uris":{"android":"levelo://app?vid=2867f625-8401-41e4-a87f-2a6c444dd23d","ios":"levelo://app?vid=2867f625-8401-41e4-a87f-2a6c444dd23d"},"vehicle_type_id":"4","last_reported":1779272203,"current_range_meters":9600,"station_id":"ce4bgt12rcd13ifvqcd0","pricing_plan_id":"cebpf4jnsgd1na2vs0mg"},{"bike_id":"eaaca147-8b6e-4c90-a10c-ca413ca3ce35","system_id":"levelo_inurba_marseille","lat":43.23061,"lon":5.35494,"is_reserved":false,"is_disabled":false,"rental_uris":{"android":"levelo://app?vid=eaaca147-8b6e-4c90-a10c-ca413ca3ce35","ios":"levelo://app?vid=eaaca147-8b6e-4c90-a10c-ca413ca3ce35"},"vehicle_type_id":"4","last_reported":1779272203,"current_range_meters":9600,"station_id":"cpo3342slgdg3j2ifvpg","pricing_plan_id":"cebpf4jnsgd1na2vs0mg"},{"bike_id":"b65c94b2-f0a9-437b-b861-4ff65ff4aeea","system_id":"levelo_inurba_marseille","lat":43.29002,"lon":5.4001,"is_reserved":false,"is_disabled":false,"rental_uris":{"android":"levelo://app?vid=b65c94b2-f0a9-437b-b861-4ff65ff4aeea","ios":"levelo://app?vid=b65c94b2-f0a9-437b-b861-4ff65ff4aeea"},"vehicle_type_id":"4","last_reported":1779272203,"current_range_meters":9600,"station_id":"","pricing_plan_id":"cebpf4jnsgd1na2vs0mg"},{"bike_id":"5548e485-6ace-486b-bb85-d8bbcbabb26a","system_id":"levelo_inurba_marseille","lat":43.31233,"lon":5.36867,"is_reserved":false,"is_disabled":false,"rental_uris":{"android":"levelo://app?vid=5548e485-6ace-486b-bb85-d8bbcbabb26a","ios":"levelo://app?vid=5548e485-6ace-486b-bb85-d8bbcbabb26a"},"vehicle_type_id":"4","last_reported":1779272203,"current_range_meters":9600,"station_id":"ce4bgl92rcd13ifvqbq0","pricing_plan_id":"cebpf4jnsgd1na2vs0mg"},{"bike_id":"5dfd1027-125c-4005-b510-19e0a2674e8b","system_id":"levelo_inurba_marseille","lat":43.22894,"lon":5.35281,"is_reserved":false,"is_disabled":false,"rental_uris":{"android":"levelo://app?vid=5dfd1027-125c-4005-b510-19e0a2674e8b","ios":"levelo://app?vid=5dfd1027-125c-4005-b510-19e0a2674e8b"},"vehicle_type_id":"4","last_reported":1779272203,"current_range_meters":9600,"station_id":"","pricing_plan_id":"cebpf4jnsgd1na2vs0mg"},{"bike_id":"12ee3cfd-dcc9-41a8-889c-43435a9de2af","system_id":"levelo_inurba_marseille","lat":43.25939,"lon":5.40907,"is_reserved":false,"is_disabled":false,"rental_uris":{"android":"levelo://app?vid=12ee3cfd-dcc9-41a8-889c-43435a9de2af","ios":"levelo://app?vid=12ee3cfd-dcc9-41a8-889c-43435a9de2af"},"vehicle_type_id":"4","last_reported":1779272203,"current_range_meters":9600,"station_id":"ce4bhm92rcd13ifvqglg","pricing_plan_id":"cebpf4jnsgd1na2vs0mg"},{"bike_id":"af870156-7c36-431d-8e67-2db8ed9b5acd","system_id":"levelo_inurba_marseille","lat":43.24805,"lon":5.37458,"is_reserved":false,"is_disabled":false,"rental_uris":{"android":"levelo://app?vid=af870156-7c36-431d-8e67-2db8ed9b5acd","ios":"levelo://app?vid=af870156-7c36-431d-8e67-2db8ed9b5acd"},"vehicle_type_id":"4","last_reported":1779272203,"current_range_meters":9600,"station_id":"ce4bhgh2rcd13ifvqfb0","pricing_plan_id":"cebpf4jnsgd1na2vs0mg"},{"bike_id":"12481d7b-ca53-44d2-a72d-3641cbe06950","system_id":"levelo_inurba_marseille","lat":43.2995,"lon":5.41077,"is_reserved":false,"is_disabled":false,"rental_uris":{"android":"levelo://app?vid=12481d7b-ca53-44d2-a72d-3641cbe06950","ios":"levelo://app?vid=12481d7b-ca53-44d2-a72d-3641cbe06950"},"vehicle_type_id":"4","last_reported":1779272203,"current_range_meters":9600,"station_id":"","pricing_plan_id":"cebpf4jnsgd1na2vs0mg"},{"bike_id":"e18e93f7-4afb-44c0-a28c-c5b47cf0591e","system_id":"levelo_inurba_marseille","lat":43.26188,"lon":5.37441,"is_reserved":false,"is_disabled":false,"rental_uris":{"android":"levelo://app?vid=e18e93f7-4afb-44c0-a28c-c5b47cf0591e","ios":"levelo://app?vid=e18e93f7-4afb-44c0-a28c-c5b47cf0591e"},"vehicle_type_id":"4","last_reported":1779272203,"current_range_meters":9600,"station_id":"ce4bhgp2rcd13ifvqfc0","pricing_plan_id":"cebpf4jnsgd1na2vs0mg"},{"bike_id":"3a4b05c6-5388-46b2-a4c0-df506ae288fe","system_id":"levelo_inurba_marseille","lat":43.31769,"lon":5.39008,"is_reserved":false,"is_disabled":false,"rental_uris":{"android":"levelo://app?vid=3a4b05c6-5388-46b2-a4c0-df506ae288fe","ios":"levelo://app?vid=3a4b05c6-5388-46b2-a4c0-df506ae288fe"},"vehicle_type_id":"4","last_reported":1779272203,"current_range_meters":9600,"station_id":"ce4bhqp2rcd13ifvqhng","pricing_plan_id":"cebpf4jnsgd1na2vs0mg"},{"bike_id":"985def3c-cb64-43a2-a3d3-8909c401627d","system_id":"levelo_inurba_marseille","lat":43.27937,"lon":5.39569,"is_reserved":false,"is_disabled":false,"rental_uris":{"android":"levelo://app?vid=985def3c-cb64-43a2-a3d3-8909c401627d","ios":"levelo://app?vid=985def3c-cb64-43a2-a3d3-8909c401627d"},"vehicle_type_id":"4","last_reported":1779272203,"current_range_meters":9600,"station_id":"ce4bhf92rcd13ifvqf40","pricing_plan_id":"cebpf4jnsgd1na2vs0mg"},{"bike_id":"c73d95ce-0f21-4d6b-819d-1b7fcd29b5ba","system_id":"levelo_inurba_marseille","lat":43.28618,"lon":5.35109,"is_reserved":false,"is_disabled":false,"rental_uris":{"android":"levelo://app?vid=c73d95ce-0f21-4d6b-819d-1b7fcd29b5ba","ios":"levelo://app?vid=c73d95ce-0f21-4d6b-819d-1b7fcd29b5ba"},"vehicle_type_id":"4","last_reported":1779272203,"current_range_meters":9600,"station_id":"ce4bhch2rcd13ifvqeug","pricing_plan_id":"cebpf4jnsgd1na2vs0mg"},{"bike_id":"39873431-dd48-489a-8606-6f1366f95f30","system_id":"levelo_inurba_marseille","lat":43.24164,"lon":5.36386,"is_reserved":false,"is_disabled":false,"rental_uris":{"android":"levelo://app?vid=39873431-dd48-489a-8606-6f1366f95f30","ios":"levelo://app?vid=39873431-dd48-489a-8606-6f1366f95f30"},"vehicle_type_id":"4","last_reported":1779272203,"current_range_meters":9600,"station_id":"cpo36qri1sfpv3e86is0","pricing_plan_id":"cebpf4jnsgd1na2vs0mg"},{"bike_id":"aa0c542e-3026-4d5d-a2e6-591e9916e87b","system_id":"levelo_inurba_marseille","lat":43.29771,"lon":5.37064,"is_reserved":false,"is_disabled":false,"rental_uris":{"android":"levelo://app?vid=aa0c542e-3026-4d5d-a2e6-591e9916e87b","ios":"levelo://app?vid=aa0c542e-3026-4d5d-a2e6-591e9916e87b"},"vehicle_type_id":"4","last_reported":1779272203,"current_range_meters":9600,"station_id":"ce4bgop2rcd13ifvqc1g","pricing_plan_id":"cebpf4jnsgd1na2vs0mg"},{"bike_id":"79afb579-fb62-4a51-b020-dc89ce00d47a","system_id":"levelo_inurba_marseille","lat":43.24675,"lon":5.38159,"is_reserved":false,"is_disabled":false,"rental_uris":{"android":"levelo://app?vid=79afb579-fb62-4a51-b020-dc89ce00d47a","ios":"levelo://app?vid=79afb579-fb62-4a51-b020-dc89ce00d47a"},"vehicle_type_id":"4","last_reported":1779272203,"current_range_meters":9600,"station_id":"ce4bhih2rcd13ifvqfr0","pricing_plan_id":"cebpf4jnsgd1na2vs0mg"},{"bike_id":"d6bfc25e-babd-4d86-afbc-0958c2883b1b","system_id":"levelo_inurba_marseille","lat":43.30102,"lon":5.43115,"is_reserved":false,"is_disabled":false,"rental_uris":{"android":"levelo://app?vid=d6bfc25e-babd-4d86-afbc-0958c2883b1b","ios":"levelo://app?vid=d6bfc25e-babd-4d86-afbc-0958c2883b1b"},"vehicle_type_id":"4","last_reported":1779272203,"current_range_meters":9600,"station_id":"st_d3js3co5814s73ftftug","pricing_plan_id":"cebpf4jnsgd1na2vs0mg"},{"bike_id":"472d51f3-5001-49f4-8d10-800042ee7319","system_id":"levelo_inurba_marseille","lat":43.2999,"lon":5.37182,"is_reserved":false,"is_disabled":true,"rental_uris":{"android":"levelo://app?vid=472d51f3-5001-49f4-8d10-800042ee7319","ios":"levelo://app?vid=472d51f3-5001-49f4-8d10-800042ee7319"},"vehicle_type_id":"4","last_reported":1779272203,"current_range_meters":9600,"station_id":"ce4bgr92rcd13ifvqc7g","pricing_plan_id":"cebpf4jnsgd1na2vs0mg"},{"bike_id":"b31820a9-9809-45bb-8539-a02e9e33d1ca","system_id":"levelo_inurba_marseille","lat":43.31223,"lon":5.36776,"is_reserved":false,"is_disabled":false,"rental_uris":{"android":"levelo://app?vid=b31820a9-9809-45bb-8539-a02e9e33d1ca","ios":"levelo://app?vid=b31820a9-9809-45bb-8539-a02e9e33d1ca"},"vehicle_type_id":"4","last_reported":1779272203,"current_range_meters":9600,"station_id":"ce4bgl92rcd13ifvqbq0","pricing_plan_id":"cebpf4jnsgd1na2vs0mg"},{"bike_id":"1ca95aee-a991-4a29-b8d4-54ec712d9fb3","system_id":"levelo_inurba_marseille","lat":43.28684,"lon":5.46672,"is_reserved":false,"is_disabled":false,"rental_uris":{"android":"levelo://app?vid=1ca95aee-a991-4a29-b8d4-54ec712d9fb3","ios":"levelo://app?vid=1ca95aee-a991-4a29-b8d4-54ec712d9fb3"},"vehicle_type_id":"4","last_reported":1779272203,"current_range_meters":9600,"station_id":"st_d6tc3vkotcvc738tfjhg","pricing_plan_id":"cebpf4jnsgd1na2vs0mg"},{"bike_id":"32462a4e-ad50-4c79-b770-4389dc83ffc1","system_id":"levelo_inurba_marseille","lat":43.29004,"lon":5.37128,"is_reserved":false,"is_disabled":false,"rental_uris":{"android":"levelo://app?vid=32462a4e-ad50-4c79-b770-4389dc83ffc1","ios":"levelo://app?vid=32462a4e-ad50-4c79-b770-4389dc83ffc1"},"vehicle_type_id":"4","last_reported":1779272203,"current_range_meters":10000,"station_id":"","pricing_plan_id":"cebpf4jnsgd1na2vs0mg"},{"bike_id":"51cff498-df51-4738-b8a4-75625bc1adf0","system_id":"levelo_inurba_marseille","lat":43.24389,"lon":5.37049,"is_reserved":false,"is_disabled":false,"rental_uris":{"android":"levelo://app?vid=51cff498-df51-4738-b8a4-75625bc1adf0","ios":"levelo://app?vid=51cff498-df51-4738-b8a4-75625bc1adf0"},"vehicle_type_id":"4","last_reported":1779272203,"current_range_meters":10000,"station_id":"ce4bhhh2rcd13ifvqfk0","pricing_plan_id":"cebpf4jnsgd1na2vs0mg"},{"bike_id":"fc8bd4cc-d8fe-40f4-badb-9531f5fa11ef","system_id":"levelo_inurba_marseille","lat":43.23152,"lon":5.43684,"is_reserved":false,"is_disabled":false,"rental_uris":{"android":"levelo://app?vid=fc8bd4cc-d8fe-40f4-badb-9531f5fa11ef","ios":"levelo://app?vid=fc8bd4cc-d8fe-40f4-badb-9531f5fa11ef"},"vehicle_type_id":"4","last_reported":1779272203,"current_range_meters":10000,"station_id":"ce4bhmp2rcd13ifvqgog","pricing_plan_id":"cebpf4jnsgd1na2vs0mg"},{"bike_id":"e65bcfbb-34f4-46b7-91a7-64cf2b98e4f1","system_id":"levelo_inurba_marseille","lat":43.3108,"lon":5.42425,"is_reserved":false,"is_disabled":false,"rental_uris":{"android":"levelo://app?vid=e65bcfbb-34f4-46b7-91a7-64cf2b98e4f1","ios":"levelo://app?vid=e65bcfbb-34f4-46b7-91a7-64cf2b98e4f1"},"vehicle_type_id":"4","last_reported":1779272203,"current_range_meters":10000,"station_id":"ce4bhp92rcd13ifvqhag","pricing_plan_id":"cebpf4jnsgd1na2vs0mg"},{"bike_id":"b3c58742-0569-4988-8f74-9982023b97a6","system_id":"levelo_inurba_marseille","lat":43.31894,"lon":5.3677,"is_reserved":false,"is_disabled":false,"rental_uris":{"android":"levelo://app?vid=b3c58742-0569-4988-8f74-9982023b97a6","ios":"levelo://app?vid=b3c58742-0569-4988-8f74-9982023b97a6"},"vehicle_type_id":"4","last_reported":1779272203,"current_range_meters":10000,"station_id":"st_d6o2h0d0559c73evc1b0","pricing_plan_id":"cebpf4jnsgd1na2vs0mg"},{"bike_id":"d52c0149-9962-47d9-a994-50f9c96a39df","system_id":"levelo_inurba_marseille","lat":43.29703,"lon":5.36593,"is_reserved":false,"is_disabled":false,"rental_uris":{"android":"levelo://app?vid=d52c0149-9962-47d9-a994-50f9c96a39df","ios":"levelo://app?vid=d52c0149-9962-47d9-a994-50f9c96a39df"},