{"last_updated":1731492592,"ttl":60,"version":"2.2","data":{"bikes":[{"bike_id":"b1e6edba-5efe-429c-b5ea-dce0aeff73b2","system_id":"levelo_inurba_marseille","lat":43.24081,"lon":5.3775,"is_reserved":false,"is_disabled":false,"rental_uris":{"android":"levelo://app?vid=b1e6edba-5efe-429c-b5ea-dce0aeff73b2","ios":"levelo://app?vid=b1e6edba-5efe-429c-b5ea-dce0aeff73b2"},"vehicle_type_id":"4","last_reported":1731492593,"current_range_meters":38800,"station_id":"ce4bhnp2rcd13ifvqgvg","pricing_plan_id":"cebpf4jnsgd1na2vs0mg"},{"bike_id":"49b11540-bb5e-4dfe-9b04-c17cffae324c","system_id":"levelo_inurba_marseille","lat":43.27499,"lon":5.42451,"is_reserved":false,"is_disabled":false,"rental_uris":{"android":"levelo://app?vid=49b11540-bb5e-4dfe-9b04-c17cffae324c","ios":"levelo://app?vid=49b11540-bb5e-4dfe-9b04-c17cffae324c"},"vehicle_type_id":"4","last_reported":1731492593,"current_range_meters":38800,"station_id":"ce4bhn92rcd13ifvqgrg","pricing_plan_id":"cebpf4jnsgd1na2vs0mg"},{"bike_id":"52c3b47c-4ac8-4b12-96e0-93b36678801c","system_id":"levelo_inurba_marseille","lat":43.30541,"lon":5.36524,"is_reserved":false,"is_disabled":false,"rental_uris":{"android":"levelo://app?vid=52c3b47c-4ac8-4b12-96e0-93b36678801c","ios":"levelo://app?vid=52c3b47c-4ac8-4b12-96e0-93b36678801c"},"vehicle_type_id":"4","last_reported":1731492593,"current_range_meters":38400,"station_id":"ce4bgs12rcd13ifvqcag","pricing_plan_id":"cebpf4jnsgd1na2vs0mg"},{"bike_id":"898868e3-8df4-4bfe-a842-31bcd7623ce9","system_id":"levelo_inurba_marseille","lat":43.23175,"lon":5.3998,"is_reserved":false,"is_disabled":false,"rental_uris":{"android":"levelo://app?vid=898868e3-8df4-4bfe-a842-31bcd7623ce9","ios":"levelo://app?vid=898868e3-8df4-4bfe-a842-31bcd7623ce9"},"vehicle_type_id":"4","last_reported":1731492593,"current_range_meters":38800,"station_id":"ce4bhn12rcd13ifvqgqg","pricing_plan_id":"cebpf4jnsgd1na2vs0mg"},{"bike_id":"d623d280-fc1a-4f2a-bcc4-997b02107290","system_id":"levelo_inurba_marseille","lat":43.29769,"lon":5.37112,"is_reserved":false,"is_disabled":false,"rental_uris":{"android":"levelo://app?vid=d623d280-fc1a-4f2a-bcc4-997b02107290","ios":"levelo://app?vid=d623d280-fc1a-4f2a-bcc4-997b02107290"},"vehicle_type_id":"4","last_reported":1731492593,"current_range_meters":25600,"station_id":"ce4bgop2rcd13ifvqc1g","pricing_plan_id":"cebpf4jnsgd1na2vs0mg"},{"bike_id":"28028f0b-c629-4d5b-980a-1a96da3b8d81","system_id":"levelo_inurba_marseille","lat":43.25824,"lon":5.39435,"is_reserved":false,"is_disabled":false,"rental_uris":{"android":"levelo://app?vid=28028f0b-c629-4d5b-980a-1a96da3b8d81","ios":"levelo://app?vid=28028f0b-c629-4d5b-980a-1a96da3b8d81"},"vehicle_type_id":"4","last_reported":1731492593,"current_range_meters":38800,"station_id":"ce4bhip2rcd13ifvqft0","pricing_plan_id":"cebpf4jnsgd1na2vs0mg"},{"bike_id":"093b143a-ecec-424e-b05a-301513aef236","system_id":"levelo_inurba_marseille","lat":43.25929,"lon":5.4091,"is_reserved":false,"is_disabled":false,"rental_uris":{"android":"levelo://app?vid=093b143a-ecec-424e-b05a-301513aef236","ios":"levelo://app?vid=093b143a-ecec-424e-b05a-301513aef236"},"vehicle_type_id":"4","last_reported":1731492593,"current_range_meters":32800,"station_id":"ce4bhm92rcd13ifvqglg","pricing_plan_id":"cebpf4jnsgd1na2vs0mg"},{"bike_id":"4626e9cc-5d09-4e6b-bb5c-0fe5bf1a9564","system_id":"levelo_inurba_marseille","lat":43.301405,"lon":5.374253,"is_reserved":false,"is_disabled":false,"rental_uris":{"android":"levelo://app?vid=4626e9cc-5d09-4e6b-bb5c-0fe5bf1a9564","ios":"levelo://app?vid=4626e9cc-5d09-4e6b-bb5c-0fe5bf1a9564"},"vehicle_type_id":"4","last_reported":1731492593,"current_range_meters":19200,"station_id":"ce4bgs92rcd13ifvqcc0","pricing_plan_id":"cebpf4jnsgd1na2vs0mg"},{"bike_id":"afe44c09-4a07-416e-be95-3d235cec367e","system_id":"levelo_inurba_marseille","lat":43.28155,"lon":5.42644,"is_reserved":false,"is_disabled":false,"rental_uris":{"android":"levelo://app?vid=afe44c09-4a07-416e-be95-3d235cec367e","ios":"levelo://app?vid=afe44c09-4a07-416e-be95-3d235cec367e"},"vehicle_type_id":"4","last_reported":1731492593,"current_range_meters":38800,"station_id":"ce4bhnh2rcd13ifvqgug","pricing_plan_id":"cebpf4jnsgd1na2vs0mg"},{"bike_id":"8480a7b5-9983-46f1-b381-425404ce5bfa","system_id":"levelo_inurba_marseille","lat":43.26029,"lon":5.37547,"is_reserved":false,"is_disabled":false,"rental_uris":{"android":"levelo://app?vid=8480a7b5-9983-46f1-b381-425404ce5bfa","ios":"levelo://app?vid=8480a7b5-9983-46f1-b381-425404ce5bfa"},"vehicle_type_id":"4","last_reported":1731492593,"current_range_meters":4800,"station_id":"ce4bhgh2rcd13ifvqfa0","pricing_plan_id":"cebpf4jnsgd1na2vs0mg"},{"bike_id":"31b1e9dc-5d48-48a1-8fb2-f435ceb2105e","system_id":"levelo_inurba_marseille","lat":43.25722,"lon":5.41112,"is_reserved":false,"is_disabled":false,"rental_uris":{"android":"levelo://app?vid=31b1e9dc-5d48-48a1-8fb2-f435ceb2105e","ios":"levelo://app?vid=31b1e9dc-5d48-48a1-8fb2-f435ceb2105e"},"vehicle_type_id":"4","last_reported":1731492593,"current_range_meters":29600,"station_id":"ce4bhkp2rcd13ifvqgd0","pricing_plan_id":"cebpf4jnsgd1na2vs0mg"},{"bike_id":"f79d312e-6ea4-40b1-9965-b4d2ee2b8165","system_id":"levelo_inurba_marseille","lat":43.2903,"lon":5.39984,"is_reserved":false,"is_disabled":false,"rental_uris":{"android":"levelo://app?vid=f79d312e-6ea4-40b1-9965-b4d2ee2b8165","ios":"levelo://app?vid=f79d312e-6ea4-40b1-9965-b4d2ee2b8165"},"vehicle_type_id":"4","last_reported":1731492593,"current_range_meters":23200,"station_id":"ce4bh392rcd13ifvqdm0","pricing_plan_id":"cebpf4jnsgd1na2vs0mg"},{"bike_id":"d899472b-09bd-42e2-8cfc-69a114bffa2b","system_id":"levelo_inurba_marseille","lat":43.27942,"lon":5.41037,"is_reserved":false,"is_disabled":false,"rental_uris":{"android":"levelo://app?vid=d899472b-09bd-42e2-8cfc-69a114bffa2b","ios":"levelo://app?vid=d899472b-09bd-42e2-8cfc-69a114bffa2b"},"vehicle_type_id":"4","last_reported":1731492593,"current_range_meters":2800,"station_id":"ce4bhnp2rcd13ifvqh0g","pricing_plan_id":"cebpf4jnsgd1na2vs0mg"},{"bike_id":"76ed9af1-ca3a-4f28-ae0a-904b7ae282c8","system_id":"levelo_inurba_marseille","lat":43.28154,"lon":5.42648,"is_reserved":false,"is_disabled":false,"rental_uris":{"android":"levelo://app?vid=76ed9af1-ca3a-4f28-ae0a-904b7ae282c8","ios":"levelo://app?vid=76ed9af1-ca3a-4f28-ae0a-904b7ae282c8"},"vehicle_type_id":"4","last_reported":1731492593,"current_range_meters":38800,"station_id":"ce4bhnh2rcd13ifvqgug","pricing_plan_id":"cebpf4jnsgd1na2vs0mg"},{"bike_id":"85458871-ebbe-48ac-adb8-f78b4d1f4aa8","system_id":"levelo_inurba_marseille","lat":43.28149,"lon":5.42643,"is_reserved":false,"is_disabled":false,"rental_uris":{"android":"levelo://app?vid=85458871-ebbe-48ac-adb8-f78b4d1f4aa8","ios":"levelo://app?vid=85458871-ebbe-48ac-adb8-f78b4d1f4aa8"},"vehicle_type_id":"4","last_reported":1731492593,"current_range_meters":38800,"station_id":"ce4bhnh2rcd13ifvqgug","pricing_plan_id":"cebpf4jnsgd1na2vs0mg"},{"bike_id":"b71b9057-405b-45ed-a484-a7576767a9d4","system_id":"levelo_inurba_marseille","lat":43.23959,"lon":5.36644,"is_reserved":false,"is_disabled":false,"rental_uris":{"android":"levelo://app?vid=b71b9057-405b-45ed-a484-a7576767a9d4","ios":"levelo://app?vid=b71b9057-405b-45ed-a484-a7576767a9d4"},"vehicle_type_id":"4","last_reported":1731492593,"current_range_meters":15200,"station_id":"ce4bhi12rcd13ifvqfp0","pricing_plan_id":"cebpf4jnsgd1na2vs0mg"},{"bike_id":"bf84b230-e22e-4490-9999-1c1f6972af9a","system_id":"levelo_inurba_marseille","lat":43.31347,"lon":5.36716,"is_reserved":false,"is_disabled":false,"rental_uris":{"android":"levelo://app?vid=bf84b230-e22e-4490-9999-1c1f6972af9a","ios":"levelo://app?vid=bf84b230-e22e-4490-9999-1c1f6972af9a"},"vehicle_type_id":"4","last_reported":1731492593,"current_range_meters":38400,"station_id":"ce4bgr92rcd13ifvqc6g","pricing_plan_id":"cebpf4jnsgd1na2vs0mg"},{"bike_id":"8c5111a4-b7dd-477d-bd03-b0fb68c10768","system_id":"levelo_inurba_marseille","lat":43.30903,"lon":5.36847,"is_reserved":false,"is_disabled":false,"rental_uris":{"android":"levelo://app?vid=8c5111a4-b7dd-477d-bd03-b0fb68c10768","ios":"levelo://app?vid=8c5111a4-b7dd-477d-bd03-b0fb68c10768"},"vehicle_type_id":"4","last_reported":1731492593,"current_range_meters":18800,"station_id":"ce4bgn92rcd13ifvqbvg","pricing_plan_id":"cebpf4jnsgd1na2vs0mg"},{"bike_id":"f1fef96a-ca51-4d1c-9a03-0dcf1ccd90b1","system_id":"levelo_inurba_marseille","lat":43.2408,"lon":5.37752,"is_reserved":false,"is_disabled":false,"rental_uris":{"android":"levelo://app?vid=f1fef96a-ca51-4d1c-9a03-0dcf1ccd90b1","ios":"levelo://app?vid=f1fef96a-ca51-4d1c-9a03-0dcf1ccd90b1"},"vehicle_type_id":"4","last_reported":1731492593,"current_range_meters":9200,"station_id":"ce4bhnp2rcd13ifvqgvg","pricing_plan_id":"cebpf4jnsgd1na2vs0mg"},{"bike_id":"a0519f75-9e8d-41a7-bee6-ecbb87a3c32a","system_id":"levelo_inurba_marseille","lat":43.24075,"lon":5.37739,"is_reserved":false,"is_disabled":false,"rental_uris":{"android":"levelo://app?vid=a0519f75-9e8d-41a7-bee6-ecbb87a3c32a","ios":"levelo://app?vid=a0519f75-9e8d-41a7-bee6-ecbb87a3c32a"},"vehicle_type_id":"4","last_reported":1731492593,"current_range_meters":10800,"station_id":"ce4bhnp2rcd13ifvqgvg","pricing_plan_id":"cebpf4jnsgd1na2vs0mg"},{"bike_id":"993a2407-dea1-4de6-b3ec-4b72998a4778","system_id":"levelo_inurba_marseille","lat":43.30138,"lon":5.37417,"is_reserved":false,"is_disabled":false,"rental_uris":{"android":"levelo://app?vid=993a2407-dea1-4de6-b3ec-4b72998a4778","ios":"levelo://app?vid=993a2407-dea1-4de6-b3ec-4b72998a4778"},"vehicle_type_id":"4","last_reported":1731492593,"current_range_meters":8800,"station_id":"ce4bgs92rcd13ifvqcc0","pricing_plan_id":"cebpf4jnsgd1na2vs0mg"},{"bike_id":"7feadc2c-8e73-4931-934f-fbac622b389d","system_id":"levelo_inurba_marseille","lat":43.31241,"lon":5.3686,"is_reserved":false,"is_disabled":false,"rental_uris":{"android":"levelo://app?vid=7feadc2c-8e73-4931-934f-fbac622b389d","ios":"levelo://app?vid=7feadc2c-8e73-4931-934f-fbac622b389d"},"vehicle_type_id":"4","last_reported":1731492593,"current_range_meters":29600,"station_id":"ce4bgl92rcd13ifvqbq0","pricing_plan_id":"cebpf4jnsgd1na2vs0mg"},{"bike_id":"55d2d8b2-0246-4eea-b604-9e80591018f2","system_id":"levelo_inurba_marseille","lat":43.23179,"lon":5.39986,"is_reserved":false,"is_disabled":false,"rental_uris":{"android":"levelo://app?vid=55d2d8b2-0246-4eea-b604-9e80591018f2","ios":"levelo://app?vid=55d2d8b2-0246-4eea-b604-9e80591018f2"},"vehicle_type_id":"4","last_reported":1731492593,"current_range_meters":22000,"station_id":"ce4bhn12rcd13ifvqgqg","pricing_plan_id":"cebpf4jnsgd1na2vs0mg"},{"bike_id":"006c2d36-da0a-46e8-bbc3-f99c04e00114","system_id":"levelo_inurba_marseille","lat":43.29584,"lon":5.36742,"is_reserved":false,"is_disabled":false,"rental_uris":{"android":"levelo://app?vid=006c2d36-da0a-46e8-bbc3-f99c04e00114","ios":"levelo://app?vid=006c2d36-da0a-46e8-bbc3-f99c04e00114"},"vehicle_type_id":"4","last_reported":1731492593,"current_range_meters":30000,"station_id":"ce4bgph2rcd13ifvqc2g","pricing_plan_id":"cebpf4jnsgd1na2vs0mg"},{"bike_id":"a3fbfb1d-4c92-4ecf-9fb3-9a658a689149","system_id":"levelo_inurba_marseille","lat":43.28446,"lon":5.39206,"is_reserved":false,"is_disabled":false,"rental_uris":{"android":"levelo://app?vid=a3fbfb1d-4c92-4ecf-9fb3-9a658a689149","ios":"levelo://app?vid=a3fbfb1d-4c92-4ecf-9fb3-9a658a689149"},"vehicle_type_id":"4","last_reported":1731492593,"current_range_meters":28000,"station_id":"ce4bhoh2rcd13ifvqh5g","pricing_plan_id":"cebpf4jnsgd1na2vs0mg"},{"bike_id":"6bba6287-cbda-40e6-b9cf-24ee1907cdf1","system_id":"levelo_inurba_marseille","lat":43.26499,"lon":5.39537,"is_reserved":false,"is_disabled":false,"rental_uris":{"android":"levelo://app?vid=6bba6287-cbda-40e6-b9cf-24ee1907cdf1","ios":"levelo://app?vid=6bba6287-cbda-40e6-b9cf-24ee1907cdf1"},"vehicle_type_id":"4","last_reported":1731492593,"current_range_meters":22800,"station_id":"ce4bhi12rcd13ifvqfq0","pricing_plan_id":"cebpf4jnsgd1na2vs0mg"},{"bike_id":"d233c8fb-6a76-4fc3-b8a0-1802089fd6a0","system_id":"levelo_inurba_marseille","lat":43.30124,"lon":5.3986,"is_reserved":false,"is_disabled":false,"rental_uris":{"android":"levelo://app?vid=d233c8fb-6a76-4fc3-b8a0-1802089fd6a0","ios":"levelo://app?vid=d233c8fb-6a76-4fc3-b8a0-1802089fd6a0"},"vehicle_type_id":"4","last_reported":1731492593,"current_range_meters":22000,"station_id":"ce4bh0h2rcd13ifvqd40","pricing_plan_id":"cebpf4jnsgd1na2vs0mg"},{"bike_id":"47f64b9b-a9da-45fa-a0ac-50e17b6af1d3","system_id":"levelo_inurba_marseille","lat":43.24175,"lon":5.39713,"is_reserved":false,"is_disabled":false,"rental_uris":{"android":"levelo://app?vid=47f64b9b-a9da-45fa-a0ac-50e17b6af1d3","ios":"levelo://app?vid=47f64b9b-a9da-45fa-a0ac-50e17b6af1d3"},"vehicle_type_id":"4","last_reported":1731492593,"current_range_meters":28800,"station_id":"ce4bhn12rcd13ifvqgpg","pricing_plan_id":"cebpf4jnsgd1na2vs0mg"},{"bike_id":"adcc79fe-f4ff-43ea-baab-74afa3384a77","system_id":"levelo_inurba_marseille","lat":43.30192,"lon":5.36609,"is_reserved":false,"is_disabled":false,"rental_uris":{"android":"levelo://app?vid=adcc79fe-f4ff-43ea-baab-74afa3384a77","ios":"levelo://app?vid=adcc79fe-f4ff-43ea-baab-74afa3384a77"},"vehicle_type_id":"4","last_reported":1731492593,"current_range_meters":39200,"station_id":"ce4bgrh2rcd13ifvqc8g","pricing_plan_id":"cebpf4jnsgd1na2vs0mg"},{"bike_id":"be02b7a9-5fc1-4245-9ccb-3a5aad8539dd","system_id":"levelo_inurba_marseille","lat":43.24078,"lon":5.37752,"is_reserved":false,"is_disabled":false,"rental_uris":{"android":"levelo://app?vid=be02b7a9-5fc1-4245-9ccb-3a5aad8539dd","ios":"levelo://app?vid=be02b7a9-5fc1-4245-9ccb-3a5aad8539dd"},"vehicle_type_id":"4","last_reported":1731492593,"current_range_meters":27600,"station_id":"ce4bhnp2rcd13ifvqgvg","pricing_plan_id":"cebpf4jnsgd1na2vs0mg"},{"bike_id":"c40070b7-bb99-494d-be4f-0b86775f9124","system_id":"levelo_inurba_marseille","lat":43.29627,"lon":5.37166,"is_reserved":false,"is_disabled":false,"rental_uris":{"android":"levelo://app?vid=c40070b7-bb99-494d-be4f-0b86775f9124","ios":"levelo://app?vid=c40070b7-bb99-494d-be4f-0b86775f9124"},"vehicle_type_id":"4","last_reported":1731492593,"current_range_meters":38800,"station_id":"ce4bgnh2rcd13ifvqc0g","pricing_plan_id":"cebpf4jnsgd1na2vs0mg"},{"bike_id":"b59a3fca-f496-4ca4-9d76-d0f4b2c8fc3f","system_id":"levelo_inurba_marseille","lat":43.30146,"lon":5.37412,"is_reserved":false,"is_disabled":false,"rental_uris":{"android":"levelo://app?vid=b59a3fca-f496-4ca4-9d76-d0f4b2c8fc3f","ios":"levelo://app?vid=b59a3fca-f496-4ca4-9d76-d0f4b2c8fc3f"},"vehicle_type_id":"4","last_reported":1731492593,"current_range_meters":39200,"station_id":"ce4bgs92rcd13ifvqcc0","pricing_plan_id":"cebpf4jnsgd1na2vs0mg"},{"bike_id":"bfd72307-5d89-4157-8511-4cc3479dda72","system_id":"levelo_inurba_marseille","lat":43.26684,"lon":5.3827,"is_reserved":false,"is_disabled":false,"rental_uris":{"android":"levelo://app?vid=bfd72307-5d89-4157-8511-4cc3479dda72","ios":"levelo://app?vid=bfd72307-5d89-4157-8511-4cc3479dda72"},"vehicle_type_id":"4","last_reported":1731492593,"current_range_meters":30000,"station_id":"ce4bhg92rcd13ifvqf90","pricing_plan_id":"cebpf4jnsgd1na2vs0mg"},{"bike_id":"84b8d1c8-a971-478e-a611-06f69db9d1cc","system_id":"levelo_inurba_marseille","lat":43.337444,"lon":5.374475,"is_reserved":false,"is_disabled":false,"rental_uris":{"android":"levelo://app?vid=84b8d1c8-a971-478e-a611-06f69db9d1cc","ios":"levelo://app?vid=84b8d1c8-a971-478e-a611-06f69db9d1cc"},"vehicle_type_id":"4","last_reported":1731492593,"current_range_meters":38000,"station_id":"","pricing_plan_id":"cebpf4jnsgd1na2vs0mg"},{"bike_id":"886b9c8a-216d-4b9a-8f37-982faedb272f","system_id":"levelo_inurba_marseille","lat":43.24076,"lon":5.37761,"is_reserved":false,"is_disabled":false,"rental_uris":{"android":"levelo://app?vid=886b9c8a-216d-4b9a-8f37-982faedb272f","ios":"levelo://app?vid=886b9c8a-216d-4b9a-8f37-982faedb272f"},"vehicle_type_id":"4","last_reported":1731492593,"current_range_meters":17200,"station_id":"ce4bhnp2rcd13ifvqgvg","pricing_plan_id":"cebpf4jnsgd1na2vs0mg"},{"bike_id":"df4618ff-5fbb-41bb-a259-0d080b0b7b04","system_id":"levelo_inurba_marseille","lat":43.24072,"lon":5.3776,"is_reserved":false,"is_disabled":false,"rental_uris":{"android":"levelo://app?vid=df4618ff-5fbb-41bb-a259-0d080b0b7b04","ios":"levelo://app?vid=df4618ff-5fbb-41bb-a259-0d080b0b7b04"},"vehicle_type_id":"4","last_reported":1731492593,"current_range_meters":11600,"station_id":"ce4bhnp2rcd13ifvqgvg","pricing_plan_id":"cebpf4jnsgd1na2vs0mg"},{"bike_id":"ac3529de-35ab-444f-b4bb-8ce52caf8990","system_id":"levelo_inurba_marseille","lat":43.29601,"lon":5.37704,"is_reserved":false,"is_disabled":false,"rental_uris":{"android":"levelo://app?vid=ac3529de-35ab-444f-b4bb-8ce52caf8990","ios":"levelo://app?vid=ac3529de-35ab-444f-b4bb-8ce52caf8990"},"vehicle_type_id":"4","last_reported":1731492593,"current_range_meters":28000,"station_id":"ce4bgi92rcd13ifvqb90","pricing_plan_id":"cebpf4jnsgd1na2vs0mg"},{"bike_id":"39da359a-0d13-4fcd-98b1-26c199bb09a7","system_id":"levelo_inurba_marseille","lat":43.341395,"lon":5.409056,"is_reserved":false,"is_disabled":false,"rental_uris":{"android":"levelo://app?vid=39da359a-0d13-4fcd-98b1-26c199bb09a7","ios":"levelo://app?vid=39da359a-0d13-4fcd-98b1-26c199bb09a7"},"vehicle_type_id":"4","last_reported":1731492593,"current_range_meters":32800,"station_id":"ce4bhqh2rcd13ifvqhlg","pricing_plan_id":"cebpf4jnsgd1na2vs0mg"},{"bike_id":"a05252be-63a4-41f8-b5a4-1a81d89d0c3c","system_id":"levelo_inurba_marseille","lat":43.23191,"lon":5.39991,"is_reserved":false,"is_disabled":false,"rental_uris":{"android":"levelo://app?vid=a05252be-63a4-41f8-b5a4-1a81d89d0c3c","ios":"levelo://app?vid=a05252be-63a4-41f8-b5a4-1a81d89d0c3c"},"vehicle_type_id":"4","last_reported":1731492593,"current_range_meters":8400,"station_id":"ce4bhn12rcd13ifvqgqg","pricing_plan_id":"cebpf4jnsgd1na2vs0mg"},{"bike_id":"baed5d6a-8bb4-4d67-90a7-5b20bec68b1f","system_id":"levelo_inurba_marseille","lat":43.27494,"lon":5.4245,"is_reserved":false,"is_disabled":false,"rental_uris":{"android":"levelo://app?vid=baed5d6a-8bb4-4d67-90a7-5b20bec68b1f","ios":"levelo://app?vid=baed5d6a-8bb4-4d67-90a7-5b20bec68b1f"},"vehicle_type_id":"4","last_reported":1731492593,"current_range_meters":38800,"station_id":"ce4bhn92rcd13ifvqgrg","pricing_plan_id":"cebpf4jnsgd1na2vs0mg"},{"bike_id":"3cd1a3b2-ede9-48d5-a99b-734f57556074","system_id":"levelo_inurba_marseille","lat":43.30914,"lon":5.36844,"is_reserved":false,"is_disabled":false,"rental_uris":{"android":"levelo://app?vid=3cd1a3b2-ede9-48d5-a99b-734f57556074","ios":"levelo://app?vid=3cd1a3b2-ede9-48d5-a99b-734f57556074"},"vehicle_type_id":"4","last_reported":1731492593,"current_range_meters":34000,"station_id":"ce4bgn92rcd13ifvqbvg","pricing_plan_id":"cebpf4jnsgd1na2vs0mg"},{"bike_id":"41ff89e3-1e18-495b-b5e1-08b420470989","system_id":"levelo_inurba_marseille","lat":43.22928,"lon":5.35377,"is_reserved":false,"is_disabled":false,"rental_uris":{"android":"levelo://app?vid=41ff89e3-1e18-495b-b5e1-08b420470989","ios":"levelo://app?vid=41ff89e3-1e18-495b-b5e1-08b420470989"},"vehicle_type_id":"4","last_reported":1731492593,"current_range_meters":18800,"station_id":"cpo3532slgdg3j2ikp40","pricing_plan_id":"cebpf4jnsgd1na2vs0mg"},{"bike_id":"940ea22a-d93a-4089-ac74-b9d3f591014f","system_id":"levelo_inurba_marseille","lat":43.29304,"lon":5.37173,"is_reserved":false,"is_disabled":false,"rental_uris":{"android":"levelo://app?vid=940ea22a-d93a-4089-ac74-b9d3f591014f","ios":"levelo://app?vid=940ea22a-d93a-4089-ac74-b9d3f591014f"},"vehicle_type_id":"4","last_reported":1731492593,"current_range_meters":27600,"station_id":"","pricing_plan_id":"cebpf4jnsgd1na2vs0mg"},{"bike_id":"25db0cb1-3cbb-4b04-94b0-696266aa7cea","system_id":"levelo_inurba_marseille","lat":43.29622,"lon":5.37152,"is_reserved":false,"is_disabled":false,"rental_uris":{"android":"levelo://app?vid=25db0cb1-3cbb-4b04-94b0-696266aa7cea","ios":"levelo://app?vid=25db0cb1-3cbb-4b04-94b0-696266aa7cea"},"vehicle_type_id":"4","last_reported":1731492593,"current_range_meters":38400,"station_id":"ce4bgnh2rcd13ifvqc0g","pricing_plan_id":"cebpf4jnsgd1na2vs0mg"},{"bike_id":"07c8c8c8-6752-44e3-99f9-3bd686fbfac2","system_id":"levelo_inurba_marseille","lat":43.28031,"lon":5.36941,"is_reserved":false,"is_disabled":false,"rental_uris":{"android":"levelo://app?vid=07c8c8c8-6752-44e3-99f9-3bd686fbfac2","ios":"levelo://app?vid=07c8c8c8-6752-44e3-99f9-3bd686fbfac2"},"vehicle_type_id":"4","last_reported":1731492593,"current_range_meters":23200,"station_id":"ce4bha12rcd13ifvqef0","pricing_plan_id":"cebpf4jnsgd1na2vs0mg"},{"bike_id":"e1aa310a-8632-4474-bc41-f4f361321968","system_id":"levelo_inurba_marseille","lat":43.30279,"lon":5.37704,"is_reserved":false,"is_disabled":false,"rental_uris":{"android":"levelo://app?vid=e1aa310a-8632-4474-bc41-f4f361321968","ios":"levelo://app?vid=e1aa310a-8632-4474-bc41-f4f361321968"},"vehicle_type_id":"4","last_reported":1731492593,"current_range_meters":24400,"station_id":"ce4bguh2rcd13ifvqcj0","pricing_plan_id":"cebpf4jnsgd1na2vs0mg"},{"bike_id":"07593388-1396-48b8-b53d-f99ad9d41363","system_id":"levelo_inurba_marseille","lat":43.30154,"lon":5.38084,"is_reserved":false,"is_disabled":false,"rental_uris":{"android":"levelo://app?vid=07593388-1396-48b8-b53d-f99ad9d41363","ios":"levelo://app?vid=07593388-1396-48b8-b53d-f99ad9d41363"},"vehicle_type_id":"4","last_reported":1731492593,"current_range_meters":36000,"station_id":"ce4bgjp2rcd13ifvqbh0","pricing_plan_id":"cebpf4jnsgd1na2vs0mg"},{"bike_id":"3cbcdd2f-e1d3-41d6-9dc3-f29d50a785fe","system_id":"levelo_inurba_marseille","lat":43.28342,"lon":5.38102,"is_reserved":false,"is_disabled":false,"rental_uris":{"android":"levelo://app?vid=3cbcdd2f-e1d3-41d6-9dc3-f29d50a785fe","ios":"levelo://app?vid=3cbcdd2f-e1d3-41d6-9dc3-f29d50a785fe"},"vehicle_type_id":"4","last_reported":1731492593,"current_range_meters":30400,"station_id":"ce4bh412rcd13ifvqdr0","pricing_plan_id":"cebpf4jnsgd1na2vs0mg"},{"bike_id":"c9d775eb-d779-4c1c-9171-f895e63b4a3c","system_id":"levelo_inurba_marseille","lat":43.30138,"lon":5.37417,"is_reserved":false,"is_disabled":false,"rental_uris":{"android":"levelo://app?vid=c9d775eb-d779-4c1c-9171-f895e63b4a3c","ios":"levelo://app?vid=c9d775eb-d779-4c1c-9171-f895e63b4a3c"},"vehicle_type_id":"4","last_reported":1731492593,"current_range_meters":33600,"station_id":"ce4bgs92rcd13ifvqcc0","pricing_plan_id":"cebpf4jnsgd1na2vs0mg"},{"bike_id":"6fe05206-fb07-4154-a289-8b7473b9715b","system_id":"levelo_inurba_marseille","lat":43.24076,"lon":5.37755,"is_reserved":false,"is_disabled":false,"rental_uris":{"android":"levelo://app?vid=6fe05206-fb07-4154-a289-8b7473b9715b","ios":"levelo://app?vid=6fe05206-fb07-4154-a289-8b7473b9715b"},"vehicle_type_id":"4","last_reported":1731492593,"current_range_meters":19600,"station_id":"ce4bhnp2rcd13ifvqgvg","pricing_plan_id":"cebpf4jnsgd1na2vs0mg"},{"bike_id":"306047db-7a93-4af8-bc49-483c6235a920","system_id":"levelo_inurba_marseille","lat":43.30912,"lon":5.36852,"is_reserved":false,"is_disabled":false,"rental_uris":{"android":"levelo://app?vid=306047db-7a93-4af8-bc49-483c6235a920","ios":"levelo://app?vid=306047db-7a93-4af8-bc49-483c6235a920"},"vehicle_type_id":"4","last_reported":1731492593,"current_range_meters":33200,"station_id":"ce4bgn92rcd13ifvqbvg","pricing_plan_id":"cebpf4jnsgd1na2vs0mg"},{"bike_id":"a43ce929-d285-49d3-ad1c-83088c4207a8","system_id":"levelo_inurba_marseille","lat":43.27998,"lon":5.40004,"is_reserved":false,"is_disabled":false,"rental_uris":{"android":"levelo://app?vid=a43ce929-d285-49d3-ad1c-83088c4207a8","ios":"levelo://app?vid=a43ce929-d285-49d3-ad1c-83088c4207a8"},"vehicle_type_id":"4","last_reported":1731492593,"current_range_meters":2800,"station_id":"ce4bho92rcd13ifvqh4g","pricing_plan_id":"cebpf4jnsgd1na2vs0mg"},{"bike_id":"ad8ac9aa-aaf2-42d8-816e-14739a51908e","system_id":"levelo_inurba_marseille","lat":43.30545,"lon":5.36713,"is_reserved":false,"is_disabled":false,"rental_uris":{"android":"levelo://app?vid=ad8ac9aa-aaf2-42d8-816e-14739a51908e","ios":"levelo://app?vid=ad8ac9aa-aaf2-42d8-816e-14739a51908e"},"vehicle_type_id":"4","last_reported":1731492593,"current_range_meters":19200,"station_id":"ce4bgrp2rcd13ifvqc9g","pricing_plan_id":"cebpf4jnsgd1na2vs0mg"},{"bike_id":"fa77b12d-7a2d-4ce3-a305-c9d3151cb772","system_id":"levelo_inurba_marseille","lat":43.34142,"lon":5.40899,"is_reserved":false,"is_disabled":false,"rental_uris":{"android":"levelo://app?vid=fa77b12d-7a2d-4ce3-a305-c9d3151cb772","ios":"levelo://app?vid=fa77b12d-7a2d-4ce3-a305-c9d3151cb772"},"vehicle_type_id":"4","last_reported":1731492593,"current_range_meters":38400,"station_id":"ce4bhqh2rcd13ifvqhlg","pricing_plan_id":"cebpf4jnsgd1na2vs0mg"},{"bike_id":"2eedc177-66d3-43ad-8e2d-78e60ce845e8","system_id":"levelo_inurba_marseille","lat":43.22936,"lon":5.35376,"is_reserved":false,"is_disabled":false,"rental_uris":{"android":"levelo://app?vid=2eedc177-66d3-43ad-8e2d-78e60ce845e8","ios":"levelo://app?vid=2eedc177-66d3-43ad-8e2d-78e60ce845e8"},"vehicle_type_id":"4","last_reported":1731492593,"current_range_meters":6800,"station_id":"cpo3532slgdg3j2ikp40","pricing_plan_id":"cebpf4jnsgd1na2vs0mg"},{"bike_id":"45efedb4-e2b4-4448-8cdf-c1b0a6456c89","system_id":"levelo_inurba_marseille","lat":43.30181,"lon":5.36606,"is_reserved":false,"is_disabled":false,"rental_uris":{"android":"levelo://app?vid=45efedb4-e2b4-4448-8cdf-c1b0a6456c89","ios":"levelo://app?vid=45efedb4-e2b4-4448-8cdf-c1b0a6456c89"},"vehicle_type_id":"4","last_reported":1731492593,"current_range_meters":11200,"station_id":"ce4bgrh2rcd13ifvqc8g","pricing_plan_id":"cebpf4jnsgd1na2vs0mg"},{"bike_id":"8b960614-5611-404f-bd1a-3fc6ab8342f6","system_id":"levelo_inurba_marseille","lat":43.274359,"lon":5.394258,"is_reserved":false,"is_disabled":false,"rental_uris":{"android":"levelo://app?vid=8b960614-5611-404f-bd1a-3fc6ab8342f6","ios":"levelo://app?vid=8b960614-5611-404f-bd1a-3fc6ab8342f6"},"vehicle_type_id":"4","last_reported":1731492593,"current_range_meters":28400,"station_id":"ce4bhdp2rcd13ifvqf20","pricing_plan_id":"cebpf4jnsgd1na2vs0mg"},{"bike_id":"1fd446ee-6b70-43d7-bed9-29dd3423fe8e","system_id":"levelo_inurba_marseille","lat":43.29368,"lon":5.37849,"is_reserved":false,"is_disabled":false,"rental_uris":{"android":"levelo://app?vid=1fd446ee-6b70-43d7-bed9-29dd3423fe8e","ios":"levelo://app?vid=1fd446ee-6b70-43d7-bed9-29dd3423fe8e"},"vehicle_type_id":"4","last_reported":1731492593,"current_range_meters":36800,"station_id":"ce4bgjh2rcd13ifvqbf0","pricing_plan_id":"cebpf4jnsgd1na2vs0mg"},{"bike_id":"4d3db180-7b09-4241-99c3-a50935cba1fb","system_id":"levelo_inurba_marseille","lat":43.33025,"lon":5.39044,"is_reserved":false,"is_disabled":false,"rental_uris":{"android":"levelo://app?vid=4d3db180-7b09-4241-99c3-a50935cba1fb","ios":"levelo://app?vid=4d3db180-7b09-4241-99c3-a50935cba1fb"},"vehicle_type_id":"4","last_reported":1731492593,"current_range_meters":25200,"station_id":"ce4bhr92rcd13ifvqhrg","pricing_plan_id":"cebpf4jnsgd1na2vs0mg"},{"bike_id":"b07b2b17-fbc4-4be0-9832-e1a26e536499","system_id":"levelo_inurba_marseille","lat":43.29932,"lon":5.36544,"is_reserved":false,"is_disabled":false,"rental_uris":{"android":"levelo://app?vid=b07b2b17-fbc4-4be0-9832-e1a26e536499","ios":"levelo://app?vid=b07b2b17-fbc4-4be0-9832-e1a26e536499"},"vehicle_type_id":"4","last_reported":1731492593,"current_range_meters":37600,"station_id":"ce4bgm92rcd13ifvqbr0","pricing_plan_id":"cebpf4jnsgd1na2vs0mg"},{"bike_id":"76759dac-69b6-4cf7-92a9-6eb2b8660389","system_id":"levelo_inurba_marseille","lat":43.24079,"lon":5.37757,"is_reserved":false,"is_disabled":false,"rental_uris":{"android":"levelo://app?vid=76759dac-69b6-4cf7-92a9-6eb2b8660389","ios":"levelo://app?vid=76759dac-69b6-4cf7-92a9-6eb2b8660389"},"vehicle_type_id":"4","last_reported":1731492593,"current_range_meters":22400,"station_id":"ce4bhnp2rcd13ifvqgvg","pricing_plan_id":"cebpf4jnsgd1na2vs0mg"},{"bike_id":"f3d531b0-fa40-4090-8486-a7d148b67087","system_id":"levelo_inurba_marseille","lat":43.27496,"lon":5.42454,"is_reserved":false,"is_disabled":false,"rental_uris":{"android":"levelo://app?vid=f3d531b0-fa40-4090-8486-a7d148b67087","ios":"levelo://app?vid=f3d531b0-fa40-4090-8486-a7d148b67087"},"vehicle_type_id":"4","last_reported":1731492593,"current_range_meters":38800,"station_id":"ce4bhn92rcd13ifvqgrg","pricing_plan_id":"cebpf4jnsgd1na2vs0mg"},{"bike_id":"85b728ef-7c62-4a7f-a060-7f65da2ca2d6","system_id":"levelo_inurba_marseille","lat":43.33602,"lon":5.41027,"is_reserved":false,"is_disabled":false,"rental_uris":{"android":"levelo://app?vid=85b728ef-7c62-4a7f-a060-7f65da2ca2d6","ios":"levelo://app?vid=85b728ef-7c62-4a7f-a060-7f65da2ca2d6"},"vehicle_type_id":"4","last_reported":1731492593,"current_range_meters":24000,"station_id":"ce4bhqh2rcd13ifvqhmg","pricing_plan_id":"cebpf4jnsgd1na2vs0mg"},{"bike_id":"70a34784-fa9b-4168-b28b-b4d69e3d02af","system_id":"levelo_inurba_marseille","lat":43.25944,"lon":5.40903,"is_reserved":false,"is_disabled":false,"rental_uris":{"android":"levelo://app?vid=70a34784-fa9b-4168-b28b-b4d69e3d02af","ios":"levelo://app?vid=70a34784-fa9b-4168-b28b-b4d69e3d02af"},"vehicle_type_id":"4","last_reported":1731492593,"current_range_meters":16000,"station_id":"ce4bhm92rcd13ifvqglg","pricing_plan_id":"cebpf4jnsgd1na2vs0mg"},{"bike_id":"cc55c9b3-6e2d-4568-ae2f-d5a9d53f31ff","system_id":"levelo_inurba_marseille","lat":43.30912,"lon":5.36847,"is_reserved":false,"is_disabled":false,"rental_uris":{"android":"levelo://app?vid=cc55c9b3-6e2d-4568-ae2f-d5a9d53f31ff","ios":"levelo://app?vid=cc55c9b3-6e2d-4568-ae2f-d5a9d53f31ff"},"vehicle_type_id":"4","last_reported":1731492593,"current_range_meters":25600,"station_id":"ce4bgn92rcd13ifvqbvg","pricing_plan_id":"cebpf4jnsgd1na2vs0mg"},{"bike_id":"82f9be82-7a3e-4479-ad2d-78d0706b7047","system_id":"levelo_inurba_marseille","lat":43.27421,"lon":5.39417,"is_reserved":false,"is_disabled":false,"rental_uris":{"android":"levelo://app?vid=82f9be82-7a3e-4479-ad2d-78d0706b7047","ios":"levelo://app?vid=82f9be82-7a3e-4479-ad2d-78d0706b7047"},"vehicle_type_id":"4","last_reported":1731492593,"current_range_meters":9600,"station_id":"ce4bhdp2rcd13ifvqf20","pricing_plan_id":"cebpf4jnsgd1na2vs0mg"},{"bike_id":"1c53b899-7ad3-4d52-8636-ea4a31313297","system_id":"levelo_inurba_marseille","lat":43.30531,"lon":5.36542,"is_reserved":false,"is_disabled":false,"rental_uris":{"android":"levelo://app?vid=1c53b899-7ad3-4d52-8636-ea4a31313297","ios":"levelo://app?vid=1c53b899-7ad3-4d52-8636-ea4a31313297"},"vehicle_type_id":"4","last_reported":1731492593,"current_range_meters":33600,"station_id":"ce4bgs12rcd13ifvqcag","pricing_plan_id":"cebpf4jnsgd1na2vs0mg"},{"bike_id":"c61c0617-7300-4eb0-89b8-0fd40e00225b","system_id":"levelo_inurba_marseille","lat":43.28487,"lon":5.38543,"is_reserved":false,"is_disabled":false,"rental_uris":{"android":"levelo://app?vid=c61c0617-7300-4eb0-89b8-0fd40e00225b","ios":"levelo://app?vid=c61c0617-7300-4eb0-89b8-0fd40e00225b"},"vehicle_type_id":"4","last_reported":1731492593,"current_range_meters":30800,"station_id":"ce4bh8p2rcd13ifvqeb0","pricing_plan_id":"cebpf4jnsgd1na2vs0mg"},{"bike_id":"4ae131f0-f7b5-4d31-8f0f-09226e32e024","system_id":"levelo_inurba_marseille","lat":43.34145,"lon":5.40899,"is_reserved":false,"is_disabled":false,"rental_uris":{"android":"levelo://app?vid=4ae131f0-f7b5-4d31-8f0f-09226e32e024","ios":"levelo://app?vid=4ae131f0-f7b5-4d31-8f0f-09226e32e024"},"vehicle_type_id":"4","last_reported":1731492593,"current_range_meters":36000,"station_id":"ce4bhqh2rcd13ifvqhlg","pricing_plan_id":"cebpf4jnsgd1na2vs0mg"},{"bike_id":"dd03fdf3-120f-4eb9-8b86-8f10891e2dfe","system_id":"levelo_inurba_marseille","lat":43.29375,"lon":5.37847,"is_reserved":false,"is_disabled":false,"rental_uris":{"android":"levelo://app?vid=dd03fdf3-120f-4eb9-8b86-8f10891e2dfe","ios":"levelo://app?vid=dd03fdf3-120f-4eb9-8b86-8f10891e2dfe"},"vehicle_type_id":"4","last_reported":1731492593,"current_range_meters":39200,"station_id":"ce4bgjh2rcd13ifvqbf0","pricing_plan_id":"cebpf4jnsgd1na2vs0mg"},{"bike_id":"8cb5b45b-f741-4b08-8bd8-a17762806929","system_id":"levelo_inurba_marseille","lat":43.27081,"lon":5.4228,"is_reserved":false,"is_disabled":false,"rental_uris":{"android":"levelo://app?vid=8cb5b45b-f741-4b08-8bd8-a17762806929","ios":"levelo://app?vid=8cb5b45b-f741-4b08-8bd8-a17762806929"},"vehicle_type_id":"4","last_reported":1731492593,"current_range_meters":36400,"station_id":"ce4bhk92rcd13ifvqgb0","pricing_plan_id":"cebpf4jnsgd1na2vs0mg"},{"bike_id":"ec9b8a22-6b08-4de1-b4b8-a8b59cf0c574","system_id":"levelo_inurba_marseille","lat":43.29971,"lon":5.38494,"is_reserved":false,"is_disabled":false,"rental_uris":{"android":"levelo://app?vid=ec9b8a22-6b08-4de1-b4b8-a8b59cf0c574","ios":"levelo://app?vid=ec9b8a22-6b08-4de1-b4b8-a8b59cf0c574"},"vehicle_type_id":"4","last_reported":1731492593,"current_range_meters":28400,"station_id":"ce4bgj92rcd13ifvqbd0","pricing_plan_id":"cebpf4jnsgd1na2vs0mg"},{"bike_id":"b5cc48b3-a48f-456e-a027-d47cac81188c","system_id":"levelo_inurba_marseille","lat":43.2989,"lon":5.39741,"is_reserved":false,"is_disabled":false,"rental_uris":{"android":"levelo://app?vid=b5cc48b3-a48f-456e-a027-d47cac81188c","ios":"levelo://app?vid=b5cc48b3-a48f-456e-a027-d47cac81188c"},"vehicle_type_id":"4","last_reported":1731492593,"current_range_meters":14400,"station_id":"ce4bh0h2rcd13ifvqd50","pricing_plan_id":"cebpf4jnsgd1na2vs0mg"},{"bike_id":"125d40ac-02f8-444a-9648-cee5bdc4ef8d","system_id":"levelo_inurba_marseille","lat":43.23959,"lon":5.36641,"is_reserved":false,"is_disabled":false,"rental_uris":{"android":"levelo://app?vid=125d40ac-02f8-444a-9648-cee5bdc4ef8d","ios":"levelo://app?vid=125d40ac-02f8-444a-9648-cee5bdc4ef8d"},"vehicle_type_id":"4","last_reported":1731492593,"current_range_meters":30400,"station_id":"ce4bhi12rcd13ifvqfp0","pricing_plan_id":"cebpf4jnsgd1na2vs0mg"},{"bike_id":"efc1dd9e-5481-4f1b-99dd-4f79d007bffc","system_id":"levelo_inurba_marseille","lat":43.29511,"lon":5.37503,"is_reserved":false,"is_disabled":false,"rental_uris":{"android":"levelo://app?vid=efc1dd9e-5481-4f1b-99dd-4f79d007bffc","ios":"levelo://app?vid=efc1dd9e-5481-4f1b-99dd-4f79d007bffc"},"vehicle_type_id":"4","last_reported":1731492593,"current_range_meters":32400,"station_id":"ce4bgkp2rcd13ifvqbmg","pricing_plan_id":"cebpf4jnsgd1na2vs0mg"},{"bike_id":"d939a8d3-7886-485f-80ff-eaccf3fd8656","system_id":"levelo_inurba_marseille","lat":43.23147,"lon":5.43709,"is_reserved":false,"is_disabled":false,"rental_uris":{"android":"levelo://app?vid=d939a8d3-7886-485f-80ff-eaccf3fd8656","ios":"levelo://app?vid=d939a8d3-7886-485f-80ff-eaccf3fd8656"},"vehicle_type_id":"4","last_reported":1731492593,"current_range_meters":14400,"station_id":"ce4bhmp2rcd13ifvqgog","pricing_plan_id":"cebpf4jnsgd1na2vs0mg"},{"bike_id":"b01f14ad-1c18-4774-a114-f5ad20e62224","system_id":"levelo_inurba_marseille","lat":43.32363,"lon":5.38865,"is_reserved":false,"is_disabled":false,"rental_uris":{"android":"levelo://app?vid=b01f14ad-1c18-4774-a114-f5ad20e62224","ios":"levelo://app?vid=b01f14ad-1c18-4774-a114-f5ad20e62224"},"vehicle_type_id":"4","last_reported":1731492593,"current_range_meters":32400,"station_id":"ce4bhqp2rcd13ifvqhog","pricing_plan_id":"cebpf4jnsgd1na2vs0mg"},{"bike_id":"7b3c27eb-f609-4995-afd3-a1ce7a9845fc","system_id":"levelo_inurba_marseille","lat":43.2815,"lon":5.42626,"is_reserved":false,"is_disabled":false,"rental_uris":{"android":"levelo://app?vid=7b3c27eb-f609-4995-afd3-a1ce7a9845fc","ios":"levelo://app?vid=7b3c27eb-f609-4995-afd3-a1ce7a9845fc"},"vehicle_type_id":"4","last_reported":1731492593,"current_range_meters":34000,"station_id":"ce4bhnh2rcd13ifvqgug","pricing_plan_id":"cebpf4jnsgd1na2vs0mg"},{"bike_id":"47fa2115-a012-42de-8bc1-d009b04a84f8","system_id":"levelo_inurba_marseille","lat":43.32545,"lon":5.4144,"is_reserved":false,"is_disabled":false,"rental_uris":{"android":"levelo://app?vid=47fa2115-a012-42de-8bc1-d009b04a84f8","ios":"levelo://app?vid=47fa2115-a012-42de-8bc1-d009b04a84f8"},"vehicle_type_id":"4","last_reported":1731492593,"current_range_meters":38800,"station_id":"ce4bhq12rcd13ifvqhhg","pricing_plan_id":"cebpf4jnsgd1na2vs0mg"},{"bike_id":"1b32835d-d790-4d05-9266-c8f334c89fb5","system_id":"levelo_inurba_marseille","lat":43.30146,"lon":5.38086,"is_reserved":false,"is_disabled":false,"rental_uris":{"android":"levelo://app?vid=1b32835d-d790-4d05-9266-c8f334c89fb5","ios":"levelo://app?vid=1b32835d-d790-4d05-9266-c8f334c89fb5"},"vehicle_type_id":"4","last_reported":1731492593,"current_range_meters":32800,"station_id":"ce4bgjp2rcd13ifvqbh0","pricing_plan_id":"cebpf4jnsgd1na2vs0mg"},{"bike_id":"f9cc38aa-362a-4f7a-9057-a43ab18359a9","system_id":"levelo_inurba_marseille","lat":43.28978,"lon":5.37829,"is_reserved":false,"is_disabled":false,"rental_uris":{"android":"levelo://app?vid=f9cc38aa-362a-4f7a-9057-a43ab18359a9","ios":"levelo://app?vid=f9cc38aa-362a-4f7a-9057-a43ab18359a9"},"vehicle_type_id":"4","last_reported":1731492593,"current_range_meters":37600,"station_id":"ce4bh612rcd13ifvqe6g","pricing_plan_id":"cebpf4jnsgd1na2vs0mg"},{"bike_id":"32896d7f-68a8-4fca-bc22-6f7c962389f1","system_id":"levelo_inurba_marseille","lat":43.31351,"lon":5.36712,"is_reserved":false,"is_disabled":false,"rental_uris":{"android":"levelo://app?vid=32896d7f-68a8-4fca-bc22-6f7c962389f1","ios":"levelo://app?vid=32896d7f-68a8-4fca-bc22-6f7c962389f1"},"vehicle_type_id":"4","last_reported":1731492593,"current_range_meters":38000,"station_id":"ce4bgr92rcd13ifvqc6g","pricing_plan_id":"cebpf4jnsgd1na2vs0mg"},{"bike_id":"708cd971-9d29-4c98-b204-7a699fd77c97","system_id":"levelo_inurba_marseille","lat":43.29009,"lon":5.35607,"is_reserved":false,"is_disabled":false,"rental_uris":{"android":"levelo://app?vid=708cd971-9d29-4c98-b204-7a699fd77c97","ios":"levelo://app?vid=708cd971-9d29-4c98-b204-7a699fd77c97"},"vehicle_type_id":"4","last_reported":1731492593,"current_range_meters":22400,"station_id":"ce4bhb92rcd13ifvqen0","pricing_plan_id":"cebpf4jnsgd1na2vs0mg"},{"bike_id":"5a72a360-fb16-471f-8487-fbe39856e127","system_id":"levelo_inurba_marseille","lat":43.32539,"lon":5.41445,"is_reserved":false,"is_disabled":false,"rental_uris":{"android":"levelo://app?vid=5a72a360-fb16-471f-8487-fbe39856e127","ios":"levelo://app?vid=5a72a360-fb16-471f-8487-fbe39856e127"},"vehicle_type_id":"4","last_reported":1731492593,"current_range_meters":10800,"station_id":"ce4bhq12rcd13ifvqhhg","pricing_plan_id":"cebpf4jnsgd1na2vs0mg"},{"bike_id":"6d1ffd36-5752-4a4e-802a-247c6150e9cd","system_id":"levelo_inurba_marseille","lat":43.31176,"lon":5.38715,"is_reserved":false,"is_disabled":false,"rental_uris":{"android":"levelo://app?vid=6d1ffd36-5752-4a4e-802a-247c6150e9cd","ios":"levelo://app?vid=6d1ffd36-5752-4a4e-802a-247c6150e9cd"},"vehicle_type_id":"4","last_reported":1731492593,"current_range_meters":39200,"station_id":"ce4bgv12rcd13ifvqcp0","pricing_plan_id":"cebpf4jnsgd1na2vs0mg"},{"bike_id":"f051316a-ff9f-49fb-b75a-d5e84443bc16","system_id":"levelo_inurba_marseille","lat":43.30904,"lon":5.36851,"is_reserved":false,"is_disabled":false,"rental_uris":{"android":"levelo://app?vid=f051316a-ff9f-49fb-b75a-d5e84443bc16","ios":"levelo://app?vid=f051316a-ff9f-49fb-b75a-d5e84443bc16"},"vehicle_type_id":"4","last_reported":1731492593,"current_range_meters":34000,"station_id":"ce4bgn92rcd13ifvqbvg","pricing_plan_id":"cebpf4jnsgd1na2vs0mg"},{"bike_id":"78b721aa-1416-43f3-9c91-ae57bde2b990","system_id":"levelo_inurba_marseille","lat":43.240723,"lon":5.377631,"is_reserved":false,"is_disabled":false,"rental_uris":{"android":"levelo://app?vid=78b721aa-1416-43f3-9c91-ae57bde2b990","ios":"levelo://app?vid=78b721aa-1416-43f3-9c91-ae57bde2b990"},"vehicle_type_id":"4","last_reported":1731492593,"current_range_meters":29600,"station_id":"ce4bhgh2rcd13ifvqfa0","pricing_plan_id":"cebpf4jnsgd1na2vs0mg"},{"bike_id":"8963f262-bdcb-43f5-9e37-237198779ba8","system_id":"levelo_inurba_marseille","lat":43.33773,"lon":5.37442,"is_reserved":false,"is_disabled":false,"rental_uris":{"android":"levelo://app?vid=8963f262-bdcb-43f5-9e37-237198779ba8","ios":"levelo://app?vid=8963f262-bdcb-43f5-9e37-237198779ba8"},"vehicle_type_id":"4","last_reported":1731492593,"current_range_meters":38800,"station_id":"","pricing_plan_id":"cebpf4jnsgd1na2vs0mg"},{"bike_id":"9e206ec4-3bc2-4292-bb12-90ccf987d885","system_id":"levelo_inurba_marseille","lat":43.337444,"lon":5.374475,"is_reserved":false,"is_disabled":false,"rental_uris":{"android":"levelo://app?vid=9e206ec4-3bc2-4292-bb12-90ccf987d885","ios":"levelo://app?vid=9e206ec4-3bc2-4292-bb12-90ccf987d885"},"vehicle_type_id":"4","last_reported":1731492593,"current_range_meters":38000,"station_id":"","pricing_plan_id":"cebpf4jnsgd1na2vs0mg"},{"bike_id":"398b47b3-a042-4cec-b1dd-254773a78263","system_id":"levelo_inurba_marseille","lat":43.27409,"lon":5.38949,"is_reserved":false,"is_disabled":false,"rental_uris":{"android":"levelo://app?vid=398b47b3-a042-4cec-b1dd-254773a78263","ios":"levelo://app?vid=398b47b3-a042-4cec-b1dd-254773a78263"},"vehicle_type_id":"4","last_reported":1731492593,"current_range_meters":9600,"station_id":"","pricing_plan_id":"cebpf4jnsgd1na2vs0mg"},{"bike_id":"25f495e7-c8bd-4c43-8473-ff0a41353540","system_id":"levelo_inurba_marseille","lat":43.29055,"lon":5.35908,"is_reserved":false,"is_disabled":false,"rental_uris":{"android":"levelo://app?vid=25f495e7-c8bd-4c43-8473-ff0a41353540","ios":"levelo://app?vid=25f495e7-c8bd-4c43-8473-ff0a41353540"},"vehicle_type_id":"4","last_reported":1731492593,"current_range_meters":18800,"station_id":"ce4bha92rcd13ifvqeg0","pricing_plan_id":"cebpf4jnsgd1na2vs0mg"},{"bike_id":"9b3f5ae1-718d-46fb-987d-c120e733104e","system_id":"levelo_inurba_marseille","lat":43.30545,"lon":5.36539,"is_reserved":false,"is_disabled":false,"rental_uris":{"android":"levelo://app?vid=9b3f5ae1-718d-46fb-987d-c120e733104e","ios":"levelo://app?vid=9b3f5ae1-718d-46fb-987d-c120e733104e"},"vehicle_type_id":"4","last_reported":1731492593,"current_range_meters":25600,"station_id":"ce4bgs12rcd13ifvqcag","pricing_plan_id":"cebpf4jnsgd1na2vs0mg"},{"bike_id":"4fb9fb42-7013-4787-b11f-5dced0c2c358","system_id":"levelo_inurba_marseille","lat":43.305977,"lon":5.37224,"is_reserved":false,"is_disabled":false,"rental_uris":{"android":"levelo://app?vid=4fb9fb42-7013-4787-b11f-5dced0c2c358","ios":"levelo://app?vid=4fb9fb42-7013-4787-b11f-5dced0c2c358"},"vehicle_type_id":"4","last_reported":1731492593,"current_range_meters":16800,"station_id":"ce4bgqh2rcd13ifvqc4g","pricing_plan_id":"cebpf4jnsgd1na2vs0mg"},{"bike_id":"92e3ad17-17c9-4714-a148-ef9436ad6113","system_id":"levelo_inurba_marseille","lat":43.2294,"lon":5.35379,"is_reserved":false,"is_disabled":false,"rental_uris":{"android":"levelo://app?vid=92e3ad17-17c9-4714-a148-ef9436ad6113","ios":"levelo://app?vid=92e3ad17-17c9-4714-a148-ef9436ad6113"},"vehicle_type_id":"4","last_reported":1731492593,"current_range_meters":38000,"station_id":"cpo3532slgdg3j2ikp40","pricing_plan_id":"cebpf4jnsgd1na2vs0mg"},{"bike_id":"b82d4b5d-3873-4b38-a9da-7bcda2794ed1","system_id":"levelo_inurba_marseille","lat":43.30534,"lon":5.36532,"is_reserved":false,"is_disabled":false,"rental_uris":{"android":"levelo://app?vid=b82d4b5d-3873-4b38-a9da-7bcda2794ed1","ios":"levelo://app?vid=b82d4b5d-3873-4b38-a9da-7bcda2794ed1"},"vehicle_type_id":"4","last_reported":1731492593,"current_range_meters":17200,"station_id":"ce4bgs12rcd13ifvqcag","pricing_plan_id":"cebpf4jnsgd1na2vs0mg"},{"bike_id":"14979d0f-d768-4ff0-a3b8-7528de05ba2f","system_id":"levelo_inurba_marseille","lat":43.310619,"lon":5.400673,"is_reserved":false,"is_disabled":false,"rental_uris":{"android":"levelo://app?vid=14979d0f-d768-4ff0-a3b8-7528de05ba2f","ios":"levelo://app?vid=14979d0f-d768-4ff0-a3b8-7528de05ba2f"},"vehicle_type_id":"4","last_reported":1731492593,"current_range_meters":38800,"station_id":"","pricing_plan_id":"cebpf4jnsgd1na2vs0mg"},{"bike_id":"9b318ec0-f4cc-4e60-af95-e2dced4e1b2d","system_id":"levelo_inurba_marseille","lat":43.25001,"lon":5.38925,"is_reserved":false,"is_disabled":false,"rental_uris":{"android":"levelo://app?vid=9b318ec0-f4cc-4e60-af95-e2dced4e1b2d","ios":"levelo://app?vid=9b318ec0-f4cc-4e60-af95-e2dced4e1b2d"},"vehicle_type_id":"4","last_reported":1731492593,"current_range_meters":40000,"station_id":"ce4bhgp2rcd13ifvqfd0","pricing_plan_id":"cebpf4jnsgd1na2vs0mg"},{"bike_id":"d4e4b732-18b0-4d0e-ba1f-3c1e9b277a56","system_id":"levelo_inurba_marseille","lat":43.30211,"lon":5.3947,"is_reserved":false,"is_disabled":false,"rental_uris":{"android":"levelo://app?vid=d4e4b732-18b0-4d0e-ba1f-3c1e9b277a56","ios":"levelo://app?vid=d4e4b732-18b0-4d0e-ba1f-3c1e9b277a56"},"vehicle_type_id":"4","last_reported":1731492593,"current_range_meters":39200,"station_id":"ce4bh0p2rcd13ifvqd70","pricing_plan_id":"cebpf4jnsgd1na2vs0mg"},{"bike_id":"a0bffd38-f529-4b37-9227-fb3819a7a32a","system_id":"levelo_inurba_marseille","lat":43.29552,"lon":5.42281,"is_reserved":false,"is_disabled":false,"rental_uris":{"android":"levelo://app?vid=a0bffd38-f529-4b37-9227-fb3819a7a32a","ios":"levelo://app?vid=a0bffd38-f529-4b37-9227-fb3819a7a32a"},"vehicle_type_id":"4","last_reported":1731492593,"current_range_meters":35600,"station_id":"ce4bhph2rcd13ifvqhdg","pricing_plan_id":"cebpf4jnsgd1na2vs0mg"},{"bike_id":"beb7b9bd-a544-4d0c-b0ee-a6204f3f5108","system_id":"levelo_inurba_marseille","lat":43.291962,"lon":5.385193,"is_reserved":false,"is_disabled":false,"rental_uris":{"android":"levelo://app?vid=beb7b9bd-a544-4d0c-b0ee-a6204f3f5108","ios":"levelo://app?vid=beb7b9bd-a544-4d0c-b0ee-a6204f3f5108"},"vehicle_type_id":"4","last_reported":1731492593,"current_range_meters":29600,"station_id":"","pricing_plan_id":"cebpf4jnsgd1na2vs0mg"},{"bike_id":"e8cc31e8-880f-4b8d-8ec4-492eb181f840","system_id":"levelo_inurba_marseille","lat":43.23153,"lon":5.43711,"is_reserved":false,"is_disabled":false,"rental_uris":{"android":"levelo://app?vid=e8cc31e8-880f-4b8d-8ec4-492eb181f840","ios":"levelo://app?vid=e8cc31e8-880f-4b8d-8ec4-492eb181f840"},"vehicle_type_id":"4","last_reported":1731492593,"current_range_meters":16000,"station_id":"ce4bhmp2rcd13ifvqgog","pricing_plan_id":"cebpf4jnsgd1na2vs0mg"},{"bike_id":"71cdf89e-b161-4da7-b7b9-9b4999ce54a2","system_id":"levelo_inurba_marseille","lat":43.30546,"lon":5.36543,"is_reserved":false,"is_disabled":false,"rental_uris":{"android":"levelo://app?vid=71cdf89e-b161-4da7-b7b9-9b4999ce54a2","ios":"levelo://app?vid=71cdf89e-b161-4da7-b7b9-9b4999ce54a2"},"vehicle_type_id":"4","last_reported":1731492593,"current_range_meters":28800,"station_id":"ce4bgs12rcd13ifvqcag","pricing_plan_id":"cebpf4jnsgd1na2vs0mg"},{"bike_id":"b1f50a4e-bf80-417b-be95-adf7b4bc4b3b","system_id":"levelo_inurba_marseille","lat":43.30537,"lon":5.36703,"is_reserved":false,"is_disabled":false,"rental_uris":{"android":"levelo://app?vid=b1f50a4e-bf80-417b-be95-adf7b4bc4b3b","ios":"levelo://app?vid=b1f50a4e-bf80-417b-be95-adf7b4bc4b3b"},"vehicle_type_id":"4","last_reported":1731492593,"current_range_meters":30000,"station_id":"ce4bgrp2rcd13ifvqc9g","pricing_plan_id":"cebpf4jnsgd1na2vs0mg"},{"bike_id":"29bced14-888e-4562-8607-efe682bc7002","system_id":"levelo_inurba_marseille","lat":43.31488,"lon":5.37299,"is_reserved":false,"is_disabled":false,"rental_uris":{"android":"levelo://app?vid=29bced14-888e-4562-8607-efe682bc7002","ios":"levelo://app?vid=29bced14-888e-4562-8607-efe682bc7002"},"vehicle_type_id":"4","last_reported":1731492593,"current_range_meters":22400,"station_id":"ce4bgt12rcd13ifvqcd0","pricing_plan_id":"cebpf4jnsgd1na2vs0mg"},{"bike_id":"85718261-3746-4a85-9f1e-84adac851f6a","system_id":"levelo_inurba_marseille","lat":43.26029,"lon":5.37548,"is_reserved":false,"is_disabled":false,"rental_uris":{"android":"levelo://app?vid=85718261-3746-4a85-9f1e-84adac851f6a","ios":"levelo://app?vid=85718261-3746-4a85-9f1e-84adac851f6a"},"vehicle_type_id":"4","last_reported":1731492593,"current_range_meters":39200,"station_id":"ce4bhgh2rcd13ifvqfa0","pricing_plan_id":"cebpf4jnsgd1na2vs0mg"},{"bike_id":"9217fd7b-2849-4b14-8c8d-3a0f76cda9b1","system_id":"levelo_inurba_marseille","lat":43.26028,"lon":5.3755,"is_reserved":false,"is_disabled":false,"rental_uris":{"android":"levelo://app?vid=9217fd7b-2849-4b14-8c8d-3a0f76cda9b1","ios":"levelo://app?vid=9217fd7b-2849-4b14-8c8d-3a0f76cda9b1"},"vehicle_type_id":"4","last_reported":1731492593,"current_range_meters":38400,"station_id":"ce4bhgh2rcd13ifvqfa0","pricing_plan_id":"cebpf4jnsgd1na2vs0mg"},{"bike_id":"bd3a2ce1-48ec-4e74-a1a7-9bd3007cb483","system_id":"levelo_inurba_marseille","lat":43.2594,"lon":5.40903,"is_reserved":false,"is_disabled":false,"rental_uris":{"android":"levelo://app?vid=bd3a2ce1-48ec-4e74-a1a7-9bd3007cb483","ios":"levelo://app?vid=bd3a2ce1-48ec-4e74-a1a7-9bd3007cb483"},"vehicle_type_id":"4","last_reported":1731492593,"current_range_meters":32400,"station_id":"ce4bhm92rcd13ifvqglg","pricing_plan_id":"cebpf4jnsgd1na2vs0mg"},{"bike_id":"ea8d6140-2496-4199-ad6f-f45f2ee29e95","system_id":"levelo_inurba_marseille","lat":43.30237,"lon":5.40059,"is_reserved":false,"is_disabled":false,"rental_uris":{"android":"levelo://app?vid=ea8d6140-2496-4199-ad6f-f45f2ee29e95","ios":"levelo://app?vid=ea8d6140-2496-4199-ad6f-f45f2ee29e95"},"vehicle_type_id":"4","last_reported":1731492593,"current_range_meters":22000,"station_id":"ce4bgvh2rcd13ifvqcs0","pricing_plan_id":"cebpf4jnsgd1na2vs0mg"},{"bike_id":"c16aad60-bed9-4b48-81c0-51e917c7cb08","system_id":"levelo_inurba_marseille","lat":43.30189,"lon":5.36619,"is_reserved":false,"is_disabled":false,"rental_uris":{"android":"levelo://app?vid=c16aad60-bed9-4b48-81c0-51e917c7cb08","ios":"levelo://app?vid=c16aad60-bed9-4b48-81c0-51e917c7cb08"},"vehicle_type_id":"4","last_reported":1731492593,"current_range_meters":39200,"station_id":"ce4bgrh2rcd13ifvqc8g","pricing_plan_id":"cebpf4jnsgd1na2vs0mg"},{"bike_id":"158757d0-f89c-452d-9746-6ab2aad19887","system_id":"levelo_inurba_marseille","lat":43.31244,"lon":5.36842,"is_reserved":false,"is_disabled":false,"rental_uris":{"android":"levelo://app?vid=158757d0-f89c-452d-9746-6ab2aad19887","ios":"levelo://app?vid=158757d0-f89c-452d-9746-6ab2aad19887"},"vehicle_type_id":"4","last_reported":1731492593,"current_range_meters":36000,"station_id":"ce4bgl92rcd13ifvqbq0","pricing_plan_id":"cebpf4jnsgd1na2vs0mg"},{"bike_id":"561b0e7d-85bc-4537-ad72-80a3d251c4a6","system_id":"levelo_inurba_marseille","lat":43.26208,"lon":5.37441,"is_reserved":false,"is_disabled":false,"rental_uris":{"android":"levelo://app?vid=561b0e7d-85bc-4537-ad72-80a3d251c4a6","ios":"levelo://app?vid=561b0e7d-85bc-4537-ad72-80a3d251c4a6"},"vehicle_type_id":"4","last_reported":1731492593,"current_range_meters":18800,"station_id":"ce4bhgp2rcd13ifvqfc0","pricing_plan_id":"cebpf4jnsgd1na2vs0mg"},{"bike_id":"9111b3c4-7ddd-4e5e-9f57-7a2241ab6dea","system_id":"levelo_inurba_marseille","lat":43.33023,"lon":5.39036,"is_reserved":false,"is_disabled":false,"rental_uris":{"android":"levelo://app?vid=9111b3c4-7ddd-4e5e-9f57-7a2241ab6dea","ios":"levelo://app?vid=9111b3c4-7ddd-4e5e-9f57-7a2241ab6dea"},"vehicle_type_id":"4","last_reported":1731492593,"current_range_meters":25200,"station_id":"ce4bhr92rcd13ifvqhrg","pricing_plan_id":"cebpf4jnsgd1na2vs0mg"},{"bike_id":"ebad3fe3-45c6-49ab-a9a7-bd5380241ddd","system_id":"levelo_inurba_marseille","lat":43.27068,"lon":5.42278,"is_reserved":false,"is_disabled":false,"rental_uris":{"android":"levelo://app?vid=ebad3fe3-45c6-49ab-a9a7-bd5380241ddd","ios":"levelo://app?vid=ebad3fe3-45c6-49ab-a9a7-bd5380241ddd"},"vehicle_type_id":"4","last_reported":1731492593,"current_range_meters":27600,"station_id":"ce4bhk92rcd13ifvqgb0","pricing_plan_id":"cebpf4jnsgd1na2vs0mg"},{"bike_id":"724bd232-2052-4ef2-b159-6300efd5c0a0","system_id":"levelo_inurba_marseille","lat":43.26807,"lon":5.40268,"is_reserved":false,"is_disabled":false,"rental_uris":{"android":"levelo://app?vid=724bd232-2052-4ef2-b159-6300efd5c0a0","ios":"levelo://app?vid=724bd232-2052-4ef2-b159-6300efd5c0a0"},"vehicle_type_id":"4","last_reported":1731492593,"current_range_meters":37600,"station_id":"ce501612rcd8frsf0b60","pricing_plan_id":"cebpf4jnsgd1na2vs0mg"},{"bike_id":"a7ae197b-10d3-4ba6-b2fa-ccbf57d403bc","system_id":"levelo_inurba_marseille","lat":43.34146,"lon":5.40905,"is_reserved":false,"is_disabled":false,"rental_uris":{"android":"levelo://app?vid=a7ae197b-10d3-4ba6-b2fa-ccbf57d403bc","ios":"levelo://app?vid=a7ae197b-10d3-4ba6-b2fa-ccbf57d403bc"},"vehicle_type_id":"4","last_reported":1731492593,"current_range_meters":28000,"station_id":"ce4bhqh2rcd13ifvqhlg","pricing_plan_id":"cebpf4jnsgd1na2vs0mg"},{"bike_id":"3d8cceee-e8ae-48df-9d20-ed8626b0c570","system_id":"levelo_inurba_marseille","lat":43.33024,"lon":5.39033,"is_reserved":false,"is_disabled":false,"rental_uris":{"android":"levelo://app?vid=3d8cceee-e8ae-48df-9d20-ed8626b0c570","ios":"levelo://app?vid=3d8cceee-e8ae-48df-9d20-ed8626b0c570"},"vehicle_type_id":"4","last_reported":1731492593,"current_range_meters":34800,"station_id":"ce4bhr92rcd13ifvqhrg","pricing_plan_id":"cebpf4jnsgd1na2vs0mg"},{"bike_id":"92a7a4b8-71a2-4d89-a912-8ce23346a0d1","system_id":"levelo_inurba_marseille","lat":43.28258,"lon":5.44406,"is_reserved":false,"is_disabled":false,"rental_uris":{"android":"levelo://app?vid=92a7a4b8-71a2-4d89-a912-8ce23346a0d1","ios":"levelo://app?vid=92a7a4b8-71a2-4d89-a912-8ce23346a0d1"},"vehicle_type_id":"4","last_reported":1731492593,"current_range_meters":16800,"station_id":"","pricing_plan_id":"cebpf4jnsgd1na2vs0mg"},{"bike_id":"c881ecce-1bab-4b81-8f63-1104b2e209ce","system_id":"levelo_inurba_marseille","lat":43.24069,"lon":5.37762,"is_reserved":false,"is_disabled":false,"rental_uris":{"android":"levelo://app?vid=c881ecce-1bab-4b81-8f63-1104b2e209ce","ios":"levelo://app?vid=c881ecce-1bab-4b81-8f63-1104b2e209ce"},"vehicle_type_id":"4","last_reported":1731492593,"current_range_meters":35600,"station_id":"ce4bhnp2rcd13ifvqgvg","pricing_plan_id":"cebpf4jnsgd1na2vs0mg"},{"bike_id":"32805eea-8126-4d65-a5ca-136350f63fef","system_id":"levelo_inurba_marseille","lat":43.29055,"lon":5.3716,"is_reserved":false,"is_disabled":false,"rental_uris":{"android":"levelo://app?vid=32805eea-8126-4d65-a5ca-136350f63fef","ios":"levelo://app?vid=32805eea-8126-4d65-a5ca-136350f63fef"},"vehicle_type_id":"4","last_reported":1731492593,"current_range_meters":38000,"station_id":"ce4bh5p2rcd13ifvqe4g","pricing_plan_id":"cebpf4jnsgd1na2vs0mg"},{"bike_id":"d58eb007-3060-46d8-9b73-7037dc4f13e4","system_id":"levelo_inurba_marseille","lat":43.24083,"lon":5.37746,"is_reserved":false,"is_disabled":false,"rental_uris":{"android":"levelo://app?vid=d58eb007-3060-46d8-9b73-7037dc4f13e4","ios":"levelo://app?vid=d58eb007-3060-46d8-9b73-7037dc4f13e4"},"vehicle_type_id":"4","last_reported":1731492593,"current_range_meters":16000,"station_id":"ce4bhnp2rcd13ifvqgvg","pricing_plan_id":"cebpf4jnsgd1na2vs0mg"},{"bike_id":"b8b430c6-9681-41f6-b213-c69a1b019ddd","system_id":"levelo_inurba_marseille","lat":43.27309,"lon":5.39077,"is_reserved":false,"is_disabled":false,"rental_uris":{"android":"levelo://app?vid=b8b430c6-9681-41f6-b213-c69a1b019ddd","ios":"levelo://app?vid=b8b430c6-9681-41f6-b213-c69a1b019ddd"},"vehicle_type_id":"4","last_reported":1731492593,"current_range_meters":6800,"station_id":"ce4bhgp2rcd13ifvqfe0","pricing_plan_id":"cebpf4jnsgd1na2vs0mg"},{"bike_id":"698f9470-ad94-493b-8dbd-d4831d7a0078","system_id":"levelo_inurba_marseille","lat":43.30534,"lon":5.367,"is_reserved":false,"is_disabled":false,"rental_uris":{"android":"levelo://app?vid=698f9470-ad94-493b-8dbd-d4831d7a0078","ios":"levelo://app?vid=698f9470-ad94-493b-8dbd-d4831d7a0078"},"vehicle_type_id":"4","last_reported":1731492593,"current_range_meters":27600,"station_id":"ce4bgrp2rcd13ifvqc9g","pricing_plan_id":"cebpf4jnsgd1na2vs0mg"},{"bike_id":"77ab44b7-4460-4a96-b6d3-a90ea09f2ced","system_id":"levelo_inurba_marseille","lat":43.23964,"lon":5.36621,"is_reserved":false,"is_disabled":false,"rental_uris":{"android":"levelo://app?vid=77ab44b7-4460-4a96-b6d3-a90ea09f2ced","ios":"levelo://app?vid=77ab44b7-4460-4a96-b6d3-a90ea09f2ced"},"vehicle_type_id":"4","last_reported":1731492593,"current_range_meters":33600,"station_id":"ce4bhi12rcd13ifvqfp0","pricing_plan_id":"cebpf4jnsgd1na2vs0mg"},{"bike_id":"47fdd3bf-4cb5-4eed-812e-3770c79fd243","system_id":"levelo_inurba_marseille","lat":43.32108,"lon":5.36767,"is_reserved":false,"is_disabled":false,"rental_uris":{"android":"levelo://app?vid=47fdd3bf-4cb5-4eed-812e-3770c79fd243","ios":"levelo://app?vid=47fdd3bf-4cb5-4eed-812e-3770c79fd243"},"vehicle_type_id":"4","last_reported":1731492593,"current_range_meters":16800,"station_id":"ce4bhrh2rcd13ifvqhug","pricing_plan_id":"cebpf4jnsgd1na2vs0mg"},{"bike_id":"93fd081b-d9c7-4139-a39e-5db1fb632dab","system_id":"levelo_inurba_marseille","lat":43.31076,"lon":5.38356,"is_reserved":false,"is_disabled":false,"rental_uris":{"android":"levelo://app?vid=93fd081b-d9c7-4139-a39e-5db1fb632dab","ios":"levelo://app?vid=93fd081b-d9c7-4139-a39e-5db1fb632dab"},"vehicle_type_id":"4","last_reported":1731492593,"current_range_meters":17600,"station_id":"ce4bgv92rcd13ifvqcr0","pricing_plan_id":"cebpf4jnsgd1na2vs0mg"},{"bike_id":"335e4b9e-4abd-4f7f-b2b8-48c77c4742d1","system_id":"levelo_inurba_marseille","lat":43.29355,"lon":5.37846,"is_reserved":false,"is_disabled":false,"rental_uris":{"android":"levelo://app?vid=335e4b9e-4abd-4f7f-b2b8-48c77c4742d1","ios":"levelo://app?vid=335e4b9e-4abd-4f7f-b2b8-48c77c4742d1"},"vehicle_type_id":"4","last_reported":1731492593,"current_range_meters":36000,"station_id":"ce4bgjh2rcd13ifvqbf0","pricing_plan_id":"cebpf4jnsgd1na2vs0mg"},{"bike_id":"9757b8ea-acf7-4f9f-9fcc-b3cc10389510","system_id":"levelo_inurba_marseille","lat":43.2931,"lon":5.37172,"is_reserved":false,"is_disabled":false,"rental_uris":{"android":"levelo://app?vid=9757b8ea-acf7-4f9f-9fcc-b3cc10389510","ios":"levelo://app?vid=9757b8ea-acf7-4f9f-9fcc-b3cc10389510"},"vehicle_type_id":"4","last_reported":1731492593,"current_range_meters":29600,"station_id":"ce4bgh92rcd13ifvqb40","pricing_plan_id":"cebpf4jnsgd1na2vs0mg"},{"bike_id":"55c5cd9e-25df-4b46-b96b-bea4aff5179a","system_id":"levelo_inurba_marseille","lat":43.34143,"lon":5.40909,"is_reserved":false,"is_disabled":false,"rental_uris":{"android":"levelo://app?vid=55c5cd9e-25df-4b46-b96b-bea4aff5179a","ios":"levelo://app?vid=55c5cd9e-25df-4b46-b96b-bea4aff5179a"},"vehicle_type_id":"4","last_reported":1731492593,"current_range_meters":8000,"station_id":"ce4bhqh2rcd13ifvqhlg","pricing_plan_id":"cebpf4jnsgd1na2vs0mg"},{"bike_id":"06380225-2059-4a1b-ab66-74996d31bff2","system_id":"levelo_inurba_marseille","lat":43.31347,"lon":5.36712,"is_reserved":false,"is_disabled":false,"rental_uris":{"android":"levelo://app?vid=06380225-2059-4a1b-ab66-74996d31bff2","ios":"levelo://app?vid=06380225-2059-4a1b-ab66-74996d31bff2"},"vehicle_type_id":"4","last_reported":1731492593,"current_range_meters":14800,"station_id":"ce4bgr92rcd13ifvqc6g","pricing_plan_id":"cebpf4jnsgd1na2vs0mg"},{"bike_id":"264aabb7-f57f-4f15-9cf2-84673cb2e2f3","system_id":"levelo_inurba_marseille","lat":43.2408,"lon":5.37744,"is_reserved":false,"is_disabled":false,"rental_uris":{"android":"levelo://app?vid=264aabb7-f57f-4f15-9cf2-84673cb2e2f3","ios":"levelo://app?vid=264aabb7-f57f-4f15-9cf2-84673cb2e2f3"},"vehicle_type_id":"4","last_reported":1731492593,"current_range_meters":16400,"station_id":"ce4bhnp2rcd13ifvqgvg","pricing_plan_id":"cebpf4jnsgd1na2vs0mg"},{"bike_id":"34c7df9f-6d63-42a2-8cad-21abccbb4028","system_id":"levelo_inurba_marseille","lat":43.29427,"lon":5.3864,"is_reserved":false,"is_disabled":false,"rental_uris":{"android":"levelo://app?vid=34c7df9f-6d63-42a2-8cad-21abccbb4028","ios":"levelo://app?vid=34c7df9f-6d63-42a2-8cad-21abccbb4028"},"vehicle_type_id":"4","last_reported":1731492593,"current_range_meters":12000,"station_id":"ce4bh2h2rcd13ifvqdh0","pricing_plan_id":"cebpf4jnsgd1na2vs0mg"},{"bike_id":"1e016e0b-b780-421f-a20f-2f5a5f5fad3c","system_id":"levelo_inurba_marseille","lat":43.3014,"lon":5.3742,"is_reserved":false,"is_disabled":false,"rental_uris":{"android":"levelo://app?vid=1e016e0b-b780-421f-a20f-2f5a5f5fad3c","ios":"levelo://app?vid=1e016e0b-b780-421f-a20f-2f5a5f5fad3c"},"vehicle_type_id":"4","last_reported":1731492593,"current_range_meters":31200,"station_id":"ce4bgs92rcd13ifvqcc0","pricing_plan_id":"cebpf4jnsgd1na2vs0mg"},{"bike_id":"5e96f609-2d16-41e9-86d3-411db3ae9987","system_id":"levelo_inurba_marseille","lat":43.33605,"lon":5.41036,"is_reserved":false,"is_disabled":false,"rental_uris":{"android":"levelo://app?vid=5e96f609-2d16-41e9-86d3-411db3ae9987","ios":"levelo://app?vid=5e96f609-2d16-41e9-86d3-411db3ae9987"},"vehicle_type_id":"4","last_reported":1731492593,"current_range_meters":8000,"station_id":"ce4bhqh2rcd13ifvqhmg","pricing_plan_id":"cebpf4jnsgd1na2vs0mg"},{"bike_id":"fbae999e-6c1b-4047-8542-4b57cbc41517","system_id":"levelo_inurba_marseille","lat":43.24084,"lon":5.37742,"is_reserved":false,"is_disabled":false,"rental_uris":{"android":"levelo://app?vid=fbae999e-6c1b-4047-8542-4b57cbc41517","ios":"levelo://app?vid=fbae999e-6c1b-4047-8542-4b57cbc41517"},"vehicle_type_id":"4","last_reported":1731492593,"current_range_meters":24800,"station_id":"ce4bhnp2rcd13ifvqgvg","pricing_plan_id":"cebpf4jnsgd1na2vs0mg"},{"bike_id":"1db710b5-a1f7-4498-b1d5-a9a354df934e","system_id":"levelo_inurba_marseille","lat":43.24077,"lon":5.37751,"is_reserved":false,"is_disabled":false,"rental_uris":{"android":"levelo://app?vid=1db710b5-a1f7-4498-b1d5-a9a354df934e","ios":"levelo://app?vid=1db710b5-a1f7-4498-b1d5-a9a354df934e"},"vehicle_type_id":"4","last_reported":1731492593,"current_range_meters":32800,"station_id":"ce4bhnp2rcd13ifvqgvg","pricing_plan_id":"cebpf4jnsgd1na2vs0mg"},{"bike_id":"9cd4ab93-2f70-4411-91b2-66122de72ac9","system_id":"levelo_inurba_marseille","lat":43.30144,"lon":5.37422,"is_reserved":false,"is_disabled":false,"rental_uris":{"android":"levelo://app?vid=9cd4ab93-2f70-4411-91b2-66122de72ac9","ios":"levelo://app?vid=9cd4ab93-2f70-4411-91b2-66122de72ac9"},"vehicle_type_id":"4","last_reported":1731492593,"current_range_meters":32400,"station_id":"ce4bgs92rcd13ifvqcc0","pricing_plan_id":"cebpf4jnsgd1na2vs0mg"},{"bike_id":"70e78c93-084e-4ab7-a814-465f1ec8a7f0","system_id":"levelo_inurba_marseille","lat":43.23152,"lon":5.43696,"is_reserved":false,"is_disabled":false,"rental_uris":{"android":"levelo://app?vid=70e78c93-084e-4ab7-a814-465f1ec8a7f0","ios":"levelo://app?vid=70e78c93-084e-4ab7-a814-465f1ec8a7f0"},"vehicle_type_id":"4","last_reported":1731492593,"current_range_meters":20800,"station_id":"ce4bhmp2rcd13ifvqgog","pricing_plan_id":"cebpf4jnsgd1na2vs0mg"},{"bike_id":"eadf46af-3f77-4e81-bff6-5e85cb36226a","system_id":"levelo_inurba_marseille","lat":43.28419,"lon":5.37508,"is_reserved":false,"is_disabled":false,"rental_uris":{"android":"levelo://app?vid=eadf46af-3f77-4e81-bff6-5e85cb36226a","ios":"levelo://app?vid=eadf46af-3f77-4e81-bff6-5e85cb36226a"},"vehicle_type_id":"4","last_reported":1731492593,"current_range_meters":24000,"station_id":"ce4bh412rcd13ifvqds0","pricing_plan_id":"cebpf4jnsgd1na2vs0mg"},{"bike_id":"f2ff6cb7-9c75-4268-983c-1e09bc9ab498","system_id":"levelo_inurba_marseille","lat":43.337444,"lon":5.374475,"is_reserved":false,"is_disabled":false,"rental_uris":{"android":"levelo://app?vid=f2ff6cb7-9c75-4268-983c-1e09bc9ab498","ios":"levelo://app?vid=f2ff6cb7-9c75-4268-983c-1e09bc9ab498"},"vehicle_type_id":"4","last_reported":1731492593,"current_range_meters":38000,"station_id":"","pricing_plan_id":"cebpf4jnsgd1na2vs0mg"},{"bike_id":"5945b09f-8735-4358-ad3e-01166b87c0b9","system_id":"levelo_inurba_marseille","lat":43.30598,"lon":5.37222,"is_reserved":false,"is_disabled":false,"rental_uris":{"android":"levelo://app?vid=5945b09f-8735-4358-ad3e-01166b87c0b9","ios":"levelo://app?vid=5945b09f-8735-4358-ad3e-01166b87c0b9"},"vehicle_type_id":"4","last_reported":1731492593,"current_range_meters":30400,"station_id":"ce4bgqh2rcd13ifvqc4g","pricing_plan_id":"cebpf4jnsgd1na2vs0mg"},{"bike_id":"61e08f5d-03e3-49a3-8cc1-22b61066cd06","system_id":"levelo_inurba_marseille","lat":43.29893,"lon":5.37472,"is_reserved":false,"is_disabled":false,"rental_uris":{"android":"levelo://app?vid=61e08f5d-03e3-49a3-8cc1-22b61066cd06","ios":"levelo://app?vid=61e08f5d-03e3-49a3-8cc1-22b61066cd06"},"vehicle_type_id":"4","last_reported":1731492593,"current_range_meters":40000,"station_id":"ce4bgjh2rcd13ifvqbg0","pricing_plan_id":"cebpf4jnsgd1na2vs0mg"},{"bike_id":"a1dcc4f6-dce8-4425-b084-7b55073d3773","system_id":"levelo_inurba_marseille","lat":43.27992,"lon":5.40012,"is_reserved":false,"is_disabled":false,"rental_uris":{"android":"levelo://app?vid=a1dcc4f6-dce8-4425-b084-7b55073d3773","ios":"levelo://app?vid=a1dcc4f6-dce8-4425-b084-7b55073d3773"},"vehicle_type_id":"4","last_reported":1731492593,"current_range_meters":32000,"station_id":"ce4bho92rcd13ifvqh4g","pricing_plan_id":"cebpf4jnsgd1na2vs0mg"},{"bike_id":"d2111ce7-fd97-4b4a-a88d-36160ab4cec8","system_id":"levelo_inurba_marseille","lat":43.24181,"lon":5.39722,"is_reserved":false,"is_disabled":false,"rental_uris":{"android":"levelo://app?vid=d2111ce7-fd97-4b4a-a88d-36160ab4cec8","ios":"levelo://app?vid=d2111ce7-fd97-4b4a-a88d-36160ab4cec8"},"vehicle_type_id":"4","last_reported":1731492593,"current_range_meters":7200,"station_id":"ce4bhn12rcd13ifvqgpg","pricing_plan_id":"cebpf4jnsgd1na2vs0mg"},{"bike_id":"d0a54c60-cc2f-416d-852e-dd02c26079cd","system_id":"levelo_inurba_marseille","lat":43.29276,"lon":5.40123,"is_reserved":false,"is_disabled":false,"rental_uris":{"android":"levelo://app?vid=d0a54c60-cc2f-416d-852e-dd02c26079cd","ios":"levelo://app?vid=d0a54c60-cc2f-416d-852e-dd02c26079cd"},"vehicle_type_id":"4","last_reported":1731492593,"current_range_meters":36000,"station_id":"ce4bh312rcd13ifvqdk0","pricing_plan_id":"cebpf4jnsgd1na2vs0mg"},{"bike_id":"58e12413-d879-4dff-a084-333be006c499","system_id":"levelo_inurba_marseille","lat":43.29551,"lon":5.4228,"is_reserved":false,"is_disabled":false,"rental_uris":{"android":"levelo://app?vid=58e12413-d879-4dff-a084-333be006c499","ios":"levelo://app?vid=58e12413-d879-4dff-a084-333be006c499"},"vehicle_type_id":"4","last_reported":1731492593,"current_range_meters":30800,"station_id":"ce4bhph2rcd13ifvqhdg","pricing_plan_id":"cebpf4jnsgd1na2vs0mg"},{"bike_id":"9464cabe-ffd1-4f33-a419-0ed6cea36eb1","system_id":"levelo_inurba_marseille","lat":43.29283,"lon":5.4011,"is_reserved":false,"is_disabled":false,"rental_uris":{"android":"levelo://app?vid=9464cabe-ffd1-4f33-a419-0ed6cea36eb1","ios":"levelo://app?vid=9464cabe-ffd1-4f33-a419-0ed6cea36eb1"},"vehicle_type_id":"4","last_reported":1731492593,"current_range_meters":37600,"station_id":"ce4bh312rcd13ifvqdk0","pricing_plan_id":"cebpf4jnsgd1na2vs0mg"},{"bike_id":"f1bbdc17-5b02-4493-a9aa-74503dc6fc94","system_id":"levelo_inurba_marseille","lat":43.27947,"lon":5.41038,"is_reserved":false,"is_disabled":false,"rental_uris":{"android":"levelo://app?vid=f1bbdc17-5b02-4493-a9aa-74503dc6fc94","ios":"levelo://app?vid=f1bbdc17-5b02-4493-a9aa-74503dc6fc94"},"vehicle_type_id":"4","last_reported":1731492593,"current_range_meters":22400,"station_id":"ce4bhnp2rcd13ifvqh0g","pricing_plan_id":"cebpf4jnsgd1na2vs0mg"},{"bike_id":"c74b7fa1-052a-4c82-8174-53f493f86a15","system_id":"levelo_inurba_marseille","lat":43.30905,"lon":5.36836,"is_reserved":false,"is_disabled":false,"rental_uris":{"android":"levelo://app?vid=c74b7fa1-052a-4c82-8174-53f493f86a15","ios":"levelo://app?vid=c74b7fa1-052a-4c82-8174-53f493f86a15"},"vehicle_type_id":"4","last_reported":1731492593,"current_range_meters":38800,"station_id":"ce4bgn92rcd13ifvqbvg","pricing_plan_id":"cebpf4jnsgd1na2vs0mg"},{"bike_id":"1d53b08f-03fc-4409-905c-9b32b02dae5b","system_id":"levelo_inurba_marseille","lat":43.24072,"lon":5.3776,"is_reserved":false,"is_disabled":false,"rental_uris":{"android":"levelo://app?vid=1d53b08f-03fc-4409-905c-9b32b02dae5b","ios":"levelo://app?vid=1d53b08f-03fc-4409-905c-9b32b02dae5b"},"vehicle_type_id":"4","last_reported":1731492593,"current_range_meters":26800,"station_id":"ce4bhnp2rcd13ifvqgvg","pricing_plan_id":"cebpf4jnsgd1na2vs0mg"},{"bike_id":"e0a67f7d-55a2-4077-8e38-2b77ae2818ab","system_id":"levelo_inurba_marseille","lat":43.29169,"lon":5.37161,"is_reserved":false,"is_disabled":false,"rental_uris":{"android":"levelo://app?vid=e0a67f7d-55a2-4077-8e38-2b77ae2818ab","ios":"levelo://app?vid=e0a67f7d-55a2-4077-8e38-2b77ae2818ab"},"vehicle_type_id":"4","last_reported":1731492593,"current_range_meters":20400,"station_id":"ce4bha92rcd13ifvqeh0","pricing_plan_id":"cebpf4jnsgd1na2vs0mg"},{"bike_id":"be70f28d-93f0-416d-82e0-c2cd2f1ffa5c","system_id":"levelo_inurba_marseille","lat":43.30914,"lon":5.36849,"is_reserved":false,"is_disabled":false,"rental_uris":{"android":"levelo://app?vid=be70f28d-93f0-416d-82e0-c2cd2f1ffa5c","ios":"levelo://app?vid=be70f28d-93f0-416d-82e0-c2cd2f1ffa5c"},"vehicle_type_id":"4","last_reported":1731492593,"current_range_meters":38800,"station_id":"ce4bgn92rcd13ifvqbvg","pricing_plan_id":"cebpf4jnsgd1na2vs0mg"},{"bike_id":"6a74bd13-2f0d-4293-a500-24db67983d5b","system_id":"levelo_inurba_marseille","lat":43.23067,"lon":5.35493,"is_reserved":false,"is_disabled":false,"rental_uris":{"android":"levelo://app?vid=6a74bd13-2f0d-4293-a500-24db67983d5b","ios":"levelo://app?vid=6a74bd13-2f0d-4293-a500-24db67983d5b"},"vehicle_type_id":"4","last_reported":1731492593,"current_range_meters":37600,"station_id":"cpo3342slgdg3j2ifvpg","pricing_plan_id":"cebpf4jnsgd1na2vs0mg"},{"bike_id":"2a9209c0-cbb3-4d4c-82eb-16fa9c2e0322","system_id":"levelo_inurba_marseille","lat":43.2418,"lon":5.39733,"is_reserved":false,"is_disabled":false,"rental_uris":{"android":"levelo://app?vid=2a9209c0-cbb3-4d4c-82eb-16fa9c2e0322","ios":"levelo://app?vid=2a9209c0-cbb3-4d4c-82eb-16fa9c2e0322"},"vehicle_type_id":"4","last_reported":1731492593,"current_range_meters":36000,"station_id":"ce4bhn12rcd13ifvqgpg","pricing_plan_id":"cebpf4jnsgd1na2vs0mg"},{"bike_id":"a2ace688-d0a6-43f5-a9fd-af80a98512ab","system_id":"levelo_inurba_marseille","lat":43.246643,"lon":5.38163,"is_reserved":false,"is_disabled":false,"rental_uris":{"android":"levelo://app?vid=a2ace688-d0a6-43f5-a9fd-af80a98512ab","ios":"levelo://app?vid=a2ace688-d0a6-43f5-a9fd-af80a98512ab"},"vehicle_type_id":"4","last_reported":1731492593,"current_range_meters":8400,"station_id":"ce4bhih2rcd13ifvqfr0","pricing_plan_id":"cebpf4jnsgd1na2vs0mg"},{"bike_id":"ddf51a43-0fff-4948-ad10-6f7a6747dc95","system_id":"levelo_inurba_marseille","lat":43.26939,"lon":5.40249,"is_reserved":false,"is_disabled":false,"rental_uris":{"android":"levelo://app?vid=ddf51a43-0fff-4948-ad10-6f7a6747dc95","ios":"levelo://app?vid=ddf51a43-0fff-4948-ad10-6f7a6747dc95"},"vehicle_type_id":"4","last_reported":1731492593,"current_range_meters":20400,"station_id":"cjm6bp8fraef2m0cb0m0","pricing_plan_id":"cebpf4jnsgd1na2vs0mg"},{"bike_id":"bf94e288-257a-425c-8cac-6aa3c06a4541","system_id":"levelo_inurba_marseille","lat":43.29367,"lon":5.37858,"is_reserved":false,"is_disabled":false,"rental_uris":{"android":"levelo://app?vid=bf94e288-257a-425c-8cac-6aa3c06a4541","ios":"levelo://app?vid=bf94e288-257a-425c-8cac-6aa3c06a4541"},"vehicle_type_id":"4","last_reported":1731492593,"current_range_meters":30400,"station_id":"ce4bgjh2rcd13ifvqbf0","pricing_plan_id":"cebpf4jnsgd1na2vs0mg"},{"bike_id":"36d53520-c7e3-464c-b836-eecedd4879f9","system_id":"levelo_inurba_marseille","lat":43.29552,"lon":5.42286,"is_reserved":false,"is_disabled":false,"rental_uris":{"android":"levelo://app?vid=36d53520-c7e3-464c-b836-eecedd4879f9","ios":"levelo://app?vid=36d53520-c7e3-464c-b836-eecedd4879f9"},"vehicle_type_id":"4","last_reported":1731492593,"current_range_meters":24400,"station_id":"ce4bhph2rcd13ifvqhdg","pricing_plan_id":"cebpf4jnsgd1na2vs0mg"},{"bike_id":"591523be-2f12-4a7f-b680-93790f1e72f3","system_id":"levelo_inurba_marseille","lat":43.24997,"lon":5.38935,"is_reserved":false,"is_disabled":false,"rental_uris":{"android":"levelo://app?vid=591523be-2f12-4a7f-b680-93790f1e72f3","ios":"levelo://app?vid=591523be-2f12-4a7f-b680-93790f1e72f3"},"vehicle_type_id":"4","last_reported":1731492593,"current_range_meters":17600,"station_id":"ce4bhgp2rcd13ifvqfd0","pricing_plan_id":"cebpf4jnsgd1na2vs0mg"},{"bike_id":"a2a546f0-e8f6-4604-a35c-bdf7b4d3ebe5","system_id":"levelo_inurba_marseille","lat":43.3237,"lon":5.38888,"is_reserved":false,"is_disabled":false,"rental_uris":{"android":"levelo://app?vid=a2a546f0-e8f6-4604-a35c-bdf7b4d3ebe5","ios":"levelo://app?vid=a2a546f0-e8f6-4604-a35c-bdf7b4d3ebe5"},"vehicle_type_id":"4","last_reported":1731492593,"current_range_meters":6000,"station_id":"ce4bhqp2rcd13ifvqhog","pricing_plan_id":"cebpf4jnsgd1na2vs0mg"},{"bike_id":"94454204-5439-4830-ad1d-f486e5010c0f","system_id":"levelo_inurba_marseille","lat":43.30927,"lon":5.40141,"is_reserved":false,"is_disabled":false,"rental_uris":{"android":"levelo://app?vid=94454204-5439-4830-ad1d-f486e5010c0f","ios":"levelo://app?vid=94454204-5439-4830-ad1d-f486e5010c0f"},"vehicle_type_id":"4","last_reported":1731492593,"current_range_meters":12400,"station_id":"ce4bh012rcd13ifvqcv0","pricing_plan_id":"cebpf4jnsgd1na2vs0mg"},{"bike_id":"ca5bf09b-bbba-4ca3-9975-4e32e3707885","system_id":"levelo_inurba_marseille","lat":43.28724,"lon":5.37931,"is_reserved":false,"is_disabled":false,"rental_uris":{"android":"levelo://app?vid=ca5bf09b-bbba-4ca3-9975-4e32e3707885","ios":"levelo://app?vid=ca5bf09b-bbba-4ca3-9975-4e32e3707885"},"vehicle_type_id":"4","last_reported":1731492593,"current_range_meters":18000,"station_id":"ce4bh9p2rcd13ifvqec0","pricing_plan_id":"cebpf4jnsgd1na2vs0mg"},{"bike_id":"9d21ff4a-d516-4d71-a226-ead22ace12fd","system_id":"levelo_inurba_marseille","lat":43.25934,"lon":5.4091,"is_reserved":false,"is_disabled":false,"rental_uris":{"android":"levelo://app?vid=9d21ff4a-d516-4d71-a226-ead22ace12fd","ios":"levelo://app?vid=9d21ff4a-d516-4d71-a226-ead22ace12fd"},"vehicle_type_id":"4","last_reported":1731492593,"current_range_meters":18800,"station_id":"ce4bhm92rcd13ifvqglg","pricing_plan_id":"cebpf4jnsgd1na2vs0mg"},{"bike_id":"c616ab5c-1a4a-4305-969d-018947353a15","system_id":"levelo_inurba_marseille","lat":43.29677,"lon":5.37288,"is_reserved":false,"is_disabled":false,"rental_uris":{"android":"levelo://app?vid=c616ab5c-1a4a-4305-969d-018947353a15","ios":"levelo://app?vid=c616ab5c-1a4a-4305-969d-018947353a15"},"vehicle_type_id":"4","last_reported":1731492593,"current_range_meters":28400,"station_id":"ce4bgk12rcd13ifvqbj0","pricing_plan_id":"cebpf4jnsgd1na2vs0mg"},{"bike_id":"42a6c885-dc66-451c-bda3-dbb11de09815","system_id":"levelo_inurba_marseille","lat":43.2957,"lon":5.38567,"is_reserved":false,"is_disabled":false,"rental_uris":{"android":"levelo://app?vid=42a6c885-dc66-451c-bda3-dbb11de09815","ios":"levelo://app?vid=42a6c885-dc66-451c-bda3-dbb11de09815"},"vehicle_type_id":"4","last_reported":1731492593,"current_range_meters":16000,"station_id":"ce4bgih2rcd13ifvqba0","pricing_plan_id":"cebpf4jnsgd1na2vs0mg"},{"bike_id":"ecb7c274-90d0-4e95-92a1-62c481d46dcf","system_id":"levelo_inurba_marseille","lat":43.30535,"lon":5.3654,"is_reserved":false,"is_disabled":false,"rental_uris":{"android":"levelo://app?vid=ecb7c274-90d0-4e95-92a1-62c481d46dcf","ios":"levelo://app?vid=ecb7c274-90d0-4e95-92a1-62c481d46dcf"},"vehicle_type_id":"4","last_reported":1731492593,"current_range_meters":22800,"station_id":"ce4bgs12rcd13ifvqcag","pricing_plan_id":"cebpf4jnsgd1na2vs0mg"},{"bike_id":"640ae65e-92b4-44d5-b4f2-7e200c24aeaa","system_id":"levelo_inurba_marseille","lat":43.34148,"lon":5.40904,"is_reserved":false,"is_disabled":false,"rental_uris":{"android":"levelo://app?vid=640ae65e-92b4-44d5-b4f2-7e200c24aeaa","ios":"levelo://app?vid=640ae65e-92b4-44d5-b4f2-7e200c24aeaa"},"vehicle_type_id":"4","last_reported":1731492593,"current_range_meters":19200,"station_id":"ce4bhqh2rcd13ifvqhlg","pricing_plan_id":"cebpf4jnsgd1na2vs0mg"},{"bike_id":"151f9e6e-f9d5-40f4-8bbf-706fc2119638","system_id":"levelo_inurba_marseille","lat":43.30543,"lon":5.36531,"is_reserved":false,"is_disabled":false,"rental_uris":{"android":"levelo://app?vid=151f9e6e-f9d5-40f4-8bbf-706fc2119638","ios":"levelo://app?vid=151f9e6e-f9d5-40f4-8bbf-706fc2119638"},"vehicle_type_id":"4","last_reported":1731492593,"current_range_meters":28800,"station_id":"ce4bgs12rcd13ifvqcag","pricing_plan_id":"cebpf4jnsgd1na2vs0mg"},{"bike_id":"8cf4a93e-f938-4a5d-ac5b-8d91399ff9ff","system_id":"levelo_inurba_marseille","lat":43.28709,"lon":5.37392,"is_reserved":false,"is_disabled":false,"rental_uris":{"android":"levelo://app?vid=8cf4a93e-f938-4a5d-ac5b-8d91399ff9ff","ios":"levelo://app?vid=8cf4a93e-f938-4a5d-ac5b-8d91399ff9ff"},"vehicle_type_id":"4","last_reported":1731492593,"current_range_meters":30000,"station_id":"ce4bh3p2rcd13ifvqdq0","pricing_plan_id":"cebpf4jnsgd1na2vs0mg"},{"bike_id":"12129a0c-4f6f-42af-a776-73cbefd3c038","system_id":"levelo_inurba_marseille","lat":43.27999,"lon":5.41666,"is_reserved":false,"is_disabled":false,"rental_uris":{"android":"levelo://app?vid=12129a0c-4f6f-42af-a776-73cbefd3c038","ios":"levelo://app?vid=12129a0c-4f6f-42af-a776-73cbefd3c038"},"vehicle_type_id":"4","last_reported":1731492593,"current_range_meters":20000,"station_id":"ce4bho12rcd13ifvqh1g","pricing_plan_id":"cebpf4jnsgd1na2vs0mg"},{"bike_id":"88bda773-8a20-4b04-9a4d-d765138497c4","system_id":"levelo_inurba_marseille","lat":43.30137,"lon":5.37415,"is_reserved":false,"is_disabled":false,"rental_uris":{"android":"levelo://app?vid=88bda773-8a20-4b04-9a4d-d765138497c4","ios":"levelo://app?vid=88bda773-8a20-4b04-9a4d-d765138497c4"},"vehicle_type_id":"4","last_reported":1731492593,"current_range_meters":27600,"station_id":"ce4bgs92rcd13ifvqcc0","pricing_plan_id":"cebpf4jnsgd1na2vs0mg"},{"bike_id":"9cfaa917-376e-48a7-b381-44c954a78f4c","system_id":"levelo_inurba_marseille","lat":43.30411,"lon":5.41294,"is_reserved":false,"is_disabled":false,"rental_uris":{"android":"levelo://app?vid=9cfaa917-376e-48a7-b381-44c954a78f4c","ios":"levelo://app?vid=9cfaa917-376e-48a7-b381-44c954a78f4c"},"vehicle_type_id":"4","last_reported":1731492593,"current_range_meters":29600,"station_id":"ce4bhop2rcd13ifvqh8g","pricing_plan_id":"cebpf4jnsgd1na2vs0mg"},{"bike_id":"42ca7792-2925-42d4-a779-724a29fe96b8","system_id":"levelo_inurba_marseille","lat":43.24079,"lon":5.37731,"is_reserved":false,"is_disabled":false,"rental_uris":{"android":"levelo://app?vid=42ca7792-2925-42d4-a779-724a29fe96b8","ios":"levelo://app?vid=42ca7792-2925-42d4-a779-724a29fe96b8"},"vehicle_type_id":"4","last_reported":1731492593,"current_range_meters":8400,"station_id":"ce4bhnp2rcd13ifvqgvg","pricing_plan_id":"cebpf4jnsgd1na2vs0mg"},{"bike_id":"6aeb9493-3e45-4b73-bd98-8290aff2b3eb","system_id":"levelo_inurba_marseille","lat":43.28679,"lon":5.38111,"is_reserved":false,"is_disabled":false,"rental_uris":{"android":"levelo://app?vid=6aeb9493-3e45-4b73-bd98-8290aff2b3eb","ios":"levelo://app?vid=6aeb9493-3e45-4b73-bd98-8290aff2b3eb"},"vehicle_type_id":"4","last_reported":1731492593,"current_range_meters":16400,"station_id":"ce4bgup2rcd13ifvqco0","pricing_plan_id":"cebpf4jnsgd1na2vs0mg"},{"bike_id":"7668f886-0fd0-47cd-951e-1b1f646fc483","system_id":"levelo_inurba_marseille","lat":43.28,"lon":5.40012,"is_reserved":false,"is_disabled":false,"rental_uris":{"android":"levelo://app?vid=7668f886-0fd0-47cd-951e-1b1f646fc483","ios":"levelo://app?vid=7668f886-0fd0-47cd-951e-1b1f646fc483"},"vehicle_type_id":"4","last_reported":1731492593,"current_range_meters":39200,"station_id":"ce4bho92rcd13ifvqh4g","pricing_plan_id":"cebpf4jnsgd1na2vs0mg"},{"bike_id":"afe30839-fc49-4bd4-9fcd-96fb31fa1164","system_id":"levelo_inurba_marseille","lat":43.30277,"lon":5.37703,"is_reserved":false,"is_disabled":false,"rental_uris":{"android":"levelo://app?vid=afe30839-fc49-4bd4-9fcd-96fb31fa1164","ios":"levelo://app?vid=afe30839-fc49-4bd4-9fcd-96fb31fa1164"},"vehicle_type_id":"4","last_reported":1731492593,"current_range_meters":23200,"station_id":"ce4bguh2rcd13ifvqcj0","pricing_plan_id":"cebpf4jnsgd1na2vs0mg"},{"bike_id":"a6bbcb03-4306-47b1-a034-6214825afd1f","system_id":"levelo_inurba_marseille","lat":43.30539,"lon":5.36699,"is_reserved":false,"is_disabled":false,"rental_uris":{"android":"levelo://app?vid=a6bbcb03-4306-47b1-a034-6214825afd1f","ios":"levelo://app?vid=a6bbcb03-4306-47b1-a034-6214825afd1f"},"vehicle_type_id":"4","last_reported":1731492593,"current_range_meters":36400,"station_id":"ce4bgrp2rcd13ifvqc9g","pricing_plan_id":"cebpf4jnsgd1na2vs0mg"},{"bike_id":"cc38496c-b77f-4a1a-9fc6-7b6355127098","system_id":"levelo_inurba_marseille","lat":43.25117,"lon":5.4032,"is_reserved":false,"is_disabled":false,"rental_uris":{"android":"levelo://app?vid=cc38496c-b77f-4a1a-9fc6-7b6355127098","ios":"levelo://app?vid=cc38496c-b77f-4a1a-9fc6-7b6355127098"},"vehicle_type_id":"4","last_reported":1731492593,"current_range_meters":36800,"station_id":"ce4bhlh2rcd13ifvqgig","pricing_plan_id":"cebpf4jnsgd1na2vs0mg"},{"bike_id":"d3a610b7-7dc3-4e62-9c28-f1ddecf65c12","system_id":"levelo_inurba_marseille","lat":43.29505,"lon":5.39038,"is_reserved":false,"is_disabled":false,"rental_uris":{"android":"levelo://app?vid=d3a610b7-7dc3-4e62-9c28-f1ddecf65c12","ios":"levelo://app?vid=d3a610b7-7dc3-4e62-9c28-f1ddecf65c12"},"vehicle_type_id":"4","last_reported":1731492593,"current_range_meters":30400,"station_id":"ce4bh3p2rcd13ifvqdp0","pricing_plan_id":"cebpf4jnsgd1na2vs0mg"},{"bike_id":"7e67afd6-6a4f-4229-a8f4-a382b0b7cdb1","system_id":"levelo_inurba_marseille","lat":43.30957,"lon":5.39032,"is_reserved":false,"is_disabled":false,"rental_uris":{"android":"levelo://app?vid=7e67afd6-6a4f-4229-a8f4-a382b0b7cdb1","ios":"levelo://app?vid=7e67afd6-6a4f-4229-a8f4-a382b0b7cdb1"},"vehicle_type_id":"4","last_reported":1731492593,"current_range_meters":10800,"station_id":"ce4bgup2rcd13ifvqco0","pricing_plan_id":"cebpf4jnsgd1na2vs0mg"},{"bike_id":"ef64163f-5bc1-4988-9c95-855e4b6b89df","system_id":"levelo_inurba_marseille","lat":43.29575,"lon":5.37498,"is_reserved":false,"is_disabled":false,"rental_uris":{"android":"levelo://app?vid=ef64163f-5bc1-4988-9c95-855e4b6b89df","ios":"levelo://app?vid=ef64163f-5bc1-4988-9c95-855e4b6b89df"},"vehicle_type_id":"4","last_reported":1731492593,"current_range_meters":29600,"station_id":"ce4bgh92rcd13ifvqb50","pricing_plan_id":"cebpf4jnsgd1na2vs0mg"},{"bike_id":"d944b9cc-f4b7-43b0-90b9-d6547e39c362","system_id":"levelo_inurba_marseille","lat":43.23149,"lon":5.43721,"is_reserved":false,"is_disabled":false,"rental_uris":{"android":"levelo://app?vid=d944b9cc-f4b7-43b0-90b9-d6547e39c362","ios":"levelo://app?vid=d944b9cc-f4b7-43b0-90b9-d6547e39c362"},"vehicle_type_id":"4","last_reported":1731492593,"current_range_meters":30800,"station_id":"ce4bhmp2rcd13ifvqgog","pricing_plan_id":"cebpf4jnsgd1na2vs0mg"},{"bike_id":"2c3259f6-ceef-45be-96b5-228e6aa038d6","system_id":"levelo_inurba_marseille","lat":43.27814,"lon":5.40712,"is_reserved":false,"is_disabled":false,"rental_uris":{"android":"levelo://app?vid=2c3259f6-ceef-45be-96b5-228e6aa038d6","ios":"levelo://app?vid=2c3259f6-ceef-45be-96b5-228e6aa038d6"},"vehicle_type_id":"4","last_reported":1731492593,"current_range_meters":34800,"station_id":"ce4bhnh2rcd13ifvqgtg","pricing_plan_id":"cebpf4jnsgd1na2vs0mg"},{"bike_id":"03881d49-3843-4e18-8d1d-0ab4f0d9eb05","system_id":"levelo_inurba_marseille","lat":43.30146,"lon":5.37417,"is_reserved":false,"is_disabled":false,"rental_uris":{"android":"levelo://app?vid=03881d49-3843-4e18-8d1d-0ab4f0d9eb05","ios":"levelo://app?vid=03881d49-3843-4e18-8d1d-0ab4f0d9eb05"},"vehicle_type_id":"4","last_reported":1731492593,"current_range_meters":10800,"station_id":"ce4bgs92rcd13ifvqcc0","pricing_plan_id":"cebpf4jnsgd1na2vs0mg"},{"bike_id":"888d78ec-114f-4c17-9c14-c82bca33a261","system_id":"levelo_inurba_marseille","lat":43.30599,"lon":5.37219,"is_reserved":false,"is_disabled":false,"rental_uris":{"android":"levelo://app?vid=888d78ec-114f-4c17-9c14-c82bca33a261","ios":"levelo://app?vid=888d78ec-114f-4c17-9c14-c82bca33a261"},"vehicle_type_id":"4","last_reported":1731492593,"current_range_meters":39200,"station_id":"ce4bgqh2rcd13ifvqc4g","pricing_plan_id":"cebpf4jnsgd1na2vs0mg"},{"bike_id":"f6fd65a2-7641-46a9-bf44-a1f1cd152375","system_id":"levelo_inurba_marseille","lat":43.23154,"lon":5.43721,"is_reserved":false,"is_disabled":false,"rental_uris":{"android":"levelo://app?vid=f6fd65a2-7641-46a9-bf44-a1f1cd152375","ios":"levelo://app?vid=f6fd65a2-7641-46a9-bf44-a1f1cd152375"},"vehicle_type_id":"4","last_reported":1731492593,"current_range_meters":33600,"station_id":"ce4bhmp2rcd13ifvqgog","pricing_plan_id":"cebpf4jnsgd1na2vs0mg"},{"bike_id":"5427ec44-65b5-4156-9be1-ec87130aec0f","system_id":"levelo_inurba_marseille","lat":43.33754,"lon":5.37442,"is_reserved":false,"is_disabled":false,"rental_uris":{"android":"levelo://app?vid=5427ec44-65b5-4156-9be1-ec87130aec0f","ios":"levelo://app?vid=5427ec44-65b5-4156-9be1-ec87130aec0f"},"vehicle_type_id":"4","last_reported":1731492593,"current_range_meters":25200,"station_id":"","pricing_plan_id":"cebpf4jnsgd1na2vs0mg"},{"bike_id":"c0334e7b-18df-4c0c-b5a9-c85ddfd78152","system_id":"levelo_inurba_marseille","lat":43.30912,"lon":5.36856,"is_reserved":false,"is_disabled":false,"rental_uris":{"android":"levelo://app?vid=c0334e7b-18df-4c0c-b5a9-c85ddfd78152","ios":"levelo://app?vid=c0334e7b-18df-4c0c-b5a9-c85ddfd78152"},"vehicle_type_id":"4","last_reported":1731492593,"current_range_meters":36000,"station_id":"ce4bgn92rcd13ifvqbvg","pricing_plan_id":"cebpf4jnsgd1na2vs0mg"},{"bike_id":"082e9e38-ed1e-4cc1-a3df-a88469374fe0","system_id":"levelo_inurba_marseille","lat":43.312333,"lon":5.368357,"is_reserved":false,"is_disabled":false,"rental_uris":{"android":"levelo://app?vid=082e9e38-ed1e-4cc1-a3df-a88469374fe0","ios":"levelo://app?vid=082e9e38-ed1e-4cc1-a3df-a88469374fe0"},"vehicle_type_id":"4","last_reported":1731492593,"current_range_meters":24400,"station_id":"ce4bgl92rcd13ifvqbq0","pricing_plan_id":"cebpf4jnsgd1na2vs0mg"},{"bike_id":"876741b3-360a-4ea8-a072-e61ecc49f8fa","system_id":"levelo_inurba_marseille","lat":43.29196,"lon":5.35808,"is_reserved":false,"is_disabled":false,"rental_uris":{"android":"levelo://app?vid=876741b3-360a-4ea8-a072-e61ecc49f8fa","ios":"levelo://app?vid=876741b3-360a-4ea8-a072-e61ecc49f8fa"},"vehicle_type_id":"4","last_reported":1731492593,"current_range_meters":11200,"station_id":"ce4bhb12rcd13ifvqel0","pricing_plan_id":"cebpf4jnsgd1na2vs0mg"},{"bike_id":"bf5aaa73-f7c4-4dec-b371-6b64c740a432","system_id":"levelo_inurba_marseille","lat":43.30285,"lon":5.37698,"is_reserved":false,"is_disabled":false,"rental_uris":{"android":"levelo://app?vid=bf5aaa73-f7c4-4dec-b371-6b64c740a432","ios":"levelo://app?vid=bf5aaa73-f7c4-4dec-b371-6b64c740a432"},"vehicle_type_id":"4","last_reported":1731492593,"current_range_meters":30000,"station_id":"ce4bguh2rcd13ifvqcj0","pricing_plan_id":"cebpf4jnsgd1na2vs0mg"},{"bike_id":"7c705f1c-ff65-4114-a279-65a36a25ead3","system_id":"levelo_inurba_marseille","lat":43.32661,"lon":5.40986,"is_reserved":false,"is_disabled":false,"rental_uris":{"android":"levelo://app?vid=7c705f1c-ff65-4114-a279-65a36a25ead3","ios":"levelo://app?vid=7c705f1c-ff65-4114-a279-65a36a25ead3"},"vehicle_type_id":"4","last_reported":1731492593,"current_range_meters":30000,"station_id":"ce4bhpp2rcd13ifvqhgg","pricing_plan_id":"cebpf4jnsgd1na2vs0mg"},{"bike_id":"e96a31e5-ea53-4f5a-a60f-2d835756685c","system_id":"levelo_inurba_marseille","lat":43.30553,"lon":5.36532,"is_reserved":false,"is_disabled":false,"rental_uris":{"android":"levelo://app?vid=e96a31e5-ea53-4f5a-a60f-2d835756685c","ios":"levelo://app?vid=e96a31e5-ea53-4f5a-a60f-2d835756685c"},"vehicle_type_id":"4","last_reported":1731492593,"current_range_meters":36800,"station_id":"ce4bgs12rcd13ifvqcag","pricing_plan_id":"cebpf4jnsgd1na2vs0mg"},{"bike_id":"f21f2ec8-1191-425e-bd45-2a5bc0dad75e","system_id":"levelo_inurba_marseille","lat":43.30143,"lon":5.38087,"is_reserved":false,"is_disabled":false,"rental_uris":{"android":"levelo://app?vid=f21f2ec8-1191-425e-bd45-2a5bc0dad75e","ios":"levelo://app?vid=f21f2ec8-1191-425e-bd45-2a5bc0dad75e"},"vehicle_type_id":"4","last_reported":1731492593,"current_range_meters":33600,"station_id":"ce4bgjp2rcd13ifvqbh0","pricing_plan_id":"cebpf4jnsgd1na2vs0mg"},{"bike_id":"a249744d-84d4-4fa8-a6cb-4941aaf23288","system_id":"levelo_inurba_marseille","lat":43.24549,"lon":5.39524,"is_reserved":false,"is_disabled":false,"rental_uris":{"android":"levelo://app?vid=a249744d-84d4-4fa8-a6cb-4941aaf23288","ios":"levelo://app?vid=a249744d-84d4-4fa8-a6cb-4941aaf23288"},"vehicle_type_id":"4","last_reported":1731492593,"current_range_meters":38800,"station_id":"ce4bhlp2rcd13ifvqgjg","pricing_plan_id":"cebpf4jnsgd1na2vs0mg"},{"bike_id":"5dfed2c3-25d3-4c9a-bf8e-389efd00bf69","system_id":"levelo_inurba_marseille","lat":43.29705,"lon":5.37696,"is_reserved":false,"is_disabled":false,"rental_uris":{"android":"levelo://app?vid=5dfed2c3-25d3-4c9a-bf8e-389efd00bf69","ios":"levelo://app?vid=5dfed2c3-25d3-4c9a-bf8e-389efd00bf69"},"vehicle_type_id":"4","last_reported":1731492593,"current_range_meters":24400,"station_id":"ce4bgkh2rcd13ifvqbl0","pricing_plan_id":"cebpf4jnsgd1na2vs0mg"},{"bike_id":"f56ff641-dcdc-4be0-8bb0-c2e77410c782","system_id":"levelo_inurba_marseille","lat":43.33611,"lon":5.41025,"is_reserved":false,"is_disabled":false,"rental_uris":{"android":"levelo://app?vid=f56ff641-dcdc-4be0-8bb0-c2e77410c782","ios":"levelo://app?vid=f56ff641-dcdc-4be0-8bb0-c2e77410c782"},"vehicle_type_id":"4","last_reported":1731492593,"current_range_meters":39200,"station_id":"ce4bhqh2rcd13ifvqhmg","pricing_plan_id":"cebpf4jnsgd1na2vs0mg"},{"bike_id":"c3c14c12-7734-406b-803f-dbe7a7fb811d","system_id":"levelo_inurba_marseille","lat":43.33601,"lon":5.41038,"is_reserved":false,"is_disabled":false,"rental_uris":{"android":"levelo://app?vid=c3c14c12-7734-406b-803f-dbe7a7fb811d","ios":"levelo://app?vid=c3c14c12-7734-406b-803f-dbe7a7fb811d"},"vehicle_type_id":"4","last_reported":1731492593,"current_range_meters":38400,"station_id":"ce4bhqh2rcd13ifvqhmg","pricing_plan_id":"cebpf4jnsgd1na2vs0mg"},{"bike_id":"9b452118-9baf-4509-918d-f235cbada501","system_id":"levelo_inurba_marseille","lat":43.30274,"lon":5.37702,"is_reserved":false,"is_disabled":false,"rental_uris":{"android":"levelo://app?vid=9b452118-9baf-4509-918d-f235cbada501","ios":"levelo://app?vid=9b452118-9baf-4509-918d-f235cbada501"},"vehicle_type_id":"4","last_reported":1731492593,"current_range_meters":32000,"station_id":"ce4bguh2rcd13ifvqcj0","pricing_plan_id":"cebpf4jnsgd1na2vs0mg"},{"bike_id":"f1c1b204-37f4-4ba9-98a7-964d60c31699","system_id":"levelo_inurba_marseille","lat":43.25583,"lon":5.38232,"is_reserved":false,"is_disabled":false,"rental_uris":{"android":"levelo://app?vid=f1c1b204-37f4-4ba9-98a7-964d60c31699","ios":"levelo://app?vid=f1c1b204-37f4-4ba9-98a7-964d60c31699"},"vehicle_type_id":"4","last_reported":1731492593,"current_range_meters":38800,"station_id":"ce4bhih2rcd13ifvqfs0","pricing_plan_id":"cebpf4jnsgd1na2vs0mg"},{"bike_id":"a756576d-533a-4a1b-bd7b-7449938a3907","system_id":"levelo_inurba_marseille","lat":43.31353,"lon":5.36723,"is_reserved":false,"is_disabled":false,"rental_uris":{"android":"levelo://app?vid=a756576d-533a-4a1b-bd7b-7449938a3907","ios":"levelo://app?vid=a756576d-533a-4a1b-bd7b-7449938a3907"},"vehicle_type_id":"4","last_reported":1731492593,"current_range_meters":12400,"station_id":"ce4bgr92rcd13ifvqc6g","pricing_plan_id":"cebpf4jnsgd1na2vs0mg"},{"bike_id":"32bff4c9-9e24-4055-bdf4-09829843cde3","system_id":"levelo_inurba_marseille","lat":43.2842,"lon":5.3499,"is_reserved":false,"is_disabled":false,"rental_uris":{"android":"levelo://app?vid=32bff4c9-9e24-4055-bdf4-09829843cde3","ios":"levelo://app?vid=32bff4c9-9e24-4055-bdf4-09829843cde3"},"vehicle_type_id":"4","last_reported":1731492593,"current_range_meters":38800,"station_id":"ce4bhbh2rcd13ifvqepg","pricing_plan_id":"cebpf4jnsgd1na2vs0mg"},{"bike_id":"23dfe045-71a1-4ae3-9fff-be2f70523c6f","system_id":"levelo_inurba_marseille","lat":43.30545,"lon":5.36541,"is_reserved":false,"is_disabled":false,"rental_uris":{"android":"levelo://app?vid=23dfe045-71a1-4ae3-9fff-be2f70523c6f","ios":"levelo://app?vid=23dfe045-71a1-4ae3-9fff-be2f70523c6f"},"vehicle_type_id":"4","last_reported":1731492593,"current_range_meters":26000,"station_id":"ce4bgs12rcd13ifvqcag","pricing_plan_id":"cebpf4jnsgd1na2vs0mg"},{"bike_id":"b9b9ca99-abc1-4d74-b34d-2422c7c3d10f","system_id":"levelo_inurba_marseille","lat":43.32361,"lon":5.36751,"is_reserved":false,"is_disabled":false,"rental_uris":{"android":"levelo://app?vid=b9b9ca99-abc1-4d74-b34d-2422c7c3d10f","ios":"levelo://app?vid=b9b9ca99-abc1-4d74-b34d-2422c7c3d10f"},"vehicle_type_id":"4","last_reported":1731492593,"current_range_meters":32400,"station_id":"ce4bhsh2rcd13ifvqi2g","pricing_plan_id":"cebpf4jnsgd1na2vs0mg"},{"bike_id":"743e7c75-73b3-4fab-9f7a-a3fc1face053","system_id":"levelo_inurba_marseille","lat":43.292755,"lon":5.368397,"is_reserved":false,"is_disabled":false,"rental_uris":{"android":"levelo://app?vid=743e7c75-73b3-4fab-9f7a-a3fc1face053","ios":"levelo://app?vid=743e7c75-73b3-4fab-9f7a-a3fc1face053"},"vehicle_type_id":"4","last_reported":1731492593,"current_range_meters":36800,"station_id":"ce4bhbp2rcd13ifvqesg","pricing_plan_id":"cebpf4jnsgd1na2vs0mg"},{"bike_id":"0413996d-d015-419b-a02e-79d36a76d236","system_id":"levelo_inurba_marseille","lat":43.28853,"lon":5.39294,"is_reserved":false,"is_disabled":false,"rental_uris":{"android":"levelo://app?vid=0413996d-d015-419b-a02e-79d36a76d236","ios":"levelo://app?vid=0413996d-d015-419b-a02e-79d36a76d236"},"vehicle_type_id":"4","last_reported":1731492593,"current_range_meters":28400,"station_id":"ce4bh2p2rcd13ifvqdi0","pricing_plan_id":"cebpf4jnsgd1na2vs0mg"},{"bike_id":"1b6aedf9-aa79-4e62-b4b6-0d4304a12219","system_id":"levelo_inurba_marseille","lat":43.312363,"lon":5.368607,"is_reserved":false,"is_disabled":false,"rental_uris":{"android":"levelo://app?vid=1b6aedf9-aa79-4e62-b4b6-0d4304a12219","ios":"levelo://app?vid=1b6aedf9-aa79-4e62-b4b6-0d4304a12219"},"vehicle_type_id":"4","last_reported":1731492593,"current_range_meters":17200,"station_id":"ce4bgl92rcd13ifvqbq0","pricing_plan_id":"cebpf4jnsgd1na2vs0mg"},{"bike_id":"3a607f35-6d4a-48da-89e5-3cc33ca013bb","system_id":"levelo_inurba_marseille","lat":43.24081,"lon":5.37739,"is_reserved":false,"is_disabled":false,"rental_uris":{"android":"levelo://app?vid=3a607f35-6d4a-48da-89e5-3cc33ca013bb","ios":"levelo://app?vid=3a607f35-6d4a-48da-89e5-3cc33ca013bb"},"vehicle_type_id":"4","last_reported":1731492593,"current_range_meters":38000,"station_id":"ce4bhnp2rcd13ifvqgvg","pricing_plan_id":"cebpf4jnsgd1na2vs0mg"},{"bike_id":"0abc7890-6052-4899-9333-58f0b9531924","system_id":"levelo_inurba_marseille","lat":43.28153,"lon":5.42638,"is_reserved":false,"is_disabled":false,"rental_uris":{"android":"levelo://app?vid=0abc7890-6052-4899-9333-58f0b9531924","ios":"levelo://app?vid=0abc7890-6052-4899-9333-58f0b9531924"},"vehicle_type_id":"4","last_reported":1731492593,"current_range_meters":8400,"station_id":"ce4bhnh2rcd13ifvqgug","pricing_plan_id":"cebpf4jnsgd1na2vs0mg"},{"bike_id":"857cf3b8-a499-4f71-a4af-951511031286","system_id":"levelo_inurba_marseille","lat":43.32485,"lon":5.36572,"is_reserved":false,"is_disabled":false,"rental_uris":{"android":"levelo://app?vid=857cf3b8-a499-4f71-a4af-951511031286","ios":"levelo://app?vid=857cf3b8-a499-4f71-a4af-951511031286"},"vehicle_type_id":"4","last_reported":1731492593,"current_range_meters":38000,"station_id":"ce4bhs12rcd13ifvqhvg","pricing_plan_id":"cebpf4jnsgd1na2vs0mg"},{"bike_id":"06d0e6a7-19f7-460e-b8cc-f9a66e584415","system_id":"levelo_inurba_marseille","lat":43.26568,"lon":5.39007,"is_reserved":false,"is_disabled":false,"rental_uris":{"android":"levelo://app?vid=06d0e6a7-19f7-460e-b8cc-f9a66e584415","ios":"levelo://app?vid=06d0e6a7-19f7-460e-b8cc-f9a66e584415"},"vehicle_type_id":"4","last_reported":1731492593,"current_range_meters":38800,"station_id":"ce4bhe12rcd13ifvqf30","pricing_plan_id":"cebpf4jnsgd1na2vs0mg"},{"bike_id":"2baa5d60-52b4-47b5-9521-77790ea643fc","system_id":"levelo_inurba_marseille","lat":43.28607,"lon":5.37068,"is_reserved":false,"is_disabled":false,"rental_uris":{"android":"levelo://app?vid=2baa5d60-52b4-47b5-9521-77790ea643fc","ios":"levelo://app?vid=2baa5d60-52b4-47b5-9521-77790ea643fc"},"vehicle_type_id":"4","last_reported":1731492593,"current_range_meters":38400,"station_id":"ce4bht12rcd13ifvqi60","pricing_plan_id":"cebpf4jnsgd1na2vs0mg"},{"bike_id":"4aed7d47-090b-464a-a186-6ccb8eb001ad","system_id":"levelo_inurba_marseille","lat":43.25583,"lon":5.38242,"is_reserved":false,"is_disabled":false,"rental_uris":{"android":"levelo://app?vid=4aed7d47-090b-464a-a186-6ccb8eb001ad","ios":"levelo://app?vid=4aed7d47-090b-464a-a186-6ccb8eb001ad"},"vehicle_type_id":"4","last_reported":1731492593,"current_range_meters":8800,"station_id":"ce4bhih2rcd13ifvqfs0","pricing_plan_id":"cebpf4jnsgd1na2vs0mg"},{"bike_id":"db53c97b-f399-4ea4-87a0-7b485ee71766","system_id":"levelo_inurba_marseille","lat":43.26205,"lon":5.37443,"is_reserved":false,"is_disabled":false,"rental_uris":{"android":"levelo://app?vid=db53c97b-f399-4ea4-87a0-7b485ee71766","ios":"levelo://app?vid=db53c97b-f399-4ea4-87a0-7b485ee71766"},"vehicle_type_id":"4","last_reported":1731492593,"current_range_meters":38000,"station_id":"ce4bhgp2rcd13ifvqfc0","pricing_plan_id":"cebpf4jnsgd1na2vs0mg"},{"bike_id":"0704affa-a43a-46c2-bfd8-d879d5323253","system_id":"levelo_inurba_marseille","lat":43.26683,"lon":5.38275,"is_reserved":false,"is_disabled":false,"rental_uris":{"android":"levelo://app?vid=0704affa-a43a-46c2-bfd8-d879d5323253","ios":"levelo://app?vid=0704affa-a43a-46c2-bfd8-d879d5323253"},"vehicle_type_id":"4","last_reported":1731492593,"current_range_meters":7200,"station_id":"ce4bhg92rcd13ifvqf90","pricing_plan_id":"cebpf4jnsgd1na2vs0mg"},{"bike_id":"b55fe61e-e2db-4c8d-940b-61d116c0d2b9","system_id":"levelo_inurba_marseille","lat":43.2923,"lon":5.36316,"is_reserved":false,"is_disabled":false,"rental_uris":{"android":"levelo://app?vid=b55fe61e-e2db-4c8d-940b-61d116c0d2b9","ios":"levelo://app?vid=b55fe61e-e2db-4c8d-940b-61d116c0d2b9"},"vehicle_type_id":"4","last_reported":1731492593,"current_range_meters":32000,"station_id":"ce4bhb12rcd13ifvqel0","pricing_plan_id":"cebpf4jnsgd1na2vs0mg"},{"bike_id":"f51f4e05-6ddf-4efb-a1d9-655d49cb83cc","system_id":"levelo_inurba_marseille","lat":43.29029,"lon":5.38137,"is_reserved":false,"is_disabled":false,"rental_uris":{"android":"levelo://app?vid=f51f4e05-6ddf-4efb-a1d9-655d49cb83cc","ios":"levelo://app?vid=f51f4e05-6ddf-4efb-a1d9-655d49cb83cc"},"vehicle_type_id":"4","last_reported":1731492593,"current_range_meters":38800,"station_id":"ce4bh4p2rcd13ifvqe1g","pricing_plan_id":"cebpf4jnsgd1na2vs0mg"},{"bike_id":"fdf0bb17-9c00-420e-ab7c-d34b728c2356","system_id":"levelo_inurba_marseille","lat":43.29047,"lon":5.35914,"is_reserved":false,"is_disabled":false,"rental_uris":{"android":"levelo://app?vid=fdf0bb17-9c00-420e-ab7c-d34b728c2356","ios":"levelo://app?vid=fdf0bb17-9c00-420e-ab7c-d34b728c2356"},"vehicle_type_id":"4","last_reported":1731492593,"current_range_meters":39200,"station_id":"ce4bha92rcd13ifvqeg0","pricing_plan_id":"cebpf4jnsgd1na2vs0mg"},{"bike_id":"ac6cf911-e0a0-4e3e-9f38-c5126ef93711","system_id":"levelo_inurba_marseille","lat":43.25821,"lon":5.39428,"is_reserved":false,"is_disabled":false,"rental_uris":{"android":"levelo://app?vid=ac6cf911-e0a0-4e3e-9f38-c5126ef93711","ios":"levelo://app?vid=ac6cf911-e0a0-4e3e-9f38-c5126ef93711"},"vehicle_type_id":"4","last_reported":1731492593,"current_range_meters":39200,"station_id":"ce4bhip2rcd13ifvqft0","pricing_plan_id":"cebpf4jnsgd1na2vs0mg"},{"bike_id":"d2adbe1a-0329-4cad-bd65-4c11fede9299","system_id":"levelo_inurba_marseille","lat":43.2397,"lon":5.36633,"is_reserved":false,"is_disabled":false,"rental_uris":{"android":"levelo://app?vid=d2adbe1a-0329-4cad-bd65-4c11fede9299","ios":"levelo://app?vid=d2adbe1a-0329-4cad-bd65-4c11fede9299"},"vehicle_type_id":"4","last_reported":1731492593,"current_range_meters":38000,"station_id":"ce4bhi12rcd13ifvqfp0","pricing_plan_id":"cebpf4jnsgd1na2vs0mg"},