{"last_updated":1734639041,"ttl":60,"version":"2.2","data":{"bikes":[{"bike_id":"452ccc5e-ab26-4a56-8c65-7a0cd0993863","system_id":"levelo_inurba_marseille","lat":43.29096,"lon":5.38151,"is_reserved":false,"is_disabled":false,"rental_uris":{"android":"levelo://app?vid=452ccc5e-ab26-4a56-8c65-7a0cd0993863","ios":"levelo://app?vid=452ccc5e-ab26-4a56-8c65-7a0cd0993863"},"vehicle_type_id":"4","last_reported":1734639041,"current_range_meters":20000,"station_id":"ce4bh512rcd13ifvqe2g","pricing_plan_id":"cebpf4jnsgd1na2vs0mg"},{"bike_id":"74dc27b5-e2a4-4b1e-9dc3-5894ac4bda0a","system_id":"levelo_inurba_marseille","lat":43.29769,"lon":5.37283,"is_reserved":false,"is_disabled":true,"rental_uris":{"android":"levelo://app?vid=74dc27b5-e2a4-4b1e-9dc3-5894ac4bda0a","ios":"levelo://app?vid=74dc27b5-e2a4-4b1e-9dc3-5894ac4bda0a"},"vehicle_type_id":"4","last_reported":1734639041,"current_range_meters":0,"station_id":"","pricing_plan_id":"cebpf4jnsgd1na2vs0mg"},{"bike_id":"eb156c91-5c91-4664-a66b-8fb17c1b7811","system_id":"levelo_inurba_marseille","lat":43.28444,"lon":5.39189,"is_reserved":false,"is_disabled":false,"rental_uris":{"android":"levelo://app?vid=eb156c91-5c91-4664-a66b-8fb17c1b7811","ios":"levelo://app?vid=eb156c91-5c91-4664-a66b-8fb17c1b7811"},"vehicle_type_id":"4","last_reported":1734639041,"current_range_meters":38800,"station_id":"ce4bhoh2rcd13ifvqh5g","pricing_plan_id":"cebpf4jnsgd1na2vs0mg"},{"bike_id":"26820210-ecc1-45e6-ba91-b125210aa70f","system_id":"levelo_inurba_marseille","lat":43.32372,"lon":5.38869,"is_reserved":false,"is_disabled":false,"rental_uris":{"android":"levelo://app?vid=26820210-ecc1-45e6-ba91-b125210aa70f","ios":"levelo://app?vid=26820210-ecc1-45e6-ba91-b125210aa70f"},"vehicle_type_id":"4","last_reported":1734639041,"current_range_meters":37600,"station_id":"ce4bhqp2rcd13ifvqhog","pricing_plan_id":"cebpf4jnsgd1na2vs0mg"},{"bike_id":"bcf311ce-7da6-4b77-86ac-5310e5fffbc2","system_id":"levelo_inurba_marseille","lat":43.30932,"lon":5.40133,"is_reserved":false,"is_disabled":false,"rental_uris":{"android":"levelo://app?vid=bcf311ce-7da6-4b77-86ac-5310e5fffbc2","ios":"levelo://app?vid=bcf311ce-7da6-4b77-86ac-5310e5fffbc2"},"vehicle_type_id":"4","last_reported":1734639041,"current_range_meters":38800,"station_id":"ce4bgvp2rcd13ifvqct0","pricing_plan_id":"cebpf4jnsgd1na2vs0mg"},{"bike_id":"0b3c962c-40d1-4375-b60d-644d72aaacf1","system_id":"levelo_inurba_marseille","lat":43.28012,"lon":5.40403,"is_reserved":false,"is_disabled":true,"rental_uris":{"android":"levelo://app?vid=0b3c962c-40d1-4375-b60d-644d72aaacf1","ios":"levelo://app?vid=0b3c962c-40d1-4375-b60d-644d72aaacf1"},"vehicle_type_id":"4","last_reported":1734639041,"current_range_meters":0,"station_id":"","pricing_plan_id":"cebpf4jnsgd1na2vs0mg"},{"bike_id":"67ab154a-5ebb-400b-8fe1-02ec2579bea3","system_id":"levelo_inurba_marseille","lat":43.31281,"lon":5.4017,"is_reserved":false,"is_disabled":false,"rental_uris":{"android":"levelo://app?vid=67ab154a-5ebb-400b-8fe1-02ec2579bea3","ios":"levelo://app?vid=67ab154a-5ebb-400b-8fe1-02ec2579bea3"},"vehicle_type_id":"4","last_reported":1734639041,"current_range_meters":39200,"station_id":"ce4bh092rcd13ifvqd30","pricing_plan_id":"cebpf4jnsgd1na2vs0mg"},{"bike_id":"b3ca4fe4-550c-42a3-b98d-0ca615b243f9","system_id":"levelo_inurba_marseille","lat":43.28735,"lon":5.36095,"is_reserved":false,"is_disabled":false,"rental_uris":{"android":"levelo://app?vid=b3ca4fe4-550c-42a3-b98d-0ca615b243f9","ios":"levelo://app?vid=b3ca4fe4-550c-42a3-b98d-0ca615b243f9"},"vehicle_type_id":"4","last_reported":1734639041,"current_range_meters":22000,"station_id":"cki0cbj6b192h4jlfktg","pricing_plan_id":"cebpf4jnsgd1na2vs0mg"},{"bike_id":"db8c5fea-e88c-487a-a370-c14cdac4dc86","system_id":"levelo_inurba_marseille","lat":43.310996,"lon":5.38842,"is_reserved":false,"is_disabled":false,"rental_uris":{"android":"levelo://app?vid=db8c5fea-e88c-487a-a370-c14cdac4dc86","ios":"levelo://app?vid=db8c5fea-e88c-487a-a370-c14cdac4dc86"},"vehicle_type_id":"4","last_reported":1734639041,"current_range_meters":14800,"station_id":"ce4bgv12rcd13ifvqcp0","pricing_plan_id":"cebpf4jnsgd1na2vs0mg"},{"bike_id":"1cdfd12b-6391-4ec2-a79d-92933987f841","system_id":"levelo_inurba_marseille","lat":43.29593,"lon":5.36738,"is_reserved":false,"is_disabled":false,"rental_uris":{"android":"levelo://app?vid=1cdfd12b-6391-4ec2-a79d-92933987f841","ios":"levelo://app?vid=1cdfd12b-6391-4ec2-a79d-92933987f841"},"vehicle_type_id":"4","last_reported":1734639041,"current_range_meters":37600,"station_id":"ce4bgph2rcd13ifvqc2g","pricing_plan_id":"cebpf4jnsgd1na2vs0mg"},{"bike_id":"01b0ec31-8514-452a-a545-341b5c177c7b","system_id":"levelo_inurba_marseille","lat":43.27435,"lon":5.39413,"is_reserved":false,"is_disabled":false,"rental_uris":{"android":"levelo://app?vid=01b0ec31-8514-452a-a545-341b5c177c7b","ios":"levelo://app?vid=01b0ec31-8514-452a-a545-341b5c177c7b"},"vehicle_type_id":"4","last_reported":1734639041,"current_range_meters":38800,"station_id":"ce4bhdp2rcd13ifvqf20","pricing_plan_id":"cebpf4jnsgd1na2vs0mg"},{"bike_id":"93cd12d2-ee52-454b-a1c6-a2a94b1185da","system_id":"levelo_inurba_marseille","lat":43.24799,"lon":5.37438,"is_reserved":false,"is_disabled":false,"rental_uris":{"android":"levelo://app?vid=93cd12d2-ee52-454b-a1c6-a2a94b1185da","ios":"levelo://app?vid=93cd12d2-ee52-454b-a1c6-a2a94b1185da"},"vehicle_type_id":"4","last_reported":1734639041,"current_range_meters":38800,"station_id":"ce4bhgh2rcd13ifvqfb0","pricing_plan_id":"cebpf4jnsgd1na2vs0mg"},{"bike_id":"02bf8158-426b-4335-9b97-c473816a1fd2","system_id":"levelo_inurba_marseille","lat":43.25826,"lon":5.39428,"is_reserved":false,"is_disabled":false,"rental_uris":{"android":"levelo://app?vid=02bf8158-426b-4335-9b97-c473816a1fd2","ios":"levelo://app?vid=02bf8158-426b-4335-9b97-c473816a1fd2"},"vehicle_type_id":"4","last_reported":1734639041,"current_range_meters":39200,"station_id":"ce4bhip2rcd13ifvqft0","pricing_plan_id":"cebpf4jnsgd1na2vs0mg"},{"bike_id":"20f9440c-5b1c-412b-b009-acdc0db0b99d","system_id":"levelo_inurba_marseille","lat":43.308863,"lon":5.378124,"is_reserved":false,"is_disabled":false,"rental_uris":{"android":"levelo://app?vid=20f9440c-5b1c-412b-b009-acdc0db0b99d","ios":"levelo://app?vid=20f9440c-5b1c-412b-b009-acdc0db0b99d"},"vehicle_type_id":"4","last_reported":1734639041,"current_range_meters":20800,"station_id":"","pricing_plan_id":"cebpf4jnsgd1na2vs0mg"},{"bike_id":"53c5dd90-208e-4b14-9aec-3133385e99e3","system_id":"levelo_inurba_marseille","lat":43.29563,"lon":5.42293,"is_reserved":false,"is_disabled":false,"rental_uris":{"android":"levelo://app?vid=53c5dd90-208e-4b14-9aec-3133385e99e3","ios":"levelo://app?vid=53c5dd90-208e-4b14-9aec-3133385e99e3"},"vehicle_type_id":"4","last_reported":1734639041,"current_range_meters":38400,"station_id":"ce4bhph2rcd13ifvqhdg","pricing_plan_id":"cebpf4jnsgd1na2vs0mg"},{"bike_id":"5fc66bf9-3a98-4f08-b7f6-142d1202897d","system_id":"levelo_inurba_marseille","lat":43.31473,"lon":5.37305,"is_reserved":false,"is_disabled":false,"rental_uris":{"android":"levelo://app?vid=5fc66bf9-3a98-4f08-b7f6-142d1202897d","ios":"levelo://app?vid=5fc66bf9-3a98-4f08-b7f6-142d1202897d"},"vehicle_type_id":"4","last_reported":1734639041,"current_range_meters":26000,"station_id":"ce4bgt12rcd13ifvqcd0","pricing_plan_id":"cebpf4jnsgd1na2vs0mg"},{"bike_id":"79427279-e04a-4077-bfcb-a7f4118146c1","system_id":"levelo_inurba_marseille","lat":43.29528,"lon":5.38534,"is_reserved":false,"is_disabled":false,"rental_uris":{"android":"levelo://app?vid=79427279-e04a-4077-bfcb-a7f4118146c1","ios":"levelo://app?vid=79427279-e04a-4077-bfcb-a7f4118146c1"},"vehicle_type_id":"4","last_reported":1734639041,"current_range_meters":35600,"station_id":"ce4bgih2rcd13ifvqba0","pricing_plan_id":"cebpf4jnsgd1na2vs0mg"},{"bike_id":"61c0c88c-a02b-48f3-9572-9096c1df5217","system_id":"levelo_inurba_marseille","lat":43.31368,"lon":5.38494,"is_reserved":false,"is_disabled":false,"rental_uris":{"android":"levelo://app?vid=61c0c88c-a02b-48f3-9572-9096c1df5217","ios":"levelo://app?vid=61c0c88c-a02b-48f3-9572-9096c1df5217"},"vehicle_type_id":"4","last_reported":1734639041,"current_range_meters":20800,"station_id":"ce4bgt92rcd13ifvqcf0","pricing_plan_id":"cebpf4jnsgd1na2vs0mg"},{"bike_id":"85f27a5d-9af7-4b09-a20c-f802a8f11d6d","system_id":"levelo_inurba_marseille","lat":43.32662,"lon":5.40986,"is_reserved":false,"is_disabled":false,"rental_uris":{"android":"levelo://app?vid=85f27a5d-9af7-4b09-a20c-f802a8f11d6d","ios":"levelo://app?vid=85f27a5d-9af7-4b09-a20c-f802a8f11d6d"},"vehicle_type_id":"4","last_reported":1734639041,"current_range_meters":16400,"station_id":"ce4bhpp2rcd13ifvqhgg","pricing_plan_id":"cebpf4jnsgd1na2vs0mg"},{"bike_id":"d34bdf4f-71bc-4ae4-b273-f3852ddc692a","system_id":"levelo_inurba_marseille","lat":43.33756,"lon":5.37472,"is_reserved":false,"is_disabled":false,"rental_uris":{"android":"levelo://app?vid=d34bdf4f-71bc-4ae4-b273-f3852ddc692a","ios":"levelo://app?vid=d34bdf4f-71bc-4ae4-b273-f3852ddc692a"},"vehicle_type_id":"4","last_reported":1734639041,"current_range_meters":36400,"station_id":"","pricing_plan_id":"cebpf4jnsgd1na2vs0mg"},{"bike_id":"f64d73d0-f96c-4455-a454-0974d8a22425","system_id":"levelo_inurba_marseille","lat":43.30663,"lon":5.36846,"is_reserved":false,"is_disabled":true,"rental_uris":{"android":"levelo://app?vid=f64d73d0-f96c-4455-a454-0974d8a22425","ios":"levelo://app?vid=f64d73d0-f96c-4455-a454-0974d8a22425"},"vehicle_type_id":"4","last_reported":1734639041,"current_range_meters":0,"station_id":"","pricing_plan_id":"cebpf4jnsgd1na2vs0mg"},{"bike_id":"e6f4f512-c3a0-4cb0-a4e2-19fd45dd5ea0","system_id":"levelo_inurba_marseille","lat":43.30642,"lon":5.40089,"is_reserved":false,"is_disabled":false,"rental_uris":{"android":"levelo://app?vid=e6f4f512-c3a0-4cb0-a4e2-19fd45dd5ea0","ios":"levelo://app?vid=e6f4f512-c3a0-4cb0-a4e2-19fd45dd5ea0"},"vehicle_type_id":"4","last_reported":1734639041,"current_range_meters":19200,"station_id":"ce4bh112rcd13ifvqda0","pricing_plan_id":"cebpf4jnsgd1na2vs0mg"},{"bike_id":"8b8bdb47-1731-4a58-806d-c9952376866e","system_id":"levelo_inurba_marseille","lat":43.29414,"lon":5.38629,"is_reserved":false,"is_disabled":false,"rental_uris":{"android":"levelo://app?vid=8b8bdb47-1731-4a58-806d-c9952376866e","ios":"levelo://app?vid=8b8bdb47-1731-4a58-806d-c9952376866e"},"vehicle_type_id":"4","last_reported":1734639041,"current_range_meters":33600,"station_id":"ce4bh2h2rcd13ifvqdh0","pricing_plan_id":"cebpf4jnsgd1na2vs0mg"},{"bike_id":"c7a472ed-6dc3-4cde-83b8-4deb8af0b49b","system_id":"levelo_inurba_marseille","lat":43.24381,"lon":5.37052,"is_reserved":false,"is_disabled":false,"rental_uris":{"android":"levelo://app?vid=c7a472ed-6dc3-4cde-83b8-4deb8af0b49b","ios":"levelo://app?vid=c7a472ed-6dc3-4cde-83b8-4deb8af0b49b"},"vehicle_type_id":"4","last_reported":1734639041,"current_range_meters":24800,"station_id":"ce4bhhh2rcd13ifvqfk0","pricing_plan_id":"cebpf4jnsgd1na2vs0mg"},{"bike_id":"cab9e6ce-0220-464b-a267-42775b277e8b","system_id":"levelo_inurba_marseille","lat":43.28002,"lon":5.41663,"is_reserved":false,"is_disabled":true,"rental_uris":{"android":"levelo://app?vid=cab9e6ce-0220-464b-a267-42775b277e8b","ios":"levelo://app?vid=cab9e6ce-0220-464b-a267-42775b277e8b"},"vehicle_type_id":"4","last_reported":1734639041,"current_range_meters":1200,"station_id":"ce4bho12rcd13ifvqh1g","pricing_plan_id":"cebpf4jnsgd1na2vs0mg"},{"bike_id":"b042baac-48e3-41d4-beca-2c2cc4a183f1","system_id":"levelo_inurba_marseille","lat":43.23198,"lon":5.35538,"is_reserved":false,"is_disabled":false,"rental_uris":{"android":"levelo://app?vid=b042baac-48e3-41d4-beca-2c2cc4a183f1","ios":"levelo://app?vid=b042baac-48e3-41d4-beca-2c2cc4a183f1"},"vehicle_type_id":"4","last_reported":1734639041,"current_range_meters":38800,"station_id":"ce4bhu92rcd13ifvqi70","pricing_plan_id":"cebpf4jnsgd1na2vs0mg"},{"bike_id":"2bb062cf-0235-418a-955f-38a3f5766644","system_id":"levelo_inurba_marseille","lat":43.29422,"lon":5.38631,"is_reserved":false,"is_disabled":false,"rental_uris":{"android":"levelo://app?vid=2bb062cf-0235-418a-955f-38a3f5766644","ios":"levelo://app?vid=2bb062cf-0235-418a-955f-38a3f5766644"},"vehicle_type_id":"4","last_reported":1734639041,"current_range_meters":36800,"station_id":"ce4bh2h2rcd13ifvqdh0","pricing_plan_id":"cebpf4jnsgd1na2vs0mg"},{"bike_id":"b0a13592-7cce-4d9c-b407-7810a71613ab","system_id":"levelo_inurba_marseille","lat":43.28734,"lon":5.36061,"is_reserved":false,"is_disabled":false,"rental_uris":{"android":"levelo://app?vid=b0a13592-7cce-4d9c-b407-7810a71613ab","ios":"levelo://app?vid=b0a13592-7cce-4d9c-b407-7810a71613ab"},"vehicle_type_id":"4","last_reported":1734639041,"current_range_meters":38400,"station_id":"cki0cbj6b192h4jlfktg","pricing_plan_id":"cebpf4jnsgd1na2vs0mg"},{"bike_id":"3758c33a-0752-49cb-ba38-c27d1ad63544","system_id":"levelo_inurba_marseille","lat":43.29313,"lon":5.37186,"is_reserved":false,"is_disabled":false,"rental_uris":{"android":"levelo://app?vid=3758c33a-0752-49cb-ba38-c27d1ad63544","ios":"levelo://app?vid=3758c33a-0752-49cb-ba38-c27d1ad63544"},"vehicle_type_id":"4","last_reported":1734639041,"current_range_meters":10000,"station_id":"ce4bgh92rcd13ifvqb40","pricing_plan_id":"cebpf4jnsgd1na2vs0mg"},{"bike_id":"468680d2-2a52-4df2-8067-b343b97e9b7f","system_id":"levelo_inurba_marseille","lat":43.26222,"lon":5.37942,"is_reserved":false,"is_disabled":false,"rental_uris":{"android":"levelo://app?vid=468680d2-2a52-4df2-8067-b343b97e9b7f","ios":"levelo://app?vid=468680d2-2a52-4df2-8067-b343b97e9b7f"},"vehicle_type_id":"4","last_reported":1734639041,"current_range_meters":30000,"station_id":"ce4bhjp2rcd13ifvqg90","pricing_plan_id":"cebpf4jnsgd1na2vs0mg"},{"bike_id":"8c4ecedf-c52e-488a-b2f9-f8570f79cdde","system_id":"levelo_inurba_marseille","lat":43.28083,"lon":5.39655,"is_reserved":false,"is_disabled":false,"rental_uris":{"android":"levelo://app?vid=8c4ecedf-c52e-488a-b2f9-f8570f79cdde","ios":"levelo://app?vid=8c4ecedf-c52e-488a-b2f9-f8570f79cdde"},"vehicle_type_id":"4","last_reported":1734639041,"current_range_meters":38000,"station_id":"ce4bho12rcd13ifvqh2g","pricing_plan_id":"cebpf4jnsgd1na2vs0mg"},{"bike_id":"3f35c514-84c7-403c-be41-f914dbb94369","system_id":"levelo_inurba_marseille","lat":43.24653,"lon":5.38888,"is_reserved":false,"is_disabled":false,"rental_uris":{"android":"levelo://app?vid=3f35c514-84c7-403c-be41-f914dbb94369","ios":"levelo://app?vid=3f35c514-84c7-403c-be41-f914dbb94369"},"vehicle_type_id":"4","last_reported":1734639041,"current_range_meters":38000,"station_id":"ce4bhg12rcd13ifvqf60","pricing_plan_id":"cebpf4jnsgd1na2vs0mg"},{"bike_id":"23e4904d-90a6-480d-960d-265280934d0f","system_id":"levelo_inurba_marseille","lat":43.30199,"lon":5.36577,"is_reserved":false,"is_disabled":false,"rental_uris":{"android":"levelo://app?vid=23e4904d-90a6-480d-960d-265280934d0f","ios":"levelo://app?vid=23e4904d-90a6-480d-960d-265280934d0f"},"vehicle_type_id":"4","last_reported":1734639041,"current_range_meters":12800,"station_id":"ce4bgrh2rcd13ifvqc8g","pricing_plan_id":"cebpf4jnsgd1na2vs0mg"},{"bike_id":"f20cd36c-a895-444d-b8aa-a67ddb893a61","system_id":"levelo_inurba_marseille","lat":43.30669,"lon":5.40086,"is_reserved":false,"is_disabled":true,"rental_uris":{"android":"levelo://app?vid=f20cd36c-a895-444d-b8aa-a67ddb893a61","ios":"levelo://app?vid=f20cd36c-a895-444d-b8aa-a67ddb893a61"},"vehicle_type_id":"4","last_reported":1734639041,"current_range_meters":7200,"station_id":"ce4bh112rcd13ifvqda0","pricing_plan_id":"cebpf4jnsgd1na2vs0mg"},{"bike_id":"cc785c6f-e1ec-4f02-b47a-80052f5db726","system_id":"levelo_inurba_marseille","lat":43.29965,"lon":5.38538,"is_reserved":false,"is_disabled":true,"rental_uris":{"android":"levelo://app?vid=cc785c6f-e1ec-4f02-b47a-80052f5db726","ios":"levelo://app?vid=cc785c6f-e1ec-4f02-b47a-80052f5db726"},"vehicle_type_id":"4","last_reported":1734639041,"current_range_meters":0,"station_id":"ce4bgj92rcd13ifvqbd0","pricing_plan_id":"cebpf4jnsgd1na2vs0mg"},{"bike_id":"45eef7a2-7813-485d-b132-f34196de9793","system_id":"levelo_inurba_marseille","lat":43.28735,"lon":5.36091,"is_reserved":false,"is_disabled":false,"rental_uris":{"android":"levelo://app?vid=45eef7a2-7813-485d-b132-f34196de9793","ios":"levelo://app?vid=45eef7a2-7813-485d-b132-f34196de9793"},"vehicle_type_id":"4","last_reported":1734639041,"current_range_meters":24400,"station_id":"cki0cbj6b192h4jlfktg","pricing_plan_id":"cebpf4jnsgd1na2vs0mg"},{"bike_id":"7d8b4789-db38-4881-a12e-8303c1c118b0","system_id":"levelo_inurba_marseille","lat":43.30315,"lon":5.36675,"is_reserved":false,"is_disabled":false,"rental_uris":{"android":"levelo://app?vid=7d8b4789-db38-4881-a12e-8303c1c118b0","ios":"levelo://app?vid=7d8b4789-db38-4881-a12e-8303c1c118b0"},"vehicle_type_id":"4","last_reported":1734639041,"current_range_meters":30000,"station_id":"","pricing_plan_id":"cebpf4jnsgd1na2vs0mg"},{"bike_id":"99ee9409-622f-4f6b-9717-3b4939a30aed","system_id":"levelo_inurba_marseille","lat":43.2927,"lon":5.36843,"is_reserved":false,"is_disabled":false,"rental_uris":{"android":"levelo://app?vid=99ee9409-622f-4f6b-9717-3b4939a30aed","ios":"levelo://app?vid=99ee9409-622f-4f6b-9717-3b4939a30aed"},"vehicle_type_id":"4","last_reported":1734639041,"current_range_meters":16000,"station_id":"ce4bhbp2rcd13ifvqesg","pricing_plan_id":"cebpf4jnsgd1na2vs0mg"},{"bike_id":"fd516522-efeb-4c3a-b168-4e7991d4eb25","system_id":"levelo_inurba_marseille","lat":43.24079,"lon":5.37752,"is_reserved":false,"is_disabled":false,"rental_uris":{"android":"levelo://app?vid=fd516522-efeb-4c3a-b168-4e7991d4eb25","ios":"levelo://app?vid=fd516522-efeb-4c3a-b168-4e7991d4eb25"},"vehicle_type_id":"4","last_reported":1734639041,"current_range_meters":23200,"station_id":"ce4bhnp2rcd13ifvqgvg","pricing_plan_id":"cebpf4jnsgd1na2vs0mg"},{"bike_id":"0cbdc7df-3ad3-411e-801f-efd40f79c8c9","system_id":"levelo_inurba_marseille","lat":43.28,"lon":5.40006,"is_reserved":false,"is_disabled":false,"rental_uris":{"android":"levelo://app?vid=0cbdc7df-3ad3-411e-801f-efd40f79c8c9","ios":"levelo://app?vid=0cbdc7df-3ad3-411e-801f-efd40f79c8c9"},"vehicle_type_id":"4","last_reported":1734639041,"current_range_meters":38400,"station_id":"ce4bho92rcd13ifvqh4g","pricing_plan_id":"cebpf4jnsgd1na2vs0mg"},{"bike_id":"06fab20e-4df5-41b1-b69a-b5401ea179ad","system_id":"levelo_inurba_marseille","lat":43.29413,"lon":5.38632,"is_reserved":false,"is_disabled":false,"rental_uris":{"android":"levelo://app?vid=06fab20e-4df5-41b1-b69a-b5401ea179ad","ios":"levelo://app?vid=06fab20e-4df5-41b1-b69a-b5401ea179ad"},"vehicle_type_id":"4","last_reported":1734639041,"current_range_meters":5600,"station_id":"ce4bh2h2rcd13ifvqdh0","pricing_plan_id":"cebpf4jnsgd1na2vs0mg"},{"bike_id":"ef2e42d7-adfb-4e08-8992-94a17c47e449","system_id":"levelo_inurba_marseille","lat":43.26201,"lon":5.3793,"is_reserved":false,"is_disabled":false,"rental_uris":{"android":"levelo://app?vid=ef2e42d7-adfb-4e08-8992-94a17c47e449","ios":"levelo://app?vid=ef2e42d7-adfb-4e08-8992-94a17c47e449"},"vehicle_type_id":"4","last_reported":1734639041,"current_range_meters":21600,"station_id":"ce4bhjp2rcd13ifvqg90","pricing_plan_id":"cebpf4jnsgd1na2vs0mg"},{"bike_id":"e3abb7e0-9fa8-46b1-a69d-69b2f3b7f2a3","system_id":"levelo_inurba_marseille","lat":43.28107,"lon":5.37842,"is_reserved":false,"is_disabled":false,"rental_uris":{"android":"levelo://app?vid=e3abb7e0-9fa8-46b1-a69d-69b2f3b7f2a3","ios":"levelo://app?vid=e3abb7e0-9fa8-46b1-a69d-69b2f3b7f2a3"},"vehicle_type_id":"4","last_reported":1734639041,"current_range_meters":24400,"station_id":"ce4bha12rcd13ifvqee0","pricing_plan_id":"cebpf4jnsgd1na2vs0mg"},{"bike_id":"de85f0cf-c255-4be9-91cb-82ed5a448b07","system_id":"levelo_inurba_marseille","lat":43.29258,"lon":5.40913,"is_reserved":false,"is_disabled":false,"rental_uris":{"android":"levelo://app?vid=de85f0cf-c255-4be9-91cb-82ed5a448b07","ios":"levelo://app?vid=de85f0cf-c255-4be9-91cb-82ed5a448b07"},"vehicle_type_id":"4","last_reported":1734639041,"current_range_meters":34000,"station_id":"ce4bh192rcd13ifvqdc0","pricing_plan_id":"cebpf4jnsgd1na2vs0mg"},{"bike_id":"63cff5eb-1415-48a9-b127-707db35946f5","system_id":"levelo_inurba_marseille","lat":43.27843,"lon":5.39196,"is_reserved":false,"is_disabled":false,"rental_uris":{"android":"levelo://app?vid=63cff5eb-1415-48a9-b127-707db35946f5","ios":"levelo://app?vid=63cff5eb-1415-48a9-b127-707db35946f5"},"vehicle_type_id":"4","last_reported":1734639041,"current_range_meters":38800,"station_id":"ce4bhjp2rcd13ifvqga0","pricing_plan_id":"cebpf4jnsgd1na2vs0mg"},{"bike_id":"a96f8774-a97f-4b65-805d-d0914b73d9f5","system_id":"levelo_inurba_marseille","lat":43.29427,"lon":5.38611,"is_reserved":false,"is_disabled":false,"rental_uris":{"android":"levelo://app?vid=a96f8774-a97f-4b65-805d-d0914b73d9f5","ios":"levelo://app?vid=a96f8774-a97f-4b65-805d-d0914b73d9f5"},"vehicle_type_id":"4","last_reported":1734639041,"current_range_meters":21600,"station_id":"ce4bh2h2rcd13ifvqdh0","pricing_plan_id":"cebpf4jnsgd1na2vs0mg"},{"bike_id":"ffda3fca-b6ff-4e46-a1b0-89acd0c28db2","system_id":"levelo_inurba_marseille","lat":43.2942,"lon":5.386242,"is_reserved":false,"is_disabled":false,"rental_uris":{"android":"levelo://app?vid=ffda3fca-b6ff-4e46-a1b0-89acd0c28db2","ios":"levelo://app?vid=ffda3fca-b6ff-4e46-a1b0-89acd0c28db2"},"vehicle_type_id":"4","last_reported":1734639041,"current_range_meters":14800,"station_id":"ce4bh2h2rcd13ifvqdh0","pricing_plan_id":"cebpf4jnsgd1na2vs0mg"},{"bike_id":"c5d3dda4-9397-4823-9c8b-ea8eda2ab949","system_id":"levelo_inurba_marseille","lat":43.23957,"lon":5.36646,"is_reserved":false,"is_disabled":false,"rental_uris":{"android":"levelo://app?vid=c5d3dda4-9397-4823-9c8b-ea8eda2ab949","ios":"levelo://app?vid=c5d3dda4-9397-4823-9c8b-ea8eda2ab949"},"vehicle_type_id":"4","last_reported":1734639041,"current_range_meters":37600,"station_id":"ce4bhi12rcd13ifvqfp0","pricing_plan_id":"cebpf4jnsgd1na2vs0mg"},{"bike_id":"d6476ffb-c54d-49d0-adbe-c1aa50bd5a5e","system_id":"levelo_inurba_marseille","lat":43.29415,"lon":5.38634,"is_reserved":false,"is_disabled":false,"rental_uris":{"android":"levelo://app?vid=d6476ffb-c54d-49d0-adbe-c1aa50bd5a5e","ios":"levelo://app?vid=d6476ffb-c54d-49d0-adbe-c1aa50bd5a5e"},"vehicle_type_id":"4","last_reported":1734639041,"current_range_meters":36400,"station_id":"ce4bh2h2rcd13ifvqdh0","pricing_plan_id":"cebpf4jnsgd1na2vs0mg"},{"bike_id":"1ed2500c-6d93-4829-99f6-330416fef6bc","system_id":"levelo_inurba_marseille","lat":43.30642,"lon":5.40072,"is_reserved":false,"is_disabled":false,"rental_uris":{"android":"levelo://app?vid=1ed2500c-6d93-4829-99f6-330416fef6bc","ios":"levelo://app?vid=1ed2500c-6d93-4829-99f6-330416fef6bc"},"vehicle_type_id":"4","last_reported":1734639041,"current_range_meters":16800,"station_id":"ce4bh112rcd13ifvqda0","pricing_plan_id":"cebpf4jnsgd1na2vs0mg"},{"bike_id":"7094a23c-c35f-45f7-8004-7f866e8eae59","system_id":"levelo_inurba_marseille","lat":43.28169,"lon":5.42641,"is_reserved":false,"is_disabled":false,"rental_uris":{"android":"levelo://app?vid=7094a23c-c35f-45f7-8004-7f866e8eae59","ios":"levelo://app?vid=7094a23c-c35f-45f7-8004-7f866e8eae59"},"vehicle_type_id":"4","last_reported":1734639041,"current_range_meters":38800,"station_id":"ce4bhnh2rcd13ifvqgug","pricing_plan_id":"cebpf4jnsgd1na2vs0mg"},{"bike_id":"b11dec3c-37ae-4e5f-a182-7db8571c22d2","system_id":"levelo_inurba_marseille","lat":43.29907,"lon":5.43672,"is_reserved":false,"is_disabled":false,"rental_uris":{"android":"levelo://app?vid=b11dec3c-37ae-4e5f-a182-7db8571c22d2","ios":"levelo://app?vid=b11dec3c-37ae-4e5f-a182-7db8571c22d2"},"vehicle_type_id":"4","last_reported":1734639041,"current_range_meters":35600,"station_id":"ce4bhpp2rcd13ifvqhfg","pricing_plan_id":"cebpf4jnsgd1na2vs0mg"},{"bike_id":"38cd9618-79a9-4f99-a82d-b058223cf2c2","system_id":"levelo_inurba_marseille","lat":43.31271,"lon":5.40172,"is_reserved":false,"is_disabled":false,"rental_uris":{"android":"levelo://app?vid=38cd9618-79a9-4f99-a82d-b058223cf2c2","ios":"levelo://app?vid=38cd9618-79a9-4f99-a82d-b058223cf2c2"},"vehicle_type_id":"4","last_reported":1734639041,"current_range_meters":3200,"station_id":"ce4bh092rcd13ifvqd30","pricing_plan_id":"cebpf4jnsgd1na2vs0mg"},{"bike_id":"72492ff3-d3e5-4b81-822b-1d3357339451","system_id":"levelo_inurba_marseille","lat":43.29081,"lon":5.39917,"is_reserved":false,"is_disabled":true,"rental_uris":{"android":"levelo://app?vid=72492ff3-d3e5-4b81-822b-1d3357339451","ios":"levelo://app?vid=72492ff3-d3e5-4b81-822b-1d3357339451"},"vehicle_type_id":"4","last_reported":1734639041,"current_range_meters":34800,"station_id":"","pricing_plan_id":"cebpf4jnsgd1na2vs0mg"},{"bike_id":"68cc3280-8c90-422e-b1e6-051d15979724","system_id":"levelo_inurba_marseille","lat":43.23181,"lon":5.39991,"is_reserved":false,"is_disabled":false,"rental_uris":{"android":"levelo://app?vid=68cc3280-8c90-422e-b1e6-051d15979724","ios":"levelo://app?vid=68cc3280-8c90-422e-b1e6-051d15979724"},"vehicle_type_id":"4","last_reported":1734639041,"current_range_meters":18000,"station_id":"ce4bhn12rcd13ifvqgqg","pricing_plan_id":"cebpf4jnsgd1na2vs0mg"},{"bike_id":"2f3ffe14-db03-4fbe-b9e8-6285c689975c","system_id":"levelo_inurba_marseille","lat":43.31323,"lon":5.39702,"is_reserved":false,"is_disabled":false,"rental_uris":{"android":"levelo://app?vid=2f3ffe14-db03-4fbe-b9e8-6285c689975c","ios":"levelo://app?vid=2f3ffe14-db03-4fbe-b9e8-6285c689975c"},"vehicle_type_id":"4","last_reported":1734639041,"current_range_meters":18800,"station_id":"ce4bgvp2rcd13ifvqcu0","pricing_plan_id":"cebpf4jnsgd1na2vs0mg"},{"bike_id":"c6eac602-9754-4e9d-8972-87c49c925ed4","system_id":"levelo_inurba_marseille","lat":43.27826,"lon":5.40724,"is_reserved":false,"is_disabled":false,"rental_uris":{"android":"levelo://app?vid=c6eac602-9754-4e9d-8972-87c49c925ed4","ios":"levelo://app?vid=c6eac602-9754-4e9d-8972-87c49c925ed4"},"vehicle_type_id":"4","last_reported":1734639041,"current_range_meters":38800,"station_id":"ce4bhnh2rcd13ifvqgtg","pricing_plan_id":"cebpf4jnsgd1na2vs0mg"},{"bike_id":"3c83799e-9198-4e0c-a3c0-d54fe259b5b0","system_id":"levelo_inurba_marseille","lat":43.33024,"lon":5.3904,"is_reserved":false,"is_disabled":false,"rental_uris":{"android":"levelo://app?vid=3c83799e-9198-4e0c-a3c0-d54fe259b5b0","ios":"levelo://app?vid=3c83799e-9198-4e0c-a3c0-d54fe259b5b0"},"vehicle_type_id":"4","last_reported":1734639041,"current_range_meters":38800,"station_id":"ce4bhr92rcd13ifvqhrg","pricing_plan_id":"cebpf4jnsgd1na2vs0mg"},{"bike_id":"ea28306e-dbd4-4a4a-91e6-65cb7d489490","system_id":"levelo_inurba_marseille","lat":43.28936,"lon":5.36622,"is_reserved":false,"is_disabled":false,"rental_uris":{"android":"levelo://app?vid=ea28306e-dbd4-4a4a-91e6-65cb7d489490","ios":"levelo://app?vid=ea28306e-dbd4-4a4a-91e6-65cb7d489490"},"vehicle_type_id":"4","last_reported":1734639041,"current_range_meters":39200,"station_id":"ce4bhap2rcd13ifvqek0","pricing_plan_id":"cebpf4jnsgd1na2vs0mg"},{"bike_id":"f1d2fb75-a21a-4b72-a707-f01cf68cd043","system_id":"levelo_inurba_marseille","lat":43.28851,"lon":5.39309,"is_reserved":false,"is_disabled":false,"rental_uris":{"android":"levelo://app?vid=f1d2fb75-a21a-4b72-a707-f01cf68cd043","ios":"levelo://app?vid=f1d2fb75-a21a-4b72-a707-f01cf68cd043"},"vehicle_type_id":"4","last_reported":1734639041,"current_range_meters":20800,"station_id":"ce4bh2p2rcd13ifvqdi0","pricing_plan_id":"cebpf4jnsgd1na2vs0mg"},{"bike_id":"9c6cca73-42ab-4f2e-b254-1fe60ef32b35","system_id":"levelo_inurba_marseille","lat":43.289278,"lon":5.383957,"is_reserved":false,"is_disabled":false,"rental_uris":{"android":"levelo://app?vid=9c6cca73-42ab-4f2e-b254-1fe60ef32b35","ios":"levelo://app?vid=9c6cca73-42ab-4f2e-b254-1fe60ef32b35"},"vehicle_type_id":"4","last_reported":1734639041,"current_range_meters":28400,"station_id":"ce4bh612rcd13ifvqe6g","pricing_plan_id":"cebpf4jnsgd1na2vs0mg"},{"bike_id":"370b1eb6-4f45-4760-84c5-106172693f5d","system_id":"levelo_inurba_marseille","lat":43.23954,"lon":5.36634,"is_reserved":false,"is_disabled":false,"rental_uris":{"android":"levelo://app?vid=370b1eb6-4f45-4760-84c5-106172693f5d","ios":"levelo://app?vid=370b1eb6-4f45-4760-84c5-106172693f5d"},"vehicle_type_id":"4","last_reported":1734639041,"current_range_meters":27200,"station_id":"ce4bhi12rcd13ifvqfp0","pricing_plan_id":"cebpf4jnsgd1na2vs0mg"},{"bike_id":"782bcbf2-b7de-4b04-bebc-aaa0329dd90c","system_id":"levelo_inurba_marseille","lat":43.23184,"lon":5.35556,"is_reserved":false,"is_disabled":false,"rental_uris":{"android":"levelo://app?vid=782bcbf2-b7de-4b04-bebc-aaa0329dd90c","ios":"levelo://app?vid=782bcbf2-b7de-4b04-bebc-aaa0329dd90c"},"vehicle_type_id":"4","last_reported":1734639041,"current_range_meters":38800,"station_id":"ce4bhu92rcd13ifvqi70","pricing_plan_id":"cebpf4jnsgd1na2vs0mg"},{"bike_id":"37a27d0f-052c-4fc2-bbb9-7ae126b9828e","system_id":"levelo_inurba_marseille","lat":43.30896,"lon":5.39661,"is_reserved":false,"is_disabled":false,"rental_uris":{"android":"levelo://app?vid=37a27d0f-052c-4fc2-bbb9-7ae126b9828e","ios":"levelo://app?vid=37a27d0f-052c-4fc2-bbb9-7ae126b9828e"},"vehicle_type_id":"4","last_reported":1734639041,"current_range_meters":10000,"station_id":"ce4bh012rcd13ifvqcv0","pricing_plan_id":"cebpf4jnsgd1na2vs0mg"},{"bike_id":"67e590f7-0feb-4571-9ae2-729bb19e5be9","system_id":"levelo_inurba_marseille","lat":43.2846,"lon":5.3588,"is_reserved":false,"is_disabled":false,"rental_uris":{"android":"levelo://app?vid=67e590f7-0feb-4571-9ae2-729bb19e5be9","ios":"levelo://app?vid=67e590f7-0feb-4571-9ae2-729bb19e5be9"},"vehicle_type_id":"4","last_reported":1734639041,"current_range_meters":19200,"station_id":"ce4bhah2rcd13ifvqei0","pricing_plan_id":"cebpf4jnsgd1na2vs0mg"},{"bike_id":"2fde1f92-3827-4c76-8ad9-2db1a9a74cf3","system_id":"levelo_inurba_marseille","lat":43.295507,"lon":5.374903,"is_reserved":false,"is_disabled":true,"rental_uris":{"android":"levelo://app?vid=2fde1f92-3827-4c76-8ad9-2db1a9a74cf3","ios":"levelo://app?vid=2fde1f92-3827-4c76-8ad9-2db1a9a74cf3"},"vehicle_type_id":"4","last_reported":1734639041,"current_range_meters":0,"station_id":"","pricing_plan_id":"cebpf4jnsgd1na2vs0mg"},{"bike_id":"a60a64bd-2698-4057-a518-06bbcac9c148","system_id":"levelo_inurba_marseille","lat":43.29251,"lon":5.40905,"is_reserved":false,"is_disabled":false,"rental_uris":{"android":"levelo://app?vid=a60a64bd-2698-4057-a518-06bbcac9c148","ios":"levelo://app?vid=a60a64bd-2698-4057-a518-06bbcac9c148"},"vehicle_type_id":"4","last_reported":1734639041,"current_range_meters":21600,"station_id":"ce4bh192rcd13ifvqdc0","pricing_plan_id":"cebpf4jnsgd1na2vs0mg"},{"bike_id":"96ff88dc-8cf7-4b0f-a345-fa00220da932","system_id":"levelo_inurba_marseille","lat":43.27418,"lon":5.42402,"is_reserved":false,"is_disabled":true,"rental_uris":{"android":"levelo://app?vid=96ff88dc-8cf7-4b0f-a345-fa00220da932","ios":"levelo://app?vid=96ff88dc-8cf7-4b0f-a345-fa00220da932"},"vehicle_type_id":"4","last_reported":1734639041,"current_range_meters":0,"station_id":"","pricing_plan_id":"cebpf4jnsgd1na2vs0mg"},{"bike_id":"1897ad2d-5c02-4d9f-ba4c-937899dfbdc3","system_id":"levelo_inurba_marseille","lat":43.24395,"lon":5.37049,"is_reserved":false,"is_disabled":false,"rental_uris":{"android":"levelo://app?vid=1897ad2d-5c02-4d9f-ba4c-937899dfbdc3","ios":"levelo://app?vid=1897ad2d-5c02-4d9f-ba4c-937899dfbdc3"},"vehicle_type_id":"4","last_reported":1734639041,"current_range_meters":39200,"station_id":"ce4bhhh2rcd13ifvqfk0","pricing_plan_id":"cebpf4jnsgd1na2vs0mg"},{"bike_id":"65beeeaa-6e76-40b2-ae80-6ac75a3b3354","system_id":"levelo_inurba_marseille","lat":43.29447,"lon":5.39746,"is_reserved":false,"is_disabled":false,"rental_uris":{"android":"levelo://app?vid=65beeeaa-6e76-40b2-ae80-6ac75a3b3354","ios":"levelo://app?vid=65beeeaa-6e76-40b2-ae80-6ac75a3b3354"},"vehicle_type_id":"4","last_reported":1734639041,"current_range_meters":38400,"station_id":"ce4bh3h2rcd13ifvqdo0","pricing_plan_id":"cebpf4jnsgd1na2vs0mg"},{"bike_id":"af8b20b1-6694-4e3a-8a98-da88fc3faa71","system_id":"levelo_inurba_marseille","lat":43.30945,"lon":5.3904,"is_reserved":false,"is_disabled":false,"rental_uris":{"android":"levelo://app?vid=af8b20b1-6694-4e3a-8a98-da88fc3faa71","ios":"levelo://app?vid=af8b20b1-6694-4e3a-8a98-da88fc3faa71"},"vehicle_type_id":"4","last_reported":1734639041,"current_range_meters":38800,"station_id":"ce4bgup2rcd13ifvqco0","pricing_plan_id":"cebpf4jnsgd1na2vs0mg"},{"bike_id":"d544ae98-0128-4d06-9321-3538d08c4bd5","system_id":"levelo_inurba_marseille","lat":43.27915,"lon":5.38025,"is_reserved":false,"is_disabled":false,"rental_uris":{"android":"levelo://app?vid=d544ae98-0128-4d06-9321-3538d08c4bd5","ios":"levelo://app?vid=d544ae98-0128-4d06-9321-3538d08c4bd5"},"vehicle_type_id":"4","last_reported":1734639041,"current_range_meters":4400,"station_id":"ce4bhf92rcd13ifvqf50","pricing_plan_id":"cebpf4jnsgd1na2vs0mg"},{"bike_id":"b8c44235-6b93-4ab8-8373-a2b7b3572c43","system_id":"levelo_inurba_marseille","lat":43.26056,"lon":5.39393,"is_reserved":false,"is_disabled":false,"rental_uris":{"android":"levelo://app?vid=b8c44235-6b93-4ab8-8373-a2b7b3572c43","ios":"levelo://app?vid=b8c44235-6b93-4ab8-8373-a2b7b3572c43"},"vehicle_type_id":"4","last_reported":1734639041,"current_range_meters":38800,"station_id":"ce4bhh92rcd13ifvqfj0","pricing_plan_id":"cebpf4jnsgd1na2vs0mg"},{"bike_id":"a574a46d-8765-44fc-8c4e-fd701c5d75eb","system_id":"levelo_inurba_marseille","lat":43.26935,"lon":5.40255,"is_reserved":false,"is_disabled":false,"rental_uris":{"android":"levelo://app?vid=a574a46d-8765-44fc-8c4e-fd701c5d75eb","ios":"levelo://app?vid=a574a46d-8765-44fc-8c4e-fd701c5d75eb"},"vehicle_type_id":"4","last_reported":1734639041,"current_range_meters":38800,"station_id":"cjm6bp8fraef2m0cb0m0","pricing_plan_id":"cebpf4jnsgd1na2vs0mg"},{"bike_id":"7d3284d5-3f82-4c96-9ecc-ae4492d2655a","system_id":"levelo_inurba_marseille","lat":43.33028,"lon":5.39025,"is_reserved":false,"is_disabled":false,"rental_uris":{"android":"levelo://app?vid=7d3284d5-3f82-4c96-9ecc-ae4492d2655a","ios":"levelo://app?vid=7d3284d5-3f82-4c96-9ecc-ae4492d2655a"},"vehicle_type_id":"4","last_reported":1734639041,"current_range_meters":38800,"station_id":"ce4bhr92rcd13ifvqhrg","pricing_plan_id":"cebpf4jnsgd1na2vs0mg"},{"bike_id":"330bf880-e1f5-4f4a-b329-f0f879268631","system_id":"levelo_inurba_marseille","lat":43.28847,"lon":5.39326,"is_reserved":false,"is_disabled":true,"rental_uris":{"android":"levelo://app?vid=330bf880-e1f5-4f4a-b329-f0f879268631","ios":"levelo://app?vid=330bf880-e1f5-4f4a-b329-f0f879268631"},"vehicle_type_id":"4","last_reported":1734639041,"current_range_meters":19200,"station_id":"ce4bh2p2rcd13ifvqdi0","pricing_plan_id":"cebpf4jnsgd1na2vs0mg"},{"bike_id":"44127e4e-8e84-4a38-89f7-8f4efb63f7a5","system_id":"levelo_inurba_marseille","lat":43.31189,"lon":5.3677,"is_reserved":false,"is_disabled":true,"rental_uris":{"android":"levelo://app?vid=44127e4e-8e84-4a38-89f7-8f4efb63f7a5","ios":"levelo://app?vid=44127e4e-8e84-4a38-89f7-8f4efb63f7a5"},"vehicle_type_id":"4","last_reported":1734639041,"current_range_meters":0,"station_id":"","pricing_plan_id":"cebpf4jnsgd1na2vs0mg"},{"bike_id":"4c5cdf28-9f8a-48e8-9806-9dada88c6695","system_id":"levelo_inurba_marseille","lat":43.28463,"lon":5.35883,"is_reserved":false,"is_disabled":false,"rental_uris":{"android":"levelo://app?vid=4c5cdf28-9f8a-48e8-9806-9dada88c6695","ios":"levelo://app?vid=4c5cdf28-9f8a-48e8-9806-9dada88c6695"},"vehicle_type_id":"4","last_reported":1734639041,"current_range_meters":10800,"station_id":"ce4bhah2rcd13ifvqei0","pricing_plan_id":"cebpf4jnsgd1na2vs0mg"},{"bike_id":"60c24abf-7634-4c1d-be8e-3905917c0f35","system_id":"levelo_inurba_marseille","lat":43.26056,"lon":5.39406,"is_reserved":false,"is_disabled":false,"rental_uris":{"android":"levelo://app?vid=60c24abf-7634-4c1d-be8e-3905917c0f35","ios":"levelo://app?vid=60c24abf-7634-4c1d-be8e-3905917c0f35"},"vehicle_type_id":"4","last_reported":1734639041,"current_range_meters":28000,"station_id":"ce4bhh92rcd13ifvqfj0","pricing_plan_id":"cebpf4jnsgd1na2vs0mg"},{"bike_id":"672fcf6f-8699-4143-9c5f-2e6d1ee3aa80","system_id":"levelo_inurba_marseille","lat":43.305534,"lon":5.367044,"is_reserved":false,"is_disabled":true,"rental_uris":{"android":"levelo://app?vid=672fcf6f-8699-4143-9c5f-2e6d1ee3aa80","ios":"levelo://app?vid=672fcf6f-8699-4143-9c5f-2e6d1ee3aa80"},"vehicle_type_id":"4","last_reported":1734639041,"current_range_meters":38400,"station_id":"ce4bgrp2rcd13ifvqc9g","pricing_plan_id":"cebpf4jnsgd1na2vs0mg"},{"bike_id":"fa450f79-0071-470a-a8a0-47379ffcc822","system_id":"levelo_inurba_marseille","lat":43.25088,"lon":5.39528,"is_reserved":false,"is_disabled":false,"rental_uris":{"android":"levelo://app?vid=fa450f79-0071-470a-a8a0-47379ffcc822","ios":"levelo://app?vid=fa450f79-0071-470a-a8a0-47379ffcc822"},"vehicle_type_id":"4","last_reported":1734639041,"current_range_meters":14400,"station_id":"ce4bhm12rcd13ifvqgkg","pricing_plan_id":"cebpf4jnsgd1na2vs0mg"},{"bike_id":"defb9ed8-50de-4040-a509-a2d631e09253","system_id":"levelo_inurba_marseille","lat":43.30186,"lon":5.36604,"is_reserved":false,"is_disabled":false,"rental_uris":{"android":"levelo://app?vid=defb9ed8-50de-4040-a509-a2d631e09253","ios":"levelo://app?vid=defb9ed8-50de-4040-a509-a2d631e09253"},"vehicle_type_id":"4","last_reported":1734639041,"current_range_meters":30000,"station_id":"ce4bgrh2rcd13ifvqc8g","pricing_plan_id":"cebpf4jnsgd1na2vs0mg"},{"bike_id":"fa0d4ada-002c-4eee-99f1-47f40e840779","system_id":"levelo_inurba_marseille","lat":43.32352,"lon":5.40631,"is_reserved":false,"is_disabled":false,"rental_uris":{"android":"levelo://app?vid=fa0d4ada-002c-4eee-99f1-47f40e840779","ios":"levelo://app?vid=fa0d4ada-002c-4eee-99f1-47f40e840779"},"vehicle_type_id":"4","last_reported":1734639041,"current_range_meters":38800,"station_id":"ce4bhq92rcd13ifvqhjg","pricing_plan_id":"cebpf4jnsgd1na2vs0mg"},{"bike_id":"1ed431a0-c404-460c-8b06-9b7816088b4f","system_id":"levelo_inurba_marseille","lat":43.32338,"lon":5.40626,"is_reserved":false,"is_disabled":false,"rental_uris":{"android":"levelo://app?vid=1ed431a0-c404-460c-8b06-9b7816088b4f","ios":"levelo://app?vid=1ed431a0-c404-460c-8b06-9b7816088b4f"},"vehicle_type_id":"4","last_reported":1734639041,"current_range_meters":8800,"station_id":"ce4bhq92rcd13ifvqhjg","pricing_plan_id":"cebpf4jnsgd1na2vs0mg"},{"bike_id":"88d0fca1-50cd-440e-a583-785fe0c07914","system_id":"levelo_inurba_marseille","lat":43.28477,"lon":5.37906,"is_reserved":false,"is_disabled":false,"rental_uris":{"android":"levelo://app?vid=88d0fca1-50cd-440e-a583-785fe0c07914","ios":"levelo://app?vid=88d0fca1-50cd-440e-a583-785fe0c07914"},"vehicle_type_id":"4","last_reported":1734639041,"current_range_meters":8000,"station_id":"","pricing_plan_id":"cebpf4jnsgd1na2vs0mg"},{"bike_id":"62159b96-70de-4225-a341-fe8203f1c374","system_id":"levelo_inurba_marseille","lat":43.2895,"lon":5.39638,"is_reserved":false,"is_disabled":true,"rental_uris":{"android":"levelo://app?vid=62159b96-70de-4225-a341-fe8203f1c374","ios":"levelo://app?vid=62159b96-70de-4225-a341-fe8203f1c374"},"vehicle_type_id":"4","last_reported":1734639041,"current_range_meters":36800,"station_id":"ce4bh3h2rcd13ifvqdn0","pricing_plan_id":"cebpf4jnsgd1na2vs0mg"},{"bike_id":"7beaf302-5a12-4b2d-a6f4-f0141fac4777","system_id":"levelo_inurba_marseille","lat":43.29301,"lon":5.37173,"is_reserved":false,"is_disabled":false,"rental_uris":{"android":"levelo://app?vid=7beaf302-5a12-4b2d-a6f4-f0141fac4777","ios":"levelo://app?vid=7beaf302-5a12-4b2d-a6f4-f0141fac4777"},"vehicle_type_id":"4","last_reported":1734639041,"current_range_meters":7200,"station_id":"ce4bgh92rcd13ifvqb40","pricing_plan_id":"cebpf4jnsgd1na2vs0mg"},{"bike_id":"b7cd2378-a217-42b2-ab0d-f667362cc54e","system_id":"levelo_inurba_marseille","lat":43.29307,"lon":5.37464,"is_reserved":false,"is_disabled":false,"rental_uris":{"android":"levelo://app?vid=b7cd2378-a217-42b2-ab0d-f667362cc54e","ios":"levelo://app?vid=b7cd2378-a217-42b2-ab0d-f667362cc54e"},"vehicle_type_id":"4","last_reported":1734639041,"current_range_meters":38800,"station_id":"ce4bgi12rcd13ifvqb70","pricing_plan_id":"cebpf4jnsgd1na2vs0mg"},{"bike_id":"218a6f05-c850-453d-9a56-d3821e2b7e8c","system_id":"levelo_inurba_marseille","lat":43.29261,"lon":5.38443,"is_reserved":false,"is_disabled":false,"rental_uris":{"android":"levelo://app?vid=218a6f05-c850-453d-9a56-d3821e2b7e8c","ios":"levelo://app?vid=218a6f05-c850-453d-9a56-d3821e2b7e8c"},"vehicle_type_id":"4","last_reported":1734639041,"current_range_meters":8000,"station_id":"ce4bh692rcd13ifvqea0","pricing_plan_id":"cebpf4jnsgd1na2vs0mg"},{"bike_id":"90c5a4c1-5d81-4a5f-a8c5-b57a0106af32","system_id":"levelo_inurba_marseille","lat":43.29535,"lon":5.37503,"is_reserved":false,"is_disabled":false,"rental_uris":{"android":"levelo://app?vid=90c5a4c1-5d81-4a5f-a8c5-b57a0106af32","ios":"levelo://app?vid=90c5a4c1-5d81-4a5f-a8c5-b57a0106af32"},"vehicle_type_id":"4","last_reported":1734639041,"current_range_meters":25600,"station_id":"ce4bgkp2rcd13ifvqbmg","pricing_plan_id":"cebpf4jnsgd1na2vs0mg"},{"bike_id":"4d6fb150-9ef4-4945-8999-98e47e4c07bc","system_id":"levelo_inurba_marseille","lat":43.3069,"lon":5.36982,"is_reserved":false,"is_disabled":false,"rental_uris":{"android":"levelo://app?vid=4d6fb150-9ef4-4945-8999-98e47e4c07bc","ios":"levelo://app?vid=4d6fb150-9ef4-4945-8999-98e47e4c07bc"},"vehicle_type_id":"4","last_reported":1734639041,"current_range_meters":26800,"station_id":"","pricing_plan_id":"cebpf4jnsgd1na2vs0mg"},{"bike_id":"c8a9df44-c9a1-43c7-addd-475d94f4c5ab","system_id":"levelo_inurba_marseille","lat":43.27317,"lon":5.39085,"is_reserved":false,"is_disabled":true,"rental_uris":{"android":"levelo://app?vid=c8a9df44-c9a1-43c7-addd-475d94f4c5ab","ios":"levelo://app?vid=c8a9df44-c9a1-43c7-addd-475d94f4c5ab"},"vehicle_type_id":"4","last_reported":1734639041,"current_range_meters":0,"station_id":"ce4bhgp2rcd13ifvqfe0","pricing_plan_id":"cebpf4jnsgd1na2vs0mg"},{"bike_id":"61c3b9af-9d8d-41f1-8f93-b7efc429c284","system_id":"levelo_inurba_marseille","lat":43.29033,"lon":5.38643,"is_reserved":false,"is_disabled":false,"rental_uris":{"android":"levelo://app?vid=61c3b9af-9d8d-41f1-8f93-b7efc429c284","ios":"levelo://app?vid=61c3b9af-9d8d-41f1-8f93-b7efc429c284"},"vehicle_type_id":"4","last_reported":1734639041,"current_range_meters":25600,"station_id":"ce4bh4p2rcd13ifvqe0g","pricing_plan_id":"cebpf4jnsgd1na2vs0mg"},{"bike_id":"aff1cdb0-dec4-4ee6-9f70-80c0638a28e0","system_id":"levelo_inurba_marseille","lat":43.29256,"lon":5.40909,"is_reserved":false,"is_disabled":false,"rental_uris":{"android":"levelo://app?vid=aff1cdb0-dec4-4ee6-9f70-80c0638a28e0","ios":"levelo://app?vid=aff1cdb0-dec4-4ee6-9f70-80c0638a28e0"},"vehicle_type_id":"4","last_reported":1734639041,"current_range_meters":38800,"station_id":"ce4bh192rcd13ifvqdc0","pricing_plan_id":"cebpf4jnsgd1na2vs0mg"},{"bike_id":"bd3c2355-6ccf-4e6b-9d87-090641e8e6d3","system_id":"levelo_inurba_marseille","lat":43.29262,"lon":5.38444,"is_reserved":false,"is_disabled":false,"rental_uris":{"android":"levelo://app?vid=bd3c2355-6ccf-4e6b-9d87-090641e8e6d3","ios":"levelo://app?vid=bd3c2355-6ccf-4e6b-9d87-090641e8e6d3"},"vehicle_type_id":"4","last_reported":1734639041,"current_range_meters":29600,"station_id":"ce4bh692rcd13ifvqea0","pricing_plan_id":"cebpf4jnsgd1na2vs0mg"},{"bike_id":"a2ffdd54-5331-4e30-b1a2-d9d954b150f4","system_id":"levelo_inurba_marseille","lat":43.25735,"lon":5.41108,"is_reserved":false,"is_disabled":false,"rental_uris":{"android":"levelo://app?vid=a2ffdd54-5331-4e30-b1a2-d9d954b150f4","ios":"levelo://app?vid=a2ffdd54-5331-4e30-b1a2-d9d954b150f4"},"vehicle_type_id":"4","last_reported":1734639041,"current_range_meters":32400,"station_id":"ce4bhkp2rcd13ifvqgd0","pricing_plan_id":"cebpf4jnsgd1na2vs0mg"},{"bike_id":"8feb334f-b96d-4160-ba78-1811ff906a49","system_id":"levelo_inurba_marseille","lat":43.30298,"lon":5.36892,"is_reserved":false,"is_disabled":true,"rental_uris":{"android":"levelo://app?vid=8feb334f-b96d-4160-ba78-1811ff906a49","ios":"levelo://app?vid=8feb334f-b96d-4160-ba78-1811ff906a49"},"vehicle_type_id":"4","last_reported":1734639041,"current_range_meters":35200,"station_id":"ce4bgqh2rcd13ifvqc5g","pricing_plan_id":"cebpf4jnsgd1na2vs0mg"},{"bike_id":"df609213-4f03-423d-a027-9336b146a373","system_id":"levelo_inurba_marseille","lat":43.27572,"lon":5.38404,"is_reserved":false,"is_disabled":false,"rental_uris":{"android":"levelo://app?vid=df609213-4f03-423d-a027-9336b146a373","ios":"levelo://app?vid=df609213-4f03-423d-a027-9336b146a373"},"vehicle_type_id":"4","last_reported":1734639041,"current_range_meters":39200,"station_id":"ce4bhh92rcd13ifvqfi0","pricing_plan_id":"cebpf4jnsgd1na2vs0mg"},{"bike_id":"ba498a36-9fce-48a7-be14-68d3bf3158b2","system_id":"levelo_inurba_marseille","lat":43.29416,"lon":5.38627,"is_reserved":false,"is_disabled":false,"rental_uris":{"android":"levelo://app?vid=ba498a36-9fce-48a7-be14-68d3bf3158b2","ios":"levelo://app?vid=ba498a36-9fce-48a7-be14-68d3bf3158b2"},"vehicle_type_id":"4","last_reported":1734639041,"current_range_meters":8000,"station_id":"ce4bh2h2rcd13ifvqdh0","pricing_plan_id":"cebpf4jnsgd1na2vs0mg"},{"bike_id":"2d8a41af-3df8-4d5f-a567-32d78c487945","system_id":"levelo_inurba_marseille","lat":43.30324,"lon":5.40438,"is_reserved":false,"is_disabled":false,"rental_uris":{"android":"levelo://app?vid=2d8a41af-3df8-4d5f-a567-32d78c487945","ios":"levelo://app?vid=2d8a41af-3df8-4d5f-a567-32d78c487945"},"vehicle_type_id":"4","last_reported":1734639041,"current_range_meters":29600,"station_id":"ce4bh012rcd13ifvqd10","pricing_plan_id":"cebpf4jnsgd1na2vs0mg"},{"bike_id":"b6275950-f469-4e2f-b75e-19cc4edf958f","system_id":"levelo_inurba_marseille","lat":43.281056,"lon":5.378318,"is_reserved":false,"is_disabled":false,"rental_uris":{"android":"levelo://app?vid=b6275950-f469-4e2f-b75e-19cc4edf958f","ios":"levelo://app?vid=b6275950-f469-4e2f-b75e-19cc4edf958f"},"vehicle_type_id":"4","last_reported":1734639041,"current_range_meters":39200,"station_id":"ce4bha12rcd13ifvqee0","pricing_plan_id":"cebpf4jnsgd1na2vs0mg"},{"bike_id":"30cf218e-0565-4b4d-b831-6b6e7547fc40","system_id":"levelo_inurba_marseille","lat":43.26804,"lon":5.40265,"is_reserved":false,"is_disabled":false,"rental_uris":{"android":"levelo://app?vid=30cf218e-0565-4b4d-b831-6b6e7547fc40","ios":"levelo://app?vid=30cf218e-0565-4b4d-b831-6b6e7547fc40"},"vehicle_type_id":"4","last_reported":1734639041,"current_range_meters":38800,"station_id":"ce501612rcd8frsf0b60","pricing_plan_id":"cebpf4jnsgd1na2vs0mg"},{"bike_id":"cae49f96-6bd5-4eb4-9bc2-69846f8c6523","system_id":"levelo_inurba_marseille","lat":43.286832,"lon":5.386543,"is_reserved":false,"is_disabled":false,"rental_uris":{"android":"levelo://app?vid=cae49f96-6bd5-4eb4-9bc2-69846f8c6523","ios":"levelo://app?vid=cae49f96-6bd5-4eb4-9bc2-69846f8c6523"},"vehicle_type_id":"4","last_reported":1734639041,"current_range_meters":38800,"station_id":"ce4bh492rcd13ifvqdug","pricing_plan_id":"cebpf4jnsgd1na2vs0mg"},{"bike_id":"f3b0c0f3-7e98-44f5-b0da-a0289ab973eb","system_id":"levelo_inurba_marseille","lat":43.29292,"lon":5.37459,"is_reserved":false,"is_disabled":false,"rental_uris":{"android":"levelo://app?vid=f3b0c0f3-7e98-44f5-b0da-a0289ab973eb","ios":"levelo://app?vid=f3b0c0f3-7e98-44f5-b0da-a0289ab973eb"},"vehicle_type_id":"4","last_reported":1734639041,"current_range_meters":18800,"station_id":"ce4bgi12rcd13ifvqb70","pricing_plan_id":"cebpf4jnsgd1na2vs0mg"},{"bike_id":"f458c20a-7a70-474d-b9d0-07827ac4a33e","system_id":"levelo_inurba_marseille","lat":43.23964,"lon":5.36627,"is_reserved":false,"is_disabled":false,"rental_uris":{"android":"levelo://app?vid=f458c20a-7a70-474d-b9d0-07827ac4a33e","ios":"levelo://app?vid=f458c20a-7a70-474d-b9d0-07827ac4a33e"},"vehicle_type_id":"4","last_reported":1734639041,"current_range_meters":38000,"station_id":"ce4bhi12rcd13ifvqfp0","pricing_plan_id":"cebpf4jnsgd1na2vs0mg"},{"bike_id":"73fdfca7-1d8b-4e17-85ad-77c27d8788aa","system_id":"levelo_inurba_marseille","lat":43.2872,"lon":5.37947,"is_reserved":false,"is_disabled":false,"rental_uris":{"android":"levelo://app?vid=73fdfca7-1d8b-4e17-85ad-77c27d8788aa","ios":"levelo://app?vid=73fdfca7-1d8b-4e17-85ad-77c27d8788aa"},"vehicle_type_id":"4","last_reported":1734639041,"current_range_meters":19600,"station_id":"ce4bh9p2rcd13ifvqec0","pricing_plan_id":"cebpf4jnsgd1na2vs0mg"},{"bike_id":"7575b20b-a03e-4095-b227-41818472a023","system_id":"levelo_inurba_marseille","lat":43.28969,"lon":5.37843,"is_reserved":false,"is_disabled":false,"rental_uris":{"android":"levelo://app?vid=7575b20b-a03e-4095-b227-41818472a023","ios":"levelo://app?vid=7575b20b-a03e-4095-b227-41818472a023"},"vehicle_type_id":"4","last_reported":1734639041,"current_range_meters":36800,"station_id":"ce4bh9p2rcd13ifvqed0","pricing_plan_id":"cebpf4jnsgd1na2vs0mg"},{"bike_id":"fb63ed66-b13f-4620-8292-cd7cf5187c23","system_id":"levelo_inurba_marseille","lat":43.29203,"lon":5.3932,"is_reserved":false,"is_disabled":false,"rental_uris":{"android":"levelo://app?vid=fb63ed66-b13f-4620-8292-cd7cf5187c23","ios":"levelo://app?vid=fb63ed66-b13f-4620-8292-cd7cf5187c23"},"vehicle_type_id":"4","last_reported":1734639041,"current_range_meters":38800,"station_id":"ce4bh192rcd13ifvqdd0","pricing_plan_id":"cebpf4jnsgd1na2vs0mg"},{"bike_id":"17b2d2b0-9855-46b4-a478-0bd9c7277056","system_id":"levelo_inurba_marseille","lat":43.30904,"lon":5.37844,"is_reserved":false,"is_disabled":true,"rental_uris":{"android":"levelo://app?vid=17b2d2b0-9855-46b4-a478-0bd9c7277056","ios":"levelo://app?vid=17b2d2b0-9855-46b4-a478-0bd9c7277056"},"vehicle_type_id":"4","last_reported":1734639041,"current_range_meters":0,"station_id":"","pricing_plan_id":"cebpf4jnsgd1na2vs0mg"},{"bike_id":"4828f3b9-c720-46e9-9ac1-272643fdf3d6","system_id":"levelo_inurba_marseille","lat":43.28033,"lon":5.36951,"is_reserved":false,"is_disabled":false,"rental_uris":{"android":"levelo://app?vid=4828f3b9-c720-46e9-9ac1-272643fdf3d6","ios":"levelo://app?vid=4828f3b9-c720-46e9-9ac1-272643fdf3d6"},"vehicle_type_id":"4","last_reported":1734639041,"current_range_meters":30000,"station_id":"ce4bha12rcd13ifvqef0","pricing_plan_id":"cebpf4jnsgd1na2vs0mg"},{"bike_id":"ee564002-2796-4452-9350-37ac1308b62d","system_id":"levelo_inurba_marseille","lat":43.26941,"lon":5.40252,"is_reserved":false,"is_disabled":false,"rental_uris":{"android":"levelo://app?vid=ee564002-2796-4452-9350-37ac1308b62d","ios":"levelo://app?vid=ee564002-2796-4452-9350-37ac1308b62d"},"vehicle_type_id":"4","last_reported":1734639041,"current_range_meters":36800,"station_id":"cjm6bp8fraef2m0cb0m0","pricing_plan_id":"cebpf4jnsgd1na2vs0mg"},{"bike_id":"6f0dc6ae-ac63-4f7a-8f7e-d4d4c5fb924c","system_id":"levelo_inurba_marseille","lat":43.29541,"lon":5.3855,"is_reserved":false,"is_disabled":false,"rental_uris":{"android":"levelo://app?vid=6f0dc6ae-ac63-4f7a-8f7e-d4d4c5fb924c","ios":"levelo://app?vid=6f0dc6ae-ac63-4f7a-8f7e-d4d4c5fb924c"},"vehicle_type_id":"4","last_reported":1734639041,"current_range_meters":37600,"station_id":"ce4bgih2rcd13ifvqba0","pricing_plan_id":"cebpf4jnsgd1na2vs0mg"},{"bike_id":"01ac8352-e33d-4bd4-bb93-d7381b658f36","system_id":"levelo_inurba_marseille","lat":43.32365,"lon":5.38882,"is_reserved":false,"is_disabled":false,"rental_uris":{"android":"levelo://app?vid=01ac8352-e33d-4bd4-bb93-d7381b658f36","ios":"levelo://app?vid=01ac8352-e33d-4bd4-bb93-d7381b658f36"},"vehicle_type_id":"4","last_reported":1734639041,"current_range_meters":12800,"station_id":"ce4bhqp2rcd13ifvqhog","pricing_plan_id":"cebpf4jnsgd1na2vs0mg"},{"bike_id":"29218885-1c50-43e0-a925-2ca4c134e5a9","system_id":"levelo_inurba_marseille","lat":43.3093,"lon":5.40154,"is_reserved":false,"is_disabled":false,"rental_uris":{"android":"levelo://app?vid=29218885-1c50-43e0-a925-2ca4c134e5a9","ios":"levelo://app?vid=29218885-1c50-43e0-a925-2ca4c134e5a9"},"vehicle_type_id":"4","last_reported":1734639041,"current_range_meters":38800,"station_id":"ce4bgvp2rcd13ifvqct0","pricing_plan_id":"cebpf4jnsgd1na2vs0mg"},{"bike_id":"378038dd-41e7-46ae-b201-98883b77a7ce","system_id":"levelo_inurba_marseille","lat":43.29417,"lon":5.38631,"is_reserved":false,"is_disabled":false,"rental_uris":{"android":"levelo://app?vid=378038dd-41e7-46ae-b201-98883b77a7ce","ios":"levelo://app?vid=378038dd-41e7-46ae-b201-98883b77a7ce"},"vehicle_type_id":"4","last_reported":1734639041,"current_range_meters":26000,"station_id":"ce4bh2h2rcd13ifvqdh0","pricing_plan_id":"cebpf4jnsgd1na2vs0mg"},{"bike_id":"ebf39951-abff-4f4e-a169-bf35d1b0d961","system_id":"levelo_inurba_marseille","lat":43.28351,"lon":5.381,"is_reserved":false,"is_disabled":false,"rental_uris":{"android":"levelo://app?vid=ebf39951-abff-4f4e-a169-bf35d1b0d961","ios":"levelo://app?vid=ebf39951-abff-4f4e-a169-bf35d1b0d961"},"vehicle_type_id":"4","last_reported":1734639041,"current_range_meters":30800,"station_id":"ce4bh412rcd13ifvqdr0","pricing_plan_id":"cebpf4jnsgd1na2vs0mg"},{"bike_id":"ed754773-b6de-463a-8f19-f8fe53ccd562","system_id":"levelo_inurba_marseille","lat":43.28492,"lon":5.3857,"is_reserved":false,"is_disabled":false,"rental_uris":{"android":"levelo://app?vid=ed754773-b6de-463a-8f19-f8fe53ccd562","ios":"levelo://app?vid=ed754773-b6de-463a-8f19-f8fe53ccd562"},"vehicle_type_id":"4","last_reported":1734639041,"current_range_meters":26000,"station_id":"ce4bh8p2rcd13ifvqeb0","pricing_plan_id":"cebpf4jnsgd1na2vs0mg"},{"bike_id":"6dd7ced6-a614-45f4-afdd-d21affa34a4d","system_id":"levelo_inurba_marseille","lat":43.2846,"lon":5.35891,"is_reserved":false,"is_disabled":false,"rental_uris":{"android":"levelo://app?vid=6dd7ced6-a614-45f4-afdd-d21affa34a4d","ios":"levelo://app?vid=6dd7ced6-a614-45f4-afdd-d21affa34a4d"},"vehicle_type_id":"4","last_reported":1734639041,"current_range_meters":36800,"station_id":"ce4bhah2rcd13ifvqei0","pricing_plan_id":"cebpf4jnsgd1na2vs0mg"},{"bike_id":"1908cece-809f-4547-a252-1da450c21f63","system_id":"levelo_inurba_marseille","lat":43.27808,"lon":5.40711,"is_reserved":false,"is_disabled":false,"rental_uris":{"android":"levelo://app?vid=1908cece-809f-4547-a252-1da450c21f63","ios":"levelo://app?vid=1908cece-809f-4547-a252-1da450c21f63"},"vehicle_type_id":"4","last_reported":1734639041,"current_range_meters":10800,"station_id":"ce4bhnh2rcd13ifvqgtg","pricing_plan_id":"cebpf4jnsgd1na2vs0mg"},{"bike_id":"edd917b9-338b-4783-bfc3-aa5dddead92d","system_id":"levelo_inurba_marseille","lat":43.2929,"lon":5.37448,"is_reserved":false,"is_disabled":false,"rental_uris":{"android":"levelo://app?vid=edd917b9-338b-4783-bfc3-aa5dddead92d","ios":"levelo://app?vid=edd917b9-338b-4783-bfc3-aa5dddead92d"},"vehicle_type_id":"4","last_reported":1734639041,"current_range_meters":24400,"station_id":"ce4bgi12rcd13ifvqb70","pricing_plan_id":"cebpf4jnsgd1na2vs0mg"},{"bike_id":"0a751186-01f8-453d-9242-0795772b0426","system_id":"levelo_inurba_marseille","lat":43.292668,"lon":5.384345,"is_reserved":false,"is_disabled":false,"rental_uris":{"android":"levelo://app?vid=0a751186-01f8-453d-9242-0795772b0426","ios":"levelo://app?vid=0a751186-01f8-453d-9242-0795772b0426"},"vehicle_type_id":"4","last_reported":1734639041,"current_range_meters":38000,"station_id":"ce4bh692rcd13ifvqea0","pricing_plan_id":"cebpf4jnsgd1na2vs0mg"},{"bike_id":"60c65969-23fd-4a90-bca1-a9b75c146b03","system_id":"levelo_inurba_marseille","lat":43.30673,"lon":5.40088,"is_reserved":false,"is_disabled":false,"rental_uris":{"android":"levelo://app?vid=60c65969-23fd-4a90-bca1-a9b75c146b03","ios":"levelo://app?vid=60c65969-23fd-4a90-bca1-a9b75c146b03"},"vehicle_type_id":"4","last_reported":1734639041,"current_range_meters":18800,"station_id":"ce4bh112rcd13ifvqda0","pricing_plan_id":"cebpf4jnsgd1na2vs0mg"},{"bike_id":"e6de4f74-4c83-4b63-828e-407f36881c0b","system_id":"levelo_inurba_marseille","lat":43.29269,"lon":5.38433,"is_reserved":false,"is_disabled":false,"rental_uris":{"android":"levelo://app?vid=e6de4f74-4c83-4b63-828e-407f36881c0b","ios":"levelo://app?vid=e6de4f74-4c83-4b63-828e-407f36881c0b"},"vehicle_type_id":"4","last_reported":1734639041,"current_range_meters":16400,"station_id":"ce4bh692rcd13ifvqea0","pricing_plan_id":"cebpf4jnsgd1na2vs0mg"},{"bike_id":"f4ef806d-17a8-4d05-acb7-bcdaf097c6d7","system_id":"levelo_inurba_marseille","lat":43.28971,"lon":5.37857,"is_reserved":false,"is_disabled":false,"rental_uris":{"android":"levelo://app?vid=f4ef806d-17a8-4d05-acb7-bcdaf097c6d7","ios":"levelo://app?vid=f4ef806d-17a8-4d05-acb7-bcdaf097c6d7"},"vehicle_type_id":"4","last_reported":1734639041,"current_range_meters":36400,"station_id":"ce4bh9p2rcd13ifvqed0","pricing_plan_id":"cebpf4jnsgd1na2vs0mg"},{"bike_id":"7e77670d-f8cc-44da-9355-fef42fbf70af","system_id":"levelo_inurba_marseille","lat":43.33022,"lon":5.3902,"is_reserved":false,"is_disabled":false,"rental_uris":{"android":"levelo://app?vid=7e77670d-f8cc-44da-9355-fef42fbf70af","ios":"levelo://app?vid=7e77670d-f8cc-44da-9355-fef42fbf70af"},"vehicle_type_id":"4","last_reported":1734639041,"current_range_meters":38800,"station_id":"ce4bhr92rcd13ifvqhrg","pricing_plan_id":"cebpf4jnsgd1na2vs0mg"},{"bike_id":"9b4e8892-0a38-47e0-b669-2cacac85c950","system_id":"levelo_inurba_marseille","lat":43.30599,"lon":5.36554,"is_reserved":false,"is_disabled":false,"rental_uris":{"android":"levelo://app?vid=9b4e8892-0a38-47e0-b669-2cacac85c950","ios":"levelo://app?vid=9b4e8892-0a38-47e0-b669-2cacac85c950"},"vehicle_type_id":"4","last_reported":1734639041,"current_range_meters":2800,"station_id":"ce4bgs12rcd13ifvqcag","pricing_plan_id":"cebpf4jnsgd1na2vs0mg"},{"bike_id":"275c8729-7ec6-449e-8a5b-704994a1d376","system_id":"levelo_inurba_marseille","lat":43.29534,"lon":5.38553,"is_reserved":false,"is_disabled":false,"rental_uris":{"android":"levelo://app?vid=275c8729-7ec6-449e-8a5b-704994a1d376","ios":"levelo://app?vid=275c8729-7ec6-449e-8a5b-704994a1d376"},"vehicle_type_id":"4","last_reported":1734639041,"current_range_meters":38800,"station_id":"ce4bgih2rcd13ifvqba0","pricing_plan_id":"cebpf4jnsgd1na2vs0mg"},{"bike_id":"d03d3e55-b313-4f91-a0c3-6838be182556","system_id":"levelo_inurba_marseille","lat":43.33021,"lon":5.39043,"is_reserved":false,"is_disabled":false,"rental_uris":{"android":"levelo://app?vid=d03d3e55-b313-4f91-a0c3-6838be182556","ios":"levelo://app?vid=d03d3e55-b313-4f91-a0c3-6838be182556"},"vehicle_type_id":"4","last_reported":1734639041,"current_range_meters":25200,"station_id":"ce4bhr92rcd13ifvqhrg","pricing_plan_id":"cebpf4jnsgd1na2vs0mg"},{"bike_id":"d4a92d73-458f-4633-b078-8b09bedbb320","system_id":"levelo_inurba_marseille","lat":43.31326,"lon":5.39695,"is_reserved":false,"is_disabled":false,"rental_uris":{"android":"levelo://app?vid=d4a92d73-458f-4633-b078-8b09bedbb320","ios":"levelo://app?vid=d4a92d73-458f-4633-b078-8b09bedbb320"},"vehicle_type_id":"4","last_reported":1734639041,"current_range_meters":37600,"station_id":"ce4bgvp2rcd13ifvqcu0","pricing_plan_id":"cebpf4jnsgd1na2vs0mg"},{"bike_id":"2a12bde8-ca1e-4ca8-8cbb-8dbf9a638106","system_id":"levelo_inurba_marseille","lat":43.23197,"lon":5.35552,"is_reserved":false,"is_disabled":false,"rental_uris":{"android":"levelo://app?vid=2a12bde8-ca1e-4ca8-8cbb-8dbf9a638106","ios":"levelo://app?vid=2a12bde8-ca1e-4ca8-8cbb-8dbf9a638106"},"vehicle_type_id":"4","last_reported":1734639041,"current_range_meters":28400,"station_id":"ce4bhu92rcd13ifvqi70","pricing_plan_id":"cebpf4jnsgd1na2vs0mg"},{"bike_id":"82b98b08-cf84-40f3-a0a4-1136038c5b5f","system_id":"levelo_inurba_marseille","lat":43.28857,"lon":5.35845,"is_reserved":false,"is_disabled":false,"rental_uris":{"android":"levelo://app?vid=82b98b08-cf84-40f3-a0a4-1136038c5b5f","ios":"levelo://app?vid=82b98b08-cf84-40f3-a0a4-1136038c5b5f"},"vehicle_type_id":"4","last_reported":1734639041,"current_range_meters":37600,"station_id":"ce4bhb12rcd13ifvqem0","pricing_plan_id":"cebpf4jnsgd1na2vs0mg"},{"bike_id":"418228eb-2a62-45c8-81f2-f6645d62bb4d","system_id":"levelo_inurba_marseille","lat":43.31326,"lon":5.39687,"is_reserved":false,"is_disabled":false,"rental_uris":{"android":"levelo://app?vid=418228eb-2a62-45c8-81f2-f6645d62bb4d","ios":"levelo://app?vid=418228eb-2a62-45c8-81f2-f6645d62bb4d"},"vehicle_type_id":"4","last_reported":1734639041,"current_range_meters":26800,"station_id":"ce4bgvp2rcd13ifvqcu0","pricing_plan_id":"cebpf4jnsgd1na2vs0mg"},{"bike_id":"ed7b170e-4179-4214-ab88-365fece662ac","system_id":"levelo_inurba_marseille","lat":43.29594,"lon":5.38104,"is_reserved":false,"is_disabled":false,"rental_uris":{"android":"levelo://app?vid=ed7b170e-4179-4214-ab88-365fece662ac","ios":"levelo://app?vid=ed7b170e-4179-4214-ab88-365fece662ac"},"vehicle_type_id":"4","last_reported":1734639041,"current_range_meters":32400,"station_id":"ce4bgl12rcd13ifvqbo0","pricing_plan_id":"cebpf4jnsgd1na2vs0mg"},{"bike_id":"09e160dc-9004-4761-890b-e2fd94af8faa","system_id":"levelo_inurba_marseille","lat":43.30877,"lon":5.39647,"is_reserved":false,"is_disabled":false,"rental_uris":{"android":"levelo://app?vid=09e160dc-9004-4761-890b-e2fd94af8faa","ios":"levelo://app?vid=09e160dc-9004-4761-890b-e2fd94af8faa"},"vehicle_type_id":"4","last_reported":1734639041,"current_range_meters":34000,"station_id":"ce4bh012rcd13ifvqcv0","pricing_plan_id":"cebpf4jnsgd1na2vs0mg"},{"bike_id":"c2a0043c-59b5-4f51-b693-8b4b904b8dec","system_id":"levelo_inurba_marseille","lat":43.31077,"lon":5.38358,"is_reserved":false,"is_disabled":false,"rental_uris":{"android":"levelo://app?vid=c2a0043c-59b5-4f51-b693-8b4b904b8dec","ios":"levelo://app?vid=c2a0043c-59b5-4f51-b693-8b4b904b8dec"},"vehicle_type_id":"4","last_reported":1734639041,"current_range_meters":28000,"station_id":"ce4bgv92rcd13ifvqcr0","pricing_plan_id":"cebpf4jnsgd1na2vs0mg"},{"bike_id":"96d01823-b579-45ee-ae04-404bd1c72ad1","system_id":"levelo_inurba_marseille","lat":43.292,"lon":5.39328,"is_reserved":false,"is_disabled":false,"rental_uris":{"android":"levelo://app?vid=96d01823-b579-45ee-ae04-404bd1c72ad1","ios":"levelo://app?vid=96d01823-b579-45ee-ae04-404bd1c72ad1"},"vehicle_type_id":"4","last_reported":1734639041,"current_range_meters":34000,"station_id":"ce4bh192rcd13ifvqdd0","pricing_plan_id":"cebpf4jnsgd1na2vs0mg"},{"bike_id":"df784841-9a24-4ff5-bc98-630963ba4ed4","system_id":"levelo_inurba_marseille","lat":43.29529,"lon":5.38544,"is_reserved":false,"is_disabled":false,"rental_uris":{"android":"levelo://app?vid=df784841-9a24-4ff5-bc98-630963ba4ed4","ios":"levelo://app?vid=df784841-9a24-4ff5-bc98-630963ba4ed4"},"vehicle_type_id":"4","last_reported":1734639041,"current_range_meters":38800,"station_id":"ce4bgih2rcd13ifvqba0","pricing_plan_id":"cebpf4jnsgd1na2vs0mg"},{"bike_id":"b002d028-e42c-46e2-93ce-a18a7a90546e","system_id":"levelo_inurba_marseille","lat":43.32292,"lon":5.38265,"is_reserved":false,"is_disabled":false,"rental_uris":{"android":"levelo://app?vid=b002d028-e42c-46e2-93ce-a18a7a90546e","ios":"levelo://app?vid=b002d028-e42c-46e2-93ce-a18a7a90546e"},"vehicle_type_id":"4","last_reported":1734639041,"current_range_meters":21600,"station_id":"ce4bhr12rcd13ifvqhqg","pricing_plan_id":"cebpf4jnsgd1na2vs0mg"},{"bike_id":"8d2d1fc5-8995-4400-8cfc-148fb6ed4a6d","system_id":"levelo_inurba_marseille","lat":43.27498,"lon":5.42449,"is_reserved":false,"is_disabled":false,"rental_uris":{"android":"levelo://app?vid=8d2d1fc5-8995-4400-8cfc-148fb6ed4a6d","ios":"levelo://app?vid=8d2d1fc5-8995-4400-8cfc-148fb6ed4a6d"},"vehicle_type_id":"4","last_reported":1734639041,"current_range_meters":38800,"station_id":"ce4bhn92rcd13ifvqgrg","pricing_plan_id":"cebpf4jnsgd1na2vs0mg"},{"bike_id":"38c427a0-efad-4e8a-a8a5-0e4a0fd355fe","system_id":"levelo_inurba_marseille","lat":43.296,"lon":5.38076,"is_reserved":false,"is_disabled":false,"rental_uris":{"android":"levelo://app?vid=38c427a0-efad-4e8a-a8a5-0e4a0fd355fe","ios":"levelo://app?vid=38c427a0-efad-4e8a-a8a5-0e4a0fd355fe"},"vehicle_type_id":"4","last_reported":1734639041,"current_range_meters":38800,"station_id":"ce4bgl12rcd13ifvqbo0","pricing_plan_id":"cebpf4jnsgd1na2vs0mg"},{"bike_id":"8cf5dce1-141e-48cf-816b-74dc2a4ad579","system_id":"levelo_inurba_marseille","lat":43.295828,"lon":5.375111,"is_reserved":false,"is_disabled":true,"rental_uris":{"android":"levelo://app?vid=8cf5dce1-141e-48cf-816b-74dc2a4ad579","ios":"levelo://app?vid=8cf5dce1-141e-48cf-816b-74dc2a4ad579"},"vehicle_type_id":"4","last_reported":1734639041,"current_range_meters":36800,"station_id":"ce4bgh92rcd13ifvqb50","pricing_plan_id":"cebpf4jnsgd1na2vs0mg"},{"bike_id":"f27d7682-cdb6-44d9-8892-167d5437c582","system_id":"levelo_inurba_marseille","lat":43.28035,"lon":5.36943,"is_reserved":false,"is_disabled":false,"rental_uris":{"android":"levelo://app?vid=f27d7682-cdb6-44d9-8892-167d5437c582","ios":"levelo://app?vid=f27d7682-cdb6-44d9-8892-167d5437c582"},"vehicle_type_id":"4","last_reported":1734639041,"current_range_meters":9600,"station_id":"ce4bha12rcd13ifvqef0","pricing_plan_id":"cebpf4jnsgd1na2vs0mg"},{"bike_id":"f23efe61-0104-4164-a2df-9fbf471f6daa","system_id":"levelo_inurba_marseille","lat":43.2649,"lon":5.39537,"is_reserved":false,"is_disabled":true,"rental_uris":{"android":"levelo://app?vid=f23efe61-0104-4164-a2df-9fbf471f6daa","ios":"levelo://app?vid=f23efe61-0104-4164-a2df-9fbf471f6daa"},"vehicle_type_id":"4","last_reported":1734639041,"current_range_meters":1600,"station_id":"ce4bhi12rcd13ifvqfq0","pricing_plan_id":"cebpf4jnsgd1na2vs0mg"},{"bike_id":"50722791-47fc-42f0-b0d7-38123da731c9","system_id":"levelo_inurba_marseille","lat":43.2798,"lon":5.38724,"is_reserved":false,"is_disabled":false,"rental_uris":{"android":"levelo://app?vid=50722791-47fc-42f0-b0d7-38123da731c9","ios":"levelo://app?vid=50722791-47fc-42f0-b0d7-38123da731c9"},"vehicle_type_id":"4","last_reported":1734639041,"current_range_meters":22800,"station_id":"ce4bhg12rcd13ifvqf80","pricing_plan_id":"cebpf4jnsgd1na2vs0mg"},{"bike_id":"b44f9236-c33f-43b3-ab7e-0f32e9951c9e","system_id":"levelo_inurba_marseille","lat":43.23189,"lon":5.35558,"is_reserved":false,"is_disabled":false,"rental_uris":{"android":"levelo://app?vid=b44f9236-c33f-43b3-ab7e-0f32e9951c9e","ios":"levelo://app?vid=b44f9236-c33f-43b3-ab7e-0f32e9951c9e"},"vehicle_type_id":"4","last_reported":1734639041,"current_range_meters":9600,"station_id":"ce4bhu92rcd13ifvqi70","pricing_plan_id":"cebpf4jnsgd1na2vs0mg"},{"bike_id":"4620dcd9-c3a6-4871-8162-c4a28f6d33ca","system_id":"levelo_inurba_marseille","lat":43.31885,"lon":5.40743,"is_reserved":false,"is_disabled":true,"rental_uris":{"android":"levelo://app?vid=4620dcd9-c3a6-4871-8162-c4a28f6d33ca","ios":"levelo://app?vid=4620dcd9-c3a6-4871-8162-c4a28f6d33ca"},"vehicle_type_id":"4","last_reported":1734639041,"current_range_meters":38800,"station_id":"ce4bhq12rcd13ifvqhig","pricing_plan_id":"cebpf4jnsgd1na2vs0mg"},{"bike_id":"6e608818-1db2-4182-8679-2e4fec211f12","system_id":"levelo_inurba_marseille","lat":43.31165,"lon":5.38719,"is_reserved":false,"is_disabled":false,"rental_uris":{"android":"levelo://app?vid=6e608818-1db2-4182-8679-2e4fec211f12","ios":"levelo://app?vid=6e608818-1db2-4182-8679-2e4fec211f12"},"vehicle_type_id":"4","last_reported":1734639041,"current_range_meters":34000,"station_id":"ce4bgv12rcd13ifvqcp0","pricing_plan_id":"cebpf4jnsgd1na2vs0mg"},{"bike_id":"373c0c38-cc4e-45ba-b29d-76c11ae4587d","system_id":"levelo_inurba_marseille","lat":43.3133,"lon":5.39693,"is_reserved":false,"is_disabled":false,"rental_uris":{"android":"levelo://app?vid=373c0c38-cc4e-45ba-b29d-76c11ae4587d","ios":"levelo://app?vid=373c0c38-cc4e-45ba-b29d-76c11ae4587d"},"vehicle_type_id":"4","last_reported":1734639041,"current_range_meters":8400,"station_id":"ce4bgvp2rcd13ifvqcu0","pricing_plan_id":"cebpf4jnsgd1na2vs0mg"},{"bike_id":"bc03db78-13f5-4eb3-8825-1473e4d86c90","system_id":"levelo_inurba_marseille","lat":43.2979,"lon":5.39346,"is_reserved":false,"is_disabled":false,"rental_uris":{"android":"levelo://app?vid=bc03db78-13f5-4eb3-8825-1473e4d86c90","ios":"levelo://app?vid=bc03db78-13f5-4eb3-8825-1473e4d86c90"},"vehicle_type_id":"4","last_reported":1734639041,"current_range_meters":38800,"station_id":"chh1huq6cuj3fo74tm60","pricing_plan_id":"cebpf4jnsgd1na2vs0mg"},{"bike_id":"e547e21c-1484-4643-b569-ed0cf2a32d36","system_id":"levelo_inurba_marseille","lat":43.2467,"lon":5.38154,"is_reserved":false,"is_disabled":false,"rental_uris":{"android":"levelo://app?vid=e547e21c-1484-4643-b569-ed0cf2a32d36","ios":"levelo://app?vid=e547e21c-1484-4643-b569-ed0cf2a32d36"},"vehicle_type_id":"4","last_reported":1734639041,"current_range_meters":38800,"station_id":"ce4bhih2rcd13ifvqfr0","pricing_plan_id":"cebpf4jnsgd1na2vs0mg"},{"bike_id":"34c4e0ad-b1d5-40d2-a619-65b9e364ecad","system_id":"levelo_inurba_marseille","lat":43.3065,"lon":5.40099,"is_reserved":false,"is_disabled":false,"rental_uris":{"android":"levelo://app?vid=34c4e0ad-b1d5-40d2-a619-65b9e364ecad","ios":"levelo://app?vid=34c4e0ad-b1d5-40d2-a619-65b9e364ecad"},"vehicle_type_id":"4","last_reported":1734639041,"current_range_meters":24800,"station_id":"ce4bh112rcd13ifvqda0","pricing_plan_id":"cebpf4jnsgd1na2vs0mg"},{"bike_id":"b5b3837f-5e02-4def-9495-b31b79600261","system_id":"levelo_inurba_marseille","lat":43.32334,"lon":5.40621,"is_reserved":false,"is_disabled":false,"rental_uris":{"android":"levelo://app?vid=b5b3837f-5e02-4def-9495-b31b79600261","ios":"levelo://app?vid=b5b3837f-5e02-4def-9495-b31b79600261"},"vehicle_type_id":"4","last_reported":1734639041,"current_range_meters":26000,"station_id":"ce4bhq92rcd13ifvqhjg","pricing_plan_id":"cebpf4jnsgd1na2vs0mg"},{"bike_id":"22870af6-3da2-4cb5-9f58-1e542bc59edd","system_id":"levelo_inurba_marseille","lat":43.30533,"lon":5.38417,"is_reserved":false,"is_disabled":false,"rental_uris":{"android":"levelo://app?vid=22870af6-3da2-4cb5-9f58-1e542bc59edd","ios":"levelo://app?vid=22870af6-3da2-4cb5-9f58-1e542bc59edd"},"vehicle_type_id":"4","last_reported":1734639041,"current_range_meters":30000,"station_id":"ce4bgg92rcd13ifvqb30","pricing_plan_id":"cebpf4jnsgd1na2vs0mg"},{"bike_id":"48bd608f-85bc-4b07-9175-79b02463ae92","system_id":"levelo_inurba_marseille","lat":43.29559,"lon":5.42287,"is_reserved":false,"is_disabled":false,"rental_uris":{"android":"levelo://app?vid=48bd608f-85bc-4b07-9175-79b02463ae92","ios":"levelo://app?vid=48bd608f-85bc-4b07-9175-79b02463ae92"},"vehicle_type_id":"4","last_reported":1734639041,"current_range_meters":6800,"station_id":"ce4bhph2rcd13ifvqhdg","pricing_plan_id":"cebpf4jnsgd1na2vs0mg"},{"bike_id":"0f70da87-3837-4a1e-b64f-ed3d553df758","system_id":"levelo_inurba_marseille","lat":43.254958,"lon":5.376485,"is_reserved":false,"is_disabled":false,"rental_uris":{"android":"levelo://app?vid=0f70da87-3837-4a1e-b64f-ed3d553df758","ios":"levelo://app?vid=0f70da87-3837-4a1e-b64f-ed3d553df758"},"vehicle_type_id":"4","last_reported":1734639041,"current_range_meters":39200,"station_id":"ce4bhh12rcd13ifvqff0","pricing_plan_id":"cebpf4jnsgd1na2vs0mg"},{"bike_id":"0ee567dd-8d1f-4513-95d0-49b3aea08c53","system_id":"levelo_inurba_marseille","lat":43.30884,"lon":5.37205,"is_reserved":false,"is_disabled":true,"rental_uris":{"android":"levelo://app?vid=0ee567dd-8d1f-4513-95d0-49b3aea08c53","ios":"levelo://app?vid=0ee567dd-8d1f-4513-95d0-49b3aea08c53"},"vehicle_type_id":"4","last_reported":1734639041,"current_range_meters":27600,"station_id":"ce4bguh2rcd13ifvqckg","pricing_plan_id":"cebpf4jnsgd1na2vs0mg"},{"bike_id":"b52c10f4-1f06-453c-bfdf-7d6729ecfe9c","system_id":"levelo_inurba_marseille","lat":43.23188,"lon":5.39979,"is_reserved":false,"is_disabled":false,"rental_uris":{"android":"levelo://app?vid=b52c10f4-1f06-453c-bfdf-7d6729ecfe9c","ios":"levelo://app?vid=b52c10f4-1f06-453c-bfdf-7d6729ecfe9c"},"vehicle_type_id":"4","last_reported":1734639041,"current_range_meters":37600,"station_id":"ce4bhn12rcd13ifvqgqg","pricing_plan_id":"cebpf4jnsgd1na2vs0mg"},{"bike_id":"440ca081-3680-4796-9335-63ecfa8ab893","system_id":"levelo_inurba_marseille","lat":43.24405,"lon":5.37057,"is_reserved":false,"is_disabled":false,"rental_uris":{"android":"levelo://app?vid=440ca081-3680-4796-9335-63ecfa8ab893","ios":"levelo://app?vid=440ca081-3680-4796-9335-63ecfa8ab893"},"vehicle_type_id":"4","last_reported":1734639041,"current_range_meters":38800,"station_id":"ce4bhhh2rcd13ifvqfk0","pricing_plan_id":"cebpf4jnsgd1na2vs0mg"},{"bike_id":"87ea2282-7236-454a-a021-e08bfe13ea3d","system_id":"levelo_inurba_marseille","lat":43.28033,"lon":5.36953,"is_reserved":false,"is_disabled":false,"rental_uris":{"android":"levelo://app?vid=87ea2282-7236-454a-a021-e08bfe13ea3d","ios":"levelo://app?vid=87ea2282-7236-454a-a021-e08bfe13ea3d"},"vehicle_type_id":"4","last_reported":1734639041,"current_range_meters":39200,"station_id":"ce4bha12rcd13ifvqef0","pricing_plan_id":"cebpf4jnsgd1na2vs0mg"},{"bike_id":"dcbe64cd-9357-420f-b290-dbaf86f13455","system_id":"levelo_inurba_marseille","lat":43.33021,"lon":5.39036,"is_reserved":false,"is_disabled":false,"rental_uris":{"android":"levelo://app?vid=dcbe64cd-9357-420f-b290-dbaf86f13455","ios":"levelo://app?vid=dcbe64cd-9357-420f-b290-dbaf86f13455"},"vehicle_type_id":"4","last_reported":1734639041,"current_range_meters":38800,"station_id":"ce4bhr92rcd13ifvqhrg","pricing_plan_id":"cebpf4jnsgd1na2vs0mg"},{"bike_id":"bb79b6ad-5b7c-46be-bc8a-aa502f4ba4ee","system_id":"levelo_inurba_marseille","lat":43.29189,"lon":5.35813,"is_reserved":false,"is_disabled":false,"rental_uris":{"android":"levelo://app?vid=bb79b6ad-5b7c-46be-bc8a-aa502f4ba4ee","ios":"levelo://app?vid=bb79b6ad-5b7c-46be-bc8a-aa502f4ba4ee"},"vehicle_type_id":"4","last_reported":1734639041,"current_range_meters":38800,"station_id":"ce4bhb12rcd13ifvqel0","pricing_plan_id":"cebpf4jnsgd1na2vs0mg"},{"bike_id":"8fb8bc1c-60e9-4605-b1e3-07ddfa8d5745","system_id":"levelo_inurba_marseille","lat":43.29445,"lon":5.39756,"is_reserved":false,"is_disabled":false,"rental_uris":{"android":"levelo://app?vid=8fb8bc1c-60e9-4605-b1e3-07ddfa8d5745","ios":"levelo://app?vid=8fb8bc1c-60e9-4605-b1e3-07ddfa8d5745"},"vehicle_type_id":"4","last_reported":1734639041,"current_range_meters":38800,"station_id":"ce4bh3h2rcd13ifvqdo0","pricing_plan_id":"cebpf4jnsgd1na2vs0mg"},{"bike_id":"44464573-5630-404b-a999-698ba48ab6b8","system_id":"levelo_inurba_marseille","lat":43.27178,"lon":5.40989,"is_reserved":false,"is_disabled":false,"rental_uris":{"android":"levelo://app?vid=44464573-5630-404b-a999-698ba48ab6b8","ios":"levelo://app?vid=44464573-5630-404b-a999-698ba48ab6b8"},"vehicle_type_id":"4","last_reported":1734639041,"current_range_meters":38800,"station_id":"ce4bhl12rcd13ifvqgf0","pricing_plan_id":"cebpf4jnsgd1na2vs0mg"},{"bike_id":"2075103d-003b-4e82-9909-88391720ce7c","system_id":"levelo_inurba_marseille","lat":43.28475,"lon":5.38416,"is_reserved":false,"is_disabled":false,"rental_uris":{"android":"levelo://app?vid=2075103d-003b-4e82-9909-88391720ce7c","ios":"levelo://app?vid=2075103d-003b-4e82-9909-88391720ce7c"},"vehicle_type_id":"4","last_reported":1734639041,"current_range_meters":26000,"station_id":"ce4bh512rcd13ifvqe3g","pricing_plan_id":"cebpf4jnsgd1na2vs0mg"},{"bike_id":"2e0a4273-9b64-4eb1-8d1b-b8e55991eb0a","system_id":"levelo_inurba_marseille","lat":43.272617,"lon":5.400689,"is_reserved":false,"is_disabled":false,"rental_uris":{"android":"levelo://app?vid=2e0a4273-9b64-4eb1-8d1b-b8e55991eb0a","ios":"levelo://app?vid=2e0a4273-9b64-4eb1-8d1b-b8e55991eb0a"},"vehicle_type_id":"4","last_reported":1734639041,"current_range_meters":4000,"station_id":"","pricing_plan_id":"cebpf4jnsgd1na2vs0mg"},{"bike_id":"0391c006-ec43-49fa-8940-87deadb582b4","system_id":"levelo_inurba_marseille","lat":43.29269,"lon":5.36841,"is_reserved":false,"is_disabled":false,"rental_uris":{"android":"levelo://app?vid=0391c006-ec43-49fa-8940-87deadb582b4","ios":"levelo://app?vid=0391c006-ec43-49fa-8940-87deadb582b4"},"vehicle_type_id":"4","last_reported":1734639041,"current_range_meters":6800,"station_id":"ce4bhbp2rcd13ifvqesg","pricing_plan_id":"cebpf4jnsgd1na2vs0mg"},{"bike_id":"3c8fa5c9-de8f-4837-ad65-0da846e013c3","system_id":"levelo_inurba_marseille","lat":43.3177,"lon":5.39012,"is_reserved":false,"is_disabled":false,"rental_uris":{"android":"levelo://app?vid=3c8fa5c9-de8f-4837-ad65-0da846e013c3","ios":"levelo://app?vid=3c8fa5c9-de8f-4837-ad65-0da846e013c3"},"vehicle_type_id":"4","last_reported":1734639041,"current_range_meters":38800,"station_id":"ce4bhqp2rcd13ifvqhng","pricing_plan_id":"cebpf4jnsgd1na2vs0mg"},{"bike_id":"f957ffa3-7b76-4b18-bb62-81627d313cf8","system_id":"levelo_inurba_marseille","lat":43.23207,"lon":5.35545,"is_reserved":false,"is_disabled":false,"rental_uris":{"android":"levelo://app?vid=f957ffa3-7b76-4b18-bb62-81627d313cf8","ios":"levelo://app?vid=f957ffa3-7b76-4b18-bb62-81627d313cf8"},"vehicle_type_id":"4","last_reported":1734639041,"current_range_meters":32800,"station_id":"ce4bhu92rcd13ifvqi70","pricing_plan_id":"cebpf4jnsgd1na2vs0mg"},{"bike_id":"5dd95ec7-a282-40a6-a0fe-4e2e61de4064","system_id":"levelo_inurba_marseille","lat":43.26338,"lon":5.40147,"is_reserved":false,"is_disabled":false,"rental_uris":{"android":"levelo://app?vid=5dd95ec7-a282-40a6-a0fe-4e2e61de4064","ios":"levelo://app?vid=5dd95ec7-a282-40a6-a0fe-4e2e61de4064"},"vehicle_type_id":"4","last_reported":1734639041,"current_range_meters":10800,"station_id":"","pricing_plan_id":"cebpf4jnsgd1na2vs0mg"},{"bike_id":"90a96ff9-077b-4985-ab6b-a508b02da0fb","system_id":"levelo_inurba_marseille","lat":43.29669,"lon":5.37291,"is_reserved":false,"is_disabled":false,"rental_uris":{"android":"levelo://app?vid=90a96ff9-077b-4985-ab6b-a508b02da0fb","ios":"levelo://app?vid=90a96ff9-077b-4985-ab6b-a508b02da0fb"},"vehicle_type_id":"4","last_reported":1734639041,"current_range_meters":36800,"station_id":"ce4bgk12rcd13ifvqbj0","pricing_plan_id":"cebpf4jnsgd1na2vs0mg"},{"bike_id":"d56799af-dcf5-4b77-842a-58e8a8497305","system_id":"levelo_inurba_marseille","lat":43.27173,"lon":5.40994,"is_reserved":false,"is_disabled":false,"rental_uris":{"android":"levelo://app?vid=d56799af-dcf5-4b77-842a-58e8a8497305","ios":"levelo://app?vid=d56799af-dcf5-4b77-842a-58e8a8497305"},"vehicle_type_id":"4","last_reported":1734639041,"current_range_meters":38800,"station_id":"ce4bhl12rcd13ifvqgf0","pricing_plan_id":"cebpf4jnsgd1na2vs0mg"},{"bike_id":"4f82c1ba-14ff-4966-ac06-28da01e82cf4","system_id":"levelo_inurba_marseille","lat":43.27906,"lon":5.39579,"is_reserved":false,"is_disabled":false,"rental_uris":{"android":"levelo://app?vid=4f82c1ba-14ff-4966-ac06-28da01e82cf4","ios":"levelo://app?vid=4f82c1ba-14ff-4966-ac06-28da01e82cf4"},"vehicle_type_id":"4","last_reported":1734639041,"current_range_meters":30000,"station_id":"ce4bhf92rcd13ifvqf40","pricing_plan_id":"cebpf4jnsgd1na2vs0mg"},{"bike_id":"5f95dcdc-b7ed-4b2d-bb9c-c1b46e433a17","system_id":"levelo_inurba_marseille","lat":43.31336,"lon":5.39705,"is_reserved":false,"is_disabled":false,"rental_uris":{"android":"levelo://app?vid=5f95dcdc-b7ed-4b2d-bb9c-c1b46e433a17","ios":"levelo://app?vid=5f95dcdc-b7ed-4b2d-bb9c-c1b46e433a17"},"vehicle_type_id":"4","last_reported":1734639041,"current_range_meters":36800,"station_id":"ce4bgvp2rcd13ifvqcu0","pricing_plan_id":"cebpf4jnsgd1na2vs0mg"},{"bike_id":"2256e953-e04c-4a1a-96b7-b03d74e4d2b6","system_id":"levelo_inurba_marseille","lat":43.24806,"lon":5.37457,"is_reserved":false,"is_disabled":false,"rental_uris":{"android":"levelo://app?vid=2256e953-e04c-4a1a-96b7-b03d74e4d2b6","ios":"levelo://app?vid=2256e953-e04c-4a1a-96b7-b03d74e4d2b6"},"vehicle_type_id":"4","last_reported":1734639041,"current_range_meters":38800,"station_id":"ce4bhgh2rcd13ifvqfb0","pricing_plan_id":"cebpf4jnsgd1na2vs0mg"},{"bike_id":"2708ebca-ead0-431b-8ee5-75b909288afb","system_id":"levelo_inurba_marseille","lat":43.28102,"lon":5.37832,"is_reserved":false,"is_disabled":false,"rental_uris":{"android":"levelo://app?vid=2708ebca-ead0-431b-8ee5-75b909288afb","ios":"levelo://app?vid=2708ebca-ead0-431b-8ee5-75b909288afb"},"vehicle_type_id":"4","last_reported":1734639041,"current_range_meters":30800,"station_id":"ce4bha12rcd13ifvqee0","pricing_plan_id":"cebpf4jnsgd1na2vs0mg"},{"bike_id":"6feea219-1025-478c-92a1-b3c67af457c5","system_id":"levelo_inurba_marseille","lat":43.29528,"lon":5.3854,"is_reserved":false,"is_disabled":false,"rental_uris":{"android":"levelo://app?vid=6feea219-1025-478c-92a1-b3c67af457c5","ios":"levelo://app?vid=6feea219-1025-478c-92a1-b3c67af457c5"},"vehicle_type_id":"4","last_reported":1734639041,"current_range_meters":27600,"station_id":"ce4bgih2rcd13ifvqba0","pricing_plan_id":"cebpf4jnsgd1na2vs0mg"},{"bike_id":"aadbddc6-acf5-4207-8e2f-43326685451b","system_id":"levelo_inurba_marseille","lat":43.30248,"lon":5.40073,"is_reserved":false,"is_disabled":false,"rental_uris":{"android":"levelo://app?vid=aadbddc6-acf5-4207-8e2f-43326685451b","ios":"levelo://app?vid=aadbddc6-acf5-4207-8e2f-43326685451b"},"vehicle_type_id":"4","last_reported":1734639041,"current_range_meters":23200,"station_id":"ce4bgvh2rcd13ifvqcs0","pricing_plan_id":"cebpf4jnsgd1na2vs0mg"},{"bike_id":"af317d2d-2f32-4600-92e0-884dcf8d67fe","system_id":"levelo_inurba_marseille","lat":43.28718,"lon":5.37933,"is_reserved":false,"is_disabled":false,"rental_uris":{"android":"levelo://app?vid=af317d2d-2f32-4600-92e0-884dcf8d67fe","ios":"levelo://app?vid=af317d2d-2f32-4600-92e0-884dcf8d67fe"},"vehicle_type_id":"4","last_reported":1734639041,"current_range_meters":32000,"station_id":"ce4bh9p2rcd13ifvqec0","pricing_plan_id":"cebpf4jnsgd1na2vs0mg"},{"bike_id":"c74db8c8-c410-49c5-9f2f-32f849d1937b","system_id":"levelo_inurba_marseille","lat":43.27169,"lon":5.40995,"is_reserved":false,"is_disabled":false,"rental_uris":{"android":"levelo://app?vid=c74db8c8-c410-49c5-9f2f-32f849d1937b","ios":"levelo://app?vid=c74db8c8-c410-49c5-9f2f-32f849d1937b"},"vehicle_type_id":"4","last_reported":1734639041,"current_range_meters":38800,"station_id":"ce4bhl12rcd13ifvqgf0","pricing_plan_id":"cebpf4jnsgd1na2vs0mg"},{"bike_id":"87f7e617-74c7-47e0-9bec-6a2da6e74a77","system_id":"levelo_inurba_marseille","lat":43.30092,"lon":5.371,"is_reserved":false,"is_disabled":false,"rental_uris":{"android":"levelo://app?vid=87f7e617-74c7-47e0-9bec-6a2da6e74a77","ios":"levelo://app?vid=87f7e617-74c7-47e0-9bec-6a2da6e74a77"},"vehicle_type_id":"4","last_reported":1734639041,"current_range_meters":14000,"station_id":"ce4bgr92rcd13ifvqc7g","pricing_plan_id":"cebpf4jnsgd1na2vs0mg"},{"bike_id":"450a8418-ab58-495f-b063-5a60eb1f26dc","system_id":"levelo_inurba_marseille","lat":43.30796,"lon":5.43513,"is_reserved":false,"is_disabled":false,"rental_uris":{"android":"levelo://app?vid=450a8418-ab58-495f-b063-5a60eb1f26dc","ios":"levelo://app?vid=450a8418-ab58-495f-b063-5a60eb1f26dc"},"vehicle_type_id":"4","last_reported":1734639041,"current_range_meters":32400,"station_id":"ce4bhph2rcd13ifvqheg","pricing_plan_id":"cebpf4jnsgd1na2vs0mg"},{"bike_id":"2b746898-c8e8-41ba-9005-53ddf7ed0284","system_id":"levelo_inurba_marseille","lat":43.25579,"lon":5.38241,"is_reserved":false,"is_disabled":false,"rental_uris":{"android":"levelo://app?vid=2b746898-c8e8-41ba-9005-53ddf7ed0284","ios":"levelo://app?vid=2b746898-c8e8-41ba-9005-53ddf7ed0284"},"vehicle_type_id":"4","last_reported":1734639041,"current_range_meters":26000,"station_id":"ce4bhih2rcd13ifvqfs0","pricing_plan_id":"cebpf4jnsgd1na2vs0mg"},{"bike_id":"7da7ab6c-abe3-4d75-9b1e-49c79fd9aa7e","system_id":"levelo_inurba_marseille","lat":43.28719,"lon":5.3794,"is_reserved":false,"is_disabled":false,"rental_uris":{"android":"levelo://app?vid=7da7ab6c-abe3-4d75-9b1e-49c79fd9aa7e","ios":"levelo://app?vid=7da7ab6c-abe3-4d75-9b1e-49c79fd9aa7e"},"vehicle_type_id":"4","last_reported":1734639041,"current_range_meters":12800,"station_id":"ce4bh9p2rcd13ifvqec0","pricing_plan_id":"cebpf4jnsgd1na2vs0mg"},{"bike_id":"2ea5ebc2-554f-4583-b0a6-c2d852bdc972","system_id":"levelo_inurba_marseille","lat":43.281088,"lon":5.378463,"is_reserved":false,"is_disabled":false,"rental_uris":{"android":"levelo://app?vid=2ea5ebc2-554f-4583-b0a6-c2d852bdc972","ios":"levelo://app?vid=2ea5ebc2-554f-4583-b0a6-c2d852bdc972"},"vehicle_type_id":"4","last_reported":1734639041,"current_range_meters":27600,"station_id":"ce4bha12rcd13ifvqee0","pricing_plan_id":"cebpf4jnsgd1na2vs0mg"},{"bike_id":"8f3ad457-0b22-4a53-92f2-28922f2de9bc","system_id":"levelo_inurba_marseille","lat":43.29256,"lon":5.38441,"is_reserved":false,"is_disabled":false,"rental_uris":{"android":"levelo://app?vid=8f3ad457-0b22-4a53-92f2-28922f2de9bc","ios":"levelo://app?vid=8f3ad457-0b22-4a53-92f2-28922f2de9bc"},"vehicle_type_id":"4","last_reported":1734639041,"current_range_meters":12400,"station_id":"ce4bh692rcd13ifvqea0","pricing_plan_id":"cebpf4jnsgd1na2vs0mg"},{"bike_id":"998bb76c-9ad8-4edd-b4fe-7e09c8e7f623","system_id":"levelo_inurba_marseille","lat":43.31362,"lon":5.38486,"is_reserved":false,"is_disabled":false,"rental_uris":{"android":"levelo://app?vid=998bb76c-9ad8-4edd-b4fe-7e09c8e7f623","ios":"levelo://app?vid=998bb76c-9ad8-4edd-b4fe-7e09c8e7f623"},"vehicle_type_id":"4","last_reported":1734639041,"current_range_meters":18800,"station_id":"ce4bgt92rcd13ifvqcf0","pricing_plan_id":"cebpf4jnsgd1na2vs0mg"},{"bike_id":"9932f0ef-901c-478b-81c6-b5f135d19e67","system_id":"levelo_inurba_marseille","lat":43.27566,"lon":5.38433,"is_reserved":false,"is_disabled":false,"rental_uris":{"android":"levelo://app?vid=9932f0ef-901c-478b-81c6-b5f135d19e67","ios":"levelo://app?vid=9932f0ef-901c-478b-81c6-b5f135d19e67"},"vehicle_type_id":"4","last_reported":1734639041,"current_range_meters":28400,"station_id":"ce4bhh92rcd13ifvqfi0","pricing_plan_id":"cebpf4jnsgd1na2vs0mg"},{"bike_id":"288c13fb-e540-41ea-9d0d-a3be382d1112","system_id":"levelo_inurba_marseille","lat":43.29422,"lon":5.38612,"is_reserved":false,"is_disabled":false,"rental_uris":{"android":"levelo://app?vid=288c13fb-e540-41ea-9d0d-a3be382d1112","ios":"levelo://app?vid=288c13fb-e540-41ea-9d0d-a3be382d1112"},"vehicle_type_id":"4","last_reported":1734639041,"current_range_meters":19600,"station_id":"ce4bh2h2rcd13ifvqdh0","pricing_plan_id":"cebpf4jnsgd1na2vs0mg"},{"bike_id":"cc91e18c-31a1-4d61-8bec-2d478014f9b7","system_id":"levelo_inurba_marseille","lat":43.27373,"lon":5.36253,"is_reserved":false,"is_disabled":false,"rental_uris":{"android":"levelo://app?vid=cc91e18c-31a1-4d61-8bec-2d478014f9b7","ios":"levelo://app?vid=cc91e18c-31a1-4d61-8bec-2d478014f9b7"},"vehicle_type_id":"4","last_reported":1734639041,"current_range_meters":32400,"station_id":"ce4bhbh2rcd13ifvqeo0","pricing_plan_id":"cebpf4jnsgd1na2vs0mg"},{"bike_id":"fdfb3580-1002-4881-8a39-36cd06d2a7b8","system_id":"levelo_inurba_marseille","lat":43.28273,"lon":5.35077,"is_reserved":false,"is_disabled":true,"rental_uris":{"android":"levelo://app?vid=fdfb3580-1002-4881-8a39-36cd06d2a7b8","ios":"levelo://app?vid=fdfb3580-1002-4881-8a39-36cd06d2a7b8"},"vehicle_type_id":"4","last_reported":1734639041,"current_range_meters":2000,"station_id":"ce4bhbp2rcd13ifvqerg","pricing_plan_id":"cebpf4jnsgd1na2vs0mg"},{"bike_id":"494c8398-822e-42ee-a7f1-dfd664d1fba7","system_id":"levelo_inurba_marseille","lat":43.23198,"lon":5.3555,"is_reserved":false,"is_disabled":false,"rental_uris":{"android":"levelo://app?vid=494c8398-822e-42ee-a7f1-dfd664d1fba7","ios":"levelo://app?vid=494c8398-822e-42ee-a7f1-dfd664d1fba7"},"vehicle_type_id":"4","last_reported":1734639041,"current_range_meters":38000,"station_id":"ce4bhu92rcd13ifvqi70","pricing_plan_id":"cebpf4jnsgd1na2vs0mg"},{"bike_id":"db3e54f1-bade-4312-a21b-b442a888a895","system_id":"levelo_inurba_marseille","lat":43.28459,"lon":5.3589,"is_reserved":false,"is_disabled":false,"rental_uris":{"android":"levelo://app?vid=db3e54f1-bade-4312-a21b-b442a888a895","ios":"levelo://app?vid=db3e54f1-bade-4312-a21b-b442a888a895"},"vehicle_type_id":"4","last_reported":1734639041,"current_range_meters":38400,"station_id":"ce4bhah2rcd13ifvqei0","pricing_plan_id":"cebpf4jnsgd1na2vs0mg"},{"bike_id":"3c413c58-d255-428b-86c8-72567e764cd9","system_id":"levelo_inurba_marseille","lat":43.28472,"lon":5.35882,"is_reserved":false,"is_disabled":false,"rental_uris":{"android":"levelo://app?vid=3c413c58-d255-428b-86c8-72567e764cd9","ios":"levelo://app?vid=3c413c58-d255-428b-86c8-72567e764cd9"},"vehicle_type_id":"4","last_reported":1734639041,"current_range_meters":28000,"station_id":"ce4bhah2rcd13ifvqei0","pricing_plan_id":"cebpf4jnsgd1na2vs0mg"},{"bike_id":"3301fd98-be9e-402c-abda-233c46da6102","system_id":"levelo_inurba_marseille","lat":43.31073,"lon":5.3836,"is_reserved":false,"is_disabled":false,"rental_uris":{"android":"levelo://app?vid=3301fd98-be9e-402c-abda-233c46da6102","ios":"levelo://app?vid=3301fd98-be9e-402c-abda-233c46da6102"},"vehicle_type_id":"4","last_reported":1734639041,"current_range_meters":38800,"station_id":"ce4bgv92rcd13ifvqcr0","pricing_plan_id":"cebpf4jnsgd1na2vs0mg"},{"bike_id":"b424a143-2bfe-463a-a9f1-6abc0a36e720","system_id":"levelo_inurba_marseille","lat":43.29306,"lon":5.37185,"is_reserved":false,"is_disabled":false,"rental_uris":{"android":"levelo://app?vid=b424a143-2bfe-463a-a9f1-6abc0a36e720","ios":"levelo://app?vid=b424a143-2bfe-463a-a9f1-6abc0a36e720"},"vehicle_type_id":"4","last_reported":1734639041,"current_range_meters":37600,"station_id":"ce4bgh92rcd13ifvqb40","pricing_plan_id":"cebpf4jnsgd1na2vs0mg"},{"bike_id":"8e8ddb40-dfef-4f41-8fd9-8dfe2942b813","system_id":"levelo_inurba_marseille","lat":43.3148,"lon":5.37298,"is_reserved":false,"is_disabled":false,"rental_uris":{"android":"levelo://app?vid=8e8ddb40-dfef-4f41-8fd9-8dfe2942b813","ios":"levelo://app?vid=8e8ddb40-dfef-4f41-8fd9-8dfe2942b813"},"vehicle_type_id":"4","last_reported":1734639041,"current_range_meters":16000,"station_id":"ce4bgt12rcd13ifvqcd0","pricing_plan_id":"cebpf4jnsgd1na2vs0mg"},{"bike_id":"a2eba22b-b0ee-4005-9bf3-576bb458d391","system_id":"levelo_inurba_marseille","lat":43.279651,"lon":5.387544,"is_reserved":false,"is_disabled":true,"rental_uris":{"android":"levelo://app?vid=a2eba22b-b0ee-4005-9bf3-576bb458d391","ios":"levelo://app?vid=a2eba22b-b0ee-4005-9bf3-576bb458d391"},"vehicle_type_id":"4","last_reported":1734639041,"current_range_meters":0,"station_id":"","pricing_plan_id":"cebpf4jnsgd1na2vs0mg"},{"bike_id":"e8f46899-9716-4dec-9dd1-15c7f835306e","system_id":"levelo_inurba_marseille","lat":43.29867,"lon":5.39732,"is_reserved":false,"is_disabled":false,"rental_uris":{"android":"levelo://app?vid=e8f46899-9716-4dec-9dd1-15c7f835306e","ios":"levelo://app?vid=e8f46899-9716-4dec-9dd1-15c7f835306e"},"vehicle_type_id":"4","last_reported":1734639041,"current_range_meters":38800,"station_id":"ce4bh0h2rcd13ifvqd50","pricing_plan_id":"cebpf4jnsgd1na2vs0mg"},{"bike_id":"fcf6f42c-9492-49dd-a9e6-322a50636e12","system_id":"levelo_inurba_marseille","lat":43.31716,"lon":5.37761,"is_reserved":false,"is_disabled":false,"rental_uris":{"android":"levelo://app?vid=fcf6f42c-9492-49dd-a9e6-322a50636e12","ios":"levelo://app?vid=fcf6f42c-9492-49dd-a9e6-322a50636e12"},"vehicle_type_id":"4","last_reported":1734639041,"current_range_meters":14800,"station_id":"ce4bgth2rcd13ifvqch0","pricing_plan_id":"cebpf4jnsgd1na2vs0mg"},{"bike_id":"6e868a60-9f88-474e-adb5-72cc44996f9b","system_id":"levelo_inurba_marseille","lat":43.295278,"lon":5.375023,"is_reserved":false,"is_disabled":true,"rental_uris":{"android":"levelo://app?vid=6e868a60-9f88-474e-adb5-72cc44996f9b","ios":"levelo://app?vid=6e868a60-9f88-474e-adb5-72cc44996f9b"},"vehicle_type_id":"4","last_reported":1734639041,"current_range_meters":0,"station_id":"ce4bgkp2rcd13ifvqbmg","pricing_plan_id":"cebpf4jnsgd1na2vs0mg"},{"bike_id":"b0054acc-8f0e-4cdf-a0fb-30f848446511","system_id":"levelo_inurba_marseille","lat":43.2835,"lon":5.38117,"is_reserved":false,"is_disabled":false,"rental_uris":{"android":"levelo://app?vid=b0054acc-8f0e-4cdf-a0fb-30f848446511","ios":"levelo://app?vid=b0054acc-8f0e-4cdf-a0fb-30f848446511"},"vehicle_type_id":"4","last_reported":1734639041,"current_range_meters":20800,"station_id":"ce4bh412rcd13ifvqdr0","pricing_plan_id":"cebpf4jnsgd1na2vs0mg"},{"bike_id":"dac1e890-1101-442b-bc00-cf32b62a9a46","system_id":"levelo_inurba_marseille","lat":43.29026,"lon":5.38647,"is_reserved":false,"is_disabled":false,"rental_uris":{"android":"levelo://app?vid=dac1e890-1101-442b-bc00-cf32b62a9a46","ios":"levelo://app?vid=dac1e890-1101-442b-bc00-cf32b62a9a46"},"vehicle_type_id":"4","last_reported":1734639041,"current_range_meters":37600,"station_id":"ce4bh4p2rcd13ifvqe0g","pricing_plan_id":"cebpf4jnsgd1na2vs0mg"},{"bike_id":"f384362e-dca0-4d89-b509-4071c545130d","system_id":"levelo_inurba_marseille","lat":43.26561,"lon":5.37302,"is_reserved":false,"is_disabled":false,"rental_uris":{"android":"levelo://app?vid=f384362e-dca0-4d89-b509-4071c545130d","ios":"levelo://app?vid=f384362e-dca0-4d89-b509-4071c545130d"},"vehicle_type_id":"4","last_reported":1734639041,"current_range_meters":12000,"station_id":"ce4bhg12rcd13ifvqf70","pricing_plan_id":"cebpf4jnsgd1na2vs0mg"},{"bike_id":"24e2aa08-4a31-4188-95ef-7e0996e19c3c","system_id":"levelo_inurba_marseille","lat":43.28613,"lon":5.35105,"is_reserved":false,"is_disabled":false,"rental_uris":{"android":"levelo://app?vid=24e2aa08-4a31-4188-95ef-7e0996e19c3c","ios":"levelo://app?vid=24e2aa08-4a31-4188-95ef-7e0996e19c3c"},"vehicle_type_id":"4","last_reported":1734639041,"current_range_meters":10800,"station_id":"ce4bhch2rcd13ifvqeug","pricing_plan_id":"cebpf4jnsgd1na2vs0mg"},{"bike_id":"0b42c276-66f2-4c9c-afff-bde30cfbe745","system_id":"levelo_inurba_marseille","lat":43.29987,"lon":5.37185,"is_reserved":false,"is_disabled":false,"rental_uris":{"android":"levelo://app?vid=0b42c276-66f2-4c9c-afff-bde30cfbe745","ios":"levelo://app?vid=0b42c276-66f2-4c9c-afff-bde30cfbe745"},"vehicle_type_id":"4","last_reported":1734639041,"current_range_meters":39200,"station_id":"ce4bgr92rcd13ifvqc7g","pricing_plan_id":"cebpf4jnsgd1na2vs0mg"},{"bike_id":"ac7c5f56-daad-496c-965f-9103737000e8","system_id":"levelo_inurba_marseille","lat":43.23969,"lon":5.36627,"is_reserved":false,"is_disabled":false,"rental_uris":{"android":"levelo://app?vid=ac7c5f56-daad-496c-965f-9103737000e8","ios":"levelo://app?vid=ac7c5f56-daad-496c-965f-9103737000e8"},"vehicle_type_id":"4","last_reported":1734639041,"current_range_meters":39200,"station_id":"ce4bhi12rcd13ifvqfp0","pricing_plan_id":"cebpf4jnsgd1na2vs0mg"},{"bike_id":"faed9d38-3eca-4d87-ad5b-fc892a94ac65","system_id":"levelo_inurba_marseille","lat":43.31283,"lon":5.40164,"is_reserved":false,"is_disabled":false,"rental_uris":{"android":"levelo://app?vid=faed9d38-3eca-4d87-ad5b-fc892a94ac65","ios":"levelo://app?vid=faed9d38-3eca-4d87-ad5b-fc892a94ac65"},"vehicle_type_id":"4","last_reported":1734639041,"current_range_meters":38800,"station_id":"ce4bh092rcd13ifvqd30","pricing_plan_id":"cebpf4jnsgd1na2vs0mg"},{"bike_id":"7633ae2b-5564-48f0-8687-222ed04d9f97","system_id":"levelo_inurba_marseille","lat":43.29259,"lon":5.38441,"is_reserved":false,"is_disabled":false,"rental_uris":{"android":"levelo://app?vid=7633ae2b-5564-48f0-8687-222ed04d9f97","ios":"levelo://app?vid=7633ae2b-5564-48f0-8687-222ed04d9f97"},"vehicle_type_id":"4","last_reported":1734639041,"current_range_meters":6400,"station_id":"ce4bh692rcd13ifvqea0","pricing_plan_id":"cebpf4jnsgd1na2vs0mg"},{"bike_id":"0cef6d55-09da-4dff-80ee-facea058c7a5","system_id":"levelo_inurba_marseille","lat":43.30055,"lon":5.36969,"is_reserved":false,"is_disabled":false,"rental_uris":{"android":"levelo://app?vid=0cef6d55-09da-4dff-80ee-facea058c7a5","ios":"levelo://app?vid=0cef6d55-09da-4dff-80ee-facea058c7a5"},"vehicle_type_id":"4","last_reported":1734639041,"current_range_meters":32000,"station_id":"","pricing_plan_id":"cebpf4jnsgd1na2vs0mg"},{"bike_id":"322a364e-6f8b-4948-b410-704aa6b88a28","system_id":"levelo_inurba_marseille","lat":43.24084,"lon":5.3776,"is_reserved":false,"is_disabled":false,"rental_uris":{"android":"levelo://app?vid=322a364e-6f8b-4948-b410-704aa6b88a28","ios":"levelo://app?vid=322a364e-6f8b-4948-b410-704aa6b88a28"},"vehicle_type_id":"4","last_reported":1734639041,"current_range_meters":36000,"station_id":"ce4bhnp2rcd13ifvqgvg","pricing_plan_id":"cebpf4jnsgd1na2vs0mg"},{"bike_id":"da281e57-fa4d-4035-8f98-d9c6e727eb6a","system_id":"levelo_inurba_marseille","lat":43.29308,"lon":5.37181,"is_reserved":false,"is_disabled":false,"rental_uris":{"android":"levelo://app?vid=da281e57-fa4d-4035-8f98-d9c6e727eb6a","ios":"levelo://app?vid=da281e57-fa4d-4035-8f98-d9c6e727eb6a"},"vehicle_type_id":"4","last_reported":1734639041,"current_range_meters":36400,"station_id":"ce4bgh92rcd13ifvqb40","pricing_plan_id":"cebpf4jnsgd1na2vs0mg"},{"bike_id":"e54d33cd-05c0-4a45-b4c3-ffba7dc64da7","system_id":"levelo_inurba_marseille","lat":43.28044,"lon":5.36948,"is_reserved":false,"is_disabled":false,"rental_uris":{"android":"levelo://app?vid=e54d33cd-05c0-4a45-b4c3-ffba7dc64da7","ios":"levelo://app?vid=e54d33cd-05c0-4a45-b4c3-ffba7dc64da7"},"vehicle_type_id":"4","last_reported":1734639041,"current_range_meters":22800,"station_id":"ce4bha12rcd13ifvqef0","pricing_plan_id":"cebpf4jnsgd1na2vs0mg"},{"bike_id":"9aa2e452-a952-4887-a12a-c0da4e70ee8d","system_id":"levelo_inurba_marseille","lat":43.29893,"lon":5.43663,"is_reserved":false,"is_disabled":false,"rental_uris":{"android":"levelo://app?vid=9aa2e452-a952-4887-a12a-c0da4e70ee8d","ios":"levelo://app?vid=9aa2e452-a952-4887-a12a-c0da4e70ee8d"},"vehicle_type_id":"4","last_reported":1734639041,"current_range_meters":30400,"station_id":"ce4bhpp2rcd13ifvqhfg","pricing_plan_id":"cebpf4jnsgd1na2vs0mg"},{"bike_id":"45b8a51d-a5d3-4223-ac9d-740b516b66cf","system_id":"levelo_inurba_marseille","lat":43.29898,"lon":5.43667,"is_reserved":false,"is_disabled":false,"rental_uris":{"android":"levelo://app?vid=45b8a51d-a5d3-4223-ac9d-740b516b66cf","ios":"levelo://app?vid=45b8a51d-a5d3-4223-ac9d-740b516b66cf"},"vehicle_type_id":"4","last_reported":1734639041,"current_range_meters":8400,"station_id":"ce4bhpp2rcd13ifvqhfg","pricing_plan_id":"cebpf4jnsgd1na2vs0mg"},{"bike_id":"9a4ae12e-12f6-448e-86ab-912540f3082a","system_id":"levelo_inurba_marseille","lat":43.28712,"lon":5.37945,"is_reserved":false,"is_disabled":false,"rental_uris":{"android":"levelo://app?vid=9a4ae12e-12f6-448e-86ab-912540f3082a","ios":"levelo://app?vid=9a4ae12e-12f6-448e-86ab-912540f3082a"},"vehicle_type_id":"4","last_reported":1734639041,"current_range_meters":22400,"station_id":"ce4bh9p2rcd13ifvqec0","pricing_plan_id":"cebpf4jnsgd1na2vs0mg"},{"bike_id":"d818a8c9-b863-409a-8c1a-f23cadba4899","system_id":"levelo_inurba_marseille","lat":43.30889,"lon":5.39652,"is_reserved":false,"is_disabled":true,"rental_uris":{"android":"levelo://app?vid=d818a8c9-b863-409a-8c1a-f23cadba4899","ios":"levelo://app?vid=d818a8c9-b863-409a-8c1a-f23cadba4899"},"vehicle_type_id":"4","last_reported":1734639041,"current_range_meters":0,"station_id":"ce4bh012rcd13ifvqcv0","pricing_plan_id":"cebpf4jnsgd1na2vs0mg"},{"bike_id":"89f357c0-370d-4b1d-ad8d-7e158a82dd7a","system_id":"levelo_inurba_marseille","lat":43.29573,"lon":5.39971,"is_reserved":false,"is_disabled":true,"rental_uris":{"android":"levelo://app?vid=89f357c0-370d-4b1d-ad8d-7e158a82dd7a","ios":"levelo://app?vid=89f357c0-370d-4b1d-ad8d-7e158a82dd7a"},"vehicle_type_id":"4","last_reported":1734639041,"current_range_meters":1600,"station_id":"ce4bh312rcd13ifvqdj0","pricing_plan_id":"cebpf4jnsgd1na2vs0mg"},{"bike_id":"c43a3caa-be5b-42ef-b51e-c59d303e04f3","system_id":"levelo_inurba_marseille","lat":43.2418,"lon":5.3974,"is_reserved":false,"is_disabled":false,"rental_uris":{"android":"levelo://app?vid=c43a3caa-be5b-42ef-b51e-c59d303e04f3","ios":"levelo://app?vid=c43a3caa-be5b-42ef-b51e-c59d303e04f3"},"vehicle_type_id":"4","last_reported":1734639041,"current_range_meters":38800,"station_id":"ce4bhn12rcd13ifvqgpg","pricing_plan_id":"cebpf4jnsgd1na2vs0mg"},{"bike_id":"b328e5ac-71bf-4d12-9395-493d7dde7951","system_id":"levelo_inurba_marseille","lat":43.28572,"lon":5.39492,"is_reserved":false,"is_disabled":true,"rental_uris":{"android":"levelo://app?vid=b328e5ac-71bf-4d12-9395-493d7dde7951","ios":"levelo://app?vid=b328e5ac-71bf-4d12-9395-493d7dde7951"},"vehicle_type_id":"4","last_reported":1734639041,"current_range_meters":36800,"station_id":"ce4bh292rcd13ifvqdg0","pricing_plan_id":"cebpf4jnsgd1na2vs0mg"},{"bike_id":"7b305c6f-361b-46c6-bcc8-6b2d9fd084fa","system_id":"levelo_inurba_marseille","lat":43.28119,"lon":5.4422,"is_reserved":false,"is_disabled":true,"rental_uris":{"android":"levelo://app?vid=7b305c6f-361b-46c6-bcc8-6b2d9fd084fa","ios":"levelo://app?vid=7b305c6f-361b-46c6-bcc8-6b2d9fd084fa"},