{"last_updated":1762416902,"ttl":60,"version":"2.2","data":{"bikes":[{"bike_id":"9c46a9f5-39cb-461a-ac28-286dc216524b","system_id":"levelo_inurba_marseille","lat":43.337444,"lon":5.374475,"is_reserved":false,"is_disabled":false,"rental_uris":{"android":"levelo://app?vid=9c46a9f5-39cb-461a-ac28-286dc216524b","ios":"levelo://app?vid=9c46a9f5-39cb-461a-ac28-286dc216524b"},"vehicle_type_id":"4","last_reported":1762416902,"current_range_meters":0,"station_id":"","pricing_plan_id":"cebpf4jnsgd1na2vs0mg"},{"bike_id":"0a0d4295-fe5b-4614-b2ca-f5579d5190b0","system_id":"levelo_inurba_marseille","lat":43.337444,"lon":5.374475,"is_reserved":false,"is_disabled":false,"rental_uris":{"android":"levelo://app?vid=0a0d4295-fe5b-4614-b2ca-f5579d5190b0","ios":"levelo://app?vid=0a0d4295-fe5b-4614-b2ca-f5579d5190b0"},"vehicle_type_id":"4","last_reported":1762416902,"current_range_meters":0,"station_id":"","pricing_plan_id":"cebpf4jnsgd1na2vs0mg"},{"bike_id":"3b22ecca-6beb-4130-a940-05f1b7e152a6","system_id":"levelo_inurba_marseille","lat":43.240745,"lon":5.377633,"is_reserved":false,"is_disabled":false,"rental_uris":{"android":"levelo://app?vid=3b22ecca-6beb-4130-a940-05f1b7e152a6","ios":"levelo://app?vid=3b22ecca-6beb-4130-a940-05f1b7e152a6"},"vehicle_type_id":"4","last_reported":1762416902,"current_range_meters":2800,"station_id":"ce4bhnp2rcd13ifvqgvg","pricing_plan_id":"cebpf4jnsgd1na2vs0mg"},{"bike_id":"654dc482-8458-4686-a09b-a5e21a822232","system_id":"levelo_inurba_marseille","lat":43.23183,"lon":5.35541,"is_reserved":false,"is_disabled":false,"rental_uris":{"android":"levelo://app?vid=654dc482-8458-4686-a09b-a5e21a822232","ios":"levelo://app?vid=654dc482-8458-4686-a09b-a5e21a822232"},"vehicle_type_id":"4","last_reported":1762416902,"current_range_meters":3200,"station_id":"ce4bhu92rcd13ifvqi70","pricing_plan_id":"cebpf4jnsgd1na2vs0mg"},{"bike_id":"cd6356bf-f9e6-4199-ade5-f85ad4ec85e6","system_id":"levelo_inurba_marseille","lat":43.24081,"lon":5.37754,"is_reserved":false,"is_disabled":false,"rental_uris":{"android":"levelo://app?vid=cd6356bf-f9e6-4199-ade5-f85ad4ec85e6","ios":"levelo://app?vid=cd6356bf-f9e6-4199-ade5-f85ad4ec85e6"},"vehicle_type_id":"4","last_reported":1762416902,"current_range_meters":3200,"station_id":"ce4bhnp2rcd13ifvqgvg","pricing_plan_id":"cebpf4jnsgd1na2vs0mg"},{"bike_id":"caae16fd-83a3-4c8b-b425-432238f47adc","system_id":"levelo_inurba_marseille","lat":43.29224,"lon":5.36063,"is_reserved":false,"is_disabled":false,"rental_uris":{"android":"levelo://app?vid=caae16fd-83a3-4c8b-b425-432238f47adc","ios":"levelo://app?vid=caae16fd-83a3-4c8b-b425-432238f47adc"},"vehicle_type_id":"4","last_reported":1762416902,"current_range_meters":3200,"station_id":"","pricing_plan_id":"cebpf4jnsgd1na2vs0mg"},{"bike_id":"ca027186-72c6-4358-8d7a-70b219e6273a","system_id":"levelo_inurba_marseille","lat":43.350977,"lon":5.380947,"is_reserved":false,"is_disabled":false,"rental_uris":{"android":"levelo://app?vid=ca027186-72c6-4358-8d7a-70b219e6273a","ios":"levelo://app?vid=ca027186-72c6-4358-8d7a-70b219e6273a"},"vehicle_type_id":"4","last_reported":1762416902,"current_range_meters":3600,"station_id":"","pricing_plan_id":"cebpf4jnsgd1na2vs0mg"},{"bike_id":"41430360-4e8e-41bb-bdf4-e66db7291ea9","system_id":"levelo_inurba_marseille","lat":43.26557,"lon":5.38988,"is_reserved":false,"is_disabled":false,"rental_uris":{"android":"levelo://app?vid=41430360-4e8e-41bb-bdf4-e66db7291ea9","ios":"levelo://app?vid=41430360-4e8e-41bb-bdf4-e66db7291ea9"},"vehicle_type_id":"4","last_reported":1762416902,"current_range_meters":3600,"station_id":"ce4bhe12rcd13ifvqf30","pricing_plan_id":"cebpf4jnsgd1na2vs0mg"},{"bike_id":"78bf879b-32c6-4297-bb05-4f21a157e5c3","system_id":"levelo_inurba_marseille","lat":43.23157,"lon":5.43715,"is_reserved":false,"is_disabled":false,"rental_uris":{"android":"levelo://app?vid=78bf879b-32c6-4297-bb05-4f21a157e5c3","ios":"levelo://app?vid=78bf879b-32c6-4297-bb05-4f21a157e5c3"},"vehicle_type_id":"4","last_reported":1762416902,"current_range_meters":3600,"station_id":"ce4bhmp2rcd13ifvqgog","pricing_plan_id":"cebpf4jnsgd1na2vs0mg"},{"bike_id":"ccd7f5e0-fe8e-430d-9a0e-285a93660be5","system_id":"levelo_inurba_marseille","lat":43.2929,"lon":5.37442,"is_reserved":false,"is_disabled":false,"rental_uris":{"android":"levelo://app?vid=ccd7f5e0-fe8e-430d-9a0e-285a93660be5","ios":"levelo://app?vid=ccd7f5e0-fe8e-430d-9a0e-285a93660be5"},"vehicle_type_id":"4","last_reported":1762416902,"current_range_meters":4000,"station_id":"ce4bgi12rcd13ifvqb70","pricing_plan_id":"cebpf4jnsgd1na2vs0mg"},{"bike_id":"e3691a4e-2e7e-4cfe-b538-64e2f2d04a2d","system_id":"levelo_inurba_marseille","lat":43.30481,"lon":5.37869,"is_reserved":false,"is_disabled":false,"rental_uris":{"android":"levelo://app?vid=e3691a4e-2e7e-4cfe-b538-64e2f2d04a2d","ios":"levelo://app?vid=e3691a4e-2e7e-4cfe-b538-64e2f2d04a2d"},"vehicle_type_id":"4","last_reported":1762416902,"current_range_meters":4000,"station_id":"ce4bgup2rcd13ifvqcn0","pricing_plan_id":"cebpf4jnsgd1na2vs0mg"},{"bike_id":"7f7ff636-f9ef-460c-b606-c57f31b93d63","system_id":"levelo_inurba_marseille","lat":43.24162,"lon":5.39731,"is_reserved":false,"is_disabled":false,"rental_uris":{"android":"levelo://app?vid=7f7ff636-f9ef-460c-b606-c57f31b93d63","ios":"levelo://app?vid=7f7ff636-f9ef-460c-b606-c57f31b93d63"},"vehicle_type_id":"4","last_reported":1762416902,"current_range_meters":4000,"station_id":"ce4bhn12rcd13ifvqgpg","pricing_plan_id":"cebpf4jnsgd1na2vs0mg"},{"bike_id":"7fe71146-f286-4a20-a4fa-bd2ae3702479","system_id":"levelo_inurba_marseille","lat":43.30142,"lon":5.39868,"is_reserved":false,"is_disabled":false,"rental_uris":{"android":"levelo://app?vid=7fe71146-f286-4a20-a4fa-bd2ae3702479","ios":"levelo://app?vid=7fe71146-f286-4a20-a4fa-bd2ae3702479"},"vehicle_type_id":"4","last_reported":1762416902,"current_range_meters":4400,"station_id":"ce4bh0h2rcd13ifvqd40","pricing_plan_id":"cebpf4jnsgd1na2vs0mg"},{"bike_id":"8600f02b-080a-42d4-9361-1b4fe831b782","system_id":"levelo_inurba_marseille","lat":43.241788,"lon":5.397336,"is_reserved":false,"is_disabled":false,"rental_uris":{"android":"levelo://app?vid=8600f02b-080a-42d4-9361-1b4fe831b782","ios":"levelo://app?vid=8600f02b-080a-42d4-9361-1b4fe831b782"},"vehicle_type_id":"4","last_reported":1762416902,"current_range_meters":4400,"station_id":"ce4bhn12rcd13ifvqgpg","pricing_plan_id":"cebpf4jnsgd1na2vs0mg"},{"bike_id":"35e065c6-34b1-4f79-ba6e-110dea036dce","system_id":"levelo_inurba_marseille","lat":43.27496,"lon":5.42475,"is_reserved":false,"is_disabled":false,"rental_uris":{"android":"levelo://app?vid=35e065c6-34b1-4f79-ba6e-110dea036dce","ios":"levelo://app?vid=35e065c6-34b1-4f79-ba6e-110dea036dce"},"vehicle_type_id":"4","last_reported":1762416902,"current_range_meters":4400,"station_id":"ce4bhn92rcd13ifvqgrg","pricing_plan_id":"cebpf4jnsgd1na2vs0mg"},{"bike_id":"83e960e8-9160-4897-b8dc-26435c25dd10","system_id":"levelo_inurba_marseille","lat":43.30892,"lon":5.36881,"is_reserved":false,"is_disabled":false,"rental_uris":{"android":"levelo://app?vid=83e960e8-9160-4897-b8dc-26435c25dd10","ios":"levelo://app?vid=83e960e8-9160-4897-b8dc-26435c25dd10"},"vehicle_type_id":"4","last_reported":1762416902,"current_range_meters":4400,"station_id":"ce4bgn92rcd13ifvqbvg","pricing_plan_id":"cebpf4jnsgd1na2vs0mg"},{"bike_id":"b36dd9da-e407-4f4d-b226-53b38a7791a7","system_id":"levelo_inurba_marseille","lat":43.31761,"lon":5.39013,"is_reserved":false,"is_disabled":false,"rental_uris":{"android":"levelo://app?vid=b36dd9da-e407-4f4d-b226-53b38a7791a7","ios":"levelo://app?vid=b36dd9da-e407-4f4d-b226-53b38a7791a7"},"vehicle_type_id":"4","last_reported":1762416902,"current_range_meters":4800,"station_id":"ce4bhqp2rcd13ifvqhng","pricing_plan_id":"cebpf4jnsgd1na2vs0mg"},{"bike_id":"5e6b5e6b-9f8a-43ab-9eb8-b69e41a6c1e6","system_id":"levelo_inurba_marseille","lat":43.225298,"lon":5.348365,"is_reserved":false,"is_disabled":false,"rental_uris":{"android":"levelo://app?vid=5e6b5e6b-9f8a-43ab-9eb8-b69e41a6c1e6","ios":"levelo://app?vid=5e6b5e6b-9f8a-43ab-9eb8-b69e41a6c1e6"},"vehicle_type_id":"4","last_reported":1762416902,"current_range_meters":4800,"station_id":"","pricing_plan_id":"cebpf4jnsgd1na2vs0mg"},{"bike_id":"724341e6-e44b-47f7-b6c1-ff2fb8637e62","system_id":"levelo_inurba_marseille","lat":43.25493,"lon":5.37651,"is_reserved":false,"is_disabled":false,"rental_uris":{"android":"levelo://app?vid=724341e6-e44b-47f7-b6c1-ff2fb8637e62","ios":"levelo://app?vid=724341e6-e44b-47f7-b6c1-ff2fb8637e62"},"vehicle_type_id":"4","last_reported":1762416902,"current_range_meters":4800,"station_id":"ce4bhh12rcd13ifvqff0","pricing_plan_id":"cebpf4jnsgd1na2vs0mg"},{"bike_id":"9c5992a0-d8f1-429e-9408-f6837116d35b","system_id":"levelo_inurba_marseille","lat":43.290282,"lon":5.386494,"is_reserved":false,"is_disabled":false,"rental_uris":{"android":"levelo://app?vid=9c5992a0-d8f1-429e-9408-f6837116d35b","ios":"levelo://app?vid=9c5992a0-d8f1-429e-9408-f6837116d35b"},"vehicle_type_id":"4","last_reported":1762416902,"current_range_meters":4800,"station_id":"ce4bh4p2rcd13ifvqe0g","pricing_plan_id":"cebpf4jnsgd1na2vs0mg"},{"bike_id":"06e17cb6-8cd8-40c8-834d-3a03e2e56094","system_id":"levelo_inurba_marseille","lat":43.29043,"lon":5.39948,"is_reserved":false,"is_disabled":false,"rental_uris":{"android":"levelo://app?vid=06e17cb6-8cd8-40c8-834d-3a03e2e56094","ios":"levelo://app?vid=06e17cb6-8cd8-40c8-834d-3a03e2e56094"},"vehicle_type_id":"4","last_reported":1762416902,"current_range_meters":4800,"station_id":"ce4bh392rcd13ifvqdm0","pricing_plan_id":"cebpf4jnsgd1na2vs0mg"},{"bike_id":"b442b5da-fd3c-4602-b157-79bcc6f09ac3","system_id":"levelo_inurba_marseille","lat":43.30872,"lon":5.37182,"is_reserved":false,"is_disabled":false,"rental_uris":{"android":"levelo://app?vid=b442b5da-fd3c-4602-b157-79bcc6f09ac3","ios":"levelo://app?vid=b442b5da-fd3c-4602-b157-79bcc6f09ac3"},"vehicle_type_id":"4","last_reported":1762416902,"current_range_meters":4800,"station_id":"ce4bguh2rcd13ifvqckg","pricing_plan_id":"cebpf4jnsgd1na2vs0mg"},{"bike_id":"f96cbccc-904a-4d92-84ac-d0b40601097c","system_id":"levelo_inurba_marseille","lat":43.24074,"lon":5.37754,"is_reserved":false,"is_disabled":true,"rental_uris":{"android":"levelo://app?vid=f96cbccc-904a-4d92-84ac-d0b40601097c","ios":"levelo://app?vid=f96cbccc-904a-4d92-84ac-d0b40601097c"},"vehicle_type_id":"4","last_reported":1762416902,"current_range_meters":5600,"station_id":"ce4bhnp2rcd13ifvqgvg","pricing_plan_id":"cebpf4jnsgd1na2vs0mg"},{"bike_id":"f7a192fe-ecfa-451f-8d3a-3c4f39209fc4","system_id":"levelo_inurba_marseille","lat":43.32368,"lon":5.38886,"is_reserved":false,"is_disabled":false,"rental_uris":{"android":"levelo://app?vid=f7a192fe-ecfa-451f-8d3a-3c4f39209fc4","ios":"levelo://app?vid=f7a192fe-ecfa-451f-8d3a-3c4f39209fc4"},"vehicle_type_id":"4","last_reported":1762416902,"current_range_meters":5600,"station_id":"ce4bhqp2rcd13ifvqhog","pricing_plan_id":"cebpf4jnsgd1na2vs0mg"},{"bike_id":"6179fea9-3c2c-47f9-a817-bbfd29e4b105","system_id":"levelo_inurba_marseille","lat":43.30148,"lon":5.37424,"is_reserved":false,"is_disabled":false,"rental_uris":{"android":"levelo://app?vid=6179fea9-3c2c-47f9-a817-bbfd29e4b105","ios":"levelo://app?vid=6179fea9-3c2c-47f9-a817-bbfd29e4b105"},"vehicle_type_id":"4","last_reported":1762416902,"current_range_meters":5600,"station_id":"ce4bgs92rcd13ifvqcc0","pricing_plan_id":"cebpf4jnsgd1na2vs0mg"},{"bike_id":"d3a8c452-bd73-4909-9cfe-f1c0285f3d0c","system_id":"levelo_inurba_marseille","lat":43.2848,"lon":5.48391,"is_reserved":false,"is_disabled":false,"rental_uris":{"android":"levelo://app?vid=d3a8c452-bd73-4909-9cfe-f1c0285f3d0c","ios":"levelo://app?vid=d3a8c452-bd73-4909-9cfe-f1c0285f3d0c"},"vehicle_type_id":"4","last_reported":1762416902,"current_range_meters":6000,"station_id":"","pricing_plan_id":"cebpf4jnsgd1na2vs0mg"},{"bike_id":"c605e971-a2c0-466c-a181-888dad23daa6","system_id":"levelo_inurba_marseille","lat":43.30537,"lon":5.38426,"is_reserved":false,"is_disabled":false,"rental_uris":{"android":"levelo://app?vid=c605e971-a2c0-466c-a181-888dad23daa6","ios":"levelo://app?vid=c605e971-a2c0-466c-a181-888dad23daa6"},"vehicle_type_id":"4","last_reported":1762416902,"current_range_meters":6000,"station_id":"ce4bgg92rcd13ifvqb30","pricing_plan_id":"cebpf4jnsgd1na2vs0mg"},{"bike_id":"c8c239c3-4670-45fe-a007-03c2301fd2c3","system_id":"levelo_inurba_marseille","lat":43.32476,"lon":5.36562,"is_reserved":false,"is_disabled":false,"rental_uris":{"android":"levelo://app?vid=c8c239c3-4670-45fe-a007-03c2301fd2c3","ios":"levelo://app?vid=c8c239c3-4670-45fe-a007-03c2301fd2c3"},"vehicle_type_id":"4","last_reported":1762416902,"current_range_meters":6000,"station_id":"ce4bhs12rcd13ifvqhvg","pricing_plan_id":"cebpf4jnsgd1na2vs0mg"},{"bike_id":"43241b2a-4cb5-4e4c-8865-8a8693625499","system_id":"levelo_inurba_marseille","lat":43.31287,"lon":5.37837,"is_reserved":false,"is_disabled":false,"rental_uris":{"android":"levelo://app?vid=43241b2a-4cb5-4e4c-8865-8a8693625499","ios":"levelo://app?vid=43241b2a-4cb5-4e4c-8865-8a8693625499"},"vehicle_type_id":"4","last_reported":1762416902,"current_range_meters":6000,"station_id":"","pricing_plan_id":"cebpf4jnsgd1na2vs0mg"},{"bike_id":"5f731f76-9d83-42a2-9f7f-71c03353ee11","system_id":"levelo_inurba_marseille","lat":43.226788,"lon":5.415871,"is_reserved":false,"is_disabled":false,"rental_uris":{"android":"levelo://app?vid=5f731f76-9d83-42a2-9f7f-71c03353ee11","ios":"levelo://app?vid=5f731f76-9d83-42a2-9f7f-71c03353ee11"},"vehicle_type_id":"4","last_reported":1762416902,"current_range_meters":6000,"station_id":"ce4bgj92rcd13ifvqbd0","pricing_plan_id":"cebpf4jnsgd1na2vs0mg"},{"bike_id":"9db23817-100d-4feb-906a-faeaa5a942cd","system_id":"levelo_inurba_marseille","lat":43.3056,"lon":5.36545,"is_reserved":false,"is_disabled":false,"rental_uris":{"android":"levelo://app?vid=9db23817-100d-4feb-906a-faeaa5a942cd","ios":"levelo://app?vid=9db23817-100d-4feb-906a-faeaa5a942cd"},"vehicle_type_id":"4","last_reported":1762416902,"current_range_meters":6000,"station_id":"ce4bgs12rcd13ifvqcag","pricing_plan_id":"cebpf4jnsgd1na2vs0mg"},{"bike_id":"7cce9635-6f40-4831-8da1-5c8d9e99a184","system_id":"levelo_inurba_marseille","lat":43.26695,"lon":5.38262,"is_reserved":false,"is_disabled":false,"rental_uris":{"android":"levelo://app?vid=7cce9635-6f40-4831-8da1-5c8d9e99a184","ios":"levelo://app?vid=7cce9635-6f40-4831-8da1-5c8d9e99a184"},"vehicle_type_id":"4","last_reported":1762416902,"current_range_meters":6400,"station_id":"ce4bhg92rcd13ifvqf90","pricing_plan_id":"cebpf4jnsgd1na2vs0mg"},{"bike_id":"cd9c6c8f-813a-4b2c-b0c7-7a3265cb2fa0","system_id":"levelo_inurba_marseille","lat":43.24248,"lon":5.39322,"is_reserved":false,"is_disabled":false,"rental_uris":{"android":"levelo://app?vid=cd9c6c8f-813a-4b2c-b0c7-7a3265cb2fa0","ios":"levelo://app?vid=cd9c6c8f-813a-4b2c-b0c7-7a3265cb2fa0"},"vehicle_type_id":"4","last_reported":1762416902,"current_range_meters":6400,"station_id":"","pricing_plan_id":"cebpf4jnsgd1na2vs0mg"},{"bike_id":"6b1ab009-69a3-4f4d-88e2-66bdfe3b700d","system_id":"levelo_inurba_marseille","lat":43.257275,"lon":5.41115,"is_reserved":false,"is_disabled":false,"rental_uris":{"android":"levelo://app?vid=6b1ab009-69a3-4f4d-88e2-66bdfe3b700d","ios":"levelo://app?vid=6b1ab009-69a3-4f4d-88e2-66bdfe3b700d"},"vehicle_type_id":"4","last_reported":1762416902,"current_range_meters":6400,"station_id":"ce4bhkp2rcd13ifvqgd0","pricing_plan_id":"cebpf4jnsgd1na2vs0mg"},{"bike_id":"0c942d1e-7154-4dce-b8d8-a0b5986b2176","system_id":"levelo_inurba_marseille","lat":43.225649,"lon":5.416226,"is_reserved":false,"is_disabled":false,"rental_uris":{"android":"levelo://app?vid=0c942d1e-7154-4dce-b8d8-a0b5986b2176","ios":"levelo://app?vid=0c942d1e-7154-4dce-b8d8-a0b5986b2176"},"vehicle_type_id":"4","last_reported":1762416902,"current_range_meters":6800,"station_id":"st_d2o4gvlbi1j2169b742g","pricing_plan_id":"cebpf4jnsgd1na2vs0mg"},{"bike_id":"ea4f4b84-78b0-4180-a7f8-ecb8c6182713","system_id":"levelo_inurba_marseille","lat":43.2953,"lon":5.36104,"is_reserved":false,"is_disabled":true,"rental_uris":{"android":"levelo://app?vid=ea4f4b84-78b0-4180-a7f8-ecb8c6182713","ios":"levelo://app?vid=ea4f4b84-78b0-4180-a7f8-ecb8c6182713"},"vehicle_type_id":"4","last_reported":1762416902,"current_range_meters":6800,"station_id":"","pricing_plan_id":"cebpf4jnsgd1na2vs0mg"},{"bike_id":"e2f82a5e-42d8-4977-a1d2-bd65b491d2ec","system_id":"levelo_inurba_marseille","lat":43.29945,"lon":5.36545,"is_reserved":false,"is_disabled":false,"rental_uris":{"android":"levelo://app?vid=e2f82a5e-42d8-4977-a1d2-bd65b491d2ec","ios":"levelo://app?vid=e2f82a5e-42d8-4977-a1d2-bd65b491d2ec"},"vehicle_type_id":"4","last_reported":1762416902,"current_range_meters":6800,"station_id":"ce4bgm92rcd13ifvqbr0","pricing_plan_id":"cebpf4jnsgd1na2vs0mg"},{"bike_id":"4622c4e8-9b81-46ce-8588-2bcdc8d899d7","system_id":"levelo_inurba_marseille","lat":43.25732,"lon":5.41106,"is_reserved":false,"is_disabled":false,"rental_uris":{"android":"levelo://app?vid=4622c4e8-9b81-46ce-8588-2bcdc8d899d7","ios":"levelo://app?vid=4622c4e8-9b81-46ce-8588-2bcdc8d899d7"},"vehicle_type_id":"4","last_reported":1762416902,"current_range_meters":7200,"station_id":"ce4bhkp2rcd13ifvqgd0","pricing_plan_id":"cebpf4jnsgd1na2vs0mg"},{"bike_id":"430765a4-80be-4420-93bc-106b6fd5744d","system_id":"levelo_inurba_marseille","lat":43.31355,"lon":5.36706,"is_reserved":false,"is_disabled":false,"rental_uris":{"android":"levelo://app?vid=430765a4-80be-4420-93bc-106b6fd5744d","ios":"levelo://app?vid=430765a4-80be-4420-93bc-106b6fd5744d"},"vehicle_type_id":"4","last_reported":1762416902,"current_range_meters":7200,"station_id":"ce4bgr92rcd13ifvqc6g","pricing_plan_id":"cebpf4jnsgd1na2vs0mg"},{"bike_id":"36dadbf7-a228-4f6f-8b08-391008b68693","system_id":"levelo_inurba_marseille","lat":43.34557,"lon":5.36854,"is_reserved":false,"is_disabled":false,"rental_uris":{"android":"levelo://app?vid=36dadbf7-a228-4f6f-8b08-391008b68693","ios":"levelo://app?vid=36dadbf7-a228-4f6f-8b08-391008b68693"},"vehicle_type_id":"4","last_reported":1762416902,"current_range_meters":7200,"station_id":"","pricing_plan_id":"cebpf4jnsgd1na2vs0mg"},{"bike_id":"33564b2e-8f7f-4690-9c0c-a3e0fe8d09e8","system_id":"levelo_inurba_marseille","lat":43.2418,"lon":5.39745,"is_reserved":false,"is_disabled":false,"rental_uris":{"android":"levelo://app?vid=33564b2e-8f7f-4690-9c0c-a3e0fe8d09e8","ios":"levelo://app?vid=33564b2e-8f7f-4690-9c0c-a3e0fe8d09e8"},"vehicle_type_id":"4","last_reported":1762416902,"current_range_meters":7200,"station_id":"ce4bhn12rcd13ifvqgpg","pricing_plan_id":"cebpf4jnsgd1na2vs0mg"},{"bike_id":"dfdba61d-f372-471c-b186-401c07ba3927","system_id":"levelo_inurba_marseille","lat":43.29583,"lon":5.37512,"is_reserved":false,"is_disabled":false,"rental_uris":{"android":"levelo://app?vid=dfdba61d-f372-471c-b186-401c07ba3927","ios":"levelo://app?vid=dfdba61d-f372-471c-b186-401c07ba3927"},"vehicle_type_id":"4","last_reported":1762416902,"current_range_meters":8000,"station_id":"ce4bgh92rcd13ifvqb50","pricing_plan_id":"cebpf4jnsgd1na2vs0mg"},{"bike_id":"dcd7cc05-09ca-451c-b5c3-aec30ed844a3","system_id":"levelo_inurba_marseille","lat":43.29486,"lon":5.42735,"is_reserved":false,"is_disabled":false,"rental_uris":{"android":"levelo://app?vid=dcd7cc05-09ca-451c-b5c3-aec30ed844a3","ios":"levelo://app?vid=dcd7cc05-09ca-451c-b5c3-aec30ed844a3"},"vehicle_type_id":"4","last_reported":1762416902,"current_range_meters":8000,"station_id":"","pricing_plan_id":"cebpf4jnsgd1na2vs0mg"},{"bike_id":"43e2a9de-d52f-41f0-a255-5ffe0028647c","system_id":"levelo_inurba_marseille","lat":43.2656,"lon":5.37286,"is_reserved":false,"is_disabled":false,"rental_uris":{"android":"levelo://app?vid=43e2a9de-d52f-41f0-a255-5ffe0028647c","ios":"levelo://app?vid=43e2a9de-d52f-41f0-a255-5ffe0028647c"},"vehicle_type_id":"4","last_reported":1762416902,"current_range_meters":8000,"station_id":"ce4bhg12rcd13ifvqf70","pricing_plan_id":"cebpf4jnsgd1na2vs0mg"},{"bike_id":"765b9661-2b24-4c0f-a9fb-732d7409b10c","system_id":"levelo_inurba_marseille","lat":43.21623,"lon":5.34424,"is_reserved":false,"is_disabled":false,"rental_uris":{"android":"levelo://app?vid=765b9661-2b24-4c0f-a9fb-732d7409b10c","ios":"levelo://app?vid=765b9661-2b24-4c0f-a9fb-732d7409b10c"},"vehicle_type_id":"4","last_reported":1762416902,"current_range_meters":8000,"station_id":"","pricing_plan_id":"cebpf4jnsgd1na2vs0mg"},{"bike_id":"5176c9ae-98fc-45dc-8231-69b11255d153","system_id":"levelo_inurba_marseille","lat":43.23148,"lon":5.43723,"is_reserved":false,"is_disabled":false,"rental_uris":{"android":"levelo://app?vid=5176c9ae-98fc-45dc-8231-69b11255d153","ios":"levelo://app?vid=5176c9ae-98fc-45dc-8231-69b11255d153"},"vehicle_type_id":"4","last_reported":1762416902,"current_range_meters":8000,"station_id":"ce4bhmp2rcd13ifvqgog","pricing_plan_id":"cebpf4jnsgd1na2vs0mg"},{"bike_id":"e7002296-a724-4792-9c77-9aa7da662e7d","system_id":"levelo_inurba_marseille","lat":43.29752,"lon":5.36248,"is_reserved":false,"is_disabled":false,"rental_uris":{"android":"levelo://app?vid=e7002296-a724-4792-9c77-9aa7da662e7d","ios":"levelo://app?vid=e7002296-a724-4792-9c77-9aa7da662e7d"},"vehicle_type_id":"4","last_reported":1762416902,"current_range_meters":8000,"station_id":"","pricing_plan_id":"cebpf4jnsgd1na2vs0mg"},{"bike_id":"dc6e4c2c-223e-452d-a4f5-a4515a266851","system_id":"levelo_inurba_marseille","lat":43.2926,"lon":5.37611,"is_reserved":false,"is_disabled":false,"rental_uris":{"android":"levelo://app?vid=dc6e4c2c-223e-452d-a4f5-a4515a266851","ios":"levelo://app?vid=dc6e4c2c-223e-452d-a4f5-a4515a266851"},"vehicle_type_id":"4","last_reported":1762416902,"current_range_meters":8000,"station_id":"ce4bgi12rcd13ifvqb80","pricing_plan_id":"cebpf4jnsgd1na2vs0mg"},{"bike_id":"4b24dbba-41a5-4ecf-ade9-ac15d69f3a39","system_id":"levelo_inurba_marseille","lat":43.30277,"lon":5.37689,"is_reserved":false,"is_disabled":false,"rental_uris":{"android":"levelo://app?vid=4b24dbba-41a5-4ecf-ade9-ac15d69f3a39","ios":"levelo://app?vid=4b24dbba-41a5-4ecf-ade9-ac15d69f3a39"},"vehicle_type_id":"4","last_reported":1762416902,"current_range_meters":8400,"station_id":"ce4bguh2rcd13ifvqcj0","pricing_plan_id":"cebpf4jnsgd1na2vs0mg"},{"bike_id":"bb05320d-17be-4eb4-bbd9-a5ce9c67a5d6","system_id":"levelo_inurba_marseille","lat":43.24087,"lon":5.37747,"is_reserved":false,"is_disabled":true,"rental_uris":{"android":"levelo://app?vid=bb05320d-17be-4eb4-bbd9-a5ce9c67a5d6","ios":"levelo://app?vid=bb05320d-17be-4eb4-bbd9-a5ce9c67a5d6"},"vehicle_type_id":"4","last_reported":1762416902,"current_range_meters":8400,"station_id":"ce4bhnp2rcd13ifvqgvg","pricing_plan_id":"cebpf4jnsgd1na2vs0mg"},{"bike_id":"f9092b8b-f8d5-4fa7-b2da-db639c54cc1c","system_id":"levelo_inurba_marseille","lat":43.32095,"lon":5.3678,"is_reserved":false,"is_disabled":false,"rental_uris":{"android":"levelo://app?vid=f9092b8b-f8d5-4fa7-b2da-db639c54cc1c","ios":"levelo://app?vid=f9092b8b-f8d5-4fa7-b2da-db639c54cc1c"},"vehicle_type_id":"4","last_reported":1762416902,"current_range_meters":8400,"station_id":"ce4bhrh2rcd13ifvqhug","pricing_plan_id":"cebpf4jnsgd1na2vs0mg"},{"bike_id":"ac3661dd-248f-4b92-ad04-1fbf8e5c6660","system_id":"levelo_inurba_marseille","lat":43.28078,"lon":5.36931,"is_reserved":false,"is_disabled":true,"rental_uris":{"android":"levelo://app?vid=ac3661dd-248f-4b92-ad04-1fbf8e5c6660","ios":"levelo://app?vid=ac3661dd-248f-4b92-ad04-1fbf8e5c6660"},"vehicle_type_id":"4","last_reported":1762416902,"current_range_meters":8400,"station_id":"ce4bha12rcd13ifvqef0","pricing_plan_id":"cebpf4jnsgd1na2vs0mg"},{"bike_id":"7375127c-bef1-42fe-a4c7-88f5ae40b4cd","system_id":"levelo_inurba_marseille","lat":43.23148,"lon":5.43717,"is_reserved":false,"is_disabled":false,"rental_uris":{"android":"levelo://app?vid=7375127c-bef1-42fe-a4c7-88f5ae40b4cd","ios":"levelo://app?vid=7375127c-bef1-42fe-a4c7-88f5ae40b4cd"},"vehicle_type_id":"4","last_reported":1762416902,"current_range_meters":8800,"station_id":"ce4bhmp2rcd13ifvqgog","pricing_plan_id":"cebpf4jnsgd1na2vs0mg"},{"bike_id":"02c565c9-e1be-4475-b1a9-b37751cdb830","system_id":"levelo_inurba_marseille","lat":43.343317,"lon":5.348271,"is_reserved":false,"is_disabled":false,"rental_uris":{"android":"levelo://app?vid=02c565c9-e1be-4475-b1a9-b37751cdb830","ios":"levelo://app?vid=02c565c9-e1be-4475-b1a9-b37751cdb830"},"vehicle_type_id":"4","last_reported":1762416902,"current_range_meters":8800,"station_id":"","pricing_plan_id":"cebpf4jnsgd1na2vs0mg"},{"bike_id":"bbc9d8de-f240-4902-9872-f4640d18cc6e","system_id":"levelo_inurba_marseille","lat":43.23149,"lon":5.43718,"is_reserved":false,"is_disabled":false,"rental_uris":{"android":"levelo://app?vid=bbc9d8de-f240-4902-9872-f4640d18cc6e","ios":"levelo://app?vid=bbc9d8de-f240-4902-9872-f4640d18cc6e"},"vehicle_type_id":"4","last_reported":1762416902,"current_range_meters":8800,"station_id":"ce4bhmp2rcd13ifvqgog","pricing_plan_id":"cebpf4jnsgd1na2vs0mg"},{"bike_id":"58c5a942-54dc-42a0-bad1-ba51f995fcb6","system_id":"levelo_inurba_marseille","lat":43.31229,"lon":5.36849,"is_reserved":false,"is_disabled":false,"rental_uris":{"android":"levelo://app?vid=58c5a942-54dc-42a0-bad1-ba51f995fcb6","ios":"levelo://app?vid=58c5a942-54dc-42a0-bad1-ba51f995fcb6"},"vehicle_type_id":"4","last_reported":1762416902,"current_range_meters":8800,"station_id":"ce4bgl92rcd13ifvqbq0","pricing_plan_id":"cebpf4jnsgd1na2vs0mg"},{"bike_id":"8bb6c245-5421-4770-aaf6-595fd70424da","system_id":"levelo_inurba_marseille","lat":43.25864,"lon":5.39907,"is_reserved":false,"is_disabled":false,"rental_uris":{"android":"levelo://app?vid=8bb6c245-5421-4770-aaf6-595fd70424da","ios":"levelo://app?vid=8bb6c245-5421-4770-aaf6-595fd70424da"},"vehicle_type_id":"4","last_reported":1762416902,"current_range_meters":8800,"station_id":"ce4bhl92rcd13ifvqghg","pricing_plan_id":"cebpf4jnsgd1na2vs0mg"},{"bike_id":"78a049bb-e1ca-4d42-91b5-156bfe6e4cac","system_id":"levelo_inurba_marseille","lat":43.305316,"lon":5.365884,"is_reserved":false,"is_disabled":false,"rental_uris":{"android":"levelo://app?vid=78a049bb-e1ca-4d42-91b5-156bfe6e4cac","ios":"levelo://app?vid=78a049bb-e1ca-4d42-91b5-156bfe6e4cac"},"vehicle_type_id":"4","last_reported":1762416902,"current_range_meters":8800,"station_id":"ce4bgs12rcd13ifvqcag","pricing_plan_id":"cebpf4jnsgd1na2vs0mg"},{"bike_id":"51f7301d-4b1f-4b44-9d98-39c877256c2d","system_id":"levelo_inurba_marseille","lat":43.23786,"lon":5.36634,"is_reserved":false,"is_disabled":false,"rental_uris":{"android":"levelo://app?vid=51f7301d-4b1f-4b44-9d98-39c877256c2d","ios":"levelo://app?vid=51f7301d-4b1f-4b44-9d98-39c877256c2d"},"vehicle_type_id":"4","last_reported":1762416902,"current_range_meters":8800,"station_id":"st_d3nk18o9ro0c73en2l3g","pricing_plan_id":"cebpf4jnsgd1na2vs0mg"},{"bike_id":"3ed02add-87f3-41d7-bdf1-1cf82493034f","system_id":"levelo_inurba_marseille","lat":43.29317,"lon":5.38334,"is_reserved":false,"is_disabled":false,"rental_uris":{"android":"levelo://app?vid=3ed02add-87f3-41d7-bdf1-1cf82493034f","ios":"levelo://app?vid=3ed02add-87f3-41d7-bdf1-1cf82493034f"},"vehicle_type_id":"4","last_reported":1762416902,"current_range_meters":8800,"station_id":"","pricing_plan_id":"cebpf4jnsgd1na2vs0mg"},{"bike_id":"9c32ebdc-7891-4a16-b6f4-4282d3b50c4c","system_id":"levelo_inurba_marseille","lat":43.31367,"lon":5.36701,"is_reserved":false,"is_disabled":false,"rental_uris":{"android":"levelo://app?vid=9c32ebdc-7891-4a16-b6f4-4282d3b50c4c","ios":"levelo://app?vid=9c32ebdc-7891-4a16-b6f4-4282d3b50c4c"},"vehicle_type_id":"4","last_reported":1762416902,"current_range_meters":8800,"station_id":"","pricing_plan_id":"cebpf4jnsgd1na2vs0mg"},{"bike_id":"12105137-9d40-4e30-a243-dec6a5ef268a","system_id":"levelo_inurba_marseille","lat":43.27489,"lon":5.42453,"is_reserved":false,"is_disabled":false,"rental_uris":{"android":"levelo://app?vid=12105137-9d40-4e30-a243-dec6a5ef268a","ios":"levelo://app?vid=12105137-9d40-4e30-a243-dec6a5ef268a"},"vehicle_type_id":"4","last_reported":1762416902,"current_range_meters":9200,"station_id":"ce4bhn92rcd13ifvqgrg","pricing_plan_id":"cebpf4jnsgd1na2vs0mg"},{"bike_id":"3f14eb3d-e886-442c-a29d-ce46126f5339","system_id":"levelo_inurba_marseille","lat":43.229367,"lon":5.353755,"is_reserved":false,"is_disabled":false,"rental_uris":{"android":"levelo://app?vid=3f14eb3d-e886-442c-a29d-ce46126f5339","ios":"levelo://app?vid=3f14eb3d-e886-442c-a29d-ce46126f5339"},"vehicle_type_id":"4","last_reported":1762416902,"current_range_meters":9200,"station_id":"cpo3532slgdg3j2ikp40","pricing_plan_id":"cebpf4jnsgd1na2vs0mg"},{"bike_id":"571bd3a6-912b-44a3-9841-50c558a61481","system_id":"levelo_inurba_marseille","lat":43.28126,"lon":5.40554,"is_reserved":false,"is_disabled":false,"rental_uris":{"android":"levelo://app?vid=571bd3a6-912b-44a3-9841-50c558a61481","ios":"levelo://app?vid=571bd3a6-912b-44a3-9841-50c558a61481"},"vehicle_type_id":"4","last_reported":1762416902,"current_range_meters":9200,"station_id":"","pricing_plan_id":"cebpf4jnsgd1na2vs0mg"},{"bike_id":"faa273b1-03c7-4362-9b6d-99530942d732","system_id":"levelo_inurba_marseille","lat":43.24076,"lon":5.37758,"is_reserved":false,"is_disabled":false,"rental_uris":{"android":"levelo://app?vid=faa273b1-03c7-4362-9b6d-99530942d732","ios":"levelo://app?vid=faa273b1-03c7-4362-9b6d-99530942d732"},"vehicle_type_id":"4","last_reported":1762416902,"current_range_meters":9200,"station_id":"ce4bhnp2rcd13ifvqgvg","pricing_plan_id":"cebpf4jnsgd1na2vs0mg"},{"bike_id":"efe5b6f9-d8b2-4662-acaf-a29893c5f86f","system_id":"levelo_inurba_marseille","lat":43.27072,"lon":5.42283,"is_reserved":false,"is_disabled":false,"rental_uris":{"android":"levelo://app?vid=efe5b6f9-d8b2-4662-acaf-a29893c5f86f","ios":"levelo://app?vid=efe5b6f9-d8b2-4662-acaf-a29893c5f86f"},"vehicle_type_id":"4","last_reported":1762416902,"current_range_meters":9200,"station_id":"ce4bhk92rcd13ifvqgb0","pricing_plan_id":"cebpf4jnsgd1na2vs0mg"},{"bike_id":"78e9ed0c-03f7-4640-9361-03712cad71eb","system_id":"levelo_inurba_marseille","lat":43.25342,"lon":5.42167,"is_reserved":false,"is_disabled":false,"rental_uris":{"android":"levelo://app?vid=78e9ed0c-03f7-4640-9361-03712cad71eb","ios":"levelo://app?vid=78e9ed0c-03f7-4640-9361-03712cad71eb"},"vehicle_type_id":"4","last_reported":1762416902,"current_range_meters":9200,"station_id":"st_d2m65c5bi1j21697t3ng","pricing_plan_id":"cebpf4jnsgd1na2vs0mg"},{"bike_id":"b0956e2e-ad33-41b9-aae5-95906177dc62","system_id":"levelo_inurba_marseille","lat":43.2992,"lon":5.37467,"is_reserved":false,"is_disabled":false,"rental_uris":{"android":"levelo://app?vid=b0956e2e-ad33-41b9-aae5-95906177dc62","ios":"levelo://app?vid=b0956e2e-ad33-41b9-aae5-95906177dc62"},"vehicle_type_id":"4","last_reported":1762416902,"current_range_meters":9200,"station_id":"ce4bgjh2rcd13ifvqbg0","pricing_plan_id":"cebpf4jnsgd1na2vs0mg"},{"bike_id":"f05de795-5fcb-4469-b7de-49a68af38198","system_id":"levelo_inurba_marseille","lat":43.305339,"lon":5.384255,"is_reserved":false,"is_disabled":false,"rental_uris":{"android":"levelo://app?vid=f05de795-5fcb-4469-b7de-49a68af38198","ios":"levelo://app?vid=f05de795-5fcb-4469-b7de-49a68af38198"},"vehicle_type_id":"4","last_reported":1762416902,"current_range_meters":9200,"station_id":"ce4bgg92rcd13ifvqb30","pricing_plan_id":"cebpf4jnsgd1na2vs0mg"},{"bike_id":"06d5318d-9553-4980-a278-41ef6c92f22b","system_id":"levelo_inurba_marseille","lat":43.30162,"lon":5.38084,"is_reserved":false,"is_disabled":false,"rental_uris":{"android":"levelo://app?vid=06d5318d-9553-4980-a278-41ef6c92f22b","ios":"levelo://app?vid=06d5318d-9553-4980-a278-41ef6c92f22b"},"vehicle_type_id":"4","last_reported":1762416902,"current_range_meters":9200,"station_id":"ce4bgjp2rcd13ifvqbh0","pricing_plan_id":"cebpf4jnsgd1na2vs0mg"},{"bike_id":"a80322af-ed5b-4292-a927-2fe8792435d5","system_id":"levelo_inurba_marseille","lat":43.29414,"lon":5.38456,"is_reserved":false,"is_disabled":false,"rental_uris":{"android":"levelo://app?vid=a80322af-ed5b-4292-a927-2fe8792435d5","ios":"levelo://app?vid=a80322af-ed5b-4292-a927-2fe8792435d5"},"vehicle_type_id":"4","last_reported":1762416902,"current_range_meters":9200,"station_id":"","pricing_plan_id":"cebpf4jnsgd1na2vs0mg"},{"bike_id":"c8227461-4566-4216-906e-491a3e77df3d","system_id":"levelo_inurba_marseille","lat":43.24389,"lon":5.3705,"is_reserved":false,"is_disabled":false,"rental_uris":{"android":"levelo://app?vid=c8227461-4566-4216-906e-491a3e77df3d","ios":"levelo://app?vid=c8227461-4566-4216-906e-491a3e77df3d"},"vehicle_type_id":"4","last_reported":1762416902,"current_range_meters":9600,"station_id":"ce4bhhh2rcd13ifvqfk0","pricing_plan_id":"cebpf4jnsgd1na2vs0mg"},{"bike_id":"5a8b96ec-cb05-46c6-90cd-f561f8fce9ca","system_id":"levelo_inurba_marseille","lat":43.23146,"lon":5.43737,"is_reserved":false,"is_disabled":false,"rental_uris":{"android":"levelo://app?vid=5a8b96ec-cb05-46c6-90cd-f561f8fce9ca","ios":"levelo://app?vid=5a8b96ec-cb05-46c6-90cd-f561f8fce9ca"},"vehicle_type_id":"4","last_reported":1762416902,"current_range_meters":9600,"station_id":"ce4bhmp2rcd13ifvqgog","pricing_plan_id":"cebpf4jnsgd1na2vs0mg"},{"bike_id":"171042e6-3f87-41d6-8406-d07f86739712","system_id":"levelo_inurba_marseille","lat":43.31357,"lon":5.36712,"is_reserved":false,"is_disabled":true,"rental_uris":{"android":"levelo://app?vid=171042e6-3f87-41d6-8406-d07f86739712","ios":"levelo://app?vid=171042e6-3f87-41d6-8406-d07f86739712"},"vehicle_type_id":"4","last_reported":1762416902,"current_range_meters":9600,"station_id":"ce4bgr92rcd13ifvqc6g","pricing_plan_id":"cebpf4jnsgd1na2vs0mg"},{"bike_id":"a3d36a24-b7e8-48a3-bd7b-141c6bfeb92b","system_id":"levelo_inurba_marseille","lat":43.30932,"lon":5.40126,"is_reserved":false,"is_disabled":false,"rental_uris":{"android":"levelo://app?vid=a3d36a24-b7e8-48a3-bd7b-141c6bfeb92b","ios":"levelo://app?vid=a3d36a24-b7e8-48a3-bd7b-141c6bfeb92b"},"vehicle_type_id":"4","last_reported":1762416902,"current_range_meters":9600,"station_id":"ce4bgvp2rcd13ifvqct0","pricing_plan_id":"cebpf4jnsgd1na2vs0mg"},{"bike_id":"5128769c-8753-40ad-8cd3-534c5edf4859","system_id":"levelo_inurba_marseille","lat":43.3014,"lon":5.38781,"is_reserved":false,"is_disabled":false,"rental_uris":{"android":"levelo://app?vid=5128769c-8753-40ad-8cd3-534c5edf4859","ios":"levelo://app?vid=5128769c-8753-40ad-8cd3-534c5edf4859"},"vehicle_type_id":"4","last_reported":1762416902,"current_range_meters":9600,"station_id":"ce4bghh2rcd13ifvqb60","pricing_plan_id":"cebpf4jnsgd1na2vs0mg"},{"bike_id":"8db420a7-407a-4cd3-9095-5a8e96625979","system_id":"levelo_inurba_marseille","lat":43.229322,"lon":5.3537,"is_reserved":false,"is_disabled":false,"rental_uris":{"android":"levelo://app?vid=8db420a7-407a-4cd3-9095-5a8e96625979","ios":"levelo://app?vid=8db420a7-407a-4cd3-9095-5a8e96625979"},"vehicle_type_id":"4","last_reported":1762416902,"current_range_meters":9600,"station_id":"cpo3532slgdg3j2ikp40","pricing_plan_id":"cebpf4jnsgd1na2vs0mg"},{"bike_id":"974547a4-f849-4102-a3a7-3eb677d0a89d","system_id":"levelo_inurba_marseille","lat":43.26564,"lon":5.37282,"is_reserved":false,"is_disabled":false,"rental_uris":{"android":"levelo://app?vid=974547a4-f849-4102-a3a7-3eb677d0a89d","ios":"levelo://app?vid=974547a4-f849-4102-a3a7-3eb677d0a89d"},"vehicle_type_id":"4","last_reported":1762416902,"current_range_meters":9600,"station_id":"ce4bhg12rcd13ifvqf70","pricing_plan_id":"cebpf4jnsgd1na2vs0mg"},{"bike_id":"c00ec1c6-2cb6-455a-a30c-ed3b3ffafd0a","system_id":"levelo_inurba_marseille","lat":43.27364,"lon":5.42397,"is_reserved":false,"is_disabled":false,"rental_uris":{"android":"levelo://app?vid=c00ec1c6-2cb6-455a-a30c-ed3b3ffafd0a","ios":"levelo://app?vid=c00ec1c6-2cb6-455a-a30c-ed3b3ffafd0a"},"vehicle_type_id":"4","last_reported":1762416902,"current_range_meters":9600,"station_id":"","pricing_plan_id":"cebpf4jnsgd1na2vs0mg"},{"bike_id":"3dbacef1-9e2f-48ad-8ae0-1bd045a9f26b","system_id":"levelo_inurba_marseille","lat":43.31284,"lon":5.40162,"is_reserved":false,"is_disabled":false,"rental_uris":{"android":"levelo://app?vid=3dbacef1-9e2f-48ad-8ae0-1bd045a9f26b","ios":"levelo://app?vid=3dbacef1-9e2f-48ad-8ae0-1bd045a9f26b"},"vehicle_type_id":"4","last_reported":1762416902,"current_range_meters":10000,"station_id":"ce4bh092rcd13ifvqd30","pricing_plan_id":"cebpf4jnsgd1na2vs0mg"},{"bike_id":"813d84df-d28e-442a-86a4-2693a3f1117d","system_id":"levelo_inurba_marseille","lat":43.23058,"lon":5.35495,"is_reserved":false,"is_disabled":false,"rental_uris":{"android":"levelo://app?vid=813d84df-d28e-442a-86a4-2693a3f1117d","ios":"levelo://app?vid=813d84df-d28e-442a-86a4-2693a3f1117d"},"vehicle_type_id":"4","last_reported":1762416902,"current_range_meters":10000,"station_id":"cpo3342slgdg3j2ifvpg","pricing_plan_id":"cebpf4jnsgd1na2vs0mg"},{"bike_id":"7f7c73d9-73f6-4be4-9dcb-f4e6f6f137ee","system_id":"levelo_inurba_marseille","lat":43.24559,"lon":5.39518,"is_reserved":false,"is_disabled":false,"rental_uris":{"android":"levelo://app?vid=7f7c73d9-73f6-4be4-9dcb-f4e6f6f137ee","ios":"levelo://app?vid=7f7c73d9-73f6-4be4-9dcb-f4e6f6f137ee"},"vehicle_type_id":"4","last_reported":1762416902,"current_range_meters":10000,"station_id":"ce4bhlp2rcd13ifvqgjg","pricing_plan_id":"cebpf4jnsgd1na2vs0mg"},{"bike_id":"32d78821-6ce6-42dd-8f88-37f969d551fd","system_id":"levelo_inurba_marseille","lat":43.293259,"lon":5.379603,"is_reserved":false,"is_disabled":false,"rental_uris":{"android":"levelo://app?vid=32d78821-6ce6-42dd-8f88-37f969d551fd","ios":"levelo://app?vid=32d78821-6ce6-42dd-8f88-37f969d551fd"},"vehicle_type_id":"4","last_reported":1762416902,"current_range_meters":10000,"station_id":"ce4bgjh2rcd13ifvqbf0","pricing_plan_id":"cebpf4jnsgd1na2vs0mg"},{"bike_id":"4018132b-c886-4886-ba66-ac2335fddf17","system_id":"levelo_inurba_marseille","lat":43.270778,"lon":5.422865,"is_reserved":false,"is_disabled":false,"rental_uris":{"android":"levelo://app?vid=4018132b-c886-4886-ba66-ac2335fddf17","ios":"levelo://app?vid=4018132b-c886-4886-ba66-ac2335fddf17"},"vehicle_type_id":"4","last_reported":1762416902,"current_range_meters":10000,"station_id":"ce4bhk92rcd13ifvqgb0","pricing_plan_id":"cebpf4jnsgd1na2vs0mg"},{"bike_id":"4d022d45-2d2e-4d1f-a7be-f6f7ebc1bbd2","system_id":"levelo_inurba_marseille","lat":43.30903,"lon":5.36849,"is_reserved":false,"is_disabled":false,"rental_uris":{"android":"levelo://app?vid=4d022d45-2d2e-4d1f-a7be-f6f7ebc1bbd2","ios":"levelo://app?vid=4d022d45-2d2e-4d1f-a7be-f6f7ebc1bbd2"},"vehicle_type_id":"4","last_reported":1762416902,"current_range_meters":10000,"station_id":"ce4bgn92rcd13ifvqbvg","pricing_plan_id":"cebpf4jnsgd1na2vs0mg"},{"bike_id":"16c06b59-1af1-4860-9663-0d947fdc150e","system_id":"levelo_inurba_marseille","lat":43.29629,"lon":5.3772,"is_reserved":false,"is_disabled":false,"rental_uris":{"android":"levelo://app?vid=16c06b59-1af1-4860-9663-0d947fdc150e","ios":"levelo://app?vid=16c06b59-1af1-4860-9663-0d947fdc150e"},"vehicle_type_id":"4","last_reported":1762416902,"current_range_meters":10800,"station_id":"ce4bgi92rcd13ifvqb90","pricing_plan_id":"cebpf4jnsgd1na2vs0mg"},{"bike_id":"a62d93be-0a32-4640-b9e2-a85b32f05239","system_id":"levelo_inurba_marseille","lat":43.25826,"lon":5.39433,"is_reserved":false,"is_disabled":false,"rental_uris":{"android":"levelo://app?vid=a62d93be-0a32-4640-b9e2-a85b32f05239","ios":"levelo://app?vid=a62d93be-0a32-4640-b9e2-a85b32f05239"},"vehicle_type_id":"4","last_reported":1762416902,"current_range_meters":10800,"station_id":"ce4bhip2rcd13ifvqft0","pricing_plan_id":"cebpf4jnsgd1na2vs0mg"},{"bike_id":"27c31e5e-45d2-4fa1-af09-7c93e271f655","system_id":"levelo_inurba_marseille","lat":43.24072,"lon":5.37759,"is_reserved":false,"is_disabled":false,"rental_uris":{"android":"levelo://app?vid=27c31e5e-45d2-4fa1-af09-7c93e271f655","ios":"levelo://app?vid=27c31e5e-45d2-4fa1-af09-7c93e271f655"},"vehicle_type_id":"4","last_reported":1762416902,"current_range_meters":10800,"station_id":"ce4bhnp2rcd13ifvqgvg","pricing_plan_id":"cebpf4jnsgd1na2vs0mg"},{"bike_id":"b0eb7bd4-2ced-46fa-96cc-72d98d8aff74","system_id":"levelo_inurba_marseille","lat":43.259356,"lon":5.409123,"is_reserved":false,"is_disabled":false,"rental_uris":{"android":"levelo://app?vid=b0eb7bd4-2ced-46fa-96cc-72d98d8aff74","ios":"levelo://app?vid=b0eb7bd4-2ced-46fa-96cc-72d98d8aff74"},"vehicle_type_id":"4","last_reported":1762416902,"current_range_meters":10800,"station_id":"ce4bhm92rcd13ifvqglg","pricing_plan_id":"cebpf4jnsgd1na2vs0mg"},{"bike_id":"cff64f4e-5f37-43ea-ae7e-1ca574864a38","system_id":"levelo_inurba_marseille","lat":43.32449,"lon":5.42762,"is_reserved":false,"is_disabled":false,"rental_uris":{"android":"levelo://app?vid=cff64f4e-5f37-43ea-ae7e-1ca574864a38","ios":"levelo://app?vid=cff64f4e-5f37-43ea-ae7e-1ca574864a38"},"vehicle_type_id":"4","last_reported":1762416902,"current_range_meters":10800,"station_id":"","pricing_plan_id":"cebpf4jnsgd1na2vs0mg"},{"bike_id":"ea76247b-c2f9-4704-b4ef-ce65390871c4","system_id":"levelo_inurba_marseille","lat":43.24958,"lon":5.40496,"is_reserved":false,"is_disabled":false,"rental_uris":{"android":"levelo://app?vid=ea76247b-c2f9-4704-b4ef-ce65390871c4","ios":"levelo://app?vid=ea76247b-c2f9-4704-b4ef-ce65390871c4"},"vehicle_type_id":"4","last_reported":1762416902,"current_range_meters":10800,"station_id":"st_d2ngiaodas8pm72gd1h0","pricing_plan_id":"cebpf4jnsgd1na2vs0mg"},{"bike_id":"2dd6e189-051d-42d1-a5e8-cea28781026e","system_id":"levelo_inurba_marseille","lat":43.3054,"lon":5.36691,"is_reserved":false,"is_disabled":false,"rental_uris":{"android":"levelo://app?vid=2dd6e189-051d-42d1-a5e8-cea28781026e","ios":"levelo://app?vid=2dd6e189-051d-42d1-a5e8-cea28781026e"},"vehicle_type_id":"4","last_reported":1762416902,"current_range_meters":10800,"station_id":"ce4bgrp2rcd13ifvqc9g","pricing_plan_id":"cebpf4jnsgd1na2vs0mg"},{"bike_id":"c14b70b2-98d4-4848-a2d9-32722b8d1daf","system_id":"levelo_inurba_marseille","lat":43.31814,"lon":5.36844,"is_reserved":false,"is_disabled":false,"rental_uris":{"android":"levelo://app?vid=c14b70b2-98d4-4848-a2d9-32722b8d1daf","ios":"levelo://app?vid=c14b70b2-98d4-4848-a2d9-32722b8d1daf"},"vehicle_type_id":"4","last_reported":1762416902,"current_range_meters":10800,"station_id":"","pricing_plan_id":"cebpf4jnsgd1na2vs0mg"},{"bike_id":"42d2792a-88bd-48e5-afe0-4b6400cd337a","system_id":"levelo_inurba_marseille","lat":43.31673,"lon":5.38214,"is_reserved":false,"is_disabled":false,"rental_uris":{"android":"levelo://app?vid=42d2792a-88bd-48e5-afe0-4b6400cd337a","ios":"levelo://app?vid=42d2792a-88bd-48e5-afe0-4b6400cd337a"},"vehicle_type_id":"4","last_reported":1762416902,"current_range_meters":10800,"station_id":"","pricing_plan_id":"cebpf4jnsgd1na2vs0mg"},{"bike_id":"81dcc136-dea2-46c0-98af-42dbdee92b54","system_id":"levelo_inurba_marseille","lat":43.285,"lon":5.4841,"is_reserved":false,"is_disabled":false,"rental_uris":{"android":"levelo://app?vid=81dcc136-dea2-46c0-98af-42dbdee92b54","ios":"levelo://app?vid=81dcc136-dea2-46c0-98af-42dbdee92b54"},"vehicle_type_id":"4","last_reported":1762416902,"current_range_meters":10800,"station_id":"","pricing_plan_id":"cebpf4jnsgd1na2vs0mg"},{"bike_id":"985d9aa8-384c-4fa2-b9c6-7c07448724e4","system_id":"levelo_inurba_marseille","lat":43.28273,"lon":5.35056,"is_reserved":false,"is_disabled":false,"rental_uris":{"android":"levelo://app?vid=985d9aa8-384c-4fa2-b9c6-7c07448724e4","ios":"levelo://app?vid=985d9aa8-384c-4fa2-b9c6-7c07448724e4"},"vehicle_type_id":"4","last_reported":1762416902,"current_range_meters":10800,"station_id":"ce4bhbp2rcd13ifvqerg","pricing_plan_id":"cebpf4jnsgd1na2vs0mg"},{"bike_id":"3c8b4334-dfd7-4f19-810e-bc8658ba2fad","system_id":"levelo_inurba_marseille","lat":43.30545,"lon":5.3655,"is_reserved":false,"is_disabled":false,"rental_uris":{"android":"levelo://app?vid=3c8b4334-dfd7-4f19-810e-bc8658ba2fad","ios":"levelo://app?vid=3c8b4334-dfd7-4f19-810e-bc8658ba2fad"},"vehicle_type_id":"4","last_reported":1762416902,"current_range_meters":10800,"station_id":"ce4bgs12rcd13ifvqcag","pricing_plan_id":"cebpf4jnsgd1na2vs0mg"},{"bike_id":"bcb3c39b-ec48-48ef-9eac-eb8b71840959","system_id":"levelo_inurba_marseille","lat":43.33757,"lon":5.37464,"is_reserved":false,"is_disabled":false,"rental_uris":{"android":"levelo://app?vid=bcb3c39b-ec48-48ef-9eac-eb8b71840959","ios":"levelo://app?vid=bcb3c39b-ec48-48ef-9eac-eb8b71840959"},"vehicle_type_id":"4","last_reported":1762416902,"current_range_meters":11200,"station_id":"","pricing_plan_id":"cebpf4jnsgd1na2vs0mg"},{"bike_id":"e2c5410d-6779-45e3-b477-df284ad3e982","system_id":"levelo_inurba_marseille","lat":43.27316,"lon":5.39059,"is_reserved":false,"is_disabled":false,"rental_uris":{"android":"levelo://app?vid=e2c5410d-6779-45e3-b477-df284ad3e982","ios":"levelo://app?vid=e2c5410d-6779-45e3-b477-df284ad3e982"},"vehicle_type_id":"4","last_reported":1762416902,"current_range_meters":11200,"station_id":"ce4bhgp2rcd13ifvqfe0","pricing_plan_id":"cebpf4jnsgd1na2vs0mg"},{"bike_id":"341b8648-1055-4832-9a1f-322572b56071","system_id":"levelo_inurba_marseille","lat":43.312192,"lon":5.368631,"is_reserved":false,"is_disabled":true,"rental_uris":{"android":"levelo://app?vid=341b8648-1055-4832-9a1f-322572b56071","ios":"levelo://app?vid=341b8648-1055-4832-9a1f-322572b56071"},"vehicle_type_id":"4","last_reported":1762416902,"current_range_meters":11200,"station_id":"","pricing_plan_id":"cebpf4jnsgd1na2vs0mg"},{"bike_id":"d05e3da8-8106-4f59-8bbd-be54a04dadf0","system_id":"levelo_inurba_marseille","lat":43.29261,"lon":5.40913,"is_reserved":false,"is_disabled":false,"rental_uris":{"android":"levelo://app?vid=d05e3da8-8106-4f59-8bbd-be54a04dadf0","ios":"levelo://app?vid=d05e3da8-8106-4f59-8bbd-be54a04dadf0"},"vehicle_type_id":"4","last_reported":1762416902,"current_range_meters":11200,"station_id":"ce4bh192rcd13ifvqdc0","pricing_plan_id":"cebpf4jnsgd1na2vs0mg"},{"bike_id":"8cf54d33-efb5-4166-8509-df2cb57488b1","system_id":"levelo_inurba_marseille","lat":43.33424,"lon":5.40023,"is_reserved":false,"is_disabled":false,"rental_uris":{"android":"levelo://app?vid=8cf54d33-efb5-4166-8509-df2cb57488b1","ios":"levelo://app?vid=8cf54d33-efb5-4166-8509-df2cb57488b1"},"vehicle_type_id":"4","last_reported":1762416902,"current_range_meters":11200,"station_id":"","pricing_plan_id":"cebpf4jnsgd1na2vs0mg"},{"bike_id":"94b06f3e-9c43-404e-899a-d1e48d6d7a76","system_id":"levelo_inurba_marseille","lat":43.287102,"lon":5.399967,"is_reserved":false,"is_disabled":false,"rental_uris":{"android":"levelo://app?vid=94b06f3e-9c43-404e-899a-d1e48d6d7a76","ios":"levelo://app?vid=94b06f3e-9c43-404e-899a-d1e48d6d7a76"},"vehicle_type_id":"4","last_reported":1762416902,"current_range_meters":11600,"station_id":"ce4bho92rcd13ifvqh3g","pricing_plan_id":"cebpf4jnsgd1na2vs0mg"},{"bike_id":"3d704143-6bc1-4573-bb8b-0b97ba821a55","system_id":"levelo_inurba_marseille","lat":43.30952,"lon":5.39044,"is_reserved":false,"is_disabled":false,"rental_uris":{"android":"levelo://app?vid=3d704143-6bc1-4573-bb8b-0b97ba821a55","ios":"levelo://app?vid=3d704143-6bc1-4573-bb8b-0b97ba821a55"},"vehicle_type_id":"4","last_reported":1762416902,"current_range_meters":11600,"station_id":"ce4bgup2rcd13ifvqco0","pricing_plan_id":"cebpf4jnsgd1na2vs0mg"},{"bike_id":"913a5552-32ee-4db3-b492-0736645dfae4","system_id":"levelo_inurba_marseille","lat":43.30558,"lon":5.36755,"is_reserved":false,"is_disabled":false,"rental_uris":{"android":"levelo://app?vid=913a5552-32ee-4db3-b492-0736645dfae4","ios":"levelo://app?vid=913a5552-32ee-4db3-b492-0736645dfae4"},"vehicle_type_id":"4","last_reported":1762416902,"current_range_meters":11600,"station_id":"ce4bgrp2rcd13ifvqc9g","pricing_plan_id":"cebpf4jnsgd1na2vs0mg"},{"bike_id":"170ffdad-046d-4077-845f-67c2883c5bf9","system_id":"levelo_inurba_marseille","lat":43.3088,"lon":5.37184,"is_reserved":false,"is_disabled":false,"rental_uris":{"android":"levelo://app?vid=170ffdad-046d-4077-845f-67c2883c5bf9","ios":"levelo://app?vid=170ffdad-046d-4077-845f-67c2883c5bf9"},"vehicle_type_id":"4","last_reported":1762416902,"current_range_meters":11600,"station_id":"ce4bguh2rcd13ifvqckg","pricing_plan_id":"cebpf4jnsgd1na2vs0mg"},{"bike_id":"dae30738-204c-4787-a9b5-e056fa94e0c9","system_id":"levelo_inurba_marseille","lat":43.22564,"lon":5.41625,"is_reserved":false,"is_disabled":false,"rental_uris":{"android":"levelo://app?vid=dae30738-204c-4787-a9b5-e056fa94e0c9","ios":"levelo://app?vid=dae30738-204c-4787-a9b5-e056fa94e0c9"},"vehicle_type_id":"4","last_reported":1762416902,"current_range_meters":11600,"station_id":"st_d2o4gvlbi1j2169b742g","pricing_plan_id":"cebpf4jnsgd1na2vs0mg"},{"bike_id":"f6645b15-6d58-48de-94f0-ee582b80e28b","system_id":"levelo_inurba_marseille","lat":43.28277,"lon":5.35054,"is_reserved":false,"is_disabled":true,"rental_uris":{"android":"levelo://app?vid=f6645b15-6d58-48de-94f0-ee582b80e28b","ios":"levelo://app?vid=f6645b15-6d58-48de-94f0-ee582b80e28b"},"vehicle_type_id":"4","last_reported":1762416902,"current_range_meters":11600,"station_id":"ce4bhbp2rcd13ifvqerg","pricing_plan_id":"cebpf4jnsgd1na2vs0mg"},{"bike_id":"4e927a74-e82c-4083-b126-d62657f680f0","system_id":"levelo_inurba_marseille","lat":43.24079,"lon":5.37756,"is_reserved":false,"is_disabled":false,"rental_uris":{"android":"levelo://app?vid=4e927a74-e82c-4083-b126-d62657f680f0","ios":"levelo://app?vid=4e927a74-e82c-4083-b126-d62657f680f0"},"vehicle_type_id":"4","last_reported":1762416902,"current_range_meters":11600,"station_id":"ce4bhnp2rcd13ifvqgvg","pricing_plan_id":"cebpf4jnsgd1na2vs0mg"},{"bike_id":"32619026-315a-40db-ac53-a7d9e482de51","system_id":"levelo_inurba_marseille","lat":43.28234,"lon":5.39071,"is_reserved":false,"is_disabled":false,"rental_uris":{"android":"levelo://app?vid=32619026-315a-40db-ac53-a7d9e482de51","ios":"levelo://app?vid=32619026-315a-40db-ac53-a7d9e482de51"},"vehicle_type_id":"4","last_reported":1762416902,"current_range_meters":12000,"station_id":"ce4bhn92rcd13ifvqgsg","pricing_plan_id":"cebpf4jnsgd1na2vs0mg"},{"bike_id":"72a9632b-cfa6-4253-993e-e5aaa618dc02","system_id":"levelo_inurba_marseille","lat":43.305367,"lon":5.365576,"is_reserved":false,"is_disabled":true,"rental_uris":{"android":"levelo://app?vid=72a9632b-cfa6-4253-993e-e5aaa618dc02","ios":"levelo://app?vid=72a9632b-cfa6-4253-993e-e5aaa618dc02"},"vehicle_type_id":"4","last_reported":1762416902,"current_range_meters":12000,"station_id":"","pricing_plan_id":"cebpf4jnsgd1na2vs0mg"},{"bike_id":"939cfa05-3a8d-43d5-b2cb-f6a0964d7894","system_id":"levelo_inurba_marseille","lat":43.25944,"lon":5.409,"is_reserved":false,"is_disabled":false,"rental_uris":{"android":"levelo://app?vid=939cfa05-3a8d-43d5-b2cb-f6a0964d7894","ios":"levelo://app?vid=939cfa05-3a8d-43d5-b2cb-f6a0964d7894"},"vehicle_type_id":"4","last_reported":1762416902,"current_range_meters":12000,"station_id":"ce4bhm92rcd13ifvqglg","pricing_plan_id":"cebpf4jnsgd1na2vs0mg"},{"bike_id":"2c89c3ed-62de-4c74-8e11-a37172c6c77b","system_id":"levelo_inurba_marseille","lat":43.22873,"lon":5.4024,"is_reserved":false,"is_disabled":false,"rental_uris":{"android":"levelo://app?vid=2c89c3ed-62de-4c74-8e11-a37172c6c77b","ios":"levelo://app?vid=2c89c3ed-62de-4c74-8e11-a37172c6c77b"},"vehicle_type_id":"4","last_reported":1762416902,"current_range_meters":12000,"station_id":"","pricing_plan_id":"cebpf4jnsgd1na2vs0mg"},{"bike_id":"332ea5f8-d8ad-4878-bba6-2a32605882e6","system_id":"levelo_inurba_marseille","lat":43.32095,"lon":5.36762,"is_reserved":false,"is_disabled":false,"rental_uris":{"android":"levelo://app?vid=332ea5f8-d8ad-4878-bba6-2a32605882e6","ios":"levelo://app?vid=332ea5f8-d8ad-4878-bba6-2a32605882e6"},"vehicle_type_id":"4","last_reported":1762416902,"current_range_meters":12000,"station_id":"ce4bhrh2rcd13ifvqhug","pricing_plan_id":"cebpf4jnsgd1na2vs0mg"},{"bike_id":"27a5f28a-9708-455d-8a6e-b0fa2bb7d11b","system_id":"levelo_inurba_marseille","lat":43.30546,"lon":5.38416,"is_reserved":false,"is_disabled":false,"rental_uris":{"android":"levelo://app?vid=27a5f28a-9708-455d-8a6e-b0fa2bb7d11b","ios":"levelo://app?vid=27a5f28a-9708-455d-8a6e-b0fa2bb7d11b"},"vehicle_type_id":"4","last_reported":1762416902,"current_range_meters":12000,"station_id":"ce4bgg92rcd13ifvqb30","pricing_plan_id":"cebpf4jnsgd1na2vs0mg"},{"bike_id":"7573b0ce-2bea-4f9b-b8d0-df9704e404a1","system_id":"levelo_inurba_marseille","lat":43.292727,"lon":5.376404,"is_reserved":false,"is_disabled":false,"rental_uris":{"android":"levelo://app?vid=7573b0ce-2bea-4f9b-b8d0-df9704e404a1","ios":"levelo://app?vid=7573b0ce-2bea-4f9b-b8d0-df9704e404a1"},"vehicle_type_id":"4","last_reported":1762416902,"current_range_meters":12000,"station_id":"ce4bgi12rcd13ifvqb80","pricing_plan_id":"cebpf4jnsgd1na2vs0mg"},{"bike_id":"922d54df-8ba9-40e4-9acf-e068304c747b","system_id":"levelo_inurba_marseille","lat":43.25002,"lon":5.38938,"is_reserved":false,"is_disabled":false,"rental_uris":{"android":"levelo://app?vid=922d54df-8ba9-40e4-9acf-e068304c747b","ios":"levelo://app?vid=922d54df-8ba9-40e4-9acf-e068304c747b"},"vehicle_type_id":"4","last_reported":1762416902,"current_range_meters":12400,"station_id":"ce4bhgp2rcd13ifvqfd0","pricing_plan_id":"cebpf4jnsgd1na2vs0mg"},{"bike_id":"5cdf6db6-34e8-47e7-a941-262901b682d1","system_id":"levelo_inurba_marseille","lat":43.305335,"lon":5.384242,"is_reserved":false,"is_disabled":false,"rental_uris":{"android":"levelo://app?vid=5cdf6db6-34e8-47e7-a941-262901b682d1","ios":"levelo://app?vid=5cdf6db6-34e8-47e7-a941-262901b682d1"},"vehicle_type_id":"4","last_reported":1762416902,"current_range_meters":12400,"station_id":"ce4bgg92rcd13ifvqb30","pricing_plan_id":"cebpf4jnsgd1na2vs0mg"},{"bike_id":"d4b794b4-99f5-4da9-afee-48d6fee810a9","system_id":"levelo_inurba_marseille","lat":43.23968,"lon":5.36623,"is_reserved":false,"is_disabled":false,"rental_uris":{"android":"levelo://app?vid=d4b794b4-99f5-4da9-afee-48d6fee810a9","ios":"levelo://app?vid=d4b794b4-99f5-4da9-afee-48d6fee810a9"},"vehicle_type_id":"4","last_reported":1762416902,"current_range_meters":12400,"station_id":"ce4bhi12rcd13ifvqfp0","pricing_plan_id":"cebpf4jnsgd1na2vs0mg"},{"bike_id":"ddeaa719-beea-4500-8aff-3836fff83949","system_id":"levelo_inurba_marseille","lat":43.31276,"lon":5.46759,"is_reserved":false,"is_disabled":false,"rental_uris":{"android":"levelo://app?vid=ddeaa719-beea-4500-8aff-3836fff83949","ios":"levelo://app?vid=ddeaa719-beea-4500-8aff-3836fff83949"},"vehicle_type_id":"4","last_reported":1762416902,"current_range_meters":12400,"station_id":"","pricing_plan_id":"cebpf4jnsgd1na2vs0mg"},{"bike_id":"343f503f-83ec-4656-9204-590d27559271","system_id":"levelo_inurba_marseille","lat":43.26938,"lon":5.38917,"is_reserved":false,"is_disabled":false,"rental_uris":{"android":"levelo://app?vid=343f503f-83ec-4656-9204-590d27559271","ios":"levelo://app?vid=343f503f-83ec-4656-9204-590d27559271"},"vehicle_type_id":"4","last_reported":1762416902,"current_range_meters":12400,"station_id":"ce4bhhh2rcd13ifvqfl0","pricing_plan_id":"cebpf4jnsgd1na2vs0mg"},{"bike_id":"5553d1f5-0e0a-42ad-9427-179091294548","system_id":"levelo_inurba_marseille","lat":43.29536,"lon":5.38538,"is_reserved":false,"is_disabled":false,"rental_uris":{"android":"levelo://app?vid=5553d1f5-0e0a-42ad-9427-179091294548","ios":"levelo://app?vid=5553d1f5-0e0a-42ad-9427-179091294548"},"vehicle_type_id":"4","last_reported":1762416902,"current_range_meters":12800,"station_id":"ce4bgih2rcd13ifvqba0","pricing_plan_id":"cebpf4jnsgd1na2vs0mg"},{"bike_id":"e621d0f0-56fa-41ab-965c-3b74a08e833d","system_id":"levelo_inurba_marseille","lat":43.311676,"lon":5.387222,"is_reserved":false,"is_disabled":false,"rental_uris":{"android":"levelo://app?vid=e621d0f0-56fa-41ab-965c-3b74a08e833d","ios":"levelo://app?vid=e621d0f0-56fa-41ab-965c-3b74a08e833d"},"vehicle_type_id":"4","last_reported":1762416902,"current_range_meters":12800,"station_id":"ce4bgv12rcd13ifvqcp0","pricing_plan_id":"cebpf4jnsgd1na2vs0mg"},{"bike_id":"7df7d098-55f1-466f-92b5-fc774cda46dd","system_id":"levelo_inurba_marseille","lat":43.242715,"lon":5.396907,"is_reserved":false,"is_disabled":false,"rental_uris":{"android":"levelo://app?vid=7df7d098-55f1-466f-92b5-fc774cda46dd","ios":"levelo://app?vid=7df7d098-55f1-466f-92b5-fc774cda46dd"},"vehicle_type_id":"4","last_reported":1762416902,"current_range_meters":12800,"station_id":"","pricing_plan_id":"cebpf4jnsgd1na2vs0mg"},{"bike_id":"929999a6-b071-4278-81b4-e68a96607eec","system_id":"levelo_inurba_marseille","lat":43.24093,"lon":5.37769,"is_reserved":false,"is_disabled":false,"rental_uris":{"android":"levelo://app?vid=929999a6-b071-4278-81b4-e68a96607eec","ios":"levelo://app?vid=929999a6-b071-4278-81b4-e68a96607eec"},"vehicle_type_id":"4","last_reported":1762416902,"current_range_meters":12800,"station_id":"ce4bhnp2rcd13ifvqgvg","pricing_plan_id":"cebpf4jnsgd1na2vs0mg"},{"bike_id":"ab9b2bcc-ea75-449d-adbb-4add292d38c4","system_id":"levelo_inurba_marseille","lat":43.34122,"lon":5.38363,"is_reserved":false,"is_disabled":false,"rental_uris":{"android":"levelo://app?vid=ab9b2bcc-ea75-449d-adbb-4add292d38c4","ios":"levelo://app?vid=ab9b2bcc-ea75-449d-adbb-4add292d38c4"},"vehicle_type_id":"4","last_reported":1762416902,"current_range_meters":12800,"station_id":"","pricing_plan_id":"cebpf4jnsgd1na2vs0mg"},{"bike_id":"2abe9563-3708-4a64-b3ef-5b33e6aaf908","system_id":"levelo_inurba_marseille","lat":43.33576,"lon":5.40984,"is_reserved":false,"is_disabled":false,"rental_uris":{"android":"levelo://app?vid=2abe9563-3708-4a64-b3ef-5b33e6aaf908","ios":"levelo://app?vid=2abe9563-3708-4a64-b3ef-5b33e6aaf908"},"vehicle_type_id":"4","last_reported":1762416902,"current_range_meters":12800,"station_id":"","pricing_plan_id":"cebpf4jnsgd1na2vs0mg"},{"bike_id":"4409e8e6-e2b1-45fd-ac80-4ccdb4f82c11","system_id":"levelo_inurba_marseille","lat":43.3109,"lon":5.42424,"is_reserved":false,"is_disabled":false,"rental_uris":{"android":"levelo://app?vid=4409e8e6-e2b1-45fd-ac80-4ccdb4f82c11","ios":"levelo://app?vid=4409e8e6-e2b1-45fd-ac80-4ccdb4f82c11"},"vehicle_type_id":"4","last_reported":1762416902,"current_range_meters":13600,"station_id":"ce4bhp92rcd13ifvqhag","pricing_plan_id":"cebpf4jnsgd1na2vs0mg"},{"bike_id":"09ed3eb5-c2d4-4c5e-b9d1-44fb102a0a7e","system_id":"levelo_inurba_marseille","lat":43.22539,"lon":5.4159,"is_reserved":false,"is_disabled":false,"rental_uris":{"android":"levelo://app?vid=09ed3eb5-c2d4-4c5e-b9d1-44fb102a0a7e","ios":"levelo://app?vid=09ed3eb5-c2d4-4c5e-b9d1-44fb102a0a7e"},"vehicle_type_id":"4","last_reported":1762416902,"current_range_meters":13600,"station_id":"st_d2o4gvlbi1j2169b742g","pricing_plan_id":"cebpf4jnsgd1na2vs0mg"},{"bike_id":"5b5ab81e-9fba-4a76-958e-a58709c50a5e","system_id":"levelo_inurba_marseille","lat":43.27058,"lon":5.40259,"is_reserved":false,"is_disabled":false,"rental_uris":{"android":"levelo://app?vid=5b5ab81e-9fba-4a76-958e-a58709c50a5e","ios":"levelo://app?vid=5b5ab81e-9fba-4a76-958e-a58709c50a5e"},"vehicle_type_id":"4","last_reported":1762416902,"current_range_meters":13600,"station_id":"ce4bhk92rcd13ifvqgc0","pricing_plan_id":"cebpf4jnsgd1na2vs0mg"},{"bike_id":"32bad603-d89f-4044-809c-4201258120cf","system_id":"levelo_inurba_marseille","lat":43.30956,"lon":5.39038,"is_reserved":false,"is_disabled":false,"rental_uris":{"android":"levelo://app?vid=32bad603-d89f-4044-809c-4201258120cf","ios":"levelo://app?vid=32bad603-d89f-4044-809c-4201258120cf"},"vehicle_type_id":"4","last_reported":1762416902,"current_range_meters":13600,"station_id":"ce4bgup2rcd13ifvqco0","pricing_plan_id":"cebpf4jnsgd1na2vs0mg"},{"bike_id":"83f0b677-7d19-4265-a5bc-613d01c002ff","system_id":"levelo_inurba_marseille","lat":43.32133,"lon":5.36815,"is_reserved":false,"is_disabled":false,"rental_uris":{"android":"levelo://app?vid=83f0b677-7d19-4265-a5bc-613d01c002ff","ios":"levelo://app?vid=83f0b677-7d19-4265-a5bc-613d01c002ff"},"vehicle_type_id":"4","last_reported":1762416902,"current_range_meters":13600,"station_id":"","pricing_plan_id":"cebpf4jnsgd1na2vs0mg"},{"bike_id":"c957ffc7-eb77-4723-aa11-f4f34bd8332a","system_id":"levelo_inurba_marseille","lat":43.28107,"lon":5.37837,"is_reserved":false,"is_disabled":false,"rental_uris":{"android":"levelo://app?vid=c957ffc7-eb77-4723-aa11-f4f34bd8332a","ios":"levelo://app?vid=c957ffc7-eb77-4723-aa11-f4f34bd8332a"},"vehicle_type_id":"4","last_reported":1762416902,"current_range_meters":14000,"station_id":"ce4bha12rcd13ifvqee0","pricing_plan_id":"cebpf4jnsgd1na2vs0mg"},{"bike_id":"3ffe2c7b-f27f-49bd-95c3-0ecfbf0880d2","system_id":"levelo_inurba_marseille","lat":43.30702,"lon":5.38431,"is_reserved":false,"is_disabled":false,"rental_uris":{"android":"levelo://app?vid=3ffe2c7b-f27f-49bd-95c3-0ecfbf0880d2","ios":"levelo://app?vid=3ffe2c7b-f27f-49bd-95c3-0ecfbf0880d2"},"vehicle_type_id":"4","last_reported":1762416902,"current_range_meters":14000,"station_id":"","pricing_plan_id":"cebpf4jnsgd1na2vs0mg"},{"bike_id":"7a12909f-03b9-41eb-a90a-2ae5a65304be","system_id":"levelo_inurba_marseille","lat":43.261161,"lon":5.414082,"is_reserved":false,"is_disabled":false,"rental_uris":{"android":"levelo://app?vid=7a12909f-03b9-41eb-a90a-2ae5a65304be","ios":"levelo://app?vid=7a12909f-03b9-41eb-a90a-2ae5a65304be"},"vehicle_type_id":"4","last_reported":1762416902,"current_range_meters":14400,"station_id":"ce4bhm92rcd13ifvqglg","pricing_plan_id":"cebpf4jnsgd1na2vs0mg"},{"bike_id":"a715c0ef-3857-414c-967a-b5d1a542eb13","system_id":"levelo_inurba_marseille","lat":43.224571,"lon":5.347186,"is_reserved":false,"is_disabled":false,"rental_uris":{"android":"levelo://app?vid=a715c0ef-3857-414c-967a-b5d1a542eb13","ios":"levelo://app?vid=a715c0ef-3857-414c-967a-b5d1a542eb13"},"vehicle_type_id":"4","last_reported":1762416902,"current_range_meters":14400,"station_id":"","pricing_plan_id":"cebpf4jnsgd1na2vs0mg"},{"bike_id":"dd30d646-4993-41d3-b14e-d964806d462a","system_id":"levelo_inurba_marseille","lat":43.26788,"lon":5.39413,"is_reserved":false,"is_disabled":false,"rental_uris":{"android":"levelo://app?vid=dd30d646-4993-41d3-b14e-d964806d462a","ios":"levelo://app?vid=dd30d646-4993-41d3-b14e-d964806d462a"},"vehicle_type_id":"4","last_reported":1762416902,"current_range_meters":14400,"station_id":"ce4bhh12rcd13ifvqfg0","pricing_plan_id":"cebpf4jnsgd1na2vs0mg"},{"bike_id":"59b31ef2-3fe3-46e5-b5a5-685f264695ce","system_id":"levelo_inurba_marseille","lat":43.28484,"lon":5.48407,"is_reserved":false,"is_disabled":false,"rental_uris":{"android":"levelo://app?vid=59b31ef2-3fe3-46e5-b5a5-685f264695ce","ios":"levelo://app?vid=59b31ef2-3fe3-46e5-b5a5-685f264695ce"},"vehicle_type_id":"4","last_reported":1762416902,"current_range_meters":14400,"station_id":"","pricing_plan_id":"cebpf4jnsgd1na2vs0mg"},{"bike_id":"71967476-752a-4f5e-b222-99c0eea95f39","system_id":"levelo_inurba_marseille","lat":43.32314,"lon":5.38431,"is_reserved":false,"is_disabled":false,"rental_uris":{"android":"levelo://app?vid=71967476-752a-4f5e-b222-99c0eea95f39","ios":"levelo://app?vid=71967476-752a-4f5e-b222-99c0eea95f39"},"vehicle_type_id":"4","last_reported":1762416902,"current_range_meters":14400,"station_id":"","pricing_plan_id":"cebpf4jnsgd1na2vs0mg"},{"bike_id":"7d66217f-8dcd-4d04-999e-21198178b1b4","system_id":"levelo_inurba_marseille","lat":43.26237,"lon":5.40449,"is_reserved":false,"is_disabled":false,"rental_uris":{"android":"levelo://app?vid=7d66217f-8dcd-4d04-999e-21198178b1b4","ios":"levelo://app?vid=7d66217f-8dcd-4d04-999e-21198178b1b4"},"vehicle_type_id":"4","last_reported":1762416902,"current_range_meters":14400,"station_id":"ce4bhmh2rcd13ifvqgmg","pricing_plan_id":"cebpf4jnsgd1na2vs0mg"},{"bike_id":"65363b1f-aeab-46b9-a6bc-793f50a40e22","system_id":"levelo_inurba_marseille","lat":43.28274,"lon":5.35071,"is_reserved":false,"is_disabled":true,"rental_uris":{"android":"levelo://app?vid=65363b1f-aeab-46b9-a6bc-793f50a40e22","ios":"levelo://app?vid=65363b1f-aeab-46b9-a6bc-793f50a40e22"},"vehicle_type_id":"4","last_reported":1762416902,"current_range_meters":14400,"station_id":"ce4bhbp2rcd13ifvqerg","pricing_plan_id":"cebpf4jnsgd1na2vs0mg"},{"bike_id":"d49cf28b-afc6-4701-845f-ee352eaa23d8","system_id":"levelo_inurba_marseille","lat":43.26781,"lon":5.39425,"is_reserved":false,"is_disabled":false,"rental_uris":{"android":"levelo://app?vid=d49cf28b-afc6-4701-845f-ee352eaa23d8","ios":"levelo://app?vid=d49cf28b-afc6-4701-845f-ee352eaa23d8"},"vehicle_type_id":"4","last_reported":1762416902,"current_range_meters":14800,"station_id":"ce4bhh12rcd13ifvqfg0","pricing_plan_id":"cebpf4jnsgd1na2vs0mg"},{"bike_id":"74d8e824-64cf-4efb-8747-ae2ed353b274","system_id":"levelo_inurba_marseille","lat":43.25725,"lon":5.41021,"is_reserved":false,"is_disabled":false,"rental_uris":{"android":"levelo://app?vid=74d8e824-64cf-4efb-8747-ae2ed353b274","ios":"levelo://app?vid=74d8e824-64cf-4efb-8747-ae2ed353b274"},"vehicle_type_id":"4","last_reported":1762416902,"current_range_meters":14800,"station_id":"ce4bhkp2rcd13ifvqgd0","pricing_plan_id":"cebpf4jnsgd1na2vs0mg"},{"bike_id":"c80c3e87-9ccd-4383-93bf-4fc14e4f68b2","system_id":"levelo_inurba_marseille","lat":43.32536,"lon":5.41432,"is_reserved":false,"is_disabled":false,"rental_uris":{"android":"levelo://app?vid=c80c3e87-9ccd-4383-93bf-4fc14e4f68b2","ios":"levelo://app?vid=c80c3e87-9ccd-4383-93bf-4fc14e4f68b2"},"vehicle_type_id":"4","last_reported":1762416902,"current_range_meters":14800,"station_id":"ce4bhq12rcd13ifvqhhg","pricing_plan_id":"cebpf4jnsgd1na2vs0mg"},{"bike_id":"bb1b1199-0aff-4e93-9dcc-486912ec5f57","system_id":"levelo_inurba_marseille","lat":43.241805,"lon":5.396819,"is_reserved":false,"is_disabled":false,"rental_uris":{"android":"levelo://app?vid=bb1b1199-0aff-4e93-9dcc-486912ec5f57","ios":"levelo://app?vid=bb1b1199-0aff-4e93-9dcc-486912ec5f57"},"vehicle_type_id":"4","last_reported":1762416902,"current_range_meters":14800,"station_id":"ce4bhn12rcd13ifvqgpg","pricing_plan_id":"cebpf4jnsgd1na2vs0mg"},{"bike_id":"e6386c74-bd9b-47a1-8cd6-cfff4be1db56","system_id":"levelo_inurba_marseille","lat":43.27966,"lon":5.4361,"is_reserved":false,"is_disabled":false,"rental_uris":{"android":"levelo://app?vid=e6386c74-bd9b-47a1-8cd6-cfff4be1db56","ios":"levelo://app?vid=e6386c74-bd9b-47a1-8cd6-cfff4be1db56"},"vehicle_type_id":"4","last_reported":1762416902,"current_range_meters":14800,"station_id":"","pricing_plan_id":"cebpf4jnsgd1na2vs0mg"},{"bike_id":"5e3412dd-2232-4a2f-a361-0045d58481df","system_id":"levelo_inurba_marseille","lat":43.33763,"lon":5.37462,"is_reserved":false,"is_disabled":false,"rental_uris":{"android":"levelo://app?vid=5e3412dd-2232-4a2f-a361-0045d58481df","ios":"levelo://app?vid=5e3412dd-2232-4a2f-a361-0045d58481df"},"vehicle_type_id":"4","last_reported":1762416902,"current_range_meters":14800,"station_id":"","pricing_plan_id":"cebpf4jnsgd1na2vs0mg"},{"bike_id":"56d34c6d-4b17-45a3-8855-f46cd66b0e07","system_id":"levelo_inurba_marseille","lat":43.24085,"lon":5.37757,"is_reserved":false,"is_disabled":false,"rental_uris":{"android":"levelo://app?vid=56d34c6d-4b17-45a3-8855-f46cd66b0e07","ios":"levelo://app?vid=56d34c6d-4b17-45a3-8855-f46cd66b0e07"},"vehicle_type_id":"4","last_reported":1762416902,"current_range_meters":15200,"station_id":"ce4bhnp2rcd13ifvqgvg","pricing_plan_id":"cebpf4jnsgd1na2vs0mg"},{"bike_id":"a92c495e-0af2-4151-8f1d-381b706eb6ed","system_id":"levelo_inurba_marseille","lat":43.2902,"lon":5.3998,"is_reserved":false,"is_disabled":false,"rental_uris":{"android":"levelo://app?vid=a92c495e-0af2-4151-8f1d-381b706eb6ed","ios":"levelo://app?vid=a92c495e-0af2-4151-8f1d-381b706eb6ed"},"vehicle_type_id":"4","last_reported":1762416902,"current_range_meters":15200,"station_id":"ce4bh392rcd13ifvqdm0","pricing_plan_id":"cebpf4jnsgd1na2vs0mg"},{"bike_id":"ff0a1f52-cbdf-4633-a1ca-a6c768c74e28","system_id":"levelo_inurba_marseille","lat":43.26941,"lon":5.38915,"is_reserved":false,"is_disabled":false,"rental_uris":{"android":"levelo://app?vid=ff0a1f52-cbdf-4633-a1ca-a6c768c74e28","ios":"levelo://app?vid=ff0a1f52-cbdf-4633-a1ca-a6c768c74e28"},"vehicle_type_id":"4","last_reported":1762416902,"current_range_meters":15200,"station_id":"ce4bhhh2rcd13ifvqfl0","pricing_plan_id":"cebpf4jnsgd1na2vs0mg"},{"bike_id":"cff659ea-f518-4750-a956-bdc2cd2e2543","system_id":"levelo_inurba_marseille","lat":43.23153,"lon":5.43717,"is_reserved":false,"is_disabled":false,"rental_uris":{"android":"levelo://app?vid=cff659ea-f518-4750-a956-bdc2cd2e2543","ios":"levelo://app?vid=cff659ea-f518-4750-a956-bdc2cd2e2543"},"vehicle_type_id":"4","last_reported":1762416902,"current_range_meters":15200,"station_id":"ce4bhmp2rcd13ifvqgog","pricing_plan_id":"cebpf4jnsgd1na2vs0mg"},{"bike_id":"1d9df1f2-e349-4d9d-9ca1-5bd6b1126ee9","system_id":"levelo_inurba_marseille","lat":43.23204,"lon":5.35553,"is_reserved":false,"is_disabled":false,"rental_uris":{"android":"levelo://app?vid=1d9df1f2-e349-4d9d-9ca1-5bd6b1126ee9","ios":"levelo://app?vid=1d9df1f2-e349-4d9d-9ca1-5bd6b1126ee9"},"vehicle_type_id":"4","last_reported":1762416902,"current_range_meters":15200,"station_id":"ce4bhu92rcd13ifvqi70","pricing_plan_id":"cebpf4jnsgd1na2vs0mg"},{"bike_id":"d6868fe2-8dfb-4b03-9b67-46fb9e01fade","system_id":"levelo_inurba_marseille","lat":43.2827,"lon":5.35056,"is_reserved":false,"is_disabled":true,"rental_uris":{"android":"levelo://app?vid=d6868fe2-8dfb-4b03-9b67-46fb9e01fade","ios":"levelo://app?vid=d6868fe2-8dfb-4b03-9b67-46fb9e01fade"},"vehicle_type_id":"4","last_reported":1762416902,"current_range_meters":15200,"station_id":"ce4bhbp2rcd13ifvqerg","pricing_plan_id":"cebpf4jnsgd1na2vs0mg"},{"bike_id":"3aef97ee-c77f-40ee-b513-0ec274555b26","system_id":"levelo_inurba_marseille","lat":43.258647,"lon":5.399018,"is_reserved":false,"is_disabled":true,"rental_uris":{"android":"levelo://app?vid=3aef97ee-c77f-40ee-b513-0ec274555b26","ios":"levelo://app?vid=3aef97ee-c77f-40ee-b513-0ec274555b26"},"vehicle_type_id":"4","last_reported":1762416902,"current_range_meters":16000,"station_id":"","pricing_plan_id":"cebpf4jnsgd1na2vs0mg"},{"bike_id":"ab3a4d6b-b442-44b9-8f02-c1c222f445ba","system_id":"levelo_inurba_marseille","lat":43.27451,"lon":5.39257,"is_reserved":false,"is_disabled":false,"rental_uris":{"android":"levelo://app?vid=ab3a4d6b-b442-44b9-8f02-c1c222f445ba","ios":"levelo://app?vid=ab3a4d6b-b442-44b9-8f02-c1c222f445ba"},"vehicle_type_id":"4","last_reported":1762416902,"current_range_meters":16000,"station_id":"","pricing_plan_id":"cebpf4jnsgd1na2vs0mg"},{"bike_id":"59f126a1-3f54-4674-9d02-3170f771521b","system_id":"levelo_inurba_marseille","lat":43.31365,"lon":5.3671,"is_reserved":false,"is_disabled":false,"rental_uris":{"android":"levelo://app?vid=59f126a1-3f54-4674-9d02-3170f771521b","ios":"levelo://app?vid=59f126a1-3f54-4674-9d02-3170f771521b"},"vehicle_type_id":"4","last_reported":1762416902,"current_range_meters":16000,"station_id":"ce4bgr92rcd13ifvqc6g","pricing_plan_id":"cebpf4jnsgd1na2vs0mg"},{"bike_id":"f3080d76-d1d2-442b-a61f-92b9c969ee87","system_id":"levelo_inurba_marseille","lat":43.29264,"lon":5.37621,"is_reserved":false,"is_disabled":false,"rental_uris":{"android":"levelo://app?vid=f3080d76-d1d2-442b-a61f-92b9c969ee87","ios":"levelo://app?vid=f3080d76-d1d2-442b-a61f-92b9c969ee87"},"vehicle_type_id":"4","last_reported":1762416902,"current_range_meters":16000,"station_id":"ce4bgi12rcd13ifvqb80","pricing_plan_id":"cebpf4jnsgd1na2vs0mg"},{"bike_id":"48c2b0b9-f598-42fb-baa7-44213ce03a52","system_id":"levelo_inurba_marseille","lat":43.231519,"lon":5.437176,"is_reserved":false,"is_disabled":false,"rental_uris":{"android":"levelo://app?vid=48c2b0b9-f598-42fb-baa7-44213ce03a52","ios":"levelo://app?vid=48c2b0b9-f598-42fb-baa7-44213ce03a52"},"vehicle_type_id":"4","last_reported":1762416902,"current_range_meters":16000,"station_id":"ce4bhmp2rcd13ifvqgog","pricing_plan_id":"cebpf4jnsgd1na2vs0mg"},{"bike_id":"9f2da96b-e073-41e9-9cb6-b8c289d4a763","system_id":"levelo_inurba_marseille","lat":43.23186,"lon":5.39986,"is_reserved":false,"is_disabled":false,"rental_uris":{"android":"levelo://app?vid=9f2da96b-e073-41e9-9cb6-b8c289d4a763","ios":"levelo://app?vid=9f2da96b-e073-41e9-9cb6-b8c289d4a763"},"vehicle_type_id":"4","last_reported":1762416902,"current_range_meters":16000,"station_id":"ce4bhn12rcd13ifvqgqg","pricing_plan_id":"cebpf4jnsgd1na2vs0mg"},{"bike_id":"bae723a7-2665-4405-936f-8d74f375233b","system_id":"levelo_inurba_marseille","lat":43.29027,"lon":5.39993,"is_reserved":false,"is_disabled":false,"rental_uris":{"android":"levelo://app?vid=bae723a7-2665-4405-936f-8d74f375233b","ios":"levelo://app?vid=bae723a7-2665-4405-936f-8d74f375233b"},"vehicle_type_id":"4","last_reported":1762416902,"current_range_meters":16000,"station_id":"ce4bh392rcd13ifvqdm0","pricing_plan_id":"cebpf4jnsgd1na2vs0mg"},{"bike_id":"f05bc106-8774-43ae-a74a-b0f73cc325d1","system_id":"levelo_inurba_marseille","lat":43.252399,"lon":5.375514,"is_reserved":false,"is_disabled":false,"rental_uris":{"android":"levelo://app?vid=f05bc106-8774-43ae-a74a-b0f73cc325d1","ios":"levelo://app?vid=f05bc106-8774-43ae-a74a-b0f73cc325d1"},"vehicle_type_id":"4","last_reported":1762416902,"current_range_meters":16000,"station_id":"ce4bhnp2rcd13ifvqgvg","pricing_plan_id":"cebpf4jnsgd1na2vs0mg"},{"bike_id":"1a18a8e9-480a-460d-ab82-93e2f65f8d99","system_id":"levelo_inurba_marseille","lat":43.33595,"lon":5.4102,"is_reserved":false,"is_disabled":false,"rental_uris":{"android":"levelo://app?vid=1a18a8e9-480a-460d-ab82-93e2f65f8d99","ios":"levelo://app?vid=1a18a8e9-480a-460d-ab82-93e2f65f8d99"},"vehicle_type_id":"4","last_reported":1762416902,"current_range_meters":16000,"station_id":"ce4bhqh2rcd13ifvqhmg","pricing_plan_id":"cebpf4jnsgd1na2vs0mg"},{"bike_id":"e22b345d-4f89-4072-adbf-98664e18b0de","system_id":"levelo_inurba_marseille","lat":43.21194,"lon":5.35077,"is_reserved":false,"is_disabled":false,"rental_uris":{"android":"levelo://app?vid=e22b345d-4f89-4072-adbf-98664e18b0de","ios":"levelo://app?vid=e22b345d-4f89-4072-adbf-98664e18b0de"},"vehicle_type_id":"4","last_reported":1762416902,"current_range_meters":16000,"station_id":"st_cvj6sg6p6f1abm77japg","pricing_plan_id":"cebpf4jnsgd1na2vs0mg"},{"bike_id":"90fb8975-4c34-4228-869a-efb507d720cf","system_id":"levelo_inurba_marseille","lat":43.27491,"lon":5.42452,"is_reserved":false,"is_disabled":false,"rental_uris":{"android":"levelo://app?vid=90fb8975-4c34-4228-869a-efb507d720cf","ios":"levelo://app?vid=90fb8975-4c34-4228-869a-efb507d720cf"},"vehicle_type_id":"4","last_reported":1762416902,"current_range_meters":16400,"station_id":"ce4bhn92rcd13ifvqgrg","pricing_plan_id":"cebpf4jnsgd1na2vs0mg"},{"bike_id":"548d52fc-2f99-49b4-bb3b-df9aacaed4b3","system_id":"levelo_inurba_marseille","lat":43.31468,"lon":5.36613,"is_reserved":false,"is_disabled":false,"rental_uris":{"android":"levelo://app?vid=548d52fc-2f99-49b4-bb3b-df9aacaed4b3","ios":"levelo://app?vid=548d52fc-2f99-49b4-bb3b-df9aacaed4b3"},"vehicle_type_id":"4","last_reported":1762416902,"current_range_meters":16400,"station_id":"","pricing_plan_id":"cebpf4jnsgd1na2vs0mg"},{"bike_id":"bd3d6166-ef12-455e-9330-7bbb61173a8e","system_id":"levelo_inurba_marseille","lat":43.29858,"lon":5.36291,"is_reserved":false,"is_disabled":false,"rental_uris":{"android":"levelo://app?vid=bd3d6166-ef12-455e-9330-7bbb61173a8e","ios":"levelo://app?vid=bd3d6166-ef12-455e-9330-7bbb61173a8e"},"vehicle_type_id":"4","last_reported":1762416902,"current_range_meters":16400,"station_id":"ce4bgpp2rcd13ifvqc3g","pricing_plan_id":"cebpf4jnsgd1na2vs0mg"},{"bike_id":"1b6804e1-1bff-4836-a0f9-69513759fbed","system_id":"levelo_inurba_marseille","lat":43.29613,"lon":5.37752,"is_reserved":false,"is_disabled":false,"rental_uris":{"android":"levelo://app?vid=1b6804e1-1bff-4836-a0f9-69513759fbed","ios":"levelo://app?vid=1b6804e1-1bff-4836-a0f9-69513759fbed"},"vehicle_type_id":"4","last_reported":1762416902,"current_range_meters":16400,"station_id":"ce4bgi92rcd13ifvqb90","pricing_plan_id":"cebpf4jnsgd1na2vs0mg"},{"bike_id":"62b2636f-adb6-4186-ae22-b1f76da4b7d0","system_id":"levelo_inurba_marseille","lat":43.31235,"lon":5.36819,"is_reserved":false,"is_disabled":false,"rental_uris":{"android":"levelo://app?vid=62b2636f-adb6-4186-ae22-b1f76da4b7d0","ios":"levelo://app?vid=62b2636f-adb6-4186-ae22-b1f76da4b7d0"},"vehicle_type_id":"4","last_reported":1762416902,"current_range_meters":16400,"station_id":"ce4bgl92rcd13ifvqbq0","pricing_plan_id":"cebpf4jnsgd1na2vs0mg"},{"bike_id":"3b1348da-7d48-40a1-bd38-fd026003273a","system_id":"levelo_inurba_marseille","lat":43.28474,"lon":5.38412,"is_reserved":false,"is_disabled":false,"rental_uris":{"android":"levelo://app?vid=3b1348da-7d48-40a1-bd38-fd026003273a","ios":"levelo://app?vid=3b1348da-7d48-40a1-bd38-fd026003273a"},"vehicle_type_id":"4","last_reported":1762416902,"current_range_meters":16400,"station_id":"ce4bh512rcd13ifvqe3g","pricing_plan_id":"cebpf4jnsgd1na2vs0mg"},{"bike_id":"a605b0fd-b5bf-4eaf-8b03-728b65b443bb","system_id":"levelo_inurba_marseille","lat":43.30589,"lon":5.40464,"is_reserved":false,"is_disabled":false,"rental_uris":{"android":"levelo://app?vid=a605b0fd-b5bf-4eaf-8b03-728b65b443bb","ios":"levelo://app?vid=a605b0fd-b5bf-4eaf-8b03-728b65b443bb"},"vehicle_type_id":"4","last_reported":1762416902,"current_range_meters":16400,"station_id":"","pricing_plan_id":"cebpf4jnsgd1na2vs0mg"},{"bike_id":"58913ae0-74ea-49b4-8d46-6c500447e71d","system_id":"levelo_inurba_marseille","lat":43.29862,"lon":5.37631,"is_reserved":false,"is_disabled":false,"rental_uris":{"android":"levelo://app?vid=58913ae0-74ea-49b4-8d46-6c500447e71d","ios":"levelo://app?vid=58913ae0-74ea-49b4-8d46-6c500447e71d"},"vehicle_type_id":"4","last_reported":1762416902,"current_range_meters":16400,"station_id":"","pricing_plan_id":"cebpf4jnsgd1na2vs0mg"},{"bike_id":"33ae4984-5f12-485a-9589-62afcaed0591","system_id":"levelo_inurba_marseille","lat":43.29126,"lon":5.40786,"is_reserved":false,"is_disabled":false,"rental_uris":{"android":"levelo://app?vid=33ae4984-5f12-485a-9589-62afcaed0591","ios":"levelo://app?vid=33ae4984-5f12-485a-9589-62afcaed0591"},"vehicle_type_id":"4","last_reported":1762416902,"current_range_meters":16400,"station_id":"","pricing_plan_id":"cebpf4jnsgd1na2vs0mg"},{"bike_id":"d0581743-e06c-4ad1-9f8a-41b25975ba07","system_id":"levelo_inurba_marseille","lat":43.29823,"lon":5.44058,"is_reserved":false,"is_disabled":false,"rental_uris":{"android":"levelo://app?vid=d0581743-e06c-4ad1-9f8a-41b25975ba07","ios":"levelo://app?vid=d0581743-e06c-4ad1-9f8a-41b25975ba07"},"vehicle_type_id":"4","last_reported":1762416902,"current_range_meters":16400,"station_id":"st_d3jp68qikq2c7381ktn0","pricing_plan_id":"cebpf4jnsgd1na2vs0mg"},{"bike_id":"ce1c2f1b-9c18-4e8b-b094-59b25bf8e674","system_id":"levelo_inurba_marseille","lat":43.25723,"lon":5.41115,"is_reserved":false,"is_disabled":false,"rental_uris":{"android":"levelo://app?vid=ce1c2f1b-9c18-4e8b-b094-59b25bf8e674","ios":"levelo://app?vid=ce1c2f1b-9c18-4e8b-b094-59b25bf8e674"},"vehicle_type_id":"4","last_reported":1762416902,"current_range_meters":16400,"station_id":"ce4bhkp2rcd13ifvqgd0","pricing_plan_id":"cebpf4jnsgd1na2vs0mg"},{"bike_id":"d9ab85f3-3f2f-4158-a693-74c91fd3a40c","system_id":"levelo_inurba_marseille","lat":43.30534,"lon":5.384232,"is_reserved":false,"is_disabled":false,"rental_uris":{"android":"levelo://app?vid=d9ab85f3-3f2f-4158-a693-74c91fd3a40c","ios":"levelo://app?vid=d9ab85f3-3f2f-4158-a693-74c91fd3a40c"},"vehicle_type_id":"4","last_reported":1762416902,"current_range_meters":16400,"station_id":"ce4bgg92rcd13ifvqb30","pricing_plan_id":"cebpf4jnsgd1na2vs0mg"},{"bike_id":"91514d44-8dff-4888-ba27-6d0f51cbeb77","system_id":"levelo_inurba_marseille","lat":43.292226,"lon":5.360594,"is_reserved":false,"is_disabled":true,"rental_uris":{"android":"levelo://app?vid=91514d44-8dff-4888-ba27-6d0f51cbeb77","ios":"levelo://app?vid=91514d44-8dff-4888-ba27-6d0f51cbeb77"},"vehicle_type_id":"4","last_reported":1762416902,"current_range_meters":16800,"station_id":"","pricing_plan_id":"cebpf4jnsgd1na2vs0mg"},{"bike_id":"f7f1c08a-a4ec-4a0d-94d7-806fae061717","system_id":"levelo_inurba_marseille","lat":43.305597,"lon":5.365433,"is_reserved":false,"is_disabled":false,"rental_uris":{"android":"levelo://app?vid=f7f1c08a-a4ec-4a0d-94d7-806fae061717","ios":"levelo://app?vid=f7f1c08a-a4ec-4a0d-94d7-806fae061717"},"vehicle_type_id":"4","last_reported":1762416902,"current_range_meters":16800,"station_id":"ce4bgs12rcd13ifvqcag","pricing_plan_id":"cebpf4jnsgd1na2vs0mg"},{"bike_id":"dec507c1-6699-4a54-9215-69c5203b9f32","system_id":"levelo_inurba_marseille","lat":43.30168,"lon":5.38075,"is_reserved":false,"is_disabled":false,"rental_uris":{"android":"levelo://app?vid=dec507c1-6699-4a54-9215-69c5203b9f32","ios":"levelo://app?vid=dec507c1-6699-4a54-9215-69c5203b9f32"},"vehicle_type_id":"4","last_reported":1762416902,"current_range_meters":16800,"station_id":"ce4bgjp2rcd13ifvqbh0","pricing_plan_id":"cebpf4jnsgd1na2vs0mg"},{"bike_id":"f9a20c01-bbfa-4607-9039-c5f9dea4be43","system_id":"levelo_inurba_marseille","lat":43.25939,"lon":5.40891,"is_reserved":false,"is_disabled":false,"rental_uris":{"android":"levelo://app?vid=f9a20c01-bbfa-4607-9039-c5f9dea4be43","ios":"levelo://app?vid=f9a20c01-bbfa-4607-9039-c5f9dea4be43"},"vehicle_type_id":"4","last_reported":1762416902,"current_range_meters":16800,"station_id":"ce4bhm92rcd13ifvqglg","pricing_plan_id":"cebpf4jnsgd1na2vs0mg"},{"bike_id":"218d47a3-c6e7-4c3c-9685-02a7ebcef396","system_id":"levelo_inurba_marseille","lat":43.25937,"lon":5.40913,"is_reserved":false,"is_disabled":false,"rental_uris":{"android":"levelo://app?vid=218d47a3-c6e7-4c3c-9685-02a7ebcef396","ios":"levelo://app?vid=218d47a3-c6e7-4c3c-9685-02a7ebcef396"},"vehicle_type_id":"4","last_reported":1762416902,"current_range_meters":16800,"station_id":"ce4bhm92rcd13ifvqglg","pricing_plan_id":"cebpf4jnsgd1na2vs0mg"},{"bike_id":"3728b334-eb14-4eb8-a7a8-fdf9b82c262f","system_id":"levelo_inurba_marseille","lat":43.29568,"lon":5.39973,"is_reserved":false,"is_disabled":false,"rental_uris":{"android":"levelo://app?vid=3728b334-eb14-4eb8-a7a8-fdf9b82c262f","ios":"levelo://app?vid=3728b334-eb14-4eb8-a7a8-fdf9b82c262f"},"vehicle_type_id":"4","last_reported":1762416902,"current_range_meters":16800,"station_id":"ce4bh312rcd13ifvqdj0","pricing_plan_id":"cebpf4jnsgd1na2vs0mg"},{"bike_id":"43cfab9e-f547-4304-9999-4a8329474751","system_id":"levelo_inurba_marseille","lat":43.21208,"lon":5.350879,"is_reserved":false,"is_disabled":false,"rental_uris":{"android":"levelo://app?vid=43cfab9e-f547-4304-9999-4a8329474751","ios":"levelo://app?vid=43cfab9e-f547-4304-9999-4a8329474751"},"vehicle_type_id":"4","last_reported":1762416902,"current_range_meters":16800,"station_id":"st_cvj6sg6p6f1abm77japg","pricing_plan_id":"cebpf4jnsgd1na2vs0mg"},{"bike_id":"42048000-18d4-4e20-ab7b-056206cb30a1","system_id":"levelo_inurba_marseille","lat":43.2696,"lon":5.38642,"is_reserved":false,"is_disabled":false,"rental_uris":{"android":"levelo://app?vid=42048000-18d4-4e20-ab7b-056206cb30a1","ios":"levelo://app?vid=42048000-18d4-4e20-ab7b-056206cb30a1"},"vehicle_type_id":"4","last_reported":1762416902,"current_range_meters":16800,"station_id":"ce4bhh92rcd13ifvqfh0","pricing_plan_id":"cebpf4jnsgd1na2vs0mg"},{"bike_id":"2c03709f-c84c-4755-a23a-2fa14f657f58","system_id":"levelo_inurba_marseille","lat":43.2696,"lon":5.38648,"is_reserved":false,"is_disabled":false,"rental_uris":{"android":"levelo://app?vid=2c03709f-c84c-4755-a23a-2fa14f657f58","ios":"levelo://app?vid=2c03709f-c84c-4755-a23a-2fa14f657f58"},"vehicle_type_id":"4","last_reported":1762416902,"current_range_meters":16800,"station_id":"ce4bhh92rcd13ifvqfh0","pricing_plan_id":"cebpf4jnsgd1na2vs0mg"},{"bike_id":"753fbd5c-4755-4f28-bded-be48c8eb664d","system_id":"levelo_inurba_marseille","lat":43.33608,"lon":5.41009,"is_reserved":false,"is_disabled":false,"rental_uris":{"android":"levelo://app?vid=753fbd5c-4755-4f28-bded-be48c8eb664d","ios":"levelo://app?vid=753fbd5c-4755-4f28-bded-be48c8eb664d"},"vehicle_type_id":"4","last_reported":1762416902,"current_range_meters":17200,"station_id":"ce4bhqh2rcd13ifvqhmg","pricing_plan_id":"cebpf4jnsgd1na2vs0mg"},{"bike_id":"1c1406c3-ccbf-4c7e-948d-af3d562996c8","system_id":"levelo_inurba_marseille","lat":43.298165,"lon":5.440604,"is_reserved":false,"is_disabled":false,"rental_uris":{"android":"levelo://app?vid=1c1406c3-ccbf-4c7e-948d-af3d562996c8","ios":"levelo://app?vid=1c1406c3-ccbf-4c7e-948d-af3d562996c8"},"vehicle_type_id":"4","last_reported":1762416902,"current_range_meters":17200,"station_id":"st_d3jp68qikq2c7381ktn0","pricing_plan_id":"cebpf4jnsgd1na2vs0mg"},{"bike_id":"c8f136e5-31d7-40da-91e8-58d3251aaaa1","system_id":"levelo_inurba_marseille","lat":43.29266,"lon":5.36839,"is_reserved":false,"is_disabled":true,"rental_uris":{"android":"levelo://app?vid=c8f136e5-31d7-40da-91e8-58d3251aaaa1","ios":"levelo://app?vid=c8f136e5-31d7-40da-91e8-58d3251aaaa1"},"vehicle_type_id":"4","last_reported":1762416902,"current_range_meters":17200,"station_id":"ce4bhbp2rcd13ifvqesg","pricing_plan_id":"cebpf4jnsgd1na2vs0mg"},{"bike_id":"8eab6690-88be-43d3-9cf2-8f30f4a57689","system_id":"levelo_inurba_marseille","lat":43.29172,"lon":5.3716,"is_reserved":false,"is_disabled":false,"rental_uris":{"android":"levelo://app?vid=8eab6690-88be-43d3-9cf2-8f30f4a57689","ios":"levelo://app?vid=8eab6690-88be-43d3-9cf2-8f30f4a57689"},"vehicle_type_id":"4","last_reported":1762416902,"current_range_meters":17200,"station_id":"ce4bha92rcd13ifvqeh0","pricing_plan_id":"cebpf4jnsgd1na2vs0mg"},{"bike_id":"28b8a11c-4c5b-4614-a26a-bac8fc489620","system_id":"levelo_inurba_marseille","lat":43.31234,"lon":5.36844,"is_reserved":false,"is_disabled":false,"rental_uris":{"android":"levelo://app?vid=28b8a11c-4c5b-4614-a26a-bac8fc489620","ios":"levelo://app?vid=28b8a11c-4c5b-4614-a26a-bac8fc489620"},"vehicle_type_id":"4","last_reported":1762416902,"current_range_meters":17200,"station_id":"ce4bgl92rcd13ifvqbq0","pricing_plan_id":"cebpf4jnsgd1na2vs0mg"},{"bike_id":"b6d6ed38-4c87-427d-b530-709237f9a962","system_id":"levelo_inurba_marseille","lat":43.23158,"lon":5.43707,"is_reserved":false,"is_disabled":false,"rental_uris":{"android":"levelo://app?vid=b6d6ed38-4c87-427d-b530-709237f9a962","ios":"levelo://app?vid=b6d6ed38-4c87-427d-b530-709237f9a962"},"vehicle_type_id":"4","last_reported":1762416902,"current_range_meters":17200,"station_id":"ce4bhmp2rcd13ifvqgog","pricing_plan_id":"cebpf4jnsgd1na2vs0mg"},{"bike_id":"3a36dbd9-a90d-49e1-a6ed-f9a40387a63e","system_id":"levelo_inurba_marseille","lat":43.29029,"lon":5.39979,"is_reserved":false,"is_disabled":false,"rental_uris":{"android":"levelo://app?vid=3a36dbd9-a90d-49e1-a6ed-f9a40387a63e","ios":"levelo://app?vid=3a36dbd9-a90d-49e1-a6ed-f9a40387a63e"},"vehicle_type_id":"4","last_reported":1762416902,"current_range_meters":17200,"station_id":"ce4bh392rcd13ifvqdm0","pricing_plan_id":"cebpf4jnsgd1na2vs0mg"},{"bike_id":"3bf62d21-ec6c-4fb0-8f32-f6b76e56f44f","system_id":"levelo_inurba_marseille","lat":43.30951,"lon":5.3904,"is_reserved":false,"is_disabled":false,"rental_uris":{"android":"levelo://app?vid=3bf62d21-ec6c-4fb0-8f32-f6b76e56f44f","ios":"levelo://app?vid=3bf62d21-ec6c-4fb0-8f32-f6b76e56f44f"},"vehicle_type_id":"4","last_reported":1762416902,"current_range_meters":17200,"station_id":"ce4bgup2rcd13ifvqco0","pricing_plan_id":"cebpf4jnsgd1na2vs0mg"},{"bike_id":"cc626737-750c-4db0-b285-4329999a7484","system_id":"levelo_inurba_marseille","lat":43.26556,"lon":5.37281,"is_reserved":false,"is_disabled":false,"rental_uris":{"android":"levelo://app?vid=cc626737-750c-4db0-b285-4329999a7484","ios":"levelo://app?vid=cc626737-750c-4db0-b285-4329999a7484"},"vehicle_type_id":"4","last_reported":1762416902,"current_range_meters":17600,"station_id":"ce4bhg12rcd13ifvqf70","pricing_plan_id":"cebpf4jnsgd1na2vs0mg"},{"bike_id":"d98fae59-ff60-41e6-b471-90b576c490fa","system_id":"levelo_inurba_marseille","lat":43.29196,"lon":5.35798,"is_reserved":false,"is_disabled":true,"rental_uris":{"android":"levelo://app?vid=d98fae59-ff60-41e6-b471-90b576c490fa","ios":"levelo://app?vid=d98fae59-ff60-41e6-b471-90b576c490fa"},"vehicle_type_id":"4","last_reported":1762416902,"current_range_meters":17600,"station_id":"ce4bhb12rcd13ifvqel0","pricing_plan_id":"cebpf4jnsgd1na2vs0mg"},{"bike_id":"91bb12c7-2827-42b8-b3c8-c74ccf87e60c","system_id":"levelo_inurba_marseille","lat":43.29269,"lon":5.40903,"is_reserved":false,"is_disabled":false,"rental_uris":{"android":"levelo://app?vid=91bb12c7-2827-42b8-b3c8-c74ccf87e60c","ios":"levelo://app?vid=91bb12c7-2827-42b8-b3c8-c74ccf87e60c"},"vehicle_type_id":"4","last_reported":1762416902,"current_range_meters":17600,"station_id":"ce4bh192rcd13ifvqdc0","pricing_plan_id":"cebpf4jnsgd1na2vs0mg"},{"bike_id":"b58d7757-f9fa-48f3-9a83-7581477a9145","system_id":"levelo_inurba_marseille","lat":43.24091,"lon":5.37749,"is_reserved":false,"is_disabled":true,"rental_uris":{"android":"levelo://app?vid=b58d7757-f9fa-48f3-9a83-7581477a9145","ios":"levelo://app?vid=b58d7757-f9fa-48f3-9a83-7581477a9145"},"vehicle_type_id":"4","last_reported":1762416902,"current_range_meters":17600,"station_id":"ce4bhnp2rcd13ifvqgvg","pricing_plan_id":"cebpf4jnsgd1na2vs0mg"},{"bike_id":"b2ee5b49-600b-4507-ad32-80e18dcfde19","system_id":"levelo_inurba_marseille","lat":43.24074,"lon":5.37756,"is_reserved":false,"is_disabled":false,"rental_uris":{"android":"levelo://app?vid=b2ee5b49-600b-4507-ad32-80e18dcfde19","ios":"levelo://app?vid=b2ee5b49-600b-4507-ad32-80e18dcfde19"},"vehicle_type_id":"4","last_reported":1762416902,"current_range_meters":17600,"station_id":"ce4bhnp2rcd13ifvqgvg","pricing_plan_id":"cebpf4jnsgd1na2vs0mg"},{"bike_id":"4d554643-302d-41a1-b250-3858a5b43c1e","system_id":"levelo_inurba_marseille","lat":43.27969,"lon":5.38719,"is_reserved":false,"is_disabled":false,"rental_uris":{"android":"levelo://app?vid=4d554643-302d-41a1-b250-3858a5b43c1e","ios":"levelo://app?vid=4d554643-302d-41a1-b250-3858a5b43c1e"},"vehicle_type_id":"4","last_reported":1762416902,"current_range_meters":17600,"station_id":"ce4bhg12rcd13ifvqf80","pricing_plan_id":"cebpf4jnsgd1na2vs0mg"},{"bike_id":"d4e350b2-17ed-4f06-a4e6-9a77f8576c62","system_id":"levelo_inurba_marseille","lat":43.23155,"lon":5.43727,"is_reserved":false,"is_disabled":false,"rental_uris":{"android":"levelo://app?vid=d4e350b2-17ed-4f06-a4e6-9a77f8576c62","ios":"levelo://app?vid=d4e350b2-17ed-4f06-a4e6-9a77f8576c62"},"vehicle_type_id":"4","last_reported":1762416902,"current_range_meters":17600,"station_id":"ce4bhmp2rcd13ifvqgog","pricing_plan_id":"cebpf4jnsgd1na2vs0mg"},{"bike_id":"5ef84235-eddd-425b-8be4-c31c46a00271","system_id":"levelo_inurba_marseille","lat":43.24172,"lon":5.364,"is_reserved":false,"is_disabled":false,"rental_uris":{"android":"levelo://app?vid=5ef84235-eddd-425b-8be4-c31c46a00271","ios":"levelo://app?vid=5ef84235-eddd-425b-8be4-c31c46a00271"},"vehicle_type_id":"4","last_reported":1762416902,"current_range_meters":17600,"station_id":"cpo36qri1sfpv3e86is0","pricing_plan_id":"cebpf4jnsgd1na2vs0mg"},{"bike_id":"6f7316b6-7794-4dd2-b5d2-399fa4c4f2b8","system_id":"levelo_inurba_marseille","lat":43.30471,"lon":5.37906,"is_reserved":false,"is_disabled":false,"rental_uris":{"android":"levelo://app?vid=6f7316b6-7794-4dd2-b5d2-399fa4c4f2b8","ios":"levelo://app?vid=6f7316b6-7794-4dd2-b5d2-399fa4c4f2b8"},"vehicle_type_id":"4","last_reported":1762416902,"current_range_meters":17600,"station_id":"ce4bgup2rcd13ifvqcn0","pricing_plan_id":"cebpf4jnsgd1na2vs0mg"},{"bike_id":"f20df5d1-4102-48a9-8df3-bba4e71f31e8","system_id":"levelo_inurba_marseille","lat":43.29326,"lon":5.37627,"is_reserved":false,"is_disabled":true,"rental_uris":{"android":"levelo://app?vid=f20df5d1-4102-48a9-8df3-bba4e71f31e8","ios":"levelo://app?vid=f20df5d1-4102-48a9-8df3-bba4e71f31e8"},"vehicle_type_id":"4","last_reported":1762416902,"current_range_meters":17600,"station_id":"","pricing_plan_id":"cebpf4jnsgd1na2vs0mg"},{"bike_id":"f3b6b97a-4461-4acd-843a-72fda7482810","system_id":"levelo_inurba_marseille","lat":43.31243,"lon":5.36863,"is_reserved":false,"is_disabled":false,"rental_uris":{"android":"levelo://app?vid=f3b6b97a-4461-4acd-843a-72fda7482810","ios":"levelo://app?vid=f3b6b97a-4461-4acd-843a-72fda7482810"},"vehicle_type_id":"4","last_reported":1762416902,"current_range_meters":17600,"station_id":"ce4bgl92rcd13ifvqbq0","pricing_plan_id":"cebpf4jnsgd1na2vs0mg"},{"bike_id":"d852b3f1-8e32-4544-a709-2bd746193dd8","system_id":"levelo_inurba_marseille","lat":43.30282,"lon":5.37714,"is_reserved":false,"is_disabled":false,"rental_uris":{"android":"levelo://app?vid=d852b3f1-8e32-4544-a709-2bd746193dd8","ios":"levelo://app?vid=d852b3f1-8e32-4544-a709-2bd746193dd8"},"vehicle_type_id":"4","last_reported":1762416902,"current_range_meters":17600,"station_id":"ce4bguh2rcd13ifvqcj0","pricing_plan_id":"cebpf4jnsgd1na2vs0mg"},{"bike_id":"2e828f2c-0438-4aa4-8266-b2a4233ae4a4","system_id":"levelo_inurba_marseille","lat":43.30154,"lon":5.38082,"is_reserved":false,"is_disabled":false,"rental_uris":{"android":"levelo://app?vid=2e828f2c-0438-4aa4-8266-b2a4233ae4a4","ios":"levelo://app?vid=2e828f2c-0438-4aa4-8266-b2a4233ae4a4"},"vehicle_type_id":"4","last_reported":1762416902,"current_range_meters":17600,"station_id":"ce4bgjp2rcd13ifvqbh0","pricing_plan_id":"cebpf4jnsgd1na2vs0mg"},{"bike_id":"4727944b-ddd5-4a8c-a10f-4643b925a3b6","system_id":"levelo_inurba_marseille","lat":43.31218,"lon":5.36843,"is_reserved":false,"is_disabled":false,"rental_uris":{"android":"levelo://app?vid=4727944b-ddd5-4a8c-a10f-4643b925a3b6","ios":"levelo://app?vid=4727944b-ddd5-4a8c-a10f-4643b925a3b6"},"vehicle_type_id":"4","last_reported":1762416902,"current_range_meters":18000,"station_id":"ce4bgl92rcd13ifvqbq0","pricing_plan_id":"cebpf4jnsgd1na2vs0mg"},{"bike_id":"363d28a4-8070-409b-b6c7-eb06990c7e61","system_id":"levelo_inurba_marseille","lat":43.25349,"lon":5.42163,"is_reserved":false,"is_disabled":false,"rental_uris":{"android":"levelo://app?vid=363d28a4-8070-409b-b6c7-eb06990c7e61","ios":"levelo://app?vid=363d28a4-8070-409b-b6c7-eb06990c7e61"},"vehicle_type_id":"4","last_reported":1762416902,"current_range_meters":18000,"station_id":"st_d2m65c5bi1j21697t3ng","pricing_plan_id":"cebpf4jnsgd1na2vs0mg"},{"bike_id":"8c469623-2e38-46c0-af40-d2bd7c685bdf","system_id":"levelo_inurba_marseille","lat":43.32369,"lon":5.38865,"is_reserved":false,"is_disabled":false,"rental_uris":{"android":"levelo://app?vid=8c469623-2e38-46c0-af40-d2bd7c685bdf","ios":"levelo://app?vid=8c469623-2e38-46c0-af40-d2bd7c685bdf"},"vehicle_type_id":"4","last_reported":1762416902,"current_range_meters":18000,"station_id":"ce4bhqp2rcd13ifvqhog","pricing_plan_id":"cebpf4jnsgd1na2vs0mg"},{"bike_id":"93e6a07d-d8bb-454c-bdc6-c18d03370aca","system_id":"levelo_inurba_marseille","lat":43.30304,"lon":5.3687,"is_reserved":false,"is_disabled":false,"rental_uris":{"android":"levelo://app?vid=93e6a07d-d8bb-454c-bdc6-c18d03370aca","ios":"levelo://app?vid=93e6a07d-d8bb-454c-bdc6-c18d03370aca"},"vehicle_type_id":"4","last_reported":1762416902,"current_range_meters":18000,"station_id":"","pricing_plan_id":"cebpf4jnsgd1na2vs0mg"},{"bike_id":"0ab43d90-1272-4d3e-93ca-d153c21b67be","system_id":"levelo_inurba_marseille","lat":43.30548,"lon":5.36554,"is_reserved":false,"is_disabled":false,"rental_uris":{"android":"levelo://app?vid=0ab43d90-1272-4d3e-93ca-d153c21b67be","ios":"levelo://app?vid=0ab43d90-1272-4d3e-93ca-d153c21b67be"},"vehicle_type_id":"4","last_reported":1762416902,"current_range_meters":18000,"station_id":"ce4bgs12rcd13ifvqcag","pricing_plan_id":"cebpf4jnsgd1na2vs0mg"},{"bike_id":"e5c83a94-b528-415b-9c33-c933fff54edb","system_id":"levelo_inurba_marseille","lat":43.25926,"lon":5.40923,"is_reserved":false,"is_disabled":false,"rental_uris":{"android":"levelo://app?vid=e5c83a94-b528-415b-9c33-c933fff54edb","ios":"levelo://app?vid=e5c83a94-b528-415b-9c33-c933fff54edb"},"vehicle_type_id":"4","last_reported":1762416902,"current_range_meters":18800,"station_id":"ce4bhm92rcd13ifvqglg","pricing_plan_id":"cebpf4jnsgd1na2vs0mg"},{"bike_id":"711b5184-06a1-46c6-b1ad-270408b914a4","system_id":"levelo_inurba_marseille","lat":43.30012,"lon":5.40973,"is_reserved":false,"is_disabled":false,"rental_uris":{"android":"levelo://app?vid=711b5184-06a1-46c6-b1ad-270408b914a4","ios":"levelo://app?vid=711b5184-06a1-46c6-b1ad-270408b914a4"},"vehicle_type_id":"4","last_reported":1762416902,"current_range_meters":18800,"station_id":"","pricing_plan_id":"cebpf4jnsgd1na2vs0mg"},{"bike_id":"9126794f-da08-4f99-808f-aa9680061930","system_id":"levelo_inurba_marseille","lat":43.2998,"lon":5.41312,"is_reserved":false,"is_disabled":false,"rental_uris":{"android":"levelo://app?vid=9126794f-da08-4f99-808f-aa9680061930","ios":"levelo://app?vid=9126794f-da08-4f99-808f-aa9680061930"},"vehicle_type_id":"4","last_reported":1762416902,"current_range_meters":18800,"station_id":"ce4bhp12rcd13ifvqh9g","pricing_plan_id":"cebpf4jnsgd1na2vs0mg"},{"bike_id":"a0780bc9-5bab-46f2-8d08-98e1e3141e80","system_id":"levelo_inurba_marseille","lat":43.30913,"lon":5.36842,"is_reserved":false,"is_disabled":false,"rental_uris":{"android":"levelo://app?vid=a0780bc9-5bab-46f2-8d08-98e1e3141e80","ios":"levelo://app?vid=a0780bc9-5bab-46f2-8d08-98e1e3141e80"},"vehicle_type_id":"4","last_reported":1762416902,"current_range_meters":18800,"station_id":"ce4bgn92rcd13ifvqbvg","pricing_plan_id":"cebpf4jnsgd1na2vs0mg"},{"bike_id":"8aba6a3b-fd13-4733-a719-6d7546477997","system_id":"levelo_inurba_marseille","lat":43.29727,"lon":5.37687,"is_reserved":false,"is_disabled":false,"rental_uris":{"android":"levelo://app?vid=8aba6a3b-fd13-4733-a719-6d7546477997","ios":"levelo://app?vid=8aba6a3b-fd13-4733-a719-6d7546477997"},"vehicle_type_id":"4","last_reported":1762416902,"current_range_meters":18800,"station_id":"ce4bgkh2rcd13ifvqbl0","pricing_plan_id":"cebpf4jnsgd1na2vs0mg"},{"bike_id":"28b54568-250f-48ad-b030-25d760bf4abc","system_id":"levelo_inurba_marseille","lat":43.32105,"lon":5.36768,"is_reserved":false,"is_disabled":false,"rental_uris":{"android":"levelo://app?vid=28b54568-250f-48ad-b030-25d760bf4abc","ios":"levelo://app?vid=28b54568-250f-48ad-b030-25d760bf4abc"},"vehicle_type_id":"4","last_reported":1762416902,"current_range_meters":18800,"station_id":"ce4bhrh2rcd13ifvqhug","pricing_plan_id":"cebpf4jnsgd1na2vs0mg"},{"bike_id":"b4b6efe0-1045-4943-8800-b1efe6e65561","system_id":"levelo_inurba_marseille","lat":43.31363,"lon":5.36707,"is_reserved":false,"is_disabled":false,"rental_uris":{"android":"levelo://app?vid=b4b6efe0-1045-4943-8800-b1efe6e65561","ios":"levelo://app?vid=b4b6efe0-1045-4943-8800-b1efe6e65561"},"vehicle_type_id":"4","last_reported":1762416902,"current_range_meters":18800,"station_id":"ce4bgr92rcd13ifvqc6g","pricing_plan_id":"cebpf4jnsgd1na2vs0mg"},{"bike_id":"a906c8f7-b25b-4dd8-acc7-fd101c297e0c","system_id":"levelo_inurba_marseille","lat":43.25949,"lon":5.40879,"is_reserved":false,"is_disabled":false,"rental_uris":{"android":"levelo://app?vid=a906c8f7-b25b-4dd8-acc7-fd101c297e0c","ios":"levelo://app?vid=a906c8f7-b25b-4dd8-acc7-fd101c297e0c"},"vehicle_type_id":"4","last_reported":1762416902,"current_range_meters":18800,"station_id":"ce4bhm92rcd13ifvqglg","pricing_plan_id":"cebpf4jnsgd1na2vs0mg"},{"bike_id":"3355aec0-a377-4834-a229-72cc5e26f38f","system_id":"levelo_inurba_marseille","lat":43.30898,"lon":5.3686,"is_reserved":false,"is_disabled":false,"rental_uris":{"android":"levelo://app?vid=3355aec0-a377-4834-a229-72cc5e26f38f","ios":"levelo://app?vid=3355aec0-a377-4834-a229-72cc5e26f38f"},"vehicle_type_id":"4","last_reported":1762416902,"current_range_meters":18800,"station_id":"ce4bgn92rcd13ifvqbvg","pricing_plan_id":"cebpf4jnsgd1na2vs0mg"},{"bike_id":"364e7252-6c8d-481d-b075-6ed46540f13b","system_id":"levelo_inurba_marseille","lat":43.26269,"lon":5.3985,"is_reserved":false,"is_disabled":false,"rental_uris":{"android":"levelo://app?vid=364e7252-6c8d-481d-b075-6ed46540f13b","ios":"levelo://app?vid=364e7252-6c8d-481d-b075-6ed46540f13b"},"vehicle_type_id":"4","last_reported":1762416902,"current_range_meters":19200,"station_id":"","pricing_plan_id":"cebpf4jnsgd1na2vs0mg"},{"bike_id":"9bcb01c6-33c3-42f9-ac7b-62f19f6020f0","system_id":"levelo_inurba_marseille","lat":43.23204,"lon":5.35559,"is_reserved":false,"is_disabled":false,"rental_uris":{"android":"levelo://app?vid=9bcb01c6-33c3-42f9-ac7b-62f19f6020f0","ios":"levelo://app?vid=9bcb01c6-33c3-42f9-ac7b-62f19f6020f0"},