{"last_updated":1722100037,"ttl":30,"version":"2.2","data":{"bikes":[{"bike_id":"175f8532-8063-44e9-8bbf-c2b727ed1a5b","system_id":"levelo_inurba_marseille","lat":43.312239,"lon":5.368562,"is_reserved":false,"is_disabled":false,"rental_uris":{"android":"levelo://app?vid=175f8532-8063-44e9-8bbf-c2b727ed1a5b","ios":"levelo://app?vid=175f8532-8063-44e9-8bbf-c2b727ed1a5b"},"vehicle_type_id":"4","last_reported":1722100038,"current_range_meters":0,"station_id":"ce4bgl92rcd13ifvqbq0","pricing_plan_id":"cebpf4jnsgd1na2vs0mg"},{"bike_id":"87375345-aafc-4818-b46b-08d37802640e","system_id":"levelo_inurba_marseille","lat":43.312239,"lon":5.368562,"is_reserved":false,"is_disabled":false,"rental_uris":{"android":"levelo://app?vid=87375345-aafc-4818-b46b-08d37802640e","ios":"levelo://app?vid=87375345-aafc-4818-b46b-08d37802640e"},"vehicle_type_id":"4","last_reported":1722100038,"current_range_meters":12000,"station_id":"ce4bgl92rcd13ifvqbq0","pricing_plan_id":"cebpf4jnsgd1na2vs0mg"},{"bike_id":"f29888f2-5716-4a74-973f-908dba1460db","system_id":"levelo_inurba_marseille","lat":43.312239,"lon":5.368562,"is_reserved":false,"is_disabled":false,"rental_uris":{"android":"levelo://app?vid=f29888f2-5716-4a74-973f-908dba1460db","ios":"levelo://app?vid=f29888f2-5716-4a74-973f-908dba1460db"},"vehicle_type_id":"4","last_reported":1722100038,"current_range_meters":2400,"station_id":"ce4bgl92rcd13ifvqbq0","pricing_plan_id":"cebpf4jnsgd1na2vs0mg"},{"bike_id":"3bbd2a0e-8388-4c15-8ef8-ae773e5c2189","system_id":"levelo_inurba_marseille","lat":43.31496,"lon":5.37307,"is_reserved":false,"is_disabled":false,"rental_uris":{"android":"levelo://app?vid=3bbd2a0e-8388-4c15-8ef8-ae773e5c2189","ios":"levelo://app?vid=3bbd2a0e-8388-4c15-8ef8-ae773e5c2189"},"vehicle_type_id":"4","last_reported":1722100038,"current_range_meters":8000,"station_id":"ce4bgt12rcd13ifvqcd0","pricing_plan_id":"cebpf4jnsgd1na2vs0mg"},{"bike_id":"f5ad5824-e10b-461b-a8f4-cabe9dcc11c7","system_id":"levelo_inurba_marseille","lat":43.31492,"lon":5.37311,"is_reserved":false,"is_disabled":false,"rental_uris":{"android":"levelo://app?vid=f5ad5824-e10b-461b-a8f4-cabe9dcc11c7","ios":"levelo://app?vid=f5ad5824-e10b-461b-a8f4-cabe9dcc11c7"},"vehicle_type_id":"4","last_reported":1722100038,"current_range_meters":4400,"station_id":"ce4bgt12rcd13ifvqcd0","pricing_plan_id":"cebpf4jnsgd1na2vs0mg"},{"bike_id":"e443f433-3879-43ef-8aa8-252a849aaf38","system_id":"levelo_inurba_marseille","lat":43.31495,"lon":5.37311,"is_reserved":false,"is_disabled":false,"rental_uris":{"android":"levelo://app?vid=e443f433-3879-43ef-8aa8-252a849aaf38","ios":"levelo://app?vid=e443f433-3879-43ef-8aa8-252a849aaf38"},"vehicle_type_id":"4","last_reported":1722100038,"current_range_meters":30800,"station_id":"ce4bgt12rcd13ifvqcd0","pricing_plan_id":"cebpf4jnsgd1na2vs0mg"},{"bike_id":"8eb05cd4-b372-447c-95e5-7749f1f335c7","system_id":"levelo_inurba_marseille","lat":43.30537,"lon":5.367345,"is_reserved":false,"is_disabled":false,"rental_uris":{"android":"levelo://app?vid=8eb05cd4-b372-447c-95e5-7749f1f335c7","ios":"levelo://app?vid=8eb05cd4-b372-447c-95e5-7749f1f335c7"},"vehicle_type_id":"4","last_reported":1722100038,"current_range_meters":6800,"station_id":"ce4bgrp2rcd13ifvqc9g","pricing_plan_id":"cebpf4jnsgd1na2vs0mg"},{"bike_id":"7078077b-07b8-47e6-a166-a0d7032864fb","system_id":"levelo_inurba_marseille","lat":43.305368,"lon":5.367343,"is_reserved":false,"is_disabled":false,"rental_uris":{"android":"levelo://app?vid=7078077b-07b8-47e6-a166-a0d7032864fb","ios":"levelo://app?vid=7078077b-07b8-47e6-a166-a0d7032864fb"},"vehicle_type_id":"4","last_reported":1722100038,"current_range_meters":2800,"station_id":"ce4bgrp2rcd13ifvqc9g","pricing_plan_id":"cebpf4jnsgd1na2vs0mg"},{"bike_id":"b79b292b-21cb-4903-8954-96106c2d60e1","system_id":"levelo_inurba_marseille","lat":43.305714,"lon":5.365633,"is_reserved":false,"is_disabled":false,"rental_uris":{"android":"levelo://app?vid=b79b292b-21cb-4903-8954-96106c2d60e1","ios":"levelo://app?vid=b79b292b-21cb-4903-8954-96106c2d60e1"},"vehicle_type_id":"4","last_reported":1722100038,"current_range_meters":6000,"station_id":"ce4bgs12rcd13ifvqcag","pricing_plan_id":"cebpf4jnsgd1na2vs0mg"},{"bike_id":"62376332-5dbf-44b7-a5a9-b6d15b712a96","system_id":"levelo_inurba_marseille","lat":43.305989,"lon":5.37225,"is_reserved":false,"is_disabled":false,"rental_uris":{"android":"levelo://app?vid=62376332-5dbf-44b7-a5a9-b6d15b712a96","ios":"levelo://app?vid=62376332-5dbf-44b7-a5a9-b6d15b712a96"},"vehicle_type_id":"4","last_reported":1722100038,"current_range_meters":10800,"station_id":"ce4bgqh2rcd13ifvqc4g","pricing_plan_id":"cebpf4jnsgd1na2vs0mg"},{"bike_id":"264f6755-4850-4d3b-bb32-399ae80dd3b2","system_id":"levelo_inurba_marseille","lat":43.311125,"lon":5.377624,"is_reserved":false,"is_disabled":false,"rental_uris":{"android":"levelo://app?vid=264f6755-4850-4d3b-bb32-399ae80dd3b2","ios":"levelo://app?vid=264f6755-4850-4d3b-bb32-399ae80dd3b2"},"vehicle_type_id":"4","last_reported":1722100038,"current_range_meters":16800,"station_id":"ce4bgt92rcd13ifvqcg0","pricing_plan_id":"cebpf4jnsgd1na2vs0mg"},{"bike_id":"de1529e6-3769-494e-9994-4cc4a9cac6db","system_id":"levelo_inurba_marseille","lat":43.307945,"lon":5.376487,"is_reserved":false,"is_disabled":false,"rental_uris":{"android":"levelo://app?vid=de1529e6-3769-494e-9994-4cc4a9cac6db","ios":"levelo://app?vid=de1529e6-3769-494e-9994-4cc4a9cac6db"},"vehicle_type_id":"4","last_reported":1722100038,"current_range_meters":14800,"station_id":"ce4bgv92rcd13ifvqcq0","pricing_plan_id":"cebpf4jnsgd1na2vs0mg"},{"bike_id":"b1106245-2248-489d-a174-e879c3f6edd6","system_id":"levelo_inurba_marseille","lat":43.317075,"lon":5.377367,"is_reserved":false,"is_disabled":false,"rental_uris":{"android":"levelo://app?vid=b1106245-2248-489d-a174-e879c3f6edd6","ios":"levelo://app?vid=b1106245-2248-489d-a174-e879c3f6edd6"},"vehicle_type_id":"4","last_reported":1722100038,"current_range_meters":14000,"station_id":"ce4bgth2rcd13ifvqch0","pricing_plan_id":"cebpf4jnsgd1na2vs0mg"},{"bike_id":"2f23911f-bbc0-41c3-ad1f-5a9701a2e149","system_id":"levelo_inurba_marseille","lat":43.317075,"lon":5.377367,"is_reserved":false,"is_disabled":false,"rental_uris":{"android":"levelo://app?vid=2f23911f-bbc0-41c3-ad1f-5a9701a2e149","ios":"levelo://app?vid=2f23911f-bbc0-41c3-ad1f-5a9701a2e149"},"vehicle_type_id":"4","last_reported":1722100038,"current_range_meters":5600,"station_id":"ce4bgth2rcd13ifvqch0","pricing_plan_id":"cebpf4jnsgd1na2vs0mg"},{"bike_id":"d4d816a2-b41d-4d88-b576-7d6406a656fc","system_id":"levelo_inurba_marseille","lat":43.315289,"lon":5.380349,"is_reserved":false,"is_disabled":false,"rental_uris":{"android":"levelo://app?vid=d4d816a2-b41d-4d88-b576-7d6406a656fc","ios":"levelo://app?vid=d4d816a2-b41d-4d88-b576-7d6406a656fc"},"vehicle_type_id":"4","last_reported":1722100038,"current_range_meters":31200,"station_id":"ce4bhsp2rcd13ifvqi50","pricing_plan_id":"cebpf4jnsgd1na2vs0mg"},{"bike_id":"4ab04dbf-a858-4a28-bf5a-d34f725fad62","system_id":"levelo_inurba_marseille","lat":43.301939,"lon":5.366286,"is_reserved":false,"is_disabled":false,"rental_uris":{"android":"levelo://app?vid=4ab04dbf-a858-4a28-bf5a-d34f725fad62","ios":"levelo://app?vid=4ab04dbf-a858-4a28-bf5a-d34f725fad62"},"vehicle_type_id":"4","last_reported":1722100038,"current_range_meters":19600,"station_id":"ce4bgrh2rcd13ifvqc8g","pricing_plan_id":"cebpf4jnsgd1na2vs0mg"},{"bike_id":"dba0ac5c-8d2b-45da-ba6d-a80ebf243504","system_id":"levelo_inurba_marseille","lat":43.308012,"lon":5.381511,"is_reserved":false,"is_disabled":false,"rental_uris":{"android":"levelo://app?vid=dba0ac5c-8d2b-45da-ba6d-a80ebf243504","ios":"levelo://app?vid=dba0ac5c-8d2b-45da-ba6d-a80ebf243504"},"vehicle_type_id":"4","last_reported":1722100038,"current_range_meters":13200,"station_id":"ce4bgt12rcd13ifvqce0","pricing_plan_id":"cebpf4jnsgd1na2vs0mg"},{"bike_id":"3adc38c4-f611-4be7-8d83-25aff4a1d8a0","system_id":"levelo_inurba_marseille","lat":43.308012,"lon":5.381511,"is_reserved":false,"is_disabled":false,"rental_uris":{"android":"levelo://app?vid=3adc38c4-f611-4be7-8d83-25aff4a1d8a0","ios":"levelo://app?vid=3adc38c4-f611-4be7-8d83-25aff4a1d8a0"},"vehicle_type_id":"4","last_reported":1722100038,"current_range_meters":16000,"station_id":"ce4bgt12rcd13ifvqce0","pricing_plan_id":"cebpf4jnsgd1na2vs0mg"},{"bike_id":"44e774ba-299f-40a7-942d-0895cd97608d","system_id":"levelo_inurba_marseille","lat":43.304606,"lon":5.379026,"is_reserved":false,"is_disabled":false,"rental_uris":{"android":"levelo://app?vid=44e774ba-299f-40a7-942d-0895cd97608d","ios":"levelo://app?vid=44e774ba-299f-40a7-942d-0895cd97608d"},"vehicle_type_id":"4","last_reported":1722100038,"current_range_meters":0,"station_id":"ce4bgup2rcd13ifvqcn0","pricing_plan_id":"cebpf4jnsgd1na2vs0mg"},{"bike_id":"92c52d05-edab-4fc3-9851-a2b89430e816","system_id":"levelo_inurba_marseille","lat":43.32479,"lon":5.36566,"is_reserved":false,"is_disabled":false,"rental_uris":{"android":"levelo://app?vid=92c52d05-edab-4fc3-9851-a2b89430e816","ios":"levelo://app?vid=92c52d05-edab-4fc3-9851-a2b89430e816"},"vehicle_type_id":"4","last_reported":1722100038,"current_range_meters":23600,"station_id":"ce4bhs12rcd13ifvqhvg","pricing_plan_id":"cebpf4jnsgd1na2vs0mg"},{"bike_id":"7d937a57-566c-46f5-83ca-105b5d282c5f","system_id":"levelo_inurba_marseille","lat":43.324771,"lon":5.36557,"is_reserved":false,"is_disabled":false,"rental_uris":{"android":"levelo://app?vid=7d937a57-566c-46f5-83ca-105b5d282c5f","ios":"levelo://app?vid=7d937a57-566c-46f5-83ca-105b5d282c5f"},"vehicle_type_id":"4","last_reported":1722100038,"current_range_meters":7200,"station_id":"ce4bhs12rcd13ifvqhvg","pricing_plan_id":"cebpf4jnsgd1na2vs0mg"},{"bike_id":"ec54bf41-9927-49f1-8c37-67821929e5b6","system_id":"levelo_inurba_marseille","lat":43.32482,"lon":5.36579,"is_reserved":false,"is_disabled":false,"rental_uris":{"android":"levelo://app?vid=ec54bf41-9927-49f1-8c37-67821929e5b6","ios":"levelo://app?vid=ec54bf41-9927-49f1-8c37-67821929e5b6"},"vehicle_type_id":"4","last_reported":1722100038,"current_range_meters":27600,"station_id":"ce4bhs12rcd13ifvqhvg","pricing_plan_id":"cebpf4jnsgd1na2vs0mg"},{"bike_id":"096d5a3a-c680-4df2-8bd2-4cd190c1b398","system_id":"levelo_inurba_marseille","lat":43.32483,"lon":5.36565,"is_reserved":false,"is_disabled":false,"rental_uris":{"android":"levelo://app?vid=096d5a3a-c680-4df2-8bd2-4cd190c1b398","ios":"levelo://app?vid=096d5a3a-c680-4df2-8bd2-4cd190c1b398"},"vehicle_type_id":"4","last_reported":1722100038,"current_range_meters":31200,"station_id":"ce4bhs12rcd13ifvqhvg","pricing_plan_id":"cebpf4jnsgd1na2vs0mg"},{"bike_id":"58e83e58-42ed-4303-b609-4f67cf9cc35c","system_id":"levelo_inurba_marseille","lat":43.324771,"lon":5.36557,"is_reserved":false,"is_disabled":false,"rental_uris":{"android":"levelo://app?vid=58e83e58-42ed-4303-b609-4f67cf9cc35c","ios":"levelo://app?vid=58e83e58-42ed-4303-b609-4f67cf9cc35c"},"vehicle_type_id":"4","last_reported":1722100038,"current_range_meters":12000,"station_id":"ce4bhs12rcd13ifvqhvg","pricing_plan_id":"cebpf4jnsgd1na2vs0mg"},{"bike_id":"6d8b2208-9485-421b-9f3e-f815164a4e58","system_id":"levelo_inurba_marseille","lat":43.32495,"lon":5.36562,"is_reserved":false,"is_disabled":false,"rental_uris":{"android":"levelo://app?vid=6d8b2208-9485-421b-9f3e-f815164a4e58","ios":"levelo://app?vid=6d8b2208-9485-421b-9f3e-f815164a4e58"},"vehicle_type_id":"4","last_reported":1722100038,"current_range_meters":8400,"station_id":"ce4bhs12rcd13ifvqhvg","pricing_plan_id":"cebpf4jnsgd1na2vs0mg"},{"bike_id":"073ab606-4607-403a-8520-04c750deec92","system_id":"levelo_inurba_marseille","lat":43.310804,"lon":5.38359,"is_reserved":false,"is_disabled":false,"rental_uris":{"android":"levelo://app?vid=073ab606-4607-403a-8520-04c750deec92","ios":"levelo://app?vid=073ab606-4607-403a-8520-04c750deec92"},"vehicle_type_id":"4","last_reported":1722100038,"current_range_meters":800,"station_id":"ce4bgv92rcd13ifvqcr0","pricing_plan_id":"cebpf4jnsgd1na2vs0mg"},{"bike_id":"450cf152-225e-4e41-8692-297955dea0ba","system_id":"levelo_inurba_marseille","lat":43.302784,"lon":5.377158,"is_reserved":false,"is_disabled":false,"rental_uris":{"android":"levelo://app?vid=450cf152-225e-4e41-8692-297955dea0ba","ios":"levelo://app?vid=450cf152-225e-4e41-8692-297955dea0ba"},"vehicle_type_id":"4","last_reported":1722100038,"current_range_meters":2000,"station_id":"ce4bguh2rcd13ifvqcj0","pricing_plan_id":"cebpf4jnsgd1na2vs0mg"},{"bike_id":"3cd08557-b673-4e31-8264-c3686f1d967a","system_id":"levelo_inurba_marseille","lat":43.310804,"lon":5.38359,"is_reserved":false,"is_disabled":false,"rental_uris":{"android":"levelo://app?vid=3cd08557-b673-4e31-8264-c3686f1d967a","ios":"levelo://app?vid=3cd08557-b673-4e31-8264-c3686f1d967a"},"vehicle_type_id":"4","last_reported":1722100038,"current_range_meters":0,"station_id":"ce4bgv92rcd13ifvqcr0","pricing_plan_id":"cebpf4jnsgd1na2vs0mg"},{"bike_id":"6fb7a622-525e-4e2b-8693-7004870236f7","system_id":"levelo_inurba_marseille","lat":43.301429,"lon":5.37413,"is_reserved":false,"is_disabled":false,"rental_uris":{"android":"levelo://app?vid=6fb7a622-525e-4e2b-8693-7004870236f7","ios":"levelo://app?vid=6fb7a622-525e-4e2b-8693-7004870236f7"},"vehicle_type_id":"4","last_reported":1722100038,"current_range_meters":8000,"station_id":"ce4bgs92rcd13ifvqcc0","pricing_plan_id":"cebpf4jnsgd1na2vs0mg"},{"bike_id":"61aba756-3ade-4692-964e-301203ab847c","system_id":"levelo_inurba_marseille","lat":43.31997,"lon":5.38165,"is_reserved":false,"is_disabled":false,"rental_uris":{"android":"levelo://app?vid=61aba756-3ade-4692-964e-301203ab847c","ios":"levelo://app?vid=61aba756-3ade-4692-964e-301203ab847c"},"vehicle_type_id":"4","last_reported":1722100038,"current_range_meters":5600,"station_id":"ce4bhr12rcd13ifvqhpg","pricing_plan_id":"cebpf4jnsgd1na2vs0mg"},{"bike_id":"c960c7fa-3118-4b5c-a584-271fc96ca0b9","system_id":"levelo_inurba_marseille","lat":43.313571,"lon":5.384829,"is_reserved":false,"is_disabled":false,"rental_uris":{"android":"levelo://app?vid=c960c7fa-3118-4b5c-a584-271fc96ca0b9","ios":"levelo://app?vid=c960c7fa-3118-4b5c-a584-271fc96ca0b9"},"vehicle_type_id":"4","last_reported":1722100038,"current_range_meters":31200,"station_id":"ce4bgt92rcd13ifvqcf0","pricing_plan_id":"cebpf4jnsgd1na2vs0mg"},{"bike_id":"a67dfe84-38bf-4910-a825-8ef635948fe4","system_id":"levelo_inurba_marseille","lat":43.313571,"lon":5.384829,"is_reserved":false,"is_disabled":false,"rental_uris":{"android":"levelo://app?vid=a67dfe84-38bf-4910-a825-8ef635948fe4","ios":"levelo://app?vid=a67dfe84-38bf-4910-a825-8ef635948fe4"},"vehicle_type_id":"4","last_reported":1722100038,"current_range_meters":15600,"station_id":"ce4bgt92rcd13ifvqcf0","pricing_plan_id":"cebpf4jnsgd1na2vs0mg"},{"bike_id":"085c4d0a-7fb7-4d26-ac27-fc32889feefa","system_id":"levelo_inurba_marseille","lat":43.313571,"lon":5.384829,"is_reserved":false,"is_disabled":false,"rental_uris":{"android":"levelo://app?vid=085c4d0a-7fb7-4d26-ac27-fc32889feefa","ios":"levelo://app?vid=085c4d0a-7fb7-4d26-ac27-fc32889feefa"},"vehicle_type_id":"4","last_reported":1722100038,"current_range_meters":31200,"station_id":"ce4bgt92rcd13ifvqcf0","pricing_plan_id":"cebpf4jnsgd1na2vs0mg"},{"bike_id":"3880e680-1c8c-438f-9f22-be586f2ef2ae","system_id":"levelo_inurba_marseille","lat":43.299724,"lon":5.371829,"is_reserved":false,"is_disabled":false,"rental_uris":{"android":"levelo://app?vid=3880e680-1c8c-438f-9f22-be586f2ef2ae","ios":"levelo://app?vid=3880e680-1c8c-438f-9f22-be586f2ef2ae"},"vehicle_type_id":"4","last_reported":1722100038,"current_range_meters":31200,"station_id":"ce4bgr92rcd13ifvqc7g","pricing_plan_id":"cebpf4jnsgd1na2vs0mg"},{"bike_id":"7b0d5a24-1fd7-45c6-89c6-5c233c3b1c3e","system_id":"levelo_inurba_marseille","lat":43.29957,"lon":5.3738,"is_reserved":false,"is_disabled":false,"rental_uris":{"android":"levelo://app?vid=7b0d5a24-1fd7-45c6-89c6-5c233c3b1c3e","ios":"levelo://app?vid=7b0d5a24-1fd7-45c6-89c6-5c233c3b1c3e"},"vehicle_type_id":"4","last_reported":1722100038,"current_range_meters":13600,"station_id":"","pricing_plan_id":"cebpf4jnsgd1na2vs0mg"},{"bike_id":"229737e7-7d9e-46d8-94d2-b68d36561191","system_id":"levelo_inurba_marseille","lat":43.30949,"lon":5.38627,"is_reserved":false,"is_disabled":false,"rental_uris":{"android":"levelo://app?vid=229737e7-7d9e-46d8-94d2-b68d36561191","ios":"levelo://app?vid=229737e7-7d9e-46d8-94d2-b68d36561191"},"vehicle_type_id":"4","last_reported":1722100038,"current_range_meters":3200,"station_id":"","pricing_plan_id":"cebpf4jnsgd1na2vs0mg"},{"bike_id":"e09683fd-dd07-4bf3-b497-dbe5fb5b7fb3","system_id":"levelo_inurba_marseille","lat":43.29852,"lon":5.36296,"is_reserved":false,"is_disabled":false,"rental_uris":{"android":"levelo://app?vid=e09683fd-dd07-4bf3-b497-dbe5fb5b7fb3","ios":"levelo://app?vid=e09683fd-dd07-4bf3-b497-dbe5fb5b7fb3"},"vehicle_type_id":"4","last_reported":1722100038,"current_range_meters":9200,"station_id":"ce4bgpp2rcd13ifvqc3g","pricing_plan_id":"cebpf4jnsgd1na2vs0mg"},{"bike_id":"6c34e02e-2536-4e5c-b377-51da62ca0b4b","system_id":"levelo_inurba_marseille","lat":43.298433,"lon":5.362774,"is_reserved":false,"is_disabled":false,"rental_uris":{"android":"levelo://app?vid=6c34e02e-2536-4e5c-b377-51da62ca0b4b","ios":"levelo://app?vid=6c34e02e-2536-4e5c-b377-51da62ca0b4b"},"vehicle_type_id":"4","last_reported":1722100038,"current_range_meters":13600,"station_id":"ce4bgpp2rcd13ifvqc3g","pricing_plan_id":"cebpf4jnsgd1na2vs0mg"},{"bike_id":"d6d284be-058d-416c-912a-b20e73034d62","system_id":"levelo_inurba_marseille","lat":43.305364,"lon":5.384119,"is_reserved":false,"is_disabled":false,"rental_uris":{"android":"levelo://app?vid=d6d284be-058d-416c-912a-b20e73034d62","ios":"levelo://app?vid=d6d284be-058d-416c-912a-b20e73034d62"},"vehicle_type_id":"4","last_reported":1722100038,"current_range_meters":0,"station_id":"ce4bgg92rcd13ifvqb30","pricing_plan_id":"cebpf4jnsgd1na2vs0mg"},{"bike_id":"69c16251-9c63-4a14-8790-984c23a7e0b1","system_id":"levelo_inurba_marseille","lat":43.311734,"lon":5.387178,"is_reserved":false,"is_disabled":false,"rental_uris":{"android":"levelo://app?vid=69c16251-9c63-4a14-8790-984c23a7e0b1","ios":"levelo://app?vid=69c16251-9c63-4a14-8790-984c23a7e0b1"},"vehicle_type_id":"4","last_reported":1722100038,"current_range_meters":0,"station_id":"","pricing_plan_id":"cebpf4jnsgd1na2vs0mg"},{"bike_id":"69d940c7-a29a-4453-bb4d-05f95bb4b29b","system_id":"levelo_inurba_marseille","lat":43.299243,"lon":5.37481,"is_reserved":false,"is_disabled":false,"rental_uris":{"android":"levelo://app?vid=69d940c7-a29a-4453-bb4d-05f95bb4b29b","ios":"levelo://app?vid=69d940c7-a29a-4453-bb4d-05f95bb4b29b"},"vehicle_type_id":"4","last_reported":1722100038,"current_range_meters":3600,"station_id":"ce4bgjh2rcd13ifvqbg0","pricing_plan_id":"cebpf4jnsgd1na2vs0mg"},{"bike_id":"1b699ab2-229d-4be8-b950-1256288a15cb","system_id":"levelo_inurba_marseille","lat":43.322872,"lon":5.382756,"is_reserved":false,"is_disabled":false,"rental_uris":{"android":"levelo://app?vid=1b699ab2-229d-4be8-b950-1256288a15cb","ios":"levelo://app?vid=1b699ab2-229d-4be8-b950-1256288a15cb"},"vehicle_type_id":"4","last_reported":1722100038,"current_range_meters":24000,"station_id":"ce4bhr12rcd13ifvqhqg","pricing_plan_id":"cebpf4jnsgd1na2vs0mg"},{"bike_id":"ac1af585-909d-4e35-bb17-a47fcaa72f2f","system_id":"levelo_inurba_marseille","lat":43.322872,"lon":5.382756,"is_reserved":false,"is_disabled":false,"rental_uris":{"android":"levelo://app?vid=ac1af585-909d-4e35-bb17-a47fcaa72f2f","ios":"levelo://app?vid=ac1af585-909d-4e35-bb17-a47fcaa72f2f"},"vehicle_type_id":"4","last_reported":1722100038,"current_range_meters":31200,"station_id":"ce4bhr12rcd13ifvqhqg","pricing_plan_id":"cebpf4jnsgd1na2vs0mg"},{"bike_id":"5ba58e73-f3ed-41c7-9713-5bd5dee87b85","system_id":"levelo_inurba_marseille","lat":43.322872,"lon":5.382756,"is_reserved":false,"is_disabled":false,"rental_uris":{"android":"levelo://app?vid=5ba58e73-f3ed-41c7-9713-5bd5dee87b85","ios":"levelo://app?vid=5ba58e73-f3ed-41c7-9713-5bd5dee87b85"},"vehicle_type_id":"4","last_reported":1722100038,"current_range_meters":21200,"station_id":"ce4bhr12rcd13ifvqhqg","pricing_plan_id":"cebpf4jnsgd1na2vs0mg"},{"bike_id":"484ffe39-5d4f-45cd-9c0b-f53a3221d336","system_id":"levelo_inurba_marseille","lat":43.322872,"lon":5.382756,"is_reserved":false,"is_disabled":false,"rental_uris":{"android":"levelo://app?vid=484ffe39-5d4f-45cd-9c0b-f53a3221d336","ios":"levelo://app?vid=484ffe39-5d4f-45cd-9c0b-f53a3221d336"},"vehicle_type_id":"4","last_reported":1722100038,"current_range_meters":31200,"station_id":"ce4bhr12rcd13ifvqhqg","pricing_plan_id":"cebpf4jnsgd1na2vs0mg"},{"bike_id":"2a8cb805-3fdc-4b6d-beb5-cbfa81937afb","system_id":"levelo_inurba_marseille","lat":43.3111,"lon":5.388805,"is_reserved":false,"is_disabled":false,"rental_uris":{"android":"levelo://app?vid=2a8cb805-3fdc-4b6d-beb5-cbfa81937afb","ios":"levelo://app?vid=2a8cb805-3fdc-4b6d-beb5-cbfa81937afb"},"vehicle_type_id":"4","last_reported":1722100038,"current_range_meters":28000,"station_id":"","pricing_plan_id":"cebpf4jnsgd1na2vs0mg"},{"bike_id":"77ebd6f7-0e15-4246-8feb-b1d720ac899a","system_id":"levelo_inurba_marseille","lat":43.300434,"lon":5.382081,"is_reserved":false,"is_disabled":false,"rental_uris":{"android":"levelo://app?vid=77ebd6f7-0e15-4246-8feb-b1d720ac899a","ios":"levelo://app?vid=77ebd6f7-0e15-4246-8feb-b1d720ac899a"},"vehicle_type_id":"4","last_reported":1722100038,"current_range_meters":18800,"station_id":"","pricing_plan_id":"cebpf4jnsgd1na2vs0mg"},{"bike_id":"63243566-53fa-4a7d-86a5-3d4aa6008360","system_id":"levelo_inurba_marseille","lat":43.29573,"lon":5.367355,"is_reserved":false,"is_disabled":false,"rental_uris":{"android":"levelo://app?vid=63243566-53fa-4a7d-86a5-3d4aa6008360","ios":"levelo://app?vid=63243566-53fa-4a7d-86a5-3d4aa6008360"},"vehicle_type_id":"4","last_reported":1722100038,"current_range_meters":4000,"station_id":"ce4bgph2rcd13ifvqc2g","pricing_plan_id":"cebpf4jnsgd1na2vs0mg"},{"bike_id":"d86ed249-ad17-460a-83df-7c8d544414af","system_id":"levelo_inurba_marseille","lat":43.29585,"lon":5.36748,"is_reserved":false,"is_disabled":false,"rental_uris":{"android":"levelo://app?vid=d86ed249-ad17-460a-83df-7c8d544414af","ios":"levelo://app?vid=d86ed249-ad17-460a-83df-7c8d544414af"},"vehicle_type_id":"4","last_reported":1722100038,"current_range_meters":0,"station_id":"ce4bgph2rcd13ifvqc2g","pricing_plan_id":"cebpf4jnsgd1na2vs0mg"},{"bike_id":"67169aa8-8c55-4b3f-b744-c223668b2029","system_id":"levelo_inurba_marseille","lat":43.296921,"lon":5.376579,"is_reserved":false,"is_disabled":false,"rental_uris":{"android":"levelo://app?vid=67169aa8-8c55-4b3f-b744-c223668b2029","ios":"levelo://app?vid=67169aa8-8c55-4b3f-b744-c223668b2029"},"vehicle_type_id":"4","last_reported":1722100038,"current_range_meters":1600,"station_id":"ce4bgkh2rcd13ifvqbl0","pricing_plan_id":"cebpf4jnsgd1na2vs0mg"},{"bike_id":"3687448e-2772-4c50-96fa-15021dbcd7fc","system_id":"levelo_inurba_marseille","lat":43.309589,"lon":5.390258,"is_reserved":false,"is_disabled":false,"rental_uris":{"android":"levelo://app?vid=3687448e-2772-4c50-96fa-15021dbcd7fc","ios":"levelo://app?vid=3687448e-2772-4c50-96fa-15021dbcd7fc"},"vehicle_type_id":"4","last_reported":1722100038,"current_range_meters":30400,"station_id":"ce4bgup2rcd13ifvqco0","pricing_plan_id":"cebpf4jnsgd1na2vs0mg"},{"bike_id":"0669649c-c3f0-4888-848a-7f391bdf2700","system_id":"levelo_inurba_marseille","lat":43.309589,"lon":5.390258,"is_reserved":false,"is_disabled":false,"rental_uris":{"android":"levelo://app?vid=0669649c-c3f0-4888-848a-7f391bdf2700","ios":"levelo://app?vid=0669649c-c3f0-4888-848a-7f391bdf2700"},"vehicle_type_id":"4","last_reported":1722100038,"current_range_meters":8000,"station_id":"ce4bgup2rcd13ifvqco0","pricing_plan_id":"cebpf4jnsgd1na2vs0mg"},{"bike_id":"f7419f17-0205-434a-8709-439c5a709818","system_id":"levelo_inurba_marseille","lat":43.296921,"lon":5.376579,"is_reserved":false,"is_disabled":false,"rental_uris":{"android":"levelo://app?vid=f7419f17-0205-434a-8709-439c5a709818","ios":"levelo://app?vid=f7419f17-0205-434a-8709-439c5a709818"},"vehicle_type_id":"4","last_reported":1722100038,"current_range_meters":12400,"station_id":"ce4bgkh2rcd13ifvqbl0","pricing_plan_id":"cebpf4jnsgd1na2vs0mg"},{"bike_id":"f73a4e6c-029e-4606-9930-18fe0eb64c34","system_id":"levelo_inurba_marseille","lat":43.309589,"lon":5.390258,"is_reserved":false,"is_disabled":false,"rental_uris":{"android":"levelo://app?vid=f73a4e6c-029e-4606-9930-18fe0eb64c34","ios":"levelo://app?vid=f73a4e6c-029e-4606-9930-18fe0eb64c34"},"vehicle_type_id":"4","last_reported":1722100038,"current_range_meters":2800,"station_id":"ce4bgup2rcd13ifvqco0","pricing_plan_id":"cebpf4jnsgd1na2vs0mg"},{"bike_id":"4496c404-3c32-4a6a-a8d4-fe28ae420eb9","system_id":"levelo_inurba_marseille","lat":43.317557,"lon":5.390173,"is_reserved":false,"is_disabled":false,"rental_uris":{"android":"levelo://app?vid=4496c404-3c32-4a6a-a8d4-fe28ae420eb9","ios":"levelo://app?vid=4496c404-3c32-4a6a-a8d4-fe28ae420eb9"},"vehicle_type_id":"4","last_reported":1722100038,"current_range_meters":5200,"station_id":"ce4bhqp2rcd13ifvqhng","pricing_plan_id":"cebpf4jnsgd1na2vs0mg"},{"bike_id":"c1ff23af-1f62-4a1c-b6b8-845fd8849dcb","system_id":"levelo_inurba_marseille","lat":43.298037,"lon":5.381066,"is_reserved":false,"is_disabled":false,"rental_uris":{"android":"levelo://app?vid=c1ff23af-1f62-4a1c-b6b8-845fd8849dcb","ios":"levelo://app?vid=c1ff23af-1f62-4a1c-b6b8-845fd8849dcb"},"vehicle_type_id":"4","last_reported":1722100038,"current_range_meters":27600,"station_id":"ce4bgip2rcd13ifvqbb0","pricing_plan_id":"cebpf4jnsgd1na2vs0mg"},{"bike_id":"e343f744-b504-4c5b-b9ff-30c936c96d40","system_id":"levelo_inurba_marseille","lat":43.295748,"lon":5.37522,"is_reserved":false,"is_disabled":false,"rental_uris":{"android":"levelo://app?vid=e343f744-b504-4c5b-b9ff-30c936c96d40","ios":"levelo://app?vid=e343f744-b504-4c5b-b9ff-30c936c96d40"},"vehicle_type_id":"4","last_reported":1722100038,"current_range_meters":0,"station_id":"ce4bgh92rcd13ifvqb50","pricing_plan_id":"cebpf4jnsgd1na2vs0mg"},{"bike_id":"06aeb186-c648-4f23-a7bc-7a9441992ee9","system_id":"levelo_inurba_marseille","lat":43.304274,"lon":5.388873,"is_reserved":false,"is_disabled":false,"rental_uris":{"android":"levelo://app?vid=06aeb186-c648-4f23-a7bc-7a9441992ee9","ios":"levelo://app?vid=06aeb186-c648-4f23-a7bc-7a9441992ee9"},"vehicle_type_id":"4","last_reported":1722100038,"current_range_meters":3200,"station_id":"ce4bgk12rcd13ifvqbi0","pricing_plan_id":"cebpf4jnsgd1na2vs0mg"},{"bike_id":"edd41883-6fae-4271-b945-0b10d5c223dd","system_id":"levelo_inurba_marseille","lat":43.296263,"lon":5.377094,"is_reserved":false,"is_disabled":false,"rental_uris":{"android":"levelo://app?vid=edd41883-6fae-4271-b945-0b10d5c223dd","ios":"levelo://app?vid=edd41883-6fae-4271-b945-0b10d5c223dd"},"vehicle_type_id":"4","last_reported":1722100038,"current_range_meters":0,"station_id":"ce4bgi92rcd13ifvqb90","pricing_plan_id":"cebpf4jnsgd1na2vs0mg"},{"bike_id":"9c73aadb-0ba8-4d89-9999-f4c4d5485aef","system_id":"levelo_inurba_marseille","lat":43.304274,"lon":5.388873,"is_reserved":false,"is_disabled":false,"rental_uris":{"android":"levelo://app?vid=9c73aadb-0ba8-4d89-9999-f4c4d5485aef","ios":"levelo://app?vid=9c73aadb-0ba8-4d89-9999-f4c4d5485aef"},"vehicle_type_id":"4","last_reported":1722100038,"current_range_meters":1200,"station_id":"ce4bgk12rcd13ifvqbi0","pricing_plan_id":"cebpf4jnsgd1na2vs0mg"},{"bike_id":"56ebc892-f9af-4cbd-8738-9270a98633c8","system_id":"levelo_inurba_marseille","lat":43.2957,"lon":5.37522,"is_reserved":false,"is_disabled":false,"rental_uris":{"android":"levelo://app?vid=56ebc892-f9af-4cbd-8738-9270a98633c8","ios":"levelo://app?vid=56ebc892-f9af-4cbd-8738-9270a98633c8"},"vehicle_type_id":"4","last_reported":1722100038,"current_range_meters":0,"station_id":"ce4bgh92rcd13ifvqb50","pricing_plan_id":"cebpf4jnsgd1na2vs0mg"},{"bike_id":"b6344ab5-09c9-422f-9de5-1f5fac5cc309","system_id":"levelo_inurba_marseille","lat":43.304278,"lon":5.388868,"is_reserved":false,"is_disabled":false,"rental_uris":{"android":"levelo://app?vid=b6344ab5-09c9-422f-9de5-1f5fac5cc309","ios":"levelo://app?vid=b6344ab5-09c9-422f-9de5-1f5fac5cc309"},"vehicle_type_id":"4","last_reported":1722100038,"current_range_meters":0,"station_id":"ce4bgk12rcd13ifvqbi0","pricing_plan_id":"cebpf4jnsgd1na2vs0mg"},{"bike_id":"ae575f0a-5336-4664-ae58-563a7f704386","system_id":"levelo_inurba_marseille","lat":43.304274,"lon":5.388873,"is_reserved":false,"is_disabled":false,"rental_uris":{"android":"levelo://app?vid=ae575f0a-5336-4664-ae58-563a7f704386","ios":"levelo://app?vid=ae575f0a-5336-4664-ae58-563a7f704386"},"vehicle_type_id":"4","last_reported":1722100038,"current_range_meters":0,"station_id":"ce4bgk12rcd13ifvqbi0","pricing_plan_id":"cebpf4jnsgd1na2vs0mg"},{"bike_id":"3557932a-0269-488c-8228-bc4e251aff79","system_id":"levelo_inurba_marseille","lat":43.304278,"lon":5.388868,"is_reserved":false,"is_disabled":false,"rental_uris":{"android":"levelo://app?vid=3557932a-0269-488c-8228-bc4e251aff79","ios":"levelo://app?vid=3557932a-0269-488c-8228-bc4e251aff79"},"vehicle_type_id":"4","last_reported":1722100038,"current_range_meters":10400,"station_id":"ce4bgk12rcd13ifvqbi0","pricing_plan_id":"cebpf4jnsgd1na2vs0mg"},{"bike_id":"0030cd10-b73f-4545-96d6-103e8e3560a6","system_id":"levelo_inurba_marseille","lat":43.304274,"lon":5.388873,"is_reserved":false,"is_disabled":false,"rental_uris":{"android":"levelo://app?vid=0030cd10-b73f-4545-96d6-103e8e3560a6","ios":"levelo://app?vid=0030cd10-b73f-4545-96d6-103e8e3560a6"},"vehicle_type_id":"4","last_reported":1722100038,"current_range_meters":26400,"station_id":"ce4bgk12rcd13ifvqbi0","pricing_plan_id":"cebpf4jnsgd1na2vs0mg"},{"bike_id":"17f527f1-809c-4a7e-9fc8-257d27ee8160","system_id":"levelo_inurba_marseille","lat":43.304278,"lon":5.388868,"is_reserved":false,"is_disabled":false,"rental_uris":{"android":"levelo://app?vid=17f527f1-809c-4a7e-9fc8-257d27ee8160","ios":"levelo://app?vid=17f527f1-809c-4a7e-9fc8-257d27ee8160"},"vehicle_type_id":"4","last_reported":1722100038,"current_range_meters":29200,"station_id":"ce4bgk12rcd13ifvqbi0","pricing_plan_id":"cebpf4jnsgd1na2vs0mg"},{"bike_id":"8da683c1-0f99-4698-acbd-361060338339","system_id":"levelo_inurba_marseille","lat":43.295748,"lon":5.37522,"is_reserved":false,"is_disabled":false,"rental_uris":{"android":"levelo://app?vid=8da683c1-0f99-4698-acbd-361060338339","ios":"levelo://app?vid=8da683c1-0f99-4698-acbd-361060338339"},"vehicle_type_id":"4","last_reported":1722100038,"current_range_meters":26000,"station_id":"ce4bgh92rcd13ifvqb50","pricing_plan_id":"cebpf4jnsgd1na2vs0mg"},{"bike_id":"9716ab5e-2cec-4952-9572-ad8b60d3a325","system_id":"levelo_inurba_marseille","lat":43.304274,"lon":5.388873,"is_reserved":false,"is_disabled":false,"rental_uris":{"android":"levelo://app?vid=9716ab5e-2cec-4952-9572-ad8b60d3a325","ios":"levelo://app?vid=9716ab5e-2cec-4952-9572-ad8b60d3a325"},"vehicle_type_id":"4","last_reported":1722100038,"current_range_meters":0,"station_id":"ce4bgk12rcd13ifvqbi0","pricing_plan_id":"cebpf4jnsgd1na2vs0mg"},{"bike_id":"8b9fbb60-8d76-4ff6-a167-e059312cfabd","system_id":"levelo_inurba_marseille","lat":43.304278,"lon":5.388868,"is_reserved":false,"is_disabled":false,"rental_uris":{"android":"levelo://app?vid=8b9fbb60-8d76-4ff6-a167-e059312cfabd","ios":"levelo://app?vid=8b9fbb60-8d76-4ff6-a167-e059312cfabd"},"vehicle_type_id":"4","last_reported":1722100038,"current_range_meters":1600,"station_id":"ce4bgk12rcd13ifvqbi0","pricing_plan_id":"cebpf4jnsgd1na2vs0mg"},{"bike_id":"22386c1c-bfd2-427d-a1b1-8e31cee808eb","system_id":"levelo_inurba_marseille","lat":43.304278,"lon":5.388868,"is_reserved":false,"is_disabled":false,"rental_uris":{"android":"levelo://app?vid=22386c1c-bfd2-427d-a1b1-8e31cee808eb","ios":"levelo://app?vid=22386c1c-bfd2-427d-a1b1-8e31cee808eb"},"vehicle_type_id":"4","last_reported":1722100038,"current_range_meters":6400,"station_id":"ce4bgk12rcd13ifvqbi0","pricing_plan_id":"cebpf4jnsgd1na2vs0mg"},{"bike_id":"ab5661ae-b780-4529-825b-5c869019f8a5","system_id":"levelo_inurba_marseille","lat":43.296263,"lon":5.377094,"is_reserved":false,"is_disabled":false,"rental_uris":{"android":"levelo://app?vid=ab5661ae-b780-4529-825b-5c869019f8a5","ios":"levelo://app?vid=ab5661ae-b780-4529-825b-5c869019f8a5"},"vehicle_type_id":"4","last_reported":1722100038,"current_range_meters":27200,"station_id":"ce4bgi92rcd13ifvqb90","pricing_plan_id":"cebpf4jnsgd1na2vs0mg"},{"bike_id":"fd8dadba-d395-4818-9c51-3014be407324","system_id":"levelo_inurba_marseille","lat":43.295748,"lon":5.37522,"is_reserved":false,"is_disabled":false,"rental_uris":{"android":"levelo://app?vid=fd8dadba-d395-4818-9c51-3014be407324","ios":"levelo://app?vid=fd8dadba-d395-4818-9c51-3014be407324"},"vehicle_type_id":"4","last_reported":1722100038,"current_range_meters":5200,"station_id":"ce4bgh92rcd13ifvqb50","pricing_plan_id":"cebpf4jnsgd1na2vs0mg"},{"bike_id":"48df7a43-b2dc-4426-a015-b984cc622875","system_id":"levelo_inurba_marseille","lat":43.304274,"lon":5.388873,"is_reserved":false,"is_disabled":false,"rental_uris":{"android":"levelo://app?vid=48df7a43-b2dc-4426-a015-b984cc622875","ios":"levelo://app?vid=48df7a43-b2dc-4426-a015-b984cc622875"},"vehicle_type_id":"4","last_reported":1722100038,"current_range_meters":2000,"station_id":"ce4bgk12rcd13ifvqbi0","pricing_plan_id":"cebpf4jnsgd1na2vs0mg"},{"bike_id":"47df261f-5c4a-416b-b1ba-3bc35fab6187","system_id":"levelo_inurba_marseille","lat":43.296263,"lon":5.377094,"is_reserved":false,"is_disabled":false,"rental_uris":{"android":"levelo://app?vid=47df261f-5c4a-416b-b1ba-3bc35fab6187","ios":"levelo://app?vid=47df261f-5c4a-416b-b1ba-3bc35fab6187"},"vehicle_type_id":"4","last_reported":1722100038,"current_range_meters":18000,"station_id":"ce4bgi92rcd13ifvqb90","pricing_plan_id":"cebpf4jnsgd1na2vs0mg"},{"bike_id":"f3bcf9d2-e9a0-4604-ab87-5efadd8e8f6f","system_id":"levelo_inurba_marseille","lat":43.295279,"lon":5.375048,"is_reserved":false,"is_disabled":false,"rental_uris":{"android":"levelo://app?vid=f3bcf9d2-e9a0-4604-ab87-5efadd8e8f6f","ios":"levelo://app?vid=f3bcf9d2-e9a0-4604-ab87-5efadd8e8f6f"},"vehicle_type_id":"4","last_reported":1722100038,"current_range_meters":3600,"station_id":"ce4bgkp2rcd13ifvqbmg","pricing_plan_id":"cebpf4jnsgd1na2vs0mg"},{"bike_id":"08d98a4e-11d3-4e47-9051-727fc7073480","system_id":"levelo_inurba_marseille","lat":43.29602,"lon":5.381084,"is_reserved":false,"is_disabled":false,"rental_uris":{"android":"levelo://app?vid=08d98a4e-11d3-4e47-9051-727fc7073480","ios":"levelo://app?vid=08d98a4e-11d3-4e47-9051-727fc7073480"},"vehicle_type_id":"4","last_reported":1722100038,"current_range_meters":19200,"station_id":"ce4bgl12rcd13ifvqbo0","pricing_plan_id":"cebpf4jnsgd1na2vs0mg"},{"bike_id":"cf079331-738e-4e25-801a-a8e843da42c0","system_id":"levelo_inurba_marseille","lat":43.292749,"lon":5.368402,"is_reserved":false,"is_disabled":false,"rental_uris":{"android":"levelo://app?vid=cf079331-738e-4e25-801a-a8e843da42c0","ios":"levelo://app?vid=cf079331-738e-4e25-801a-a8e843da42c0"},"vehicle_type_id":"4","last_reported":1722100038,"current_range_meters":16000,"station_id":"ce4bhbp2rcd13ifvqesg","pricing_plan_id":"cebpf4jnsgd1na2vs0mg"},{"bike_id":"fb4649f6-5774-4a6b-ab6d-18c7e48797ac","system_id":"levelo_inurba_marseille","lat":43.292749,"lon":5.368402,"is_reserved":false,"is_disabled":false,"rental_uris":{"android":"levelo://app?vid=fb4649f6-5774-4a6b-ab6d-18c7e48797ac","ios":"levelo://app?vid=fb4649f6-5774-4a6b-ab6d-18c7e48797ac"},"vehicle_type_id":"4","last_reported":1722100038,"current_range_meters":0,"station_id":"ce4bhbp2rcd13ifvqesg","pricing_plan_id":"cebpf4jnsgd1na2vs0mg"},{"bike_id":"8f810bb7-b70e-49ec-a998-8412f473becd","system_id":"levelo_inurba_marseille","lat":43.305994,"lon":5.393687,"is_reserved":false,"is_disabled":false,"rental_uris":{"android":"levelo://app?vid=8f810bb7-b70e-49ec-a998-8412f473becd","ios":"levelo://app?vid=8f810bb7-b70e-49ec-a998-8412f473becd"},"vehicle_type_id":"4","last_reported":1722100038,"current_range_meters":10800,"station_id":"ce4bh0p2rcd13ifvqd80","pricing_plan_id":"cebpf4jnsgd1na2vs0mg"},{"bike_id":"af5c088b-4c0e-4ae0-a83e-36633b550965","system_id":"levelo_inurba_marseille","lat":43.2936,"lon":5.37835,"is_reserved":false,"is_disabled":false,"rental_uris":{"android":"levelo://app?vid=af5c088b-4c0e-4ae0-a83e-36633b550965","ios":"levelo://app?vid=af5c088b-4c0e-4ae0-a83e-36633b550965"},"vehicle_type_id":"4","last_reported":1722100038,"current_range_meters":0,"station_id":"ce4bgjh2rcd13ifvqbf0","pricing_plan_id":"cebpf4jnsgd1na2vs0mg"},{"bike_id":"8b7d1b1d-7014-4801-b133-0599accae110","system_id":"levelo_inurba_marseille","lat":43.2936,"lon":5.37835,"is_reserved":false,"is_disabled":false,"rental_uris":{"android":"levelo://app?vid=8b7d1b1d-7014-4801-b133-0599accae110","ios":"levelo://app?vid=8b7d1b1d-7014-4801-b133-0599accae110"},"vehicle_type_id":"4","last_reported":1722100038,"current_range_meters":2800,"station_id":"ce4bgjh2rcd13ifvqbf0","pricing_plan_id":"cebpf4jnsgd1na2vs0mg"},{"bike_id":"ced6ad28-cffe-48f3-83d3-44b05f399f3a","system_id":"levelo_inurba_marseille","lat":43.29362,"lon":5.37838,"is_reserved":false,"is_disabled":false,"rental_uris":{"android":"levelo://app?vid=ced6ad28-cffe-48f3-83d3-44b05f399f3a","ios":"levelo://app?vid=ced6ad28-cffe-48f3-83d3-44b05f399f3a"},"vehicle_type_id":"4","last_reported":1722100038,"current_range_meters":0,"station_id":"ce4bgjh2rcd13ifvqbf0","pricing_plan_id":"cebpf4jnsgd1na2vs0mg"},{"bike_id":"d3737261-de36-4df5-8487-ff3079fb515a","system_id":"levelo_inurba_marseille","lat":43.292311,"lon":5.360731,"is_reserved":false,"is_disabled":false,"rental_uris":{"android":"levelo://app?vid=d3737261-de36-4df5-8487-ff3079fb515a","ios":"levelo://app?vid=d3737261-de36-4df5-8487-ff3079fb515a"},"vehicle_type_id":"4","last_reported":1722100038,"current_range_meters":0,"station_id":"ce4bhbh2rcd13ifvqeqg","pricing_plan_id":"cebpf4jnsgd1na2vs0mg"},{"bike_id":"aa517679-38c5-49e4-836f-75798d6dc326","system_id":"levelo_inurba_marseille","lat":43.292311,"lon":5.360731,"is_reserved":false,"is_disabled":false,"rental_uris":{"android":"levelo://app?vid=aa517679-38c5-49e4-836f-75798d6dc326","ios":"levelo://app?vid=aa517679-38c5-49e4-836f-75798d6dc326"},"vehicle_type_id":"4","last_reported":1722100038,"current_range_meters":22800,"station_id":"ce4bhbh2rcd13ifvqeqg","pricing_plan_id":"cebpf4jnsgd1na2vs0mg"},{"bike_id":"ec583dd4-951d-4276-840c-28f88911d812","system_id":"levelo_inurba_marseille","lat":43.291675,"lon":5.371583,"is_reserved":false,"is_disabled":false,"rental_uris":{"android":"levelo://app?vid=ec583dd4-951d-4276-840c-28f88911d812","ios":"levelo://app?vid=ec583dd4-951d-4276-840c-28f88911d812"},"vehicle_type_id":"4","last_reported":1722100038,"current_range_meters":1600,"station_id":"ce4bha92rcd13ifvqeh0","pricing_plan_id":"cebpf4jnsgd1na2vs0mg"},{"bike_id":"b27a82ad-a505-4b11-a89a-ee05cc727eaa","system_id":"levelo_inurba_marseille","lat":43.31325,"lon":5.39674,"is_reserved":false,"is_disabled":false,"rental_uris":{"android":"levelo://app?vid=b27a82ad-a505-4b11-a89a-ee05cc727eaa","ios":"levelo://app?vid=b27a82ad-a505-4b11-a89a-ee05cc727eaa"},"vehicle_type_id":"4","last_reported":1722100038,"current_range_meters":5200,"station_id":"ce4bgvp2rcd13ifvqcu0","pricing_plan_id":"cebpf4jnsgd1na2vs0mg"},{"bike_id":"c620fa63-5211-4a48-9b26-cc9e4222a617","system_id":"levelo_inurba_marseille","lat":43.291979,"lon":5.358035,"is_reserved":false,"is_disabled":false,"rental_uris":{"android":"levelo://app?vid=c620fa63-5211-4a48-9b26-cc9e4222a617","ios":"levelo://app?vid=c620fa63-5211-4a48-9b26-cc9e4222a617"},"vehicle_type_id":"4","last_reported":1722100038,"current_range_meters":22800,"station_id":"ce4bhb12rcd13ifvqel0","pricing_plan_id":"cebpf4jnsgd1na2vs0mg"},{"bike_id":"c46ef5ca-dd39-4da5-9456-9f1a21557ca5","system_id":"levelo_inurba_marseille","lat":43.29196,"lon":5.35792,"is_reserved":false,"is_disabled":false,"rental_uris":{"android":"levelo://app?vid=c46ef5ca-dd39-4da5-9456-9f1a21557ca5","ios":"levelo://app?vid=c46ef5ca-dd39-4da5-9456-9f1a21557ca5"},"vehicle_type_id":"4","last_reported":1722100038,"current_range_meters":0,"station_id":"ce4bhb12rcd13ifvqel0","pricing_plan_id":"cebpf4jnsgd1na2vs0mg"},{"bike_id":"60591be9-a506-4883-850b-ae7ed6a07b05","system_id":"levelo_inurba_marseille","lat":43.292005,"lon":5.357875,"is_reserved":false,"is_disabled":false,"rental_uris":{"android":"levelo://app?vid=60591be9-a506-4883-850b-ae7ed6a07b05","ios":"levelo://app?vid=60591be9-a506-4883-850b-ae7ed6a07b05"},"vehicle_type_id":"4","last_reported":1722100038,"current_range_meters":8400,"station_id":"ce4bhb12rcd13ifvqel0","pricing_plan_id":"cebpf4jnsgd1na2vs0mg"},{"bike_id":"0bb5f1b9-03c4-4550-aae8-7e8ad2469813","system_id":"levelo_inurba_marseille","lat":43.313291,"lon":5.396838,"is_reserved":false,"is_disabled":false,"rental_uris":{"android":"levelo://app?vid=0bb5f1b9-03c4-4550-aae8-7e8ad2469813","ios":"levelo://app?vid=0bb5f1b9-03c4-4550-aae8-7e8ad2469813"},"vehicle_type_id":"4","last_reported":1722100038,"current_range_meters":20800,"station_id":"ce4bgvp2rcd13ifvqcu0","pricing_plan_id":"cebpf4jnsgd1na2vs0mg"},{"bike_id":"3910e82a-7424-4d90-8625-c74846f25a6d","system_id":"levelo_inurba_marseille","lat":43.290779,"lon":5.371482,"is_reserved":false,"is_disabled":false,"rental_uris":{"android":"levelo://app?vid=3910e82a-7424-4d90-8625-c74846f25a6d","ios":"levelo://app?vid=3910e82a-7424-4d90-8625-c74846f25a6d"},"vehicle_type_id":"4","last_reported":1722100038,"current_range_meters":17600,"station_id":"ce4bh5p2rcd13ifvqe4g","pricing_plan_id":"cebpf4jnsgd1na2vs0mg"},{"bike_id":"f4a59408-d624-4400-8252-64fd44dc055c","system_id":"levelo_inurba_marseille","lat":43.290779,"lon":5.371482,"is_reserved":false,"is_disabled":false,"rental_uris":{"android":"levelo://app?vid=f4a59408-d624-4400-8252-64fd44dc055c","ios":"levelo://app?vid=f4a59408-d624-4400-8252-64fd44dc055c"},"vehicle_type_id":"4","last_reported":1722100038,"current_range_meters":400,"station_id":"ce4bh5p2rcd13ifvqe4g","pricing_plan_id":"cebpf4jnsgd1na2vs0mg"},{"bike_id":"db4aa3c7-2aac-460a-8564-fcc87a1da639","system_id":"levelo_inurba_marseille","lat":43.290631,"lon":5.359244,"is_reserved":false,"is_disabled":false,"rental_uris":{"android":"levelo://app?vid=db4aa3c7-2aac-460a-8564-fcc87a1da639","ios":"levelo://app?vid=db4aa3c7-2aac-460a-8564-fcc87a1da639"},"vehicle_type_id":"4","last_reported":1722100038,"current_range_meters":6800,"station_id":"ce4bha92rcd13ifvqeg0","pricing_plan_id":"cebpf4jnsgd1na2vs0mg"},{"bike_id":"f6b6e40b-3b56-4be7-b6e4-47da699e7a5f","system_id":"levelo_inurba_marseille","lat":43.290624,"lon":5.359245,"is_reserved":false,"is_disabled":false,"rental_uris":{"android":"levelo://app?vid=f6b6e40b-3b56-4be7-b6e4-47da699e7a5f","ios":"levelo://app?vid=f6b6e40b-3b56-4be7-b6e4-47da699e7a5f"},"vehicle_type_id":"4","last_reported":1722100038,"current_range_meters":18000,"station_id":"ce4bha92rcd13ifvqeg0","pricing_plan_id":"cebpf4jnsgd1na2vs0mg"},{"bike_id":"078142be-7d55-4096-8162-b1d125cd2ce5","system_id":"levelo_inurba_marseille","lat":43.294201,"lon":5.386239,"is_reserved":false,"is_disabled":false,"rental_uris":{"android":"levelo://app?vid=078142be-7d55-4096-8162-b1d125cd2ce5","ios":"levelo://app?vid=078142be-7d55-4096-8162-b1d125cd2ce5"},"vehicle_type_id":"4","last_reported":1722100038,"current_range_meters":16800,"station_id":"","pricing_plan_id":"cebpf4jnsgd1na2vs0mg"},{"bike_id":"2c73d093-aaf1-44a6-b64d-1738c6103a87","system_id":"levelo_inurba_marseille","lat":43.28946,"lon":5.36641,"is_reserved":false,"is_disabled":false,"rental_uris":{"android":"levelo://app?vid=2c73d093-aaf1-44a6-b64d-1738c6103a87","ios":"levelo://app?vid=2c73d093-aaf1-44a6-b64d-1738c6103a87"},"vehicle_type_id":"4","last_reported":1722100038,"current_range_meters":1200,"station_id":"ce4bhap2rcd13ifvqek0","pricing_plan_id":"cebpf4jnsgd1na2vs0mg"},{"bike_id":"a52086a8-20e4-49c1-8231-c0ddb67d6b37","system_id":"levelo_inurba_marseille","lat":43.28945,"lon":5.3664,"is_reserved":false,"is_disabled":false,"rental_uris":{"android":"levelo://app?vid=a52086a8-20e4-49c1-8231-c0ddb67d6b37","ios":"levelo://app?vid=a52086a8-20e4-49c1-8231-c0ddb67d6b37"},"vehicle_type_id":"4","last_reported":1722100038,"current_range_meters":20000,"station_id":"ce4bhap2rcd13ifvqek0","pricing_plan_id":"cebpf4jnsgd1na2vs0mg"},{"bike_id":"109f7c58-495e-41d0-bed1-fb277b5e469c","system_id":"levelo_inurba_marseille","lat":43.294162,"lon":5.386292,"is_reserved":false,"is_disabled":false,"rental_uris":{"android":"levelo://app?vid=109f7c58-495e-41d0-bed1-fb277b5e469c","ios":"levelo://app?vid=109f7c58-495e-41d0-bed1-fb277b5e469c"},"vehicle_type_id":"4","last_reported":1722100038,"current_range_meters":2400,"station_id":"ce4bh2h2rcd13ifvqdh0","pricing_plan_id":"cebpf4jnsgd1na2vs0mg"},{"bike_id":"ae72c6bb-384c-4ddb-a0aa-d5c7251af396","system_id":"levelo_inurba_marseille","lat":43.290327,"lon":5.375711,"is_reserved":false,"is_disabled":false,"rental_uris":{"android":"levelo://app?vid=ae72c6bb-384c-4ddb-a0aa-d5c7251af396","ios":"levelo://app?vid=ae72c6bb-384c-4ddb-a0aa-d5c7251af396"},"vehicle_type_id":"4","last_reported":1722100038,"current_range_meters":17200,"station_id":"ce4bh692rcd13ifvqe90","pricing_plan_id":"cebpf4jnsgd1na2vs0mg"},{"bike_id":"5ba943ff-c20e-4eb3-96e1-93167168d6a1","system_id":"levelo_inurba_marseille","lat":43.28942,"lon":5.36633,"is_reserved":false,"is_disabled":false,"rental_uris":{"android":"levelo://app?vid=5ba943ff-c20e-4eb3-96e1-93167168d6a1","ios":"levelo://app?vid=5ba943ff-c20e-4eb3-96e1-93167168d6a1"},"vehicle_type_id":"4","last_reported":1722100038,"current_range_meters":0,"station_id":"ce4bhap2rcd13ifvqek0","pricing_plan_id":"cebpf4jnsgd1na2vs0mg"},{"bike_id":"8e843daf-b907-421a-8a54-c52f12c7796b","system_id":"levelo_inurba_marseille","lat":43.28938,"lon":5.36641,"is_reserved":false,"is_disabled":false,"rental_uris":{"android":"levelo://app?vid=8e843daf-b907-421a-8a54-c52f12c7796b","ios":"levelo://app?vid=8e843daf-b907-421a-8a54-c52f12c7796b"},"vehicle_type_id":"4","last_reported":1722100038,"current_range_meters":0,"station_id":"ce4bhap2rcd13ifvqek0","pricing_plan_id":"cebpf4jnsgd1na2vs0mg"},{"bike_id":"1cabcf84-1618-45b5-9888-55da4f24229d","system_id":"levelo_inurba_marseille","lat":43.28938,"lon":5.36635,"is_reserved":false,"is_disabled":false,"rental_uris":{"android":"levelo://app?vid=1cabcf84-1618-45b5-9888-55da4f24229d","ios":"levelo://app?vid=1cabcf84-1618-45b5-9888-55da4f24229d"},"vehicle_type_id":"4","last_reported":1722100038,"current_range_meters":5600,"station_id":"ce4bhap2rcd13ifvqek0","pricing_plan_id":"cebpf4jnsgd1na2vs0mg"},{"bike_id":"bf199076-8d52-4f2b-b8aa-d2e5ec20603a","system_id":"levelo_inurba_marseille","lat":43.289184,"lon":5.366408,"is_reserved":false,"is_disabled":false,"rental_uris":{"android":"levelo://app?vid=bf199076-8d52-4f2b-b8aa-d2e5ec20603a","ios":"levelo://app?vid=bf199076-8d52-4f2b-b8aa-d2e5ec20603a"},"vehicle_type_id":"4","last_reported":1722100038,"current_range_meters":0,"station_id":"ce4bhap2rcd13ifvqek0","pricing_plan_id":"cebpf4jnsgd1na2vs0mg"},{"bike_id":"716a2195-27e7-4100-b4b7-28d267e88207","system_id":"levelo_inurba_marseille","lat":43.28937,"lon":5.36636,"is_reserved":false,"is_disabled":false,"rental_uris":{"android":"levelo://app?vid=716a2195-27e7-4100-b4b7-28d267e88207","ios":"levelo://app?vid=716a2195-27e7-4100-b4b7-28d267e88207"},"vehicle_type_id":"4","last_reported":1722100038,"current_range_meters":0,"station_id":"ce4bhap2rcd13ifvqek0","pricing_plan_id":"cebpf4jnsgd1na2vs0mg"},{"bike_id":"cc10878a-d175-40c4-8859-661b1daf3230","system_id":"levelo_inurba_marseille","lat":43.28937,"lon":5.36635,"is_reserved":false,"is_disabled":false,"rental_uris":{"android":"levelo://app?vid=cc10878a-d175-40c4-8859-661b1daf3230","ios":"levelo://app?vid=cc10878a-d175-40c4-8859-661b1daf3230"},"vehicle_type_id":"4","last_reported":1722100038,"current_range_meters":0,"station_id":"ce4bhap2rcd13ifvqek0","pricing_plan_id":"cebpf4jnsgd1na2vs0mg"},{"bike_id":"1b7e0798-82d1-40a6-9821-27096f15b916","system_id":"levelo_inurba_marseille","lat":43.28941,"lon":5.36398,"is_reserved":false,"is_disabled":false,"rental_uris":{"android":"levelo://app?vid=1b7e0798-82d1-40a6-9821-27096f15b916","ios":"levelo://app?vid=1b7e0798-82d1-40a6-9821-27096f15b916"},"vehicle_type_id":"4","last_reported":1722100038,"current_range_meters":0,"station_id":"ce4bhc92rcd13ifvqetg","pricing_plan_id":"cebpf4jnsgd1na2vs0mg"},{"bike_id":"206e19ca-5405-491e-8505-ed08baedb719","system_id":"levelo_inurba_marseille","lat":43.28935,"lon":5.36399,"is_reserved":false,"is_disabled":false,"rental_uris":{"android":"levelo://app?vid=206e19ca-5405-491e-8505-ed08baedb719","ios":"levelo://app?vid=206e19ca-5405-491e-8505-ed08baedb719"},"vehicle_type_id":"4","last_reported":1722100038,"current_range_meters":29600,"station_id":"ce4bhc92rcd13ifvqetg","pricing_plan_id":"cebpf4jnsgd1na2vs0mg"},{"bike_id":"9be3e6e5-bfb2-4f8f-9725-c9c8c6bf3151","system_id":"levelo_inurba_marseille","lat":43.292644,"lon":5.384257,"is_reserved":false,"is_disabled":false,"rental_uris":{"android":"levelo://app?vid=9be3e6e5-bfb2-4f8f-9725-c9c8c6bf3151","ios":"levelo://app?vid=9be3e6e5-bfb2-4f8f-9725-c9c8c6bf3151"},"vehicle_type_id":"4","last_reported":1722100038,"current_range_meters":12800,"station_id":"ce4bh692rcd13ifvqea0","pricing_plan_id":"cebpf4jnsgd1na2vs0mg"},{"bike_id":"f78527af-4295-47e2-8252-a14527ad1c34","system_id":"levelo_inurba_marseille","lat":43.292644,"lon":5.384257,"is_reserved":false,"is_disabled":false,"rental_uris":{"android":"levelo://app?vid=f78527af-4295-47e2-8252-a14527ad1c34","ios":"levelo://app?vid=f78527af-4295-47e2-8252-a14527ad1c34"},"vehicle_type_id":"4","last_reported":1722100038,"current_range_meters":0,"station_id":"ce4bh692rcd13ifvqea0","pricing_plan_id":"cebpf4jnsgd1na2vs0mg"},{"bike_id":"5fd30940-79ec-4bdc-9c31-b3cd4c017970","system_id":"levelo_inurba_marseille","lat":43.292644,"lon":5.384257,"is_reserved":false,"is_disabled":false,"rental_uris":{"android":"levelo://app?vid=5fd30940-79ec-4bdc-9c31-b3cd4c017970","ios":"levelo://app?vid=5fd30940-79ec-4bdc-9c31-b3cd4c017970"},"vehicle_type_id":"4","last_reported":1722100038,"current_range_meters":0,"station_id":"ce4bh692rcd13ifvqea0","pricing_plan_id":"cebpf4jnsgd1na2vs0mg"},{"bike_id":"9db1fb8f-019d-44d5-b5a8-963e4b0eafcc","system_id":"levelo_inurba_marseille","lat":43.292644,"lon":5.384257,"is_reserved":false,"is_disabled":false,"rental_uris":{"android":"levelo://app?vid=9db1fb8f-019d-44d5-b5a8-963e4b0eafcc","ios":"levelo://app?vid=9db1fb8f-019d-44d5-b5a8-963e4b0eafcc"},"vehicle_type_id":"4","last_reported":1722100038,"current_range_meters":9600,"station_id":"ce4bh692rcd13ifvqea0","pricing_plan_id":"cebpf4jnsgd1na2vs0mg"},{"bike_id":"36f40c65-a2c6-41da-96eb-4cbe35fa64df","system_id":"levelo_inurba_marseille","lat":43.292642,"lon":5.384254,"is_reserved":false,"is_disabled":false,"rental_uris":{"android":"levelo://app?vid=36f40c65-a2c6-41da-96eb-4cbe35fa64df","ios":"levelo://app?vid=36f40c65-a2c6-41da-96eb-4cbe35fa64df"},"vehicle_type_id":"4","last_reported":1722100038,"current_range_meters":8000,"station_id":"ce4bh692rcd13ifvqea0","pricing_plan_id":"cebpf4jnsgd1na2vs0mg"},{"bike_id":"516e2b4c-5cf6-4902-a521-e4e91d175035","system_id":"levelo_inurba_marseille","lat":43.29259,"lon":5.3844,"is_reserved":false,"is_disabled":false,"rental_uris":{"android":"levelo://app?vid=516e2b4c-5cf6-4902-a521-e4e91d175035","ios":"levelo://app?vid=516e2b4c-5cf6-4902-a521-e4e91d175035"},"vehicle_type_id":"4","last_reported":1722100038,"current_range_meters":6800,"station_id":"ce4bh692rcd13ifvqea0","pricing_plan_id":"cebpf4jnsgd1na2vs0mg"},{"bike_id":"ccc333a4-6fd7-44b0-bcad-175a69e2838d","system_id":"levelo_inurba_marseille","lat":43.304296,"lon":5.397513,"is_reserved":false,"is_disabled":false,"rental_uris":{"android":"levelo://app?vid=ccc333a4-6fd7-44b0-bcad-175a69e2838d","ios":"levelo://app?vid=ccc333a4-6fd7-44b0-bcad-175a69e2838d"},"vehicle_type_id":"4","last_reported":1722100038,"current_range_meters":0,"station_id":"ce4bh092rcd13ifvqd20","pricing_plan_id":"cebpf4jnsgd1na2vs0mg"},{"bike_id":"2b7b9305-e074-467b-9d0b-76f09527e370","system_id":"levelo_inurba_marseille","lat":43.292642,"lon":5.384254,"is_reserved":false,"is_disabled":false,"rental_uris":{"android":"levelo://app?vid=2b7b9305-e074-467b-9d0b-76f09527e370","ios":"levelo://app?vid=2b7b9305-e074-467b-9d0b-76f09527e370"},"vehicle_type_id":"4","last_reported":1722100038,"current_range_meters":27200,"station_id":"ce4bh692rcd13ifvqea0","pricing_plan_id":"cebpf4jnsgd1na2vs0mg"},{"bike_id":"aa46c343-dd76-4a33-8787-87f06a5aefe6","system_id":"levelo_inurba_marseille","lat":43.29011,"lon":5.35611,"is_reserved":false,"is_disabled":false,"rental_uris":{"android":"levelo://app?vid=aa46c343-dd76-4a33-8787-87f06a5aefe6","ios":"levelo://app?vid=aa46c343-dd76-4a33-8787-87f06a5aefe6"},"vehicle_type_id":"4","last_reported":1722100038,"current_range_meters":4400,"station_id":"ce4bhb92rcd13ifvqen0","pricing_plan_id":"cebpf4jnsgd1na2vs0mg"},{"bike_id":"9f845a04-356e-4fe1-860f-945223d1b284","system_id":"levelo_inurba_marseille","lat":43.290103,"lon":5.356114,"is_reserved":false,"is_disabled":false,"rental_uris":{"android":"levelo://app?vid=9f845a04-356e-4fe1-860f-945223d1b284","ios":"levelo://app?vid=9f845a04-356e-4fe1-860f-945223d1b284"},"vehicle_type_id":"4","last_reported":1722100038,"current_range_meters":17200,"station_id":"ce4bhb92rcd13ifvqen0","pricing_plan_id":"cebpf4jnsgd1na2vs0mg"},{"bike_id":"cf7ea118-e625-4875-8266-d0504286df21","system_id":"levelo_inurba_marseille","lat":43.29008,"lon":5.35613,"is_reserved":false,"is_disabled":false,"rental_uris":{"android":"levelo://app?vid=cf7ea118-e625-4875-8266-d0504286df21","ios":"levelo://app?vid=cf7ea118-e625-4875-8266-d0504286df21"},"vehicle_type_id":"4","last_reported":1722100038,"current_range_meters":2400,"station_id":"ce4bhb92rcd13ifvqen0","pricing_plan_id":"cebpf4jnsgd1na2vs0mg"},{"bike_id":"c466ffee-6125-47b6-9b01-617e232073d6","system_id":"levelo_inurba_marseille","lat":43.29005,"lon":5.35608,"is_reserved":false,"is_disabled":false,"rental_uris":{"android":"levelo://app?vid=c466ffee-6125-47b6-9b01-617e232073d6","ios":"levelo://app?vid=c466ffee-6125-47b6-9b01-617e232073d6"},"vehicle_type_id":"4","last_reported":1722100038,"current_range_meters":0,"station_id":"ce4bhb92rcd13ifvqen0","pricing_plan_id":"cebpf4jnsgd1na2vs0mg"},{"bike_id":"ff04b6bb-8389-4122-b9b3-b760e8597529","system_id":"levelo_inurba_marseille","lat":43.29004,"lon":5.3561,"is_reserved":false,"is_disabled":false,"rental_uris":{"android":"levelo://app?vid=ff04b6bb-8389-4122-b9b3-b760e8597529","ios":"levelo://app?vid=ff04b6bb-8389-4122-b9b3-b760e8597529"},"vehicle_type_id":"4","last_reported":1722100038,"current_range_meters":7200,"station_id":"ce4bhb92rcd13ifvqen0","pricing_plan_id":"cebpf4jnsgd1na2vs0mg"},{"bike_id":"b5bd7207-3c7e-401c-a473-9ebea534493c","system_id":"levelo_inurba_marseille","lat":43.290104,"lon":5.356111,"is_reserved":false,"is_disabled":false,"rental_uris":{"android":"levelo://app?vid=b5bd7207-3c7e-401c-a473-9ebea534493c","ios":"levelo://app?vid=b5bd7207-3c7e-401c-a473-9ebea534493c"},"vehicle_type_id":"4","last_reported":1722100038,"current_range_meters":2000,"station_id":"ce4bhb92rcd13ifvqen0","pricing_plan_id":"cebpf4jnsgd1na2vs0mg"},{"bike_id":"5022070f-39d1-43fc-b2e1-47f2eb727a5e","system_id":"levelo_inurba_marseille","lat":43.290104,"lon":5.356111,"is_reserved":false,"is_disabled":false,"rental_uris":{"android":"levelo://app?vid=5022070f-39d1-43fc-b2e1-47f2eb727a5e","ios":"levelo://app?vid=5022070f-39d1-43fc-b2e1-47f2eb727a5e"},"vehicle_type_id":"4","last_reported":1722100038,"current_range_meters":0,"station_id":"ce4bhb92rcd13ifvqen0","pricing_plan_id":"cebpf4jnsgd1na2vs0mg"},{"bike_id":"96beacc6-9df1-48c8-a806-6ff50849ae2d","system_id":"levelo_inurba_marseille","lat":43.29003,"lon":5.35607,"is_reserved":false,"is_disabled":false,"rental_uris":{"android":"levelo://app?vid=96beacc6-9df1-48c8-a806-6ff50849ae2d","ios":"levelo://app?vid=96beacc6-9df1-48c8-a806-6ff50849ae2d"},"vehicle_type_id":"4","last_reported":1722100038,"current_range_meters":30800,"station_id":"ce4bhb92rcd13ifvqen0","pricing_plan_id":"cebpf4jnsgd1na2vs0mg"},{"bike_id":"b13d3f2a-b5bc-4c45-8e4c-fffc920c26ca","system_id":"levelo_inurba_marseille","lat":43.29003,"lon":5.35605,"is_reserved":false,"is_disabled":false,"rental_uris":{"android":"levelo://app?vid=b13d3f2a-b5bc-4c45-8e4c-fffc920c26ca","ios":"levelo://app?vid=b13d3f2a-b5bc-4c45-8e4c-fffc920c26ca"},"vehicle_type_id":"4","last_reported":1722100038,"current_range_meters":0,"station_id":"ce4bhb92rcd13ifvqen0","pricing_plan_id":"cebpf4jnsgd1na2vs0mg"},{"bike_id":"4834f627-6aff-47a0-b4ed-f11363ac0d0d","system_id":"levelo_inurba_marseille","lat":43.29,"lon":5.35615,"is_reserved":false,"is_disabled":false,"rental_uris":{"android":"levelo://app?vid=4834f627-6aff-47a0-b4ed-f11363ac0d0d","ios":"levelo://app?vid=4834f627-6aff-47a0-b4ed-f11363ac0d0d"},"vehicle_type_id":"4","last_reported":1722100038,"current_range_meters":30800,"station_id":"ce4bhb92rcd13ifvqen0","pricing_plan_id":"cebpf4jnsgd1na2vs0mg"},{"bike_id":"f46c4c7b-3f52-480d-8827-b295a11288f0","system_id":"levelo_inurba_marseille","lat":43.290995,"lon":5.381361,"is_reserved":false,"is_disabled":false,"rental_uris":{"android":"levelo://app?vid=f46c4c7b-3f52-480d-8827-b295a11288f0","ios":"levelo://app?vid=f46c4c7b-3f52-480d-8827-b295a11288f0"},"vehicle_type_id":"4","last_reported":1722100038,"current_range_meters":14000,"station_id":"ce4bh512rcd13ifvqe2g","pricing_plan_id":"cebpf4jnsgd1na2vs0mg"},{"bike_id":"b1a78e47-4c49-4dce-90fe-b44c8a633fac","system_id":"levelo_inurba_marseille","lat":43.290995,"lon":5.381361,"is_reserved":false,"is_disabled":false,"rental_uris":{"android":"levelo://app?vid=b1a78e47-4c49-4dce-90fe-b44c8a633fac","ios":"levelo://app?vid=b1a78e47-4c49-4dce-90fe-b44c8a633fac"},"vehicle_type_id":"4","last_reported":1722100038,"current_range_meters":2800,"station_id":"ce4bh512rcd13ifvqe2g","pricing_plan_id":"cebpf4jnsgd1na2vs0mg"},{"bike_id":"a0ff4826-8d36-42b0-a2e8-1cac4c9fb6c7","system_id":"levelo_inurba_marseille","lat":43.289741,"lon":5.378306,"is_reserved":false,"is_disabled":false,"rental_uris":{"android":"levelo://app?vid=a0ff4826-8d36-42b0-a2e8-1cac4c9fb6c7","ios":"levelo://app?vid=a0ff4826-8d36-42b0-a2e8-1cac4c9fb6c7"},"vehicle_type_id":"4","last_reported":1722100038,"current_range_meters":18400,"station_id":"ce4bh9p2rcd13ifvqed0","pricing_plan_id":"cebpf4jnsgd1na2vs0mg"},{"bike_id":"559b95e5-8b56-4a23-a523-7ec24abd62ca","system_id":"levelo_inurba_marseille","lat":43.295169,"lon":5.390426,"is_reserved":false,"is_disabled":false,"rental_uris":{"android":"levelo://app?vid=559b95e5-8b56-4a23-a523-7ec24abd62ca","ios":"levelo://app?vid=559b95e5-8b56-4a23-a523-7ec24abd62ca"},"vehicle_type_id":"4","last_reported":1722100038,"current_range_meters":25200,"station_id":"ce4bh3p2rcd13ifvqdp0","pricing_plan_id":"cebpf4jnsgd1na2vs0mg"},{"bike_id":"03265a15-9cbb-437f-a0c3-187470e51679","system_id":"levelo_inurba_marseille","lat":43.31461,"lon":5.40057,"is_reserved":false,"is_disabled":false,"rental_uris":{"android":"levelo://app?vid=03265a15-9cbb-437f-a0c3-187470e51679","ios":"levelo://app?vid=03265a15-9cbb-437f-a0c3-187470e51679"},"vehicle_type_id":"4","last_reported":1722100038,"current_range_meters":800,"station_id":"","pricing_plan_id":"cebpf4jnsgd1na2vs0mg"},{"bike_id":"e52f5d31-1922-4401-a4ab-31e1ef5ffc46","system_id":"levelo_inurba_marseille","lat":43.290094,"lon":5.381264,"is_reserved":false,"is_disabled":false,"rental_uris":{"android":"levelo://app?vid=e52f5d31-1922-4401-a4ab-31e1ef5ffc46","ios":"levelo://app?vid=e52f5d31-1922-4401-a4ab-31e1ef5ffc46"},"vehicle_type_id":"4","last_reported":1722100038,"current_range_meters":14000,"station_id":"ce4bh4p2rcd13ifvqe1g","pricing_plan_id":"cebpf4jnsgd1na2vs0mg"},{"bike_id":"2fee7448-3148-4c22-b3e3-ced5ab226e4d","system_id":"levelo_inurba_marseille","lat":43.330442,"lon":5.389148,"is_reserved":false,"is_disabled":false,"rental_uris":{"android":"levelo://app?vid=2fee7448-3148-4c22-b3e3-ced5ab226e4d","ios":"levelo://app?vid=2fee7448-3148-4c22-b3e3-ced5ab226e4d"},"vehicle_type_id":"4","last_reported":1722100038,"current_range_meters":3200,"station_id":"ce4bhr92rcd13ifvqhrg","pricing_plan_id":"cebpf4jnsgd1na2vs0mg"},{"bike_id":"6ff48f3c-927a-470d-a08e-7714539082f0","system_id":"levelo_inurba_marseille","lat":43.33731,"lon":5.37455,"is_reserved":false,"is_disabled":false,"rental_uris":{"android":"levelo://app?vid=6ff48f3c-927a-470d-a08e-7714539082f0","ios":"levelo://app?vid=6ff48f3c-927a-470d-a08e-7714539082f0"},"vehicle_type_id":"4","last_reported":1722100038,"current_range_meters":3600,"station_id":"","pricing_plan_id":"cebpf4jnsgd1na2vs0mg"},{"bike_id":"3e79250c-7764-488c-b465-61fd16d31170","system_id":"levelo_inurba_marseille","lat":43.33736,"lon":5.37477,"is_reserved":false,"is_disabled":false,"rental_uris":{"android":"levelo://app?vid=3e79250c-7764-488c-b465-61fd16d31170","ios":"levelo://app?vid=3e79250c-7764-488c-b465-61fd16d31170"},"vehicle_type_id":"4","last_reported":1722100038,"current_range_meters":28400,"station_id":"","pricing_plan_id":"cebpf4jnsgd1na2vs0mg"},{"bike_id":"17ce414d-aa67-4b16-9d7f-68f8717790c9","system_id":"levelo_inurba_marseille","lat":43.309371,"lon":5.401449,"is_reserved":false,"is_disabled":false,"rental_uris":{"android":"levelo://app?vid=17ce414d-aa67-4b16-9d7f-68f8717790c9","ios":"levelo://app?vid=17ce414d-aa67-4b16-9d7f-68f8717790c9"},"vehicle_type_id":"4","last_reported":1722100038,"current_range_meters":800,"station_id":"ce4bgvp2rcd13ifvqct0","pricing_plan_id":"cebpf4jnsgd1na2vs0mg"},{"bike_id":"e92bf1d5-b1ca-44cd-9b31-a0496082825d","system_id":"levelo_inurba_marseille","lat":43.33733,"lon":5.37507,"is_reserved":false,"is_disabled":false,"rental_uris":{"android":"levelo://app?vid=e92bf1d5-b1ca-44cd-9b31-a0496082825d","ios":"levelo://app?vid=e92bf1d5-b1ca-44cd-9b31-a0496082825d"},"vehicle_type_id":"4","last_reported":1722100038,"current_range_meters":28800,"station_id":"","pricing_plan_id":"cebpf4jnsgd1na2vs0mg"},{"bike_id":"a1f8dd91-3294-415e-97e1-f4f8939afe77","system_id":"levelo_inurba_marseille","lat":43.309371,"lon":5.401449,"is_reserved":false,"is_disabled":false,"rental_uris":{"android":"levelo://app?vid=a1f8dd91-3294-415e-97e1-f4f8939afe77","ios":"levelo://app?vid=a1f8dd91-3294-415e-97e1-f4f8939afe77"},"vehicle_type_id":"4","last_reported":1722100038,"current_range_meters":24000,"station_id":"ce4bgvp2rcd13ifvqct0","pricing_plan_id":"cebpf4jnsgd1na2vs0mg"},{"bike_id":"f8e8dd66-c7d6-4bd0-91ac-ef4274ae24f3","system_id":"levelo_inurba_marseille","lat":43.33741,"lon":5.37473,"is_reserved":false,"is_disabled":false,"rental_uris":{"android":"levelo://app?vid=f8e8dd66-c7d6-4bd0-91ac-ef4274ae24f3","ios":"levelo://app?vid=f8e8dd66-c7d6-4bd0-91ac-ef4274ae24f3"},"vehicle_type_id":"4","last_reported":1722100038,"current_range_meters":21200,"station_id":"","pricing_plan_id":"cebpf4jnsgd1na2vs0mg"},{"bike_id":"0aa226e6-2195-431b-bdc4-34bf44420451","system_id":"levelo_inurba_marseille","lat":43.337467,"lon":5.374397,"is_reserved":false,"is_disabled":false,"rental_uris":{"android":"levelo://app?vid=0aa226e6-2195-431b-bdc4-34bf44420451","ios":"levelo://app?vid=0aa226e6-2195-431b-bdc4-34bf44420451"},"vehicle_type_id":"4","last_reported":1722100038,"current_range_meters":26400,"station_id":"","pricing_plan_id":"cebpf4jnsgd1na2vs0mg"},{"bike_id":"20a7bf81-31fd-4cb5-b454-68d5314a31b8","system_id":"levelo_inurba_marseille","lat":43.337432,"lon":5.374679,"is_reserved":false,"is_disabled":false,"rental_uris":{"android":"levelo://app?vid=20a7bf81-31fd-4cb5-b454-68d5314a31b8","ios":"levelo://app?vid=20a7bf81-31fd-4cb5-b454-68d5314a31b8"},"vehicle_type_id":"4","last_reported":1722100038,"current_range_meters":30400,"station_id":"","pricing_plan_id":"cebpf4jnsgd1na2vs0mg"},{"bike_id":"6cf0c176-f7c0-4e29-a014-f3a3b29e1d2a","system_id":"levelo_inurba_marseille","lat":43.337471,"lon":5.374444,"is_reserved":false,"is_disabled":false,"rental_uris":{"android":"levelo://app?vid=6cf0c176-f7c0-4e29-a014-f3a3b29e1d2a","ios":"levelo://app?vid=6cf0c176-f7c0-4e29-a014-f3a3b29e1d2a"},"vehicle_type_id":"4","last_reported":1722100038,"current_range_meters":28000,"station_id":"","pricing_plan_id":"cebpf4jnsgd1na2vs0mg"},{"bike_id":"28ff567c-281c-4a43-913e-e1206badf942","system_id":"levelo_inurba_marseille","lat":43.337432,"lon":5.374698,"is_reserved":false,"is_disabled":false,"rental_uris":{"android":"levelo://app?vid=28ff567c-281c-4a43-913e-e1206badf942","ios":"levelo://app?vid=28ff567c-281c-4a43-913e-e1206badf942"},"vehicle_type_id":"4","last_reported":1722100038,"current_range_meters":25200,"station_id":"","pricing_plan_id":"cebpf4jnsgd1na2vs0mg"},{"bike_id":"f0338c4f-2f14-449f-abf8-25e44f36ca55","system_id":"levelo_inurba_marseille","lat":43.337503,"lon":5.374507,"is_reserved":false,"is_disabled":false,"rental_uris":{"android":"levelo://app?vid=f0338c4f-2f14-449f-abf8-25e44f36ca55","ios":"levelo://app?vid=f0338c4f-2f14-449f-abf8-25e44f36ca55"},"vehicle_type_id":"4","last_reported":1722100038,"current_range_meters":29200,"station_id":"","pricing_plan_id":"cebpf4jnsgd1na2vs0mg"},{"bike_id":"149ad317-2977-4c2d-b9af-065d2c29d5b4","system_id":"levelo_inurba_marseille","lat":43.287808,"lon":5.373669,"is_reserved":false,"is_disabled":false,"rental_uris":{"android":"levelo://app?vid=149ad317-2977-4c2d-b9af-065d2c29d5b4","ios":"levelo://app?vid=149ad317-2977-4c2d-b9af-065d2c29d5b4"},"vehicle_type_id":"4","last_reported":1722100038,"current_range_meters":16400,"station_id":"","pricing_plan_id":"cebpf4jnsgd1na2vs0mg"},{"bike_id":"ce2a281f-6b17-464e-8289-d463ea4cfa07","system_id":"levelo_inurba_marseille","lat":43.337553,"lon":5.374554,"is_reserved":false,"is_disabled":false,"rental_uris":{"android":"levelo://app?vid=ce2a281f-6b17-464e-8289-d463ea4cfa07","ios":"levelo://app?vid=ce2a281f-6b17-464e-8289-d463ea4cfa07"},"vehicle_type_id":"4","last_reported":1722100038,"current_range_meters":29200,"station_id":"","pricing_plan_id":"cebpf4jnsgd1na2vs0mg"},{"bike_id":"b9d59321-cae1-4db4-a127-ab4347429dc3","system_id":"levelo_inurba_marseille","lat":43.306467,"lon":5.400887,"is_reserved":false,"is_disabled":false,"rental_uris":{"android":"levelo://app?vid=b9d59321-cae1-4db4-a127-ab4347429dc3","ios":"levelo://app?vid=b9d59321-cae1-4db4-a127-ab4347429dc3"},"vehicle_type_id":"4","last_reported":1722100038,"current_range_meters":0,"station_id":"ce4bh112rcd13ifvqda0","pricing_plan_id":"cebpf4jnsgd1na2vs0mg"},{"bike_id":"7b29408c-802b-42d5-b88c-7e2504c05c44","system_id":"levelo_inurba_marseille","lat":43.301117,"lon":5.398795,"is_reserved":false,"is_disabled":false,"rental_uris":{"android":"levelo://app?vid=7b29408c-802b-42d5-b88c-7e2504c05c44","ios":"levelo://app?vid=7b29408c-802b-42d5-b88c-7e2504c05c44"},"vehicle_type_id":"4","last_reported":1722100038,"current_range_meters":28800,"station_id":"ce4bh0h2rcd13ifvqd40","pricing_plan_id":"cebpf4jnsgd1na2vs0mg"},{"bike_id":"95cd5fba-0c4f-4e48-8d69-cfc856d891fd","system_id":"levelo_inurba_marseille","lat":43.301117,"lon":5.398795,"is_reserved":false,"is_disabled":false,"rental_uris":{"android":"levelo://app?vid=95cd5fba-0c4f-4e48-8d69-cfc856d891fd","ios":"levelo://app?vid=95cd5fba-0c4f-4e48-8d69-cfc856d891fd"},"vehicle_type_id":"4","last_reported":1722100038,"current_range_meters":2400,"station_id":"ce4bh0h2rcd13ifvqd40","pricing_plan_id":"cebpf4jnsgd1na2vs0mg"},{"bike_id":"39f878db-f3ce-43cb-b4ab-cd46bff00a06","system_id":"levelo_inurba_marseille","lat":43.301117,"lon":5.398795,"is_reserved":false,"is_disabled":false,"rental_uris":{"android":"levelo://app?vid=39f878db-f3ce-43cb-b4ab-cd46bff00a06","ios":"levelo://app?vid=39f878db-f3ce-43cb-b4ab-cd46bff00a06"},"vehicle_type_id":"4","last_reported":1722100038,"current_range_meters":18800,"station_id":"ce4bh0h2rcd13ifvqd40","pricing_plan_id":"cebpf4jnsgd1na2vs0mg"},{"bike_id":"855595e1-9b66-4e9f-8320-b8c2e5c001f1","system_id":"levelo_inurba_marseille","lat":43.28727,"lon":5.36078,"is_reserved":false,"is_disabled":false,"rental_uris":{"android":"levelo://app?vid=855595e1-9b66-4e9f-8320-b8c2e5c001f1","ios":"levelo://app?vid=855595e1-9b66-4e9f-8320-b8c2e5c001f1"},"vehicle_type_id":"4","last_reported":1722100038,"current_range_meters":10000,"station_id":"cki0cbj6b192h4jlfktg","pricing_plan_id":"cebpf4jnsgd1na2vs0mg"},{"bike_id":"98e28a0b-824e-456d-948f-e691bd563968","system_id":"levelo_inurba_marseille","lat":43.301117,"lon":5.398795,"is_reserved":false,"is_disabled":false,"rental_uris":{"android":"levelo://app?vid=98e28a0b-824e-456d-948f-e691bd563968","ios":"levelo://app?vid=98e28a0b-824e-456d-948f-e691bd563968"},"vehicle_type_id":"4","last_reported":1722100038,"current_range_meters":21600,"station_id":"ce4bh0h2rcd13ifvqd40","pricing_plan_id":"cebpf4jnsgd1na2vs0mg"},{"bike_id":"0111e92d-b8e8-45bc-85cc-b15320569b62","system_id":"levelo_inurba_marseille","lat":43.298681,"lon":5.397225,"is_reserved":false,"is_disabled":false,"rental_uris":{"android":"levelo://app?vid=0111e92d-b8e8-45bc-85cc-b15320569b62","ios":"levelo://app?vid=0111e92d-b8e8-45bc-85cc-b15320569b62"},"vehicle_type_id":"4","last_reported":1722100038,"current_range_meters":10000,"station_id":"ce4bh0h2rcd13ifvqd50","pricing_plan_id":"cebpf4jnsgd1na2vs0mg"},{"bike_id":"290a2834-2ed2-4b79-a874-b7e2709a23c3","system_id":"levelo_inurba_marseille","lat":43.286588,"lon":5.363582,"is_reserved":false,"is_disabled":false,"rental_uris":{"android":"levelo://app?vid=290a2834-2ed2-4b79-a874-b7e2709a23c3","ios":"levelo://app?vid=290a2834-2ed2-4b79-a874-b7e2709a23c3"},"vehicle_type_id":"4","last_reported":1722100038,"current_range_meters":0,"station_id":"ce4bhah2rcd13ifvqej0","pricing_plan_id":"cebpf4jnsgd1na2vs0mg"},{"bike_id":"b5eb026e-2a38-48df-a489-beb2e46f4ed1","system_id":"levelo_inurba_marseille","lat":43.298681,"lon":5.397225,"is_reserved":false,"is_disabled":false,"rental_uris":{"android":"levelo://app?vid=b5eb026e-2a38-48df-a489-beb2e46f4ed1","ios":"levelo://app?vid=b5eb026e-2a38-48df-a489-beb2e46f4ed1"},"vehicle_type_id":"4","last_reported":1722100038,"current_range_meters":0,"station_id":"ce4bh0h2rcd13ifvqd50","pricing_plan_id":"cebpf4jnsgd1na2vs0mg"},{"bike_id":"f97582dc-f45b-4947-8fab-e4776c91d3d0","system_id":"levelo_inurba_marseille","lat":43.28656,"lon":5.363536,"is_reserved":false,"is_disabled":false,"rental_uris":{"android":"levelo://app?vid=f97582dc-f45b-4947-8fab-e4776c91d3d0","ios":"levelo://app?vid=f97582dc-f45b-4947-8fab-e4776c91d3d0"},"vehicle_type_id":"4","last_reported":1722100038,"current_range_meters":0,"station_id":"ce4bhah2rcd13ifvqej0","pricing_plan_id":"cebpf4jnsgd1na2vs0mg"},{"bike_id":"dd918ae1-8599-4f44-a48c-97d96d359964","system_id":"levelo_inurba_marseille","lat":43.289307,"lon":5.38406,"is_reserved":false,"is_disabled":false,"rental_uris":{"android":"levelo://app?vid=dd918ae1-8599-4f44-a48c-97d96d359964","ios":"levelo://app?vid=dd918ae1-8599-4f44-a48c-97d96d359964"},"vehicle_type_id":"4","last_reported":1722100038,"current_range_meters":1600,"station_id":"ce4bh612rcd13ifvqe6g","pricing_plan_id":"cebpf4jnsgd1na2vs0mg"},{"bike_id":"eba3b857-8aee-43bc-8f5a-f497dffe9db8","system_id":"levelo_inurba_marseille","lat":43.302759,"lon":5.400793,"is_reserved":false,"is_disabled":false,"rental_uris":{"android":"levelo://app?vid=eba3b857-8aee-43bc-8f5a-f497dffe9db8","ios":"levelo://app?vid=eba3b857-8aee-43bc-8f5a-f497dffe9db8"},"vehicle_type_id":"4","last_reported":1722100038,"current_range_meters":23600,"station_id":"ce4bgvh2rcd13ifvqcs0","pricing_plan_id":"cebpf4jnsgd1na2vs0mg"},{"bike_id":"ea35059c-c606-4a48-a5df-b13d6f8c421a","system_id":"levelo_inurba_marseille","lat":43.290317,"lon":5.3864,"is_reserved":false,"is_disabled":false,"rental_uris":{"android":"levelo://app?vid=ea35059c-c606-4a48-a5df-b13d6f8c421a","ios":"levelo://app?vid=ea35059c-c606-4a48-a5df-b13d6f8c421a"},"vehicle_type_id":"4","last_reported":1722100038,"current_range_meters":8400,"station_id":"","pricing_plan_id":"cebpf4jnsgd1na2vs0mg"},{"bike_id":"7a95c27d-7e32-4444-aa8d-aa4074072460","system_id":"levelo_inurba_marseille","lat":43.29028,"lon":5.38635,"is_reserved":false,"is_disabled":false,"rental_uris":{"android":"levelo://app?vid=7a95c27d-7e32-4444-aa8d-aa4074072460","ios":"levelo://app?vid=7a95c27d-7e32-4444-aa8d-aa4074072460"},"vehicle_type_id":"4","last_reported":1722100038,"current_range_meters":0,"station_id":"ce4bh4p2rcd13ifvqe0g","pricing_plan_id":"cebpf4jnsgd1na2vs0mg"},{"bike_id":"244d3472-a409-4b57-bd4b-e27194a78a08","system_id":"levelo_inurba_marseille","lat":43.289307,"lon":5.38406,"is_reserved":false,"is_disabled":false,"rental_uris":{"android":"levelo://app?vid=244d3472-a409-4b57-bd4b-e27194a78a08","ios":"levelo://app?vid=244d3472-a409-4b57-bd4b-e27194a78a08"},"vehicle_type_id":"4","last_reported":1722100038,"current_range_meters":5200,"station_id":"ce4bh612rcd13ifvqe6g","pricing_plan_id":"cebpf4jnsgd1na2vs0mg"},{"bike_id":"5b2db3fc-ded6-4293-989b-32194a4eae7d","system_id":"levelo_inurba_marseille","lat":43.28923,"lon":5.38391,"is_reserved":false,"is_disabled":false,"rental_uris":{"android":"levelo://app?vid=5b2db3fc-ded6-4293-989b-32194a4eae7d","ios":"levelo://app?vid=5b2db3fc-ded6-4293-989b-32194a4eae7d"},"vehicle_type_id":"4","last_reported":1722100038,"current_range_meters":29200,"station_id":"ce4bh612rcd13ifvqe6g","pricing_plan_id":"cebpf4jnsgd1na2vs0mg"},{"bike_id":"c9872cac-76ba-497f-a4b0-1c61b020dd60","system_id":"levelo_inurba_marseille","lat":43.29028,"lon":5.38642,"is_reserved":false,"is_disabled":false,"rental_uris":{"android":"levelo://app?vid=c9872cac-76ba-497f-a4b0-1c61b020dd60","ios":"levelo://app?vid=c9872cac-76ba-497f-a4b0-1c61b020dd60"},"vehicle_type_id":"4","last_reported":1722100038,"current_range_meters":0,"station_id":"ce4bh4p2rcd13ifvqe0g","pricing_plan_id":"cebpf4jnsgd1na2vs0mg"},{"bike_id":"eca8ecaa-d9e4-4344-be56-d7c25b391f1f","system_id":"levelo_inurba_marseille","lat":43.29032,"lon":5.38651,"is_reserved":false,"is_disabled":false,"rental_uris":{"android":"levelo://app?vid=eca8ecaa-d9e4-4344-be56-d7c25b391f1f","ios":"levelo://app?vid=eca8ecaa-d9e4-4344-be56-d7c25b391f1f"},"vehicle_type_id":"4","last_reported":1722100038,"current_range_meters":5200,"station_id":"ce4bh4p2rcd13ifvqe0g","pricing_plan_id":"cebpf4jnsgd1na2vs0mg"},{"bike_id":"7164a74b-ac59-4cca-b9b8-fd09d73de2ec","system_id":"levelo_inurba_marseille","lat":43.290336,"lon":5.386425,"is_reserved":false,"is_disabled":false,"rental_uris":{"android":"levelo://app?vid=7164a74b-ac59-4cca-b9b8-fd09d73de2ec","ios":"levelo://app?vid=7164a74b-ac59-4cca-b9b8-fd09d73de2ec"},"vehicle_type_id":"4","last_reported":1722100038,"current_range_meters":12000,"station_id":"ce4bh4p2rcd13ifvqe0g","pricing_plan_id":"cebpf4jnsgd1na2vs0mg"},{"bike_id":"daacf1c1-af6f-49c5-8048-0071d8307ea1","system_id":"levelo_inurba_marseille","lat":43.302759,"lon":5.400793,"is_reserved":false,"is_disabled":false,"rental_uris":{"android":"levelo://app?vid=daacf1c1-af6f-49c5-8048-0071d8307ea1","ios":"levelo://app?vid=daacf1c1-af6f-49c5-8048-0071d8307ea1"},"vehicle_type_id":"4","last_reported":1722100038,"current_range_meters":4400,"station_id":"ce4bgvh2rcd13ifvqcs0","pricing_plan_id":"cebpf4jnsgd1na2vs0mg"},{"bike_id":"ce8f32c6-4cc4-466f-9c92-39cd0ec7b093","system_id":"levelo_inurba_marseille","lat":43.286039,"lon":5.370679,"is_reserved":false,"is_disabled":false,"rental_uris":{"android":"levelo://app?vid=ce8f32c6-4cc4-466f-9c92-39cd0ec7b093","ios":"levelo://app?vid=ce8f32c6-4cc4-466f-9c92-39cd0ec7b093"},"vehicle_type_id":"4","last_reported":1722100038,"current_range_meters":2400,"station_id":"ce4bht12rcd13ifvqi60","pricing_plan_id":"cebpf4jnsgd1na2vs0mg"},{"bike_id":"21f45e9a-7d20-450b-8f12-3d96701d53ed","system_id":"levelo_inurba_marseille","lat":43.314021,"lon":5.403992,"is_reserved":false,"is_disabled":false,"rental_uris":{"android":"levelo://app?vid=21f45e9a-7d20-450b-8f12-3d96701d53ed","ios":"levelo://app?vid=21f45e9a-7d20-450b-8f12-3d96701d53ed"},"vehicle_type_id":"4","last_reported":1722100038,"current_range_meters":0,"station_id":"","pricing_plan_id":"cebpf4jnsgd1na2vs0mg"},{"bike_id":"176feb70-7ff2-4f2b-b52b-c514a50a0ae6","system_id":"levelo_inurba_marseille","lat":43.28723,"lon":5.37939,"is_reserved":false,"is_disabled":false,"rental_uris":{"android":"levelo://app?vid=176feb70-7ff2-4f2b-b52b-c514a50a0ae6","ios":"levelo://app?vid=176feb70-7ff2-4f2b-b52b-c514a50a0ae6"},"vehicle_type_id":"4","last_reported":1722100038,"current_range_meters":0,"station_id":"ce4bh9p2rcd13ifvqec0","pricing_plan_id":"cebpf4jnsgd1na2vs0mg"},{"bike_id":"3334a314-9823-4a24-a0da-59c7b71f13e3","system_id":"levelo_inurba_marseille","lat":43.289541,"lon":5.386866,"is_reserved":false,"is_disabled":false,"rental_uris":{"android":"levelo://app?vid=3334a314-9823-4a24-a0da-59c7b71f13e3","ios":"levelo://app?vid=3334a314-9823-4a24-a0da-59c7b71f13e3"},"vehicle_type_id":"4","last_reported":1722100038,"current_range_meters":3200,"station_id":"","pricing_plan_id":"cebpf4jnsgd1na2vs0mg"},{"bike_id":"f62e8511-0030-4fa5-bb03-459dfa467e13","system_id":"levelo_inurba_marseille","lat":43.316828,"lon":5.404723,"is_reserved":false,"is_disabled":false,"rental_uris":{"android":"levelo://app?vid=f62e8511-0030-4fa5-bb03-459dfa467e13","ios":"levelo://app?vid=f62e8511-0030-4fa5-bb03-459dfa467e13"},"vehicle_type_id":"4","last_reported":1722100038,"current_range_meters":4800,"station_id":"ce4bh012rcd13ifvqd00","pricing_plan_id":"cebpf4jnsgd1na2vs0mg"},{"bike_id":"e9c4636d-4149-4fe2-9fc1-b301a7e0ecf4","system_id":"levelo_inurba_marseille","lat":43.316828,"lon":5.404723,"is_reserved":false,"is_disabled":false,"rental_uris":{"android":"levelo://app?vid=e9c4636d-4149-4fe2-9fc1-b301a7e0ecf4","ios":"levelo://app?vid=e9c4636d-4149-4fe2-9fc1-b301a7e0ecf4"},"vehicle_type_id":"4","last_reported":1722100038,"current_range_meters":15600,"station_id":"ce4bh012rcd13ifvqd00","pricing_plan_id":"cebpf4jnsgd1na2vs0mg"},{"bike_id":"bdc101ac-57b1-4622-a6d2-ef74e59700d2","system_id":"levelo_inurba_marseille","lat":43.291994,"lon":5.392907,"is_reserved":false,"is_disabled":false,"rental_uris":{"android":"levelo://app?vid=bdc101ac-57b1-4622-a6d2-ef74e59700d2","ios":"levelo://app?vid=bdc101ac-57b1-4622-a6d2-ef74e59700d2"},"vehicle_type_id":"4","last_reported":1722100038,"current_range_meters":31200,"station_id":"ce4bh192rcd13ifvqdd0","pricing_plan_id":"cebpf4jnsgd1na2vs0mg"},{"bike_id":"6ccf8031-bc5d-4731-a0ac-539f821074f1","system_id":"levelo_inurba_marseille","lat":43.291994,"lon":5.392907,"is_reserved":false,"is_disabled":false,"rental_uris":{"android":"levelo://app?vid=6ccf8031-bc5d-4731-a0ac-539f821074f1","ios":"levelo://app?vid=6ccf8031-bc5d-4731-a0ac-539f821074f1"},"vehicle_type_id":"4","last_reported":1722100038,"current_range_meters":15600,"station_id":"ce4bh192rcd13ifvqdd0","pricing_plan_id":"cebpf4jnsgd1na2vs0mg"},{"bike_id":"bb1be8c2-6551-4e36-883e-6200cfadcfa7","system_id":"levelo_inurba_marseille","lat":43.28463,"lon":5.35891,"is_reserved":false,"is_disabled":false,"rental_uris":{"android":"levelo://app?vid=bb1be8c2-6551-4e36-883e-6200cfadcfa7","ios":"levelo://app?vid=bb1be8c2-6551-4e36-883e-6200cfadcfa7"},"vehicle_type_id":"4","last_reported":1722100038,"current_range_meters":11200,"station_id":"ce4bhah2rcd13ifvqei0","pricing_plan_id":"cebpf4jnsgd1na2vs0mg"},{"bike_id":"422957fd-1c72-4e33-b37a-b9bba039282a","system_id":"levelo_inurba_marseille","lat":43.284538,"lon":5.358657,"is_reserved":false,"is_disabled":false,"rental_uris":{"android":"levelo://app?vid=422957fd-1c72-4e33-b37a-b9bba039282a","ios":"levelo://app?vid=422957fd-1c72-4e33-b37a-b9bba039282a"},"vehicle_type_id":"4","last_reported":1722100038,"current_range_meters":27200,"station_id":"ce4bhah2rcd13ifvqei0","pricing_plan_id":"cebpf4jnsgd1na2vs0mg"},{"bike_id":"d529045c-4fca-4488-ab03-7055f0bde83e","system_id":"levelo_inurba_marseille","lat":43.284534,"lon":5.358662,"is_reserved":false,"is_disabled":false,"rental_uris":{"android":"levelo://app?vid=d529045c-4fca-4488-ab03-7055f0bde83e","ios":"levelo://app?vid=d529045c-4fca-4488-ab03-7055f0bde83e"},"vehicle_type_id":"4","last_reported":1722100038,"current_range_meters":6400,"station_id":"ce4bhah2rcd13ifvqei0","pricing_plan_id":"cebpf4jnsgd1na2vs0mg"},{"bike_id":"a071796e-20d9-4a30-b05c-ed5cf590f849","system_id":"levelo_inurba_marseille","lat":43.28459,"lon":5.35887,"is_reserved":false,"is_disabled":false,"rental_uris":{"android":"levelo://app?vid=a071796e-20d9-4a30-b05c-ed5cf590f849","ios":"levelo://app?vid=a071796e-20d9-4a30-b05c-ed5cf590f849"},"vehicle_type_id":"4","last_reported":1722100038,"current_range_meters":0,"station_id":"ce4bhah2rcd13ifvqei0","pricing_plan_id":"cebpf4jnsgd1na2vs0mg"},{"bike_id":"ee724e72-5241-4af6-9256-d4bfe63f2510","system_id":"levelo_inurba_marseille","lat":43.28458,"lon":5.35891,"is_reserved":false,"is_disabled":false,"rental_uris":{"android":"levelo://app?vid=ee724e72-5241-4af6-9256-d4bfe63f2510","ios":"levelo://app?vid=ee724e72-5241-4af6-9256-d4bfe63f2510"},"vehicle_type_id":"4","last_reported":1722100038,"current_range_meters":0,"station_id":"ce4bhah2rcd13ifvqei0","pricing_plan_id":"cebpf4jnsgd1na2vs0mg"},{"bike_id":"2a7ca6ff-bfdc-49c8-8b3f-da0372eefd2f","system_id":"levelo_inurba_marseille","lat":43.28457,"lon":5.35886,"is_reserved":false,"is_disabled":false,"rental_uris":{"android":"levelo://app?vid=2a7ca6ff-bfdc-49c8-8b3f-da0372eefd2f","ios":"levelo://app?vid=2a7ca6ff-bfdc-49c8-8b3f-da0372eefd2f"},"vehicle_type_id":"4","last_reported":1722100038,"current_range_meters":0,"station_id":"ce4bhah2rcd13ifvqei0","pricing_plan_id":"cebpf4jnsgd1na2vs0mg"},{"bike_id":"0547f18c-a396-4281-8744-ebd4774acdc0","system_id":"levelo_inurba_marseille","lat":43.284534,"lon":5.358662,"is_reserved":false,"is_disabled":false,"rental_uris":{"android":"levelo://app?vid=0547f18c-a396-4281-8744-ebd4774acdc0","ios":"levelo://app?vid=0547f18c-a396-4281-8744-ebd4774acdc0"},"vehicle_type_id":"4","last_reported":1722100038,"current_range_meters":16400,"station_id":"ce4bhah2rcd13ifvqei0","pricing_plan_id":"cebpf4jnsgd1na2vs0mg"},{"bike_id":"e3e176f9-5bbf-427e-bae8-665c9573280a","system_id":"levelo_inurba_marseille","lat":43.28455,"lon":5.35889,"is_reserved":false,"is_disabled":false,"rental_uris":{"android":"levelo://app?vid=e3e176f9-5bbf-427e-bae8-665c9573280a","ios":"levelo://app?vid=e3e176f9-5bbf-427e-bae8-665c9573280a"},"vehicle_type_id":"4","last_reported":1722100038,"current_range_meters":26800,"station_id":"ce4bhah2rcd13ifvqei0","pricing_plan_id":"cebpf4jnsgd1na2vs0mg"},{"bike_id":"bc2d47a5-0fc2-49f0-ba7a-9a0231b12f1f","system_id":"levelo_inurba_marseille","lat":43.294314,"lon":5.397498,"is_reserved":false,"is_disabled":false,"rental_uris":{"android":"levelo://app?vid=bc2d47a5-0fc2-49f0-ba7a-9a0231b12f1f","ios":"levelo://app?vid=bc2d47a5-0fc2-49f0-ba7a-9a0231b12f1f"},"vehicle_type_id":"4","last_reported":1722100038,"current_range_meters":0,"station_id":"ce4bh3h2rcd13ifvqdo0","pricing_plan_id":"cebpf4jnsgd1na2vs0mg"},{"bike_id":"68bb63a8-7384-4d6e-ab57-2958112d4a1d","system_id":"levelo_inurba_marseille","lat":43.28624,"lon":5.35108,"is_reserved":false,"is_disabled":false,"rental_uris":{"android":"levelo://app?vid=68bb63a8-7384-4d6e-ab57-2958112d4a1d","ios":"levelo://app?vid=68bb63a8-7384-4d6e-ab57-2958112d4a1d"},"vehicle_type_id":"4","last_reported":1722100038,"current_range_meters":0,"station_id":"ce4bhch2rcd13ifvqeug","pricing_plan_id":"cebpf4jnsgd1na2vs0mg"},{"bike_id":"f23b239a-2a52-47ce-9246-d86df7967a03","system_id":"levelo_inurba_marseille","lat":43.2862,"lon":5.35102,"is_reserved":false,"is_disabled":false,"rental_uris":{"android":"levelo://app?vid=f23b239a-2a52-47ce-9246-d86df7967a03","ios":"levelo://app?vid=f23b239a-2a52-47ce-9246-d86df7967a03"},"vehicle_type_id":"4","last_reported":1722100038,"current_range_meters":25600,"station_id":"ce4bhch2rcd13ifvqeug","pricing_plan_id":"cebpf4jnsgd1na2vs0mg"},{"bike_id":"6e9ae5a9-d756-49ef-b502-6fbf66711372","system_id":"levelo_inurba_marseille","lat":43.28616,"lon":5.35111,"is_reserved":false,"is_disabled":false,"rental_uris":{"android":"levelo://app?vid=6e9ae5a9-d756-49ef-b502-6fbf66711372","ios":"levelo://app?vid=6e9ae5a9-d756-49ef-b502-6fbf66711372"},"vehicle_type_id":"4","last_reported":1722100038,"current_range_meters":0,"station_id":"ce4bhch2rcd13ifvqeug","pricing_plan_id":"cebpf4jnsgd1na2vs0mg"},{"bike_id":"4155c4be-b93d-49b7-86ad-c3bf6270891f","system_id":"levelo_inurba_marseille","lat":43.28616,"lon":5.35102,"is_reserved":false,"is_disabled":false,"rental_uris":{"android":"levelo://app?vid=4155c4be-b93d-49b7-86ad-c3bf6270891f","ios":"levelo://app?vid=4155c4be-b93d-49b7-86ad-c3bf6270891f"},"vehicle_type_id":"4","last_reported":1722100038,"current_range_meters":0,"station_id":"ce4bhch2rcd13ifvqeug","pricing_plan_id":"cebpf4jnsgd1na2vs0mg"},{"bike_id":"af1b5e21-377f-49bb-9c2f-83eef7e957ed","system_id":"levelo_inurba_marseille","lat":43.285856,"lon":5.350771,"is_reserved":false,"is_disabled":false,"rental_uris":{"android":"levelo://app?vid=af1b5e21-377f-49bb-9c2f-83eef7e957ed","ios":"levelo://app?vid=af1b5e21-377f-49bb-9c2f-83eef7e957ed"},"vehicle_type_id":"4","last_reported":1722100038,"current_range_meters":10000,"station_id":"ce4bhch2rcd13ifvqeug","pricing_plan_id":"cebpf4jnsgd1na2vs0mg"},{"bike_id":"6fbed6e4-7e60-451c-9e6f-12f5ac688b8d","system_id":"levelo_inurba_marseille","lat":43.28616,"lon":5.35099,"is_reserved":false,"is_disabled":false,"rental_uris":{"android":"levelo://app?vid=6fbed6e4-7e60-451c-9e6f-12f5ac688b8d","ios":"levelo://app?vid=6fbed6e4-7e60-451c-9e6f-12f5ac688b8d"},"vehicle_type_id":"4","last_reported":1722100038,"current_range_meters":2800,"station_id":"ce4bhch2rcd13ifvqeug","pricing_plan_id":"cebpf4jnsgd1na2vs0mg"},{"bike_id":"9d834978-f3f5-47b2-91c0-392e930d8384","system_id":"levelo_inurba_marseille","lat":43.28615,"lon":5.35099,"is_reserved":false,"is_disabled":false,"rental_uris":{"android":"levelo://app?vid=9d834978-f3f5-47b2-91c0-392e930d8384","ios":"levelo://app?vid=9d834978-f3f5-47b2-91c0-392e930d8384"},"vehicle_type_id":"4","last_reported":1722100038,"current_range_meters":400,"station_id":"ce4bhch2rcd13ifvqeug","pricing_plan_id":"cebpf4jnsgd1na2vs0mg"},{"bike_id":"2b97ef34-b688-4b26-9d10-45c11cd6321b","system_id":"levelo_inurba_marseille","lat":43.28609,"lon":5.35101,"is_reserved":false,"is_disabled":false,"rental_uris":{"android":"levelo://app?vid=2b97ef34-b688-4b26-9d10-45c11cd6321b","ios":"levelo://app?vid=2b97ef34-b688-4b26-9d10-45c11cd6321b"},"vehicle_type_id":"4","last_reported":1722100038,"current_range_meters":0,"station_id":"ce4bhch2rcd13ifvqeug","pricing_plan_id":"cebpf4jnsgd1na2vs0mg"},{"bike_id":"8399d982-4a71-4452-8746-81f0bf2d15f4","system_id":"levelo_inurba_marseille","lat":43.28405,"lon":5.37526,"is_reserved":false,"is_disabled":false,"rental_uris":{"android":"levelo://app?vid=8399d982-4a71-4452-8746-81f0bf2d15f4","ios":"levelo://app?vid=8399d982-4a71-4452-8746-81f0bf2d15f4"},"vehicle_type_id":"4","last_reported":1722100038,"current_range_meters":0,"station_id":"ce4bh412rcd13ifvqds0","pricing_plan_id":"cebpf4jnsgd1na2vs0mg"},{"bike_id":"dd7e6c10-7461-41aa-bdb6-362630bf97ac","system_id":"levelo_inurba_marseille","lat":43.283998,"lon":5.375062,"is_reserved":false,"is_disabled":false,"rental_uris":{"android":"levelo://app?vid=dd7e6c10-7461-41aa-bdb6-362630bf97ac","ios":"levelo://app?vid=dd7e6c10-7461-41aa-bdb6-362630bf97ac"},"vehicle_type_id":"4","last_reported":1722100038,"current_range_meters":29600,"station_id":"ce4bh412rcd13ifvqds0","pricing_plan_id":"cebpf4jnsgd1na2vs0mg"},{"bike_id":"b92245eb-623a-43c1-8958-b77e9b5b26cf","system_id":"levelo_inurba_marseille","lat":43.286595,"lon":5.386795,"is_reserved":false,"is_disabled":false,"rental_uris":{"android":"levelo://app?vid=b92245eb-623a-43c1-8958-b77e9b5b26cf","ios":"levelo://app?vid=b92245eb-623a-43c1-8958-b77e9b5b26cf"},"vehicle_type_id":"4","last_reported":1722100038,"current_range_meters":0,"station_id":"ce4bh492rcd13ifvqdug","pricing_plan_id":"cebpf4jnsgd1na2vs0mg"},{"bike_id":"f8dbd7da-b23e-4b63-bf1a-aa49196f7e43","system_id":"levelo_inurba_marseille","lat":43.286595,"lon":5.386795,"is_reserved":false,"is_disabled":false,"rental_uris":{"android":"levelo://app?vid=f8dbd7da-b23e-4b63-bf1a-aa49196f7e43","ios":"levelo://app?vid=f8dbd7da-b23e-4b63-bf1a-aa49196f7e43"},"vehicle_type_id":"4","last_reported":1722100038,"current_range_meters":800,"station_id":"ce4bh492rcd13ifvqdug","pricing_plan_id":"cebpf4jnsgd1na2vs0mg"},{"bike_id":"004f02ae-cf34-48d5-a665-b5aacd25a4a6","system_id":"levelo_inurba_marseille","lat":43.28669,"lon":5.38659,"is_reserved":false,"is_disabled":false,"rental_uris":{"android":"levelo://app?vid=004f02ae-cf34-48d5-a665-b5aacd25a4a6","ios":"levelo://app?vid=004f02ae-cf34-48d5-a665-b5aacd25a4a6"},"vehicle_type_id":"4","last_reported":1722100038,"current_range_meters":14000,"station_id":"ce4bh492rcd13ifvqdug","pricing_plan_id":"cebpf4jnsgd1na2vs0mg"},{"bike_id":"b4e605c0-e663-4146-a631-c750cf077fec","system_id":"levelo_inurba_marseille","lat":43.28668,"lon":5.38663,"is_reserved":false,"is_disabled":false,"rental_uris":{"android":"levelo://app?vid=b4e605c0-e663-4146-a631-c750cf077fec","ios":"levelo://app?vid=b4e605c0-e663-4146-a631-c750cf077fec"},"vehicle_type_id":"4","last_reported":1722100038,"current_range_meters":5200,"station_id":"ce4bh492rcd13ifvqdug","pricing_plan_id":"cebpf4jnsgd1na2vs0mg"},{"bike_id":"097c4531-583a-4247-8256-29fca7197aa4","system_id":"levelo_inurba_marseille","lat":43.28665,"lon":5.38662,"is_reserved":false,"is_disabled":false,"rental_uris":{"android":"levelo://app?vid=097c4531-583a-4247-8256-29fca7197aa4","ios":"levelo://app?vid=097c4531-583a-4247-8256-29fca7197aa4"},"vehicle_type_id":"4","last_reported":1722100038,"current_range_meters":0,"station_id":"ce4bh492rcd13ifvqdug","pricing_plan_id":"cebpf4jnsgd1na2vs0mg"},{"bike_id":"540bdf5a-0bc8-4fde-b952-1420fb137db1","system_id":"levelo_inurba_marseille","lat":43.286595,"lon":5.386795,"is_reserved":false,"is_disabled":false,"rental_uris":{"android":"levelo://app?vid=540bdf5a-0bc8-4fde-b952-1420fb137db1","ios":"levelo://app?vid=540bdf5a-0bc8-4fde-b952-1420fb137db1"},"vehicle_type_id":"4","last_reported":1722100038,"current_range_meters":6400,"station_id":"ce4bh492rcd13ifvqdug","pricing_plan_id":"cebpf4jnsgd1na2vs0mg"},{"bike_id":"132733f4-0860-4169-a6a8-34e1072a26c7","system_id":"levelo_inurba_marseille","lat":43.284787,"lon":5.384116,"is_reserved":false,"is_disabled":false,"rental_uris":{"android":"levelo://app?vid=132733f4-0860-4169-a6a8-34e1072a26c7","ios":"levelo://app?vid=132733f4-0860-4169-a6a8-34e1072a26c7"},"vehicle_type_id":"4","last_reported":1722100038,"current_range_meters":2000,"station_id":"ce4bh512rcd13ifvqe3g","pricing_plan_id":"cebpf4jnsgd1na2vs0mg"},{"bike_id":"1b12d284-2d8e-4294-846c-d78d26f4e935","system_id":"levelo_inurba_marseille","lat":43.283498,"lon":5.380948,"is_reserved":false,"is_disabled":false,"rental_uris":{"android":"levelo://app?vid=1b12d284-2d8e-4294-846c-d78d26f4e935","ios":"levelo://app?vid=1b12d284-2d8e-4294-846c-d78d26f4e935"},"vehicle_type_id":"4","last_reported":1722100038,"current_range_meters":0,"station_id":"ce4bh412rcd13ifvqdr0","pricing_plan_id":"cebpf4jnsgd1na2vs0mg"},{"bike_id":"0caca55a-ab8c-4547-a377-05eb55790540","system_id":"levelo_inurba_marseille","lat":43.284776,"lon":5.385603,"is_reserved":false,"is_disabled":false,"rental_uris":{"android":"levelo://app?vid=0caca55a-ab8c-4547-a377-05eb55790540","ios":"levelo://app?vid=0caca55a-ab8c-4547-a377-05eb55790540"},"vehicle_type_id":"4","last_reported":1722100038,"current_range_meters":12800,"station_id":"ce4bh8p2rcd13ifvqeb0","pricing_plan_id":"cebpf4jnsgd1na2vs0mg"},{"bike_id":"187c30da-87e3-475a-b3e3-e5c4cfca1c77","system_id":"levelo_inurba_marseille","lat":43.284776,"lon":5.385603,"is_reserved":false,"is_disabled":false,"rental_uris":{"android":"levelo://app?vid=187c30da-87e3-475a-b3e3-e5c4cfca1c77","ios":"levelo://app?vid=187c30da-87e3-475a-b3e3-e5c4cfca1c77"},"vehicle_type_id":"4","last_reported":1722100038,"current_range_meters":9200,"station_id":"ce4bh8p2rcd13ifvqeb0","pricing_plan_id":"cebpf4jnsgd1na2vs0mg"},{"bike_id":"9b439ee5-9a2f-4031-adda-e93282f9f8ca","system_id":"levelo_inurba_marseille","lat":43.283494,"lon":5.380945,"is_reserved":false,"is_disabled":false,"rental_uris":{"android":"levelo://app?vid=9b439ee5-9a2f-4031-adda-e93282f9f8ca","ios":"levelo://app?vid=9b439ee5-9a2f-4031-adda-e93282f9f8ca"},"vehicle_type_id":"4","last_reported":1722100038,"current_range_meters":2800,"station_id":"ce4bh412rcd13ifvqdr0","pricing_plan_id":"cebpf4jnsgd1na2vs0mg"},{"bike_id":"e42b183c-4317-4845-aec7-7c0a2829a3fe","system_id":"levelo_inurba_marseille","lat":43.284776,"lon":5.385603,"is_reserved":false,"is_disabled":false,"rental_uris":{"android":"levelo://app?vid=e42b183c-4317-4845-aec7-7c0a2829a3fe","ios":"levelo://app?vid=e42b183c-4317-4845-aec7-7c0a2829a3fe"},"vehicle_type_id":"4","last_reported":1722100038,"current_range_meters":14800,"station_id":"ce4bh8p2rcd13ifvqeb0","pricing_plan_id":"cebpf4jnsgd1na2vs0mg"},{"bike_id":"5ae3c16a-0fb7-4ef8-be10-5d58dcc1ea64","system_id":"levelo_inurba_marseille","lat":43.283494,"lon":5.380945,"is_reserved":false,"is_disabled":false,"rental_uris":{"android":"levelo://app?vid=5ae3c16a-0fb7-4ef8-be10-5d58dcc1ea64","ios":"levelo://app?vid=5ae3c16a-0fb7-4ef8-be10-5d58dcc1ea64"},"vehicle_type_id":"4","last_reported":1722100038,"current_range_meters":22400,"station_id":"ce4bh412rcd13ifvqdr0","pricing_plan_id":"cebpf4jnsgd1na2vs0mg"},{"bike_id":"ed49781a-9d0f-449b-8ad0-a50853d04083","system_id":"levelo_inurba_marseille","lat":43.284776,"lon":5.385603,"is_reserved":false,"is_disabled":false,"rental_uris":{"android":"levelo://app?vid=ed49781a-9d0f-449b-8ad0-a50853d04083","ios":"levelo://app?vid=ed49781a-9d0f-449b-8ad0-a50853d04083"},"vehicle_type_id":"4","last_reported":1722100038,"current_range_meters":12800,"station_id":"ce4bh8p2rcd13ifvqeb0","pricing_plan_id":"cebpf4jnsgd1na2vs0mg"},{"bike_id":"8a2f0a15-aea4-4e78-a2d0-ba25af6ad899","system_id":"levelo_inurba_marseille","lat":43.28429,"lon":5.34983,"is_reserved":false,"is_disabled":false,"rental_uris":{"android":"levelo://app?vid=8a2f0a15-aea4-4e78-a2d0-ba25af6ad899","ios":"levelo://app?vid=8a2f0a15-aea4-4e78-a2d0-ba25af6ad899"},"vehicle_type_id":"4","last_reported":1722100038,"current_range_meters":0,"station_id":"ce4bhbh2rcd13ifvqepg","pricing_plan_id":"cebpf4jnsgd1na2vs0mg"},{"bike_id":"332fb6ad-ebb8-4123-8341-dda294036f7c","system_id":"levelo_inurba_marseille","lat":43.284217,"lon":5.349697,"is_reserved":false,"is_disabled":false,"rental_uris":{"android":"levelo://app?vid=332fb6ad-ebb8-4123-8341-dda294036f7c","ios":"levelo://app?vid=332fb6ad-ebb8-4123-8341-dda294036f7c"},"vehicle_type_id":"4","last_reported":1722100038,"current_range_meters":0,"station_id":"ce4bhbh2rcd13ifvqepg","pricing_plan_id":"cebpf4jnsgd1na2vs0mg"},{"bike_id":"e408083c-cab0-476d-8a59-b043dd44f072","system_id":"levelo_inurba_marseille","lat":43.284219,"lon":5.3497,"is_reserved":false,"is_disabled":false,"rental_uris":{"android":"levelo://app?vid=e408083c-cab0-476d-8a59-b043dd44f072","ios":"levelo://app?vid=e408083c-cab0-476d-8a59-b043dd44f072"},"vehicle_type_id":"4","last_reported":1722100038,"current_range_meters":2000,"station_id":"ce4bhbh2rcd13ifvqepg","pricing_plan_id":"cebpf4jnsgd1na2vs0mg"},{"bike_id":"48023639-8ffe-4ccf-b023-49f7d24f778a","system_id":"levelo_inurba_marseille","lat":43.284248,"lon":5.349728,"is_reserved":false,"is_disabled":false,"rental_uris":{"android":"levelo://app?vid=48023639-8ffe-4ccf-b023-49f7d24f778a","ios":"levelo://app?vid=48023639-8ffe-4ccf-b023-49f7d24f778a"},"vehicle_type_id":"4","last_reported":1722100038,"current_range_meters":22000,"station_id":"ce4bhbh2rcd13ifvqepg","pricing_plan_id":"cebpf4jnsgd1na2vs0mg"},{"bike_id":"e97df6ea-9625-4efb-a062-21ee888a0f85","system_id":"levelo_inurba_marseille","lat":43.284219,"lon":5.3497,"is_reserved":false,"is_disabled":false,"rental_uris":{"android":"levelo://app?vid=e97df6ea-9625-4efb-a062-21ee888a0f85","ios":"levelo://app?vid=e97df6ea-9625-4efb-a062-21ee888a0f85"},"vehicle_type_id":"4","last_reported":1722100038,"current_range_meters":0,"station_id":"ce4bhbh2rcd13ifvqepg","pricing_plan_id":"cebpf4jnsgd1na2vs0mg"},{"bike_id":"d38c7893-0958-461c-aec7-509b65564cad","system_id":"levelo_inurba_marseille","lat":43.284217,"lon":5.349697,"is_reserved":false,"is_disabled":false,"rental_uris":{"android":"levelo://app?vid=d38c7893-0958-461c-aec7-509b65564cad","ios":"levelo://app?vid=d38c7893-0958-461c-aec7-509b65564cad"},"vehicle_type_id":"4","last_reported":1722100038,"current_range_meters":0,"station_id":"ce4bhbh2rcd13ifvqepg","pricing_plan_id":"cebpf4jnsgd1na2vs0mg"},{"bike_id":"887bc06b-7b3a-47dc-8628-b5771bc391a9","system_id":"levelo_inurba_marseille","lat":43.284214,"lon":5.349706,"is_reserved":false,"is_disabled":false,"rental_uris":{"android":"levelo://app?vid=887bc06b-7b3a-47dc-8628-b5771bc391a9","ios":"levelo://app?vid=887bc06b-7b3a-47dc-8628-b5771bc391a9"},"vehicle_type_id":"4","last_reported":1722100038,"current_range_meters":0,"station_id":"ce4bhbh2rcd13ifvqepg","pricing_plan_id":"cebpf4jnsgd1na2vs0mg"},{"bike_id":"bdfa1952-d9e3-4300-a79e-67c9b1d2a3ee","system_id":"levelo_inurba_marseille","lat":43.284217,"lon":5.349697,"is_reserved":false,"is_disabled":false,"rental_uris":{"android":"levelo://app?vid=bdfa1952-d9e3-4300-a79e-67c9b1d2a3ee","ios":"levelo://app?vid=bdfa1952-d9e3-4300-a79e-67c9b1d2a3ee"},"vehicle_type_id":"4","last_reported":1722100038,"current_range_meters":0,"station_id":"ce4bhbh2rcd13ifvqepg","pricing_plan_id":"cebpf4jnsgd1na2vs0mg"},{"bike_id":"90d54eba-1b04-4c6b-8400-505a910f4863","system_id":"levelo_inurba_marseille","lat":43.28939,"lon":5.39634,"is_reserved":false,"is_disabled":false,"rental_uris":{"android":"levelo://app?vid=90d54eba-1b04-4c6b-8400-505a910f4863","ios":"levelo://app?vid=90d54eba-1b04-4c6b-8400-505a910f4863"},"vehicle_type_id":"4","last_reported":1722100038,"current_range_meters":0,"station_id":"ce4bh3h2rcd13ifvqdn0","pricing_plan_id":"cebpf4jnsgd1na2vs0mg"},{"bike_id":"882189fc-becc-41a2-830d-ba629d291f60","system_id":"levelo_inurba_marseille","lat":43.289425,"lon":5.396417,"is_reserved":false,"is_disabled":false,"rental_uris":{"android":"levelo://app?vid=882189fc-becc-41a2-830d-ba629d291f60","ios":"levelo://app?vid=882189fc-becc-41a2-830d-ba629d291f60"},"vehicle_type_id":"4","last_reported":1722100038,"current_range_meters":0,"station_id":"ce4bh3h2rcd13ifvqdn0","pricing_plan_id":"cebpf4jnsgd1na2vs0mg"},{"bike_id":"8cb0ac2c-c97b-4a9b-87d9-e8ecbfea0110","system_id":"levelo_inurba_marseille","lat":43.292724,"lon":5.401131,"is_reserved":false,"is_disabled":false,"rental_uris":{"android":"levelo://app?vid=8cb0ac2c-c97b-4a9b-87d9-e8ecbfea0110","ios":"levelo://app?vid=8cb0ac2c-c97b-4a9b-87d9-e8ecbfea0110"},"vehicle_type_id":"4","last_reported":1722100038,"current_range_meters":0,"station_id":"ce4bh312rcd13ifvqdk0","pricing_plan_id":"cebpf4jnsgd1na2vs0mg"},{"bike_id":"59b51b9e-80e5-476e-85cc-d02bdbe8d2aa","system_id":"levelo_inurba_marseille","lat":43.292724,"lon":5.401131,"is_reserved":false,"is_disabled":false,"rental_uris":{"android":"levelo://app?vid=59b51b9e-80e5-476e-85cc-d02bdbe8d2aa","ios":"levelo://app?vid=59b51b9e-80e5-476e-85cc-d02bdbe8d2aa"},"vehicle_type_id":"4","last_reported":1722100038,"current_range_meters":1200,"station_id":"ce4bh312rcd13ifvqdk0","pricing_plan_id":"cebpf4jnsgd1na2vs0mg"},{"bike_id":"e22a8b30-a164-4a43-a42d-4ee4276efd86","system_id":"levelo_inurba_marseille","lat":43.292724,"lon":5.401131,"is_reserved":false,"is_disabled":false,"rental_uris":{"android":"levelo://app?vid=e22a8b30-a164-4a43-a42d-4ee4276efd86","ios":"levelo://app?vid=e22a8b30-a164-4a43-a42d-4ee4276efd86"},"vehicle_type_id":"4","last_reported":1722100038,"current_range_meters":1200,"station_id":"ce4bh312rcd13ifvqdk0","pricing_plan_id":"cebpf4jnsgd1na2vs0mg"},{"bike_id":"795dc11b-52fb-4678-b07b-d291c982613c","system_id":"levelo_inurba_marseille","lat":43.28273,"lon":5.35079,"is_reserved":false,"is_disabled":false,"rental_uris":{"android":"levelo://app?vid=795dc11b-52fb-4678-b07b-d291c982613c","ios":"levelo://app?vid=795dc11b-52fb-4678-b07b-d291c982613c"},