{"last_updated":1718485582,"ttl":30,"version":"2.2","data":{"bikes":[{"bike_id":"c754299d-9702-4d08-ad63-cd689e72d626","system_id":"levelo_inurba_marseille","lat":43.309076,"lon":5.368465,"is_reserved":false,"is_disabled":false,"rental_uris":{"android":"levelo://app?vid=c754299d-9702-4d08-ad63-cd689e72d626","ios":"levelo://app?vid=c754299d-9702-4d08-ad63-cd689e72d626"},"vehicle_type_id":"4","last_reported":1718485582,"current_range_meters":29200,"station_id":"ce4bgn92rcd13ifvqbvg","pricing_plan_id":"cebpf4jnsgd1na2vs0mg"},{"bike_id":"ec11c130-09c9-4670-9015-7b561bc04b29","system_id":"levelo_inurba_marseille","lat":43.30906,"lon":5.36856,"is_reserved":false,"is_disabled":false,"rental_uris":{"android":"levelo://app?vid=ec11c130-09c9-4670-9015-7b561bc04b29","ios":"levelo://app?vid=ec11c130-09c9-4670-9015-7b561bc04b29"},"vehicle_type_id":"4","last_reported":1718485582,"current_range_meters":25200,"station_id":"ce4bgn92rcd13ifvqbvg","pricing_plan_id":"cebpf4jnsgd1na2vs0mg"},{"bike_id":"9aa406b6-f567-4a1b-8491-5e37a9f4d470","system_id":"levelo_inurba_marseille","lat":43.30906,"lon":5.368567,"is_reserved":false,"is_disabled":false,"rental_uris":{"android":"levelo://app?vid=9aa406b6-f567-4a1b-8491-5e37a9f4d470","ios":"levelo://app?vid=9aa406b6-f567-4a1b-8491-5e37a9f4d470"},"vehicle_type_id":"4","last_reported":1718485582,"current_range_meters":30400,"station_id":"ce4bgn92rcd13ifvqbvg","pricing_plan_id":"cebpf4jnsgd1na2vs0mg"},{"bike_id":"fec99241-3c53-44b7-8e95-0c0f8bf59f7d","system_id":"levelo_inurba_marseille","lat":43.31482,"lon":5.37311,"is_reserved":false,"is_disabled":false,"rental_uris":{"android":"levelo://app?vid=fec99241-3c53-44b7-8e95-0c0f8bf59f7d","ios":"levelo://app?vid=fec99241-3c53-44b7-8e95-0c0f8bf59f7d"},"vehicle_type_id":"4","last_reported":1718485582,"current_range_meters":22800,"station_id":"ce4bgt12rcd13ifvqcd0","pricing_plan_id":"cebpf4jnsgd1na2vs0mg"},{"bike_id":"2131be26-5727-4c94-9c7c-aa64e6fd4eae","system_id":"levelo_inurba_marseille","lat":43.314811,"lon":5.373104,"is_reserved":false,"is_disabled":false,"rental_uris":{"android":"levelo://app?vid=2131be26-5727-4c94-9c7c-aa64e6fd4eae","ios":"levelo://app?vid=2131be26-5727-4c94-9c7c-aa64e6fd4eae"},"vehicle_type_id":"4","last_reported":1718485582,"current_range_meters":24000,"station_id":"ce4bgt12rcd13ifvqcd0","pricing_plan_id":"cebpf4jnsgd1na2vs0mg"},{"bike_id":"2f5b8c4b-fcfa-49b3-ac6b-5b21563b31b1","system_id":"levelo_inurba_marseille","lat":43.314811,"lon":5.373103,"is_reserved":false,"is_disabled":false,"rental_uris":{"android":"levelo://app?vid=2f5b8c4b-fcfa-49b3-ac6b-5b21563b31b1","ios":"levelo://app?vid=2f5b8c4b-fcfa-49b3-ac6b-5b21563b31b1"},"vehicle_type_id":"4","last_reported":1718485582,"current_range_meters":29200,"station_id":"ce4bgt12rcd13ifvqcd0","pricing_plan_id":"cebpf4jnsgd1na2vs0mg"},{"bike_id":"7b0981a6-f05e-4d3d-bbaf-3989e6133cf8","system_id":"levelo_inurba_marseille","lat":43.314811,"lon":5.373103,"is_reserved":false,"is_disabled":false,"rental_uris":{"android":"levelo://app?vid=7b0981a6-f05e-4d3d-bbaf-3989e6133cf8","ios":"levelo://app?vid=7b0981a6-f05e-4d3d-bbaf-3989e6133cf8"},"vehicle_type_id":"4","last_reported":1718485582,"current_range_meters":15200,"station_id":"ce4bgt12rcd13ifvqcd0","pricing_plan_id":"cebpf4jnsgd1na2vs0mg"},{"bike_id":"be3322c2-7a9b-472f-b8d6-373fe13cae12","system_id":"levelo_inurba_marseille","lat":43.314811,"lon":5.373103,"is_reserved":false,"is_disabled":false,"rental_uris":{"android":"levelo://app?vid=be3322c2-7a9b-472f-b8d6-373fe13cae12","ios":"levelo://app?vid=be3322c2-7a9b-472f-b8d6-373fe13cae12"},"vehicle_type_id":"4","last_reported":1718485582,"current_range_meters":4400,"station_id":"ce4bgt12rcd13ifvqcd0","pricing_plan_id":"cebpf4jnsgd1na2vs0mg"},{"bike_id":"026f3730-87fa-4938-bfd3-d609a12cd876","system_id":"levelo_inurba_marseille","lat":43.309034,"lon":5.371783,"is_reserved":false,"is_disabled":false,"rental_uris":{"android":"levelo://app?vid=026f3730-87fa-4938-bfd3-d609a12cd876","ios":"levelo://app?vid=026f3730-87fa-4938-bfd3-d609a12cd876"},"vehicle_type_id":"4","last_reported":1718485582,"current_range_meters":0,"station_id":"ce4bguh2rcd13ifvqckg","pricing_plan_id":"cebpf4jnsgd1na2vs0mg"},{"bike_id":"b6d195b1-f4fe-4288-aba5-9ef17bd4e700","system_id":"levelo_inurba_marseille","lat":43.306984,"lon":5.372878,"is_reserved":false,"is_disabled":false,"rental_uris":{"android":"levelo://app?vid=b6d195b1-f4fe-4288-aba5-9ef17bd4e700","ios":"levelo://app?vid=b6d195b1-f4fe-4288-aba5-9ef17bd4e700"},"vehicle_type_id":"4","last_reported":1718485582,"current_range_meters":24400,"station_id":"","pricing_plan_id":"cebpf4jnsgd1na2vs0mg"},{"bike_id":"09d341df-94c5-48a3-b997-f4569e43c673","system_id":"levelo_inurba_marseille","lat":43.305706,"lon":5.365654,"is_reserved":false,"is_disabled":false,"rental_uris":{"android":"levelo://app?vid=09d341df-94c5-48a3-b997-f4569e43c673","ios":"levelo://app?vid=09d341df-94c5-48a3-b997-f4569e43c673"},"vehicle_type_id":"4","last_reported":1718485582,"current_range_meters":12000,"station_id":"ce4bgs12rcd13ifvqcag","pricing_plan_id":"cebpf4jnsgd1na2vs0mg"},{"bike_id":"37471f4c-741d-4423-ad28-3beb8104ff11","system_id":"levelo_inurba_marseille","lat":43.31886,"lon":5.3732,"is_reserved":false,"is_disabled":false,"rental_uris":{"android":"levelo://app?vid=37471f4c-741d-4423-ad28-3beb8104ff11","ios":"levelo://app?vid=37471f4c-741d-4423-ad28-3beb8104ff11"},"vehicle_type_id":"4","last_reported":1718485582,"current_range_meters":10400,"station_id":"","pricing_plan_id":"cebpf4jnsgd1na2vs0mg"},{"bike_id":"0ee8573d-1347-4857-9e8a-e3f959f8b153","system_id":"levelo_inurba_marseille","lat":43.311131,"lon":5.377651,"is_reserved":false,"is_disabled":false,"rental_uris":{"android":"levelo://app?vid=0ee8573d-1347-4857-9e8a-e3f959f8b153","ios":"levelo://app?vid=0ee8573d-1347-4857-9e8a-e3f959f8b153"},"vehicle_type_id":"4","last_reported":1718485582,"current_range_meters":22800,"station_id":"ce4bgt92rcd13ifvqcg0","pricing_plan_id":"cebpf4jnsgd1na2vs0mg"},{"bike_id":"0b85b544-4380-465d-b854-b6938bc60749","system_id":"levelo_inurba_marseille","lat":43.311131,"lon":5.377651,"is_reserved":false,"is_disabled":false,"rental_uris":{"android":"levelo://app?vid=0b85b544-4380-465d-b854-b6938bc60749","ios":"levelo://app?vid=0b85b544-4380-465d-b854-b6938bc60749"},"vehicle_type_id":"4","last_reported":1718485582,"current_range_meters":4800,"station_id":"ce4bgt92rcd13ifvqcg0","pricing_plan_id":"cebpf4jnsgd1na2vs0mg"},{"bike_id":"0355638a-cb3d-4be5-a67c-469329b6ff6b","system_id":"levelo_inurba_marseille","lat":43.317075,"lon":5.377367,"is_reserved":false,"is_disabled":false,"rental_uris":{"android":"levelo://app?vid=0355638a-cb3d-4be5-a67c-469329b6ff6b","ios":"levelo://app?vid=0355638a-cb3d-4be5-a67c-469329b6ff6b"},"vehicle_type_id":"4","last_reported":1718485582,"current_range_meters":2400,"station_id":"ce4bgth2rcd13ifvqch0","pricing_plan_id":"cebpf4jnsgd1na2vs0mg"},{"bike_id":"522f6645-2a68-4754-9108-a058ebf7d57b","system_id":"levelo_inurba_marseille","lat":43.317075,"lon":5.377367,"is_reserved":false,"is_disabled":false,"rental_uris":{"android":"levelo://app?vid=522f6645-2a68-4754-9108-a058ebf7d57b","ios":"levelo://app?vid=522f6645-2a68-4754-9108-a058ebf7d57b"},"vehicle_type_id":"4","last_reported":1718485582,"current_range_meters":27600,"station_id":"ce4bgth2rcd13ifvqch0","pricing_plan_id":"cebpf4jnsgd1na2vs0mg"},{"bike_id":"33a92d1c-9866-4b43-839f-5b02b1bd3c73","system_id":"levelo_inurba_marseille","lat":43.317075,"lon":5.377367,"is_reserved":false,"is_disabled":false,"rental_uris":{"android":"levelo://app?vid=33a92d1c-9866-4b43-839f-5b02b1bd3c73","ios":"levelo://app?vid=33a92d1c-9866-4b43-839f-5b02b1bd3c73"},"vehicle_type_id":"4","last_reported":1718485582,"current_range_meters":25600,"station_id":"ce4bgth2rcd13ifvqch0","pricing_plan_id":"cebpf4jnsgd1na2vs0mg"},{"bike_id":"1b4cb508-1bd0-4abb-90e1-db692453866d","system_id":"levelo_inurba_marseille","lat":43.31714,"lon":5.377582,"is_reserved":false,"is_disabled":false,"rental_uris":{"android":"levelo://app?vid=1b4cb508-1bd0-4abb-90e1-db692453866d","ios":"levelo://app?vid=1b4cb508-1bd0-4abb-90e1-db692453866d"},"vehicle_type_id":"4","last_reported":1718485582,"current_range_meters":20000,"station_id":"ce4bgth2rcd13ifvqch0","pricing_plan_id":"cebpf4jnsgd1na2vs0mg"},{"bike_id":"7302531f-5adf-46fe-bac9-635f15590284","system_id":"levelo_inurba_marseille","lat":43.303046,"lon":5.368981,"is_reserved":false,"is_disabled":false,"rental_uris":{"android":"levelo://app?vid=7302531f-5adf-46fe-bac9-635f15590284","ios":"levelo://app?vid=7302531f-5adf-46fe-bac9-635f15590284"},"vehicle_type_id":"4","last_reported":1718485582,"current_range_meters":4800,"station_id":"ce4bgqh2rcd13ifvqc5g","pricing_plan_id":"cebpf4jnsgd1na2vs0mg"},{"bike_id":"7e391f6d-054b-4dd4-b71e-da8f130a0581","system_id":"levelo_inurba_marseille","lat":43.30511,"lon":5.37579,"is_reserved":false,"is_disabled":false,"rental_uris":{"android":"levelo://app?vid=7e391f6d-054b-4dd4-b71e-da8f130a0581","ios":"levelo://app?vid=7e391f6d-054b-4dd4-b71e-da8f130a0581"},"vehicle_type_id":"4","last_reported":1718485582,"current_range_meters":6400,"station_id":"","pricing_plan_id":"cebpf4jnsgd1na2vs0mg"},{"bike_id":"ad252898-7638-4d1a-b555-fe6107603ec7","system_id":"levelo_inurba_marseille","lat":43.30336,"lon":5.37173,"is_reserved":false,"is_disabled":false,"rental_uris":{"android":"levelo://app?vid=ad252898-7638-4d1a-b555-fe6107603ec7","ios":"levelo://app?vid=ad252898-7638-4d1a-b555-fe6107603ec7"},"vehicle_type_id":"4","last_reported":1718485582,"current_range_meters":400,"station_id":"","pricing_plan_id":"cebpf4jnsgd1na2vs0mg"},{"bike_id":"27e10fe7-be9b-4922-80c1-df0ca98dead1","system_id":"levelo_inurba_marseille","lat":43.315289,"lon":5.380349,"is_reserved":false,"is_disabled":false,"rental_uris":{"android":"levelo://app?vid=27e10fe7-be9b-4922-80c1-df0ca98dead1","ios":"levelo://app?vid=27e10fe7-be9b-4922-80c1-df0ca98dead1"},"vehicle_type_id":"4","last_reported":1718485582,"current_range_meters":400,"station_id":"ce4bhsp2rcd13ifvqi50","pricing_plan_id":"cebpf4jnsgd1na2vs0mg"},{"bike_id":"06b4d37c-c215-4639-9d37-2c624c54a92a","system_id":"levelo_inurba_marseille","lat":43.315289,"lon":5.380349,"is_reserved":false,"is_disabled":false,"rental_uris":{"android":"levelo://app?vid=06b4d37c-c215-4639-9d37-2c624c54a92a","ios":"levelo://app?vid=06b4d37c-c215-4639-9d37-2c624c54a92a"},"vehicle_type_id":"4","last_reported":1718485582,"current_range_meters":16400,"station_id":"ce4bhsp2rcd13ifvqi50","pricing_plan_id":"cebpf4jnsgd1na2vs0mg"},{"bike_id":"f5f6dcc4-7e02-4436-ae9b-7ed1f6492d6f","system_id":"levelo_inurba_marseille","lat":43.3047,"lon":5.37902,"is_reserved":false,"is_disabled":false,"rental_uris":{"android":"levelo://app?vid=f5f6dcc4-7e02-4436-ae9b-7ed1f6492d6f","ios":"levelo://app?vid=f5f6dcc4-7e02-4436-ae9b-7ed1f6492d6f"},"vehicle_type_id":"4","last_reported":1718485582,"current_range_meters":28400,"station_id":"ce4bgup2rcd13ifvqcn0","pricing_plan_id":"cebpf4jnsgd1na2vs0mg"},{"bike_id":"e977f984-58b8-4db0-962d-f3b42b2a376a","system_id":"levelo_inurba_marseille","lat":43.304606,"lon":5.379026,"is_reserved":false,"is_disabled":false,"rental_uris":{"android":"levelo://app?vid=e977f984-58b8-4db0-962d-f3b42b2a376a","ios":"levelo://app?vid=e977f984-58b8-4db0-962d-f3b42b2a376a"},"vehicle_type_id":"4","last_reported":1718485582,"current_range_meters":0,"station_id":"ce4bgup2rcd13ifvqcn0","pricing_plan_id":"cebpf4jnsgd1na2vs0mg"},{"bike_id":"313396ed-b6e3-4c19-93de-9f8bd9a78be1","system_id":"levelo_inurba_marseille","lat":43.324771,"lon":5.36557,"is_reserved":false,"is_disabled":false,"rental_uris":{"android":"levelo://app?vid=313396ed-b6e3-4c19-93de-9f8bd9a78be1","ios":"levelo://app?vid=313396ed-b6e3-4c19-93de-9f8bd9a78be1"},"vehicle_type_id":"4","last_reported":1718485582,"current_range_meters":3600,"station_id":"ce4bhs12rcd13ifvqhvg","pricing_plan_id":"cebpf4jnsgd1na2vs0mg"},{"bike_id":"643622d9-1f86-451f-ac93-baae5e99b93a","system_id":"levelo_inurba_marseille","lat":43.324771,"lon":5.36557,"is_reserved":false,"is_disabled":false,"rental_uris":{"android":"levelo://app?vid=643622d9-1f86-451f-ac93-baae5e99b93a","ios":"levelo://app?vid=643622d9-1f86-451f-ac93-baae5e99b93a"},"vehicle_type_id":"4","last_reported":1718485582,"current_range_meters":4800,"station_id":"ce4bhs12rcd13ifvqhvg","pricing_plan_id":"cebpf4jnsgd1na2vs0mg"},{"bike_id":"c1f62fdd-d038-4e9b-b660-fdbcc84b953e","system_id":"levelo_inurba_marseille","lat":43.32484,"lon":5.36574,"is_reserved":false,"is_disabled":false,"rental_uris":{"android":"levelo://app?vid=c1f62fdd-d038-4e9b-b660-fdbcc84b953e","ios":"levelo://app?vid=c1f62fdd-d038-4e9b-b660-fdbcc84b953e"},"vehicle_type_id":"4","last_reported":1718485582,"current_range_meters":0,"station_id":"ce4bhs12rcd13ifvqhvg","pricing_plan_id":"cebpf4jnsgd1na2vs0mg"},{"bike_id":"d46abc99-67ad-4556-ac08-9e7538173fae","system_id":"levelo_inurba_marseille","lat":43.324848,"lon":5.36575,"is_reserved":false,"is_disabled":false,"rental_uris":{"android":"levelo://app?vid=d46abc99-67ad-4556-ac08-9e7538173fae","ios":"levelo://app?vid=d46abc99-67ad-4556-ac08-9e7538173fae"},"vehicle_type_id":"4","last_reported":1718485582,"current_range_meters":21200,"station_id":"ce4bhs12rcd13ifvqhvg","pricing_plan_id":"cebpf4jnsgd1na2vs0mg"},{"bike_id":"046e03c2-df45-4469-aad8-30604b04fbd3","system_id":"levelo_inurba_marseille","lat":43.32487,"lon":5.36562,"is_reserved":false,"is_disabled":false,"rental_uris":{"android":"levelo://app?vid=046e03c2-df45-4469-aad8-30604b04fbd3","ios":"levelo://app?vid=046e03c2-df45-4469-aad8-30604b04fbd3"},"vehicle_type_id":"4","last_reported":1718485582,"current_range_meters":3200,"station_id":"ce4bhs12rcd13ifvqhvg","pricing_plan_id":"cebpf4jnsgd1na2vs0mg"},{"bike_id":"583118cf-8e7a-48fa-8514-81a715bea9b9","system_id":"levelo_inurba_marseille","lat":43.310804,"lon":5.38359,"is_reserved":false,"is_disabled":false,"rental_uris":{"android":"levelo://app?vid=583118cf-8e7a-48fa-8514-81a715bea9b9","ios":"levelo://app?vid=583118cf-8e7a-48fa-8514-81a715bea9b9"},"vehicle_type_id":"4","last_reported":1718485582,"current_range_meters":0,"station_id":"ce4bgv92rcd13ifvqcr0","pricing_plan_id":"cebpf4jnsgd1na2vs0mg"},{"bike_id":"58fa8cf3-1406-4e3f-9bf8-b9a2d652a3e8","system_id":"levelo_inurba_marseille","lat":43.310804,"lon":5.38359,"is_reserved":false,"is_disabled":false,"rental_uris":{"android":"levelo://app?vid=58fa8cf3-1406-4e3f-9bf8-b9a2d652a3e8","ios":"levelo://app?vid=58fa8cf3-1406-4e3f-9bf8-b9a2d652a3e8"},"vehicle_type_id":"4","last_reported":1718485582,"current_range_meters":0,"station_id":"ce4bgv92rcd13ifvqcr0","pricing_plan_id":"cebpf4jnsgd1na2vs0mg"},{"bike_id":"e443e1f2-edaf-4e80-8f9a-08d67fe27260","system_id":"levelo_inurba_marseille","lat":43.310804,"lon":5.38359,"is_reserved":false,"is_disabled":false,"rental_uris":{"android":"levelo://app?vid=e443e1f2-edaf-4e80-8f9a-08d67fe27260","ios":"levelo://app?vid=e443e1f2-edaf-4e80-8f9a-08d67fe27260"},"vehicle_type_id":"4","last_reported":1718485582,"current_range_meters":4800,"station_id":"ce4bgv92rcd13ifvqcr0","pricing_plan_id":"cebpf4jnsgd1na2vs0mg"},{"bike_id":"3b477e3a-6ece-46c2-a3d0-f434ed507e91","system_id":"levelo_inurba_marseille","lat":43.319935,"lon":5.381699,"is_reserved":false,"is_disabled":false,"rental_uris":{"android":"levelo://app?vid=3b477e3a-6ece-46c2-a3d0-f434ed507e91","ios":"levelo://app?vid=3b477e3a-6ece-46c2-a3d0-f434ed507e91"},"vehicle_type_id":"4","last_reported":1718485582,"current_range_meters":0,"station_id":"ce4bhr12rcd13ifvqhpg","pricing_plan_id":"cebpf4jnsgd1na2vs0mg"},{"bike_id":"f328faf5-f9f3-4880-9f16-795e28c5d2d9","system_id":"levelo_inurba_marseille","lat":43.319935,"lon":5.381699,"is_reserved":false,"is_disabled":false,"rental_uris":{"android":"levelo://app?vid=f328faf5-f9f3-4880-9f16-795e28c5d2d9","ios":"levelo://app?vid=f328faf5-f9f3-4880-9f16-795e28c5d2d9"},"vehicle_type_id":"4","last_reported":1718485582,"current_range_meters":11200,"station_id":"ce4bhr12rcd13ifvqhpg","pricing_plan_id":"cebpf4jnsgd1na2vs0mg"},{"bike_id":"ca0c105e-3e55-44b1-bd97-e9e335833999","system_id":"levelo_inurba_marseille","lat":43.313571,"lon":5.384829,"is_reserved":false,"is_disabled":false,"rental_uris":{"android":"levelo://app?vid=ca0c105e-3e55-44b1-bd97-e9e335833999","ios":"levelo://app?vid=ca0c105e-3e55-44b1-bd97-e9e335833999"},"vehicle_type_id":"4","last_reported":1718485582,"current_range_meters":2400,"station_id":"ce4bgt92rcd13ifvqcf0","pricing_plan_id":"cebpf4jnsgd1na2vs0mg"},{"bike_id":"e214c535-f8f3-421c-8e42-04e36fb19963","system_id":"levelo_inurba_marseille","lat":43.313623,"lon":5.384907,"is_reserved":false,"is_disabled":false,"rental_uris":{"android":"levelo://app?vid=e214c535-f8f3-421c-8e42-04e36fb19963","ios":"levelo://app?vid=e214c535-f8f3-421c-8e42-04e36fb19963"},"vehicle_type_id":"4","last_reported":1718485582,"current_range_meters":0,"station_id":"ce4bgt92rcd13ifvqcf0","pricing_plan_id":"cebpf4jnsgd1na2vs0mg"},{"bike_id":"b61cee19-dab7-48a5-98e8-c7e9f3b516b3","system_id":"levelo_inurba_marseille","lat":43.313571,"lon":5.384829,"is_reserved":false,"is_disabled":false,"rental_uris":{"android":"levelo://app?vid=b61cee19-dab7-48a5-98e8-c7e9f3b516b3","ios":"levelo://app?vid=b61cee19-dab7-48a5-98e8-c7e9f3b516b3"},"vehicle_type_id":"4","last_reported":1718485582,"current_range_meters":5200,"station_id":"ce4bgt92rcd13ifvqcf0","pricing_plan_id":"cebpf4jnsgd1na2vs0mg"},{"bike_id":"3864f2ad-f2eb-4dc0-9335-8004d9617ebe","system_id":"levelo_inurba_marseille","lat":43.299724,"lon":5.371829,"is_reserved":false,"is_disabled":false,"rental_uris":{"android":"levelo://app?vid=3864f2ad-f2eb-4dc0-9335-8004d9617ebe","ios":"levelo://app?vid=3864f2ad-f2eb-4dc0-9335-8004d9617ebe"},"vehicle_type_id":"4","last_reported":1718485582,"current_range_meters":28800,"station_id":"ce4bgr92rcd13ifvqc7g","pricing_plan_id":"cebpf4jnsgd1na2vs0mg"},{"bike_id":"74fbd1a1-ad0d-4c6f-9c5a-d45dd5f8d0fd","system_id":"levelo_inurba_marseille","lat":43.299724,"lon":5.371829,"is_reserved":false,"is_disabled":false,"rental_uris":{"android":"levelo://app?vid=74fbd1a1-ad0d-4c6f-9c5a-d45dd5f8d0fd","ios":"levelo://app?vid=74fbd1a1-ad0d-4c6f-9c5a-d45dd5f8d0fd"},"vehicle_type_id":"4","last_reported":1718485582,"current_range_meters":7600,"station_id":"ce4bgr92rcd13ifvqc7g","pricing_plan_id":"cebpf4jnsgd1na2vs0mg"},{"bike_id":"e9296028-c37c-4b01-9d24-233257013bc8","system_id":"levelo_inurba_marseille","lat":43.299724,"lon":5.371829,"is_reserved":false,"is_disabled":false,"rental_uris":{"android":"levelo://app?vid=e9296028-c37c-4b01-9d24-233257013bc8","ios":"levelo://app?vid=e9296028-c37c-4b01-9d24-233257013bc8"},"vehicle_type_id":"4","last_reported":1718485582,"current_range_meters":26000,"station_id":"ce4bgr92rcd13ifvqc7g","pricing_plan_id":"cebpf4jnsgd1na2vs0mg"},{"bike_id":"2e3234f8-e8fb-4157-9d3d-1006799fbaef","system_id":"levelo_inurba_marseille","lat":43.299724,"lon":5.371829,"is_reserved":false,"is_disabled":false,"rental_uris":{"android":"levelo://app?vid=2e3234f8-e8fb-4157-9d3d-1006799fbaef","ios":"levelo://app?vid=2e3234f8-e8fb-4157-9d3d-1006799fbaef"},"vehicle_type_id":"4","last_reported":1718485582,"current_range_meters":2000,"station_id":"ce4bgr92rcd13ifvqc7g","pricing_plan_id":"cebpf4jnsgd1na2vs0mg"},{"bike_id":"44f03b0b-9ac0-402f-9995-d2975ae5c5b2","system_id":"levelo_inurba_marseille","lat":43.29978,"lon":5.37538,"is_reserved":false,"is_disabled":false,"rental_uris":{"android":"levelo://app?vid=44f03b0b-9ac0-402f-9995-d2975ae5c5b2","ios":"levelo://app?vid=44f03b0b-9ac0-402f-9995-d2975ae5c5b2"},"vehicle_type_id":"4","last_reported":1718485582,"current_range_meters":18400,"station_id":"","pricing_plan_id":"cebpf4jnsgd1na2vs0mg"},{"bike_id":"79931453-5914-4145-8480-e2a458739b3f","system_id":"levelo_inurba_marseille","lat":43.2985,"lon":5.36288,"is_reserved":false,"is_disabled":false,"rental_uris":{"android":"levelo://app?vid=79931453-5914-4145-8480-e2a458739b3f","ios":"levelo://app?vid=79931453-5914-4145-8480-e2a458739b3f"},"vehicle_type_id":"4","last_reported":1718485582,"current_range_meters":0,"station_id":"ce4bgpp2rcd13ifvqc3g","pricing_plan_id":"cebpf4jnsgd1na2vs0mg"},{"bike_id":"49e32c55-54fc-4d65-afbc-3083103f4cbf","system_id":"levelo_inurba_marseille","lat":43.29972,"lon":5.37611,"is_reserved":false,"is_disabled":false,"rental_uris":{"android":"levelo://app?vid=49e32c55-54fc-4d65-afbc-3083103f4cbf","ios":"levelo://app?vid=49e32c55-54fc-4d65-afbc-3083103f4cbf"},"vehicle_type_id":"4","last_reported":1718485582,"current_range_meters":0,"station_id":"","pricing_plan_id":"cebpf4jnsgd1na2vs0mg"},{"bike_id":"5290a4dd-b00e-49ff-b30d-1fe1ceb7e21e","system_id":"levelo_inurba_marseille","lat":43.305364,"lon":5.384119,"is_reserved":false,"is_disabled":false,"rental_uris":{"android":"levelo://app?vid=5290a4dd-b00e-49ff-b30d-1fe1ceb7e21e","ios":"levelo://app?vid=5290a4dd-b00e-49ff-b30d-1fe1ceb7e21e"},"vehicle_type_id":"4","last_reported":1718485582,"current_range_meters":18800,"station_id":"ce4bgg92rcd13ifvqb30","pricing_plan_id":"cebpf4jnsgd1na2vs0mg"},{"bike_id":"57de9a88-018f-4249-bce1-51554de34d05","system_id":"levelo_inurba_marseille","lat":43.311722,"lon":5.387247,"is_reserved":false,"is_disabled":false,"rental_uris":{"android":"levelo://app?vid=57de9a88-018f-4249-bce1-51554de34d05","ios":"levelo://app?vid=57de9a88-018f-4249-bce1-51554de34d05"},"vehicle_type_id":"4","last_reported":1718485582,"current_range_meters":8800,"station_id":"ce4bgv12rcd13ifvqcp0","pricing_plan_id":"cebpf4jnsgd1na2vs0mg"},{"bike_id":"04b93f06-1438-4bce-9877-80422ec80eb2","system_id":"levelo_inurba_marseille","lat":43.311677,"lon":5.387183,"is_reserved":false,"is_disabled":false,"rental_uris":{"android":"levelo://app?vid=04b93f06-1438-4bce-9877-80422ec80eb2","ios":"levelo://app?vid=04b93f06-1438-4bce-9877-80422ec80eb2"},"vehicle_type_id":"4","last_reported":1718485582,"current_range_meters":20800,"station_id":"ce4bgv12rcd13ifvqcp0","pricing_plan_id":"cebpf4jnsgd1na2vs0mg"},{"bike_id":"84c94051-9d33-4fbc-96fa-dee9fd573631","system_id":"levelo_inurba_marseille","lat":43.31161,"lon":5.38722,"is_reserved":false,"is_disabled":false,"rental_uris":{"android":"levelo://app?vid=84c94051-9d33-4fbc-96fa-dee9fd573631","ios":"levelo://app?vid=84c94051-9d33-4fbc-96fa-dee9fd573631"},"vehicle_type_id":"4","last_reported":1718485582,"current_range_meters":23600,"station_id":"ce4bgv12rcd13ifvqcp0","pricing_plan_id":"cebpf4jnsgd1na2vs0mg"},{"bike_id":"fc227d0f-5bc9-4c12-87b5-a9954c8fded5","system_id":"levelo_inurba_marseille","lat":43.31166,"lon":5.38725,"is_reserved":false,"is_disabled":false,"rental_uris":{"android":"levelo://app?vid=fc227d0f-5bc9-4c12-87b5-a9954c8fded5","ios":"levelo://app?vid=fc227d0f-5bc9-4c12-87b5-a9954c8fded5"},"vehicle_type_id":"4","last_reported":1718485582,"current_range_meters":18800,"station_id":"ce4bgv12rcd13ifvqcp0","pricing_plan_id":"cebpf4jnsgd1na2vs0mg"},{"bike_id":"2519f902-e327-40c9-adb1-4cd292ee3a80","system_id":"levelo_inurba_marseille","lat":43.297774,"lon":5.370875,"is_reserved":false,"is_disabled":false,"rental_uris":{"android":"levelo://app?vid=2519f902-e327-40c9-adb1-4cd292ee3a80","ios":"levelo://app?vid=2519f902-e327-40c9-adb1-4cd292ee3a80"},"vehicle_type_id":"4","last_reported":1718485582,"current_range_meters":9600,"station_id":"ce4bgop2rcd13ifvqc1g","pricing_plan_id":"cebpf4jnsgd1na2vs0mg"},{"bike_id":"1653cb61-d3bc-4f8b-bf7a-522141f9253c","system_id":"levelo_inurba_marseille","lat":43.322872,"lon":5.382756,"is_reserved":false,"is_disabled":false,"rental_uris":{"android":"levelo://app?vid=1653cb61-d3bc-4f8b-bf7a-522141f9253c","ios":"levelo://app?vid=1653cb61-d3bc-4f8b-bf7a-522141f9253c"},"vehicle_type_id":"4","last_reported":1718485582,"current_range_meters":6400,"station_id":"ce4bhr12rcd13ifvqhqg","pricing_plan_id":"cebpf4jnsgd1na2vs0mg"},{"bike_id":"f90e6483-2812-47e0-953b-27799e1add07","system_id":"levelo_inurba_marseille","lat":43.322872,"lon":5.382756,"is_reserved":false,"is_disabled":false,"rental_uris":{"android":"levelo://app?vid=f90e6483-2812-47e0-953b-27799e1add07","ios":"levelo://app?vid=f90e6483-2812-47e0-953b-27799e1add07"},"vehicle_type_id":"4","last_reported":1718485582,"current_range_meters":14000,"station_id":"ce4bhr12rcd13ifvqhqg","pricing_plan_id":"cebpf4jnsgd1na2vs0mg"},{"bike_id":"d0fac89a-7998-4f3e-bfcf-d48f3b158015","system_id":"levelo_inurba_marseille","lat":43.322872,"lon":5.382756,"is_reserved":false,"is_disabled":false,"rental_uris":{"android":"levelo://app?vid=d0fac89a-7998-4f3e-bfcf-d48f3b158015","ios":"levelo://app?vid=d0fac89a-7998-4f3e-bfcf-d48f3b158015"},"vehicle_type_id":"4","last_reported":1718485582,"current_range_meters":10000,"station_id":"ce4bhr12rcd13ifvqhqg","pricing_plan_id":"cebpf4jnsgd1na2vs0mg"},{"bike_id":"8029ecd1-33e2-4630-a400-989116e1b619","system_id":"levelo_inurba_marseille","lat":43.32341,"lon":5.3829,"is_reserved":false,"is_disabled":false,"rental_uris":{"android":"levelo://app?vid=8029ecd1-33e2-4630-a400-989116e1b619","ios":"levelo://app?vid=8029ecd1-33e2-4630-a400-989116e1b619"},"vehicle_type_id":"4","last_reported":1718485582,"current_range_meters":30000,"station_id":"","pricing_plan_id":"cebpf4jnsgd1na2vs0mg"},{"bike_id":"bc9a7f62-b925-4e5b-a3ba-a5a38804c91b","system_id":"levelo_inurba_marseille","lat":43.32386,"lon":5.38361,"is_reserved":false,"is_disabled":false,"rental_uris":{"android":"levelo://app?vid=bc9a7f62-b925-4e5b-a3ba-a5a38804c91b","ios":"levelo://app?vid=bc9a7f62-b925-4e5b-a3ba-a5a38804c91b"},"vehicle_type_id":"4","last_reported":1718485582,"current_range_meters":0,"station_id":"","pricing_plan_id":"cebpf4jnsgd1na2vs0mg"},{"bike_id":"b601c99c-7337-43f8-9f39-d08e48fa395c","system_id":"levelo_inurba_marseille","lat":43.30963,"lon":5.390298,"is_reserved":false,"is_disabled":false,"rental_uris":{"android":"levelo://app?vid=b601c99c-7337-43f8-9f39-d08e48fa395c","ios":"levelo://app?vid=b601c99c-7337-43f8-9f39-d08e48fa395c"},"vehicle_type_id":"4","last_reported":1718485582,"current_range_meters":22400,"station_id":"ce4bgup2rcd13ifvqco0","pricing_plan_id":"cebpf4jnsgd1na2vs0mg"},{"bike_id":"07b51f1b-d72a-4d4c-825b-e6a1abf9c7bc","system_id":"levelo_inurba_marseille","lat":43.30947,"lon":5.39038,"is_reserved":false,"is_disabled":false,"rental_uris":{"android":"levelo://app?vid=07b51f1b-d72a-4d4c-825b-e6a1abf9c7bc","ios":"levelo://app?vid=07b51f1b-d72a-4d4c-825b-e6a1abf9c7bc"},"vehicle_type_id":"4","last_reported":1718485582,"current_range_meters":0,"station_id":"ce4bgup2rcd13ifvqco0","pricing_plan_id":"cebpf4jnsgd1na2vs0mg"},{"bike_id":"6266ea96-d7c5-4473-a047-0057bd099ea3","system_id":"levelo_inurba_marseille","lat":43.30965,"lon":5.39044,"is_reserved":false,"is_disabled":false,"rental_uris":{"android":"levelo://app?vid=6266ea96-d7c5-4473-a047-0057bd099ea3","ios":"levelo://app?vid=6266ea96-d7c5-4473-a047-0057bd099ea3"},"vehicle_type_id":"4","last_reported":1718485582,"current_range_meters":0,"station_id":"ce4bgup2rcd13ifvqco0","pricing_plan_id":"cebpf4jnsgd1na2vs0mg"},{"bike_id":"c045f411-4845-476a-b773-7bf37b22e942","system_id":"levelo_inurba_marseille","lat":43.30962,"lon":5.39047,"is_reserved":false,"is_disabled":false,"rental_uris":{"android":"levelo://app?vid=c045f411-4845-476a-b773-7bf37b22e942","ios":"levelo://app?vid=c045f411-4845-476a-b773-7bf37b22e942"},"vehicle_type_id":"4","last_reported":1718485582,"current_range_meters":0,"station_id":"ce4bgup2rcd13ifvqco0","pricing_plan_id":"cebpf4jnsgd1na2vs0mg"},{"bike_id":"7f3457b3-6321-4192-b788-e212ef4794e9","system_id":"levelo_inurba_marseille","lat":43.29719,"lon":5.37776,"is_reserved":false,"is_disabled":false,"rental_uris":{"android":"levelo://app?vid=7f3457b3-6321-4192-b788-e212ef4794e9","ios":"levelo://app?vid=7f3457b3-6321-4192-b788-e212ef4794e9"},"vehicle_type_id":"4","last_reported":1718485582,"current_range_meters":0,"station_id":"","pricing_plan_id":"cebpf4jnsgd1na2vs0mg"},{"bike_id":"2d56af1d-3217-4927-9fba-8f950dadf392","system_id":"levelo_inurba_marseille","lat":43.29901,"lon":5.38175,"is_reserved":false,"is_disabled":false,"rental_uris":{"android":"levelo://app?vid=2d56af1d-3217-4927-9fba-8f950dadf392","ios":"levelo://app?vid=2d56af1d-3217-4927-9fba-8f950dadf392"},"vehicle_type_id":"4","last_reported":1718485582,"current_range_meters":0,"station_id":"ce4bgj12rcd13ifvqbc0","pricing_plan_id":"cebpf4jnsgd1na2vs0mg"},{"bike_id":"bcf63356-65a7-4cba-8455-34a223407532","system_id":"levelo_inurba_marseille","lat":43.31758,"lon":5.39018,"is_reserved":false,"is_disabled":false,"rental_uris":{"android":"levelo://app?vid=bcf63356-65a7-4cba-8455-34a223407532","ios":"levelo://app?vid=bcf63356-65a7-4cba-8455-34a223407532"},"vehicle_type_id":"4","last_reported":1718485582,"current_range_meters":26400,"station_id":"ce4bhqp2rcd13ifvqhng","pricing_plan_id":"cebpf4jnsgd1na2vs0mg"},{"bike_id":"87034520-3b76-482e-b417-b1f0ce297a46","system_id":"levelo_inurba_marseille","lat":43.304274,"lon":5.388873,"is_reserved":false,"is_disabled":false,"rental_uris":{"android":"levelo://app?vid=87034520-3b76-482e-b417-b1f0ce297a46","ios":"levelo://app?vid=87034520-3b76-482e-b417-b1f0ce297a46"},"vehicle_type_id":"4","last_reported":1718485582,"current_range_meters":27200,"station_id":"ce4bgk12rcd13ifvqbi0","pricing_plan_id":"cebpf4jnsgd1na2vs0mg"},{"bike_id":"594a9828-9c83-47b7-93d0-a887efbb0eb0","system_id":"levelo_inurba_marseille","lat":43.304274,"lon":5.388873,"is_reserved":false,"is_disabled":false,"rental_uris":{"android":"levelo://app?vid=594a9828-9c83-47b7-93d0-a887efbb0eb0","ios":"levelo://app?vid=594a9828-9c83-47b7-93d0-a887efbb0eb0"},"vehicle_type_id":"4","last_reported":1718485582,"current_range_meters":2000,"station_id":"ce4bgk12rcd13ifvqbi0","pricing_plan_id":"cebpf4jnsgd1na2vs0mg"},{"bike_id":"58dbf358-4d3d-4350-9450-80548fd453bb","system_id":"levelo_inurba_marseille","lat":43.304274,"lon":5.388873,"is_reserved":false,"is_disabled":false,"rental_uris":{"android":"levelo://app?vid=58dbf358-4d3d-4350-9450-80548fd453bb","ios":"levelo://app?vid=58dbf358-4d3d-4350-9450-80548fd453bb"},"vehicle_type_id":"4","last_reported":1718485582,"current_range_meters":24400,"station_id":"ce4bgk12rcd13ifvqbi0","pricing_plan_id":"cebpf4jnsgd1na2vs0mg"},{"bike_id":"2dfec35f-e3f4-4961-88e6-120791740471","system_id":"levelo_inurba_marseille","lat":43.304274,"lon":5.388873,"is_reserved":false,"is_disabled":false,"rental_uris":{"android":"levelo://app?vid=2dfec35f-e3f4-4961-88e6-120791740471","ios":"levelo://app?vid=2dfec35f-e3f4-4961-88e6-120791740471"},"vehicle_type_id":"4","last_reported":1718485582,"current_range_meters":26800,"station_id":"ce4bgk12rcd13ifvqbi0","pricing_plan_id":"cebpf4jnsgd1na2vs0mg"},{"bike_id":"6ed18b97-e9aa-48d3-af18-7bb2be65055d","system_id":"levelo_inurba_marseille","lat":43.304278,"lon":5.388868,"is_reserved":false,"is_disabled":false,"rental_uris":{"android":"levelo://app?vid=6ed18b97-e9aa-48d3-af18-7bb2be65055d","ios":"levelo://app?vid=6ed18b97-e9aa-48d3-af18-7bb2be65055d"},"vehicle_type_id":"4","last_reported":1718485582,"current_range_meters":27600,"station_id":"ce4bgk12rcd13ifvqbi0","pricing_plan_id":"cebpf4jnsgd1na2vs0mg"},{"bike_id":"809b023b-ae91-4da6-b5c9-1085ca6b8bfc","system_id":"levelo_inurba_marseille","lat":43.296277,"lon":5.377108,"is_reserved":false,"is_disabled":false,"rental_uris":{"android":"levelo://app?vid=809b023b-ae91-4da6-b5c9-1085ca6b8bfc","ios":"levelo://app?vid=809b023b-ae91-4da6-b5c9-1085ca6b8bfc"},"vehicle_type_id":"4","last_reported":1718485582,"current_range_meters":22400,"station_id":"ce4bgi92rcd13ifvqb90","pricing_plan_id":"cebpf4jnsgd1na2vs0mg"},{"bike_id":"263718a0-e2c1-41a3-8d4c-a47b3b5ae189","system_id":"levelo_inurba_marseille","lat":43.299707,"lon":5.384859,"is_reserved":false,"is_disabled":false,"rental_uris":{"android":"levelo://app?vid=263718a0-e2c1-41a3-8d4c-a47b3b5ae189","ios":"levelo://app?vid=263718a0-e2c1-41a3-8d4c-a47b3b5ae189"},"vehicle_type_id":"4","last_reported":1718485582,"current_range_meters":11600,"station_id":"ce4bgj92rcd13ifvqbd0","pricing_plan_id":"cebpf4jnsgd1na2vs0mg"},{"bike_id":"e2338d2f-477e-442c-86c1-813731e02424","system_id":"levelo_inurba_marseille","lat":43.299222,"lon":5.365554,"is_reserved":false,"is_disabled":false,"rental_uris":{"android":"levelo://app?vid=e2338d2f-477e-442c-86c1-813731e02424","ios":"levelo://app?vid=e2338d2f-477e-442c-86c1-813731e02424"},"vehicle_type_id":"4","last_reported":1718485582,"current_range_meters":12800,"station_id":"ce4bgm92rcd13ifvqbr0","pricing_plan_id":"cebpf4jnsgd1na2vs0mg"},{"bike_id":"f4d4fdaf-b3b4-4023-8565-a31e87bd1ec0","system_id":"levelo_inurba_marseille","lat":43.32362,"lon":5.3888,"is_reserved":false,"is_disabled":false,"rental_uris":{"android":"levelo://app?vid=f4d4fdaf-b3b4-4023-8565-a31e87bd1ec0","ios":"levelo://app?vid=f4d4fdaf-b3b4-4023-8565-a31e87bd1ec0"},"vehicle_type_id":"4","last_reported":1718485582,"current_range_meters":10800,"station_id":"ce4bhqp2rcd13ifvqhog","pricing_plan_id":"cebpf4jnsgd1na2vs0mg"},{"bike_id":"be7bde44-2736-46f6-86d2-f673ea749756","system_id":"levelo_inurba_marseille","lat":43.32363,"lon":5.38881,"is_reserved":false,"is_disabled":false,"rental_uris":{"android":"levelo://app?vid=be7bde44-2736-46f6-86d2-f673ea749756","ios":"levelo://app?vid=be7bde44-2736-46f6-86d2-f673ea749756"},"vehicle_type_id":"4","last_reported":1718485582,"current_range_meters":0,"station_id":"ce4bhqp2rcd13ifvqhog","pricing_plan_id":"cebpf4jnsgd1na2vs0mg"},{"bike_id":"74f26dcd-bfdf-4a63-8a81-4e414d151e0b","system_id":"levelo_inurba_marseille","lat":43.32367,"lon":5.388836,"is_reserved":false,"is_disabled":false,"rental_uris":{"android":"levelo://app?vid=74f26dcd-bfdf-4a63-8a81-4e414d151e0b","ios":"levelo://app?vid=74f26dcd-bfdf-4a63-8a81-4e414d151e0b"},"vehicle_type_id":"4","last_reported":1718485582,"current_range_meters":14800,"station_id":"ce4bhqp2rcd13ifvqhog","pricing_plan_id":"cebpf4jnsgd1na2vs0mg"},{"bike_id":"cdcb4623-6523-4b9f-88f1-7bd66f1a2926","system_id":"levelo_inurba_marseille","lat":43.32367,"lon":5.388836,"is_reserved":false,"is_disabled":false,"rental_uris":{"android":"levelo://app?vid=cdcb4623-6523-4b9f-88f1-7bd66f1a2926","ios":"levelo://app?vid=cdcb4623-6523-4b9f-88f1-7bd66f1a2926"},"vehicle_type_id":"4","last_reported":1718485582,"current_range_meters":5600,"station_id":"ce4bhqp2rcd13ifvqhog","pricing_plan_id":"cebpf4jnsgd1na2vs0mg"},{"bike_id":"f4420b61-33fc-4f30-8716-5973b186ee29","system_id":"levelo_inurba_marseille","lat":43.32364,"lon":5.38887,"is_reserved":false,"is_disabled":false,"rental_uris":{"android":"levelo://app?vid=f4420b61-33fc-4f30-8716-5973b186ee29","ios":"levelo://app?vid=f4420b61-33fc-4f30-8716-5973b186ee29"},"vehicle_type_id":"4","last_reported":1718485582,"current_range_meters":4800,"station_id":"ce4bhqp2rcd13ifvqhog","pricing_plan_id":"cebpf4jnsgd1na2vs0mg"},{"bike_id":"3b29fd31-1a15-408a-9859-999a92754cdf","system_id":"levelo_inurba_marseille","lat":43.323629,"lon":5.388885,"is_reserved":false,"is_disabled":false,"rental_uris":{"android":"levelo://app?vid=3b29fd31-1a15-408a-9859-999a92754cdf","ios":"levelo://app?vid=3b29fd31-1a15-408a-9859-999a92754cdf"},"vehicle_type_id":"4","last_reported":1718485582,"current_range_meters":5200,"station_id":"ce4bhqp2rcd13ifvqhog","pricing_plan_id":"cebpf4jnsgd1na2vs0mg"},{"bike_id":"667e898e-fe25-421d-8814-20c44f849d13","system_id":"levelo_inurba_marseille","lat":43.32366,"lon":5.38886,"is_reserved":false,"is_disabled":false,"rental_uris":{"android":"levelo://app?vid=667e898e-fe25-421d-8814-20c44f849d13","ios":"levelo://app?vid=667e898e-fe25-421d-8814-20c44f849d13"},"vehicle_type_id":"4","last_reported":1718485582,"current_range_meters":4800,"station_id":"ce4bhqp2rcd13ifvqhog","pricing_plan_id":"cebpf4jnsgd1na2vs0mg"},{"bike_id":"7561201b-0e8e-45e5-8890-9800c6bdc8e0","system_id":"levelo_inurba_marseille","lat":43.32367,"lon":5.388836,"is_reserved":false,"is_disabled":false,"rental_uris":{"android":"levelo://app?vid=7561201b-0e8e-45e5-8890-9800c6bdc8e0","ios":"levelo://app?vid=7561201b-0e8e-45e5-8890-9800c6bdc8e0"},"vehicle_type_id":"4","last_reported":1718485582,"current_range_meters":10400,"station_id":"ce4bhqp2rcd13ifvqhog","pricing_plan_id":"cebpf4jnsgd1na2vs0mg"},{"bike_id":"c599253d-ee64-44fa-8458-0a993997c5df","system_id":"levelo_inurba_marseille","lat":43.32367,"lon":5.388836,"is_reserved":false,"is_disabled":false,"rental_uris":{"android":"levelo://app?vid=c599253d-ee64-44fa-8458-0a993997c5df","ios":"levelo://app?vid=c599253d-ee64-44fa-8458-0a993997c5df"},"vehicle_type_id":"4","last_reported":1718485582,"current_range_meters":15200,"station_id":"ce4bhqp2rcd13ifvqhog","pricing_plan_id":"cebpf4jnsgd1na2vs0mg"},{"bike_id":"8e722557-300f-42eb-af0a-bb62a49fe5be","system_id":"levelo_inurba_marseille","lat":43.29602,"lon":5.381084,"is_reserved":false,"is_disabled":false,"rental_uris":{"android":"levelo://app?vid=8e722557-300f-42eb-af0a-bb62a49fe5be","ios":"levelo://app?vid=8e722557-300f-42eb-af0a-bb62a49fe5be"},"vehicle_type_id":"4","last_reported":1718485582,"current_range_meters":5600,"station_id":"ce4bgl12rcd13ifvqbo0","pricing_plan_id":"cebpf4jnsgd1na2vs0mg"},{"bike_id":"78a1ea05-248e-4536-b861-40d2ad66a190","system_id":"levelo_inurba_marseille","lat":43.293249,"lon":5.371578,"is_reserved":false,"is_disabled":false,"rental_uris":{"android":"levelo://app?vid=78a1ea05-248e-4536-b861-40d2ad66a190","ios":"levelo://app?vid=78a1ea05-248e-4536-b861-40d2ad66a190"},"vehicle_type_id":"4","last_reported":1718485582,"current_range_meters":2000,"station_id":"ce4bgh92rcd13ifvqb40","pricing_plan_id":"cebpf4jnsgd1na2vs0mg"},{"bike_id":"257f0391-c5f3-497c-ac03-8f01222abcaa","system_id":"levelo_inurba_marseille","lat":43.292749,"lon":5.368398,"is_reserved":false,"is_disabled":false,"rental_uris":{"android":"levelo://app?vid=257f0391-c5f3-497c-ac03-8f01222abcaa","ios":"levelo://app?vid=257f0391-c5f3-497c-ac03-8f01222abcaa"},"vehicle_type_id":"4","last_reported":1718485582,"current_range_meters":22400,"station_id":"ce4bhbp2rcd13ifvqesg","pricing_plan_id":"cebpf4jnsgd1na2vs0mg"},{"bike_id":"a3bccc92-a0c3-42e2-839a-8a1fbeecf071","system_id":"levelo_inurba_marseille","lat":43.292749,"lon":5.368398,"is_reserved":false,"is_disabled":false,"rental_uris":{"android":"levelo://app?vid=a3bccc92-a0c3-42e2-839a-8a1fbeecf071","ios":"levelo://app?vid=a3bccc92-a0c3-42e2-839a-8a1fbeecf071"},"vehicle_type_id":"4","last_reported":1718485582,"current_range_meters":1600,"station_id":"ce4bhbp2rcd13ifvqesg","pricing_plan_id":"cebpf4jnsgd1na2vs0mg"},{"bike_id":"df26c0db-2302-41c8-abcd-f675b0733d0b","system_id":"levelo_inurba_marseille","lat":43.294296,"lon":5.378676,"is_reserved":false,"is_disabled":false,"rental_uris":{"android":"levelo://app?vid=df26c0db-2302-41c8-abcd-f675b0733d0b","ios":"levelo://app?vid=df26c0db-2302-41c8-abcd-f675b0733d0b"},"vehicle_type_id":"4","last_reported":1718485582,"current_range_meters":8000,"station_id":"","pricing_plan_id":"cebpf4jnsgd1na2vs0mg"},{"bike_id":"f846251e-fbd8-40b8-b9a1-a86788c399dc","system_id":"levelo_inurba_marseille","lat":43.305994,"lon":5.393687,"is_reserved":false,"is_disabled":false,"rental_uris":{"android":"levelo://app?vid=f846251e-fbd8-40b8-b9a1-a86788c399dc","ios":"levelo://app?vid=f846251e-fbd8-40b8-b9a1-a86788c399dc"},"vehicle_type_id":"4","last_reported":1718485582,"current_range_meters":10800,"station_id":"ce4bh0p2rcd13ifvqd80","pricing_plan_id":"cebpf4jnsgd1na2vs0mg"},{"bike_id":"0917348c-173d-4ed0-9e4f-45790a4e6a43","system_id":"levelo_inurba_marseille","lat":43.305994,"lon":5.393687,"is_reserved":false,"is_disabled":false,"rental_uris":{"android":"levelo://app?vid=0917348c-173d-4ed0-9e4f-45790a4e6a43","ios":"levelo://app?vid=0917348c-173d-4ed0-9e4f-45790a4e6a43"},"vehicle_type_id":"4","last_reported":1718485582,"current_range_meters":19200,"station_id":"ce4bh0p2rcd13ifvqd80","pricing_plan_id":"cebpf4jnsgd1na2vs0mg"},{"bike_id":"8b9a79cd-40f3-4afe-a495-989e349d4d3c","system_id":"levelo_inurba_marseille","lat":43.305854,"lon":5.393644,"is_reserved":false,"is_disabled":false,"rental_uris":{"android":"levelo://app?vid=8b9a79cd-40f3-4afe-a495-989e349d4d3c","ios":"levelo://app?vid=8b9a79cd-40f3-4afe-a495-989e349d4d3c"},"vehicle_type_id":"4","last_reported":1718485582,"current_range_meters":3200,"station_id":"ce4bh0p2rcd13ifvqd80","pricing_plan_id":"cebpf4jnsgd1na2vs0mg"},{"bike_id":"3883cc52-d4fb-4232-896b-5b7d9be42a53","system_id":"levelo_inurba_marseille","lat":43.2936,"lon":5.37835,"is_reserved":false,"is_disabled":false,"rental_uris":{"android":"levelo://app?vid=3883cc52-d4fb-4232-896b-5b7d9be42a53","ios":"levelo://app?vid=3883cc52-d4fb-4232-896b-5b7d9be42a53"},"vehicle_type_id":"4","last_reported":1718485582,"current_range_meters":27600,"station_id":"ce4bgjh2rcd13ifvqbf0","pricing_plan_id":"cebpf4jnsgd1na2vs0mg"},{"bike_id":"3fb69a4e-b615-45be-ac18-a3716be927b1","system_id":"levelo_inurba_marseille","lat":43.303002,"lon":5.392142,"is_reserved":false,"is_disabled":false,"rental_uris":{"android":"levelo://app?vid=3fb69a4e-b615-45be-ac18-a3716be927b1","ios":"levelo://app?vid=3fb69a4e-b615-45be-ac18-a3716be927b1"},"vehicle_type_id":"4","last_reported":1718485582,"current_range_meters":12800,"station_id":"ce4bgkh2rcd13ifvqbk0","pricing_plan_id":"cebpf4jnsgd1na2vs0mg"},{"bike_id":"ef568aad-402d-4a4c-ac5c-f12285966df8","system_id":"levelo_inurba_marseille","lat":43.30085,"lon":5.390856,"is_reserved":false,"is_disabled":false,"rental_uris":{"android":"levelo://app?vid=ef568aad-402d-4a4c-ac5c-f12285966df8","ios":"levelo://app?vid=ef568aad-402d-4a4c-ac5c-f12285966df8"},"vehicle_type_id":"4","last_reported":1718485582,"current_range_meters":10400,"station_id":"ce4bh192rcd13ifvqdb0","pricing_plan_id":"cebpf4jnsgd1na2vs0mg"},{"bike_id":"e834b08a-8565-45f4-a7b0-738950fc1fe5","system_id":"levelo_inurba_marseille","lat":43.30085,"lon":5.390856,"is_reserved":false,"is_disabled":false,"rental_uris":{"android":"levelo://app?vid=e834b08a-8565-45f4-a7b0-738950fc1fe5","ios":"levelo://app?vid=e834b08a-8565-45f4-a7b0-738950fc1fe5"},"vehicle_type_id":"4","last_reported":1718485582,"current_range_meters":4000,"station_id":"ce4bh192rcd13ifvqdb0","pricing_plan_id":"cebpf4jnsgd1na2vs0mg"},{"bike_id":"9b8570c1-2cb2-481b-8b51-7708da22edc6","system_id":"levelo_inurba_marseille","lat":43.30085,"lon":5.390856,"is_reserved":false,"is_disabled":false,"rental_uris":{"android":"levelo://app?vid=9b8570c1-2cb2-481b-8b51-7708da22edc6","ios":"levelo://app?vid=9b8570c1-2cb2-481b-8b51-7708da22edc6"},"vehicle_type_id":"4","last_reported":1718485582,"current_range_meters":26400,"station_id":"ce4bh192rcd13ifvqdb0","pricing_plan_id":"cebpf4jnsgd1na2vs0mg"},{"bike_id":"46d8f979-9c76-4038-8746-1270e241d193","system_id":"levelo_inurba_marseille","lat":43.298764,"lon":5.388973,"is_reserved":false,"is_disabled":false,"rental_uris":{"android":"levelo://app?vid=46d8f979-9c76-4038-8746-1270e241d193","ios":"levelo://app?vid=46d8f979-9c76-4038-8746-1270e241d193"},"vehicle_type_id":"4","last_reported":1718485582,"current_range_meters":8400,"station_id":"ce4bh392rcd13ifvqdl0","pricing_plan_id":"cebpf4jnsgd1na2vs0mg"},{"bike_id":"0fce9708-8bd0-4b3e-8ed5-1afc57750edb","system_id":"levelo_inurba_marseille","lat":43.298764,"lon":5.388973,"is_reserved":false,"is_disabled":false,"rental_uris":{"android":"levelo://app?vid=0fce9708-8bd0-4b3e-8ed5-1afc57750edb","ios":"levelo://app?vid=0fce9708-8bd0-4b3e-8ed5-1afc57750edb"},"vehicle_type_id":"4","last_reported":1718485582,"current_range_meters":9200,"station_id":"ce4bh392rcd13ifvqdl0","pricing_plan_id":"cebpf4jnsgd1na2vs0mg"},{"bike_id":"ff301364-4fca-4e95-a224-c0ec5ad30b83","system_id":"levelo_inurba_marseille","lat":43.298764,"lon":5.388973,"is_reserved":false,"is_disabled":false,"rental_uris":{"android":"levelo://app?vid=ff301364-4fca-4e95-a224-c0ec5ad30b83","ios":"levelo://app?vid=ff301364-4fca-4e95-a224-c0ec5ad30b83"},"vehicle_type_id":"4","last_reported":1718485582,"current_range_meters":31200,"station_id":"ce4bh392rcd13ifvqdl0","pricing_plan_id":"cebpf4jnsgd1na2vs0mg"},{"bike_id":"1902b3ae-f09a-4ac4-a714-50b10874c5c4","system_id":"levelo_inurba_marseille","lat":43.298764,"lon":5.388973,"is_reserved":false,"is_disabled":false,"rental_uris":{"android":"levelo://app?vid=1902b3ae-f09a-4ac4-a714-50b10874c5c4","ios":"levelo://app?vid=1902b3ae-f09a-4ac4-a714-50b10874c5c4"},"vehicle_type_id":"4","last_reported":1718485582,"current_range_meters":23200,"station_id":"ce4bh392rcd13ifvqdl0","pricing_plan_id":"cebpf4jnsgd1na2vs0mg"},{"bike_id":"f888c362-d80f-481c-9563-82d1d58acfac","system_id":"levelo_inurba_marseille","lat":43.298764,"lon":5.388973,"is_reserved":false,"is_disabled":false,"rental_uris":{"android":"levelo://app?vid=f888c362-d80f-481c-9563-82d1d58acfac","ios":"levelo://app?vid=f888c362-d80f-481c-9563-82d1d58acfac"},"vehicle_type_id":"4","last_reported":1718485582,"current_range_meters":31200,"station_id":"ce4bh392rcd13ifvqdl0","pricing_plan_id":"cebpf4jnsgd1na2vs0mg"},{"bike_id":"9c097e96-a83a-4f6f-b7a5-418ad5cacf3e","system_id":"levelo_inurba_marseille","lat":43.309047,"lon":5.396551,"is_reserved":false,"is_disabled":false,"rental_uris":{"android":"levelo://app?vid=9c097e96-a83a-4f6f-b7a5-418ad5cacf3e","ios":"levelo://app?vid=9c097e96-a83a-4f6f-b7a5-418ad5cacf3e"},"vehicle_type_id":"4","last_reported":1718485582,"current_range_meters":24800,"station_id":"ce4bh012rcd13ifvqcv0","pricing_plan_id":"cebpf4jnsgd1na2vs0mg"},{"bike_id":"806e5316-1d65-46d2-865e-b863d3653b04","system_id":"levelo_inurba_marseille","lat":43.313291,"lon":5.396838,"is_reserved":false,"is_disabled":false,"rental_uris":{"android":"levelo://app?vid=806e5316-1d65-46d2-865e-b863d3653b04","ios":"levelo://app?vid=806e5316-1d65-46d2-865e-b863d3653b04"},"vehicle_type_id":"4","last_reported":1718485582,"current_range_meters":10000,"station_id":"ce4bgvp2rcd13ifvqcu0","pricing_plan_id":"cebpf4jnsgd1na2vs0mg"},{"bike_id":"cc9d6998-155b-48b9-a137-3fca541879e7","system_id":"levelo_inurba_marseille","lat":43.313291,"lon":5.396838,"is_reserved":false,"is_disabled":false,"rental_uris":{"android":"levelo://app?vid=cc9d6998-155b-48b9-a137-3fca541879e7","ios":"levelo://app?vid=cc9d6998-155b-48b9-a137-3fca541879e7"},"vehicle_type_id":"4","last_reported":1718485582,"current_range_meters":27200,"station_id":"ce4bgvp2rcd13ifvqcu0","pricing_plan_id":"cebpf4jnsgd1na2vs0mg"},{"bike_id":"67deec1e-7e26-4b41-9fb0-656d57d19cb9","system_id":"levelo_inurba_marseille","lat":43.313291,"lon":5.396838,"is_reserved":false,"is_disabled":false,"rental_uris":{"android":"levelo://app?vid=67deec1e-7e26-4b41-9fb0-656d57d19cb9","ios":"levelo://app?vid=67deec1e-7e26-4b41-9fb0-656d57d19cb9"},"vehicle_type_id":"4","last_reported":1718485582,"current_range_meters":20400,"station_id":"ce4bgvp2rcd13ifvqcu0","pricing_plan_id":"cebpf4jnsgd1na2vs0mg"},{"bike_id":"acec3aee-e974-4351-8005-3d38072a48f1","system_id":"levelo_inurba_marseille","lat":43.313291,"lon":5.396838,"is_reserved":false,"is_disabled":false,"rental_uris":{"android":"levelo://app?vid=acec3aee-e974-4351-8005-3d38072a48f1","ios":"levelo://app?vid=acec3aee-e974-4351-8005-3d38072a48f1"},"vehicle_type_id":"4","last_reported":1718485582,"current_range_meters":2400,"station_id":"ce4bgvp2rcd13ifvqcu0","pricing_plan_id":"cebpf4jnsgd1na2vs0mg"},{"bike_id":"5583f815-0001-4407-8b06-e9331b5f68a9","system_id":"levelo_inurba_marseille","lat":43.313291,"lon":5.396838,"is_reserved":false,"is_disabled":false,"rental_uris":{"android":"levelo://app?vid=5583f815-0001-4407-8b06-e9331b5f68a9","ios":"levelo://app?vid=5583f815-0001-4407-8b06-e9331b5f68a9"},"vehicle_type_id":"4","last_reported":1718485582,"current_range_meters":12000,"station_id":"ce4bgvp2rcd13ifvqcu0","pricing_plan_id":"cebpf4jnsgd1na2vs0mg"},{"bike_id":"b445563a-3e67-48b3-a0f3-bd2cf2860951","system_id":"levelo_inurba_marseille","lat":43.295301,"lon":5.385492,"is_reserved":false,"is_disabled":false,"rental_uris":{"android":"levelo://app?vid=b445563a-3e67-48b3-a0f3-bd2cf2860951","ios":"levelo://app?vid=b445563a-3e67-48b3-a0f3-bd2cf2860951"},"vehicle_type_id":"4","last_reported":1718485582,"current_range_meters":30000,"station_id":"ce4bgih2rcd13ifvqba0","pricing_plan_id":"cebpf4jnsgd1na2vs0mg"},{"bike_id":"38309d25-36f8-4b90-886e-0bce71dfa032","system_id":"levelo_inurba_marseille","lat":43.2953,"lon":5.38556,"is_reserved":false,"is_disabled":false,"rental_uris":{"android":"levelo://app?vid=38309d25-36f8-4b90-886e-0bce71dfa032","ios":"levelo://app?vid=38309d25-36f8-4b90-886e-0bce71dfa032"},"vehicle_type_id":"4","last_reported":1718485582,"current_range_meters":30400,"station_id":"ce4bgih2rcd13ifvqba0","pricing_plan_id":"cebpf4jnsgd1na2vs0mg"},{"bike_id":"cd0e75b6-b235-4b10-af1e-7b79b027525c","system_id":"levelo_inurba_marseille","lat":43.302008,"lon":5.394694,"is_reserved":false,"is_disabled":false,"rental_uris":{"android":"levelo://app?vid=cd0e75b6-b235-4b10-af1e-7b79b027525c","ios":"levelo://app?vid=cd0e75b6-b235-4b10-af1e-7b79b027525c"},"vehicle_type_id":"4","last_reported":1718485582,"current_range_meters":30000,"station_id":"ce4bh0p2rcd13ifvqd70","pricing_plan_id":"cebpf4jnsgd1na2vs0mg"},{"bike_id":"ad7b7a9e-09fa-4927-99ad-a2d416fcc50a","system_id":"levelo_inurba_marseille","lat":43.294153,"lon":5.386305,"is_reserved":false,"is_disabled":false,"rental_uris":{"android":"levelo://app?vid=ad7b7a9e-09fa-4927-99ad-a2d416fcc50a","ios":"levelo://app?vid=ad7b7a9e-09fa-4927-99ad-a2d416fcc50a"},"vehicle_type_id":"4","last_reported":1718485582,"current_range_meters":29200,"station_id":"ce4bh2h2rcd13ifvqdh0","pricing_plan_id":"cebpf4jnsgd1na2vs0mg"},{"bike_id":"8e25f247-6753-43bf-b588-6983313729d6","system_id":"levelo_inurba_marseille","lat":43.2942,"lon":5.38622,"is_reserved":false,"is_disabled":false,"rental_uris":{"android":"levelo://app?vid=8e25f247-6753-43bf-b588-6983313729d6","ios":"levelo://app?vid=8e25f247-6753-43bf-b588-6983313729d6"},"vehicle_type_id":"4","last_reported":1718485582,"current_range_meters":19200,"station_id":"ce4bh2h2rcd13ifvqdh0","pricing_plan_id":"cebpf4jnsgd1na2vs0mg"},{"bike_id":"c3c19488-b419-4319-ba8a-e6c3ec6e7832","system_id":"levelo_inurba_marseille","lat":43.294181,"lon":5.386282,"is_reserved":false,"is_disabled":false,"rental_uris":{"android":"levelo://app?vid=c3c19488-b419-4319-ba8a-e6c3ec6e7832","ios":"levelo://app?vid=c3c19488-b419-4319-ba8a-e6c3ec6e7832"},"vehicle_type_id":"4","last_reported":1718485582,"current_range_meters":26800,"station_id":"ce4bh2h2rcd13ifvqdh0","pricing_plan_id":"cebpf4jnsgd1na2vs0mg"},{"bike_id":"d5d3d055-faa5-4a78-9e76-f61ad8865d12","system_id":"levelo_inurba_marseille","lat":43.294153,"lon":5.386305,"is_reserved":false,"is_disabled":false,"rental_uris":{"android":"levelo://app?vid=d5d3d055-faa5-4a78-9e76-f61ad8865d12","ios":"levelo://app?vid=d5d3d055-faa5-4a78-9e76-f61ad8865d12"},"vehicle_type_id":"4","last_reported":1718485582,"current_range_meters":9200,"station_id":"ce4bh2h2rcd13ifvqdh0","pricing_plan_id":"cebpf4jnsgd1na2vs0mg"},{"bike_id":"6ed3ee39-24f4-48e1-8d72-b37a2461763f","system_id":"levelo_inurba_marseille","lat":43.294162,"lon":5.386292,"is_reserved":false,"is_disabled":false,"rental_uris":{"android":"levelo://app?vid=6ed3ee39-24f4-48e1-8d72-b37a2461763f","ios":"levelo://app?vid=6ed3ee39-24f4-48e1-8d72-b37a2461763f"},"vehicle_type_id":"4","last_reported":1718485582,"current_range_meters":30800,"station_id":"ce4bh2h2rcd13ifvqdh0","pricing_plan_id":"cebpf4jnsgd1na2vs0mg"},{"bike_id":"04d67ece-c216-4e4a-b619-ac51e9752e60","system_id":"levelo_inurba_marseille","lat":43.294165,"lon":5.386289,"is_reserved":false,"is_disabled":false,"rental_uris":{"android":"levelo://app?vid=04d67ece-c216-4e4a-b619-ac51e9752e60","ios":"levelo://app?vid=04d67ece-c216-4e4a-b619-ac51e9752e60"},"vehicle_type_id":"4","last_reported":1718485582,"current_range_meters":24000,"station_id":"ce4bh2h2rcd13ifvqdh0","pricing_plan_id":"cebpf4jnsgd1na2vs0mg"},{"bike_id":"fcf078b4-1e1f-4b6b-a8cd-2d50f85605af","system_id":"levelo_inurba_marseille","lat":43.292644,"lon":5.384257,"is_reserved":false,"is_disabled":false,"rental_uris":{"android":"levelo://app?vid=fcf078b4-1e1f-4b6b-a8cd-2d50f85605af","ios":"levelo://app?vid=fcf078b4-1e1f-4b6b-a8cd-2d50f85605af"},"vehicle_type_id":"4","last_reported":1718485582,"current_range_meters":1200,"station_id":"ce4bh692rcd13ifvqea0","pricing_plan_id":"cebpf4jnsgd1na2vs0mg"},{"bike_id":"36bdd781-c9c1-419d-a9dd-ae1f828a2d25","system_id":"levelo_inurba_marseille","lat":43.292567,"lon":5.384357,"is_reserved":false,"is_disabled":false,"rental_uris":{"android":"levelo://app?vid=36bdd781-c9c1-419d-a9dd-ae1f828a2d25","ios":"levelo://app?vid=36bdd781-c9c1-419d-a9dd-ae1f828a2d25"},"vehicle_type_id":"4","last_reported":1718485582,"current_range_meters":28800,"station_id":"ce4bh692rcd13ifvqea0","pricing_plan_id":"cebpf4jnsgd1na2vs0mg"},{"bike_id":"a9b38055-7b1a-490d-bc89-2e08ccbf471a","system_id":"levelo_inurba_marseille","lat":43.29012,"lon":5.355533,"is_reserved":false,"is_disabled":false,"rental_uris":{"android":"levelo://app?vid=a9b38055-7b1a-490d-bc89-2e08ccbf471a","ios":"levelo://app?vid=a9b38055-7b1a-490d-bc89-2e08ccbf471a"},"vehicle_type_id":"4","last_reported":1718485582,"current_range_meters":9200,"station_id":"ce4bhb92rcd13ifvqen0","pricing_plan_id":"cebpf4jnsgd1na2vs0mg"},{"bike_id":"a9aa9107-ccd6-40df-ab98-55a8eda7213f","system_id":"levelo_inurba_marseille","lat":43.290995,"lon":5.381361,"is_reserved":false,"is_disabled":false,"rental_uris":{"android":"levelo://app?vid=a9aa9107-ccd6-40df-ab98-55a8eda7213f","ios":"levelo://app?vid=a9aa9107-ccd6-40df-ab98-55a8eda7213f"},"vehicle_type_id":"4","last_reported":1718485582,"current_range_meters":0,"station_id":"ce4bh512rcd13ifvqe2g","pricing_plan_id":"cebpf4jnsgd1na2vs0mg"},{"bike_id":"d15cb2f1-a41b-4321-af8d-ac8d0bf1e834","system_id":"levelo_inurba_marseille","lat":43.290995,"lon":5.381361,"is_reserved":false,"is_disabled":false,"rental_uris":{"android":"levelo://app?vid=d15cb2f1-a41b-4321-af8d-ac8d0bf1e834","ios":"levelo://app?vid=d15cb2f1-a41b-4321-af8d-ac8d0bf1e834"},"vehicle_type_id":"4","last_reported":1718485582,"current_range_meters":29600,"station_id":"ce4bh512rcd13ifvqe2g","pricing_plan_id":"cebpf4jnsgd1na2vs0mg"},{"bike_id":"92b42f4d-b5fd-4629-8092-1412f6ce832c","system_id":"levelo_inurba_marseille","lat":43.29094,"lon":5.38127,"is_reserved":false,"is_disabled":false,"rental_uris":{"android":"levelo://app?vid=92b42f4d-b5fd-4629-8092-1412f6ce832c","ios":"levelo://app?vid=92b42f4d-b5fd-4629-8092-1412f6ce832c"},"vehicle_type_id":"4","last_reported":1718485582,"current_range_meters":1600,"station_id":"ce4bh512rcd13ifvqe2g","pricing_plan_id":"cebpf4jnsgd1na2vs0mg"},{"bike_id":"42780471-292b-4c1a-8446-ee49346e97f1","system_id":"levelo_inurba_marseille","lat":43.290995,"lon":5.381361,"is_reserved":false,"is_disabled":false,"rental_uris":{"android":"levelo://app?vid=42780471-292b-4c1a-8446-ee49346e97f1","ios":"levelo://app?vid=42780471-292b-4c1a-8446-ee49346e97f1"},"vehicle_type_id":"4","last_reported":1718485582,"current_range_meters":14000,"station_id":"ce4bh512rcd13ifvqe2g","pricing_plan_id":"cebpf4jnsgd1na2vs0mg"},{"bike_id":"c12507b7-64e5-4302-ba44-723a1365fd4d","system_id":"levelo_inurba_marseille","lat":43.295169,"lon":5.390426,"is_reserved":false,"is_disabled":false,"rental_uris":{"android":"levelo://app?vid=c12507b7-64e5-4302-ba44-723a1365fd4d","ios":"levelo://app?vid=c12507b7-64e5-4302-ba44-723a1365fd4d"},"vehicle_type_id":"4","last_reported":1718485582,"current_range_meters":27200,"station_id":"ce4bh3p2rcd13ifvqdp0","pricing_plan_id":"cebpf4jnsgd1na2vs0mg"},{"bike_id":"affd9d9e-915a-4d31-b88f-dc1e3dc218e4","system_id":"levelo_inurba_marseille","lat":43.29783,"lon":5.39334,"is_reserved":false,"is_disabled":false,"rental_uris":{"android":"levelo://app?vid=affd9d9e-915a-4d31-b88f-dc1e3dc218e4","ios":"levelo://app?vid=affd9d9e-915a-4d31-b88f-dc1e3dc218e4"},"vehicle_type_id":"4","last_reported":1718485582,"current_range_meters":20400,"station_id":"chh1huq6cuj3fo74tm60","pricing_plan_id":"cebpf4jnsgd1na2vs0mg"},{"bike_id":"8514f290-d301-483f-a346-aa6cabc02ffc","system_id":"levelo_inurba_marseille","lat":43.295169,"lon":5.390426,"is_reserved":false,"is_disabled":false,"rental_uris":{"android":"levelo://app?vid=8514f290-d301-483f-a346-aa6cabc02ffc","ios":"levelo://app?vid=8514f290-d301-483f-a346-aa6cabc02ffc"},"vehicle_type_id":"4","last_reported":1718485582,"current_range_meters":28000,"station_id":"ce4bh3p2rcd13ifvqdp0","pricing_plan_id":"cebpf4jnsgd1na2vs0mg"},{"bike_id":"bd17ac44-8bb3-4111-9750-451007c8ce08","system_id":"levelo_inurba_marseille","lat":43.297814,"lon":5.393513,"is_reserved":false,"is_disabled":false,"rental_uris":{"android":"levelo://app?vid=bd17ac44-8bb3-4111-9750-451007c8ce08","ios":"levelo://app?vid=bd17ac44-8bb3-4111-9750-451007c8ce08"},"vehicle_type_id":"4","last_reported":1718485582,"current_range_meters":14400,"station_id":"chh1huq6cuj3fo74tm60","pricing_plan_id":"cebpf4jnsgd1na2vs0mg"},{"bike_id":"1d853ea2-b58d-4e84-a286-65fc70effc1a","system_id":"levelo_inurba_marseille","lat":43.289741,"lon":5.378306,"is_reserved":false,"is_disabled":false,"rental_uris":{"android":"levelo://app?vid=1d853ea2-b58d-4e84-a286-65fc70effc1a","ios":"levelo://app?vid=1d853ea2-b58d-4e84-a286-65fc70effc1a"},"vehicle_type_id":"4","last_reported":1718485582,"current_range_meters":27200,"station_id":"ce4bh9p2rcd13ifvqed0","pricing_plan_id":"cebpf4jnsgd1na2vs0mg"},{"bike_id":"482da28b-3998-4642-8c8f-b2658b9109ea","system_id":"levelo_inurba_marseille","lat":43.330442,"lon":5.389148,"is_reserved":false,"is_disabled":false,"rental_uris":{"android":"levelo://app?vid=482da28b-3998-4642-8c8f-b2658b9109ea","ios":"levelo://app?vid=482da28b-3998-4642-8c8f-b2658b9109ea"},"vehicle_type_id":"4","last_reported":1718485582,"current_range_meters":3200,"station_id":"ce4bhr92rcd13ifvqhrg","pricing_plan_id":"cebpf4jnsgd1na2vs0mg"},{"bike_id":"91ad505a-97ba-47ed-bfbc-ac773abb6082","system_id":"levelo_inurba_marseille","lat":43.289741,"lon":5.378306,"is_reserved":false,"is_disabled":false,"rental_uris":{"android":"levelo://app?vid=91ad505a-97ba-47ed-bfbc-ac773abb6082","ios":"levelo://app?vid=91ad505a-97ba-47ed-bfbc-ac773abb6082"},"vehicle_type_id":"4","last_reported":1718485582,"current_range_meters":16400,"station_id":"ce4bh9p2rcd13ifvqed0","pricing_plan_id":"cebpf4jnsgd1na2vs0mg"},{"bike_id":"bf5e452a-687c-4b3b-8f07-0e48d3a231be","system_id":"levelo_inurba_marseille","lat":43.289741,"lon":5.378306,"is_reserved":false,"is_disabled":false,"rental_uris":{"android":"levelo://app?vid=bf5e452a-687c-4b3b-8f07-0e48d3a231be","ios":"levelo://app?vid=bf5e452a-687c-4b3b-8f07-0e48d3a231be"},"vehicle_type_id":"4","last_reported":1718485582,"current_range_meters":28000,"station_id":"ce4bh9p2rcd13ifvqed0","pricing_plan_id":"cebpf4jnsgd1na2vs0mg"},{"bike_id":"d1bccc3e-6970-4ce1-9557-1806ce2c0e3f","system_id":"levelo_inurba_marseille","lat":43.295169,"lon":5.390426,"is_reserved":false,"is_disabled":false,"rental_uris":{"android":"levelo://app?vid=d1bccc3e-6970-4ce1-9557-1806ce2c0e3f","ios":"levelo://app?vid=d1bccc3e-6970-4ce1-9557-1806ce2c0e3f"},"vehicle_type_id":"4","last_reported":1718485582,"current_range_meters":29200,"station_id":"ce4bh3p2rcd13ifvqdp0","pricing_plan_id":"cebpf4jnsgd1na2vs0mg"},{"bike_id":"af177032-9d89-45d4-8357-e2507f445aac","system_id":"levelo_inurba_marseille","lat":43.330442,"lon":5.389148,"is_reserved":false,"is_disabled":false,"rental_uris":{"android":"levelo://app?vid=af177032-9d89-45d4-8357-e2507f445aac","ios":"levelo://app?vid=af177032-9d89-45d4-8357-e2507f445aac"},"vehicle_type_id":"4","last_reported":1718485582,"current_range_meters":4000,"station_id":"ce4bhr92rcd13ifvqhrg","pricing_plan_id":"cebpf4jnsgd1na2vs0mg"},{"bike_id":"289f2477-a8e3-4b67-a482-f7d99f9422c9","system_id":"levelo_inurba_marseille","lat":43.330442,"lon":5.389148,"is_reserved":false,"is_disabled":false,"rental_uris":{"android":"levelo://app?vid=289f2477-a8e3-4b67-a482-f7d99f9422c9","ios":"levelo://app?vid=289f2477-a8e3-4b67-a482-f7d99f9422c9"},"vehicle_type_id":"4","last_reported":1718485582,"current_range_meters":12400,"station_id":"ce4bhr92rcd13ifvqhrg","pricing_plan_id":"cebpf4jnsgd1na2vs0mg"},{"bike_id":"d5844872-38bf-4a69-8ad8-972401de8808","system_id":"levelo_inurba_marseille","lat":43.295169,"lon":5.390426,"is_reserved":false,"is_disabled":false,"rental_uris":{"android":"levelo://app?vid=d5844872-38bf-4a69-8ad8-972401de8808","ios":"levelo://app?vid=d5844872-38bf-4a69-8ad8-972401de8808"},"vehicle_type_id":"4","last_reported":1718485582,"current_range_meters":12800,"station_id":"ce4bh3p2rcd13ifvqdp0","pricing_plan_id":"cebpf4jnsgd1na2vs0mg"},{"bike_id":"0d308f93-3412-4c7c-a5c3-d98403d2b819","system_id":"levelo_inurba_marseille","lat":43.2901,"lon":5.381269,"is_reserved":false,"is_disabled":false,"rental_uris":{"android":"levelo://app?vid=0d308f93-3412-4c7c-a5c3-d98403d2b819","ios":"levelo://app?vid=0d308f93-3412-4c7c-a5c3-d98403d2b819"},"vehicle_type_id":"4","last_reported":1718485582,"current_range_meters":28400,"station_id":"ce4bh4p2rcd13ifvqe1g","pricing_plan_id":"cebpf4jnsgd1na2vs0mg"},{"bike_id":"0b6b5802-bb34-4668-b91f-282af999b7ae","system_id":"levelo_inurba_marseille","lat":43.2901,"lon":5.381269,"is_reserved":false,"is_disabled":false,"rental_uris":{"android":"levelo://app?vid=0b6b5802-bb34-4668-b91f-282af999b7ae","ios":"levelo://app?vid=0b6b5802-bb34-4668-b91f-282af999b7ae"},"vehicle_type_id":"4","last_reported":1718485582,"current_range_meters":28000,"station_id":"ce4bh4p2rcd13ifvqe1g","pricing_plan_id":"cebpf4jnsgd1na2vs0mg"},{"bike_id":"b58a2ca6-f4ad-4159-a8f7-53c39a681ebe","system_id":"levelo_inurba_marseille","lat":43.290094,"lon":5.381264,"is_reserved":false,"is_disabled":false,"rental_uris":{"android":"levelo://app?vid=b58a2ca6-f4ad-4159-a8f7-53c39a681ebe","ios":"levelo://app?vid=b58a2ca6-f4ad-4159-a8f7-53c39a681ebe"},"vehicle_type_id":"4","last_reported":1718485582,"current_range_meters":6000,"station_id":"ce4bh4p2rcd13ifvqe1g","pricing_plan_id":"cebpf4jnsgd1na2vs0mg"},{"bike_id":"3bc2c9dd-fe38-4363-88c7-5decb41b547e","system_id":"levelo_inurba_marseille","lat":43.290985,"lon":5.38372,"is_reserved":false,"is_disabled":false,"rental_uris":{"android":"levelo://app?vid=3bc2c9dd-fe38-4363-88c7-5decb41b547e","ios":"levelo://app?vid=3bc2c9dd-fe38-4363-88c7-5decb41b547e"},"vehicle_type_id":"4","last_reported":1718485582,"current_range_meters":2400,"station_id":"ce4bh2p2rcd13ifvqdi0","pricing_plan_id":"cebpf4jnsgd1na2vs0mg"},{"bike_id":"9ff9b97f-3f3b-4042-a99b-d4ff365aa69b","system_id":"levelo_inurba_marseille","lat":43.28856,"lon":5.358371,"is_reserved":false,"is_disabled":false,"rental_uris":{"android":"levelo://app?vid=9ff9b97f-3f3b-4042-a99b-d4ff365aa69b","ios":"levelo://app?vid=9ff9b97f-3f3b-4042-a99b-d4ff365aa69b"},"vehicle_type_id":"4","last_reported":1718485582,"current_range_meters":1200,"station_id":"ce4bhb12rcd13ifvqem0","pricing_plan_id":"cebpf4jnsgd1na2vs0mg"},{"bike_id":"f1fc265a-fae2-4e26-b7a4-e66433e94611","system_id":"levelo_inurba_marseille","lat":43.28856,"lon":5.358371,"is_reserved":false,"is_disabled":false,"rental_uris":{"android":"levelo://app?vid=f1fc265a-fae2-4e26-b7a4-e66433e94611","ios":"levelo://app?vid=f1fc265a-fae2-4e26-b7a4-e66433e94611"},"vehicle_type_id":"4","last_reported":1718485582,"current_range_meters":5200,"station_id":"ce4bhb12rcd13ifvqem0","pricing_plan_id":"cebpf4jnsgd1na2vs0mg"},{"bike_id":"1447d8aa-6dda-432b-86ce-81e36db6972b","system_id":"levelo_inurba_marseille","lat":43.28856,"lon":5.358371,"is_reserved":false,"is_disabled":false,"rental_uris":{"android":"levelo://app?vid=1447d8aa-6dda-432b-86ce-81e36db6972b","ios":"levelo://app?vid=1447d8aa-6dda-432b-86ce-81e36db6972b"},"vehicle_type_id":"4","last_reported":1718485582,"current_range_meters":0,"station_id":"ce4bhb12rcd13ifvqem0","pricing_plan_id":"cebpf4jnsgd1na2vs0mg"},{"bike_id":"877fff57-5422-4e42-bf8f-94b224d48554","system_id":"levelo_inurba_marseille","lat":43.312609,"lon":5.401662,"is_reserved":false,"is_disabled":false,"rental_uris":{"android":"levelo://app?vid=877fff57-5422-4e42-bf8f-94b224d48554","ios":"levelo://app?vid=877fff57-5422-4e42-bf8f-94b224d48554"},"vehicle_type_id":"4","last_reported":1718485582,"current_range_meters":8400,"station_id":"ce4bh092rcd13ifvqd30","pricing_plan_id":"cebpf4jnsgd1na2vs0mg"},{"bike_id":"b286e41b-5d5a-4580-810b-98d90a6b1468","system_id":"levelo_inurba_marseille","lat":43.312609,"lon":5.401662,"is_reserved":false,"is_disabled":false,"rental_uris":{"android":"levelo://app?vid=b286e41b-5d5a-4580-810b-98d90a6b1468","ios":"levelo://app?vid=b286e41b-5d5a-4580-810b-98d90a6b1468"},"vehicle_type_id":"4","last_reported":1718485582,"current_range_meters":18000,"station_id":"ce4bh092rcd13ifvqd30","pricing_plan_id":"cebpf4jnsgd1na2vs0mg"},{"bike_id":"97ffc414-5c9d-4f6c-b831-49d7d75b22e1","system_id":"levelo_inurba_marseille","lat":43.309371,"lon":5.401449,"is_reserved":false,"is_disabled":false,"rental_uris":{"android":"levelo://app?vid=97ffc414-5c9d-4f6c-b831-49d7d75b22e1","ios":"levelo://app?vid=97ffc414-5c9d-4f6c-b831-49d7d75b22e1"},"vehicle_type_id":"4","last_reported":1718485582,"current_range_meters":28800,"station_id":"ce4bgvp2rcd13ifvqct0","pricing_plan_id":"cebpf4jnsgd1na2vs0mg"},{"bike_id":"8d17c8b7-22cc-49d2-b281-3a1ca6fc5855","system_id":"levelo_inurba_marseille","lat":43.309371,"lon":5.401449,"is_reserved":false,"is_disabled":false,"rental_uris":{"android":"levelo://app?vid=8d17c8b7-22cc-49d2-b281-3a1ca6fc5855","ios":"levelo://app?vid=8d17c8b7-22cc-49d2-b281-3a1ca6fc5855"},"vehicle_type_id":"4","last_reported":1718485582,"current_range_meters":6000,"station_id":"ce4bgvp2rcd13ifvqct0","pricing_plan_id":"cebpf4jnsgd1na2vs0mg"},{"bike_id":"d46e2ce8-abed-4fe4-a552-66169a1818b3","system_id":"levelo_inurba_marseille","lat":43.306412,"lon":5.401035,"is_reserved":false,"is_disabled":false,"rental_uris":{"android":"levelo://app?vid=d46e2ce8-abed-4fe4-a552-66169a1818b3","ios":"levelo://app?vid=d46e2ce8-abed-4fe4-a552-66169a1818b3"},"vehicle_type_id":"4","last_reported":1718485582,"current_range_meters":21600,"station_id":"ce4bh112rcd13ifvqda0","pricing_plan_id":"cebpf4jnsgd1na2vs0mg"},{"bike_id":"e1512863-0927-4702-b249-40d36e19f2c0","system_id":"levelo_inurba_marseille","lat":43.33763,"lon":5.37482,"is_reserved":false,"is_disabled":false,"rental_uris":{"android":"levelo://app?vid=e1512863-0927-4702-b249-40d36e19f2c0","ios":"levelo://app?vid=e1512863-0927-4702-b249-40d36e19f2c0"},"vehicle_type_id":"4","last_reported":1718485582,"current_range_meters":22400,"station_id":"","pricing_plan_id":"cebpf4jnsgd1na2vs0mg"},{"bike_id":"dc861b4e-f6d2-42da-9141-0317f2b52f3d","system_id":"levelo_inurba_marseille","lat":43.30642,"lon":5.401031,"is_reserved":false,"is_disabled":false,"rental_uris":{"android":"levelo://app?vid=dc861b4e-f6d2-42da-9141-0317f2b52f3d","ios":"levelo://app?vid=dc861b4e-f6d2-42da-9141-0317f2b52f3d"},"vehicle_type_id":"4","last_reported":1718485582,"current_range_meters":17200,"station_id":"ce4bh112rcd13ifvqda0","pricing_plan_id":"cebpf4jnsgd1na2vs0mg"},{"bike_id":"dde7f9c2-5dd0-406d-a7b6-c1abe33aacb7","system_id":"levelo_inurba_marseille","lat":43.301117,"lon":5.398795,"is_reserved":false,"is_disabled":false,"rental_uris":{"android":"levelo://app?vid=dde7f9c2-5dd0-406d-a7b6-c1abe33aacb7","ios":"levelo://app?vid=dde7f9c2-5dd0-406d-a7b6-c1abe33aacb7"},"vehicle_type_id":"4","last_reported":1718485582,"current_range_meters":4800,"station_id":"ce4bh0h2rcd13ifvqd40","pricing_plan_id":"cebpf4jnsgd1na2vs0mg"},{"bike_id":"c5bc27df-f08f-4741-9cb7-41e6ae8ebb9d","system_id":"levelo_inurba_marseille","lat":43.28727,"lon":5.36078,"is_reserved":false,"is_disabled":false,"rental_uris":{"android":"levelo://app?vid=c5bc27df-f08f-4741-9cb7-41e6ae8ebb9d","ios":"levelo://app?vid=c5bc27df-f08f-4741-9cb7-41e6ae8ebb9d"},"vehicle_type_id":"4","last_reported":1718485582,"current_range_meters":28800,"station_id":"cki0cbj6b192h4jlfktg","pricing_plan_id":"cebpf4jnsgd1na2vs0mg"},{"bike_id":"91e65379-4f29-418a-9716-66ddce7b432c","system_id":"levelo_inurba_marseille","lat":43.29546,"lon":5.39359,"is_reserved":false,"is_disabled":false,"rental_uris":{"android":"levelo://app?vid=91e65379-4f29-418a-9716-66ddce7b432c","ios":"levelo://app?vid=91e65379-4f29-418a-9716-66ddce7b432c"},"vehicle_type_id":"4","last_reported":1718485582,"current_range_meters":0,"station_id":"","pricing_plan_id":"cebpf4jnsgd1na2vs0mg"},{"bike_id":"f7f24ea2-a826-4a6c-aaad-ac2839f44649","system_id":"levelo_inurba_marseille","lat":43.298681,"lon":5.397225,"is_reserved":false,"is_disabled":false,"rental_uris":{"android":"levelo://app?vid=f7f24ea2-a826-4a6c-aaad-ac2839f44649","ios":"levelo://app?vid=f7f24ea2-a826-4a6c-aaad-ac2839f44649"},"vehicle_type_id":"4","last_reported":1718485582,"current_range_meters":0,"station_id":"ce4bh0h2rcd13ifvqd50","pricing_plan_id":"cebpf4jnsgd1na2vs0mg"},{"bike_id":"78985c05-6f45-43be-a5a4-cfbfc6b474cf","system_id":"levelo_inurba_marseille","lat":43.286593,"lon":5.363346,"is_reserved":false,"is_disabled":false,"rental_uris":{"android":"levelo://app?vid=78985c05-6f45-43be-a5a4-cfbfc6b474cf","ios":"levelo://app?vid=78985c05-6f45-43be-a5a4-cfbfc6b474cf"},"vehicle_type_id":"4","last_reported":1718485582,"current_range_meters":24800,"station_id":"ce4bhah2rcd13ifvqej0","pricing_plan_id":"cebpf4jnsgd1na2vs0mg"},{"bike_id":"985ae076-3dda-4627-8ed1-5f5856f7a6f4","system_id":"levelo_inurba_marseille","lat":43.298681,"lon":5.397225,"is_reserved":false,"is_disabled":false,"rental_uris":{"android":"levelo://app?vid=985ae076-3dda-4627-8ed1-5f5856f7a6f4","ios":"levelo://app?vid=985ae076-3dda-4627-8ed1-5f5856f7a6f4"},"vehicle_type_id":"4","last_reported":1718485582,"current_range_meters":12800,"station_id":"ce4bh0h2rcd13ifvqd50","pricing_plan_id":"cebpf4jnsgd1na2vs0mg"},{"bike_id":"2ce6676a-ae24-4ce5-b531-65ffe0eefb26","system_id":"levelo_inurba_marseille","lat":43.29871,"lon":5.39735,"is_reserved":false,"is_disabled":false,"rental_uris":{"android":"levelo://app?vid=2ce6676a-ae24-4ce5-b531-65ffe0eefb26","ios":"levelo://app?vid=2ce6676a-ae24-4ce5-b531-65ffe0eefb26"},"vehicle_type_id":"4","last_reported":1718485582,"current_range_meters":400,"station_id":"ce4bh0h2rcd13ifvqd50","pricing_plan_id":"cebpf4jnsgd1na2vs0mg"},{"bike_id":"04e5b32c-043c-4136-871c-a77b3a4987a1","system_id":"levelo_inurba_marseille","lat":43.295194,"lon":5.39397,"is_reserved":false,"is_disabled":false,"rental_uris":{"android":"levelo://app?vid=04e5b32c-043c-4136-871c-a77b3a4987a1","ios":"levelo://app?vid=04e5b32c-043c-4136-871c-a77b3a4987a1"},"vehicle_type_id":"4","last_reported":1718485582,"current_range_meters":20800,"station_id":"ce4bh292rcd13ifvqdf0","pricing_plan_id":"cebpf4jnsgd1na2vs0mg"},{"bike_id":"f68d3c09-314a-4948-b144-82fc4297f8a7","system_id":"levelo_inurba_marseille","lat":43.295194,"lon":5.39397,"is_reserved":false,"is_disabled":false,"rental_uris":{"android":"levelo://app?vid=f68d3c09-314a-4948-b144-82fc4297f8a7","ios":"levelo://app?vid=f68d3c09-314a-4948-b144-82fc4297f8a7"},"vehicle_type_id":"4","last_reported":1718485582,"current_range_meters":20000,"station_id":"ce4bh292rcd13ifvqdf0","pricing_plan_id":"cebpf4jnsgd1na2vs0mg"},{"bike_id":"c10c8dad-2c9f-48c3-959c-94ff3f0bd5ce","system_id":"levelo_inurba_marseille","lat":43.290345,"lon":5.38646,"is_reserved":false,"is_disabled":false,"rental_uris":{"android":"levelo://app?vid=c10c8dad-2c9f-48c3-959c-94ff3f0bd5ce","ios":"levelo://app?vid=c10c8dad-2c9f-48c3-959c-94ff3f0bd5ce"},"vehicle_type_id":"4","last_reported":1718485582,"current_range_meters":22000,"station_id":"ce4bh4p2rcd13ifvqe0g","pricing_plan_id":"cebpf4jnsgd1na2vs0mg"},{"bike_id":"3c27d240-6ca4-42c0-b8fc-1d75b90f6d7c","system_id":"levelo_inurba_marseille","lat":43.286039,"lon":5.370679,"is_reserved":false,"is_disabled":false,"rental_uris":{"android":"levelo://app?vid=3c27d240-6ca4-42c0-b8fc-1d75b90f6d7c","ios":"levelo://app?vid=3c27d240-6ca4-42c0-b8fc-1d75b90f6d7c"},"vehicle_type_id":"4","last_reported":1718485582,"current_range_meters":29200,"station_id":"ce4bht12rcd13ifvqi60","pricing_plan_id":"cebpf4jnsgd1na2vs0mg"},{"bike_id":"09b1c3cc-9ea5-4a96-9ff2-8144a2b8dda8","system_id":"levelo_inurba_marseille","lat":43.287185,"lon":5.379373,"is_reserved":false,"is_disabled":false,"rental_uris":{"android":"levelo://app?vid=09b1c3cc-9ea5-4a96-9ff2-8144a2b8dda8","ios":"levelo://app?vid=09b1c3cc-9ea5-4a96-9ff2-8144a2b8dda8"},"vehicle_type_id":"4","last_reported":1718485582,"current_range_meters":30000,"station_id":"ce4bh9p2rcd13ifvqec0","pricing_plan_id":"cebpf4jnsgd1na2vs0mg"},{"bike_id":"df72bdc7-5761-4165-ab7d-73bc735e3860","system_id":"levelo_inurba_marseille","lat":43.291994,"lon":5.392907,"is_reserved":false,"is_disabled":false,"rental_uris":{"android":"levelo://app?vid=df72bdc7-5761-4165-ab7d-73bc735e3860","ios":"levelo://app?vid=df72bdc7-5761-4165-ab7d-73bc735e3860"},"vehicle_type_id":"4","last_reported":1718485582,"current_range_meters":5200,"station_id":"ce4bh192rcd13ifvqdd0","pricing_plan_id":"cebpf4jnsgd1na2vs0mg"},{"bike_id":"49fb6b55-3f71-4041-aeed-3b3347cc7b87","system_id":"levelo_inurba_marseille","lat":43.291994,"lon":5.392907,"is_reserved":false,"is_disabled":false,"rental_uris":{"android":"levelo://app?vid=49fb6b55-3f71-4041-aeed-3b3347cc7b87","ios":"levelo://app?vid=49fb6b55-3f71-4041-aeed-3b3347cc7b87"},"vehicle_type_id":"4","last_reported":1718485582,"current_range_meters":3200,"station_id":"ce4bh192rcd13ifvqdd0","pricing_plan_id":"cebpf4jnsgd1na2vs0mg"},{"bike_id":"59671bc3-e752-4d81-822b-6fb7916417e6","system_id":"levelo_inurba_marseille","lat":43.291994,"lon":5.392907,"is_reserved":false,"is_disabled":false,"rental_uris":{"android":"levelo://app?vid=59671bc3-e752-4d81-822b-6fb7916417e6","ios":"levelo://app?vid=59671bc3-e752-4d81-822b-6fb7916417e6"},"vehicle_type_id":"4","last_reported":1718485582,"current_range_meters":6400,"station_id":"ce4bh192rcd13ifvqdd0","pricing_plan_id":"cebpf4jnsgd1na2vs0mg"},{"bike_id":"399b3d45-6c3c-4ff2-ab10-3402beb5ffca","system_id":"levelo_inurba_marseille","lat":43.291994,"lon":5.392907,"is_reserved":false,"is_disabled":false,"rental_uris":{"android":"levelo://app?vid=399b3d45-6c3c-4ff2-ab10-3402beb5ffca","ios":"levelo://app?vid=399b3d45-6c3c-4ff2-ab10-3402beb5ffca"},"vehicle_type_id":"4","last_reported":1718485582,"current_range_meters":13600,"station_id":"ce4bh192rcd13ifvqdd0","pricing_plan_id":"cebpf4jnsgd1na2vs0mg"},{"bike_id":"cd97448b-7689-4b8c-abcb-fe1ecb7e8f48","system_id":"levelo_inurba_marseille","lat":43.284538,"lon":5.358657,"is_reserved":false,"is_disabled":false,"rental_uris":{"android":"levelo://app?vid=cd97448b-7689-4b8c-abcb-fe1ecb7e8f48","ios":"levelo://app?vid=cd97448b-7689-4b8c-abcb-fe1ecb7e8f48"},"vehicle_type_id":"4","last_reported":1718485582,"current_range_meters":29200,"station_id":"ce4bhah2rcd13ifvqei0","pricing_plan_id":"cebpf4jnsgd1na2vs0mg"},{"bike_id":"f8049937-f8db-4bf9-8d8f-fd69146152fa","system_id":"levelo_inurba_marseille","lat":43.2863,"lon":5.38224,"is_reserved":false,"is_disabled":false,"rental_uris":{"android":"levelo://app?vid=f8049937-f8db-4bf9-8d8f-fd69146152fa","ios":"levelo://app?vid=f8049937-f8db-4bf9-8d8f-fd69146152fa"},"vehicle_type_id":"4","last_reported":1718485582,"current_range_meters":0,"station_id":"","pricing_plan_id":"cebpf4jnsgd1na2vs0mg"},{"bike_id":"b498be98-6187-42ed-8850-0b69d7e03b5d","system_id":"levelo_inurba_marseille","lat":43.284534,"lon":5.358662,"is_reserved":false,"is_disabled":false,"rental_uris":{"android":"levelo://app?vid=b498be98-6187-42ed-8850-0b69d7e03b5d","ios":"levelo://app?vid=b498be98-6187-42ed-8850-0b69d7e03b5d"},"vehicle_type_id":"4","last_reported":1718485582,"current_range_meters":7200,"station_id":"ce4bhah2rcd13ifvqei0","pricing_plan_id":"cebpf4jnsgd1na2vs0mg"},{"bike_id":"89321ffe-8b06-47a5-bc52-ee95c0c5ee0a","system_id":"levelo_inurba_marseille","lat":43.284538,"lon":5.358657,"is_reserved":false,"is_disabled":false,"rental_uris":{"android":"levelo://app?vid=89321ffe-8b06-47a5-bc52-ee95c0c5ee0a","ios":"levelo://app?vid=89321ffe-8b06-47a5-bc52-ee95c0c5ee0a"},"vehicle_type_id":"4","last_reported":1718485582,"current_range_meters":14400,"station_id":"ce4bhah2rcd13ifvqei0","pricing_plan_id":"cebpf4jnsgd1na2vs0mg"},{"bike_id":"b7dd7eb2-09e3-4eda-85d0-1dc52c2664e6","system_id":"levelo_inurba_marseille","lat":43.294314,"lon":5.397498,"is_reserved":false,"is_disabled":false,"rental_uris":{"android":"levelo://app?vid=b7dd7eb2-09e3-4eda-85d0-1dc52c2664e6","ios":"levelo://app?vid=b7dd7eb2-09e3-4eda-85d0-1dc52c2664e6"},"vehicle_type_id":"4","last_reported":1718485582,"current_range_meters":6400,"station_id":"ce4bh3h2rcd13ifvqdo0","pricing_plan_id":"cebpf4jnsgd1na2vs0mg"},{"bike_id":"a5ce09a4-8df6-4537-8a26-4e7f3782d97e","system_id":"levelo_inurba_marseille","lat":43.294314,"lon":5.397498,"is_reserved":false,"is_disabled":false,"rental_uris":{"android":"levelo://app?vid=a5ce09a4-8df6-4537-8a26-4e7f3782d97e","ios":"levelo://app?vid=a5ce09a4-8df6-4537-8a26-4e7f3782d97e"},"vehicle_type_id":"4","last_reported":1718485582,"current_range_meters":1200,"station_id":"ce4bh3h2rcd13ifvqdo0","pricing_plan_id":"cebpf4jnsgd1na2vs0mg"},{"bike_id":"71a6e0fe-8723-4a15-b3fc-475a0e80b71c","system_id":"levelo_inurba_marseille","lat":43.286189,"lon":5.351048,"is_reserved":false,"is_disabled":false,"rental_uris":{"android":"levelo://app?vid=71a6e0fe-8723-4a15-b3fc-475a0e80b71c","ios":"levelo://app?vid=71a6e0fe-8723-4a15-b3fc-475a0e80b71c"},"vehicle_type_id":"4","last_reported":1718485582,"current_range_meters":3600,"station_id":"","pricing_plan_id":"cebpf4jnsgd1na2vs0mg"},{"bike_id":"014de4f0-9189-4798-9bd8-809ee39fae19","system_id":"levelo_inurba_marseille","lat":43.285856,"lon":5.350771,"is_reserved":false,"is_disabled":false,"rental_uris":{"android":"levelo://app?vid=014de4f0-9189-4798-9bd8-809ee39fae19","ios":"levelo://app?vid=014de4f0-9189-4798-9bd8-809ee39fae19"},"vehicle_type_id":"4","last_reported":1718485582,"current_range_meters":27200,"station_id":"ce4bhch2rcd13ifvqeug","pricing_plan_id":"cebpf4jnsgd1na2vs0mg"},{"bike_id":"0a44ff50-d5a5-4f50-b7d6-96a61bbdbbcb","system_id":"levelo_inurba_marseille","lat":43.285856,"lon":5.350771,"is_reserved":false,"is_disabled":false,"rental_uris":{"android":"levelo://app?vid=0a44ff50-d5a5-4f50-b7d6-96a61bbdbbcb","ios":"levelo://app?vid=0a44ff50-d5a5-4f50-b7d6-96a61bbdbbcb"},"vehicle_type_id":"4","last_reported":1718485582,"current_range_meters":26800,"station_id":"ce4bhch2rcd13ifvqeug","pricing_plan_id":"cebpf4jnsgd1na2vs0mg"},{"bike_id":"d84d4904-f87d-4b77-b69d-54af24b9c69d","system_id":"levelo_inurba_marseille","lat":43.295713,"lon":5.399639,"is_reserved":false,"is_disabled":false,"rental_uris":{"android":"levelo://app?vid=d84d4904-f87d-4b77-b69d-54af24b9c69d","ios":"levelo://app?vid=d84d4904-f87d-4b77-b69d-54af24b9c69d"},"vehicle_type_id":"4","last_reported":1718485582,"current_range_meters":29600,"station_id":"ce4bh312rcd13ifvqdj0","pricing_plan_id":"cebpf4jnsgd1na2vs0mg"},{"bike_id":"ad0313b0-681d-4968-b57d-c6cc3ff8b087","system_id":"levelo_inurba_marseille","lat":43.299584,"lon":5.40305,"is_reserved":false,"is_disabled":false,"rental_uris":{"android":"levelo://app?vid=ad0313b0-681d-4968-b57d-c6cc3ff8b087","ios":"levelo://app?vid=ad0313b0-681d-4968-b57d-c6cc3ff8b087"},"vehicle_type_id":"4","last_reported":1718485582,"current_range_meters":22000,"station_id":"","pricing_plan_id":"cebpf4jnsgd1na2vs0mg"},{"bike_id":"865248b6-4a5a-4258-88d3-972296abc4ed","system_id":"levelo_inurba_marseille","lat":43.286755,"lon":5.386575,"is_reserved":false,"is_disabled":false,"rental_uris":{"android":"levelo://app?vid=865248b6-4a5a-4258-88d3-972296abc4ed","ios":"levelo://app?vid=865248b6-4a5a-4258-88d3-972296abc4ed"},"vehicle_type_id":"4","last_reported":1718485582,"current_range_meters":0,"station_id":"ce4bh492rcd13ifvqdug","pricing_plan_id":"cebpf4jnsgd1na2vs0mg"},{"bike_id":"4ac683cc-1dcb-4847-b406-ffc52fb8fe38","system_id":"levelo_inurba_marseille","lat":43.33727,"lon":5.39182,"is_reserved":false,"is_disabled":false,"rental_uris":{"android":"levelo://app?vid=4ac683cc-1dcb-4847-b406-ffc52fb8fe38","ios":"levelo://app?vid=4ac683cc-1dcb-4847-b406-ffc52fb8fe38"},"vehicle_type_id":"4","last_reported":1718485582,"current_range_meters":0,"station_id":"ce4bhr92rcd13ifvqhsg","pricing_plan_id":"cebpf4jnsgd1na2vs0mg"},{"bike_id":"d1433e28-b600-462b-bb03-9e0fe61d2800","system_id":"levelo_inurba_marseille","lat":43.323464,"lon":5.406297,"is_reserved":false,"is_disabled":false,"rental_uris":{"android":"levelo://app?vid=d1433e28-b600-462b-bb03-9e0fe61d2800","ios":"levelo://app?vid=d1433e28-b600-462b-bb03-9e0fe61d2800"},"vehicle_type_id":"4","last_reported":1718485582,"current_range_meters":10800,"station_id":"ce4bhq92rcd13ifvqhjg","pricing_plan_id":"cebpf4jnsgd1na2vs0mg"},{"bike_id":"01e4e9b1-0ee7-440f-a35f-5235e48b5dde","system_id":"levelo_inurba_marseille","lat":43.323464,"lon":5.406297,"is_reserved":false,"is_disabled":false,"rental_uris":{"android":"levelo://app?vid=01e4e9b1-0ee7-440f-a35f-5235e48b5dde","ios":"levelo://app?vid=01e4e9b1-0ee7-440f-a35f-5235e48b5dde"},"vehicle_type_id":"4","last_reported":1718485582,"current_range_meters":25600,"station_id":"ce4bhq92rcd13ifvqhjg","pricing_plan_id":"cebpf4jnsgd1na2vs0mg"},{"bike_id":"7915630e-3e2a-466b-9b19-b5a1c4daabbb","system_id":"levelo_inurba_marseille","lat":43.32343,"lon":5.40623,"is_reserved":false,"is_disabled":false,"rental_uris":{"android":"levelo://app?vid=7915630e-3e2a-466b-9b19-b5a1c4daabbb","ios":"levelo://app?vid=7915630e-3e2a-466b-9b19-b5a1c4daabbb"},"vehicle_type_id":"4","last_reported":1718485582,"current_range_meters":24800,"station_id":"ce4bhq92rcd13ifvqhjg","pricing_plan_id":"cebpf4jnsgd1na2vs0mg"},{"bike_id":"c5eab18f-79fa-4fb8-9ddc-ef74c68f1f3b","system_id":"levelo_inurba_marseille","lat":43.33717,"lon":5.391857,"is_reserved":false,"is_disabled":false,"rental_uris":{"android":"levelo://app?vid=c5eab18f-79fa-4fb8-9ddc-ef74c68f1f3b","ios":"levelo://app?vid=c5eab18f-79fa-4fb8-9ddc-ef74c68f1f3b"},"vehicle_type_id":"4","last_reported":1718485582,"current_range_meters":6000,"station_id":"ce4bhr92rcd13ifvqhsg","pricing_plan_id":"cebpf4jnsgd1na2vs0mg"},{"bike_id":"c354e73b-5888-45ae-b720-722b52715a49","system_id":"levelo_inurba_marseille","lat":43.284793,"lon":5.384113,"is_reserved":false,"is_disabled":false,"rental_uris":{"android":"levelo://app?vid=c354e73b-5888-45ae-b720-722b52715a49","ios":"levelo://app?vid=c354e73b-5888-45ae-b720-722b52715a49"},"vehicle_type_id":"4","last_reported":1718485582,"current_range_meters":20800,"station_id":"ce4bh512rcd13ifvqe3g","pricing_plan_id":"cebpf4jnsgd1na2vs0mg"},{"bike_id":"9bf77ea8-d88c-4105-a66a-d2db4bae63e0","system_id":"levelo_inurba_marseille","lat":43.284793,"lon":5.384113,"is_reserved":false,"is_disabled":false,"rental_uris":{"android":"levelo://app?vid=9bf77ea8-d88c-4105-a66a-d2db4bae63e0","ios":"levelo://app?vid=9bf77ea8-d88c-4105-a66a-d2db4bae63e0"},"vehicle_type_id":"4","last_reported":1718485582,"current_range_meters":15600,"station_id":"ce4bh512rcd13ifvqe3g","pricing_plan_id":"cebpf4jnsgd1na2vs0mg"},{"bike_id":"bdff8841-e4eb-40d8-ae9e-f624eb907175","system_id":"levelo_inurba_marseille","lat":43.284787,"lon":5.384116,"is_reserved":false,"is_disabled":false,"rental_uris":{"android":"levelo://app?vid=bdff8841-e4eb-40d8-ae9e-f624eb907175","ios":"levelo://app?vid=bdff8841-e4eb-40d8-ae9e-f624eb907175"},"vehicle_type_id":"4","last_reported":1718485582,"current_range_meters":5200,"station_id":"ce4bh512rcd13ifvqe3g","pricing_plan_id":"cebpf4jnsgd1na2vs0mg"},{"bike_id":"2aaedf47-adb1-49ec-83c2-9c7a9a940b14","system_id":"levelo_inurba_marseille","lat":43.288497,"lon":5.393089,"is_reserved":false,"is_disabled":false,"rental_uris":{"android":"levelo://app?vid=2aaedf47-adb1-49ec-83c2-9c7a9a940b14","ios":"levelo://app?vid=2aaedf47-adb1-49ec-83c2-9c7a9a940b14"},"vehicle_type_id":"4","last_reported":1718485582,"current_range_meters":6000,"station_id":"ce4bh2p2rcd13ifvqdi0","pricing_plan_id":"cebpf4jnsgd1na2vs0mg"},{"bike_id":"f513c551-1f39-417f-8769-33961401e0ce","system_id":"levelo_inurba_marseille","lat":43.288497,"lon":5.393089,"is_reserved":false,"is_disabled":false,"rental_uris":{"android":"levelo://app?vid=f513c551-1f39-417f-8769-33961401e0ce","ios":"levelo://app?vid=f513c551-1f39-417f-8769-33961401e0ce"},"vehicle_type_id":"4","last_reported":1718485582,"current_range_meters":2000,"station_id":"ce4bh2p2rcd13ifvqdi0","pricing_plan_id":"cebpf4jnsgd1na2vs0mg"},{"bike_id":"4610f356-ea42-4a8e-b8df-de42725aad1b","system_id":"levelo_inurba_marseille","lat":43.288497,"lon":5.393089,"is_reserved":false,"is_disabled":false,"rental_uris":{"android":"levelo://app?vid=4610f356-ea42-4a8e-b8df-de42725aad1b","ios":"levelo://app?vid=4610f356-ea42-4a8e-b8df-de42725aad1b"},"vehicle_type_id":"4","last_reported":1718485582,"current_range_meters":17600,"station_id":"ce4bh2p2rcd13ifvqdi0","pricing_plan_id":"cebpf4jnsgd1na2vs0mg"},{"bike_id":"3f9865f1-3082-4743-892e-f384025b509a","system_id":"levelo_inurba_marseille","lat":43.28354,"lon":5.38094,"is_reserved":false,"is_disabled":false,"rental_uris":{"android":"levelo://app?vid=3f9865f1-3082-4743-892e-f384025b509a","ios":"levelo://app?vid=3f9865f1-3082-4743-892e-f384025b509a"},"vehicle_type_id":"4","last_reported":1718485582,"current_range_meters":30000,"station_id":"ce4bh412rcd13ifvqdr0","pricing_plan_id":"cebpf4jnsgd1na2vs0mg"},{"bike_id":"d27c39c7-6595-4530-8d88-fddbc3199553","system_id":"levelo_inurba_marseille","lat":43.28354,"lon":5.381,"is_reserved":false,"is_disabled":false,"rental_uris":{"android":"levelo://app?vid=d27c39c7-6595-4530-8d88-fddbc3199553","ios":"levelo://app?vid=d27c39c7-6595-4530-8d88-fddbc3199553"},"vehicle_type_id":"4","last_reported":1718485582,"current_range_meters":28800,"station_id":"ce4bh412rcd13ifvqdr0","pricing_plan_id":"cebpf4jnsgd1na2vs0mg"},{"bike_id":"0b17ed00-d2bb-436e-8398-bacd3c64f372","system_id":"levelo_inurba_marseille","lat":43.28349,"lon":5.38101,"is_reserved":false,"is_disabled":false,"rental_uris":{"android":"levelo://app?vid=0b17ed00-d2bb-436e-8398-bacd3c64f372","ios":"levelo://app?vid=0b17ed00-d2bb-436e-8398-bacd3c64f372"},"vehicle_type_id":"4","last_reported":1718485582,"current_range_meters":14400,"station_id":"ce4bh412rcd13ifvqdr0","pricing_plan_id":"cebpf4jnsgd1na2vs0mg"},{"bike_id":"59f9b3ee-5216-4ae9-bb61-ebb5784ecce4","system_id":"levelo_inurba_marseille","lat":43.283494,"lon":5.380945,"is_reserved":false,"is_disabled":false,"rental_uris":{"android":"levelo://app?vid=59f9b3ee-5216-4ae9-bb61-ebb5784ecce4","ios":"levelo://app?vid=59f9b3ee-5216-4ae9-bb61-ebb5784ecce4"},"vehicle_type_id":"4","last_reported":1718485582,"current_range_meters":30000,"station_id":"ce4bh412rcd13ifvqdr0","pricing_plan_id":"cebpf4jnsgd1na2vs0mg"},{"bike_id":"4ea1a2b9-cceb-48e7-8322-3954786fedd7","system_id":"levelo_inurba_marseille","lat":43.283498,"lon":5.380948,"is_reserved":false,"is_disabled":false,"rental_uris":{"android":"levelo://app?vid=4ea1a2b9-cceb-48e7-8322-3954786fedd7","ios":"levelo://app?vid=4ea1a2b9-cceb-48e7-8322-3954786fedd7"},"vehicle_type_id":"4","last_reported":1718485582,"current_range_meters":25600,"station_id":"ce4bh412rcd13ifvqdr0","pricing_plan_id":"cebpf4jnsgd1na2vs0mg"},{"bike_id":"ebaec522-c3a1-4dfb-a321-7c4a32b92981","system_id":"levelo_inurba_marseille","lat":43.283494,"lon":5.380945,"is_reserved":false,"is_disabled":false,"rental_uris":{"android":"levelo://app?vid=ebaec522-c3a1-4dfb-a321-7c4a32b92981","ios":"levelo://app?vid=ebaec522-c3a1-4dfb-a321-7c4a32b92981"},"vehicle_type_id":"4","last_reported":1718485582,"current_range_meters":25600,"station_id":"ce4bh412rcd13ifvqdr0","pricing_plan_id":"cebpf4jnsgd1na2vs0mg"},{"bike_id":"bafaa1bb-cd36-4dd1-b363-6ec6802e5100","system_id":"levelo_inurba_marseille","lat":43.283494,"lon":5.380945,"is_reserved":false,"is_disabled":false,"rental_uris":{"android":"levelo://app?vid=bafaa1bb-cd36-4dd1-b363-6ec6802e5100","ios":"levelo://app?vid=bafaa1bb-cd36-4dd1-b363-6ec6802e5100"},"vehicle_type_id":"4","last_reported":1718485582,"current_range_meters":31200,"station_id":"ce4bh412rcd13ifvqdr0","pricing_plan_id":"cebpf4jnsgd1na2vs0mg"},{"bike_id":"3e02e631-7a31-46b6-874f-d6f5008e628c","system_id":"levelo_inurba_marseille","lat":43.283498,"lon":5.380948,"is_reserved":false,"is_disabled":false,"rental_uris":{"android":"levelo://app?vid=3e02e631-7a31-46b6-874f-d6f5008e628c","ios":"levelo://app?vid=3e02e631-7a31-46b6-874f-d6f5008e628c"},"vehicle_type_id":"4","last_reported":1718485582,"current_range_meters":26800,"station_id":"ce4bh412rcd13ifvqdr0","pricing_plan_id":"cebpf4jnsgd1na2vs0mg"},{"bike_id":"12ce52c6-6f2d-4b83-9718-0e246d90c77e","system_id":"levelo_inurba_marseille","lat":43.284219,"lon":5.3497,"is_reserved":false,"is_disabled":false,"rental_uris":{"android":"levelo://app?vid=12ce52c6-6f2d-4b83-9718-0e246d90c77e","ios":"levelo://app?vid=12ce52c6-6f2d-4b83-9718-0e246d90c77e"},"vehicle_type_id":"4","last_reported":1718485582,"current_range_meters":29200,"station_id":"ce4bhbh2rcd13ifvqepg","pricing_plan_id":"cebpf4jnsgd1na2vs0mg"},{"bike_id":"692ccd77-9f5a-47b7-a131-69b6b03584d0","system_id":"levelo_inurba_marseille","lat":43.284217,"lon":5.349697,"is_reserved":false,"is_disabled":false,"rental_uris":{"android":"levelo://app?vid=692ccd77-9f5a-47b7-a131-69b6b03584d0","ios":"levelo://app?vid=692ccd77-9f5a-47b7-a131-69b6b03584d0"},"vehicle_type_id":"4","last_reported":1718485582,"current_range_meters":400,"station_id":"ce4bhbh2rcd13ifvqepg","pricing_plan_id":"cebpf4jnsgd1na2vs0mg"},{"bike_id":"8708d649-9f76-422c-93a5-5e199a78d326","system_id":"levelo_inurba_marseille","lat":43.289363,"lon":5.396322,"is_reserved":false,"is_disabled":false,"rental_uris":{"android":"levelo://app?vid=8708d649-9f76-422c-93a5-5e199a78d326","ios":"levelo://app?vid=8708d649-9f76-422c-93a5-5e199a78d326"},"vehicle_type_id":"4","last_reported":1718485582,"current_range_meters":28000,"station_id":"ce4bh3h2rcd13ifvqdn0","pricing_plan_id":"cebpf4jnsgd1na2vs0mg"},{"bike_id":"2b158517-d04c-4d07-b503-35582343003b","system_id":"levelo_inurba_marseille","lat":43.292724,"lon":5.401131,"is_reserved":false,"is_disabled":false,"rental_uris":{"android":"levelo://app?vid=2b158517-d04c-4d07-b503-35582343003b","ios":"levelo://app?vid=2b158517-d04c-4d07-b503-35582343003b"},"vehicle_type_id":"4","last_reported":1718485582,"current_range_meters":0,"station_id":"ce4bh312rcd13ifvqdk0","pricing_plan_id":"cebpf4jnsgd1na2vs0mg"},{"bike_id":"d7c00d7d-0f1c-407a-886b-3a79ac565d1c","system_id":"levelo_inurba_marseille","lat":43.29274,"lon":5.40112,"is_reserved":false,"is_disabled":false,"rental_uris":{"android":"levelo://app?vid=d7c00d7d-0f1c-407a-886b-3a79ac565d1c","ios":"levelo://app?vid=d7c00d7d-0f1c-407a-886b-3a79ac565d1c"},"vehicle_type_id":"4","last_reported":1718485582,"current_range_meters":8400,"station_id":"","pricing_plan_id":"cebpf4jnsgd1na2vs0mg"},{"bike_id":"c7ce7e4d-2298-4ee5-a424-7b32561c8503","system_id":"levelo_inurba_marseille","lat":43.292724,"lon":5.401131,"is_reserved":false,"is_disabled":false,"rental_uris":{"android":"levelo://app?vid=c7ce7e4d-2298-4ee5-a424-7b32561c8503","ios":"levelo://app?vid=c7ce7e4d-2298-4ee5-a424-7b32561c8503"},"vehicle_type_id":"4","last_reported":1718485582,"current_range_meters":0,"station_id":"ce4bh312rcd13ifvqdk0","pricing_plan_id":"cebpf4jnsgd1na2vs0mg"},{"bike_id":"2665ec49-bdaf-4c60-a6be-0bbf54b438b8","system_id":"levelo_inurba_marseille","lat":43.28267,"lon":5.35066,"is_reserved":false,"is_disabled":false,"rental_uris":{"android":"levelo://app?vid=2665ec49-bdaf-4c60-a6be-0bbf54b438b8","ios":"levelo://app?vid=2665ec49-bdaf-4c60-a6be-0bbf54b438b8"},"vehicle_type_id":"4","last_reported":1718485582,"current_range_meters":0,"station_id":"ce4bhbp2rcd13ifvqerg","pricing_plan_id":"cebpf4jnsgd1na2vs0mg"},{"bike_id":"d6ff8178-74a4-4e3b-8f94-b3488d42ede1","system_id":"levelo_inurba_marseille","lat":43.283502,"lon":5.386471,"is_reserved":false,"is_disabled":false,"rental_uris":{"android":"levelo://app?vid=d6ff8178-74a4-4e3b-8f94-b3488d42ede1","ios":"levelo://app?vid=d6ff8178-74a4-4e3b-8f94-b3488d42ede1"},"vehicle_type_id":"4","last_reported":1718485582,"current_range_meters":7600,"station_id":"ce4bh492rcd13ifvqdvg","pricing_plan_id":"cebpf4jnsgd1na2vs0mg"},{"bike_id":"f8d70920-7e7b-4a8f-a854-9bc7bb7010f9","system_id":"levelo_inurba_marseille","lat":43.283502,"lon":5.386471,"is_reserved":false,"is_disabled":false,"rental_uris":{"android":"levelo://app?vid=f8d70920-7e7b-4a8f-a854-9bc7bb7010f9","ios":"levelo://app?vid=f8d70920-7e7b-4a8f-a854-9bc7bb7010f9"},"vehicle_type_id":"4","last_reported":1718485582,"current_range_meters":22000,"station_id":"ce4bh492rcd13ifvqdvg","pricing_plan_id":"cebpf4jnsgd1na2vs0mg"},{"bike_id":"1071daec-eade-4a19-9403-694f1ce07585","system_id":"levelo_inurba_marseille","lat":43.28039,"lon":5.369297,"is_reserved":false,"is_disabled":false,"rental_uris":{"android":"levelo://app?vid=1071daec-eade-4a19-9403-694f1ce07585","ios":"levelo://app?vid=1071daec-eade-4a19-9403-694f1ce07585"},"vehicle_type_id":"4","last_reported":1718485582,"current_range_meters":22000,"station_id":"ce4bha12rcd13ifvqef0","pricing_plan_id":"cebpf4jnsgd1na2vs0mg"},{"bike_id":"4a1a2280-223a-419a-b8c3-99fda85fba02","system_id":"levelo_inurba_marseille","lat":43.28039,"lon":5.369297,"is_reserved":false,"is_disabled":false,"rental_uris":{"android":"levelo://app?vid=4a1a2280-223a-419a-b8c3-99fda85fba02","ios":"levelo://app?vid=4a1a2280-223a-419a-b8c3-99fda85fba02"},"vehicle_type_id":"4","last_reported":1718485582,"current_range_meters":0,"station_id":"ce4bha12rcd13ifvqef0","pricing_plan_id":"cebpf4jnsgd1na2vs0mg"},{"bike_id":"19fbc8e3-e4c5-46ce-8ac7-41d0314da69e","system_id":"levelo_inurba_marseille","lat":43.296805,"lon":5.40574,"is_reserved":false,"is_disabled":false,"rental_uris":{"android":"levelo://app?vid=19fbc8e3-e4c5-46ce-8ac7-41d0314da69e","ios":"levelo://app?vid=19fbc8e3-e4c5-46ce-8ac7-41d0314da69e"},"vehicle_type_id":"4","last_reported":1718485582,"current_range_meters":30000,"station_id":"","pricing_plan_id":"cebpf4jnsgd1na2vs0mg"},{"bike_id":"69213e1d-4a56-45f2-b07b-f04b9d55dbdb","system_id":"levelo_inurba_marseille","lat":43.28039,"lon":5.369297,"is_reserved":false,"is_disabled":false,"rental_uris":{"android":"levelo://app?vid=69213e1d-4a56-45f2-b07b-f04b9d55dbdb","ios":"levelo://app?vid=69213e1d-4a56-45f2-b07b-f04b9d55dbdb"},"vehicle_type_id":"4","last_reported":1718485582,"current_range_meters":31600,"station_id":"ce4bha12rcd13ifvqef0","pricing_plan_id":"cebpf4jnsgd1na2vs0mg"},{"bike_id":"72bc1575-1bcf-4719-a9ea-fff30377fe82","system_id":"levelo_inurba_marseille","lat":43.29041,"lon":5.399634,"is_reserved":false,"is_disabled":false,"rental_uris":{"android":"levelo://app?vid=72bc1575-1bcf-4719-a9ea-fff30377fe82","ios":"levelo://app?vid=72bc1575-1bcf-4719-a9ea-fff30377fe82"},"vehicle_type_id":"4","last_reported":1718485582,"current_range_meters":18800,"station_id":"ce4bh392rcd13ifvqdm0","pricing_plan_id":"cebpf4jnsgd1na2vs0mg"},{"bike_id":"ebaeb051-da0d-42af-b80a-44b1a99b9428","system_id":"levelo_inurba_marseille","lat":43.34225,"lon":5.38624,"is_reserved":false,"is_disabled":false,"rental_uris":{"android":"levelo://app?vid=ebaeb051-da0d-42af-b80a-44b1a99b9428","ios":"levelo://app?vid=ebaeb051-da0d-42af-b80a-44b1a99b9428"},"vehicle_type_id":"4","last_reported":1718485582,"current_range_meters":22400,"station_id":"","pricing_plan_id":"cebpf4jnsgd1na2vs0mg"},{"bike_id":"48d3212d-51bc-43aa-9f8c-958c2bb2dfe9","system_id":"levelo_inurba_marseille","lat":43.2811,"lon":5.37839,"is_reserved":false,"is_disabled":false,"rental_uris":{"android":"levelo://app?vid=48d3212d-51bc-43aa-9f8c-958c2bb2dfe9","ios":"levelo://app?vid=48d3212d-51bc-43aa-9f8c-958c2bb2dfe9"},"vehicle_type_id":"4","last_reported":1718485582,"current_range_meters":8800,"station_id":"","pricing_plan_id":"cebpf4jnsgd1na2vs0mg"},{"bike_id":"56f62ca1-3699-45ea-82a3-98488308a348","system_id":"levelo_inurba_marseille","lat":43.281044,"lon":5.378308,"is_reserved":false,"is_disabled":false,"rental_uris":{"android":"levelo://app?vid=56f62ca1-3699-45ea-82a3-98488308a348","ios":"levelo://app?vid=56f62ca1-3699-45ea-82a3-98488308a348"},"vehicle_type_id":"4","last_reported":1718485582,"current_range_meters":31600,"station_id":"ce4bha12rcd13ifvqee0","pricing_plan_id":"cebpf4jnsgd1na2vs0mg"},{"bike_id":"109a725c-c203-4765-84b6-a3b284867c4c","system_id":"levelo_inurba_marseille","lat":43.296263,"lon":5.40601,"is_reserved":false,"is_disabled":false,"rental_uris":{"android":"levelo://app?vid=109a725c-c203-4765-84b6-a3b284867c4c","ios":"levelo://app?vid=109a725c-c203-4765-84b6-a3b284867c4c"},"vehicle_type_id":"4","last_reported":1718485582,"current_range_meters":27600,"station_id":"ce4bh0h2rcd13ifvqd60","pricing_plan_id":"cebpf4jnsgd1na2vs0mg"},{"bike_id":"ec6732b5-a759-4169-b4bc-685ca3ab8e32","system_id":"levelo_inurba_marseille","lat":43.281044,"lon":5.378308,"is_reserved":false,"is_disabled":false,"rental_uris":{"android":"levelo://app?vid=ec6732b5-a759-4169-b4bc-685ca3ab8e32","ios":"levelo://app?vid=ec6732b5-a759-4169-b4bc-685ca3ab8e32"},"vehicle_type_id":"4","last_reported":1718485582,"current_range_meters":8400,"station_id":"ce4bha12rcd13ifvqee0","pricing_plan_id":"cebpf4jnsgd1na2vs0mg"},{"bike_id":"484ca46d-d7ac-4c11-9cd9-12183679e414","system_id":"levelo_inurba_marseille","lat":43.296263,"lon":5.40601,"is_reserved":false,"is_disabled":false,"rental_uris":{"android":"levelo://app?vid=484ca46d-d7ac-4c11-9cd9-12183679e414","ios":"levelo://app?vid=484ca46d-d7ac-4c11-9cd9-12183679e414"},"vehicle_type_id":"4","last_reported":1718485582,"current_range_meters":16000,"station_id":"ce4bh0h2rcd13ifvqd60","pricing_plan_id":"cebpf4jnsgd1na2vs0mg"},{"bike_id":"3ed083de-7d10-4212-ae03-d27f7ef3e319","system_id":"levelo_inurba_marseille","lat":43.285742,"lon":5.395004,"is_reserved":false,"is_disabled":false,"rental_uris":{"android":"levelo://app?vid=3ed083de-7d10-4212-ae03-d27f7ef3e319","ios":"levelo://app?vid=3ed083de-7d10-4212-ae03-d27f7ef3e319"},"vehicle_type_id":"4","last_reported":1718485582,"current_range_meters":7600,"station_id":"ce4bh292rcd13ifvqdg0","pricing_plan_id":"cebpf4jnsgd1na2vs0mg"},{"bike_id":"b8ba5c37-c098-4c74-baf5-9c75d1627ac1","system_id":"levelo_inurba_marseille","lat":43.326605,"lon":5.409903,"is_reserved":false,"is_disabled":false,"rental_uris":{"android":"levelo://app?vid=b8ba5c37-c098-4c74-baf5-9c75d1627ac1","ios":"levelo://app?vid=b8ba5c37-c098-4c74-baf5-9c75d1627ac1"},"vehicle_type_id":"4","last_reported":1718485582,"current_range_meters":18800,"station_id":"ce4bhpp2rcd13ifvqhgg","pricing_plan_id":"cebpf4jnsgd1na2vs0mg"},{"bike_id":"844d4f40-f188-4259-b795-22ec494f7103","system_id":"levelo_inurba_marseille","lat":43.326605,"lon":5.409903,"is_reserved":false,"is_disabled":false,"rental_uris":{"android":"levelo://app?vid=844d4f40-f188-4259-b795-22ec494f7103","ios":"levelo://app?vid=844d4f40-f188-4259-b795-22ec494f7103"},"vehicle_type_id":"4","last_reported":1718485582,"current_range_meters":27200,"station_id":"ce4bhpp2rcd13ifvqhgg","pricing_plan_id":"cebpf4jnsgd1na2vs0mg"},{"bike_id":"f793186c-b046-4aa7-bc25-ca80ee021030","system_id":"levelo_inurba_marseille","lat":43.304188,"lon":5.412904,"is_reserved":false,"is_disabled":false,"rental_uris":{"android":"levelo://app?vid=f793186c-b046-4aa7-bc25-ca80ee021030","ios":"levelo://app?vid=f793186c-b046-4aa7-bc25-ca80ee021030"},"vehicle_type_id":"4","last_reported":1718485582,"current_range_meters":8400,"station_id":"ce4bhop2rcd13ifvqh8g","pricing_plan_id":"cebpf4jnsgd1na2vs0mg"},{"bike_id":"b6a8294f-8d56-409c-a3c1-fd655c945339","system_id":"levelo_inurba_marseille","lat":43.304188,"lon":5.412904,"is_reserved":false,"is_disabled":false,"rental_uris":{"android":"levelo://app?vid=b6a8294f-8d56-409c-a3c1-fd655c945339","ios":"levelo://app?vid=b6a8294f-8d56-409c-a3c1-fd655c945339"},"vehicle_type_id":"4","last_reported":1718485582,"current_range_meters":12400,"station_id":"ce4bhop2rcd13ifvqh8g","pricing_plan_id":"cebpf4jnsgd1na2vs0mg"},{"bike_id":"46312fe7-2121-42bf-b027-4cfb7f404da9","system_id":"levelo_inurba_marseille","lat":43.304188,"lon":5.412904,"is_reserved":false,"is_disabled":false,"rental_uris":{"android":"levelo://app?vid=46312fe7-2121-42bf-b027-4cfb7f404da9","ios":"levelo://app?vid=46312fe7-2121-42bf-b027-4cfb7f404da9"},"vehicle_type_id":"4","last_reported":1718485582,"current_range_meters":0,"station_id":"ce4bhop2rcd13ifvqh8g","pricing_plan_id":"cebpf4jnsgd1na2vs0mg"},