{"last_updated":1744877662,"ttl":60,"version":"2.2","data":{"bikes":[{"bike_id":"5266c1d1-b423-4304-bfd9-5e233af8c30f","system_id":"levelo_inurba_marseille","lat":43.25581,"lon":5.38232,"is_reserved":false,"is_disabled":false,"rental_uris":{"android":"levelo://app?vid=5266c1d1-b423-4304-bfd9-5e233af8c30f","ios":"levelo://app?vid=5266c1d1-b423-4304-bfd9-5e233af8c30f"},"vehicle_type_id":"4","last_reported":1744877662,"current_range_meters":2800,"station_id":"ce4bhih2rcd13ifvqfs0","pricing_plan_id":"cebpf4jnsgd1na2vs0mg"},{"bike_id":"b9d42639-ec17-4010-97ea-9376ca10077f","system_id":"levelo_inurba_marseille","lat":43.29528,"lon":5.38543,"is_reserved":false,"is_disabled":false,"rental_uris":{"android":"levelo://app?vid=b9d42639-ec17-4010-97ea-9376ca10077f","ios":"levelo://app?vid=b9d42639-ec17-4010-97ea-9376ca10077f"},"vehicle_type_id":"4","last_reported":1744877662,"current_range_meters":3600,"station_id":"ce4bgih2rcd13ifvqba0","pricing_plan_id":"cebpf4jnsgd1na2vs0mg"},{"bike_id":"29974edd-fb67-4248-9e8c-938d3b345668","system_id":"levelo_inurba_marseille","lat":43.27322,"lon":5.39066,"is_reserved":false,"is_disabled":false,"rental_uris":{"android":"levelo://app?vid=29974edd-fb67-4248-9e8c-938d3b345668","ios":"levelo://app?vid=29974edd-fb67-4248-9e8c-938d3b345668"},"vehicle_type_id":"4","last_reported":1744877662,"current_range_meters":3600,"station_id":"ce4bhgp2rcd13ifvqfe0","pricing_plan_id":"cebpf4jnsgd1na2vs0mg"},{"bike_id":"4be423fc-b49d-4203-8abc-985b45dfd65e","system_id":"levelo_inurba_marseille","lat":43.32907,"lon":5.43385,"is_reserved":false,"is_disabled":false,"rental_uris":{"android":"levelo://app?vid=4be423fc-b49d-4203-8abc-985b45dfd65e","ios":"levelo://app?vid=4be423fc-b49d-4203-8abc-985b45dfd65e"},"vehicle_type_id":"4","last_reported":1744877662,"current_range_meters":3600,"station_id":"","pricing_plan_id":"cebpf4jnsgd1na2vs0mg"},{"bike_id":"aba6c310-a0df-4063-aa0b-8fe8353b3061","system_id":"levelo_inurba_marseille","lat":43.30133,"lon":5.37416,"is_reserved":false,"is_disabled":false,"rental_uris":{"android":"levelo://app?vid=aba6c310-a0df-4063-aa0b-8fe8353b3061","ios":"levelo://app?vid=aba6c310-a0df-4063-aa0b-8fe8353b3061"},"vehicle_type_id":"4","last_reported":1744877662,"current_range_meters":4400,"station_id":"ce4bgs92rcd13ifvqcc0","pricing_plan_id":"cebpf4jnsgd1na2vs0mg"},{"bike_id":"e830f15f-1fc7-4598-869b-2baaf3289f9f","system_id":"levelo_inurba_marseille","lat":43.32544,"lon":5.41455,"is_reserved":false,"is_disabled":false,"rental_uris":{"android":"levelo://app?vid=e830f15f-1fc7-4598-869b-2baaf3289f9f","ios":"levelo://app?vid=e830f15f-1fc7-4598-869b-2baaf3289f9f"},"vehicle_type_id":"4","last_reported":1744877662,"current_range_meters":4400,"station_id":"ce4bhq12rcd13ifvqhhg","pricing_plan_id":"cebpf4jnsgd1na2vs0mg"},{"bike_id":"e45158c3-96ee-42b8-b8d0-6bfc8e91677d","system_id":"levelo_inurba_marseille","lat":43.27764,"lon":5.40603,"is_reserved":false,"is_disabled":false,"rental_uris":{"android":"levelo://app?vid=e45158c3-96ee-42b8-b8d0-6bfc8e91677d","ios":"levelo://app?vid=e45158c3-96ee-42b8-b8d0-6bfc8e91677d"},"vehicle_type_id":"4","last_reported":1744877662,"current_range_meters":4400,"station_id":"","pricing_plan_id":"cebpf4jnsgd1na2vs0mg"},{"bike_id":"376f754b-7bba-4962-babe-b49b1468281c","system_id":"levelo_inurba_marseille","lat":43.30919,"lon":5.40147,"is_reserved":false,"is_disabled":true,"rental_uris":{"android":"levelo://app?vid=376f754b-7bba-4962-babe-b49b1468281c","ios":"levelo://app?vid=376f754b-7bba-4962-babe-b49b1468281c"},"vehicle_type_id":"4","last_reported":1744877662,"current_range_meters":4400,"station_id":"ce4bgvp2rcd13ifvqct0","pricing_plan_id":"cebpf4jnsgd1na2vs0mg"},{"bike_id":"699c50a1-0ef6-4452-bf4f-4c53f96c4848","system_id":"levelo_inurba_marseille","lat":43.293015,"lon":5.374603,"is_reserved":false,"is_disabled":false,"rental_uris":{"android":"levelo://app?vid=699c50a1-0ef6-4452-bf4f-4c53f96c4848","ios":"levelo://app?vid=699c50a1-0ef6-4452-bf4f-4c53f96c4848"},"vehicle_type_id":"4","last_reported":1744877662,"current_range_meters":4800,"station_id":"ce4bhb12rcd13ifvqel0","pricing_plan_id":"cebpf4jnsgd1na2vs0mg"},{"bike_id":"178dad46-cb0d-4eb0-b656-2a8e4563fbcb","system_id":"levelo_inurba_marseille","lat":43.30154,"lon":5.38101,"is_reserved":false,"is_disabled":false,"rental_uris":{"android":"levelo://app?vid=178dad46-cb0d-4eb0-b656-2a8e4563fbcb","ios":"levelo://app?vid=178dad46-cb0d-4eb0-b656-2a8e4563fbcb"},"vehicle_type_id":"4","last_reported":1744877662,"current_range_meters":4800,"station_id":"ce4bgjp2rcd13ifvqbh0","pricing_plan_id":"cebpf4jnsgd1na2vs0mg"},{"bike_id":"87da82df-95dc-4dc6-8815-43a16edbf343","system_id":"levelo_inurba_marseille","lat":43.3055,"lon":5.367,"is_reserved":false,"is_disabled":false,"rental_uris":{"android":"levelo://app?vid=87da82df-95dc-4dc6-8815-43a16edbf343","ios":"levelo://app?vid=87da82df-95dc-4dc6-8815-43a16edbf343"},"vehicle_type_id":"4","last_reported":1744877662,"current_range_meters":4400,"station_id":"ce4bgrp2rcd13ifvqc9g","pricing_plan_id":"cebpf4jnsgd1na2vs0mg"},{"bike_id":"9758ab14-3b96-4210-b699-0e428a08da50","system_id":"levelo_inurba_marseille","lat":43.30552,"lon":5.38429,"is_reserved":false,"is_disabled":false,"rental_uris":{"android":"levelo://app?vid=9758ab14-3b96-4210-b699-0e428a08da50","ios":"levelo://app?vid=9758ab14-3b96-4210-b699-0e428a08da50"},"vehicle_type_id":"4","last_reported":1744877662,"current_range_meters":5600,"station_id":"ce4bgg92rcd13ifvqb30","pricing_plan_id":"cebpf4jnsgd1na2vs0mg"},{"bike_id":"db1d188d-89a9-4b26-8d6d-207e9d196654","system_id":"levelo_inurba_marseille","lat":43.27845,"lon":5.40747,"is_reserved":false,"is_disabled":false,"rental_uris":{"android":"levelo://app?vid=db1d188d-89a9-4b26-8d6d-207e9d196654","ios":"levelo://app?vid=db1d188d-89a9-4b26-8d6d-207e9d196654"},"vehicle_type_id":"4","last_reported":1744877662,"current_range_meters":5600,"station_id":"ce4bhnh2rcd13ifvqgtg","pricing_plan_id":"cebpf4jnsgd1na2vs0mg"},{"bike_id":"27d65429-e235-4ad4-8e99-624219bf772a","system_id":"levelo_inurba_marseille","lat":43.30739,"lon":5.42436,"is_reserved":false,"is_disabled":false,"rental_uris":{"android":"levelo://app?vid=27d65429-e235-4ad4-8e99-624219bf772a","ios":"levelo://app?vid=27d65429-e235-4ad4-8e99-624219bf772a"},"vehicle_type_id":"4","last_reported":1744877662,"current_range_meters":5600,"station_id":"st_cvj6ca6bvosntc0bfgr0","pricing_plan_id":"cebpf4jnsgd1na2vs0mg"},{"bike_id":"cc7ac33d-b61e-49f5-ad83-554a3d040679","system_id":"levelo_inurba_marseille","lat":43.3047,"lon":5.37911,"is_reserved":false,"is_disabled":false,"rental_uris":{"android":"levelo://app?vid=cc7ac33d-b61e-49f5-ad83-554a3d040679","ios":"levelo://app?vid=cc7ac33d-b61e-49f5-ad83-554a3d040679"},"vehicle_type_id":"4","last_reported":1744877662,"current_range_meters":5600,"station_id":"ce4bgup2rcd13ifvqcn0","pricing_plan_id":"cebpf4jnsgd1na2vs0mg"},{"bike_id":"7428a373-466d-4467-8e1b-f7d9827aa3e1","system_id":"levelo_inurba_marseille","lat":43.27222,"lon":5.39183,"is_reserved":false,"is_disabled":false,"rental_uris":{"android":"levelo://app?vid=7428a373-466d-4467-8e1b-f7d9827aa3e1","ios":"levelo://app?vid=7428a373-466d-4467-8e1b-f7d9827aa3e1"},"vehicle_type_id":"4","last_reported":1744877662,"current_range_meters":6000,"station_id":"ce4bhhp2rcd13ifvqfm0","pricing_plan_id":"cebpf4jnsgd1na2vs0mg"},{"bike_id":"e431d107-8c13-4531-8702-404d40863434","system_id":"levelo_inurba_marseille","lat":43.29297,"lon":5.37457,"is_reserved":false,"is_disabled":false,"rental_uris":{"android":"levelo://app?vid=e431d107-8c13-4531-8702-404d40863434","ios":"levelo://app?vid=e431d107-8c13-4531-8702-404d40863434"},"vehicle_type_id":"4","last_reported":1744877662,"current_range_meters":6000,"station_id":"ce4bgi12rcd13ifvqb70","pricing_plan_id":"cebpf4jnsgd1na2vs0mg"},{"bike_id":"3ac779a4-a733-41fb-a10f-59270a58f3e4","system_id":"levelo_inurba_marseille","lat":43.25968,"lon":5.40899,"is_reserved":false,"is_disabled":false,"rental_uris":{"android":"levelo://app?vid=3ac779a4-a733-41fb-a10f-59270a58f3e4","ios":"levelo://app?vid=3ac779a4-a733-41fb-a10f-59270a58f3e4"},"vehicle_type_id":"4","last_reported":1744877662,"current_range_meters":6400,"station_id":"ce4bhm92rcd13ifvqglg","pricing_plan_id":"cebpf4jnsgd1na2vs0mg"},{"bike_id":"17634355-9bc1-4724-b546-3aae67092dd5","system_id":"levelo_inurba_marseille","lat":43.301975,"lon":5.366293,"is_reserved":false,"is_disabled":false,"rental_uris":{"android":"levelo://app?vid=17634355-9bc1-4724-b546-3aae67092dd5","ios":"levelo://app?vid=17634355-9bc1-4724-b546-3aae67092dd5"},"vehicle_type_id":"4","last_reported":1744877662,"current_range_meters":6400,"station_id":"ce4bgrh2rcd13ifvqc8g","pricing_plan_id":"cebpf4jnsgd1na2vs0mg"},{"bike_id":"0f1b0350-e08d-4977-9b7e-d9b764fb1cd0","system_id":"levelo_inurba_marseille","lat":43.28366,"lon":5.38617,"is_reserved":false,"is_disabled":false,"rental_uris":{"android":"levelo://app?vid=0f1b0350-e08d-4977-9b7e-d9b764fb1cd0","ios":"levelo://app?vid=0f1b0350-e08d-4977-9b7e-d9b764fb1cd0"},"vehicle_type_id":"4","last_reported":1744877662,"current_range_meters":6400,"station_id":"ce4bh492rcd13ifvqdvg","pricing_plan_id":"cebpf4jnsgd1na2vs0mg"},{"bike_id":"3674dc51-53dc-4ce3-bb09-ca3457d83aa1","system_id":"levelo_inurba_marseille","lat":43.30503,"lon":5.36722,"is_reserved":false,"is_disabled":false,"rental_uris":{"android":"levelo://app?vid=3674dc51-53dc-4ce3-bb09-ca3457d83aa1","ios":"levelo://app?vid=3674dc51-53dc-4ce3-bb09-ca3457d83aa1"},"vehicle_type_id":"4","last_reported":1744877662,"current_range_meters":6800,"station_id":"ce4bgrp2rcd13ifvqc9g","pricing_plan_id":"cebpf4jnsgd1na2vs0mg"},{"bike_id":"5feb23f3-9770-4b8b-b11f-fd7b74e675e5","system_id":"levelo_inurba_marseille","lat":43.29846,"lon":5.36275,"is_reserved":false,"is_disabled":false,"rental_uris":{"android":"levelo://app?vid=5feb23f3-9770-4b8b-b11f-fd7b74e675e5","ios":"levelo://app?vid=5feb23f3-9770-4b8b-b11f-fd7b74e675e5"},"vehicle_type_id":"4","last_reported":1744877662,"current_range_meters":6800,"station_id":"ce4bgpp2rcd13ifvqc3g","pricing_plan_id":"cebpf4jnsgd1na2vs0mg"},{"bike_id":"0bdc7fcc-1526-4fba-8668-479b5d5c422c","system_id":"levelo_inurba_marseille","lat":43.27057,"lon":5.40265,"is_reserved":false,"is_disabled":false,"rental_uris":{"android":"levelo://app?vid=0bdc7fcc-1526-4fba-8668-479b5d5c422c","ios":"levelo://app?vid=0bdc7fcc-1526-4fba-8668-479b5d5c422c"},"vehicle_type_id":"4","last_reported":1744877662,"current_range_meters":7200,"station_id":"ce4bhk92rcd13ifvqgc0","pricing_plan_id":"cebpf4jnsgd1na2vs0mg"},{"bike_id":"a42a5ce9-2cba-49d1-91c2-e82429329c19","system_id":"levelo_inurba_marseille","lat":43.27064,"lon":5.40257,"is_reserved":false,"is_disabled":false,"rental_uris":{"android":"levelo://app?vid=a42a5ce9-2cba-49d1-91c2-e82429329c19","ios":"levelo://app?vid=a42a5ce9-2cba-49d1-91c2-e82429329c19"},"vehicle_type_id":"4","last_reported":1744877662,"current_range_meters":8000,"station_id":"ce4bhk92rcd13ifvqgc0","pricing_plan_id":"cebpf4jnsgd1na2vs0mg"},{"bike_id":"2fd1e62f-6970-4bec-8966-a4ff853b784b","system_id":"levelo_inurba_marseille","lat":43.29925,"lon":5.36552,"is_reserved":false,"is_disabled":false,"rental_uris":{"android":"levelo://app?vid=2fd1e62f-6970-4bec-8966-a4ff853b784b","ios":"levelo://app?vid=2fd1e62f-6970-4bec-8966-a4ff853b784b"},"vehicle_type_id":"4","last_reported":1744877662,"current_range_meters":8000,"station_id":"ce4bgm92rcd13ifvqbr0","pricing_plan_id":"cebpf4jnsgd1na2vs0mg"},{"bike_id":"9ead92d8-71c4-45b6-94f2-ea600e72a836","system_id":"levelo_inurba_marseille","lat":43.2984,"lon":5.3628,"is_reserved":false,"is_disabled":false,"rental_uris":{"android":"levelo://app?vid=9ead92d8-71c4-45b6-94f2-ea600e72a836","ios":"levelo://app?vid=9ead92d8-71c4-45b6-94f2-ea600e72a836"},"vehicle_type_id":"4","last_reported":1744877662,"current_range_meters":8400,"station_id":"ce4bgpp2rcd13ifvqc3g","pricing_plan_id":"cebpf4jnsgd1na2vs0mg"},{"bike_id":"15701ca2-b92e-4248-b2b6-04ee3b91dd40","system_id":"levelo_inurba_marseille","lat":43.29299,"lon":5.37161,"is_reserved":false,"is_disabled":false,"rental_uris":{"android":"levelo://app?vid=15701ca2-b92e-4248-b2b6-04ee3b91dd40","ios":"levelo://app?vid=15701ca2-b92e-4248-b2b6-04ee3b91dd40"},"vehicle_type_id":"4","last_reported":1744877662,"current_range_meters":8400,"station_id":"ce4bgh92rcd13ifvqb40","pricing_plan_id":"cebpf4jnsgd1na2vs0mg"},{"bike_id":"ffbe559a-01c8-47cf-9d97-51c95f8a4149","system_id":"levelo_inurba_marseille","lat":43.30955,"lon":5.39032,"is_reserved":false,"is_disabled":false,"rental_uris":{"android":"levelo://app?vid=ffbe559a-01c8-47cf-9d97-51c95f8a4149","ios":"levelo://app?vid=ffbe559a-01c8-47cf-9d97-51c95f8a4149"},"vehicle_type_id":"4","last_reported":1744877662,"current_range_meters":8400,"station_id":"ce4bgup2rcd13ifvqco0","pricing_plan_id":"cebpf4jnsgd1na2vs0mg"},{"bike_id":"6a3f40c4-4ded-4144-be9b-7cf436c88be1","system_id":"levelo_inurba_marseille","lat":43.25986,"lon":5.40981,"is_reserved":false,"is_disabled":false,"rental_uris":{"android":"levelo://app?vid=6a3f40c4-4ded-4144-be9b-7cf436c88be1","ios":"levelo://app?vid=6a3f40c4-4ded-4144-be9b-7cf436c88be1"},"vehicle_type_id":"4","last_reported":1744877662,"current_range_meters":8400,"station_id":"ce4bhm92rcd13ifvqglg","pricing_plan_id":"cebpf4jnsgd1na2vs0mg"},{"bike_id":"23d89521-194d-48e3-a4e6-4e21099c4308","system_id":"levelo_inurba_marseille","lat":43.2953,"lon":5.38544,"is_reserved":false,"is_disabled":false,"rental_uris":{"android":"levelo://app?vid=23d89521-194d-48e3-a4e6-4e21099c4308","ios":"levelo://app?vid=23d89521-194d-48e3-a4e6-4e21099c4308"},"vehicle_type_id":"4","last_reported":1744877662,"current_range_meters":8400,"station_id":"ce4bgih2rcd13ifvqba0","pricing_plan_id":"cebpf4jnsgd1na2vs0mg"},{"bike_id":"4a340735-6d34-4c51-83b1-b50b0b43373d","system_id":"levelo_inurba_marseille","lat":43.3249,"lon":5.36571,"is_reserved":false,"is_disabled":false,"rental_uris":{"android":"levelo://app?vid=4a340735-6d34-4c51-83b1-b50b0b43373d","ios":"levelo://app?vid=4a340735-6d34-4c51-83b1-b50b0b43373d"},"vehicle_type_id":"4","last_reported":1744877662,"current_range_meters":8400,"station_id":"ce4bhs12rcd13ifvqhvg","pricing_plan_id":"cebpf4jnsgd1na2vs0mg"},{"bike_id":"a829ae25-8f1a-4059-a4b7-5be1d885c516","system_id":"levelo_inurba_marseille","lat":43.31217,"lon":5.36866,"is_reserved":false,"is_disabled":false,"rental_uris":{"android":"levelo://app?vid=a829ae25-8f1a-4059-a4b7-5be1d885c516","ios":"levelo://app?vid=a829ae25-8f1a-4059-a4b7-5be1d885c516"},"vehicle_type_id":"4","last_reported":1744877662,"current_range_meters":8800,"station_id":"ce4bgl92rcd13ifvqbq0","pricing_plan_id":"cebpf4jnsgd1na2vs0mg"},{"bike_id":"84b58d90-bb57-4bdb-8485-62b6e661a441","system_id":"levelo_inurba_marseille","lat":43.24206,"lon":5.39695,"is_reserved":false,"is_disabled":true,"rental_uris":{"android":"levelo://app?vid=84b58d90-bb57-4bdb-8485-62b6e661a441","ios":"levelo://app?vid=84b58d90-bb57-4bdb-8485-62b6e661a441"},"vehicle_type_id":"4","last_reported":1744877662,"current_range_meters":9200,"station_id":"ce4bhn12rcd13ifvqgpg","pricing_plan_id":"cebpf4jnsgd1na2vs0mg"},{"bike_id":"d039d2b4-40e8-4f5c-af2b-a64b88326650","system_id":"levelo_inurba_marseille","lat":43.25935,"lon":5.40902,"is_reserved":false,"is_disabled":false,"rental_uris":{"android":"levelo://app?vid=d039d2b4-40e8-4f5c-af2b-a64b88326650","ios":"levelo://app?vid=d039d2b4-40e8-4f5c-af2b-a64b88326650"},"vehicle_type_id":"4","last_reported":1744877662,"current_range_meters":9200,"station_id":"ce4bhm92rcd13ifvqglg","pricing_plan_id":"cebpf4jnsgd1na2vs0mg"},{"bike_id":"6b2d7d4a-c5ab-403d-bef9-a9de96cca6da","system_id":"levelo_inurba_marseille","lat":43.3019,"lon":5.36621,"is_reserved":false,"is_disabled":false,"rental_uris":{"android":"levelo://app?vid=6b2d7d4a-c5ab-403d-bef9-a9de96cca6da","ios":"levelo://app?vid=6b2d7d4a-c5ab-403d-bef9-a9de96cca6da"},"vehicle_type_id":"4","last_reported":1744877662,"current_range_meters":9200,"station_id":"ce4bgrh2rcd13ifvqc8g","pricing_plan_id":"cebpf4jnsgd1na2vs0mg"},{"bike_id":"17d425c7-2ff7-47af-abf9-ee9063cee3be","system_id":"levelo_inurba_marseille","lat":43.33597,"lon":5.4102,"is_reserved":false,"is_disabled":false,"rental_uris":{"android":"levelo://app?vid=17d425c7-2ff7-47af-abf9-ee9063cee3be","ios":"levelo://app?vid=17d425c7-2ff7-47af-abf9-ee9063cee3be"},"vehicle_type_id":"4","last_reported":1744877662,"current_range_meters":9200,"station_id":"ce4bhqh2rcd13ifvqhmg","pricing_plan_id":"cebpf4jnsgd1na2vs0mg"},{"bike_id":"b0f53ea3-e12d-4466-9e36-790bba87033c","system_id":"levelo_inurba_marseille","lat":43.30804,"lon":5.43526,"is_reserved":false,"is_disabled":false,"rental_uris":{"android":"levelo://app?vid=b0f53ea3-e12d-4466-9e36-790bba87033c","ios":"levelo://app?vid=b0f53ea3-e12d-4466-9e36-790bba87033c"},"vehicle_type_id":"4","last_reported":1744877662,"current_range_meters":9200,"station_id":"ce4bhph2rcd13ifvqheg","pricing_plan_id":"cebpf4jnsgd1na2vs0mg"},{"bike_id":"8ff58947-d896-4635-b515-ca6dc11b26b9","system_id":"levelo_inurba_marseille","lat":43.25935,"lon":5.40911,"is_reserved":false,"is_disabled":false,"rental_uris":{"android":"levelo://app?vid=8ff58947-d896-4635-b515-ca6dc11b26b9","ios":"levelo://app?vid=8ff58947-d896-4635-b515-ca6dc11b26b9"},"vehicle_type_id":"4","last_reported":1744877662,"current_range_meters":9200,"station_id":"ce4bhm92rcd13ifvqglg","pricing_plan_id":"cebpf4jnsgd1na2vs0mg"},{"bike_id":"834ec9e1-9d50-4bee-85ae-d1db335c55e5","system_id":"levelo_inurba_marseille","lat":43.31166,"lon":5.36994,"is_reserved":false,"is_disabled":false,"rental_uris":{"android":"levelo://app?vid=834ec9e1-9d50-4bee-85ae-d1db335c55e5","ios":"levelo://app?vid=834ec9e1-9d50-4bee-85ae-d1db335c55e5"},"vehicle_type_id":"4","last_reported":1744877662,"current_range_meters":9600,"station_id":"","pricing_plan_id":"cebpf4jnsgd1na2vs0mg"},{"bike_id":"6b263e6b-aafb-45b2-8f6c-e9526fac004d","system_id":"levelo_inurba_marseille","lat":43.25825,"lon":5.39435,"is_reserved":false,"is_disabled":false,"rental_uris":{"android":"levelo://app?vid=6b263e6b-aafb-45b2-8f6c-e9526fac004d","ios":"levelo://app?vid=6b263e6b-aafb-45b2-8f6c-e9526fac004d"},"vehicle_type_id":"4","last_reported":1744877662,"current_range_meters":9600,"station_id":"ce4bhip2rcd13ifvqft0","pricing_plan_id":"cebpf4jnsgd1na2vs0mg"},{"bike_id":"5a46d4b9-61c5-4dc6-a227-2ce9e3684801","system_id":"levelo_inurba_marseille","lat":43.26827,"lon":5.3944,"is_reserved":false,"is_disabled":false,"rental_uris":{"android":"levelo://app?vid=5a46d4b9-61c5-4dc6-a227-2ce9e3684801","ios":"levelo://app?vid=5a46d4b9-61c5-4dc6-a227-2ce9e3684801"},"vehicle_type_id":"4","last_reported":1744877662,"current_range_meters":9600,"station_id":"ce4bhh12rcd13ifvqfg0","pricing_plan_id":"cebpf4jnsgd1na2vs0mg"},{"bike_id":"07e5bcda-2583-40f2-ae93-263393803c1e","system_id":"levelo_inurba_marseille","lat":43.29198,"lon":5.35814,"is_reserved":false,"is_disabled":false,"rental_uris":{"android":"levelo://app?vid=07e5bcda-2583-40f2-ae93-263393803c1e","ios":"levelo://app?vid=07e5bcda-2583-40f2-ae93-263393803c1e"},"vehicle_type_id":"4","last_reported":1744877662,"current_range_meters":9600,"station_id":"ce4bhb12rcd13ifvqel0","pricing_plan_id":"cebpf4jnsgd1na2vs0mg"},{"bike_id":"33a6722b-a378-4581-b569-bb0fe1ac4475","system_id":"levelo_inurba_marseille","lat":43.2999,"lon":5.37172,"is_reserved":false,"is_disabled":true,"rental_uris":{"android":"levelo://app?vid=33a6722b-a378-4581-b569-bb0fe1ac4475","ios":"levelo://app?vid=33a6722b-a378-4581-b569-bb0fe1ac4475"},"vehicle_type_id":"4","last_reported":1744877662,"current_range_meters":9600,"station_id":"ce4bgr92rcd13ifvqc7g","pricing_plan_id":"cebpf4jnsgd1na2vs0mg"},{"bike_id":"cc660ce7-d27b-4993-972e-fcdcc06efb2d","system_id":"levelo_inurba_marseille","lat":43.29011,"lon":5.39902,"is_reserved":false,"is_disabled":false,"rental_uris":{"android":"levelo://app?vid=cc660ce7-d27b-4993-972e-fcdcc06efb2d","ios":"levelo://app?vid=cc660ce7-d27b-4993-972e-fcdcc06efb2d"},"vehicle_type_id":"4","last_reported":1744877662,"current_range_meters":10000,"station_id":"","pricing_plan_id":"cebpf4jnsgd1na2vs0mg"},{"bike_id":"c3952952-4b52-49f4-b864-0656fcaf3b72","system_id":"levelo_inurba_marseille","lat":43.30957,"lon":5.390348,"is_reserved":false,"is_disabled":false,"rental_uris":{"android":"levelo://app?vid=c3952952-4b52-49f4-b864-0656fcaf3b72","ios":"levelo://app?vid=c3952952-4b52-49f4-b864-0656fcaf3b72"},"vehicle_type_id":"4","last_reported":1744877662,"current_range_meters":10000,"station_id":"ce4bgup2rcd13ifvqco0","pricing_plan_id":"cebpf4jnsgd1na2vs0mg"},{"bike_id":"5eccede5-a092-4c79-861e-9ba408b79172","system_id":"levelo_inurba_marseille","lat":43.32127,"lon":5.36787,"is_reserved":false,"is_disabled":false,"rental_uris":{"android":"levelo://app?vid=5eccede5-a092-4c79-861e-9ba408b79172","ios":"levelo://app?vid=5eccede5-a092-4c79-861e-9ba408b79172"},"vehicle_type_id":"4","last_reported":1744877662,"current_range_meters":10000,"station_id":"ce4bhrh2rcd13ifvqhug","pricing_plan_id":"cebpf4jnsgd1na2vs0mg"},{"bike_id":"89284911-e80c-471a-8b5f-b374022a4bc4","system_id":"levelo_inurba_marseille","lat":43.30148,"lon":5.37405,"is_reserved":false,"is_disabled":false,"rental_uris":{"android":"levelo://app?vid=89284911-e80c-471a-8b5f-b374022a4bc4","ios":"levelo://app?vid=89284911-e80c-471a-8b5f-b374022a4bc4"},"vehicle_type_id":"4","last_reported":1744877662,"current_range_meters":10000,"station_id":"ce4bgs92rcd13ifvqcc0","pricing_plan_id":"cebpf4jnsgd1na2vs0mg"},{"bike_id":"5df85a79-274c-4999-ab35-d1f225e8f5cd","system_id":"levelo_inurba_marseille","lat":43.31385,"lon":5.36673,"is_reserved":false,"is_disabled":false,"rental_uris":{"android":"levelo://app?vid=5df85a79-274c-4999-ab35-d1f225e8f5cd","ios":"levelo://app?vid=5df85a79-274c-4999-ab35-d1f225e8f5cd"},"vehicle_type_id":"4","last_reported":1744877662,"current_range_meters":10000,"station_id":"","pricing_plan_id":"cebpf4jnsgd1na2vs0mg"},{"bike_id":"93be371e-f079-4065-9c94-f1bd2172cfd1","system_id":"levelo_inurba_marseille","lat":43.28598,"lon":5.37074,"is_reserved":false,"is_disabled":false,"rental_uris":{"android":"levelo://app?vid=93be371e-f079-4065-9c94-f1bd2172cfd1","ios":"levelo://app?vid=93be371e-f079-4065-9c94-f1bd2172cfd1"},"vehicle_type_id":"4","last_reported":1744877662,"current_range_meters":10800,"station_id":"ce4bht12rcd13ifvqi60","pricing_plan_id":"cebpf4jnsgd1na2vs0mg"},{"bike_id":"af88db6c-6ed6-4cd1-bda5-d2603147fa04","system_id":"levelo_inurba_marseille","lat":43.33613,"lon":5.40998,"is_reserved":false,"is_disabled":false,"rental_uris":{"android":"levelo://app?vid=af88db6c-6ed6-4cd1-bda5-d2603147fa04","ios":"levelo://app?vid=af88db6c-6ed6-4cd1-bda5-d2603147fa04"},"vehicle_type_id":"4","last_reported":1744877662,"current_range_meters":10800,"station_id":"ce4bhqh2rcd13ifvqhmg","pricing_plan_id":"cebpf4jnsgd1na2vs0mg"},{"bike_id":"e06d49c3-720f-46c4-916c-cef1338107d7","system_id":"levelo_inurba_marseille","lat":43.32367,"lon":5.36773,"is_reserved":false,"is_disabled":false,"rental_uris":{"android":"levelo://app?vid=e06d49c3-720f-46c4-916c-cef1338107d7","ios":"levelo://app?vid=e06d49c3-720f-46c4-916c-cef1338107d7"},"vehicle_type_id":"4","last_reported":1744877662,"current_range_meters":10800,"station_id":"ce4bhsh2rcd13ifvqi2g","pricing_plan_id":"cebpf4jnsgd1na2vs0mg"},{"bike_id":"9032f14c-fd09-4b52-bf50-b879d730ed1b","system_id":"levelo_inurba_marseille","lat":43.2571,"lon":5.41123,"is_reserved":false,"is_disabled":false,"rental_uris":{"android":"levelo://app?vid=9032f14c-fd09-4b52-bf50-b879d730ed1b","ios":"levelo://app?vid=9032f14c-fd09-4b52-bf50-b879d730ed1b"},"vehicle_type_id":"4","last_reported":1744877662,"current_range_meters":11200,"station_id":"ce4bhkp2rcd13ifvqgd0","pricing_plan_id":"cebpf4jnsgd1na2vs0mg"},{"bike_id":"1bdba7a7-a82e-4252-906c-80db6beb180e","system_id":"levelo_inurba_marseille","lat":43.24887,"lon":5.39382,"is_reserved":false,"is_disabled":false,"rental_uris":{"android":"levelo://app?vid=1bdba7a7-a82e-4252-906c-80db6beb180e","ios":"levelo://app?vid=1bdba7a7-a82e-4252-906c-80db6beb180e"},"vehicle_type_id":"4","last_reported":1744877662,"current_range_meters":11200,"station_id":"","pricing_plan_id":"cebpf4jnsgd1na2vs0mg"},{"bike_id":"88a0cb80-a51d-46bc-8228-c9a9fb028348","system_id":"levelo_inurba_marseille","lat":43.2564,"lon":5.42003,"is_reserved":false,"is_disabled":false,"rental_uris":{"android":"levelo://app?vid=88a0cb80-a51d-46bc-8228-c9a9fb028348","ios":"levelo://app?vid=88a0cb80-a51d-46bc-8228-c9a9fb028348"},"vehicle_type_id":"4","last_reported":1744877662,"current_range_meters":11200,"station_id":"","pricing_plan_id":"cebpf4jnsgd1na2vs0mg"},{"bike_id":"5a93d799-973b-4cf9-9d96-d6feba3f193d","system_id":"levelo_inurba_marseille","lat":43.24051,"lon":5.37674,"is_reserved":false,"is_disabled":true,"rental_uris":{"android":"levelo://app?vid=5a93d799-973b-4cf9-9d96-d6feba3f193d","ios":"levelo://app?vid=5a93d799-973b-4cf9-9d96-d6feba3f193d"},"vehicle_type_id":"4","last_reported":1744877662,"current_range_meters":11200,"station_id":"ce4bhnp2rcd13ifvqgvg","pricing_plan_id":"cebpf4jnsgd1na2vs0mg"},{"bike_id":"4c1ddfc7-5467-47b7-afaf-657a8d340b70","system_id":"levelo_inurba_marseille","lat":43.25935,"lon":5.40908,"is_reserved":false,"is_disabled":false,"rental_uris":{"android":"levelo://app?vid=4c1ddfc7-5467-47b7-afaf-657a8d340b70","ios":"levelo://app?vid=4c1ddfc7-5467-47b7-afaf-657a8d340b70"},"vehicle_type_id":"4","last_reported":1744877662,"current_range_meters":11200,"station_id":"ce4bhm92rcd13ifvqglg","pricing_plan_id":"cebpf4jnsgd1na2vs0mg"},{"bike_id":"2fd5f4e5-9aa1-4265-82aa-34fb76fdd3d3","system_id":"levelo_inurba_marseille","lat":43.29526,"lon":5.38542,"is_reserved":false,"is_disabled":false,"rental_uris":{"android":"levelo://app?vid=2fd5f4e5-9aa1-4265-82aa-34fb76fdd3d3","ios":"levelo://app?vid=2fd5f4e5-9aa1-4265-82aa-34fb76fdd3d3"},"vehicle_type_id":"4","last_reported":1744877662,"current_range_meters":11600,"station_id":"ce4bgih2rcd13ifvqba0","pricing_plan_id":"cebpf4jnsgd1na2vs0mg"},{"bike_id":"da3ab058-c6d6-485f-b98b-b00a61086bf9","system_id":"levelo_inurba_marseille","lat":43.29276,"lon":5.36849,"is_reserved":false,"is_disabled":false,"rental_uris":{"android":"levelo://app?vid=da3ab058-c6d6-485f-b98b-b00a61086bf9","ios":"levelo://app?vid=da3ab058-c6d6-485f-b98b-b00a61086bf9"},"vehicle_type_id":"4","last_reported":1744877662,"current_range_meters":11600,"station_id":"ce4bhbp2rcd13ifvqesg","pricing_plan_id":"cebpf4jnsgd1na2vs0mg"},{"bike_id":"be14ae35-0d09-49b0-ab14-bf11db608be4","system_id":"levelo_inurba_marseille","lat":43.30952,"lon":5.39037,"is_reserved":false,"is_disabled":false,"rental_uris":{"android":"levelo://app?vid=be14ae35-0d09-49b0-ab14-bf11db608be4","ios":"levelo://app?vid=be14ae35-0d09-49b0-ab14-bf11db608be4"},"vehicle_type_id":"4","last_reported":1744877662,"current_range_meters":11200,"station_id":"ce4bgup2rcd13ifvqco0","pricing_plan_id":"cebpf4jnsgd1na2vs0mg"},{"bike_id":"19461c94-04d2-4613-bc26-76f11a9e298f","system_id":"levelo_inurba_marseille","lat":43.29708,"lon":5.37709,"is_reserved":false,"is_disabled":false,"rental_uris":{"android":"levelo://app?vid=19461c94-04d2-4613-bc26-76f11a9e298f","ios":"levelo://app?vid=19461c94-04d2-4613-bc26-76f11a9e298f"},"vehicle_type_id":"4","last_reported":1744877662,"current_range_meters":11600,"station_id":"ce4bgkh2rcd13ifvqbl0","pricing_plan_id":"cebpf4jnsgd1na2vs0mg"},{"bike_id":"56faa365-6eef-4646-bb31-e922c367b2fe","system_id":"levelo_inurba_marseille","lat":43.2593,"lon":5.40902,"is_reserved":false,"is_disabled":false,"rental_uris":{"android":"levelo://app?vid=56faa365-6eef-4646-bb31-e922c367b2fe","ios":"levelo://app?vid=56faa365-6eef-4646-bb31-e922c367b2fe"},"vehicle_type_id":"4","last_reported":1744877662,"current_range_meters":11600,"station_id":"ce4bhm92rcd13ifvqglg","pricing_plan_id":"cebpf4jnsgd1na2vs0mg"},{"bike_id":"59c2e1e0-94da-4452-9b76-84ff52f79e63","system_id":"levelo_inurba_marseille","lat":43.31201,"lon":5.36828,"is_reserved":false,"is_disabled":false,"rental_uris":{"android":"levelo://app?vid=59c2e1e0-94da-4452-9b76-84ff52f79e63","ios":"levelo://app?vid=59c2e1e0-94da-4452-9b76-84ff52f79e63"},"vehicle_type_id":"4","last_reported":1744877662,"current_range_meters":12000,"station_id":"ce4bgl92rcd13ifvqbq0","pricing_plan_id":"cebpf4jnsgd1na2vs0mg"},{"bike_id":"4f3dfbf4-d1ae-44db-8110-b28c7d24107a","system_id":"levelo_inurba_marseille","lat":43.27072,"lon":5.40269,"is_reserved":false,"is_disabled":false,"rental_uris":{"android":"levelo://app?vid=4f3dfbf4-d1ae-44db-8110-b28c7d24107a","ios":"levelo://app?vid=4f3dfbf4-d1ae-44db-8110-b28c7d24107a"},"vehicle_type_id":"4","last_reported":1744877662,"current_range_meters":12000,"station_id":"ce4bhk92rcd13ifvqgc0","pricing_plan_id":"cebpf4jnsgd1na2vs0mg"},{"bike_id":"a8c3561f-e1d9-4ead-9503-cbf87bd1259a","system_id":"levelo_inurba_marseille","lat":43.33602,"lon":5.41031,"is_reserved":false,"is_disabled":false,"rental_uris":{"android":"levelo://app?vid=a8c3561f-e1d9-4ead-9503-cbf87bd1259a","ios":"levelo://app?vid=a8c3561f-e1d9-4ead-9503-cbf87bd1259a"},"vehicle_type_id":"4","last_reported":1744877662,"current_range_meters":12000,"station_id":"ce4bhqh2rcd13ifvqhmg","pricing_plan_id":"cebpf4jnsgd1na2vs0mg"},{"bike_id":"a4748bd2-9ef5-4b4e-a66b-13e93043870b","system_id":"levelo_inurba_marseille","lat":43.30537,"lon":5.36706,"is_reserved":false,"is_disabled":false,"rental_uris":{"android":"levelo://app?vid=a4748bd2-9ef5-4b4e-a66b-13e93043870b","ios":"levelo://app?vid=a4748bd2-9ef5-4b4e-a66b-13e93043870b"},"vehicle_type_id":"4","last_reported":1744877662,"current_range_meters":12000,"station_id":"ce4bgrp2rcd13ifvqc9g","pricing_plan_id":"cebpf4jnsgd1na2vs0mg"},{"bike_id":"57406be6-c0b4-4691-8abf-3f6842e4ec81","system_id":"levelo_inurba_marseille","lat":43.28453,"lon":5.39176,"is_reserved":false,"is_disabled":true,"rental_uris":{"android":"levelo://app?vid=57406be6-c0b4-4691-8abf-3f6842e4ec81","ios":"levelo://app?vid=57406be6-c0b4-4691-8abf-3f6842e4ec81"},"vehicle_type_id":"4","last_reported":1744877662,"current_range_meters":12000,"station_id":"ce4bhoh2rcd13ifvqh5g","pricing_plan_id":"cebpf4jnsgd1na2vs0mg"},{"bike_id":"44ac3e56-8798-42d8-a1cc-bd3af8b36a49","system_id":"levelo_inurba_marseille","lat":43.32302,"lon":5.38298,"is_reserved":false,"is_disabled":false,"rental_uris":{"android":"levelo://app?vid=44ac3e56-8798-42d8-a1cc-bd3af8b36a49","ios":"levelo://app?vid=44ac3e56-8798-42d8-a1cc-bd3af8b36a49"},"vehicle_type_id":"4","last_reported":1744877662,"current_range_meters":12000,"station_id":"ce4bhr12rcd13ifvqhqg","pricing_plan_id":"cebpf4jnsgd1na2vs0mg"},{"bike_id":"425ab992-51b7-4a18-82ae-2c5568793a66","system_id":"levelo_inurba_marseille","lat":43.31264,"lon":5.36864,"is_reserved":false,"is_disabled":false,"rental_uris":{"android":"levelo://app?vid=425ab992-51b7-4a18-82ae-2c5568793a66","ios":"levelo://app?vid=425ab992-51b7-4a18-82ae-2c5568793a66"},"vehicle_type_id":"4","last_reported":1744877662,"current_range_meters":12400,"station_id":"ce4bgl92rcd13ifvqbq0","pricing_plan_id":"cebpf4jnsgd1na2vs0mg"},{"bike_id":"6b167838-79e8-4b8d-95e8-60926f312d86","system_id":"levelo_inurba_marseille","lat":43.29161,"lon":5.37165,"is_reserved":false,"is_disabled":false,"rental_uris":{"android":"levelo://app?vid=6b167838-79e8-4b8d-95e8-60926f312d86","ios":"levelo://app?vid=6b167838-79e8-4b8d-95e8-60926f312d86"},"vehicle_type_id":"4","last_reported":1744877662,"current_range_meters":12800,"station_id":"ce4bha92rcd13ifvqeh0","pricing_plan_id":"cebpf4jnsgd1na2vs0mg"},{"bike_id":"27ceca5f-cd6d-4256-96c8-0924d154f0b3","system_id":"levelo_inurba_marseille","lat":43.30299,"lon":5.39198,"is_reserved":false,"is_disabled":true,"rental_uris":{"android":"levelo://app?vid=27ceca5f-cd6d-4256-96c8-0924d154f0b3","ios":"levelo://app?vid=27ceca5f-cd6d-4256-96c8-0924d154f0b3"},"vehicle_type_id":"4","last_reported":1744877662,"current_range_meters":12800,"station_id":"ce4bgkh2rcd13ifvqbk0","pricing_plan_id":"cebpf4jnsgd1na2vs0mg"},{"bike_id":"8d3e6902-ccf9-4f7d-af8c-d0d0adcc746e","system_id":"levelo_inurba_marseille","lat":43.30158,"lon":5.37426,"is_reserved":false,"is_disabled":false,"rental_uris":{"android":"levelo://app?vid=8d3e6902-ccf9-4f7d-af8c-d0d0adcc746e","ios":"levelo://app?vid=8d3e6902-ccf9-4f7d-af8c-d0d0adcc746e"},"vehicle_type_id":"4","last_reported":1744877662,"current_range_meters":12800,"station_id":"ce4bgs92rcd13ifvqcc0","pricing_plan_id":"cebpf4jnsgd1na2vs0mg"},{"bike_id":"7c89230f-a7b8-4a1a-8b37-05426359f1b4","system_id":"levelo_inurba_marseille","lat":43.29905,"lon":5.37477,"is_reserved":false,"is_disabled":false,"rental_uris":{"android":"levelo://app?vid=7c89230f-a7b8-4a1a-8b37-05426359f1b4","ios":"levelo://app?vid=7c89230f-a7b8-4a1a-8b37-05426359f1b4"},"vehicle_type_id":"4","last_reported":1744877662,"current_range_meters":12800,"station_id":"ce4bgjh2rcd13ifvqbg0","pricing_plan_id":"cebpf4jnsgd1na2vs0mg"},{"bike_id":"ea0ba72f-b225-49ab-b4eb-684cdb448991","system_id":"levelo_inurba_marseille","lat":43.26939,"lon":5.38918,"is_reserved":false,"is_disabled":false,"rental_uris":{"android":"levelo://app?vid=ea0ba72f-b225-49ab-b4eb-684cdb448991","ios":"levelo://app?vid=ea0ba72f-b225-49ab-b4eb-684cdb448991"},"vehicle_type_id":"4","last_reported":1744877662,"current_range_meters":12800,"station_id":"ce4bhhh2rcd13ifvqfl0","pricing_plan_id":"cebpf4jnsgd1na2vs0mg"},{"bike_id":"03bf794e-97dd-4c67-ae28-5cd291d0b4c4","system_id":"levelo_inurba_marseille","lat":43.30162,"lon":5.38086,"is_reserved":false,"is_disabled":false,"rental_uris":{"android":"levelo://app?vid=03bf794e-97dd-4c67-ae28-5cd291d0b4c4","ios":"levelo://app?vid=03bf794e-97dd-4c67-ae28-5cd291d0b4c4"},"vehicle_type_id":"4","last_reported":1744877662,"current_range_meters":12800,"station_id":"ce4bgjp2rcd13ifvqbh0","pricing_plan_id":"cebpf4jnsgd1na2vs0mg"},{"bike_id":"b3368a4b-172f-436c-89f1-5b68b3612fbc","system_id":"levelo_inurba_marseille","lat":43.29569,"lon":5.42227,"is_reserved":false,"is_disabled":false,"rental_uris":{"android":"levelo://app?vid=b3368a4b-172f-436c-89f1-5b68b3612fbc","ios":"levelo://app?vid=b3368a4b-172f-436c-89f1-5b68b3612fbc"},"vehicle_type_id":"4","last_reported":1744877662,"current_range_meters":13600,"station_id":"","pricing_plan_id":"cebpf4jnsgd1na2vs0mg"},{"bike_id":"ff935f1c-246d-4e07-a399-40ad7e059de5","system_id":"levelo_inurba_marseille","lat":43.25475,"lon":5.37661,"is_reserved":false,"is_disabled":true,"rental_uris":{"android":"levelo://app?vid=ff935f1c-246d-4e07-a399-40ad7e059de5","ios":"levelo://app?vid=ff935f1c-246d-4e07-a399-40ad7e059de5"},"vehicle_type_id":"4","last_reported":1744877662,"current_range_meters":13600,"station_id":"ce4bhh12rcd13ifvqff0","pricing_plan_id":"cebpf4jnsgd1na2vs0mg"},{"bike_id":"5c5f9e11-37ff-403a-98bd-c3919cf8e48d","system_id":"levelo_inurba_marseille","lat":43.30263,"lon":5.37724,"is_reserved":false,"is_disabled":false,"rental_uris":{"android":"levelo://app?vid=5c5f9e11-37ff-403a-98bd-c3919cf8e48d","ios":"levelo://app?vid=5c5f9e11-37ff-403a-98bd-c3919cf8e48d"},"vehicle_type_id":"4","last_reported":1744877662,"current_range_meters":13600,"station_id":"ce4bguh2rcd13ifvqcj0","pricing_plan_id":"cebpf4jnsgd1na2vs0mg"},{"bike_id":"da0699e6-fffb-42fd-bda2-fa249cfedfd8","system_id":"levelo_inurba_marseille","lat":43.31479,"lon":5.37284,"is_reserved":false,"is_disabled":false,"rental_uris":{"android":"levelo://app?vid=da0699e6-fffb-42fd-bda2-fa249cfedfd8","ios":"levelo://app?vid=da0699e6-fffb-42fd-bda2-fa249cfedfd8"},"vehicle_type_id":"4","last_reported":1744877662,"current_range_meters":14000,"station_id":"ce4bgt12rcd13ifvqcd0","pricing_plan_id":"cebpf4jnsgd1na2vs0mg"},{"bike_id":"800d75a2-7480-4115-a833-a21b978cd75d","system_id":"levelo_inurba_marseille","lat":43.30463,"lon":5.37904,"is_reserved":false,"is_disabled":false,"rental_uris":{"android":"levelo://app?vid=800d75a2-7480-4115-a833-a21b978cd75d","ios":"levelo://app?vid=800d75a2-7480-4115-a833-a21b978cd75d"},"vehicle_type_id":"4","last_reported":1744877662,"current_range_meters":14000,"station_id":"ce4bgup2rcd13ifvqcn0","pricing_plan_id":"cebpf4jnsgd1na2vs0mg"},{"bike_id":"6032e738-f012-4275-92a6-1c203e24e4cd","system_id":"levelo_inurba_marseille","lat":43.29927,"lon":5.43638,"is_reserved":false,"is_disabled":false,"rental_uris":{"android":"levelo://app?vid=6032e738-f012-4275-92a6-1c203e24e4cd","ios":"levelo://app?vid=6032e738-f012-4275-92a6-1c203e24e4cd"},"vehicle_type_id":"4","last_reported":1744877662,"current_range_meters":14000,"station_id":"ce4bhpp2rcd13ifvqhfg","pricing_plan_id":"cebpf4jnsgd1na2vs0mg"},{"bike_id":"9ae4de2b-65d6-4c8d-9fd9-eb2927f36e22","system_id":"levelo_inurba_marseille","lat":43.23349,"lon":5.36456,"is_reserved":false,"is_disabled":false,"rental_uris":{"android":"levelo://app?vid=9ae4de2b-65d6-4c8d-9fd9-eb2927f36e22","ios":"levelo://app?vid=9ae4de2b-65d6-4c8d-9fd9-eb2927f36e22"},"vehicle_type_id":"4","last_reported":1744877662,"current_range_meters":14000,"station_id":"","pricing_plan_id":"cebpf4jnsgd1na2vs0mg"},{"bike_id":"fe552450-c0a0-482b-ad4d-745c7e3315b5","system_id":"levelo_inurba_marseille","lat":43.23983,"lon":5.36622,"is_reserved":false,"is_disabled":false,"rental_uris":{"android":"levelo://app?vid=fe552450-c0a0-482b-ad4d-745c7e3315b5","ios":"levelo://app?vid=fe552450-c0a0-482b-ad4d-745c7e3315b5"},"vehicle_type_id":"4","last_reported":1744877662,"current_range_meters":14400,"station_id":"ce4bhi12rcd13ifvqfp0","pricing_plan_id":"cebpf4jnsgd1na2vs0mg"},{"bike_id":"04a4deb4-41bf-441f-925a-eda17aad26c7","system_id":"levelo_inurba_marseille","lat":43.26684,"lon":5.38261,"is_reserved":false,"is_disabled":false,"rental_uris":{"android":"levelo://app?vid=04a4deb4-41bf-441f-925a-eda17aad26c7","ios":"levelo://app?vid=04a4deb4-41bf-441f-925a-eda17aad26c7"},"vehicle_type_id":"4","last_reported":1744877662,"current_range_meters":14400,"station_id":"ce4bhg92rcd13ifvqf90","pricing_plan_id":"cebpf4jnsgd1na2vs0mg"},{"bike_id":"0b7b9afc-b2db-43f5-aeb8-7a1248a5408e","system_id":"levelo_inurba_marseille","lat":43.3127,"lon":5.37773,"is_reserved":false,"is_disabled":false,"rental_uris":{"android":"levelo://app?vid=0b7b9afc-b2db-43f5-aeb8-7a1248a5408e","ios":"levelo://app?vid=0b7b9afc-b2db-43f5-aeb8-7a1248a5408e"},"vehicle_type_id":"4","last_reported":1744877662,"current_range_meters":14400,"station_id":"","pricing_plan_id":"cebpf4jnsgd1na2vs0mg"},{"bike_id":"b031717c-d653-4f88-afc2-538ee742058b","system_id":"levelo_inurba_marseille","lat":43.25585,"lon":5.38254,"is_reserved":false,"is_disabled":false,"rental_uris":{"android":"levelo://app?vid=b031717c-d653-4f88-afc2-538ee742058b","ios":"levelo://app?vid=b031717c-d653-4f88-afc2-538ee742058b"},"vehicle_type_id":"4","last_reported":1744877662,"current_range_meters":14400,"station_id":"ce4bhih2rcd13ifvqfs0","pricing_plan_id":"cebpf4jnsgd1na2vs0mg"},{"bike_id":"ec8c9ac7-1e95-4171-97f3-226ce1e3c951","system_id":"levelo_inurba_marseille","lat":43.32114,"lon":5.36817,"is_reserved":false,"is_disabled":false,"rental_uris":{"android":"levelo://app?vid=ec8c9ac7-1e95-4171-97f3-226ce1e3c951","ios":"levelo://app?vid=ec8c9ac7-1e95-4171-97f3-226ce1e3c951"},"vehicle_type_id":"4","last_reported":1744877662,"current_range_meters":14800,"station_id":"ce4bhrh2rcd13ifvqhug","pricing_plan_id":"cebpf4jnsgd1na2vs0mg"},{"bike_id":"a514d395-39f7-4e9a-9140-2d828a875d5f","system_id":"levelo_inurba_marseille","lat":43.30958,"lon":5.39065,"is_reserved":false,"is_disabled":false,"rental_uris":{"android":"levelo://app?vid=a514d395-39f7-4e9a-9140-2d828a875d5f","ios":"levelo://app?vid=a514d395-39f7-4e9a-9140-2d828a875d5f"},"vehicle_type_id":"4","last_reported":1744877662,"current_range_meters":14800,"station_id":"ce4bgup2rcd13ifvqco0","pricing_plan_id":"cebpf4jnsgd1na2vs0mg"},{"bike_id":"50e7476c-2a0d-4e59-a81e-3738960f28dd","system_id":"levelo_inurba_marseille","lat":43.26695,"lon":5.38265,"is_reserved":false,"is_disabled":false,"rental_uris":{"android":"levelo://app?vid=50e7476c-2a0d-4e59-a81e-3738960f28dd","ios":"levelo://app?vid=50e7476c-2a0d-4e59-a81e-3738960f28dd"},"vehicle_type_id":"4","last_reported":1744877662,"current_range_meters":14800,"station_id":"ce4bhg92rcd13ifvqf90","pricing_plan_id":"cebpf4jnsgd1na2vs0mg"},{"bike_id":"f9294aff-5b6f-4d62-9db7-b7bdca4ffaf5","system_id":"levelo_inurba_marseille","lat":43.32538,"lon":5.4144,"is_reserved":false,"is_disabled":true,"rental_uris":{"android":"levelo://app?vid=f9294aff-5b6f-4d62-9db7-b7bdca4ffaf5","ios":"levelo://app?vid=f9294aff-5b6f-4d62-9db7-b7bdca4ffaf5"},"vehicle_type_id":"4","last_reported":1744877662,"current_range_meters":14800,"station_id":"ce4bhq12rcd13ifvqhhg","pricing_plan_id":"cebpf4jnsgd1na2vs0mg"},{"bike_id":"f9aff46a-cebb-4f92-b5a9-e7f0ad872395","system_id":"levelo_inurba_marseille","lat":43.29975,"lon":5.37153,"is_reserved":false,"is_disabled":false,"rental_uris":{"android":"levelo://app?vid=f9aff46a-cebb-4f92-b5a9-e7f0ad872395","ios":"levelo://app?vid=f9aff46a-cebb-4f92-b5a9-e7f0ad872395"},"vehicle_type_id":"4","last_reported":1744877662,"current_range_meters":14800,"station_id":"ce4bgr92rcd13ifvqc7g","pricing_plan_id":"cebpf4jnsgd1na2vs0mg"},{"bike_id":"ee8e363a-442b-4b08-ae13-ecdc466cf4ee","system_id":"levelo_inurba_marseille","lat":43.29605,"lon":5.37738,"is_reserved":false,"is_disabled":false,"rental_uris":{"android":"levelo://app?vid=ee8e363a-442b-4b08-ae13-ecdc466cf4ee","ios":"levelo://app?vid=ee8e363a-442b-4b08-ae13-ecdc466cf4ee"},"vehicle_type_id":"4","last_reported":1744877662,"current_range_meters":15200,"station_id":"ce4bgi92rcd13ifvqb90","pricing_plan_id":"cebpf4jnsgd1na2vs0mg"},{"bike_id":"1e64a86d-7c33-4133-9628-1cfb99b297fb","system_id":"levelo_inurba_marseille","lat":43.31313,"lon":5.36694,"is_reserved":false,"is_disabled":false,"rental_uris":{"android":"levelo://app?vid=1e64a86d-7c33-4133-9628-1cfb99b297fb","ios":"levelo://app?vid=1e64a86d-7c33-4133-9628-1cfb99b297fb"},"vehicle_type_id":"4","last_reported":1744877662,"current_range_meters":15200,"station_id":"ce4bgr92rcd13ifvqc6g","pricing_plan_id":"cebpf4jnsgd1na2vs0mg"},{"bike_id":"05889502-1960-4626-b647-6be7781e2329","system_id":"levelo_inurba_marseille","lat":43.28611,"lon":5.35107,"is_reserved":false,"is_disabled":false,"rental_uris":{"android":"levelo://app?vid=05889502-1960-4626-b647-6be7781e2329","ios":"levelo://app?vid=05889502-1960-4626-b647-6be7781e2329"},"vehicle_type_id":"4","last_reported":1744877662,"current_range_meters":15200,"station_id":"ce4bhch2rcd13ifvqeug","pricing_plan_id":"cebpf4jnsgd1na2vs0mg"},{"bike_id":"ff62eed3-c9e5-4042-ad3a-9d4fb6b2a14f","system_id":"levelo_inurba_marseille","lat":43.26941,"lon":5.38632,"is_reserved":false,"is_disabled":false,"rental_uris":{"android":"levelo://app?vid=ff62eed3-c9e5-4042-ad3a-9d4fb6b2a14f","ios":"levelo://app?vid=ff62eed3-c9e5-4042-ad3a-9d4fb6b2a14f"},"vehicle_type_id":"4","last_reported":1744877662,"current_range_meters":15200,"station_id":"ce4bhh92rcd13ifvqfh0","pricing_plan_id":"cebpf4jnsgd1na2vs0mg"},{"bike_id":"6294d73f-1263-40ba-88a2-440c4508eed5","system_id":"levelo_inurba_marseille","lat":43.32487,"lon":5.36566,"is_reserved":false,"is_disabled":false,"rental_uris":{"android":"levelo://app?vid=6294d73f-1263-40ba-88a2-440c4508eed5","ios":"levelo://app?vid=6294d73f-1263-40ba-88a2-440c4508eed5"},"vehicle_type_id":"4","last_reported":1744877662,"current_range_meters":16000,"station_id":"ce4bhs12rcd13ifvqhvg","pricing_plan_id":"cebpf4jnsgd1na2vs0mg"},{"bike_id":"7a9bbd46-8fb0-4c45-978e-94b62c2fe005","system_id":"levelo_inurba_marseille","lat":43.30425,"lon":5.39757,"is_reserved":false,"is_disabled":false,"rental_uris":{"android":"levelo://app?vid=7a9bbd46-8fb0-4c45-978e-94b62c2fe005","ios":"levelo://app?vid=7a9bbd46-8fb0-4c45-978e-94b62c2fe005"},"vehicle_type_id":"4","last_reported":1744877662,"current_range_meters":16000,"station_id":"ce4bh092rcd13ifvqd20","pricing_plan_id":"cebpf4jnsgd1na2vs0mg"},{"bike_id":"173d39b4-7a97-4693-9385-db8bda0fe199","system_id":"levelo_inurba_marseille","lat":43.21753,"lon":5.34605,"is_reserved":false,"is_disabled":false,"rental_uris":{"android":"levelo://app?vid=173d39b4-7a97-4693-9385-db8bda0fe199","ios":"levelo://app?vid=173d39b4-7a97-4693-9385-db8bda0fe199"},"vehicle_type_id":"4","last_reported":1744877662,"current_range_meters":16000,"station_id":"st_cvj6r9ubvosntc0bgbag","pricing_plan_id":"cebpf4jnsgd1na2vs0mg"},{"bike_id":"dc88ca14-385b-47d2-8f34-ba0ff66a2869","system_id":"levelo_inurba_marseille","lat":43.30905,"lon":5.37886,"is_reserved":false,"is_disabled":false,"rental_uris":{"android":"levelo://app?vid=dc88ca14-385b-47d2-8f34-ba0ff66a2869","ios":"levelo://app?vid=dc88ca14-385b-47d2-8f34-ba0ff66a2869"},"vehicle_type_id":"4","last_reported":1744877662,"current_range_meters":16000,"station_id":"","pricing_plan_id":"cebpf4jnsgd1na2vs0mg"},{"bike_id":"a498fac9-ad67-41b6-8f22-c31e58729a00","system_id":"levelo_inurba_marseille","lat":43.285226,"lon":5.383973,"is_reserved":false,"is_disabled":false,"rental_uris":{"android":"levelo://app?vid=a498fac9-ad67-41b6-8f22-c31e58729a00","ios":"levelo://app?vid=a498fac9-ad67-41b6-8f22-c31e58729a00"},"vehicle_type_id":"4","last_reported":1744877662,"current_range_meters":16000,"station_id":"ce4bh512rcd13ifvqe3g","pricing_plan_id":"cebpf4jnsgd1na2vs0mg"},{"bike_id":"3af48173-ba90-4f90-a09a-afe24b29a50c","system_id":"levelo_inurba_marseille","lat":43.2419,"lon":5.39735,"is_reserved":false,"is_disabled":false,"rental_uris":{"android":"levelo://app?vid=3af48173-ba90-4f90-a09a-afe24b29a50c","ios":"levelo://app?vid=3af48173-ba90-4f90-a09a-afe24b29a50c"},"vehicle_type_id":"4","last_reported":1744877662,"current_range_meters":16400,"station_id":"ce4bhn12rcd13ifvqgpg","pricing_plan_id":"cebpf4jnsgd1na2vs0mg"},{"bike_id":"0291b7a7-5f86-48ec-8437-eba04e7bafe8","system_id":"levelo_inurba_marseille","lat":43.32352,"lon":5.36762,"is_reserved":false,"is_disabled":false,"rental_uris":{"android":"levelo://app?vid=0291b7a7-5f86-48ec-8437-eba04e7bafe8","ios":"levelo://app?vid=0291b7a7-5f86-48ec-8437-eba04e7bafe8"},"vehicle_type_id":"4","last_reported":1744877662,"current_range_meters":16400,"station_id":"ce4bhsh2rcd13ifvqi2g","pricing_plan_id":"cebpf4jnsgd1na2vs0mg"},{"bike_id":"b71eb736-8c4c-4825-b7fd-4a6abd33fa23","system_id":"levelo_inurba_marseille","lat":43.29304,"lon":5.37171,"is_reserved":false,"is_disabled":false,"rental_uris":{"android":"levelo://app?vid=b71eb736-8c4c-4825-b7fd-4a6abd33fa23","ios":"levelo://app?vid=b71eb736-8c4c-4825-b7fd-4a6abd33fa23"},"vehicle_type_id":"4","last_reported":1744877662,"current_range_meters":16400,"station_id":"ce4bgh92rcd13ifvqb40","pricing_plan_id":"cebpf4jnsgd1na2vs0mg"},{"bike_id":"f663d8f8-94df-44ad-8cd8-9a35c10a4df5","system_id":"levelo_inurba_marseille","lat":43.25756,"lon":5.41113,"is_reserved":false,"is_disabled":false,"rental_uris":{"android":"levelo://app?vid=f663d8f8-94df-44ad-8cd8-9a35c10a4df5","ios":"levelo://app?vid=f663d8f8-94df-44ad-8cd8-9a35c10a4df5"},"vehicle_type_id":"4","last_reported":1744877662,"current_range_meters":16400,"station_id":"ce4bhkp2rcd13ifvqgd0","pricing_plan_id":"cebpf4jnsgd1na2vs0mg"},{"bike_id":"37f9071e-853b-46c7-8103-e592f5e125f5","system_id":"levelo_inurba_marseille","lat":43.26686,"lon":5.38261,"is_reserved":false,"is_disabled":false,"rental_uris":{"android":"levelo://app?vid=37f9071e-853b-46c7-8103-e592f5e125f5","ios":"levelo://app?vid=37f9071e-853b-46c7-8103-e592f5e125f5"},"vehicle_type_id":"4","last_reported":1744877662,"current_range_meters":16000,"station_id":"ce4bhg92rcd13ifvqf90","pricing_plan_id":"cebpf4jnsgd1na2vs0mg"},{"bike_id":"78154f9e-a675-40b5-aedc-448676d3a498","system_id":"levelo_inurba_marseille","lat":43.30544,"lon":5.36714,"is_reserved":false,"is_disabled":false,"rental_uris":{"android":"levelo://app?vid=78154f9e-a675-40b5-aedc-448676d3a498","ios":"levelo://app?vid=78154f9e-a675-40b5-aedc-448676d3a498"},"vehicle_type_id":"4","last_reported":1744877662,"current_range_meters":16800,"station_id":"ce4bgrp2rcd13ifvqc9g","pricing_plan_id":"cebpf4jnsgd1na2vs0mg"},{"bike_id":"d750596a-6ac6-4755-84cc-45acd4464f3d","system_id":"levelo_inurba_marseille","lat":43.24407,"lon":5.37069,"is_reserved":false,"is_disabled":false,"rental_uris":{"android":"levelo://app?vid=d750596a-6ac6-4755-84cc-45acd4464f3d","ios":"levelo://app?vid=d750596a-6ac6-4755-84cc-45acd4464f3d"},"vehicle_type_id":"4","last_reported":1744877662,"current_range_meters":16800,"station_id":"ce4bhhh2rcd13ifvqfk0","pricing_plan_id":"cebpf4jnsgd1na2vs0mg"},{"bike_id":"41fb0398-f2fe-4abb-ae37-a38f47615ea9","system_id":"levelo_inurba_marseille","lat":43.3239,"lon":5.36851,"is_reserved":false,"is_disabled":false,"rental_uris":{"android":"levelo://app?vid=41fb0398-f2fe-4abb-ae37-a38f47615ea9","ios":"levelo://app?vid=41fb0398-f2fe-4abb-ae37-a38f47615ea9"},"vehicle_type_id":"4","last_reported":1744877662,"current_range_meters":16800,"station_id":"","pricing_plan_id":"cebpf4jnsgd1na2vs0mg"},{"bike_id":"a73bc10d-6816-4b4d-90af-c4f611f617de","system_id":"levelo_inurba_marseille","lat":43.29526,"lon":5.38548,"is_reserved":false,"is_disabled":false,"rental_uris":{"android":"levelo://app?vid=a73bc10d-6816-4b4d-90af-c4f611f617de","ios":"levelo://app?vid=a73bc10d-6816-4b4d-90af-c4f611f617de"},"vehicle_type_id":"4","last_reported":1744877662,"current_range_meters":16800,"station_id":"ce4bgih2rcd13ifvqba0","pricing_plan_id":"cebpf4jnsgd1na2vs0mg"},{"bike_id":"0620d2fb-fed7-4ee2-913e-6d03123ff78c","system_id":"levelo_inurba_marseille","lat":43.22943,"lon":5.354,"is_reserved":false,"is_disabled":false,"rental_uris":{"android":"levelo://app?vid=0620d2fb-fed7-4ee2-913e-6d03123ff78c","ios":"levelo://app?vid=0620d2fb-fed7-4ee2-913e-6d03123ff78c"},"vehicle_type_id":"4","last_reported":1744877662,"current_range_meters":16800,"station_id":"cpo3532slgdg3j2ikp40","pricing_plan_id":"cebpf4jnsgd1na2vs0mg"},{"bike_id":"316f1278-2622-4449-a714-0504bd336aeb","system_id":"levelo_inurba_marseille","lat":43.31486,"lon":5.37309,"is_reserved":false,"is_disabled":false,"rental_uris":{"android":"levelo://app?vid=316f1278-2622-4449-a714-0504bd336aeb","ios":"levelo://app?vid=316f1278-2622-4449-a714-0504bd336aeb"},"vehicle_type_id":"4","last_reported":1744877662,"current_range_meters":16800,"station_id":"ce4bgt12rcd13ifvqcd0","pricing_plan_id":"cebpf4jnsgd1na2vs0mg"},{"bike_id":"ce03ad46-9270-40bd-95e3-665a24df5431","system_id":"levelo_inurba_marseille","lat":43.30501,"lon":5.37929,"is_reserved":false,"is_disabled":false,"rental_uris":{"android":"levelo://app?vid=ce03ad46-9270-40bd-95e3-665a24df5431","ios":"levelo://app?vid=ce03ad46-9270-40bd-95e3-665a24df5431"},"vehicle_type_id":"4","last_reported":1744877662,"current_range_meters":16800,"station_id":"ce4bgup2rcd13ifvqcn0","pricing_plan_id":"cebpf4jnsgd1na2vs0mg"},{"bike_id":"36348037-6b38-4782-8cb9-2693fae9c8da","system_id":"levelo_inurba_marseille","lat":43.30464,"lon":5.37908,"is_reserved":false,"is_disabled":false,"rental_uris":{"android":"levelo://app?vid=36348037-6b38-4782-8cb9-2693fae9c8da","ios":"levelo://app?vid=36348037-6b38-4782-8cb9-2693fae9c8da"},"vehicle_type_id":"4","last_reported":1744877662,"current_range_meters":16800,"station_id":"ce4bgup2rcd13ifvqcn0","pricing_plan_id":"cebpf4jnsgd1na2vs0mg"},{"bike_id":"e83023d1-ef82-450d-a8f0-c85303560d15","system_id":"levelo_inurba_marseille","lat":43.29844,"lon":5.36289,"is_reserved":false,"is_disabled":false,"rental_uris":{"android":"levelo://app?vid=e83023d1-ef82-450d-a8f0-c85303560d15","ios":"levelo://app?vid=e83023d1-ef82-450d-a8f0-c85303560d15"},"vehicle_type_id":"4","last_reported":1744877662,"current_range_meters":17200,"station_id":"ce4bgpp2rcd13ifvqc3g","pricing_plan_id":"cebpf4jnsgd1na2vs0mg"},{"bike_id":"2134b034-fa4e-4580-b86c-bcefd8282dbd","system_id":"levelo_inurba_marseille","lat":43.26692,"lon":5.38283,"is_reserved":false,"is_disabled":true,"rental_uris":{"android":"levelo://app?vid=2134b034-fa4e-4580-b86c-bcefd8282dbd","ios":"levelo://app?vid=2134b034-fa4e-4580-b86c-bcefd8282dbd"},"vehicle_type_id":"4","last_reported":1744877662,"current_range_meters":17200,"station_id":"ce4bhg92rcd13ifvqf90","pricing_plan_id":"cebpf4jnsgd1na2vs0mg"},{"bike_id":"dce566b6-40dc-4297-957e-bcdb54c975cf","system_id":"levelo_inurba_marseille","lat":43.26953,"lon":5.38638,"is_reserved":false,"is_disabled":false,"rental_uris":{"android":"levelo://app?vid=dce566b6-40dc-4297-957e-bcdb54c975cf","ios":"levelo://app?vid=dce566b6-40dc-4297-957e-bcdb54c975cf"},"vehicle_type_id":"4","last_reported":1744877662,"current_range_meters":17200,"station_id":"ce4bhh92rcd13ifvqfh0","pricing_plan_id":"cebpf4jnsgd1na2vs0mg"},{"bike_id":"5e1950f1-3570-4e07-a7cc-3dbf8a21d845","system_id":"levelo_inurba_marseille","lat":43.28161,"lon":5.42668,"is_reserved":false,"is_disabled":false,"rental_uris":{"android":"levelo://app?vid=5e1950f1-3570-4e07-a7cc-3dbf8a21d845","ios":"levelo://app?vid=5e1950f1-3570-4e07-a7cc-3dbf8a21d845"},"vehicle_type_id":"4","last_reported":1744877662,"current_range_meters":17200,"station_id":"ce4bhnh2rcd13ifvqgug","pricing_plan_id":"cebpf4jnsgd1na2vs0mg"},{"bike_id":"d9619c48-a83f-4b22-be7b-69f6931ef579","system_id":"levelo_inurba_marseille","lat":43.2509,"lon":5.39521,"is_reserved":false,"is_disabled":false,"rental_uris":{"android":"levelo://app?vid=d9619c48-a83f-4b22-be7b-69f6931ef579","ios":"levelo://app?vid=d9619c48-a83f-4b22-be7b-69f6931ef579"},"vehicle_type_id":"4","last_reported":1744877662,"current_range_meters":17200,"station_id":"ce4bhm12rcd13ifvqgkg","pricing_plan_id":"cebpf4jnsgd1na2vs0mg"},{"bike_id":"5678fa7b-d9cc-4b30-ae84-f01bc3057eef","system_id":"levelo_inurba_marseille","lat":43.25948,"lon":5.40893,"is_reserved":false,"is_disabled":false,"rental_uris":{"android":"levelo://app?vid=5678fa7b-d9cc-4b30-ae84-f01bc3057eef","ios":"levelo://app?vid=5678fa7b-d9cc-4b30-ae84-f01bc3057eef"},"vehicle_type_id":"4","last_reported":1744877662,"current_range_meters":17200,"station_id":"ce4bhm92rcd13ifvqglg","pricing_plan_id":"cebpf4jnsgd1na2vs0mg"},{"bike_id":"0ed98762-f5f9-4b87-b075-93f342cb1bb3","system_id":"levelo_inurba_marseille","lat":43.29169,"lon":5.37167,"is_reserved":false,"is_disabled":false,"rental_uris":{"android":"levelo://app?vid=0ed98762-f5f9-4b87-b075-93f342cb1bb3","ios":"levelo://app?vid=0ed98762-f5f9-4b87-b075-93f342cb1bb3"},"vehicle_type_id":"4","last_reported":1744877662,"current_range_meters":17600,"station_id":"ce4bha92rcd13ifvqeh0","pricing_plan_id":"cebpf4jnsgd1na2vs0mg"},{"bike_id":"d38a2f2e-4b3e-4151-bc7b-db95583be2fd","system_id":"levelo_inurba_marseille","lat":43.29602,"lon":5.37725,"is_reserved":false,"is_disabled":false,"rental_uris":{"android":"levelo://app?vid=d38a2f2e-4b3e-4151-bc7b-db95583be2fd","ios":"levelo://app?vid=d38a2f2e-4b3e-4151-bc7b-db95583be2fd"},"vehicle_type_id":"4","last_reported":1744877662,"current_range_meters":17600,"station_id":"ce4bgi92rcd13ifvqb90","pricing_plan_id":"cebpf4jnsgd1na2vs0mg"},{"bike_id":"3fea615b-e4ab-4448-ba79-320c684b4d2e","system_id":"levelo_inurba_marseille","lat":43.29281,"lon":5.37627,"is_reserved":false,"is_disabled":false,"rental_uris":{"android":"levelo://app?vid=3fea615b-e4ab-4448-ba79-320c684b4d2e","ios":"levelo://app?vid=3fea615b-e4ab-4448-ba79-320c684b4d2e"},"vehicle_type_id":"4","last_reported":1744877662,"current_range_meters":17600,"station_id":"ce4bgi12rcd13ifvqb80","pricing_plan_id":"cebpf4jnsgd1na2vs0mg"},{"bike_id":"a3cb3541-e34e-4e91-96bd-3d2be11ba3ea","system_id":"levelo_inurba_marseille","lat":43.30467,"lon":5.37914,"is_reserved":false,"is_disabled":false,"rental_uris":{"android":"levelo://app?vid=a3cb3541-e34e-4e91-96bd-3d2be11ba3ea","ios":"levelo://app?vid=a3cb3541-e34e-4e91-96bd-3d2be11ba3ea"},"vehicle_type_id":"4","last_reported":1744877662,"current_range_meters":17600,"station_id":"ce4bgup2rcd13ifvqcn0","pricing_plan_id":"cebpf4jnsgd1na2vs0mg"},{"bike_id":"b3722723-9a83-450d-8c5f-4625584d3f05","system_id":"levelo_inurba_marseille","lat":43.28968,"lon":5.37826,"is_reserved":false,"is_disabled":false,"rental_uris":{"android":"levelo://app?vid=b3722723-9a83-450d-8c5f-4625584d3f05","ios":"levelo://app?vid=b3722723-9a83-450d-8c5f-4625584d3f05"},"vehicle_type_id":"4","last_reported":1744877662,"current_range_meters":18000,"station_id":"ce4bh9p2rcd13ifvqed0","pricing_plan_id":"cebpf4jnsgd1na2vs0mg"},{"bike_id":"a17920db-4b7e-474c-ab57-3b97ec496a14","system_id":"levelo_inurba_marseille","lat":43.24194,"lon":5.39718,"is_reserved":false,"is_disabled":false,"rental_uris":{"android":"levelo://app?vid=a17920db-4b7e-474c-ab57-3b97ec496a14","ios":"levelo://app?vid=a17920db-4b7e-474c-ab57-3b97ec496a14"},"vehicle_type_id":"4","last_reported":1744877662,"current_range_meters":18000,"station_id":"ce4bhn12rcd13ifvqgpg","pricing_plan_id":"cebpf4jnsgd1na2vs0mg"},{"bike_id":"de82c0b6-3627-4f32-9540-2f29e2a656c1","system_id":"levelo_inurba_marseille","lat":43.32106,"lon":5.36774,"is_reserved":false,"is_disabled":false,"rental_uris":{"android":"levelo://app?vid=de82c0b6-3627-4f32-9540-2f29e2a656c1","ios":"levelo://app?vid=de82c0b6-3627-4f32-9540-2f29e2a656c1"},"vehicle_type_id":"4","last_reported":1744877662,"current_range_meters":18000,"station_id":"ce4bhrh2rcd13ifvqhug","pricing_plan_id":"cebpf4jnsgd1na2vs0mg"},{"bike_id":"502eb57f-58c1-46b5-bbab-f82b11336169","system_id":"levelo_inurba_marseille","lat":43.30548,"lon":5.3653,"is_reserved":false,"is_disabled":false,"rental_uris":{"android":"levelo://app?vid=502eb57f-58c1-46b5-bbab-f82b11336169","ios":"levelo://app?vid=502eb57f-58c1-46b5-bbab-f82b11336169"},"vehicle_type_id":"4","last_reported":1744877662,"current_range_meters":18000,"station_id":"ce4bgs12rcd13ifvqcag","pricing_plan_id":"cebpf4jnsgd1na2vs0mg"},{"bike_id":"42b95010-4dbc-4a06-b6d2-3020c0cda6f2","system_id":"levelo_inurba_marseille","lat":43.26195,"lon":5.37936,"is_reserved":false,"is_disabled":false,"rental_uris":{"android":"levelo://app?vid=42b95010-4dbc-4a06-b6d2-3020c0cda6f2","ios":"levelo://app?vid=42b95010-4dbc-4a06-b6d2-3020c0cda6f2"},"vehicle_type_id":"4","last_reported":1744877662,"current_range_meters":18000,"station_id":"ce4bhjp2rcd13ifvqg90","pricing_plan_id":"cebpf4jnsgd1na2vs0mg"},{"bike_id":"d7aa2c4f-efa3-40c3-87f7-8f13c43c6a95","system_id":"levelo_inurba_marseille","lat":43.23963,"lon":5.36631,"is_reserved":false,"is_disabled":false,"rental_uris":{"android":"levelo://app?vid=d7aa2c4f-efa3-40c3-87f7-8f13c43c6a95","ios":"levelo://app?vid=d7aa2c4f-efa3-40c3-87f7-8f13c43c6a95"},"vehicle_type_id":"4","last_reported":1744877662,"current_range_meters":18000,"station_id":"ce4bhi12rcd13ifvqfp0","pricing_plan_id":"cebpf4jnsgd1na2vs0mg"},{"bike_id":"98b8e085-6450-4f22-8116-0cd744809099","system_id":"levelo_inurba_marseille","lat":43.27939,"lon":5.4169,"is_reserved":false,"is_disabled":false,"rental_uris":{"android":"levelo://app?vid=98b8e085-6450-4f22-8116-0cd744809099","ios":"levelo://app?vid=98b8e085-6450-4f22-8116-0cd744809099"},"vehicle_type_id":"4","last_reported":1744877662,"current_range_meters":18000,"station_id":"ce4bho12rcd13ifvqh1g","pricing_plan_id":"cebpf4jnsgd1na2vs0mg"},{"bike_id":"9fa73263-7426-4e4d-8efb-f8a523ae2ba1","system_id":"levelo_inurba_marseille","lat":43.30893,"lon":5.3718,"is_reserved":false,"is_disabled":false,"rental_uris":{"android":"levelo://app?vid=9fa73263-7426-4e4d-8efb-f8a523ae2ba1","ios":"levelo://app?vid=9fa73263-7426-4e4d-8efb-f8a523ae2ba1"},"vehicle_type_id":"4","last_reported":1744877662,"current_range_meters":18800,"station_id":"ce4bguh2rcd13ifvqckg","pricing_plan_id":"cebpf4jnsgd1na2vs0mg"},{"bike_id":"bbb1c662-cc65-4c72-8489-de78d2f0f12f","system_id":"levelo_inurba_marseille","lat":43.23044,"lon":5.35418,"is_reserved":false,"is_disabled":false,"rental_uris":{"android":"levelo://app?vid=bbb1c662-cc65-4c72-8489-de78d2f0f12f","ios":"levelo://app?vid=bbb1c662-cc65-4c72-8489-de78d2f0f12f"},"vehicle_type_id":"4","last_reported":1744877662,"current_range_meters":18800,"station_id":"","pricing_plan_id":"cebpf4jnsgd1na2vs0mg"},{"bike_id":"7ed91d22-3d5b-4254-83bf-64eb2a7d5481","system_id":"levelo_inurba_marseille","lat":43.22502,"lon":5.34786,"is_reserved":false,"is_disabled":false,"rental_uris":{"android":"levelo://app?vid=7ed91d22-3d5b-4254-83bf-64eb2a7d5481","ios":"levelo://app?vid=7ed91d22-3d5b-4254-83bf-64eb2a7d5481"},"vehicle_type_id":"4","last_reported":1744877662,"current_range_meters":18800,"station_id":"","pricing_plan_id":"cebpf4jnsgd1na2vs0mg"},{"bike_id":"4db06d98-ef3f-4322-bb1a-56487e040895","system_id":"levelo_inurba_marseille","lat":43.24162,"lon":5.39759,"is_reserved":false,"is_disabled":false,"rental_uris":{"android":"levelo://app?vid=4db06d98-ef3f-4322-bb1a-56487e040895","ios":"levelo://app?vid=4db06d98-ef3f-4322-bb1a-56487e040895"},"vehicle_type_id":"4","last_reported":1744877662,"current_range_meters":18800,"station_id":"ce4bhn12rcd13ifvqgpg","pricing_plan_id":"cebpf4jnsgd1na2vs0mg"},{"bike_id":"84c48c85-9b00-408c-a761-1ac18b23fed5","system_id":"levelo_inurba_marseille","lat":43.24407,"lon":5.37054,"is_reserved":false,"is_disabled":true,"rental_uris":{"android":"levelo://app?vid=84c48c85-9b00-408c-a761-1ac18b23fed5","ios":"levelo://app?vid=84c48c85-9b00-408c-a761-1ac18b23fed5"},"vehicle_type_id":"4","last_reported":1744877662,"current_range_meters":18800,"station_id":"ce4bhhh2rcd13ifvqfk0","pricing_plan_id":"cebpf4jnsgd1na2vs0mg"},{"bike_id":"116bddcf-6d1d-437e-9158-fa18b63062ca","system_id":"levelo_inurba_marseille","lat":43.24805,"lon":5.37462,"is_reserved":false,"is_disabled":false,"rental_uris":{"android":"levelo://app?vid=116bddcf-6d1d-437e-9158-fa18b63062ca","ios":"levelo://app?vid=116bddcf-6d1d-437e-9158-fa18b63062ca"},"vehicle_type_id":"4","last_reported":1744877662,"current_range_meters":18800,"station_id":"ce4bhgh2rcd13ifvqfb0","pricing_plan_id":"cebpf4jnsgd1na2vs0mg"},{"bike_id":"fa846a43-9da8-4144-b184-2d1ab74501c4","system_id":"levelo_inurba_marseille","lat":43.25938,"lon":5.409,"is_reserved":false,"is_disabled":false,"rental_uris":{"android":"levelo://app?vid=fa846a43-9da8-4144-b184-2d1ab74501c4","ios":"levelo://app?vid=fa846a43-9da8-4144-b184-2d1ab74501c4"},"vehicle_type_id":"4","last_reported":1744877662,"current_range_meters":18800,"station_id":"ce4bhm92rcd13ifvqglg","pricing_plan_id":"cebpf4jnsgd1na2vs0mg"},{"bike_id":"47eda4c6-5935-4501-9ac3-c09f65c059dc","system_id":"levelo_inurba_marseille","lat":43.29158,"lon":5.3716,"is_reserved":false,"is_disabled":false,"rental_uris":{"android":"levelo://app?vid=47eda4c6-5935-4501-9ac3-c09f65c059dc","ios":"levelo://app?vid=47eda4c6-5935-4501-9ac3-c09f65c059dc"},"vehicle_type_id":"4","last_reported":1744877662,"current_range_meters":18800,"station_id":"ce4bha92rcd13ifvqeh0","pricing_plan_id":"cebpf4jnsgd1na2vs0mg"},{"bike_id":"0af547ee-0928-4232-9589-d99004dda2ed","system_id":"levelo_inurba_marseille","lat":43.30961,"lon":5.39052,"is_reserved":false,"is_disabled":false,"rental_uris":{"android":"levelo://app?vid=0af547ee-0928-4232-9589-d99004dda2ed","ios":"levelo://app?vid=0af547ee-0928-4232-9589-d99004dda2ed"},"vehicle_type_id":"4","last_reported":1744877662,"current_range_meters":18800,"station_id":"ce4bgup2rcd13ifvqco0","pricing_plan_id":"cebpf4jnsgd1na2vs0mg"},{"bike_id":"4afe915f-fa01-4403-81b9-e1ed03fdcce7","system_id":"levelo_inurba_marseille","lat":43.3034,"lon":5.36897,"is_reserved":false,"is_disabled":false,"rental_uris":{"android":"levelo://app?vid=4afe915f-fa01-4403-81b9-e1ed03fdcce7","ios":"levelo://app?vid=4afe915f-fa01-4403-81b9-e1ed03fdcce7"},"vehicle_type_id":"4","last_reported":1744877662,"current_range_meters":18800,"station_id":"ce4bgqh2rcd13ifvqc5g","pricing_plan_id":"cebpf4jnsgd1na2vs0mg"},{"bike_id":"e2610827-be5f-4519-9010-041a87391e95","system_id":"levelo_inurba_marseille","lat":43.23157,"lon":5.4371,"is_reserved":false,"is_disabled":false,"rental_uris":{"android":"levelo://app?vid=e2610827-be5f-4519-9010-041a87391e95","ios":"levelo://app?vid=e2610827-be5f-4519-9010-041a87391e95"},"vehicle_type_id":"4","last_reported":1744877662,"current_range_meters":18800,"station_id":"ce4bhmp2rcd13ifvqgog","pricing_plan_id":"cebpf4jnsgd1na2vs0mg"},{"bike_id":"f95d43ed-2a21-4aca-b947-74ed53257cbc","system_id":"levelo_inurba_marseille","lat":43.26113,"lon":5.40132,"is_reserved":false,"is_disabled":false,"rental_uris":{"android":"levelo://app?vid=f95d43ed-2a21-4aca-b947-74ed53257cbc","ios":"levelo://app?vid=f95d43ed-2a21-4aca-b947-74ed53257cbc"},"vehicle_type_id":"4","last_reported":1744877662,"current_range_meters":18800,"station_id":"ce4bhmh2rcd13ifvqgmg","pricing_plan_id":"cebpf4jnsgd1na2vs0mg"},{"bike_id":"a0ddb0a5-f7f0-4281-aa27-9e82747cc573","system_id":"levelo_inurba_marseille","lat":43.33754,"lon":5.37491,"is_reserved":false,"is_disabled":false,"rental_uris":{"android":"levelo://app?vid=a0ddb0a5-f7f0-4281-aa27-9e82747cc573","ios":"levelo://app?vid=a0ddb0a5-f7f0-4281-aa27-9e82747cc573"},"vehicle_type_id":"4","last_reported":1744877662,"current_range_meters":18800,"station_id":"","pricing_plan_id":"cebpf4jnsgd1na2vs0mg"},{"bike_id":"0b58ec26-39c1-40f9-8a2d-f4eb6d108e68","system_id":"levelo_inurba_marseille","lat":43.27825,"lon":5.40714,"is_reserved":false,"is_disabled":false,"rental_uris":{"android":"levelo://app?vid=0b58ec26-39c1-40f9-8a2d-f4eb6d108e68","ios":"levelo://app?vid=0b58ec26-39c1-40f9-8a2d-f4eb6d108e68"},"vehicle_type_id":"4","last_reported":1744877662,"current_range_meters":19200,"station_id":"ce4bhnh2rcd13ifvqgtg","pricing_plan_id":"cebpf4jnsgd1na2vs0mg"},{"bike_id":"5376db3a-f912-4a95-826f-4197746248f5","system_id":"levelo_inurba_marseille","lat":43.30382,"lon":5.42489,"is_reserved":false,"is_disabled":true,"rental_uris":{"android":"levelo://app?vid=5376db3a-f912-4a95-826f-4197746248f5","ios":"levelo://app?vid=5376db3a-f912-4a95-826f-4197746248f5"},"vehicle_type_id":"4","last_reported":1744877662,"current_range_meters":19200,"station_id":"ce4bhoh2rcd13ifvqh6g","pricing_plan_id":"cebpf4jnsgd1na2vs0mg"},{"bike_id":"e7fe15ae-6f5d-49ba-867f-cb093bb02890","system_id":"levelo_inurba_marseille","lat":43.29017,"lon":5.38111,"is_reserved":false,"is_disabled":false,"rental_uris":{"android":"levelo://app?vid=e7fe15ae-6f5d-49ba-867f-cb093bb02890","ios":"levelo://app?vid=e7fe15ae-6f5d-49ba-867f-cb093bb02890"},"vehicle_type_id":"4","last_reported":1744877662,"current_range_meters":18800,"station_id":"ce4bh4p2rcd13ifvqe1g","pricing_plan_id":"cebpf4jnsgd1na2vs0mg"},{"bike_id":"03c9e03c-67c6-453d-8b38-cbed9721f95d","system_id":"levelo_inurba_marseille","lat":43.28626,"lon":5.35085,"is_reserved":false,"is_disabled":false,"rental_uris":{"android":"levelo://app?vid=03c9e03c-67c6-453d-8b38-cbed9721f95d","ios":"levelo://app?vid=03c9e03c-67c6-453d-8b38-cbed9721f95d"},"vehicle_type_id":"4","last_reported":1744877662,"current_range_meters":19600,"station_id":"ce4bhch2rcd13ifvqeug","pricing_plan_id":"cebpf4jnsgd1na2vs0mg"},{"bike_id":"345f3b88-e34e-4d48-9f0c-6592661ae354","system_id":"levelo_inurba_marseille","lat":43.279323,"lon":5.410685,"is_reserved":false,"is_disabled":false,"rental_uris":{"android":"levelo://app?vid=345f3b88-e34e-4d48-9f0c-6592661ae354","ios":"levelo://app?vid=345f3b88-e34e-4d48-9f0c-6592661ae354"},"vehicle_type_id":"4","last_reported":1744877662,"current_range_meters":19600,"station_id":"ce4bhnp2rcd13ifvqh0g","pricing_plan_id":"cebpf4jnsgd1na2vs0mg"},{"bike_id":"ef6e9c6f-8f69-4fcf-9727-b556a001e5bc","system_id":"levelo_inurba_marseille","lat":43.29559,"lon":5.42288,"is_reserved":false,"is_disabled":false,"rental_uris":{"android":"levelo://app?vid=ef6e9c6f-8f69-4fcf-9727-b556a001e5bc","ios":"levelo://app?vid=ef6e9c6f-8f69-4fcf-9727-b556a001e5bc"},"vehicle_type_id":"4","last_reported":1744877662,"current_range_meters":19600,"station_id":"ce4bhph2rcd13ifvqhdg","pricing_plan_id":"cebpf4jnsgd1na2vs0mg"},{"bike_id":"332d50ef-0349-465a-a3f8-a14d47a27c91","system_id":"levelo_inurba_marseille","lat":43.30568,"lon":5.36556,"is_reserved":false,"is_disabled":false,"rental_uris":{"android":"levelo://app?vid=332d50ef-0349-465a-a3f8-a14d47a27c91","ios":"levelo://app?vid=332d50ef-0349-465a-a3f8-a14d47a27c91"},"vehicle_type_id":"4","last_reported":1744877662,"current_range_meters":19600,"station_id":"ce4bgs12rcd13ifvqcag","pricing_plan_id":"cebpf4jnsgd1na2vs0mg"},{"bike_id":"02bb3b75-d262-47b2-80a3-a50ba89b763c","system_id":"levelo_inurba_marseille","lat":43.2418,"lon":5.39727,"is_reserved":false,"is_disabled":false,"rental_uris":{"android":"levelo://app?vid=02bb3b75-d262-47b2-80a3-a50ba89b763c","ios":"levelo://app?vid=02bb3b75-d262-47b2-80a3-a50ba89b763c"},"vehicle_type_id":"4","last_reported":1744877662,"current_range_meters":19600,"station_id":"ce4bhn12rcd13ifvqgpg","pricing_plan_id":"cebpf4jnsgd1na2vs0mg"},{"bike_id":"7eb8853e-3665-40f5-8308-1299f0674652","system_id":"levelo_inurba_marseille","lat":43.30403,"lon":5.42472,"is_reserved":false,"is_disabled":false,"rental_uris":{"android":"levelo://app?vid=7eb8853e-3665-40f5-8308-1299f0674652","ios":"levelo://app?vid=7eb8853e-3665-40f5-8308-1299f0674652"},"vehicle_type_id":"4","last_reported":1744877662,"current_range_meters":19600,"station_id":"ce4bhoh2rcd13ifvqh6g","pricing_plan_id":"cebpf4jnsgd1na2vs0mg"},{"bike_id":"9d8e2c4d-6a59-45bd-a557-73dc6f3f9ccf","system_id":"levelo_inurba_marseille","lat":43.248,"lon":5.3747,"is_reserved":false,"is_disabled":false,"rental_uris":{"android":"levelo://app?vid=9d8e2c4d-6a59-45bd-a557-73dc6f3f9ccf","ios":"levelo://app?vid=9d8e2c4d-6a59-45bd-a557-73dc6f3f9ccf"},"vehicle_type_id":"4","last_reported":1744877662,"current_range_meters":19600,"station_id":"ce4bhgh2rcd13ifvqfb0","pricing_plan_id":"cebpf4jnsgd1na2vs0mg"},{"bike_id":"37ea8d6b-4547-40f6-af0f-7c7b47c6b053","system_id":"levelo_inurba_marseille","lat":43.25585,"lon":5.38238,"is_reserved":false,"is_disabled":false,"rental_uris":{"android":"levelo://app?vid=37ea8d6b-4547-40f6-af0f-7c7b47c6b053","ios":"levelo://app?vid=37ea8d6b-4547-40f6-af0f-7c7b47c6b053"},"vehicle_type_id":"4","last_reported":1744877662,"current_range_meters":19600,"station_id":"ce4bhih2rcd13ifvqfs0","pricing_plan_id":"cebpf4jnsgd1na2vs0mg"},{"bike_id":"fc171552-19d9-40c3-81c1-a91f0579e6e8","system_id":"levelo_inurba_marseille","lat":43.231857,"lon":5.399941,"is_reserved":false,"is_disabled":false,"rental_uris":{"android":"levelo://app?vid=fc171552-19d9-40c3-81c1-a91f0579e6e8","ios":"levelo://app?vid=fc171552-19d9-40c3-81c1-a91f0579e6e8"},"vehicle_type_id":"4","last_reported":1744877662,"current_range_meters":19600,"station_id":"ce4bhn12rcd13ifvqgqg","pricing_plan_id":"cebpf4jnsgd1na2vs0mg"},{"bike_id":"46af55dd-d502-43b5-80cc-b6d1bddbeb61","system_id":"levelo_inurba_marseille","lat":43.30195,"lon":5.36625,"is_reserved":false,"is_disabled":false,"rental_uris":{"android":"levelo://app?vid=46af55dd-d502-43b5-80cc-b6d1bddbeb61","ios":"levelo://app?vid=46af55dd-d502-43b5-80cc-b6d1bddbeb61"},"vehicle_type_id":"4","last_reported":1744877662,"current_range_meters":19600,"station_id":"ce4bgrh2rcd13ifvqc8g","pricing_plan_id":"cebpf4jnsgd1na2vs0mg"},{"bike_id":"04528569-5741-442d-b28a-f5b92ff4b11d","system_id":"levelo_inurba_marseille","lat":43.25732,"lon":5.41107,"is_reserved":false,"is_disabled":false,"rental_uris":{"android":"levelo://app?vid=04528569-5741-442d-b28a-f5b92ff4b11d","ios":"levelo://app?vid=04528569-5741-442d-b28a-f5b92ff4b11d"},"vehicle_type_id":"4","last_reported":1744877662,"current_range_meters":19600,"station_id":"ce4bhkp2rcd13ifvqgd0","pricing_plan_id":"cebpf4jnsgd1na2vs0mg"},{"bike_id":"789c3822-56ca-4769-bcd4-8845bdea2fda","system_id":"levelo_inurba_marseille","lat":43.24185,"lon":5.36402,"is_reserved":false,"is_disabled":false,"rental_uris":{"android":"levelo://app?vid=789c3822-56ca-4769-bcd4-8845bdea2fda","ios":"levelo://app?vid=789c3822-56ca-4769-bcd4-8845bdea2fda"},"vehicle_type_id":"4","last_reported":1744877662,"current_range_meters":20000,"station_id":"cpo36qri1sfpv3e86is0","pricing_plan_id":"cebpf4jnsgd1na2vs0mg"},{"bike_id":"9bb7361c-307f-49cb-ac99-d77623f20e19","system_id":"levelo_inurba_marseille","lat":43.32505,"lon":5.36564,"is_reserved":false,"is_disabled":false,"rental_uris":{"android":"levelo://app?vid=9bb7361c-307f-49cb-ac99-d77623f20e19","ios":"levelo://app?vid=9bb7361c-307f-49cb-ac99-d77623f20e19"},"vehicle_type_id":"4","last_reported":1744877662,"current_range_meters":20000,"station_id":"ce4bhs12rcd13ifvqhvg","pricing_plan_id":"cebpf4jnsgd1na2vs0mg"},{"bike_id":"cc30662a-cc43-42c2-9e8d-a5ec9b5a6035","system_id":"levelo_inurba_marseille","lat":43.30275,"lon":5.37695,"is_reserved":false,"is_disabled":false,"rental_uris":{"android":"levelo://app?vid=cc30662a-cc43-42c2-9e8d-a5ec9b5a6035","ios":"levelo://app?vid=cc30662a-cc43-42c2-9e8d-a5ec9b5a6035"},"vehicle_type_id":"4","last_reported":1744877662,"current_range_meters":20000,"station_id":"ce4bguh2rcd13ifvqcj0","pricing_plan_id":"cebpf4jnsgd1na2vs0mg"},{"bike_id":"33efbe4e-e642-4271-be29-4926b421ca5b","system_id":"levelo_inurba_marseille","lat":43.24145,"lon":5.36395,"is_reserved":false,"is_disabled":false,"rental_uris":{"android":"levelo://app?vid=33efbe4e-e642-4271-be29-4926b421ca5b","ios":"levelo://app?vid=33efbe4e-e642-4271-be29-4926b421ca5b"},"vehicle_type_id":"4","last_reported":1744877662,"current_range_meters":20000,"station_id":"cpo36qri1sfpv3e86is0","pricing_plan_id":"cebpf4jnsgd1na2vs0mg"},{"bike_id":"02988bdf-81f6-474c-ae2d-b4f6427cc78e","system_id":"levelo_inurba_marseille","lat":43.29173,"lon":5.35905,"is_reserved":false,"is_disabled":false,"rental_uris":{"android":"levelo://app?vid=02988bdf-81f6-474c-ae2d-b4f6427cc78e","ios":"levelo://app?vid=02988bdf-81f6-474c-ae2d-b4f6427cc78e"},"vehicle_type_id":"4","last_reported":1744877662,"current_range_meters":20400,"station_id":"ce4bhbh2rcd13ifvqeqg","pricing_plan_id":"cebpf4jnsgd1na2vs0mg"},{"bike_id":"68342d9f-f0b6-47e7-b690-b27078e67a77","system_id":"levelo_inurba_marseille","lat":43.24179,"lon":5.36398,"is_reserved":false,"is_disabled":false,"rental_uris":{"android":"levelo://app?vid=68342d9f-f0b6-47e7-b690-b27078e67a77","ios":"levelo://app?vid=68342d9f-f0b6-47e7-b690-b27078e67a77"},"vehicle_type_id":"4","last_reported":1744877662,"current_range_meters":20400,"station_id":"cpo36qri1sfpv3e86is0","pricing_plan_id":"cebpf4jnsgd1na2vs0mg"},{"bike_id":"2a3df68e-728a-4b9c-bbc2-4259a4448e26","system_id":"levelo_inurba_marseille","lat":43.28004,"lon":5.40005,"is_reserved":false,"is_disabled":false,"rental_uris":{"android":"levelo://app?vid=2a3df68e-728a-4b9c-bbc2-4259a4448e26","ios":"levelo://app?vid=2a3df68e-728a-4b9c-bbc2-4259a4448e26"},"vehicle_type_id":"4","last_reported":1744877662,"current_range_meters":20400,"station_id":"ce4bho92rcd13ifvqh4g","pricing_plan_id":"cebpf4jnsgd1na2vs0mg"},{"bike_id":"d1f62e13-1c39-4e3d-9d7f-2784e681f73c","system_id":"levelo_inurba_marseille","lat":43.30466,"lon":5.37905,"is_reserved":false,"is_disabled":false,"rental_uris":{"android":"levelo://app?vid=d1f62e13-1c39-4e3d-9d7f-2784e681f73c","ios":"levelo://app?vid=d1f62e13-1c39-4e3d-9d7f-2784e681f73c"},"vehicle_type_id":"4","last_reported":1744877662,"current_range_meters":20400,"station_id":"ce4bgup2rcd13ifvqcn0","pricing_plan_id":"cebpf4jnsgd1na2vs0mg"},{"bike_id":"db2488d1-77a1-4eb3-9b9b-b51975bfb43c","system_id":"levelo_inurba_marseille","lat":43.30144,"lon":5.37409,"is_reserved":false,"is_disabled":false,"rental_uris":{"android":"levelo://app?vid=db2488d1-77a1-4eb3-9b9b-b51975bfb43c","ios":"levelo://app?vid=db2488d1-77a1-4eb3-9b9b-b51975bfb43c"},"vehicle_type_id":"4","last_reported":1744877662,"current_range_meters":20400,"station_id":"ce4bgs92rcd13ifvqcc0","pricing_plan_id":"cebpf4jnsgd1na2vs0mg"},{"bike_id":"19620581-1ceb-402e-b7f1-a1cb58dfb3ea","system_id":"levelo_inurba_marseille","lat":43.2593,"lon":5.40907,"is_reserved":false,"is_disabled":false,"rental_uris":{"android":"levelo://app?vid=19620581-1ceb-402e-b7f1-a1cb58dfb3ea","ios":"levelo://app?vid=19620581-1ceb-402e-b7f1-a1cb58dfb3ea"},"vehicle_type_id":"4","last_reported":1744877662,"current_range_meters":20400,"station_id":"ce4bhm92rcd13ifvqglg","pricing_plan_id":"cebpf4jnsgd1na2vs0mg"},{"bike_id":"0ae19b9c-c885-40b5-b292-868c221bc3d0","system_id":"levelo_inurba_marseille","lat":43.301642,"lon":5.374108,"is_reserved":false,"is_disabled":false,"rental_uris":{"android":"levelo://app?vid=0ae19b9c-c885-40b5-b292-868c221bc3d0","ios":"levelo://app?vid=0ae19b9c-c885-40b5-b292-868c221bc3d0"},"vehicle_type_id":"4","last_reported":1744877662,"current_range_meters":20400,"station_id":"ce4bgs92rcd13ifvqcc0","pricing_plan_id":"cebpf4jnsgd1na2vs0mg"},{"bike_id":"934a8fc0-98f8-4aaf-a145-d485dee937c7","system_id":"levelo_inurba_marseille","lat":43.3236,"lon":5.36757,"is_reserved":false,"is_disabled":false,"rental_uris":{"android":"levelo://app?vid=934a8fc0-98f8-4aaf-a145-d485dee937c7","ios":"levelo://app?vid=934a8fc0-98f8-4aaf-a145-d485dee937c7"},"vehicle_type_id":"4","last_reported":1744877662,"current_range_meters":20400,"station_id":"ce4bhsh2rcd13ifvqi2g","pricing_plan_id":"cebpf4jnsgd1na2vs0mg"},{"bike_id":"1f3d5d90-a5e7-42da-b30a-ed5e19b3ee0f","system_id":"levelo_inurba_marseille","lat":43.2657,"lon":5.37303,"is_reserved":false,"is_disabled":false,"rental_uris":{"android":"levelo://app?vid=1f3d5d90-a5e7-42da-b30a-ed5e19b3ee0f","ios":"levelo://app?vid=1f3d5d90-a5e7-42da-b30a-ed5e19b3ee0f"},"vehicle_type_id":"4","last_reported":1744877662,"current_range_meters":20800,"station_id":"ce4bhg12rcd13ifvqf70","pricing_plan_id":"cebpf4jnsgd1na2vs0mg"},{"bike_id":"04b27430-aed8-4dd3-a229-380dfbad9203","system_id":"levelo_inurba_marseille","lat":43.305759,"lon":5.367588,"is_reserved":false,"is_disabled":false,"rental_uris":{"android":"levelo://app?vid=04b27430-aed8-4dd3-a229-380dfbad9203","ios":"levelo://app?vid=04b27430-aed8-4dd3-a229-380dfbad9203"},"vehicle_type_id":"4","last_reported":1744877662,"current_range_meters":20800,"station_id":"ce4bgrp2rcd13ifvqc9g","pricing_plan_id":"cebpf4jnsgd1na2vs0mg"},{"bike_id":"f9d3fbe6-73e5-424e-af02-f446d5b07152","system_id":"levelo_inurba_marseille","lat":43.21756,"lon":5.34605,"is_reserved":false,"is_disabled":false,"rental_uris":{"android":"levelo://app?vid=f9d3fbe6-73e5-424e-af02-f446d5b07152","ios":"levelo://app?vid=f9d3fbe6-73e5-424e-af02-f446d5b07152"},"vehicle_type_id":"4","last_reported":1744877662,"current_range_meters":20800,"station_id":"st_cvj6r9ubvosntc0bgbag","pricing_plan_id":"cebpf4jnsgd1na2vs0mg"},{"bike_id":"3d478ed8-ed25-416a-87f2-402df3b77c0b","system_id":"levelo_inurba_marseille","lat":43.241655,"lon":5.397347,"is_reserved":false,"is_disabled":false,"rental_uris":{"android":"levelo://app?vid=3d478ed8-ed25-416a-87f2-402df3b77c0b","ios":"levelo://app?vid=3d478ed8-ed25-416a-87f2-402df3b77c0b"},"vehicle_type_id":"4","last_reported":1744877662,"current_range_meters":20800,"station_id":"ce4bhn12rcd13ifvqgpg","pricing_plan_id":"cebpf4jnsgd1na2vs0mg"},{"bike_id":"7e2b1f25-9563-49f7-8e92-8965f8392c33","system_id":"levelo_inurba_marseille","lat":43.33035,"lon":5.39013,"is_reserved":false,"is_disabled":false,"rental_uris":{"android":"levelo://app?vid=7e2b1f25-9563-49f7-8e92-8965f8392c33","ios":"levelo://app?vid=7e2b1f25-9563-49f7-8e92-8965f8392c33"},"vehicle_type_id":"4","last_reported":1744877662,"current_range_meters":21600,"station_id":"","pricing_plan_id":"cebpf4jnsgd1na2vs0mg"},{"bike_id":"d1c8f330-b960-4ff8-9370-c3d3825558d9","system_id":"levelo_inurba_marseille","lat":43.29296,"lon":5.37166,"is_reserved":false,"is_disabled":false,"rental_uris":{"android":"levelo://app?vid=d1c8f330-b960-4ff8-9370-c3d3825558d9","ios":"levelo://app?vid=d1c8f330-b960-4ff8-9370-c3d3825558d9"},"vehicle_type_id":"4","last_reported":1744877662,"current_range_meters":21600,"station_id":"ce4bgh92rcd13ifvqb40","pricing_plan_id":"cebpf4jnsgd1na2vs0mg"},{"bike_id":"c02736c8-234f-4dbb-b61b-8d0e77484ef0","system_id":"levelo_inurba_marseille","lat":43.27922,"lon":5.39592,"is_reserved":false,"is_disabled":false,"rental_uris":{"android":"levelo://app?vid=c02736c8-234f-4dbb-b61b-8d0e77484ef0","ios":"levelo://app?vid=c02736c8-234f-4dbb-b61b-8d0e77484ef0"},"vehicle_type_id":"4","last_reported":1744877662,"current_range_meters":21600,"station_id":"ce4bhf92rcd13ifvqf40","pricing_plan_id":"cebpf4jnsgd1na2vs0mg"},{"bike_id":"05f9b99d-7805-460c-b863-06baeb2f9dc2","system_id":"levelo_inurba_marseille","lat":43.30158,"lon":5.38095,"is_reserved":false,"is_disabled":false,"rental_uris":{"android":"levelo://app?vid=05f9b99d-7805-460c-b863-06baeb2f9dc2","ios":"levelo://app?vid=05f9b99d-7805-460c-b863-06baeb2f9dc2"},"vehicle_type_id":"4","last_reported":1744877662,"current_range_meters":21600,"station_id":"ce4bgjp2rcd13ifvqbh0","pricing_plan_id":"cebpf4jnsgd1na2vs0mg"},{"bike_id":"f1d4e1ff-1bb8-45ff-847f-cdd1e5d36695","system_id":"levelo_inurba_marseille","lat":43.26939,"lon":5.40245,"is_reserved":false,"is_disabled":false,"rental_uris":{"android":"levelo://app?vid=f1d4e1ff-1bb8-45ff-847f-cdd1e5d36695","ios":"levelo://app?vid=f1d4e1ff-1bb8-45ff-847f-cdd1e5d36695"},"vehicle_type_id":"4","last_reported":1744877662,"current_range_meters":20800,"station_id":"cjm6bp8fraef2m0cb0m0","pricing_plan_id":"cebpf4jnsgd1na2vs0mg"},{"bike_id":"7197e201-2d59-4d9e-aca6-84ea197a1158","system_id":"levelo_inurba_marseille","lat":43.29964,"lon":5.38502,"is_reserved":false,"is_disabled":false,"rental_uris":{"android":"levelo://app?vid=7197e201-2d59-4d9e-aca6-84ea197a1158","ios":"levelo://app?vid=7197e201-2d59-4d9e-aca6-84ea197a1158"},"vehicle_type_id":"4","last_reported":1744877662,"current_range_meters":21600,"station_id":"ce4bgj92rcd13ifvqbd0","pricing_plan_id":"cebpf4jnsgd1na2vs0mg"},{"bike_id":"210ca041-5803-457b-9a83-f5c528a0044c","system_id":"levelo_inurba_marseille","lat":43.25581,"lon":5.38235,"is_reserved":false,"is_disabled":false,"rental_uris":{"android":"levelo://app?vid=210ca041-5803-457b-9a83-f5c528a0044c","ios":"levelo://app?vid=210ca041-5803-457b-9a83-f5c528a0044c"},"vehicle_type_id":"4","last_reported":1744877662,"current_range_meters":21600,"station_id":"ce4bhih2rcd13ifvqfs0","pricing_plan_id":"cebpf4jnsgd1na2vs0mg"},{"bike_id":"a5243bdb-5f82-4b64-8693-3ac28ad1161a","system_id":"levelo_inurba_marseille","lat":43.2952,"lon":5.39401,"is_reserved":false,"is_disabled":false,"rental_uris":{"android":"levelo://app?vid=a5243bdb-5f82-4b64-8693-3ac28ad1161a","ios":"levelo://app?vid=a5243bdb-5f82-4b64-8693-3ac28ad1161a"},"vehicle_type_id":"4","last_reported":1744877662,"current_range_meters":21600,"station_id":"ce4bh292rcd13ifvqdf0","pricing_plan_id":"cebpf4jnsgd1na2vs0mg"},{"bike_id":"c305c827-8b59-4e6c-91de-4d8a3fcbcac2","system_id":"levelo_inurba_marseille","lat":43.24172,"lon":5.36401,"is_reserved":false,"is_disabled":false,"rental_uris":{"android":"levelo://app?vid=c305c827-8b59-4e6c-91de-4d8a3fcbcac2","ios":"levelo://app?vid=c305c827-8b59-4e6c-91de-4d8a3fcbcac2"},"vehicle_type_id":"4","last_reported":1744877662,"current_range_meters":21600,"station_id":"cpo36qri1sfpv3e86is0","pricing_plan_id":"cebpf4jnsgd1na2vs0mg"},{"bike_id":"d39e5537-c00a-4bf8-9f22-53966b448679","system_id":"levelo_inurba_marseille","lat":43.29552,"lon":5.42259,"is_reserved":false,"is_disabled":false,"rental_uris":{"android":"levelo://app?vid=d39e5537-c00a-4bf8-9f22-53966b448679","ios":"levelo://app?vid=d39e5537-c00a-4bf8-9f22-53966b448679"},"vehicle_type_id":"4","last_reported":1744877662,"current_range_meters":22000,"station_id":"ce4bhph2rcd13ifvqhdg","pricing_plan_id":"cebpf4jnsgd1na2vs0mg"},{"bike_id":"04cd718a-739b-4f09-8fdf-74e445452766","system_id":"levelo_inurba_marseille","lat":43.31493,"lon":5.37276,"is_reserved":false,"is_disabled":false,"rental_uris":{"android":"levelo://app?vid=04cd718a-739b-4f09-8fdf-74e445452766","ios":"levelo://app?vid=04cd718a-739b-4f09-8fdf-74e445452766"},"vehicle_type_id":"4","last_reported":1744877662,"current_range_meters":22000,"station_id":"ce4bgt12rcd13ifvqcd0","pricing_plan_id":"cebpf4jnsgd1na2vs0mg"},{"bike_id":"767ac8e2-0e80-4549-a954-7d5c8496a13a","system_id":"levelo_inurba_marseille","lat":43.30515,"lon":5.36507,"is_reserved":false,"is_disabled":false,"rental_uris":{"android":"levelo://app?vid=767ac8e2-0e80-4549-a954-7d5c8496a13a","ios":"levelo://app?vid=767ac8e2-0e80-4549-a954-7d5c8496a13a"},"vehicle_type_id":"4","last_reported":1744877662,"current_range_meters":22000,"station_id":"ce4bgs12rcd13ifvqcag","pricing_plan_id":"cebpf4jnsgd1na2vs0mg"},{"bike_id":"bfc0f2bb-f1f4-4fed-b9af-c547a21d1d5d","system_id":"levelo_inurba_marseille","lat":43.28625,"lon":5.35102,"is_reserved":false,"is_disabled":false,"rental_uris":{"android":"levelo://app?vid=bfc0f2bb-f1f4-4fed-b9af-c547a21d1d5d","ios":"levelo://app?vid=bfc0f2bb-f1f4-4fed-b9af-c547a21d1d5d"},"vehicle_type_id":"4","last_reported":1744877662,"current_range_meters":22000,"station_id":"ce4bhch2rcd13ifvqeug","pricing_plan_id":"cebpf4jnsgd1na2vs0mg"},{"bike_id":"01930f64-c679-4b05-b064-7998f12896b3","system_id":"levelo_inurba_marseille","lat":43.2594,"lon":5.40903,"is_reserved":false,"is_disabled":false,"rental_uris":{"android":"levelo://app?vid=01930f64-c679-4b05-b064-7998f12896b3","ios":"levelo://app?vid=01930f64-c679-4b05-b064-7998f12896b3"},"vehicle_type_id":"4","last_reported":1744877662,"current_range_meters":22000,"station_id":"ce4bhm92rcd13ifvqglg","pricing_plan_id":"cebpf4jnsgd1na2vs0mg"},{"bike_id":"25fbf17a-f8ec-486f-854b-8d888267d349","system_id":"levelo_inurba_marseille","lat":43.30585,"lon":5.36569,"is_reserved":false,"is_disabled":false,"rental_uris":{"android":"levelo://app?vid=25fbf17a-f8ec-486f-854b-8d888267d349","ios":"levelo://app?vid=25fbf17a-f8ec-486f-854b-8d888267d349"},"vehicle_type_id":"4","last_reported":1744877662,"current_range_meters":21600,"station_id":"ce4bgs12rcd13ifvqcag","pricing_plan_id":"cebpf4jnsgd1na2vs0mg"},{"bike_id":"2730025f-c78d-4247-991c-378116bcf61f","system_id":"levelo_inurba_marseille","lat":43.27813,"lon":5.40717,"is_reserved":false,"is_disabled":false,"rental_uris":{"android":"levelo://app?vid=2730025f-c78d-4247-991c-378116bcf61f","ios":"levelo://app?vid=2730025f-c78d-4247-991c-378116bcf61f"},"vehicle_type_id":"4","last_reported":1744877662,"current_range_meters":22000,"station_id":"ce4bhnh2rcd13ifvqgtg","pricing_plan_id":"cebpf4jnsgd1na2vs0mg"},{"bike_id":"d1a2b493-7d30-4a9c-a02b-dfad0b4f73f7","system_id":"levelo_inurba_marseille","lat":43.24818,"lon":5.37458,"is_reserved":false,"is_disabled":false,"rental_uris":{"android":"levelo://app?vid=d1a2b493-7d30-4a9c-a02b-dfad0b4f73f7","ios":"levelo://app?vid=d1a2b493-7d30-4a9c-a02b-dfad0b4f73f7"},"vehicle_type_id":"4","last_reported":1744877662,"current_range_meters":22000,"station_id":"ce4bhgh2rcd13ifvqfb0","pricing_plan_id":"cebpf4jnsgd1na2vs0mg"},{"bike_id":"efb996b3-bed7-4ae8-93ff-d4d1352bc8f1","system_id":"levelo_inurba_marseille","lat":43.30278,"lon":5.37705,"is_reserved":false,"is_disabled":false,"rental_uris":{"android":"levelo://app?vid=efb996b3-bed7-4ae8-93ff-d4d1352bc8f1","ios":"levelo://app?vid=efb996b3-bed7-4ae8-93ff-d4d1352bc8f1"},"vehicle_type_id":"4","last_reported":1744877662,"current_range_meters":22400,"station_id":"ce4bguh2rcd13ifvqcj0","pricing_plan_id":"cebpf4jnsgd1na2vs0mg"},{"bike_id":"111a9116-5ac2-4b6d-93d2-b92f401f8e89","system_id":"levelo_inurba_marseille","lat":43.3189,"lon":5.375,"is_reserved":false,"is_disabled":false,"rental_uris":{"android":"levelo://app?vid=111a9116-5ac2-4b6d-93d2-b92f401f8e89","ios":"levelo://app?vid=111a9116-5ac2-4b6d-93d2-b92f401f8e89"},"vehicle_type_id":"4","last_reported":1744877662,"current_range_meters":22400,"station_id":"","pricing_plan_id":"cebpf4jnsgd1na2vs0mg"},{"bike_id":"33bf5d63-424c-48d6-a0cb-a0565488ee3e","system_id":"levelo_inurba_marseille","lat":43.24185,"lon":5.39728,"is_reserved":false,"is_disabled":false,"rental_uris":{"android":"levelo://app?vid=33bf5d63-424c-48d6-a0cb-a0565488ee3e","ios":"levelo://app?vid=33bf5d63-424c-48d6-a0cb-a0565488ee3e"},"vehicle_type_id":"4","last_reported":1744877662,"current_range_meters":22400,"station_id":"ce4bhn12rcd13ifvqgpg","pricing_plan_id":"cebpf4jnsgd1na2vs0mg"},{"bike_id":"04b0cb39-9229-4c02-890e-562e273ff746","system_id":"levelo_inurba_marseille","lat":43.29797,"lon":5.381129,"is_reserved":false,"is_disabled":true,"rental_uris":{"android":"levelo://app?vid=04b0cb39-9229-4c02-890e-562e273ff746","ios":"levelo://app?vid=04b0cb39-9229-4c02-890e-562e273ff746"},"vehicle_type_id":"4","last_reported":1744877662,"current_range_meters":22400,"station_id":"ce4bgip2rcd13ifvqbb0","pricing_plan_id":"cebpf4jnsgd1na2vs0mg"},{"bike_id":"8c0be09f-1a08-4f03-adf3-9ab53d05b7e1","system_id":"levelo_inurba_marseille","lat":43.30414,"lon":5.412875,"is_reserved":false,"is_disabled":true,"rental_uris":{"android":"levelo://app?vid=8c0be09f-1a08-4f03-adf3-9ab53d05b7e1","ios":"levelo://app?vid=8c0be09f-1a08-4f03-adf3-9ab53d05b7e1"},"vehicle_type_id":"4","last_reported":1744877662,"current_range_meters":22400,"station_id":"ce4bhop2rcd13ifvqh8g","pricing_plan_id":"cebpf4jnsgd1na2vs0mg"},{"bike_id":"5e6be620-a3d0-49c3-9ff0-b85332cde817","system_id":"levelo_inurba_marseille","lat":43.23196,"lon":5.35563,"is_reserved":false,"is_disabled":false,"rental_uris":{"android":"levelo://app?vid=5e6be620-a3d0-49c3-9ff0-b85332cde817","ios":"levelo://app?vid=5e6be620-a3d0-49c3-9ff0-b85332cde817"},"vehicle_type_id":"4","last_reported":1744877662,"current_range_meters":22400,"station_id":"ce4bhu92rcd13ifvqi70","pricing_plan_id":"cebpf4jnsgd1na2vs0mg"},{"bike_id":"4de9cb5b-b98d-453d-93b4-eab3c2c5d408","system_id":"levelo_inurba_marseille","lat":43.304678,"lon":5.379126,"is_reserved":false,"is_disabled":false,"rental_uris":{"android":"levelo://app?vid=4de9cb5b-b98d-453d-93b4-eab3c2c5d408","ios":"levelo://app?vid=4de9cb5b-b98d-453d-93b4-eab3c2c5d408"},"vehicle_type_id":"4","last_reported":1744877662,"current_range_meters":22400,"station_id":"ce4bgup2rcd13ifvqcn0","pricing_plan_id":"cebpf4jnsgd1na2vs0mg"},{"bike_id":"6a4d47ed-5eaa-48bd-93e2-25996ef1e346","system_id":"levelo_inurba_marseille","lat":43.29376,"lon":5.37844,"is_reserved":false,"is_disabled":false,"rental_uris":{"android":"levelo://app?vid=6a4d47ed-5eaa-48bd-93e2-25996ef1e346","ios":"levelo://app?vid=6a4d47ed-5eaa-48bd-93e2-25996ef1e346"},"vehicle_type_id":"4","last_reported":1744877662,"current_range_meters":22800,"station_id":"ce4bgjh2rcd13ifvqbf0","pricing_plan_id":"cebpf4jnsgd1na2vs0mg"},{"bike_id":"3c863c1e-5703-459e-86f2-3e252f5541e4","system_id":"levelo_inurba_marseille","lat":43.29425,"lon":5.38627,"is_reserved":false,"is_disabled":false,"rental_uris":{"android":"levelo://app?vid=3c863c1e-5703-459e-86f2-3e252f5541e4","ios":"levelo://app?vid=3c863c1e-5703-459e-86f2-3e252f5541e4"},"vehicle_type_id":"4","last_reported":1744877662,"current_range_meters":22800,"station_id":"ce4bh2h2rcd13ifvqdh0","pricing_plan_id":"cebpf4jnsgd1na2vs0mg"},{"bike_id":"4f0ae3f2-6f4a-4da5-a21c-aa47c040632f","system_id":"levelo_inurba_marseille","lat":43.32292,"lon":5.3826,"is_reserved":false,"is_disabled":false,"rental_uris":{"android":"levelo://app?vid=4f0ae3f2-6f4a-4da5-a21c-aa47c040632f","ios":"levelo://app?vid=4f0ae3f2-6f4a-4da5-a21c-aa47c040632f"},"vehicle_type_id":"4","last_reported":1744877662,"current_range_meters":22800,"station_id":"ce4bhr12rcd13ifvqhqg","pricing_plan_id":"cebpf4jnsgd1na2vs0mg"},{"bike_id":"c7153f08-efe4-4004-8960-3a6728357ff3","system_id":"levelo_inurba_marseille","lat":43.2593,"lon":5.40903,"is_reserved":false,"is_disabled":false,"rental_uris":{"android":"levelo://app?vid=c7153f08-efe4-4004-8960-3a6728357ff3","ios":"levelo://app?vid=c7153f08-efe4-4004-8960-3a6728357ff3"},"vehicle_type_id":"4","last_reported":1744877662,"current_range_meters":22800,"station_id":"ce4bhm92rcd13ifvqglg","pricing_plan_id":"cebpf4jnsgd1na2vs0mg"},{"bike_id":"eab72e13-6ede-42d7-b087-313fb4dfb126","system_id":"levelo_inurba_marseille","lat":43.30878,"lon":5.37191,"is_reserved":false,"is_disabled":false,"rental_uris":{"android":"levelo://app?vid=eab72e13-6ede-42d7-b087-313fb4dfb126","ios":"levelo://app?vid=eab72e13-6ede-42d7-b087-313fb4dfb126"},"vehicle_type_id":"4","last_reported":1744877662,"current_range_meters":22800,"station_id":"ce4bguh2rcd13ifvqckg","pricing_plan_id":"cebpf4jnsgd1na2vs0mg"},{"bike_id":"5edff29b-8597-4123-8eac-13badbdfa345","system_id":"levelo_inurba_marseille","lat":43.29303,"lon":5.37452,"is_reserved":false,"is_disabled":false,"rental_uris":{"android":"levelo://app?vid=5edff29b-8597-4123-8eac-13badbdfa345","ios":"levelo://app?vid=5edff29b-8597-4123-8eac-13badbdfa345"},"vehicle_type_id":"4","last_reported":1744877662,"current_range_meters":22800,"station_id":"ce4bgi12rcd13ifvqb70","pricing_plan_id":"cebpf4jnsgd1na2vs0mg"},{"bike_id":"80bac1fe-218c-4068-937c-4aa733df023f","system_id":"levelo_inurba_marseille","lat":43.28618,"lon":5.37068,"is_reserved":false,"is_disabled":false,"rental_uris":{"android":"levelo://app?vid=80bac1fe-218c-4068-937c-4aa733df023f","ios":"levelo://app?vid=80bac1fe-218c-4068-937c-4aa733df023f"},"vehicle_type_id":"4","last_reported":1744877662,"current_range_meters":22800,"station_id":"ce4bht12rcd13ifvqi60","pricing_plan_id":"cebpf4jnsgd1na2vs0mg"},{"bike_id":"d09a9237-3b9b-40ec-9f32-e17d6d379cb5","system_id":"levelo_inurba_marseille","lat":43.32128,"lon":5.36794,"is_reserved":false,"is_disabled":false,"rental_uris":{"android":"levelo://app?vid=d09a9237-3b9b-40ec-9f32-e17d6d379cb5","ios":"levelo://app?vid=d09a9237-3b9b-40ec-9f32-e17d6d379cb5"},"vehicle_type_id":"4","last_reported":1744877662,"current_range_meters":23200,"station_id":"ce4bhrh2rcd13ifvqhug","pricing_plan_id":"cebpf4jnsgd1na2vs0mg"},{"bike_id":"b274cae9-7251-4202-a8bb-e6672ac9431e","system_id":"levelo_inurba_marseille","lat":43.2902,"lon":5.38131,"is_reserved":false,"is_disabled":false,"rental_uris":{"android":"levelo://app?vid=b274cae9-7251-4202-a8bb-e6672ac9431e","ios":"levelo://app?vid=b274cae9-7251-4202-a8bb-e6672ac9431e"},"vehicle_type_id":"4","last_reported":1744877662,"current_range_meters":23200,"station_id":"ce4bh4p2rcd13ifvqe1g","pricing_plan_id":"cebpf4jnsgd1na2vs0mg"},{"bike_id":"91aa591a-3e56-4092-a295-ecb6aebe69eb","system_id":"levelo_inurba_marseille","lat":43.22469,"lon":5.34709,"is_reserved":false,"is_disabled":false,"rental_uris":{"android":"levelo://app?vid=91aa591a-3e56-4092-a295-ecb6aebe69eb","ios":"levelo://app?vid=91aa591a-3e56-4092-a295-ecb6aebe69eb"},"vehicle_type_id":"4","last_reported":1744877662,"current_range_meters":23200,"station_id":"st_cvj5dfep6f1abm77gieg","pricing_plan_id":"cebpf4jnsgd1na2vs0mg"},{"bike_id":"4c38699a-66b6-4804-8c97-8c8a6c015f73","system_id":"levelo_inurba_marseille","lat":43.29536,"lon":5.3854,"is_reserved":false,"is_disabled":false,"rental_uris":{"android":"levelo://app?vid=4c38699a-66b6-4804-8c97-8c8a6c015f73","ios":"levelo://app?vid=4c38699a-66b6-4804-8c97-8c8a6c015f73"},"vehicle_type_id":"4","last_reported":1744877662,"current_range_meters":23200,"station_id":"ce4bgih2rcd13ifvqba0","pricing_plan_id":"cebpf4jnsgd1na2vs0mg"},{"bike_id":"7e7ac4bb-1ee2-471d-b8da-2ad03fab870c","system_id":"levelo_inurba_marseille","lat":43.29844,"lon":5.36235,"is_reserved":false,"is_disabled":false,"rental_uris":{"android":"levelo://app?vid=7e7ac4bb-1ee2-471d-b8da-2ad03fab870c","ios":"levelo://app?vid=7e7ac4bb-1ee2-471d-b8da-2ad03fab870c"},"vehicle_type_id":"4","last_reported":1744877662,"current_range_meters":23200,"station_id":"ce4bgpp2rcd13ifvqc3g","pricing_plan_id":"cebpf4jnsgd1na2vs0mg"},{"bike_id":"873bcab6-b973-48ed-b129-34762c209441","system_id":"levelo_inurba_marseille","lat":43.31517,"lon":5.37299,"is_reserved":false,"is_disabled":false,"rental_uris":{"android":"levelo://app?vid=873bcab6-b973-48ed-b129-34762c209441","ios":"levelo://app?vid=873bcab6-b973-48ed-b129-34762c209441"},"vehicle_type_id":"4","last_reported":1744877662,"current_range_meters":23200,"station_id":"ce4bgt12rcd13ifvqcd0","pricing_plan_id":"cebpf4jnsgd1na2vs0mg"},{"bike_id":"d9ac3f68-e059-4c3a-9883-7f3eb9b02b14","system_id":"levelo_inurba_marseille","lat":43.30136,"lon":5.37428,"is_reserved":false,"is_disabled":false,"rental_uris":{"android":"levelo://app?vid=d9ac3f68-e059-4c3a-9883-7f3eb9b02b14","ios":"levelo://app?vid=d9ac3f68-e059-4c3a-9883-7f3eb9b02b14"},"vehicle_type_id":"4","last_reported":1744877662,"current_range_meters":23200,"station_id":"ce4bgs92rcd13ifvqcc0","pricing_plan_id":"cebpf4jnsgd1na2vs0mg"},{"bike_id":"9bdc735e-ba27-4ade-9bd2-6fc7ad3b3792","system_id":"levelo_inurba_marseille","lat":43.2985,"lon":5.36287,"is_reserved":false,"is_disabled":false,"rental_uris":{"android":"levelo://app?vid=9bdc735e-ba27-4ade-9bd2-6fc7ad3b3792","ios":"levelo://app?vid=9bdc735e-ba27-4ade-9bd2-6fc7ad3b3792"},"vehicle_type_id":"4","last_reported":1744877662,"current_range_meters":23200,"station_id":"ce4bgpp2rcd13ifvqc3g","pricing_plan_id":"cebpf4jnsgd1na2vs0mg"},{"bike_id":"4985ac90-d0df-409c-b6f0-eadb6d4100d1","system_id":"levelo_inurba_marseille","lat":43.29048,"lon":5.39959,"is_reserved":false,"is_disabled":false,"rental_uris":{"android":"levelo://app?vid=4985ac90-d0df-409c-b6f0-eadb6d4100d1","ios":"levelo://app?vid=4985ac90-d0df-409c-b6f0-eadb6d4100d1"},"vehicle_type_id":"4","last_reported":1744877662,"current_range_meters":22800,"station_id":"ce4bh392rcd13ifvqdm0","pricing_plan_id":"cebpf4jnsgd1na2vs0mg"},{"bike_id":"9eb6738d-486c-4d0a-88f4-70b8d81983d1","system_id":"levelo_inurba_marseille","lat":43.21744,"lon":5.3461,"is_reserved":false,"is_disabled":false,"rental_uris":{"android":"levelo://app?vid=9eb6738d-486c-4d0a-88f4-70b8d81983d1","ios":"levelo://app?vid=9eb6738d-486c-4d0a-88f4-70b8d81983d1"},"vehicle_type_id":"4","last_reported":1744877662,"current_range_meters":23200,"station_id":"st_cvj6r9ubvosntc0bgbag","pricing_plan_id":"cebpf4jnsgd1na2vs0mg"},{"bike_id":"2d386a61-adce-4a76-8d08-6979ebcde4f4","system_id":"levelo_inurba_marseille","lat":43.24185,"lon":5.39723,"is_reserved":false,"is_disabled":false,"rental_uris":{"android":"levelo://app?vid=2d386a61-adce-4a76-8d08-6979ebcde4f4","ios":"levelo://app?vid=2d386a61-adce-4a76-8d08-6979ebcde4f4"},"vehicle_type_id":"4","last_reported":1744877662,"current_range_meters":23200,"station_id":"ce4bhn12rcd13ifvqgpg","pricing_plan_id":"cebpf4jnsgd1na2vs0mg"},{"bike_id":"ab1fe37b-3155-4b76-a3af-28b1a129b838","system_id":"levelo_inurba_marseille","lat":43.29195,"lon":5.35809,"is_reserved":false,"is_disabled":false,"rental_uris":{"android":"levelo://app?vid=ab1fe37b-3155-4b76-a3af-28b1a129b838","ios":"levelo://app?vid=ab1fe37b-3155-4b76-a3af-28b1a129b838"},"vehicle_type_id":"4","last_reported":1744877662,"current_range_meters":24000,"station_id":"ce4bhb12rcd13ifvqel0","pricing_plan_id":"cebpf4jnsgd1na2vs0mg"},{"bike_id":"d05b7cc4-f88b-4d02-ae6c-c344f22c0e5c","system_id":"levelo_inurba_marseille","lat":43.29781,"lon":5.36571,"is_reserved":false,"is_disabled":false,"rental_uris":{"android":"levelo://app?vid=d05b7cc4-f88b-4d02-ae6c-c344f22c0e5c","ios":"levelo://app?vid=d05b7cc4-f88b-4d02-ae6c-c344f22c0e5c"},"vehicle_type_id":"4","last_reported":1744877662,"current_range_meters":24000,"station_id":"","pricing_plan_id":"cebpf4jnsgd1na2vs0mg"},{"bike_id":"aea2afb6-112e-4c3a-968a-5eb5aa77e9be","system_id":"levelo_inurba_marseille","lat":43.21162,"lon":5.35098,"is_reserved":false,"is_disabled":false,"rental_uris":{"android":"levelo://app?vid=aea2afb6-112e-4c3a-968a-5eb5aa77e9be","ios":"levelo://app?vid=aea2afb6-112e-4c3a-968a-5eb5aa77e9be"},"vehicle_type_id":"4","last_reported":1744877662,"current_range_meters":24000,"station_id":"st_cvj6sg6p6f1abm77japg","pricing_plan_id":"cebpf4jnsgd1na2vs0mg"},{"bike_id":"67cb018a-a780-4ed7-ae5b-6ac5fb1b76ef","system_id":"levelo_inurba_marseille","lat":43.305569,"lon":5.365625,"is_reserved":false,"is_disabled":false,"rental_uris":{"android":"levelo://app?vid=67cb018a-a780-4ed7-ae5b-6ac5fb1b76ef","ios":"levelo://app?vid=67cb018a-a780-4ed7-ae5b-6ac5fb1b76ef"},"vehicle_type_id":"4","last_reported":1744877662,"current_range_meters":24000,"station_id":"ce4bgs12rcd13ifvqcag","pricing_plan_id":"cebpf4jnsgd1na2vs0mg"},{"bike_id":"09ed2f99-3de5-46d0-a2e0-ed554d61393f","system_id":"levelo_inurba_marseille","lat":43.30971,"lon":5.38479,"is_reserved":false,"is_disabled":false,"rental_uris":{"android":"levelo://app?vid=09ed2f99-3de5-46d0-a2e0-ed554d61393f","ios":"levelo://app?vid=09ed2f99-3de5-46d0-a2e0-ed554d61393f"},"vehicle_type_id":"4","last_reported":1744877662,"current_range_meters":24000,"station_id":"","pricing_plan_id":"cebpf4jnsgd1na2vs0mg"},