{"last_updated":1726060560,"ttl":30,"version":"2.2","data":{"bikes":[{"bike_id":"d9d17fdb-4ae6-4e69-b3f5-d171b1e3f90e","system_id":"levelo_inurba_marseille","lat":43.28942,"lon":5.39629,"is_reserved":false,"is_disabled":false,"rental_uris":{"android":"levelo://app?vid=d9d17fdb-4ae6-4e69-b3f5-d171b1e3f90e","ios":"levelo://app?vid=d9d17fdb-4ae6-4e69-b3f5-d171b1e3f90e"},"vehicle_type_id":"4","last_reported":1726060560,"current_range_meters":20800,"station_id":"ce4bh3h2rcd13ifvqdn0","pricing_plan_id":"cebpf4jnsgd1na2vs0mg"},{"bike_id":"f56f0c93-bf77-4e54-9e0a-65b6b35b836b","system_id":"levelo_inurba_marseille","lat":43.2594,"lon":5.40899,"is_reserved":false,"is_disabled":false,"rental_uris":{"android":"levelo://app?vid=f56f0c93-bf77-4e54-9e0a-65b6b35b836b","ios":"levelo://app?vid=f56f0c93-bf77-4e54-9e0a-65b6b35b836b"},"vehicle_type_id":"4","last_reported":1726060560,"current_range_meters":11200,"station_id":"ce4bhm92rcd13ifvqglg","pricing_plan_id":"cebpf4jnsgd1na2vs0mg"},{"bike_id":"5d0c57d6-4771-44f6-957f-b1af7abed5ad","system_id":"levelo_inurba_marseille","lat":43.29542,"lon":5.37405,"is_reserved":false,"is_disabled":false,"rental_uris":{"android":"levelo://app?vid=5d0c57d6-4771-44f6-957f-b1af7abed5ad","ios":"levelo://app?vid=5d0c57d6-4771-44f6-957f-b1af7abed5ad"},"vehicle_type_id":"4","last_reported":1726060560,"current_range_meters":16800,"station_id":"ce4bgnh2rcd13ifvqc0g","pricing_plan_id":"cebpf4jnsgd1na2vs0mg"},{"bike_id":"6fa1b952-35ef-439f-bcf0-41d010f647bf","system_id":"levelo_inurba_marseille","lat":43.27976,"lon":5.3874,"is_reserved":false,"is_disabled":false,"rental_uris":{"android":"levelo://app?vid=6fa1b952-35ef-439f-bcf0-41d010f647bf","ios":"levelo://app?vid=6fa1b952-35ef-439f-bcf0-41d010f647bf"},"vehicle_type_id":"4","last_reported":1726060560,"current_range_meters":26800,"station_id":"ce4bhg12rcd13ifvqf80","pricing_plan_id":"cebpf4jnsgd1na2vs0mg"},{"bike_id":"df309b89-5a78-43de-882f-97473f6ecfee","system_id":"levelo_inurba_marseille","lat":43.26199,"lon":5.37445,"is_reserved":false,"is_disabled":false,"rental_uris":{"android":"levelo://app?vid=df309b89-5a78-43de-882f-97473f6ecfee","ios":"levelo://app?vid=df309b89-5a78-43de-882f-97473f6ecfee"},"vehicle_type_id":"4","last_reported":1726060560,"current_range_meters":11200,"station_id":"ce4bhgp2rcd13ifvqfc0","pricing_plan_id":"cebpf4jnsgd1na2vs0mg"},{"bike_id":"3efe9090-8317-41e2-a970-11bf72fa8415","system_id":"levelo_inurba_marseille","lat":43.29905,"lon":5.38147,"is_reserved":false,"is_disabled":false,"rental_uris":{"android":"levelo://app?vid=3efe9090-8317-41e2-a970-11bf72fa8415","ios":"levelo://app?vid=3efe9090-8317-41e2-a970-11bf72fa8415"},"vehicle_type_id":"4","last_reported":1726060560,"current_range_meters":35200,"station_id":"ce4bgj12rcd13ifvqbc0","pricing_plan_id":"cebpf4jnsgd1na2vs0mg"},{"bike_id":"ea2ddb7b-9622-4f69-a771-c53556b72d68","system_id":"levelo_inurba_marseille","lat":43.25083,"lon":5.39519,"is_reserved":false,"is_disabled":false,"rental_uris":{"android":"levelo://app?vid=ea2ddb7b-9622-4f69-a771-c53556b72d68","ios":"levelo://app?vid=ea2ddb7b-9622-4f69-a771-c53556b72d68"},"vehicle_type_id":"4","last_reported":1726060560,"current_range_meters":31200,"station_id":"ce4bhm12rcd13ifvqgkg","pricing_plan_id":"cebpf4jnsgd1na2vs0mg"},{"bike_id":"8ff885c5-b222-47f7-b53d-48584710b568","system_id":"levelo_inurba_marseille","lat":43.304274,"lon":5.412807,"is_reserved":false,"is_disabled":false,"rental_uris":{"android":"levelo://app?vid=8ff885c5-b222-47f7-b53d-48584710b568","ios":"levelo://app?vid=8ff885c5-b222-47f7-b53d-48584710b568"},"vehicle_type_id":"4","last_reported":1726060560,"current_range_meters":29600,"station_id":"ce4bhop2rcd13ifvqh8g","pricing_plan_id":"cebpf4jnsgd1na2vs0mg"},{"bike_id":"e78a8ff4-b538-4a11-8a0e-f5007b1dc84a","system_id":"levelo_inurba_marseille","lat":43.33604,"lon":5.41031,"is_reserved":false,"is_disabled":false,"rental_uris":{"android":"levelo://app?vid=e78a8ff4-b538-4a11-8a0e-f5007b1dc84a","ios":"levelo://app?vid=e78a8ff4-b538-4a11-8a0e-f5007b1dc84a"},"vehicle_type_id":"4","last_reported":1726060560,"current_range_meters":33200,"station_id":"ce4bhqh2rcd13ifvqhmg","pricing_plan_id":"cebpf4jnsgd1na2vs0mg"},{"bike_id":"85904a98-dc12-40a3-a070-47f0c10d5b46","system_id":"levelo_inurba_marseille","lat":43.29972,"lon":5.37174,"is_reserved":false,"is_disabled":false,"rental_uris":{"android":"levelo://app?vid=85904a98-dc12-40a3-a070-47f0c10d5b46","ios":"levelo://app?vid=85904a98-dc12-40a3-a070-47f0c10d5b46"},"vehicle_type_id":"4","last_reported":1726060560,"current_range_meters":9200,"station_id":"ce4bgr92rcd13ifvqc7g","pricing_plan_id":"cebpf4jnsgd1na2vs0mg"},{"bike_id":"540c82ce-60f6-445a-9e98-e459ca318d5f","system_id":"levelo_inurba_marseille","lat":43.29792,"lon":5.40409,"is_reserved":false,"is_disabled":false,"rental_uris":{"android":"levelo://app?vid=540c82ce-60f6-445a-9e98-e459ca318d5f","ios":"levelo://app?vid=540c82ce-60f6-445a-9e98-e459ca318d5f"},"vehicle_type_id":"4","last_reported":1726060560,"current_range_meters":6400,"station_id":"ce4bh112rcd13ifvqd90","pricing_plan_id":"cebpf4jnsgd1na2vs0mg"},{"bike_id":"7bb63ba7-8eaf-465f-b0b9-ad886cbb1270","system_id":"levelo_inurba_marseille","lat":43.29554,"lon":5.42289,"is_reserved":false,"is_disabled":false,"rental_uris":{"android":"levelo://app?vid=7bb63ba7-8eaf-465f-b0b9-ad886cbb1270","ios":"levelo://app?vid=7bb63ba7-8eaf-465f-b0b9-ad886cbb1270"},"vehicle_type_id":"4","last_reported":1726060560,"current_range_meters":6400,"station_id":"ce4bhph2rcd13ifvqhdg","pricing_plan_id":"cebpf4jnsgd1na2vs0mg"},{"bike_id":"12cebb0e-7cfd-4816-a1b2-6ce7ace2ec48","system_id":"levelo_inurba_marseille","lat":43.27068,"lon":5.42273,"is_reserved":false,"is_disabled":false,"rental_uris":{"android":"levelo://app?vid=12cebb0e-7cfd-4816-a1b2-6ce7ace2ec48","ios":"levelo://app?vid=12cebb0e-7cfd-4816-a1b2-6ce7ace2ec48"},"vehicle_type_id":"4","last_reported":1726060560,"current_range_meters":38800,"station_id":"ce4bhk92rcd13ifvqgb0","pricing_plan_id":"cebpf4jnsgd1na2vs0mg"},{"bike_id":"281d3ad1-763e-47ea-88e5-d24111c5e4a6","system_id":"levelo_inurba_marseille","lat":43.24653,"lon":5.38891,"is_reserved":false,"is_disabled":false,"rental_uris":{"android":"levelo://app?vid=281d3ad1-763e-47ea-88e5-d24111c5e4a6","ios":"levelo://app?vid=281d3ad1-763e-47ea-88e5-d24111c5e4a6"},"vehicle_type_id":"4","last_reported":1726060560,"current_range_meters":10000,"station_id":"ce4bhg12rcd13ifvqf60","pricing_plan_id":"cebpf4jnsgd1na2vs0mg"},{"bike_id":"9904ecd3-165e-4bd1-b1d7-ec25f585e988","system_id":"levelo_inurba_marseille","lat":43.29777,"lon":5.37097,"is_reserved":false,"is_disabled":false,"rental_uris":{"android":"levelo://app?vid=9904ecd3-165e-4bd1-b1d7-ec25f585e988","ios":"levelo://app?vid=9904ecd3-165e-4bd1-b1d7-ec25f585e988"},"vehicle_type_id":"4","last_reported":1726060560,"current_range_meters":17200,"station_id":"","pricing_plan_id":"cebpf4jnsgd1na2vs0mg"},{"bike_id":"bfd88d9e-eea9-4dfd-a245-2c9bc32089da","system_id":"levelo_inurba_marseille","lat":43.275782,"lon":5.384184,"is_reserved":false,"is_disabled":false,"rental_uris":{"android":"levelo://app?vid=bfd88d9e-eea9-4dfd-a245-2c9bc32089da","ios":"levelo://app?vid=bfd88d9e-eea9-4dfd-a245-2c9bc32089da"},"vehicle_type_id":"4","last_reported":1726060560,"current_range_meters":25600,"station_id":"ce4bhh92rcd13ifvqfi0","pricing_plan_id":"cebpf4jnsgd1na2vs0mg"},{"bike_id":"d02d6740-b6de-4487-a048-a0fcd35b8dee","system_id":"levelo_inurba_marseille","lat":43.23144,"lon":5.43712,"is_reserved":false,"is_disabled":false,"rental_uris":{"android":"levelo://app?vid=d02d6740-b6de-4487-a048-a0fcd35b8dee","ios":"levelo://app?vid=d02d6740-b6de-4487-a048-a0fcd35b8dee"},"vehicle_type_id":"4","last_reported":1726060560,"current_range_meters":38800,"station_id":"ce4bhmp2rcd13ifvqgog","pricing_plan_id":"cebpf4jnsgd1na2vs0mg"},{"bike_id":"7f132b6a-b4c3-469c-a967-4c0f798e305a","system_id":"levelo_inurba_marseille","lat":43.27372,"lon":5.36251,"is_reserved":false,"is_disabled":false,"rental_uris":{"android":"levelo://app?vid=7f132b6a-b4c3-469c-a967-4c0f798e305a","ios":"levelo://app?vid=7f132b6a-b4c3-469c-a967-4c0f798e305a"},"vehicle_type_id":"4","last_reported":1726060560,"current_range_meters":38000,"station_id":"ce4bhbh2rcd13ifvqeo0","pricing_plan_id":"cebpf4jnsgd1na2vs0mg"},{"bike_id":"25d5c37c-dd2d-4026-9a2d-3b77079af424","system_id":"levelo_inurba_marseille","lat":43.2418,"lon":5.3973,"is_reserved":false,"is_disabled":false,"rental_uris":{"android":"levelo://app?vid=25d5c37c-dd2d-4026-9a2d-3b77079af424","ios":"levelo://app?vid=25d5c37c-dd2d-4026-9a2d-3b77079af424"},"vehicle_type_id":"4","last_reported":1726060560,"current_range_meters":7200,"station_id":"ce4bhn12rcd13ifvqgpg","pricing_plan_id":"cebpf4jnsgd1na2vs0mg"},{"bike_id":"e705d9fb-2171-4281-8e32-77a497e36ec3","system_id":"levelo_inurba_marseille","lat":43.26947,"lon":5.40244,"is_reserved":false,"is_disabled":false,"rental_uris":{"android":"levelo://app?vid=e705d9fb-2171-4281-8e32-77a497e36ec3","ios":"levelo://app?vid=e705d9fb-2171-4281-8e32-77a497e36ec3"},"vehicle_type_id":"4","last_reported":1726060560,"current_range_meters":20400,"station_id":"cjm6bp8fraef2m0cb0m0","pricing_plan_id":"cebpf4jnsgd1na2vs0mg"},{"bike_id":"433b3573-7d19-4add-a6c2-445f5c31da67","system_id":"levelo_inurba_marseille","lat":43.31225,"lon":5.36853,"is_reserved":false,"is_disabled":false,"rental_uris":{"android":"levelo://app?vid=433b3573-7d19-4add-a6c2-445f5c31da67","ios":"levelo://app?vid=433b3573-7d19-4add-a6c2-445f5c31da67"},"vehicle_type_id":"4","last_reported":1726060560,"current_range_meters":29600,"station_id":"ce4bgl92rcd13ifvqbq0","pricing_plan_id":"cebpf4jnsgd1na2vs0mg"},{"bike_id":"33430c77-56b3-45e2-9775-669122a8613a","system_id":"levelo_inurba_marseille","lat":43.28855,"lon":5.35843,"is_reserved":false,"is_disabled":false,"rental_uris":{"android":"levelo://app?vid=33430c77-56b3-45e2-9775-669122a8613a","ios":"levelo://app?vid=33430c77-56b3-45e2-9775-669122a8613a"},"vehicle_type_id":"4","last_reported":1726060560,"current_range_meters":29600,"station_id":"ce4bhb12rcd13ifvqem0","pricing_plan_id":"cebpf4jnsgd1na2vs0mg"},{"bike_id":"dc3db784-5305-4c2f-9b60-3b329bc1df65","system_id":"levelo_inurba_marseille","lat":43.29896,"lon":5.43673,"is_reserved":false,"is_disabled":false,"rental_uris":{"android":"levelo://app?vid=dc3db784-5305-4c2f-9b60-3b329bc1df65","ios":"levelo://app?vid=dc3db784-5305-4c2f-9b60-3b329bc1df65"},"vehicle_type_id":"4","last_reported":1726060560,"current_range_meters":25600,"station_id":"ce4bhpp2rcd13ifvqhfg","pricing_plan_id":"cebpf4jnsgd1na2vs0mg"},{"bike_id":"0a42cb1c-6fe8-490d-844a-b2e2cf58d115","system_id":"levelo_inurba_marseille","lat":43.30614,"lon":5.37234,"is_reserved":false,"is_disabled":false,"rental_uris":{"android":"levelo://app?vid=0a42cb1c-6fe8-490d-844a-b2e2cf58d115","ios":"levelo://app?vid=0a42cb1c-6fe8-490d-844a-b2e2cf58d115"},"vehicle_type_id":"4","last_reported":1726060560,"current_range_meters":17600,"station_id":"ce4bgqh2rcd13ifvqc4g","pricing_plan_id":"cebpf4jnsgd1na2vs0mg"},{"bike_id":"2413a8c5-3673-44da-a30b-07a1465e7a31","system_id":"levelo_inurba_marseille","lat":43.24181,"lon":5.39719,"is_reserved":false,"is_disabled":false,"rental_uris":{"android":"levelo://app?vid=2413a8c5-3673-44da-a30b-07a1465e7a31","ios":"levelo://app?vid=2413a8c5-3673-44da-a30b-07a1465e7a31"},"vehicle_type_id":"4","last_reported":1726060560,"current_range_meters":3600,"station_id":"ce4bhn12rcd13ifvqgpg","pricing_plan_id":"cebpf4jnsgd1na2vs0mg"},{"bike_id":"d7108957-5314-4ad6-859e-9eb9c432a721","system_id":"levelo_inurba_marseille","lat":43.30139,"lon":5.37414,"is_reserved":false,"is_disabled":false,"rental_uris":{"android":"levelo://app?vid=d7108957-5314-4ad6-859e-9eb9c432a721","ios":"levelo://app?vid=d7108957-5314-4ad6-859e-9eb9c432a721"},"vehicle_type_id":"4","last_reported":1726060560,"current_range_meters":17600,"station_id":"ce4bgs92rcd13ifvqcc0","pricing_plan_id":"cebpf4jnsgd1na2vs0mg"},{"bike_id":"98f8975b-1652-45a9-a84f-e0f8cf84af34","system_id":"levelo_inurba_marseille","lat":43.23153,"lon":5.4372,"is_reserved":false,"is_disabled":false,"rental_uris":{"android":"levelo://app?vid=98f8975b-1652-45a9-a84f-e0f8cf84af34","ios":"levelo://app?vid=98f8975b-1652-45a9-a84f-e0f8cf84af34"},"vehicle_type_id":"4","last_reported":1726060560,"current_range_meters":15200,"station_id":"ce4bhmp2rcd13ifvqgog","pricing_plan_id":"cebpf4jnsgd1na2vs0mg"},{"bike_id":"b413bc3e-6bbd-4e11-abff-54bb0b63b087","system_id":"levelo_inurba_marseille","lat":43.23969,"lon":5.36625,"is_reserved":false,"is_disabled":false,"rental_uris":{"android":"levelo://app?vid=b413bc3e-6bbd-4e11-abff-54bb0b63b087","ios":"levelo://app?vid=b413bc3e-6bbd-4e11-abff-54bb0b63b087"},"vehicle_type_id":"4","last_reported":1726060560,"current_range_meters":19600,"station_id":"ce4bhi12rcd13ifvqfp0","pricing_plan_id":"cebpf4jnsgd1na2vs0mg"},{"bike_id":"c418a0a3-69bc-4a59-97fd-7bc4eeb30394","system_id":"levelo_inurba_marseille","lat":43.30538,"lon":5.36538,"is_reserved":false,"is_disabled":false,"rental_uris":{"android":"levelo://app?vid=c418a0a3-69bc-4a59-97fd-7bc4eeb30394","ios":"levelo://app?vid=c418a0a3-69bc-4a59-97fd-7bc4eeb30394"},"vehicle_type_id":"4","last_reported":1726060560,"current_range_meters":38800,"station_id":"ce4bgs12rcd13ifvqcag","pricing_plan_id":"cebpf4jnsgd1na2vs0mg"},{"bike_id":"08c47e60-2f37-4064-bcbc-08dd04c791ff","system_id":"levelo_inurba_marseille","lat":43.28418,"lon":5.3499,"is_reserved":false,"is_disabled":false,"rental_uris":{"android":"levelo://app?vid=08c47e60-2f37-4064-bcbc-08dd04c791ff","ios":"levelo://app?vid=08c47e60-2f37-4064-bcbc-08dd04c791ff"},"vehicle_type_id":"4","last_reported":1726060560,"current_range_meters":15200,"station_id":"ce4bhbh2rcd13ifvqepg","pricing_plan_id":"cebpf4jnsgd1na2vs0mg"},{"bike_id":"a21c3523-e07c-4797-b9a3-e320b570c062","system_id":"levelo_inurba_marseille","lat":43.24391,"lon":5.37056,"is_reserved":false,"is_disabled":false,"rental_uris":{"android":"levelo://app?vid=a21c3523-e07c-4797-b9a3-e320b570c062","ios":"levelo://app?vid=a21c3523-e07c-4797-b9a3-e320b570c062"},"vehicle_type_id":"4","last_reported":1726060560,"current_range_meters":36000,"station_id":"ce4bhhh2rcd13ifvqfk0","pricing_plan_id":"cebpf4jnsgd1na2vs0mg"},{"bike_id":"da2e5ada-2b96-4065-8961-c375cf41a3bc","system_id":"levelo_inurba_marseille","lat":43.27199,"lon":5.39175,"is_reserved":false,"is_disabled":false,"rental_uris":{"android":"levelo://app?vid=da2e5ada-2b96-4065-8961-c375cf41a3bc","ios":"levelo://app?vid=da2e5ada-2b96-4065-8961-c375cf41a3bc"},"vehicle_type_id":"4","last_reported":1726060560,"current_range_meters":17200,"station_id":"ce4bhhp2rcd13ifvqfm0","pricing_plan_id":"cebpf4jnsgd1na2vs0mg"},{"bike_id":"7f871056-7c8a-4d75-ab8a-f6b451824f6b","system_id":"levelo_inurba_marseille","lat":43.28664,"lon":5.38671,"is_reserved":false,"is_disabled":false,"rental_uris":{"android":"levelo://app?vid=7f871056-7c8a-4d75-ab8a-f6b451824f6b","ios":"levelo://app?vid=7f871056-7c8a-4d75-ab8a-f6b451824f6b"},"vehicle_type_id":"4","last_reported":1726060560,"current_range_meters":30800,"station_id":"ce4bh492rcd13ifvqdug","pricing_plan_id":"cebpf4jnsgd1na2vs0mg"},{"bike_id":"707e7592-7a72-42f0-98c0-adf6c2c56b53","system_id":"levelo_inurba_marseille","lat":43.29906,"lon":5.38151,"is_reserved":false,"is_disabled":false,"rental_uris":{"android":"levelo://app?vid=707e7592-7a72-42f0-98c0-adf6c2c56b53","ios":"levelo://app?vid=707e7592-7a72-42f0-98c0-adf6c2c56b53"},"vehicle_type_id":"4","last_reported":1726060560,"current_range_meters":38800,"station_id":"ce4bgj12rcd13ifvqbc0","pricing_plan_id":"cebpf4jnsgd1na2vs0mg"},{"bike_id":"25842457-7db9-450c-bb0c-92b879caa9ef","system_id":"levelo_inurba_marseille","lat":43.29844,"lon":5.36276,"is_reserved":false,"is_disabled":false,"rental_uris":{"android":"levelo://app?vid=25842457-7db9-450c-bb0c-92b879caa9ef","ios":"levelo://app?vid=25842457-7db9-450c-bb0c-92b879caa9ef"},"vehicle_type_id":"4","last_reported":1726060560,"current_range_meters":38800,"station_id":"ce4bgpp2rcd13ifvqc3g","pricing_plan_id":"cebpf4jnsgd1na2vs0mg"},{"bike_id":"00115f0a-ac26-4e9a-986d-383b5654c372","system_id":"levelo_inurba_marseille","lat":43.26687,"lon":5.38273,"is_reserved":false,"is_disabled":false,"rental_uris":{"android":"levelo://app?vid=00115f0a-ac26-4e9a-986d-383b5654c372","ios":"levelo://app?vid=00115f0a-ac26-4e9a-986d-383b5654c372"},"vehicle_type_id":"4","last_reported":1726060560,"current_range_meters":24000,"station_id":"ce4bhg92rcd13ifvqf90","pricing_plan_id":"cebpf4jnsgd1na2vs0mg"},{"bike_id":"da3449ca-af20-457d-9efe-ead80ecb7b05","system_id":"levelo_inurba_marseille","lat":43.30208,"lon":5.39469,"is_reserved":false,"is_disabled":false,"rental_uris":{"android":"levelo://app?vid=da3449ca-af20-457d-9efe-ead80ecb7b05","ios":"levelo://app?vid=da3449ca-af20-457d-9efe-ead80ecb7b05"},"vehicle_type_id":"4","last_reported":1726060560,"current_range_meters":39200,"station_id":"ce4bh0p2rcd13ifvqd70","pricing_plan_id":"cebpf4jnsgd1na2vs0mg"},{"bike_id":"cfae0713-6f80-4c09-8f7f-e19d8c34ea8a","system_id":"levelo_inurba_marseille","lat":43.304602,"lon":5.37901,"is_reserved":false,"is_disabled":false,"rental_uris":{"android":"levelo://app?vid=cfae0713-6f80-4c09-8f7f-e19d8c34ea8a","ios":"levelo://app?vid=cfae0713-6f80-4c09-8f7f-e19d8c34ea8a"},"vehicle_type_id":"4","last_reported":1726060560,"current_range_meters":30000,"station_id":"ce4bgup2rcd13ifvqcn0","pricing_plan_id":"cebpf4jnsgd1na2vs0mg"},{"bike_id":"b1e2266a-36f7-4a04-a387-80ff24cacc69","system_id":"levelo_inurba_marseille","lat":43.26194,"lon":5.37448,"is_reserved":false,"is_disabled":false,"rental_uris":{"android":"levelo://app?vid=b1e2266a-36f7-4a04-a387-80ff24cacc69","ios":"levelo://app?vid=b1e2266a-36f7-4a04-a387-80ff24cacc69"},"vehicle_type_id":"4","last_reported":1726060560,"current_range_meters":15200,"station_id":"ce4bhgp2rcd13ifvqfc0","pricing_plan_id":"cebpf4jnsgd1na2vs0mg"},{"bike_id":"e2871dd0-fab5-4e08-aa93-ded0e574c0eb","system_id":"levelo_inurba_marseille","lat":43.29033,"lon":5.3757,"is_reserved":false,"is_disabled":false,"rental_uris":{"android":"levelo://app?vid=e2871dd0-fab5-4e08-aa93-ded0e574c0eb","ios":"levelo://app?vid=e2871dd0-fab5-4e08-aa93-ded0e574c0eb"},"vehicle_type_id":"4","last_reported":1726060560,"current_range_meters":14400,"station_id":"ce4bh692rcd13ifvqe90","pricing_plan_id":"cebpf4jnsgd1na2vs0mg"},{"bike_id":"f0bd5af3-5fd0-4c1a-bda1-47ef5e39103f","system_id":"levelo_inurba_marseille","lat":43.31231,"lon":5.36869,"is_reserved":false,"is_disabled":false,"rental_uris":{"android":"levelo://app?vid=f0bd5af3-5fd0-4c1a-bda1-47ef5e39103f","ios":"levelo://app?vid=f0bd5af3-5fd0-4c1a-bda1-47ef5e39103f"},"vehicle_type_id":"4","last_reported":1726060560,"current_range_meters":3600,"station_id":"ce4bgl92rcd13ifvqbq0","pricing_plan_id":"cebpf4jnsgd1na2vs0mg"},{"bike_id":"07261905-3ea8-4143-a9e0-d009db14e524","system_id":"levelo_inurba_marseille","lat":43.2884,"lon":5.392756,"is_reserved":false,"is_disabled":false,"rental_uris":{"android":"levelo://app?vid=07261905-3ea8-4143-a9e0-d009db14e524","ios":"levelo://app?vid=07261905-3ea8-4143-a9e0-d009db14e524"},"vehicle_type_id":"4","last_reported":1726060560,"current_range_meters":33200,"station_id":"ce4bh2p2rcd13ifvqdi0","pricing_plan_id":"cebpf4jnsgd1na2vs0mg"},{"bike_id":"c23d2b2a-c758-4475-b86b-aec63105415c","system_id":"levelo_inurba_marseille","lat":43.2953,"lon":5.38542,"is_reserved":false,"is_disabled":false,"rental_uris":{"android":"levelo://app?vid=c23d2b2a-c758-4475-b86b-aec63105415c","ios":"levelo://app?vid=c23d2b2a-c758-4475-b86b-aec63105415c"},"vehicle_type_id":"4","last_reported":1726060560,"current_range_meters":8000,"station_id":"ce4bgih2rcd13ifvqba0","pricing_plan_id":"cebpf4jnsgd1na2vs0mg"},{"bike_id":"00ca710c-aa25-453d-b5eb-9286e939dc6d","system_id":"levelo_inurba_marseille","lat":43.29553,"lon":5.42286,"is_reserved":false,"is_disabled":false,"rental_uris":{"android":"levelo://app?vid=00ca710c-aa25-453d-b5eb-9286e939dc6d","ios":"levelo://app?vid=00ca710c-aa25-453d-b5eb-9286e939dc6d"},"vehicle_type_id":"4","last_reported":1726060560,"current_range_meters":38800,"station_id":"ce4bhph2rcd13ifvqhdg","pricing_plan_id":"cebpf4jnsgd1na2vs0mg"},{"bike_id":"a36a6131-7175-4d21-afcf-16a3b952996a","system_id":"levelo_inurba_marseille","lat":43.30821,"lon":5.37645,"is_reserved":false,"is_disabled":false,"rental_uris":{"android":"levelo://app?vid=a36a6131-7175-4d21-afcf-16a3b952996a","ios":"levelo://app?vid=a36a6131-7175-4d21-afcf-16a3b952996a"},"vehicle_type_id":"4","last_reported":1726060560,"current_range_meters":9600,"station_id":"ce4bgv92rcd13ifvqcq0","pricing_plan_id":"cebpf4jnsgd1na2vs0mg"},{"bike_id":"3be19a4a-e7a2-4727-8522-bfdcc2f9851c","system_id":"levelo_inurba_marseille","lat":43.25505,"lon":5.3765,"is_reserved":false,"is_disabled":false,"rental_uris":{"android":"levelo://app?vid=3be19a4a-e7a2-4727-8522-bfdcc2f9851c","ios":"levelo://app?vid=3be19a4a-e7a2-4727-8522-bfdcc2f9851c"},"vehicle_type_id":"4","last_reported":1726060560,"current_range_meters":17600,"station_id":"ce4bhh12rcd13ifvqff0","pricing_plan_id":"cebpf4jnsgd1na2vs0mg"},{"bike_id":"e193415e-3db3-4686-9712-1fe45879b28b","system_id":"levelo_inurba_marseille","lat":43.23153,"lon":5.43718,"is_reserved":false,"is_disabled":false,"rental_uris":{"android":"levelo://app?vid=e193415e-3db3-4686-9712-1fe45879b28b","ios":"levelo://app?vid=e193415e-3db3-4686-9712-1fe45879b28b"},"vehicle_type_id":"4","last_reported":1726060560,"current_range_meters":25600,"station_id":"ce4bhmp2rcd13ifvqgog","pricing_plan_id":"cebpf4jnsgd1na2vs0mg"},{"bike_id":"b6e084ac-6775-4444-8713-1eb44c1c9a46","system_id":"levelo_inurba_marseille","lat":43.255,"lon":5.37645,"is_reserved":false,"is_disabled":false,"rental_uris":{"android":"levelo://app?vid=b6e084ac-6775-4444-8713-1eb44c1c9a46","ios":"levelo://app?vid=b6e084ac-6775-4444-8713-1eb44c1c9a46"},"vehicle_type_id":"4","last_reported":1726060560,"current_range_meters":5600,"station_id":"ce4bhh12rcd13ifvqff0","pricing_plan_id":"cebpf4jnsgd1na2vs0mg"},{"bike_id":"d0b7aa61-7851-46ae-af5a-7a19cfdfc900","system_id":"levelo_inurba_marseille","lat":43.26059,"lon":5.393961,"is_reserved":false,"is_disabled":false,"rental_uris":{"android":"levelo://app?vid=d0b7aa61-7851-46ae-af5a-7a19cfdfc900","ios":"levelo://app?vid=d0b7aa61-7851-46ae-af5a-7a19cfdfc900"},"vehicle_type_id":"4","last_reported":1726060560,"current_range_meters":27200,"station_id":"ce4bhh92rcd13ifvqfj0","pricing_plan_id":"cebpf4jnsgd1na2vs0mg"},{"bike_id":"3cd52c61-6b4a-4ed5-8fbf-f5a46c7d58b7","system_id":"levelo_inurba_marseille","lat":43.28472,"lon":5.38401,"is_reserved":false,"is_disabled":false,"rental_uris":{"android":"levelo://app?vid=3cd52c61-6b4a-4ed5-8fbf-f5a46c7d58b7","ios":"levelo://app?vid=3cd52c61-6b4a-4ed5-8fbf-f5a46c7d58b7"},"vehicle_type_id":"4","last_reported":1726060560,"current_range_meters":30400,"station_id":"ce4bh512rcd13ifvqe3g","pricing_plan_id":"cebpf4jnsgd1na2vs0mg"},{"bike_id":"3e71dd62-37f9-4fdf-b475-7d894230e08d","system_id":"levelo_inurba_marseille","lat":43.2315,"lon":5.43719,"is_reserved":false,"is_disabled":false,"rental_uris":{"android":"levelo://app?vid=3e71dd62-37f9-4fdf-b475-7d894230e08d","ios":"levelo://app?vid=3e71dd62-37f9-4fdf-b475-7d894230e08d"},"vehicle_type_id":"4","last_reported":1726060560,"current_range_meters":16400,"station_id":"ce4bhmp2rcd13ifvqgog","pricing_plan_id":"cebpf4jnsgd1na2vs0mg"},{"bike_id":"738025fc-7584-417e-910b-f34061370de4","system_id":"levelo_inurba_marseille","lat":43.29723,"lon":5.36875,"is_reserved":false,"is_disabled":false,"rental_uris":{"android":"levelo://app?vid=738025fc-7584-417e-910b-f34061370de4","ios":"levelo://app?vid=738025fc-7584-417e-910b-f34061370de4"},"vehicle_type_id":"4","last_reported":1726060560,"current_range_meters":38400,"station_id":"","pricing_plan_id":"cebpf4jnsgd1na2vs0mg"},{"bike_id":"c6eb2f92-67da-4595-9cd4-92e131fcbac9","system_id":"levelo_inurba_marseille","lat":43.29197,"lon":5.35809,"is_reserved":false,"is_disabled":false,"rental_uris":{"android":"levelo://app?vid=c6eb2f92-67da-4595-9cd4-92e131fcbac9","ios":"levelo://app?vid=c6eb2f92-67da-4595-9cd4-92e131fcbac9"},"vehicle_type_id":"4","last_reported":1726060560,"current_range_meters":15200,"station_id":"ce4bhb12rcd13ifvqel0","pricing_plan_id":"cebpf4jnsgd1na2vs0mg"},{"bike_id":"31d0fcc0-dfac-4a5a-8401-5354cd4de80a","system_id":"levelo_inurba_marseille","lat":43.26033,"lon":5.37545,"is_reserved":false,"is_disabled":false,"rental_uris":{"android":"levelo://app?vid=31d0fcc0-dfac-4a5a-8401-5354cd4de80a","ios":"levelo://app?vid=31d0fcc0-dfac-4a5a-8401-5354cd4de80a"},"vehicle_type_id":"4","last_reported":1726060560,"current_range_meters":28000,"station_id":"ce4bhgh2rcd13ifvqfa0","pricing_plan_id":"cebpf4jnsgd1na2vs0mg"},{"bike_id":"b57b7c50-b45e-48bf-80f1-5809fd7245ab","system_id":"levelo_inurba_marseille","lat":43.26675,"lon":5.38268,"is_reserved":false,"is_disabled":false,"rental_uris":{"android":"levelo://app?vid=b57b7c50-b45e-48bf-80f1-5809fd7245ab","ios":"levelo://app?vid=b57b7c50-b45e-48bf-80f1-5809fd7245ab"},"vehicle_type_id":"4","last_reported":1726060560,"current_range_meters":38800,"station_id":"ce4bhg92rcd13ifvqf90","pricing_plan_id":"cebpf4jnsgd1na2vs0mg"},{"bike_id":"9734d854-1bee-4703-b105-c182cf679f1a","system_id":"levelo_inurba_marseille","lat":43.25934,"lon":5.40906,"is_reserved":false,"is_disabled":false,"rental_uris":{"android":"levelo://app?vid=9734d854-1bee-4703-b105-c182cf679f1a","ios":"levelo://app?vid=9734d854-1bee-4703-b105-c182cf679f1a"},"vehicle_type_id":"4","last_reported":1726060560,"current_range_meters":18800,"station_id":"ce4bhm92rcd13ifvqglg","pricing_plan_id":"cebpf4jnsgd1na2vs0mg"},{"bike_id":"1b8e2124-c9b2-450b-8e12-e90ed145db35","system_id":"levelo_inurba_marseille","lat":43.29842,"lon":5.36259,"is_reserved":false,"is_disabled":false,"rental_uris":{"android":"levelo://app?vid=1b8e2124-c9b2-450b-8e12-e90ed145db35","ios":"levelo://app?vid=1b8e2124-c9b2-450b-8e12-e90ed145db35"},"vehicle_type_id":"4","last_reported":1726060560,"current_range_meters":32800,"station_id":"ce4bgpp2rcd13ifvqc3g","pricing_plan_id":"cebpf4jnsgd1na2vs0mg"},{"bike_id":"21cea361-5fbc-4d25-8754-88823cf3e6e4","system_id":"levelo_inurba_marseille","lat":43.270875,"lon":5.42329,"is_reserved":false,"is_disabled":false,"rental_uris":{"android":"levelo://app?vid=21cea361-5fbc-4d25-8754-88823cf3e6e4","ios":"levelo://app?vid=21cea361-5fbc-4d25-8754-88823cf3e6e4"},"vehicle_type_id":"4","last_reported":1726060560,"current_range_meters":2000,"station_id":"ce4bhk92rcd13ifvqgb0","pricing_plan_id":"cebpf4jnsgd1na2vs0mg"},{"bike_id":"9dda5727-b01f-4bf9-a4bf-2752fcf88c25","system_id":"levelo_inurba_marseille","lat":43.29526,"lon":5.37516,"is_reserved":false,"is_disabled":false,"rental_uris":{"android":"levelo://app?vid=9dda5727-b01f-4bf9-a4bf-2752fcf88c25","ios":"levelo://app?vid=9dda5727-b01f-4bf9-a4bf-2752fcf88c25"},"vehicle_type_id":"4","last_reported":1726060560,"current_range_meters":36400,"station_id":"ce4bgkp2rcd13ifvqbmg","pricing_plan_id":"cebpf4jnsgd1na2vs0mg"},{"bike_id":"4c789cea-2386-47a9-a9ef-c1a5cf40547a","system_id":"levelo_inurba_marseille","lat":43.25872,"lon":5.39893,"is_reserved":false,"is_disabled":false,"rental_uris":{"android":"levelo://app?vid=4c789cea-2386-47a9-a9ef-c1a5cf40547a","ios":"levelo://app?vid=4c789cea-2386-47a9-a9ef-c1a5cf40547a"},"vehicle_type_id":"4","last_reported":1726060560,"current_range_meters":16800,"station_id":"ce4bhl92rcd13ifvqghg","pricing_plan_id":"cebpf4jnsgd1na2vs0mg"},{"bike_id":"2b3eaf02-2a2f-42cc-9533-501f1c24e525","system_id":"levelo_inurba_marseille","lat":43.26681,"lon":5.38268,"is_reserved":false,"is_disabled":false,"rental_uris":{"android":"levelo://app?vid=2b3eaf02-2a2f-42cc-9533-501f1c24e525","ios":"levelo://app?vid=2b3eaf02-2a2f-42cc-9533-501f1c24e525"},"vehicle_type_id":"4","last_reported":1726060560,"current_range_meters":19200,"station_id":"ce4bhg92rcd13ifvqf90","pricing_plan_id":"cebpf4jnsgd1na2vs0mg"},{"bike_id":"0f0894d7-2205-4192-a29f-48c116cf0184","system_id":"levelo_inurba_marseille","lat":43.30177,"lon":5.36605,"is_reserved":false,"is_disabled":false,"rental_uris":{"android":"levelo://app?vid=0f0894d7-2205-4192-a29f-48c116cf0184","ios":"levelo://app?vid=0f0894d7-2205-4192-a29f-48c116cf0184"},"vehicle_type_id":"4","last_reported":1726060560,"current_range_meters":15200,"station_id":"ce4bgrh2rcd13ifvqc8g","pricing_plan_id":"cebpf4jnsgd1na2vs0mg"},{"bike_id":"7876f957-da73-4dac-91a4-696aecd59a59","system_id":"levelo_inurba_marseille","lat":43.31787,"lon":5.38125,"is_reserved":false,"is_disabled":false,"rental_uris":{"android":"levelo://app?vid=7876f957-da73-4dac-91a4-696aecd59a59","ios":"levelo://app?vid=7876f957-da73-4dac-91a4-696aecd59a59"},"vehicle_type_id":"4","last_reported":1726060560,"current_range_meters":37600,"station_id":"","pricing_plan_id":"cebpf4jnsgd1na2vs0mg"},{"bike_id":"aaf6dc9c-0f49-4cfb-8053-0ab150017608","system_id":"levelo_inurba_marseille","lat":43.2594,"lon":5.40904,"is_reserved":false,"is_disabled":false,"rental_uris":{"android":"levelo://app?vid=aaf6dc9c-0f49-4cfb-8053-0ab150017608","ios":"levelo://app?vid=aaf6dc9c-0f49-4cfb-8053-0ab150017608"},"vehicle_type_id":"4","last_reported":1726060560,"current_range_meters":32000,"station_id":"ce4bhm92rcd13ifvqglg","pricing_plan_id":"cebpf4jnsgd1na2vs0mg"},{"bike_id":"c22bf776-82f1-423d-83f3-ab20051eb388","system_id":"levelo_inurba_marseille","lat":43.33616,"lon":5.41038,"is_reserved":false,"is_disabled":false,"rental_uris":{"android":"levelo://app?vid=c22bf776-82f1-423d-83f3-ab20051eb388","ios":"levelo://app?vid=c22bf776-82f1-423d-83f3-ab20051eb388"},"vehicle_type_id":"4","last_reported":1726060560,"current_range_meters":4400,"station_id":"ce4bhqh2rcd13ifvqhmg","pricing_plan_id":"cebpf4jnsgd1na2vs0mg"},{"bike_id":"682d6a83-4be7-4875-9582-a7844aa64b02","system_id":"levelo_inurba_marseille","lat":43.30143,"lon":5.37424,"is_reserved":false,"is_disabled":false,"rental_uris":{"android":"levelo://app?vid=682d6a83-4be7-4875-9582-a7844aa64b02","ios":"levelo://app?vid=682d6a83-4be7-4875-9582-a7844aa64b02"},"vehicle_type_id":"4","last_reported":1726060560,"current_range_meters":16000,"station_id":"ce4bgs92rcd13ifvqcc0","pricing_plan_id":"cebpf4jnsgd1na2vs0mg"},{"bike_id":"88cf5dd6-c835-4104-9def-26019de205df","system_id":"levelo_inurba_marseille","lat":43.29898,"lon":5.43671,"is_reserved":false,"is_disabled":false,"rental_uris":{"android":"levelo://app?vid=88cf5dd6-c835-4104-9def-26019de205df","ios":"levelo://app?vid=88cf5dd6-c835-4104-9def-26019de205df"},"vehicle_type_id":"4","last_reported":1726060560,"current_range_meters":34000,"station_id":"ce4bhpp2rcd13ifvqhfg","pricing_plan_id":"cebpf4jnsgd1na2vs0mg"},{"bike_id":"8658662a-6bd3-41b9-817a-b89eaf5ce44c","system_id":"levelo_inurba_marseille","lat":43.28943,"lon":5.36638,"is_reserved":false,"is_disabled":false,"rental_uris":{"android":"levelo://app?vid=8658662a-6bd3-41b9-817a-b89eaf5ce44c","ios":"levelo://app?vid=8658662a-6bd3-41b9-817a-b89eaf5ce44c"},"vehicle_type_id":"4","last_reported":1726060560,"current_range_meters":4400,"station_id":"ce4bhap2rcd13ifvqek0","pricing_plan_id":"cebpf4jnsgd1na2vs0mg"},{"bike_id":"0a399320-3934-4592-a0d7-c89b8f73fb58","system_id":"levelo_inurba_marseille","lat":43.30548,"lon":5.36707,"is_reserved":false,"is_disabled":false,"rental_uris":{"android":"levelo://app?vid=0a399320-3934-4592-a0d7-c89b8f73fb58","ios":"levelo://app?vid=0a399320-3934-4592-a0d7-c89b8f73fb58"},"vehicle_type_id":"4","last_reported":1726060560,"current_range_meters":38800,"station_id":"ce4bgrp2rcd13ifvqc9g","pricing_plan_id":"cebpf4jnsgd1na2vs0mg"},{"bike_id":"8e06870f-59b1-4019-8c4e-0fd97a649554","system_id":"levelo_inurba_marseille","lat":43.27998,"lon":5.40012,"is_reserved":false,"is_disabled":false,"rental_uris":{"android":"levelo://app?vid=8e06870f-59b1-4019-8c4e-0fd97a649554","ios":"levelo://app?vid=8e06870f-59b1-4019-8c4e-0fd97a649554"},"vehicle_type_id":"4","last_reported":1726060560,"current_range_meters":13600,"station_id":"ce4bho92rcd13ifvqh4g","pricing_plan_id":"cebpf4jnsgd1na2vs0mg"},{"bike_id":"723c073e-5c6a-4fb9-a382-e8ea44a73076","system_id":"levelo_inurba_marseille","lat":43.29558,"lon":5.42288,"is_reserved":false,"is_disabled":false,"rental_uris":{"android":"levelo://app?vid=723c073e-5c6a-4fb9-a382-e8ea44a73076","ios":"levelo://app?vid=723c073e-5c6a-4fb9-a382-e8ea44a73076"},"vehicle_type_id":"4","last_reported":1726060560,"current_range_meters":34000,"station_id":"ce4bhph2rcd13ifvqhdg","pricing_plan_id":"cebpf4jnsgd1na2vs0mg"},{"bike_id":"d3220303-2110-4419-9fed-f2c3e54cde30","system_id":"levelo_inurba_marseille","lat":43.32297,"lon":5.3825,"is_reserved":false,"is_disabled":false,"rental_uris":{"android":"levelo://app?vid=d3220303-2110-4419-9fed-f2c3e54cde30","ios":"levelo://app?vid=d3220303-2110-4419-9fed-f2c3e54cde30"},"vehicle_type_id":"4","last_reported":1726060560,"current_range_meters":2000,"station_id":"ce4bhr12rcd13ifvqhqg","pricing_plan_id":"cebpf4jnsgd1na2vs0mg"},{"bike_id":"ca83b445-f9b8-4c3b-8fbf-9f0e930b1f13","system_id":"levelo_inurba_marseille","lat":43.29845,"lon":5.36275,"is_reserved":false,"is_disabled":false,"rental_uris":{"android":"levelo://app?vid=ca83b445-f9b8-4c3b-8fbf-9f0e930b1f13","ios":"levelo://app?vid=ca83b445-f9b8-4c3b-8fbf-9f0e930b1f13"},"vehicle_type_id":"4","last_reported":1726060560,"current_range_meters":36400,"station_id":"ce4bgpp2rcd13ifvqc3g","pricing_plan_id":"cebpf4jnsgd1na2vs0mg"},{"bike_id":"0b7c9f3a-1d58-45af-9012-eec00a7be2dc","system_id":"levelo_inurba_marseille","lat":43.26023,"lon":5.3755,"is_reserved":false,"is_disabled":false,"rental_uris":{"android":"levelo://app?vid=0b7c9f3a-1d58-45af-9012-eec00a7be2dc","ios":"levelo://app?vid=0b7c9f3a-1d58-45af-9012-eec00a7be2dc"},"vehicle_type_id":"4","last_reported":1726060560,"current_range_meters":32400,"station_id":"ce4bhgh2rcd13ifvqfa0","pricing_plan_id":"cebpf4jnsgd1na2vs0mg"},{"bike_id":"47eb9b26-2e51-46f4-a126-b44f42550daa","system_id":"levelo_inurba_marseille","lat":43.30281,"lon":5.37695,"is_reserved":false,"is_disabled":false,"rental_uris":{"android":"levelo://app?vid=47eb9b26-2e51-46f4-a126-b44f42550daa","ios":"levelo://app?vid=47eb9b26-2e51-46f4-a126-b44f42550daa"},"vehicle_type_id":"4","last_reported":1726060560,"current_range_meters":11200,"station_id":"ce4bguh2rcd13ifvqcj0","pricing_plan_id":"cebpf4jnsgd1na2vs0mg"},{"bike_id":"293bda51-9576-4304-b92c-c060057bed94","system_id":"levelo_inurba_marseille","lat":43.27376,"lon":5.3625,"is_reserved":false,"is_disabled":false,"rental_uris":{"android":"levelo://app?vid=293bda51-9576-4304-b92c-c060057bed94","ios":"levelo://app?vid=293bda51-9576-4304-b92c-c060057bed94"},"vehicle_type_id":"4","last_reported":1726060560,"current_range_meters":6400,"station_id":"ce4bhbh2rcd13ifvqeo0","pricing_plan_id":"cebpf4jnsgd1na2vs0mg"},{"bike_id":"80517cc1-69f0-4d8a-98cf-1adc8526c83e","system_id":"levelo_inurba_marseille","lat":43.2439,"lon":5.37058,"is_reserved":false,"is_disabled":false,"rental_uris":{"android":"levelo://app?vid=80517cc1-69f0-4d8a-98cf-1adc8526c83e","ios":"levelo://app?vid=80517cc1-69f0-4d8a-98cf-1adc8526c83e"},"vehicle_type_id":"4","last_reported":1726060560,"current_range_meters":22400,"station_id":"ce4bhhh2rcd13ifvqfk0","pricing_plan_id":"cebpf4jnsgd1na2vs0mg"},{"bike_id":"91fce6cf-0af2-4d89-84b8-e2ab9664d9dc","system_id":"levelo_inurba_marseille","lat":43.29955,"lon":5.41323,"is_reserved":false,"is_disabled":false,"rental_uris":{"android":"levelo://app?vid=91fce6cf-0af2-4d89-84b8-e2ab9664d9dc","ios":"levelo://app?vid=91fce6cf-0af2-4d89-84b8-e2ab9664d9dc"},"vehicle_type_id":"4","last_reported":1726060560,"current_range_meters":16800,"station_id":"ce4bhp12rcd13ifvqh9g","pricing_plan_id":"cebpf4jnsgd1na2vs0mg"},{"bike_id":"152c16e5-ee8e-4575-8d12-1841d802a248","system_id":"levelo_inurba_marseille","lat":43.30409,"lon":5.4129,"is_reserved":false,"is_disabled":false,"rental_uris":{"android":"levelo://app?vid=152c16e5-ee8e-4575-8d12-1841d802a248","ios":"levelo://app?vid=152c16e5-ee8e-4575-8d12-1841d802a248"},"vehicle_type_id":"4","last_reported":1726060560,"current_range_meters":24800,"station_id":"ce4bhop2rcd13ifvqh8g","pricing_plan_id":"cebpf4jnsgd1na2vs0mg"},{"bike_id":"73b9e7db-6862-45af-a8fe-5c1dd087d721","system_id":"levelo_inurba_marseille","lat":43.28433,"lon":5.39191,"is_reserved":false,"is_disabled":false,"rental_uris":{"android":"levelo://app?vid=73b9e7db-6862-45af-a8fe-5c1dd087d721","ios":"levelo://app?vid=73b9e7db-6862-45af-a8fe-5c1dd087d721"},"vehicle_type_id":"4","last_reported":1726060560,"current_range_meters":36800,"station_id":"ce4bhoh2rcd13ifvqh5g","pricing_plan_id":"cebpf4jnsgd1na2vs0mg"},{"bike_id":"d1fc0d47-7769-454b-be6a-1c17b2b03cc9","system_id":"levelo_inurba_marseille","lat":43.29845,"lon":5.3627,"is_reserved":false,"is_disabled":false,"rental_uris":{"android":"levelo://app?vid=d1fc0d47-7769-454b-be6a-1c17b2b03cc9","ios":"levelo://app?vid=d1fc0d47-7769-454b-be6a-1c17b2b03cc9"},"vehicle_type_id":"4","last_reported":1726060560,"current_range_meters":17600,"station_id":"ce4bgpp2rcd13ifvqc3g","pricing_plan_id":"cebpf4jnsgd1na2vs0mg"},{"bike_id":"83babb1f-2d07-4a77-86df-cee59a4741b9","system_id":"levelo_inurba_marseille","lat":43.28437,"lon":5.39185,"is_reserved":false,"is_disabled":false,"rental_uris":{"android":"levelo://app?vid=83babb1f-2d07-4a77-86df-cee59a4741b9","ios":"levelo://app?vid=83babb1f-2d07-4a77-86df-cee59a4741b9"},"vehicle_type_id":"4","last_reported":1726060560,"current_range_meters":35600,"station_id":"ce4bhoh2rcd13ifvqh5g","pricing_plan_id":"cebpf4jnsgd1na2vs0mg"},{"bike_id":"75247513-4891-4114-a6d8-ba68393e79f0","system_id":"levelo_inurba_marseille","lat":43.29581,"lon":5.36745,"is_reserved":false,"is_disabled":false,"rental_uris":{"android":"levelo://app?vid=75247513-4891-4114-a6d8-ba68393e79f0","ios":"levelo://app?vid=75247513-4891-4114-a6d8-ba68393e79f0"},"vehicle_type_id":"4","last_reported":1726060560,"current_range_meters":15200,"station_id":"ce4bgph2rcd13ifvqc2g","pricing_plan_id":"cebpf4jnsgd1na2vs0mg"},{"bike_id":"df5bd83d-06d4-432f-83c4-381810e7a4a9","system_id":"levelo_inurba_marseille","lat":43.25931,"lon":5.40907,"is_reserved":false,"is_disabled":false,"rental_uris":{"android":"levelo://app?vid=df5bd83d-06d4-432f-83c4-381810e7a4a9","ios":"levelo://app?vid=df5bd83d-06d4-432f-83c4-381810e7a4a9"},"vehicle_type_id":"4","last_reported":1726060560,"current_range_meters":28000,"station_id":"ce4bhm92rcd13ifvqglg","pricing_plan_id":"cebpf4jnsgd1na2vs0mg"},{"bike_id":"dd7f6df3-46e6-4f22-b872-d4de8dbafbeb","system_id":"levelo_inurba_marseille","lat":43.28274,"lon":5.35071,"is_reserved":false,"is_disabled":false,"rental_uris":{"android":"levelo://app?vid=dd7f6df3-46e6-4f22-b872-d4de8dbafbeb","ios":"levelo://app?vid=dd7f6df3-46e6-4f22-b872-d4de8dbafbeb"},"vehicle_type_id":"4","last_reported":1726060560,"current_range_meters":25200,"station_id":"ce4bhbp2rcd13ifvqerg","pricing_plan_id":"cebpf4jnsgd1na2vs0mg"},{"bike_id":"7aa18b5b-8b89-4c08-88a2-7fd674fad53a","system_id":"levelo_inurba_marseille","lat":43.290325,"lon":5.373194,"is_reserved":false,"is_disabled":false,"rental_uris":{"android":"levelo://app?vid=7aa18b5b-8b89-4c08-88a2-7fd674fad53a","ios":"levelo://app?vid=7aa18b5b-8b89-4c08-88a2-7fd674fad53a"},"vehicle_type_id":"4","last_reported":1726060560,"current_range_meters":34800,"station_id":"ce4bha92rcd13ifvqeh0","pricing_plan_id":"cebpf4jnsgd1na2vs0mg"},{"bike_id":"76d950e4-d6f6-43f4-8308-cae38f4f2ae1","system_id":"levelo_inurba_marseille","lat":43.24806,"lon":5.37452,"is_reserved":false,"is_disabled":false,"rental_uris":{"android":"levelo://app?vid=76d950e4-d6f6-43f4-8308-cae38f4f2ae1","ios":"levelo://app?vid=76d950e4-d6f6-43f4-8308-cae38f4f2ae1"},"vehicle_type_id":"4","last_reported":1726060560,"current_range_meters":9200,"station_id":"ce4bhgh2rcd13ifvqfb0","pricing_plan_id":"cebpf4jnsgd1na2vs0mg"},{"bike_id":"83904cee-86b0-4594-9c63-f32a99a8097f","system_id":"levelo_inurba_marseille","lat":43.24996,"lon":5.3893,"is_reserved":false,"is_disabled":false,"rental_uris":{"android":"levelo://app?vid=83904cee-86b0-4594-9c63-f32a99a8097f","ios":"levelo://app?vid=83904cee-86b0-4594-9c63-f32a99a8097f"},"vehicle_type_id":"4","last_reported":1726060560,"current_range_meters":24000,"station_id":"ce4bhgp2rcd13ifvqfd0","pricing_plan_id":"cebpf4jnsgd1na2vs0mg"},{"bike_id":"6c43cd55-37f3-4756-bb08-2e86df986fae","system_id":"levelo_inurba_marseille","lat":43.29415,"lon":5.38624,"is_reserved":false,"is_disabled":false,"rental_uris":{"android":"levelo://app?vid=6c43cd55-37f3-4756-bb08-2e86df986fae","ios":"levelo://app?vid=6c43cd55-37f3-4756-bb08-2e86df986fae"},"vehicle_type_id":"4","last_reported":1726060560,"current_range_meters":10800,"station_id":"ce4bh2h2rcd13ifvqdh0","pricing_plan_id":"cebpf4jnsgd1na2vs0mg"},{"bike_id":"a0606a82-da9a-459f-a2d6-17d2b2dd5edc","system_id":"levelo_inurba_marseille","lat":43.29594,"lon":5.38093,"is_reserved":false,"is_disabled":false,"rental_uris":{"android":"levelo://app?vid=a0606a82-da9a-459f-a2d6-17d2b2dd5edc","ios":"levelo://app?vid=a0606a82-da9a-459f-a2d6-17d2b2dd5edc"},"vehicle_type_id":"4","last_reported":1726060560,"current_range_meters":26000,"station_id":"ce4bgl12rcd13ifvqbo0","pricing_plan_id":"cebpf4jnsgd1na2vs0mg"},{"bike_id":"74d7f432-f596-45ae-b14d-0ddc7f8a62f6","system_id":"levelo_inurba_marseille","lat":43.23147,"lon":5.43715,"is_reserved":false,"is_disabled":false,"rental_uris":{"android":"levelo://app?vid=74d7f432-f596-45ae-b14d-0ddc7f8a62f6","ios":"levelo://app?vid=74d7f432-f596-45ae-b14d-0ddc7f8a62f6"},"vehicle_type_id":"4","last_reported":1726060560,"current_range_meters":8000,"station_id":"ce4bhmp2rcd13ifvqgog","pricing_plan_id":"cebpf4jnsgd1na2vs0mg"},{"bike_id":"2958f99e-1d9a-4e2c-be3e-eed7fc3e01c7","system_id":"levelo_inurba_marseille","lat":43.29886,"lon":5.38892,"is_reserved":false,"is_disabled":false,"rental_uris":{"android":"levelo://app?vid=2958f99e-1d9a-4e2c-be3e-eed7fc3e01c7","ios":"levelo://app?vid=2958f99e-1d9a-4e2c-be3e-eed7fc3e01c7"},"vehicle_type_id":"4","last_reported":1726060560,"current_range_meters":23200,"station_id":"ce4bh392rcd13ifvqdl0","pricing_plan_id":"cebpf4jnsgd1na2vs0mg"},{"bike_id":"c9f2f83d-6815-4c21-848a-e106ac514083","system_id":"levelo_inurba_marseille","lat":43.28309,"lon":5.35044,"is_reserved":false,"is_disabled":false,"rental_uris":{"android":"levelo://app?vid=c9f2f83d-6815-4c21-848a-e106ac514083","ios":"levelo://app?vid=c9f2f83d-6815-4c21-848a-e106ac514083"},"vehicle_type_id":"4","last_reported":1726060560,"current_range_meters":27200,"station_id":"","pricing_plan_id":"cebpf4jnsgd1na2vs0mg"},{"bike_id":"061e76f9-f2be-48ca-bb2d-f66e7a7deb78","system_id":"levelo_inurba_marseille","lat":43.27176,"lon":5.409957,"is_reserved":false,"is_disabled":false,"rental_uris":{"android":"levelo://app?vid=061e76f9-f2be-48ca-bb2d-f66e7a7deb78","ios":"levelo://app?vid=061e76f9-f2be-48ca-bb2d-f66e7a7deb78"},"vehicle_type_id":"4","last_reported":1726060560,"current_range_meters":27600,"station_id":"ce4bhkp2rcd13ifvqgd0","pricing_plan_id":"cebpf4jnsgd1na2vs0mg"},{"bike_id":"61d10651-34f0-45d3-adaa-6b70f0a02add","system_id":"levelo_inurba_marseille","lat":43.28607,"lon":5.3706,"is_reserved":false,"is_disabled":false,"rental_uris":{"android":"levelo://app?vid=61d10651-34f0-45d3-adaa-6b70f0a02add","ios":"levelo://app?vid=61d10651-34f0-45d3-adaa-6b70f0a02add"},"vehicle_type_id":"4","last_reported":1726060560,"current_range_meters":2000,"station_id":"ce4bht12rcd13ifvqi60","pricing_plan_id":"cebpf4jnsgd1na2vs0mg"},{"bike_id":"883adf4f-9822-48e8-9c16-82ae0dbc702a","system_id":"levelo_inurba_marseille","lat":43.2315,"lon":5.43702,"is_reserved":false,"is_disabled":false,"rental_uris":{"android":"levelo://app?vid=883adf4f-9822-48e8-9c16-82ae0dbc702a","ios":"levelo://app?vid=883adf4f-9822-48e8-9c16-82ae0dbc702a"},"vehicle_type_id":"4","last_reported":1726060560,"current_range_meters":8400,"station_id":"ce4bhmp2rcd13ifvqgog","pricing_plan_id":"cebpf4jnsgd1na2vs0mg"},{"bike_id":"7dcd8fcd-6a55-496a-8a72-6799b3b822ef","system_id":"levelo_inurba_marseille","lat":43.28266,"lon":5.35063,"is_reserved":false,"is_disabled":false,"rental_uris":{"android":"levelo://app?vid=7dcd8fcd-6a55-496a-8a72-6799b3b822ef","ios":"levelo://app?vid=7dcd8fcd-6a55-496a-8a72-6799b3b822ef"},"vehicle_type_id":"4","last_reported":1726060560,"current_range_meters":29600,"station_id":"ce4bhbp2rcd13ifvqerg","pricing_plan_id":"cebpf4jnsgd1na2vs0mg"},{"bike_id":"2f76df8b-eb6b-4d70-84b1-33bec47ddb41","system_id":"levelo_inurba_marseille","lat":43.28935,"lon":5.36632,"is_reserved":false,"is_disabled":false,"rental_uris":{"android":"levelo://app?vid=2f76df8b-eb6b-4d70-84b1-33bec47ddb41","ios":"levelo://app?vid=2f76df8b-eb6b-4d70-84b1-33bec47ddb41"},"vehicle_type_id":"4","last_reported":1726060560,"current_range_meters":27200,"station_id":"ce4bhap2rcd13ifvqek0","pricing_plan_id":"cebpf4jnsgd1na2vs0mg"},{"bike_id":"e6f96de0-61ec-4748-a734-8c2cacbee67f","system_id":"levelo_inurba_marseille","lat":43.23053,"lon":5.35486,"is_reserved":false,"is_disabled":false,"rental_uris":{"android":"levelo://app?vid=e6f96de0-61ec-4748-a734-8c2cacbee67f","ios":"levelo://app?vid=e6f96de0-61ec-4748-a734-8c2cacbee67f"},"vehicle_type_id":"4","last_reported":1726060560,"current_range_meters":6000,"station_id":"cpo3342slgdg3j2ifvpg","pricing_plan_id":"cebpf4jnsgd1na2vs0mg"},{"bike_id":"9a3c6365-df00-48f6-9220-61b0c5e00a7f","system_id":"levelo_inurba_marseille","lat":43.28437,"lon":5.39175,"is_reserved":false,"is_disabled":false,"rental_uris":{"android":"levelo://app?vid=9a3c6365-df00-48f6-9220-61b0c5e00a7f","ios":"levelo://app?vid=9a3c6365-df00-48f6-9220-61b0c5e00a7f"},"vehicle_type_id":"4","last_reported":1726060560,"current_range_meters":23200,"station_id":"ce4bhoh2rcd13ifvqh5g","pricing_plan_id":"cebpf4jnsgd1na2vs0mg"},{"bike_id":"21bb7d15-b723-47f3-a23b-794b241b4832","system_id":"levelo_inurba_marseille","lat":43.29539,"lon":5.39046,"is_reserved":false,"is_disabled":false,"rental_uris":{"android":"levelo://app?vid=21bb7d15-b723-47f3-a23b-794b241b4832","ios":"levelo://app?vid=21bb7d15-b723-47f3-a23b-794b241b4832"},"vehicle_type_id":"4","last_reported":1726060560,"current_range_meters":30400,"station_id":"ce4bh3p2rcd13ifvqdp0","pricing_plan_id":"cebpf4jnsgd1na2vs0mg"},{"bike_id":"638343ce-15e7-4192-b8b3-9dbbe2d9e121","system_id":"levelo_inurba_marseille","lat":43.27184,"lon":5.40996,"is_reserved":false,"is_disabled":false,"rental_uris":{"android":"levelo://app?vid=638343ce-15e7-4192-b8b3-9dbbe2d9e121","ios":"levelo://app?vid=638343ce-15e7-4192-b8b3-9dbbe2d9e121"},"vehicle_type_id":"4","last_reported":1726060560,"current_range_meters":36000,"station_id":"ce4bhl12rcd13ifvqgf0","pricing_plan_id":"cebpf4jnsgd1na2vs0mg"},{"bike_id":"0ee0248a-557b-4a88-bff1-38c070193c49","system_id":"levelo_inurba_marseille","lat":43.27622,"lon":5.36107,"is_reserved":false,"is_disabled":false,"rental_uris":{"android":"levelo://app?vid=0ee0248a-557b-4a88-bff1-38c070193c49","ios":"levelo://app?vid=0ee0248a-557b-4a88-bff1-38c070193c49"},"vehicle_type_id":"4","last_reported":1726060560,"current_range_meters":7200,"station_id":"ce4bgj92rcd13ifvqbe0","pricing_plan_id":"cebpf4jnsgd1na2vs0mg"},{"bike_id":"3b163329-75e0-42ce-a395-e2936b5dfbec","system_id":"levelo_inurba_marseille","lat":43.29556,"lon":5.42274,"is_reserved":false,"is_disabled":false,"rental_uris":{"android":"levelo://app?vid=3b163329-75e0-42ce-a395-e2936b5dfbec","ios":"levelo://app?vid=3b163329-75e0-42ce-a395-e2936b5dfbec"},"vehicle_type_id":"4","last_reported":1726060560,"current_range_meters":30400,"station_id":"ce4bhph2rcd13ifvqhdg","pricing_plan_id":"cebpf4jnsgd1na2vs0mg"},{"bike_id":"f0974e9a-31a3-4c17-841c-57224836aa7a","system_id":"levelo_inurba_marseille","lat":43.24183,"lon":5.3972,"is_reserved":false,"is_disabled":false,"rental_uris":{"android":"levelo://app?vid=f0974e9a-31a3-4c17-841c-57224836aa7a","ios":"levelo://app?vid=f0974e9a-31a3-4c17-841c-57224836aa7a"},"vehicle_type_id":"4","last_reported":1726060560,"current_range_meters":23200,"station_id":"ce4bhn12rcd13ifvqgpg","pricing_plan_id":"cebpf4jnsgd1na2vs0mg"},{"bike_id":"a908c644-9617-49ec-b030-11c8075a259a","system_id":"levelo_inurba_marseille","lat":43.30134,"lon":5.38776,"is_reserved":false,"is_disabled":false,"rental_uris":{"android":"levelo://app?vid=a908c644-9617-49ec-b030-11c8075a259a","ios":"levelo://app?vid=a908c644-9617-49ec-b030-11c8075a259a"},"vehicle_type_id":"4","last_reported":1726060560,"current_range_meters":17200,"station_id":"ce4bghh2rcd13ifvqb60","pricing_plan_id":"cebpf4jnsgd1na2vs0mg"},{"bike_id":"2f886a15-37e4-4dad-86c7-a7a6746278bd","system_id":"levelo_inurba_marseille","lat":43.25941,"lon":5.40901,"is_reserved":false,"is_disabled":false,"rental_uris":{"android":"levelo://app?vid=2f886a15-37e4-4dad-86c7-a7a6746278bd","ios":"levelo://app?vid=2f886a15-37e4-4dad-86c7-a7a6746278bd"},"vehicle_type_id":"4","last_reported":1726060560,"current_range_meters":32800,"station_id":"ce4bhm92rcd13ifvqglg","pricing_plan_id":"cebpf4jnsgd1na2vs0mg"},{"bike_id":"20547774-71f7-4252-b5d7-108a3631026c","system_id":"levelo_inurba_marseille","lat":43.337444,"lon":5.374475,"is_reserved":false,"is_disabled":false,"rental_uris":{"android":"levelo://app?vid=20547774-71f7-4252-b5d7-108a3631026c","ios":"levelo://app?vid=20547774-71f7-4252-b5d7-108a3631026c"},"vehicle_type_id":"4","last_reported":1726060560,"current_range_meters":19600,"station_id":"ce4bh3p2rcd13ifvqdp0","pricing_plan_id":"cebpf4jnsgd1na2vs0mg"},{"bike_id":"903a17fc-6d51-47bc-8223-972952786bdc","system_id":"levelo_inurba_marseille","lat":43.2319,"lon":5.3999,"is_reserved":false,"is_disabled":false,"rental_uris":{"android":"levelo://app?vid=903a17fc-6d51-47bc-8223-972952786bdc","ios":"levelo://app?vid=903a17fc-6d51-47bc-8223-972952786bdc"},"vehicle_type_id":"4","last_reported":1726060560,"current_range_meters":17200,"station_id":"ce4bhn12rcd13ifvqgqg","pricing_plan_id":"cebpf4jnsgd1na2vs0mg"},{"bike_id":"12e74b20-5078-4c0a-be57-68ea4374248f","system_id":"levelo_inurba_marseille","lat":43.25087,"lon":5.39517,"is_reserved":false,"is_disabled":false,"rental_uris":{"android":"levelo://app?vid=12e74b20-5078-4c0a-be57-68ea4374248f","ios":"levelo://app?vid=12e74b20-5078-4c0a-be57-68ea4374248f"},"vehicle_type_id":"4","last_reported":1726060560,"current_range_meters":23200,"station_id":"ce4bhm12rcd13ifvqgkg","pricing_plan_id":"cebpf4jnsgd1na2vs0mg"},{"bike_id":"4eb5cf07-a838-47ac-bfa9-94266ba671b6","system_id":"levelo_inurba_marseille","lat":43.25087,"lon":5.39516,"is_reserved":false,"is_disabled":false,"rental_uris":{"android":"levelo://app?vid=4eb5cf07-a838-47ac-bfa9-94266ba671b6","ios":"levelo://app?vid=4eb5cf07-a838-47ac-bfa9-94266ba671b6"},"vehicle_type_id":"4","last_reported":1726060560,"current_range_meters":18000,"station_id":"ce4bhm12rcd13ifvqgkg","pricing_plan_id":"cebpf4jnsgd1na2vs0mg"},{"bike_id":"f79e3e3e-af90-4df5-89a9-af3e404aa592","system_id":"levelo_inurba_marseille","lat":43.3046,"lon":5.37897,"is_reserved":false,"is_disabled":false,"rental_uris":{"android":"levelo://app?vid=f79e3e3e-af90-4df5-89a9-af3e404aa592","ios":"levelo://app?vid=f79e3e3e-af90-4df5-89a9-af3e404aa592"},"vehicle_type_id":"4","last_reported":1726060560,"current_range_meters":2000,"station_id":"ce4bgup2rcd13ifvqcn0","pricing_plan_id":"cebpf4jnsgd1na2vs0mg"},{"bike_id":"0d78d25f-2501-4ffb-b495-6cd64f4c7d8f","system_id":"levelo_inurba_marseille","lat":43.24178,"lon":5.39727,"is_reserved":false,"is_disabled":false,"rental_uris":{"android":"levelo://app?vid=0d78d25f-2501-4ffb-b495-6cd64f4c7d8f","ios":"levelo://app?vid=0d78d25f-2501-4ffb-b495-6cd64f4c7d8f"},"vehicle_type_id":"4","last_reported":1726060560,"current_range_meters":19200,"station_id":"ce4bhn12rcd13ifvqgpg","pricing_plan_id":"cebpf4jnsgd1na2vs0mg"},{"bike_id":"daab6d33-1de9-4536-9c3f-112d06fe3b1b","system_id":"levelo_inurba_marseille","lat":43.28437,"lon":5.39182,"is_reserved":false,"is_disabled":false,"rental_uris":{"android":"levelo://app?vid=daab6d33-1de9-4536-9c3f-112d06fe3b1b","ios":"levelo://app?vid=daab6d33-1de9-4536-9c3f-112d06fe3b1b"},"vehicle_type_id":"4","last_reported":1726060560,"current_range_meters":26800,"station_id":"ce4bhoh2rcd13ifvqh5g","pricing_plan_id":"cebpf4jnsgd1na2vs0mg"},{"bike_id":"183f1e2e-2cf8-4b28-8a17-5a4c8ed08f98","system_id":"levelo_inurba_marseille","lat":43.2619,"lon":5.37447,"is_reserved":false,"is_disabled":false,"rental_uris":{"android":"levelo://app?vid=183f1e2e-2cf8-4b28-8a17-5a4c8ed08f98","ios":"levelo://app?vid=183f1e2e-2cf8-4b28-8a17-5a4c8ed08f98"},"vehicle_type_id":"4","last_reported":1726060560,"current_range_meters":33200,"station_id":"ce4bhgp2rcd13ifvqfc0","pricing_plan_id":"cebpf4jnsgd1na2vs0mg"},{"bike_id":"7f644953-d37d-434f-a7da-6b8daa78880d","system_id":"levelo_inurba_marseille","lat":43.30797,"lon":5.38159,"is_reserved":false,"is_disabled":false,"rental_uris":{"android":"levelo://app?vid=7f644953-d37d-434f-a7da-6b8daa78880d","ios":"levelo://app?vid=7f644953-d37d-434f-a7da-6b8daa78880d"},"vehicle_type_id":"4","last_reported":1726060560,"current_range_meters":2000,"station_id":"ce4bgt12rcd13ifvqce0","pricing_plan_id":"cebpf4jnsgd1na2vs0mg"},{"bike_id":"0b5b73e0-1f1c-43e5-8f2c-e51bc18db214","system_id":"levelo_inurba_marseille","lat":43.31162,"lon":5.38717,"is_reserved":false,"is_disabled":false,"rental_uris":{"android":"levelo://app?vid=0b5b73e0-1f1c-43e5-8f2c-e51bc18db214","ios":"levelo://app?vid=0b5b73e0-1f1c-43e5-8f2c-e51bc18db214"},"vehicle_type_id":"4","last_reported":1726060560,"current_range_meters":24000,"station_id":"ce4bgv12rcd13ifvqcp0","pricing_plan_id":"cebpf4jnsgd1na2vs0mg"},{"bike_id":"029ed587-7143-4da0-8f95-3789bd767cf3","system_id":"levelo_inurba_marseille","lat":43.28856,"lon":5.35848,"is_reserved":false,"is_disabled":false,"rental_uris":{"android":"levelo://app?vid=029ed587-7143-4da0-8f95-3789bd767cf3","ios":"levelo://app?vid=029ed587-7143-4da0-8f95-3789bd767cf3"},"vehicle_type_id":"4","last_reported":1726060560,"current_range_meters":31200,"station_id":"ce4bhb12rcd13ifvqem0","pricing_plan_id":"cebpf4jnsgd1na2vs0mg"},{"bike_id":"37d8c39f-1cdd-4f24-9274-2d093441df6e","system_id":"levelo_inurba_marseille","lat":43.31228,"lon":5.3685,"is_reserved":false,"is_disabled":false,"rental_uris":{"android":"levelo://app?vid=37d8c39f-1cdd-4f24-9274-2d093441df6e","ios":"levelo://app?vid=37d8c39f-1cdd-4f24-9274-2d093441df6e"},"vehicle_type_id":"4","last_reported":1726060560,"current_range_meters":30000,"station_id":"","pricing_plan_id":"cebpf4jnsgd1na2vs0mg"},{"bike_id":"1fa994aa-0442-4f93-9f86-820c01823ea5","system_id":"levelo_inurba_marseille","lat":43.33607,"lon":5.41033,"is_reserved":false,"is_disabled":false,"rental_uris":{"android":"levelo://app?vid=1fa994aa-0442-4f93-9f86-820c01823ea5","ios":"levelo://app?vid=1fa994aa-0442-4f93-9f86-820c01823ea5"},"vehicle_type_id":"4","last_reported":1726060560,"current_range_meters":17200,"station_id":"ce4bhqh2rcd13ifvqhmg","pricing_plan_id":"cebpf4jnsgd1na2vs0mg"},{"bike_id":"853e41cf-d448-405b-a47e-b170c8731ca1","system_id":"levelo_inurba_marseille","lat":43.30546,"lon":5.36535,"is_reserved":false,"is_disabled":false,"rental_uris":{"android":"levelo://app?vid=853e41cf-d448-405b-a47e-b170c8731ca1","ios":"levelo://app?vid=853e41cf-d448-405b-a47e-b170c8731ca1"},"vehicle_type_id":"4","last_reported":1726060560,"current_range_meters":36800,"station_id":"ce4bgs12rcd13ifvqcag","pricing_plan_id":"cebpf4jnsgd1na2vs0mg"},{"bike_id":"dd2d66a6-976d-43e6-83be-d6211ff78acc","system_id":"levelo_inurba_marseille","lat":43.33723,"lon":5.39175,"is_reserved":false,"is_disabled":false,"rental_uris":{"android":"levelo://app?vid=dd2d66a6-976d-43e6-83be-d6211ff78acc","ios":"levelo://app?vid=dd2d66a6-976d-43e6-83be-d6211ff78acc"},"vehicle_type_id":"4","last_reported":1726060560,"current_range_meters":16800,"station_id":"ce4bhr92rcd13ifvqhsg","pricing_plan_id":"cebpf4jnsgd1na2vs0mg"},{"bike_id":"22790256-ccac-496a-a45b-454ea8ae2c37","system_id":"levelo_inurba_marseille","lat":43.2318,"lon":5.39988,"is_reserved":false,"is_disabled":false,"rental_uris":{"android":"levelo://app?vid=22790256-ccac-496a-a45b-454ea8ae2c37","ios":"levelo://app?vid=22790256-ccac-496a-a45b-454ea8ae2c37"},"vehicle_type_id":"4","last_reported":1726060560,"current_range_meters":3600,"station_id":"ce4bhn12rcd13ifvqgqg","pricing_plan_id":"cebpf4jnsgd1na2vs0mg"},{"bike_id":"ca333844-ed11-4e92-b488-e3f7c1538794","system_id":"levelo_inurba_marseille","lat":43.23194,"lon":5.35553,"is_reserved":false,"is_disabled":false,"rental_uris":{"android":"levelo://app?vid=ca333844-ed11-4e92-b488-e3f7c1538794","ios":"levelo://app?vid=ca333844-ed11-4e92-b488-e3f7c1538794"},"vehicle_type_id":"4","last_reported":1726060560,"current_range_meters":30400,"station_id":"ce4bhu92rcd13ifvqi70","pricing_plan_id":"cebpf4jnsgd1na2vs0mg"},{"bike_id":"a6a6c0ad-fb47-421e-ab4f-898cc77ab646","system_id":"levelo_inurba_marseille","lat":43.23153,"lon":5.43713,"is_reserved":false,"is_disabled":false,"rental_uris":{"android":"levelo://app?vid=a6a6c0ad-fb47-421e-ab4f-898cc77ab646","ios":"levelo://app?vid=a6a6c0ad-fb47-421e-ab4f-898cc77ab646"},"vehicle_type_id":"4","last_reported":1726060560,"current_range_meters":20400,"station_id":"ce4bhmp2rcd13ifvqgog","pricing_plan_id":"cebpf4jnsgd1na2vs0mg"},{"bike_id":"602fff75-8e2b-4ac9-8bcc-0430c7eaa0fd","system_id":"levelo_inurba_marseille","lat":43.29002,"lon":5.35616,"is_reserved":false,"is_disabled":false,"rental_uris":{"android":"levelo://app?vid=602fff75-8e2b-4ac9-8bcc-0430c7eaa0fd","ios":"levelo://app?vid=602fff75-8e2b-4ac9-8bcc-0430c7eaa0fd"},"vehicle_type_id":"4","last_reported":1726060560,"current_range_meters":10800,"station_id":"ce4bhb92rcd13ifvqen0","pricing_plan_id":"cebpf4jnsgd1na2vs0mg"},{"bike_id":"fccc0399-67f2-41d7-a724-e3e87408a384","system_id":"levelo_inurba_marseille","lat":43.30092,"lon":5.39081,"is_reserved":false,"is_disabled":false,"rental_uris":{"android":"levelo://app?vid=fccc0399-67f2-41d7-a724-e3e87408a384","ios":"levelo://app?vid=fccc0399-67f2-41d7-a724-e3e87408a384"},"vehicle_type_id":"4","last_reported":1726060560,"current_range_meters":22800,"station_id":"ce4bh192rcd13ifvqdb0","pricing_plan_id":"cebpf4jnsgd1na2vs0mg"},{"bike_id":"0f2d9545-5626-4769-9f71-a87a485602bf","system_id":"levelo_inurba_marseille","lat":43.3254,"lon":5.41443,"is_reserved":false,"is_disabled":false,"rental_uris":{"android":"levelo://app?vid=0f2d9545-5626-4769-9f71-a87a485602bf","ios":"levelo://app?vid=0f2d9545-5626-4769-9f71-a87a485602bf"},"vehicle_type_id":"4","last_reported":1726060560,"current_range_meters":9200,"station_id":"ce4bhq12rcd13ifvqhhg","pricing_plan_id":"cebpf4jnsgd1na2vs0mg"},{"bike_id":"e452e1b8-d0e1-47c2-addc-79fdbad57b35","system_id":"levelo_inurba_marseille","lat":43.30425,"lon":5.39746,"is_reserved":false,"is_disabled":false,"rental_uris":{"android":"levelo://app?vid=e452e1b8-d0e1-47c2-addc-79fdbad57b35","ios":"levelo://app?vid=e452e1b8-d0e1-47c2-addc-79fdbad57b35"},"vehicle_type_id":"4","last_reported":1726060560,"current_range_meters":38800,"station_id":"ce4bh092rcd13ifvqd20","pricing_plan_id":"cebpf4jnsgd1na2vs0mg"},{"bike_id":"5876c5ef-9fac-478d-bd3c-ea1780c21005","system_id":"levelo_inurba_marseille","lat":43.33755,"lon":5.37446,"is_reserved":false,"is_disabled":false,"rental_uris":{"android":"levelo://app?vid=5876c5ef-9fac-478d-bd3c-ea1780c21005","ios":"levelo://app?vid=5876c5ef-9fac-478d-bd3c-ea1780c21005"},"vehicle_type_id":"4","last_reported":1726060560,"current_range_meters":38400,"station_id":"","pricing_plan_id":"cebpf4jnsgd1na2vs0mg"},{"bike_id":"3ef293cb-6b10-47c2-a61b-1c747b67c2aa","system_id":"levelo_inurba_marseille","lat":43.22929,"lon":5.35378,"is_reserved":false,"is_disabled":false,"rental_uris":{"android":"levelo://app?vid=3ef293cb-6b10-47c2-a61b-1c747b67c2aa","ios":"levelo://app?vid=3ef293cb-6b10-47c2-a61b-1c747b67c2aa"},"vehicle_type_id":"4","last_reported":1726060560,"current_range_meters":35600,"station_id":"cpo3532slgdg3j2ikp40","pricing_plan_id":"cebpf4jnsgd1na2vs0mg"},{"bike_id":"30126b3d-9140-42ff-adb8-6b8c78049093","system_id":"levelo_inurba_marseille","lat":43.28457,"lon":5.34961,"is_reserved":false,"is_disabled":false,"rental_uris":{"android":"levelo://app?vid=30126b3d-9140-42ff-adb8-6b8c78049093","ios":"levelo://app?vid=30126b3d-9140-42ff-adb8-6b8c78049093"},"vehicle_type_id":"4","last_reported":1726060560,"current_range_meters":36400,"station_id":"","pricing_plan_id":"cebpf4jnsgd1na2vs0mg"},{"bike_id":"482aab35-5abe-410e-8552-3c3e28707da3","system_id":"levelo_inurba_marseille","lat":43.30958,"lon":5.39032,"is_reserved":false,"is_disabled":false,"rental_uris":{"android":"levelo://app?vid=482aab35-5abe-410e-8552-3c3e28707da3","ios":"levelo://app?vid=482aab35-5abe-410e-8552-3c3e28707da3"},"vehicle_type_id":"4","last_reported":1726060560,"current_range_meters":35200,"station_id":"ce4bgup2rcd13ifvqco0","pricing_plan_id":"cebpf4jnsgd1na2vs0mg"},{"bike_id":"1f760f8e-a6ab-47e4-81b2-36b156d4f3d5","system_id":"levelo_inurba_marseille","lat":43.305995,"lon":5.372338,"is_reserved":false,"is_disabled":false,"rental_uris":{"android":"levelo://app?vid=1f760f8e-a6ab-47e4-81b2-36b156d4f3d5","ios":"levelo://app?vid=1f760f8e-a6ab-47e4-81b2-36b156d4f3d5"},"vehicle_type_id":"4","last_reported":1726060560,"current_range_meters":8000,"station_id":"ce4bgqh2rcd13ifvqc4g","pricing_plan_id":"cebpf4jnsgd1na2vs0mg"},{"bike_id":"993c4f0e-3eac-469b-bc70-94ad2a6a43e5","system_id":"levelo_inurba_marseille","lat":43.29956,"lon":5.41319,"is_reserved":false,"is_disabled":false,"rental_uris":{"android":"levelo://app?vid=993c4f0e-3eac-469b-bc70-94ad2a6a43e5","ios":"levelo://app?vid=993c4f0e-3eac-469b-bc70-94ad2a6a43e5"},"vehicle_type_id":"4","last_reported":1726060560,"current_range_meters":26000,"station_id":"ce4bhp12rcd13ifvqh9g","pricing_plan_id":"cebpf4jnsgd1na2vs0mg"},{"bike_id":"b8f17ae2-fb03-47a3-b242-9374292bf127","system_id":"levelo_inurba_marseille","lat":43.3149,"lon":5.37304,"is_reserved":false,"is_disabled":false,"rental_uris":{"android":"levelo://app?vid=b8f17ae2-fb03-47a3-b242-9374292bf127","ios":"levelo://app?vid=b8f17ae2-fb03-47a3-b242-9374292bf127"},"vehicle_type_id":"4","last_reported":1726060560,"current_range_meters":24000,"station_id":"ce4bgt12rcd13ifvqcd0","pricing_plan_id":"cebpf4jnsgd1na2vs0mg"},{"bike_id":"89c50d6b-3a9a-45c5-ab8a-25e70d260e74","system_id":"levelo_inurba_marseille","lat":43.29898,"lon":5.38155,"is_reserved":false,"is_disabled":false,"rental_uris":{"android":"levelo://app?vid=89c50d6b-3a9a-45c5-ab8a-25e70d260e74","ios":"levelo://app?vid=89c50d6b-3a9a-45c5-ab8a-25e70d260e74"},"vehicle_type_id":"4","last_reported":1726060560,"current_range_meters":34000,"station_id":"ce4bgj12rcd13ifvqbc0","pricing_plan_id":"cebpf4jnsgd1na2vs0mg"},{"bike_id":"9ecc2991-25b1-43d8-8253-10b99fac0036","system_id":"levelo_inurba_marseille","lat":43.30548,"lon":5.36523,"is_reserved":false,"is_disabled":false,"rental_uris":{"android":"levelo://app?vid=9ecc2991-25b1-43d8-8253-10b99fac0036","ios":"levelo://app?vid=9ecc2991-25b1-43d8-8253-10b99fac0036"},"vehicle_type_id":"4","last_reported":1726060560,"current_range_meters":34800,"station_id":"ce4bgs12rcd13ifvqcag","pricing_plan_id":"cebpf4jnsgd1na2vs0mg"},{"bike_id":"e80aca27-bc03-4d4c-ad3d-9f1df805aa08","system_id":"levelo_inurba_marseille","lat":43.23966,"lon":5.36636,"is_reserved":false,"is_disabled":false,"rental_uris":{"android":"levelo://app?vid=e80aca27-bc03-4d4c-ad3d-9f1df805aa08","ios":"levelo://app?vid=e80aca27-bc03-4d4c-ad3d-9f1df805aa08"},"vehicle_type_id":"4","last_reported":1726060560,"current_range_meters":3600,"station_id":"ce4bhi12rcd13ifvqfp0","pricing_plan_id":"cebpf4jnsgd1na2vs0mg"},{"bike_id":"c9da0774-0680-4020-bb36-e88fbe984bd3","system_id":"levelo_inurba_marseille","lat":43.28438,"lon":5.3918,"is_reserved":false,"is_disabled":false,"rental_uris":{"android":"levelo://app?vid=c9da0774-0680-4020-bb36-e88fbe984bd3","ios":"levelo://app?vid=c9da0774-0680-4020-bb36-e88fbe984bd3"},"vehicle_type_id":"4","last_reported":1726060560,"current_range_meters":12000,"station_id":"ce4bhoh2rcd13ifvqh5g","pricing_plan_id":"cebpf4jnsgd1na2vs0mg"},{"bike_id":"e71a1ea5-4590-4a80-93e4-67aaca23c452","system_id":"levelo_inurba_marseille","lat":43.29025,"lon":5.35905,"is_reserved":false,"is_disabled":false,"rental_uris":{"android":"levelo://app?vid=e71a1ea5-4590-4a80-93e4-67aaca23c452","ios":"levelo://app?vid=e71a1ea5-4590-4a80-93e4-67aaca23c452"},"vehicle_type_id":"4","last_reported":1726060560,"current_range_meters":33600,"station_id":"ce4bhbp2rcd13ifvqerg","pricing_plan_id":"cebpf4jnsgd1na2vs0mg"},{"bike_id":"de997810-7554-46cd-8ba3-7bf0bb9bdff4","system_id":"levelo_inurba_marseille","lat":43.25931,"lon":5.40899,"is_reserved":false,"is_disabled":false,"rental_uris":{"android":"levelo://app?vid=de997810-7554-46cd-8ba3-7bf0bb9bdff4","ios":"levelo://app?vid=de997810-7554-46cd-8ba3-7bf0bb9bdff4"},"vehicle_type_id":"4","last_reported":1726060560,"current_range_meters":27600,"station_id":"ce4bhm92rcd13ifvqglg","pricing_plan_id":"cebpf4jnsgd1na2vs0mg"},{"bike_id":"a14e5081-81a7-438f-b1db-64453064b012","system_id":"levelo_inurba_marseille","lat":43.2928,"lon":5.40107,"is_reserved":false,"is_disabled":false,"rental_uris":{"android":"levelo://app?vid=a14e5081-81a7-438f-b1db-64453064b012","ios":"levelo://app?vid=a14e5081-81a7-438f-b1db-64453064b012"},"vehicle_type_id":"4","last_reported":1726060560,"current_range_meters":36800,"station_id":"ce4bh312rcd13ifvqdk0","pricing_plan_id":"cebpf4jnsgd1na2vs0mg"},{"bike_id":"1058e7c1-db33-402e-9be8-9d1ad73f4d5f","system_id":"levelo_inurba_marseille","lat":43.30543,"lon":5.36701,"is_reserved":false,"is_disabled":false,"rental_uris":{"android":"levelo://app?vid=1058e7c1-db33-402e-9be8-9d1ad73f4d5f","ios":"levelo://app?vid=1058e7c1-db33-402e-9be8-9d1ad73f4d5f"},"vehicle_type_id":"4","last_reported":1726060560,"current_range_meters":36400,"station_id":"ce4bgrp2rcd13ifvqc9g","pricing_plan_id":"cebpf4jnsgd1na2vs0mg"},{"bike_id":"54fb0787-fa9c-4ff4-96a5-a95bfab64da7","system_id":"levelo_inurba_marseille","lat":43.23064,"lon":5.35491,"is_reserved":false,"is_disabled":false,"rental_uris":{"android":"levelo://app?vid=54fb0787-fa9c-4ff4-96a5-a95bfab64da7","ios":"levelo://app?vid=54fb0787-fa9c-4ff4-96a5-a95bfab64da7"},"vehicle_type_id":"4","last_reported":1726060560,"current_range_meters":18000,"station_id":"cpo3342slgdg3j2ifvpg","pricing_plan_id":"cebpf4jnsgd1na2vs0mg"},{"bike_id":"5ec88c93-f2ed-4c74-899b-3b3490e2678d","system_id":"levelo_inurba_marseille","lat":43.26571,"lon":5.39013,"is_reserved":false,"is_disabled":false,"rental_uris":{"android":"levelo://app?vid=5ec88c93-f2ed-4c74-899b-3b3490e2678d","ios":"levelo://app?vid=5ec88c93-f2ed-4c74-899b-3b3490e2678d"},"vehicle_type_id":"4","last_reported":1726060560,"current_range_meters":26800,"station_id":"ce4bhe12rcd13ifvqf30","pricing_plan_id":"cebpf4jnsgd1na2vs0mg"},{"bike_id":"6cb45b82-b0a7-4cbd-9a77-02f085f442b7","system_id":"levelo_inurba_marseille","lat":43.2922,"lon":5.36034,"is_reserved":false,"is_disabled":false,"rental_uris":{"android":"levelo://app?vid=6cb45b82-b0a7-4cbd-9a77-02f085f442b7","ios":"levelo://app?vid=6cb45b82-b0a7-4cbd-9a77-02f085f442b7"},"vehicle_type_id":"4","last_reported":1726060560,"current_range_meters":31200,"station_id":"ce4bhbh2rcd13ifvqeqg","pricing_plan_id":"cebpf4jnsgd1na2vs0mg"},{"bike_id":"f45ec182-9359-40e1-9d29-51a7570945d5","system_id":"levelo_inurba_marseille","lat":43.26683,"lon":5.38273,"is_reserved":false,"is_disabled":false,"rental_uris":{"android":"levelo://app?vid=f45ec182-9359-40e1-9d29-51a7570945d5","ios":"levelo://app?vid=f45ec182-9359-40e1-9d29-51a7570945d5"},"vehicle_type_id":"4","last_reported":1726060560,"current_range_meters":28400,"station_id":"ce4bhg92rcd13ifvqf90","pricing_plan_id":"cebpf4jnsgd1na2vs0mg"},{"bike_id":"901b867e-39fc-4b9e-a653-22a50f4a496d","system_id":"levelo_inurba_marseille","lat":43.25934,"lon":5.40909,"is_reserved":false,"is_disabled":false,"rental_uris":{"android":"levelo://app?vid=901b867e-39fc-4b9e-a653-22a50f4a496d","ios":"levelo://app?vid=901b867e-39fc-4b9e-a653-22a50f4a496d"},"vehicle_type_id":"4","last_reported":1726060560,"current_range_meters":24400,"station_id":"ce4bhm92rcd13ifvqglg","pricing_plan_id":"cebpf4jnsgd1na2vs0mg"},{"bike_id":"1bea130e-901b-4b96-8742-2caf3ba09b1f","system_id":"levelo_inurba_marseille","lat":43.28938,"lon":5.39625,"is_reserved":false,"is_disabled":false,"rental_uris":{"android":"levelo://app?vid=1bea130e-901b-4b96-8742-2caf3ba09b1f","ios":"levelo://app?vid=1bea130e-901b-4b96-8742-2caf3ba09b1f"},"vehicle_type_id":"4","last_reported":1726060560,"current_range_meters":19200,"station_id":"ce4bh3h2rcd13ifvqdn0","pricing_plan_id":"cebpf4jnsgd1na2vs0mg"},{"bike_id":"dbc37b7e-eb73-4516-810e-697a32d4df0d","system_id":"levelo_inurba_marseille","lat":43.3107,"lon":5.38365,"is_reserved":false,"is_disabled":false,"rental_uris":{"android":"levelo://app?vid=dbc37b7e-eb73-4516-810e-697a32d4df0d","ios":"levelo://app?vid=dbc37b7e-eb73-4516-810e-697a32d4df0d"},"vehicle_type_id":"4","last_reported":1726060560,"current_range_meters":29600,"station_id":"ce4bgv92rcd13ifvqcr0","pricing_plan_id":"cebpf4jnsgd1na2vs0mg"},{"bike_id":"b1299171-7b0f-418b-b1ec-c60f60fb7eb5","system_id":"levelo_inurba_marseille","lat":43.289981,"lon":5.356133,"is_reserved":false,"is_disabled":false,"rental_uris":{"android":"levelo://app?vid=b1299171-7b0f-418b-b1ec-c60f60fb7eb5","ios":"levelo://app?vid=b1299171-7b0f-418b-b1ec-c60f60fb7eb5"},"vehicle_type_id":"4","last_reported":1726060560,"current_range_meters":38800,"station_id":"ce4bhb92rcd13ifvqen0","pricing_plan_id":"cebpf4jnsgd1na2vs0mg"},{"bike_id":"41ebdd01-3f04-485f-9a3c-74b8e2f52c9f","system_id":"levelo_inurba_marseille","lat":43.25492,"lon":5.37646,"is_reserved":false,"is_disabled":false,"rental_uris":{"android":"levelo://app?vid=41ebdd01-3f04-485f-9a3c-74b8e2f52c9f","ios":"levelo://app?vid=41ebdd01-3f04-485f-9a3c-74b8e2f52c9f"},"vehicle_type_id":"4","last_reported":1726060560,"current_range_meters":6800,"station_id":"ce4bhh12rcd13ifvqff0","pricing_plan_id":"cebpf4jnsgd1na2vs0mg"},{"bike_id":"5722f385-0124-4bed-a8de-85c0d18d21ac","system_id":"levelo_inurba_marseille","lat":43.25941,"lon":5.40899,"is_reserved":false,"is_disabled":false,"rental_uris":{"android":"levelo://app?vid=5722f385-0124-4bed-a8de-85c0d18d21ac","ios":"levelo://app?vid=5722f385-0124-4bed-a8de-85c0d18d21ac"},"vehicle_type_id":"4","last_reported":1726060560,"current_range_meters":28800,"station_id":"ce4bhm92rcd13ifvqglg","pricing_plan_id":"cebpf4jnsgd1na2vs0mg"},{"bike_id":"3b44a4dc-9508-4431-a5f1-bb2ce0d507a9","system_id":"levelo_inurba_marseille","lat":43.27098,"lon":5.39182,"is_reserved":false,"is_disabled":false,"rental_uris":{"android":"levelo://app?vid=3b44a4dc-9508-4431-a5f1-bb2ce0d507a9","ios":"levelo://app?vid=3b44a4dc-9508-4431-a5f1-bb2ce0d507a9"},"vehicle_type_id":"4","last_reported":1726060560,"current_range_meters":8800,"station_id":"ce4bhl92rcd13ifvqghg","pricing_plan_id":"cebpf4jnsgd1na2vs0mg"},{"bike_id":"906646cf-639f-4a27-805b-b1b496d7601e","system_id":"levelo_inurba_marseille","lat":43.29258,"lon":5.40907,"is_reserved":false,"is_disabled":false,"rental_uris":{"android":"levelo://app?vid=906646cf-639f-4a27-805b-b1b496d7601e","ios":"levelo://app?vid=906646cf-639f-4a27-805b-b1b496d7601e"},"vehicle_type_id":"4","last_reported":1726060560,"current_range_meters":36800,"station_id":"ce4bh192rcd13ifvqdc0","pricing_plan_id":"cebpf4jnsgd1na2vs0mg"},{"bike_id":"42693261-be1c-4a9d-b6ce-08d395ee8a85","system_id":"levelo_inurba_marseille","lat":43.28481,"lon":5.38412,"is_reserved":false,"is_disabled":false,"rental_uris":{"android":"levelo://app?vid=42693261-be1c-4a9d-b6ce-08d395ee8a85","ios":"levelo://app?vid=42693261-be1c-4a9d-b6ce-08d395ee8a85"},"vehicle_type_id":"4","last_reported":1726060560,"current_range_meters":20800,"station_id":"ce4bh512rcd13ifvqe3g","pricing_plan_id":"cebpf4jnsgd1na2vs0mg"},{"bike_id":"3b14f2c0-8c78-45da-af93-f267a76a50d9","system_id":"levelo_inurba_marseille","lat":43.29686,"lon":5.37293,"is_reserved":false,"is_disabled":false,"rental_uris":{"android":"levelo://app?vid=3b14f2c0-8c78-45da-af93-f267a76a50d9","ios":"levelo://app?vid=3b14f2c0-8c78-45da-af93-f267a76a50d9"},"vehicle_type_id":"4","last_reported":1726060560,"current_range_meters":36800,"station_id":"ce4bgk12rcd13ifvqbj0","pricing_plan_id":"cebpf4jnsgd1na2vs0mg"},{"bike_id":"321dc09b-9853-4170-af08-25a0d828d560","system_id":"levelo_inurba_marseille","lat":43.23176,"lon":5.39986,"is_reserved":false,"is_disabled":false,"rental_uris":{"android":"levelo://app?vid=321dc09b-9853-4170-af08-25a0d828d560","ios":"levelo://app?vid=321dc09b-9853-4170-af08-25a0d828d560"},"vehicle_type_id":"4","last_reported":1726060560,"current_range_meters":38400,"station_id":"ce4bhn12rcd13ifvqgqg","pricing_plan_id":"cebpf4jnsgd1na2vs0mg"},{"bike_id":"71fe37b9-fc12-47e0-b97b-d3361f629571","system_id":"levelo_inurba_marseille","lat":43.24386,"lon":5.37055,"is_reserved":false,"is_disabled":false,"rental_uris":{"android":"levelo://app?vid=71fe37b9-fc12-47e0-b97b-d3361f629571","ios":"levelo://app?vid=71fe37b9-fc12-47e0-b97b-d3361f629571"},"vehicle_type_id":"4","last_reported":1726060560,"current_range_meters":9200,"station_id":"ce4bhh12rcd13ifvqff0","pricing_plan_id":"cebpf4jnsgd1na2vs0mg"},{"bike_id":"e3c9107c-74a8-45bd-838b-6b0401121bef","system_id":"levelo_inurba_marseille","lat":43.31382,"lon":5.40761,"is_reserved":false,"is_disabled":false,"rental_uris":{"android":"levelo://app?vid=e3c9107c-74a8-45bd-838b-6b0401121bef","ios":"levelo://app?vid=e3c9107c-74a8-45bd-838b-6b0401121bef"},"vehicle_type_id":"4","last_reported":1726060560,"current_range_meters":7200,"station_id":"","pricing_plan_id":"cebpf4jnsgd1na2vs0mg"},{"bike_id":"eb3150cd-a0bd-4567-a901-58b67653d101","system_id":"levelo_inurba_marseille","lat":43.28998,"lon":5.35614,"is_reserved":false,"is_disabled":false,"rental_uris":{"android":"levelo://app?vid=eb3150cd-a0bd-4567-a901-58b67653d101","ios":"levelo://app?vid=eb3150cd-a0bd-4567-a901-58b67653d101"},"vehicle_type_id":"4","last_reported":1726060560,"current_range_meters":10000,"station_id":"ce4bhb92rcd13ifvqen0","pricing_plan_id":"cebpf4jnsgd1na2vs0mg"},{"bike_id":"20168a10-2d47-42c2-ad25-a1795c6e6d1e","system_id":"levelo_inurba_marseille","lat":43.23149,"lon":5.43719,"is_reserved":false,"is_disabled":false,"rental_uris":{"android":"levelo://app?vid=20168a10-2d47-42c2-ad25-a1795c6e6d1e","ios":"levelo://app?vid=20168a10-2d47-42c2-ad25-a1795c6e6d1e"},"vehicle_type_id":"4","last_reported":1726060560,"current_range_meters":16000,"station_id":"ce4bhmp2rcd13ifvqgog","pricing_plan_id":"cebpf4jnsgd1na2vs0mg"},{"bike_id":"4f9186ae-f72c-4b8e-ba9a-431b6576c950","system_id":"levelo_inurba_marseille","lat":43.29875,"lon":5.3891,"is_reserved":false,"is_disabled":false,"rental_uris":{"android":"levelo://app?vid=4f9186ae-f72c-4b8e-ba9a-431b6576c950","ios":"levelo://app?vid=4f9186ae-f72c-4b8e-ba9a-431b6576c950"},"vehicle_type_id":"4","last_reported":1726060560,"current_range_meters":18000,"station_id":"ce4bh392rcd13ifvqdl0","pricing_plan_id":"cebpf4jnsgd1na2vs0mg"},{"bike_id":"223cb209-b60a-4d78-9cb8-d0ec33089bd9","system_id":"levelo_inurba_marseille","lat":43.305524,"lon":5.365611,"is_reserved":false,"is_disabled":false,"rental_uris":{"android":"levelo://app?vid=223cb209-b60a-4d78-9cb8-d0ec33089bd9","ios":"levelo://app?vid=223cb209-b60a-4d78-9cb8-d0ec33089bd9"},"vehicle_type_id":"4","last_reported":1726060560,"current_range_meters":30000,"station_id":"ce4bgv92rcd13ifvqcq0","pricing_plan_id":"cebpf4jnsgd1na2vs0mg"},{"bike_id":"2b62debc-02ab-46e1-9f60-03756442d206","system_id":"levelo_inurba_marseille","lat":43.278564,"lon":5.387482,"is_reserved":false,"is_disabled":false,"rental_uris":{"android":"levelo://app?vid=2b62debc-02ab-46e1-9f60-03756442d206","ios":"levelo://app?vid=2b62debc-02ab-46e1-9f60-03756442d206"},"vehicle_type_id":"4","last_reported":1726060560,"current_range_meters":9200,"station_id":"","pricing_plan_id":"cebpf4jnsgd1na2vs0mg"},{"bike_id":"c8e0fcb6-1d3f-4d83-b861-1f56e6b3ab2c","system_id":"levelo_inurba_marseille","lat":43.32297,"lon":5.38258,"is_reserved":false,"is_disabled":false,"rental_uris":{"android":"levelo://app?vid=c8e0fcb6-1d3f-4d83-b861-1f56e6b3ab2c","ios":"levelo://app?vid=c8e0fcb6-1d3f-4d83-b861-1f56e6b3ab2c"},"vehicle_type_id":"4","last_reported":1726060560,"current_range_meters":31200,"station_id":"ce4bhr12rcd13ifvqhqg","pricing_plan_id":"cebpf4jnsgd1na2vs0mg"},{"bike_id":"847f5bed-37fc-4353-ad1c-b35df942a6fd","system_id":"levelo_inurba_marseille","lat":43.29017,"lon":5.35609,"is_reserved":false,"is_disabled":false,"rental_uris":{"android":"levelo://app?vid=847f5bed-37fc-4353-ad1c-b35df942a6fd","ios":"levelo://app?vid=847f5bed-37fc-4353-ad1c-b35df942a6fd"},"vehicle_type_id":"4","last_reported":1726060560,"current_range_meters":34800,"station_id":"ce4bhb92rcd13ifvqen0","pricing_plan_id":"cebpf4jnsgd1na2vs0mg"},{"bike_id":"deb68841-6540-43ac-ba38-44c8308e1ce6","system_id":"levelo_inurba_marseille","lat":43.29699,"lon":5.36615,"is_reserved":false,"is_disabled":false,"rental_uris":{"android":"levelo://app?vid=deb68841-6540-43ac-ba38-44c8308e1ce6","ios":"levelo://app?vid=deb68841-6540-43ac-ba38-44c8308e1ce6"},"vehicle_type_id":"4","last_reported":1726060560,"current_range_meters":6800,"station_id":"ce4bgn12rcd13ifvqbt0","pricing_plan_id":"cebpf4jnsgd1na2vs0mg"},{"bike_id":"394ba6fe-4a64-44af-8ad8-9ff0cdf59d14","system_id":"levelo_inurba_marseille","lat":43.30553,"lon":5.36532,"is_reserved":false,"is_disabled":false,"rental_uris":{"android":"levelo://app?vid=394ba6fe-4a64-44af-8ad8-9ff0cdf59d14","ios":"levelo://app?vid=394ba6fe-4a64-44af-8ad8-9ff0cdf59d14"},"vehicle_type_id":"4","last_reported":1726060560,"current_range_meters":17600,"station_id":"ce4bgs12rcd13ifvqcag","pricing_plan_id":"cebpf4jnsgd1na2vs0mg"},{"bike_id":"c7d84633-647e-486d-b37b-db45b26d129a","system_id":"levelo_inurba_marseille","lat":43.29083,"lon":5.37163,"is_reserved":false,"is_disabled":false,"rental_uris":{"android":"levelo://app?vid=c7d84633-647e-486d-b37b-db45b26d129a","ios":"levelo://app?vid=c7d84633-647e-486d-b37b-db45b26d129a"},"vehicle_type_id":"4","last_reported":1726060560,"current_range_meters":19200,"station_id":"ce4bh5p2rcd13ifvqe4g","pricing_plan_id":"cebpf4jnsgd1na2vs0mg"},{"bike_id":"206eb04c-b603-40cb-b369-a8090514b8b3","system_id":"levelo_inurba_marseille","lat":43.28423,"lon":5.34991,"is_reserved":false,"is_disabled":false,"rental_uris":{"android":"levelo://app?vid=206eb04c-b603-40cb-b369-a8090514b8b3","ios":"levelo://app?vid=206eb04c-b603-40cb-b369-a8090514b8b3"},"vehicle_type_id":"4","last_reported":1726060560,"current_range_meters":35600,"station_id":"ce4bhbh2rcd13ifvqepg","pricing_plan_id":"cebpf4jnsgd1na2vs0mg"},{"bike_id":"74e737b5-82b3-4055-9407-d70bde56ceed","system_id":"levelo_inurba_marseille","lat":43.30914,"lon":5.36852,"is_reserved":false,"is_disabled":false,"rental_uris":{"android":"levelo://app?vid=74e737b5-82b3-4055-9407-d70bde56ceed","ios":"levelo://app?vid=74e737b5-82b3-4055-9407-d70bde56ceed"},"vehicle_type_id":"4","last_reported":1726060560,"current_range_meters":33200,"station_id":"ce4bgn92rcd13ifvqbvg","pricing_plan_id":"cebpf4jnsgd1na2vs0mg"},{"bike_id":"9610f388-60c6-49bb-84bb-4ea91a1f925b","system_id":"levelo_inurba_marseille","lat":43.29551,"lon":5.42278,"is_reserved":false,"is_disabled":false,"rental_uris":{"android":"levelo://app?vid=9610f388-60c6-49bb-84bb-4ea91a1f925b","ios":"levelo://app?vid=9610f388-60c6-49bb-84bb-4ea91a1f925b"},"vehicle_type_id":"4","last_reported":1726060560,"current_range_meters":4800,"station_id":"ce4bhph2rcd13ifvqhdg","pricing_plan_id":"cebpf4jnsgd1na2vs0mg"},{"bike_id":"c032e286-3375-41e2-b63c-e17cbbb45a0d","system_id":"levelo_inurba_marseille","lat":43.302127,"lon":5.394658,"is_reserved":false,"is_disabled":false,"rental_uris":{"android":"levelo://app?vid=c032e286-3375-41e2-b63c-e17cbbb45a0d","ios":"levelo://app?vid=c032e286-3375-41e2-b63c-e17cbbb45a0d"},"vehicle_type_id":"4","last_reported":1726060560,"current_range_meters":33200,"station_id":"ce4bh0p2rcd13ifvqd70","pricing_plan_id":"cebpf4jnsgd1na2vs0mg"},{"bike_id":"e13f348c-8843-4d5f-8135-58f0927d026c","system_id":"levelo_inurba_marseille","lat":43.28609,"lon":5.37063,"is_reserved":false,"is_disabled":false,"rental_uris":{"android":"levelo://app?vid=e13f348c-8843-4d5f-8135-58f0927d026c","ios":"levelo://app?vid=e13f348c-8843-4d5f-8135-58f0927d026c"},"vehicle_type_id":"4","last_reported":1726060560,"current_range_meters":12000,"station_id":"ce4bht12rcd13ifvqi60","pricing_plan_id":"cebpf4jnsgd1na2vs0mg"},{"bike_id":"9853c78c-8263-484a-97a8-9a982a387087","system_id":"levelo_inurba_marseille","lat":43.2619,"lon":5.37447,"is_reserved":false,"is_disabled":false,"rental_uris":{"android":"levelo://app?vid=9853c78c-8263-484a-97a8-9a982a387087","ios":"levelo://app?vid=9853c78c-8263-484a-97a8-9a982a387087"},"vehicle_type_id":"4","last_reported":1726060560,"current_range_meters":37600,"station_id":"ce4bhgp2rcd13ifvqfc0","pricing_plan_id":"cebpf4jnsgd1na2vs0mg"},{"bike_id":"3ab10fe4-918a-4cc4-b5f1-41590ac16313","system_id":"levelo_inurba_marseille","lat":43.28414,"lon":5.3499,"is_reserved":false,"is_disabled":false,"rental_uris":{"android":"levelo://app?vid=3ab10fe4-918a-4cc4-b5f1-41590ac16313","ios":"levelo://app?vid=3ab10fe4-918a-4cc4-b5f1-41590ac16313"},"vehicle_type_id":"4","last_reported":1726060560,"current_range_meters":19200,"station_id":"ce4bhbh2rcd13ifvqepg","pricing_plan_id":"cebpf4jnsgd1na2vs0mg"},{"bike_id":"5f8714c2-4691-49c6-af6f-ae88c4dd369a","system_id":"levelo_inurba_marseille","lat":43.28002,"lon":5.40013,"is_reserved":false,"is_disabled":false,"rental_uris":{"android":"levelo://app?vid=5f8714c2-4691-49c6-af6f-ae88c4dd369a","ios":"levelo://app?vid=5f8714c2-4691-49c6-af6f-ae88c4dd369a"},"vehicle_type_id":"4","last_reported":1726060560,"current_range_meters":4800,"station_id":"ce4bho92rcd13ifvqh4g","pricing_plan_id":"cebpf4jnsgd1na2vs0mg"},{"bike_id":"59c69735-67c5-4616-a4e3-4d11b991683d","system_id":"levelo_inurba_marseille","lat":43.26059,"lon":5.39398,"is_reserved":false,"is_disabled":false,"rental_uris":{"android":"levelo://app?vid=59c69735-67c5-4616-a4e3-4d11b991683d","ios":"levelo://app?vid=59c69735-67c5-4616-a4e3-4d11b991683d"},"vehicle_type_id":"4","last_reported":1726060560,"current_range_meters":24400,"station_id":"ce4bhh92rcd13ifvqfj0","pricing_plan_id":"cebpf4jnsgd1na2vs0mg"},{"bike_id":"0a81d421-cf57-43ea-8a0c-d05fd55f52d1","system_id":"levelo_inurba_marseille","lat":43.30811,"lon":5.38145,"is_reserved":false,"is_disabled":false,"rental_uris":{"android":"levelo://app?vid=0a81d421-cf57-43ea-8a0c-d05fd55f52d1","ios":"levelo://app?vid=0a81d421-cf57-43ea-8a0c-d05fd55f52d1"},"vehicle_type_id":"4","last_reported":1726060560,"current_range_meters":24400,"station_id":"ce4bgt12rcd13ifvqce0","pricing_plan_id":"cebpf4jnsgd1na2vs0mg"},{"bike_id":"1342df15-a06f-4e9a-81ae-3586a6ec6603","system_id":"levelo_inurba_marseille","lat":43.27813,"lon":5.40715,"is_reserved":false,"is_disabled":false,"rental_uris":{"android":"levelo://app?vid=1342df15-a06f-4e9a-81ae-3586a6ec6603","ios":"levelo://app?vid=1342df15-a06f-4e9a-81ae-3586a6ec6603"},"vehicle_type_id":"4","last_reported":1726060560,"current_range_meters":26000,"station_id":"ce4bhnh2rcd13ifvqgtg","pricing_plan_id":"cebpf4jnsgd1na2vs0mg"},{"bike_id":"0c141244-b4cf-4736-9e8c-da4147dc1ed1","system_id":"levelo_inurba_marseille","lat":43.30537,"lon":5.36711,"is_reserved":false,"is_disabled":false,"rental_uris":{"android":"levelo://app?vid=0c141244-b4cf-4736-9e8c-da4147dc1ed1","ios":"levelo://app?vid=0c141244-b4cf-4736-9e8c-da4147dc1ed1"},"vehicle_type_id":"4","last_reported":1726060560,"current_range_meters":9600,"station_id":"ce4bgrp2rcd13ifvqc9g","pricing_plan_id":"cebpf4jnsgd1na2vs0mg"},{"bike_id":"39186751-f75a-440a-82a0-1296e8662da9","system_id":"levelo_inurba_marseille","lat":43.27377,"lon":5.36253,"is_reserved":false,"is_disabled":false,"rental_uris":{"android":"levelo://app?vid=39186751-f75a-440a-82a0-1296e8662da9","ios":"levelo://app?vid=39186751-f75a-440a-82a0-1296e8662da9"},"vehicle_type_id":"4","last_reported":1726060560,"current_range_meters":26800,"station_id":"ce4bhbh2rcd13ifvqeo0","pricing_plan_id":"cebpf4jnsgd1na2vs0mg"},{"bike_id":"2a18790f-a497-4a20-a1bb-a8f4850fa7c4","system_id":"levelo_inurba_marseille","lat":43.30984,"lon":5.37923,"is_reserved":false,"is_disabled":false,"rental_uris":{"android":"levelo://app?vid=2a18790f-a497-4a20-a1bb-a8f4850fa7c4","ios":"levelo://app?vid=2a18790f-a497-4a20-a1bb-a8f4850fa7c4"},"vehicle_type_id":"4","last_reported":1726060560,"current_range_meters":30400,"station_id":"ce4bgg92rcd13ifvqb30","pricing_plan_id":"cebpf4jnsgd1na2vs0mg"},{"bike_id":"4cb3f6a4-d878-42a2-8c6f-53aacf3eda67","system_id":"levelo_inurba_marseille","lat":43.30548,"lon":5.36531,"is_reserved":false,"is_disabled":false,"rental_uris":{"android":"levelo://app?vid=4cb3f6a4-d878-42a2-8c6f-53aacf3eda67","ios":"levelo://app?vid=4cb3f6a4-d878-42a2-8c6f-53aacf3eda67"},"vehicle_type_id":"4","last_reported":1726060560,"current_range_meters":30000,"station_id":"ce4bgs12rcd13ifvqcag","pricing_plan_id":"cebpf4jnsgd1na2vs0mg"},{"bike_id":"9fd148fd-1bb8-4871-898f-14a2428f424f","system_id":"levelo_inurba_marseille","lat":43.23153,"lon":5.4371,"is_reserved":false,"is_disabled":false,"rental_uris":{"android":"levelo://app?vid=9fd148fd-1bb8-4871-898f-14a2428f424f","ios":"levelo://app?vid=9fd148fd-1bb8-4871-898f-14a2428f424f"},"vehicle_type_id":"4","last_reported":1726060560,"current_range_meters":17200,"station_id":"ce4bhmp2rcd13ifvqgog","pricing_plan_id":"cebpf4jnsgd1na2vs0mg"},{"bike_id":"f400d370-a20e-4ced-86f0-64f62510749c","system_id":"levelo_inurba_marseille","lat":43.3237,"lon":5.38926,"is_reserved":false,"is_disabled":false,"rental_uris":{"android":"levelo://app?vid=f400d370-a20e-4ced-86f0-64f62510749c","ios":"levelo://app?vid=f400d370-a20e-4ced-86f0-64f62510749c"},"vehicle_type_id":"4","last_reported":1726060560,"current_range_meters":14000,"station_id":"","pricing_plan_id":"cebpf4jnsgd1na2vs0mg"},{"bike_id":"9129cccb-70b9-4c6c-add8-afc1ace990ca","system_id":"levelo_inurba_marseille","lat":43.315,"lon":5.37306,"is_reserved":false,"is_disabled":false,"rental_uris":{"android":"levelo://app?vid=9129cccb-70b9-4c6c-add8-afc1ace990ca","ios":"levelo://app?vid=9129cccb-70b9-4c6c-add8-afc1ace990ca"},"vehicle_type_id":"4","last_reported":1726060560,"current_range_meters":38800,"station_id":"ce4bgt12rcd13ifvqcd0","pricing_plan_id":"cebpf4jnsgd1na2vs0mg"},{"bike_id":"f01737d4-cc88-495d-bc3b-fe28ed2d3ffa","system_id":"levelo_inurba_marseille","lat":43.28076,"lon":5.39658,"is_reserved":false,"is_disabled":false,"rental_uris":{"android":"levelo://app?vid=f01737d4-cc88-495d-bc3b-fe28ed2d3ffa","ios":"levelo://app?vid=f01737d4-cc88-495d-bc3b-fe28ed2d3ffa"},"vehicle_type_id":"4","last_reported":1726060560,"current_range_meters":11200,"station_id":"ce4bho12rcd13ifvqh2g","pricing_plan_id":"cebpf4jnsgd1na2vs0mg"},{"bike_id":"143049cf-4830-4219-a121-2a60df83aa5d","system_id":"levelo_inurba_marseille","lat":43.337444,"lon":5.374475,"is_reserved":false,"is_disabled":false,"rental_uris":{"android":"levelo://app?vid=143049cf-4830-4219-a121-2a60df83aa5d","ios":"levelo://app?vid=143049cf-4830-4219-a121-2a60df83aa5d"},"vehicle_type_id":"4","last_reported":1726060560,"current_range_meters":32400,"station_id":"","pricing_plan_id":"cebpf4jnsgd1na2vs0mg"},{"bike_id":"fb6f0e86-0599-44ca-b6e3-e65fcfbeb613","system_id":"levelo_inurba_marseille","lat":43.28455,"lon":5.35896,"is_reserved":false,"is_disabled":false,"rental_uris":{"android":"levelo://app?vid=fb6f0e86-0599-44ca-b6e3-e65fcfbeb613","ios":"levelo://app?vid=fb6f0e86-0599-44ca-b6e3-e65fcfbeb613"},"vehicle_type_id":"4","last_reported":1726060560,"current_range_meters":36400,"station_id":"ce4bhah2rcd13ifvqei0","pricing_plan_id":"cebpf4jnsgd1na2vs0mg"},{"bike_id":"00245c18-9927-44b3-8581-5d04bb61a9f3","system_id":"levelo_inurba_marseille","lat":43.29573,"lon":5.39975,"is_reserved":false,"is_disabled":false,"rental_uris":{"android":"levelo://app?vid=00245c18-9927-44b3-8581-5d04bb61a9f3","ios":"levelo://app?vid=00245c18-9927-44b3-8581-5d04bb61a9f3"},"vehicle_type_id":"4","last_reported":1726060560,"current_range_meters":20000,"station_id":"ce4bh312rcd13ifvqdj0","pricing_plan_id":"cebpf4jnsgd1na2vs0mg"},{"bike_id":"e5ed0075-14c4-4d1d-a9af-a1ffecf526a7","system_id":"levelo_inurba_marseille","lat":43.29845,"lon":5.36259,"is_reserved":false,"is_disabled":false,"rental_uris":{"android":"levelo://app?vid=e5ed0075-14c4-4d1d-a9af-a1ffecf526a7","ios":"levelo://app?vid=e5ed0075-14c4-4d1d-a9af-a1ffecf526a7"},"vehicle_type_id":"4","last_reported":1726060560,"current_range_meters":38000,"station_id":"ce4bgpp2rcd13ifvqc3g","pricing_plan_id":"cebpf4jnsgd1na2vs0mg"},{"bike_id":"efde13c0-77b8-4812-b78e-65d20ebe202a","system_id":"levelo_inurba_marseille","lat":43.27572,"lon":5.38427,"is_reserved":false,"is_disabled":false,"rental_uris":{"android":"levelo://app?vid=efde13c0-77b8-4812-b78e-65d20ebe202a","ios":"levelo://app?vid=efde13c0-77b8-4812-b78e-65d20ebe202a"},"vehicle_type_id":"4","last_reported":1726060560,"current_range_meters":5600,"station_id":"ce4bhh92rcd13ifvqfi0","pricing_plan_id":"cebpf4jnsgd1na2vs0mg"},{"bike_id":"5fdc4f56-d1eb-4f8c-9c80-491565351e3a","system_id":"levelo_inurba_marseille","lat":43.26934,"lon":5.40256,"is_reserved":false,"is_disabled":false,"rental_uris":{"android":"levelo://app?vid=5fdc4f56-d1eb-4f8c-9c80-491565351e3a","ios":"levelo://app?vid=5fdc4f56-d1eb-4f8c-9c80-491565351e3a"},"vehicle_type_id":"4","last_reported":1726060560,"current_range_meters":27200,"station_id":"cjm6bp8fraef2m0cb0m0","pricing_plan_id":"cebpf4jnsgd1na2vs0mg"},{"bike_id":"14cf9b04-daba-4222-a934-827da5e49ce5","system_id":"levelo_inurba_marseille","lat":43.27623,"lon":5.36097,"is_reserved":false,"is_disabled":false,"rental_uris":{"android":"levelo://app?vid=14cf9b04-daba-4222-a934-827da5e49ce5","ios":"levelo://app?vid=14cf9b04-daba-4222-a934-827da5e49ce5"},"vehicle_type_id":"4","last_reported":1726060560,"current_range_meters":21600,"station_id":"ce4bgj92rcd13ifvqbe0","pricing_plan_id":"cebpf4jnsgd1na2vs0mg"},{"bike_id":"cec131b6-6c84-4899-9723-159f4b060af5","system_id":"levelo_inurba_marseille","lat":43.31701,"lon":5.37664,"is_reserved":false,"is_disabled":false,"rental_uris":{"android":"levelo://app?vid=cec131b6-6c84-4899-9723-159f4b060af5","ios":"levelo://app?vid=cec131b6-6c84-4899-9723-159f4b060af5"},"vehicle_type_id":"4","last_reported":1726060560,"current_range_meters":7200,"station_id":"","pricing_plan_id":"cebpf4jnsgd1na2vs0mg"},{"bike_id":"f2b3b549-7f8a-4eae-b464-4b6623533f44","system_id":"levelo_inurba_marseille","lat":43.33749,"lon":5.37451,"is_reserved":false,"is_disabled":false,"rental_uris":{"android":"levelo://app?vid=f2b3b549-7f8a-4eae-b464-4b6623533f44","ios":"levelo://app?vid=f2b3b549-7f8a-4eae-b464-4b6623533f44"},"vehicle_type_id":"4","last_reported":1726060560,"current_range_meters":32400,"station_id":"","pricing_plan_id":"cebpf4jnsgd1na2vs0mg"},{"bike_id":"273bfa45-1e71-4cbb-82ef-6ddf6be01fd3","system_id":"levelo_inurba_marseille","lat":43.301453,"lon":5.374202,"is_reserved":false,"is_disabled":false,"rental_uris":{"android":"levelo://app?vid=273bfa45-1e71-4cbb-82ef-6ddf6be01fd3","ios":"levelo://app?vid=273bfa45-1e71-4cbb-82ef-6ddf6be01fd3"},"vehicle_type_id":"4","last_reported":1726060560,"current_range_meters":9200,"station_id":"ce4bgs92rcd13ifvqcc0","pricing_plan_id":"cebpf4jnsgd1na2vs0mg"},{"bike_id":"61cf4a3a-2942-44a8-a346-1fbbdf1a4d5c","system_id":"levelo_inurba_marseille","lat":43.23156,"lon":5.43703,"is_reserved":false,"is_disabled":false,"rental_uris":{"android":"levelo://app?vid=61cf4a3a-2942-44a8-a346-1fbbdf1a4d5c","ios":"levelo://app?vid=61cf4a3a-2942-44a8-a346-1fbbdf1a4d5c"},"vehicle_type_id":"4","last_reported":1726060560,"current_range_meters":12400,"station_id":"ce4bhmp2rcd13ifvqgog","pricing_plan_id":"cebpf4jnsgd1na2vs0mg"},{"bike_id":"e33cad1e-30cf-4273-a896-a23e1a614a1a","system_id":"levelo_inurba_marseille","lat":43.30548,"lon":5.36524,"is_reserved":false,"is_disabled":false,"rental_uris":{"android":"levelo://app?vid=e33cad1e-30cf-4273-a896-a23e1a614a1a","ios":"levelo://app?vid=e33cad1e-30cf-4273-a896-a23e1a614a1a"},"vehicle_type_id":"4","last_reported":1726060560,"current_range_meters":14800,"station_id":"ce4bgs12rcd13ifvqcag","pricing_plan_id":"cebpf4jnsgd1na2vs0mg"},{"bike_id":"55ea7281-a25a-4c8f-8821-31a901926871","system_id":"levelo_inurba_marseille","lat":43.29804,"lon":5.39341,"is_reserved":false,"is_disabled":false,"rental_uris":{"android":"levelo://app?vid=55ea7281-a25a-4c8f-8821-31a901926871","ios":"levelo://app?vid=55ea7281-a25a-4c8f-8821-31a901926871"},"vehicle_type_id":"4","last_reported":1726060560,"current_range_meters":30800,"station_id":"chh1huq6cuj3fo74tm60","pricing_plan_id":"cebpf4jnsgd1na2vs0mg"},{"bike_id":"e9276a52-c68d-4d0a-a50e-d5f93d416648","system_id":"levelo_inurba_marseille","lat":43.24391,"lon":5.37056,"is_reserved":false,"is_disabled":false,"rental_uris":{"android":"levelo://app?vid=e9276a52-c68d-4d0a-a50e-d5f93d416648","ios":"levelo://app?vid=e9276a52-c68d-4d0a-a50e-d5f93d416648"},"vehicle_type_id":"4","last_reported":1726060560,"current_range_meters":32400,"station_id":"ce4bhhh2rcd13ifvqfk0","pricing_plan_id":"cebpf4jnsgd1na2vs0mg"},{"bike_id":"38a69614-fc80-4fe6-9020-2aa2f561d214","system_id":"levelo_inurba_marseille","lat":43.2668,"lon":5.38264,"is_reserved":false,"is_disabled":false,"rental_uris":{"android":"levelo://app?vid=38a69614-fc80-4fe6-9020-2aa2f561d214","ios":"levelo://app?vid=38a69614-fc80-4fe6-9020-2aa2f561d214"},"vehicle_type_id":"4","last_reported":1726060560,"current_range_meters":38800,"station_id":"ce4bhg92rcd13ifvqf90","pricing_plan_id":"cebpf4jnsgd1na2vs0mg"},{"bike_id":"f9512620-8937-42df-b0f9-dddc2d1232b9","system_id":"levelo_inurba_marseille","lat":43.28425,"lon":5.34986,"is_reserved":false,"is_disabled":false,"rental_uris":{"android":"levelo://app?vid=f9512620-8937-42df-b0f9-dddc2d1232b9","ios":"levelo://app?vid=f9512620-8937-42df-b0f9-dddc2d1232b9"},"vehicle_type_id":"4","last_reported":1726060560,"current_range_meters":39200,"station_id":"ce4bhbh2rcd13ifvqepg","pricing_plan_id":"cebpf4jnsgd1na2vs0mg"},{"bike_id":"2f40207a-a21f-427b-8132-723bde66d773","system_id":"levelo_inurba_marseille","lat":43.29857,"lon":5.39725,"is_reserved":false,"is_disabled":false,"rental_uris":{"android":"levelo://app?vid=2f40207a-a21f-427b-8132-723bde66d773","ios":"levelo://app?vid=2f40207a-a21f-427b-8132-723bde66d773"},"vehicle_type_id":"4","last_reported":1726060560,"current_range_meters":26800,"station_id":"ce4bh0h2rcd13ifvqd50","pricing_plan_id":"cebpf4jnsgd1na2vs0mg"},{"bike_id":"16d37247-1939-4a7b-992c-9c6330b9f1cd","system_id":"levelo_inurba_marseille","lat":43.26554,"lon":5.37283,"is_reserved":false,"is_disabled":false,"rental_uris":{"android":"levelo://app?vid=16d37247-1939-4a7b-992c-9c6330b9f1cd","ios":"levelo://app?vid=16d37247-1939-4a7b-992c-9c6330b9f1cd"},"vehicle_type_id":"4","last_reported":1726060560,"current_range_meters":28000,"station_id":"ce4bhg12rcd13ifvqf70","pricing_plan_id":"cebpf4jnsgd1na2vs0mg"},{"bike_id":"21ca43f1-f564-4fdc-a5ab-1c7e5f0e8859","system_id":"levelo_inurba_marseille","lat":43.24389,"lon":5.37054,"is_reserved":false,"is_disabled":false,"rental_uris":{"android":"levelo://app?vid=21ca43f1-f564-4fdc-a5ab-1c7e5f0e8859","ios":"levelo://app?vid=21ca43f1-f564-4fdc-a5ab-1c7e5f0e8859"},"vehicle_type_id":"4","last_reported":1726060560,"current_range_meters":27600,"station_id":"ce4bhhh2rcd13ifvqfk0","pricing_plan_id":"cebpf4jnsgd1na2vs0mg"},{"bike_id":"21a93f7a-d61f-40fd-ab85-5eb2fd8eb0a1","system_id":"levelo_inurba_marseille","lat":43.25085,"lon":5.39517,"is_reserved":false,"is_disabled":false,"rental_uris":{"android":"levelo://app?vid=21a93f7a-d61f-40fd-ab85-5eb2fd8eb0a1","ios":"levelo://app?vid=21a93f7a-d61f-40fd-ab85-5eb2fd8eb0a1"},"vehicle_type_id":"4","last_reported":1726060560,"current_range_meters":19200,"station_id":"ce4bhm12rcd13ifvqgkg","pricing_plan_id":"cebpf4jnsgd1na2vs0mg"},{"bike_id":"0d01d6e9-1529-4ec4-9c2f-962fd02303db","system_id":"levelo_inurba_marseille","lat":43.30892,"lon":5.37198,"is_reserved":false,"is_disabled":false,"rental_uris":{"android":"levelo://app?vid=0d01d6e9-1529-4ec4-9c2f-962fd02303db","ios":"levelo://app?vid=0d01d6e9-1529-4ec4-9c2f-962fd02303db"},"vehicle_type_id":"4","last_reported":1726060560,"current_range_meters":20400,"station_id":"ce4bguh2rcd13ifvqckg","pricing_plan_id":"cebpf4jnsgd1na2vs0mg"},{"bike_id":"deeef3eb-5697-49c5-b2c5-06e61dacd04b","system_id":"levelo_inurba_marseille","lat":43.30354,"lon":5.41878,"is_reserved":false,"is_disabled":false,"rental_uris":{"android":"levelo://app?vid=deeef3eb-5697-49c5-b2c5-06e61dacd04b","ios":"levelo://app?vid=deeef3eb-5697-49c5-b2c5-06e61dacd04b"},"vehicle_type_id":"4","last_reported":1726060560,"current_range_meters":35200,"station_id":"ce4bhop2rcd13ifvqh7g","pricing_plan_id":"cebpf4jnsgd1na2vs0mg"},{"bike_id":"365eec02-a8ae-43e7-8eb4-3379b9366190","system_id":"levelo_inurba_marseille","lat":43.23151,"lon":5.43709,"is_reserved":false,"is_disabled":false,"rental_uris":{"android":"levelo://app?vid=365eec02-a8ae-43e7-8eb4-3379b9366190","ios":"levelo://app?vid=365eec02-a8ae-43e7-8eb4-3379b9366190"},"vehicle_type_id":"4","last_reported":1726060560,"current_range_meters":16800,"station_id":"ce4bhmp2rcd13ifvqgog","pricing_plan_id":"cebpf4jnsgd1na2vs0mg"},{"bike_id":"87efc805-8658-4a1c-a01c-7799a3841c44","system_id":"levelo_inurba_marseille","lat":43.26808,"lon":5.40262,"is_reserved":false,"is_disabled":false,"rental_uris":{"android":"levelo://app?vid=87efc805-8658-4a1c-a01c-7799a3841c44","ios":"levelo://app?vid=87efc805-8658-4a1c-a01c-7799a3841c44"},"vehicle_type_id":"4","last_reported":1726060560,"current_range_meters":10000,"station_id":"ce501612rcd8frsf0b60","pricing_plan_id":"cebpf4jnsgd1na2vs0mg"},{"bike_id":"c363a9df-d3b0-4a43-a7e3-f95f5f33265f","system_id":"levelo_inurba_marseille","lat":43.23052,"lon":5.35489,"is_reserved":false,"is_disabled":false,"rental_uris":{"android":"levelo://app?vid=c363a9df-d3b0-4a43-a7e3-f95f5f33265f","ios":"levelo://app?vid=c363a9df-d3b0-4a43-a7e3-f95f5f33265f"},"vehicle_type_id":"4","last_reported":1726060560,"current_range_meters":16000,"station_id":"cpo3342slgdg3j2ifvpg","pricing_plan_id":"cebpf4jnsgd1na2vs0mg"},{"bike_id":"e9851718-6392-4d75-a863-eb310907e97a","system_id":"levelo_inurba_marseille","lat":43.30547,"lon":5.36534,"is_reserved":false,"is_disabled":false,"rental_uris":{"android":"levelo://app?vid=e9851718-6392-4d75-a863-eb310907e97a","ios":"levelo://app?vid=e9851718-6392-4d75-a863-eb310907e97a"},"vehicle_type_id":"4","last_reported":1726060560,"current_range_meters":38800,"station_id":"ce4bgs12rcd13ifvqcag","pricing_plan_id":"cebpf4jnsgd1na2vs0mg"},{"bike_id":"361a5795-cd3a-44f6-8834-a3473fddcd1c","system_id":"levelo_inurba_marseille","lat":43.23181,"lon":5.39993,"is_reserved":false,"is_disabled":false,"rental_uris":{"android":"levelo://app?vid=361a5795-cd3a-44f6-8834-a3473fddcd1c","ios":"levelo://app?vid=361a5795-cd3a-44f6-8834-a3473fddcd1c"},"vehicle_type_id":"4","last_reported":1726060560,"current_range_meters":10800,"station_id":"ce4bhn12rcd13ifvqgqg","pricing_plan_id":"cebpf4jnsgd1na2vs0mg"},{"bike_id":"788ebadd-49e5-4ee8-9ee0-65d81a712112","system_id":"levelo_inurba_marseille","lat":43.28693,"lon":5.39984,"is_reserved":false,"is_disabled":false,"rental_uris":{"android":"levelo://app?vid=788ebadd-49e5-4ee8-9ee0-65d81a712112","ios":"levelo://app?vid=788ebadd-49e5-4ee8-9ee0-65d81a712112"},"vehicle_type_id":"4","last_reported":1726060560,"current_range_meters":6800,"station_id":"ce4bho92rcd13ifvqh3g","pricing_plan_id":"cebpf4jnsgd1na2vs0mg"},{"bike_id":"cc4d0a8b-7598-4e3e-b42c-8903a5620313","system_id":"levelo_inurba_marseille","lat":43.25939,"lon":5.40896,"is_reserved":false,"is_disabled":false,"rental_uris":{"android":"levelo://app?vid=cc4d0a8b-7598-4e3e-b42c-8903a5620313","ios":"levelo://app?vid=cc4d0a8b-7598-4e3e-b42c-8903a5620313"},"vehicle_type_id":"4","last_reported":1726060560,"current_range_meters":30400,"station_id":"ce4bhm92rcd13ifvqglg","pricing_plan_id":"cebpf4jnsgd1na2vs0mg"},