{"last_updated":1778706922,"ttl":60,"version":"2.2","data":{"bikes":[{"bike_id":"2131db40-62e0-4f89-9542-19d5a4d699d7","system_id":"levelo_inurba_marseille","lat":43.27177,"lon":5.40981,"is_reserved":false,"is_disabled":false,"rental_uris":{"android":"levelo://app?vid=2131db40-62e0-4f89-9542-19d5a4d699d7","ios":"levelo://app?vid=2131db40-62e0-4f89-9542-19d5a4d699d7"},"vehicle_type_id":"4","last_reported":1778706923,"current_range_meters":2800,"station_id":"ce4bhl12rcd13ifvqgf0","pricing_plan_id":"cebpf4jnsgd1na2vs0mg"},{"bike_id":"eba75a83-d417-436f-bb1a-0b2a956c41ae","system_id":"levelo_inurba_marseille","lat":43.32819,"lon":5.42609,"is_reserved":false,"is_disabled":false,"rental_uris":{"android":"levelo://app?vid=eba75a83-d417-436f-bb1a-0b2a956c41ae","ios":"levelo://app?vid=eba75a83-d417-436f-bb1a-0b2a956c41ae"},"vehicle_type_id":"4","last_reported":1778706923,"current_range_meters":2800,"station_id":"","pricing_plan_id":"cebpf4jnsgd1na2vs0mg"},{"bike_id":"c7c800af-c7ec-47ee-9d7e-4bee952bdc3e","system_id":"levelo_inurba_marseille","lat":43.273788,"lon":5.362614,"is_reserved":false,"is_disabled":false,"rental_uris":{"android":"levelo://app?vid=c7c800af-c7ec-47ee-9d7e-4bee952bdc3e","ios":"levelo://app?vid=c7c800af-c7ec-47ee-9d7e-4bee952bdc3e"},"vehicle_type_id":"4","last_reported":1778706923,"current_range_meters":3200,"station_id":"ce4bhbh2rcd13ifvqeo0","pricing_plan_id":"cebpf4jnsgd1na2vs0mg"},{"bike_id":"3ffc93a6-bb76-4eaf-bf6b-a7895365a766","system_id":"levelo_inurba_marseille","lat":43.34142,"lon":5.40903,"is_reserved":false,"is_disabled":false,"rental_uris":{"android":"levelo://app?vid=3ffc93a6-bb76-4eaf-bf6b-a7895365a766","ios":"levelo://app?vid=3ffc93a6-bb76-4eaf-bf6b-a7895365a766"},"vehicle_type_id":"4","last_reported":1778706923,"current_range_meters":3200,"station_id":"ce4bhqh2rcd13ifvqhlg","pricing_plan_id":"cebpf4jnsgd1na2vs0mg"},{"bike_id":"d42eff96-2a63-4bb7-854f-d06471913ef6","system_id":"levelo_inurba_marseille","lat":43.31753,"lon":5.37732,"is_reserved":false,"is_disabled":true,"rental_uris":{"android":"levelo://app?vid=d42eff96-2a63-4bb7-854f-d06471913ef6","ios":"levelo://app?vid=d42eff96-2a63-4bb7-854f-d06471913ef6"},"vehicle_type_id":"4","last_reported":1778706923,"current_range_meters":3200,"station_id":"ce4bgth2rcd13ifvqch0","pricing_plan_id":"cebpf4jnsgd1na2vs0mg"},{"bike_id":"cae4e1f9-3a1d-4d1a-aae3-254508a0f336","system_id":"levelo_inurba_marseille","lat":43.287212,"lon":5.36089,"is_reserved":false,"is_disabled":false,"rental_uris":{"android":"levelo://app?vid=cae4e1f9-3a1d-4d1a-aae3-254508a0f336","ios":"levelo://app?vid=cae4e1f9-3a1d-4d1a-aae3-254508a0f336"},"vehicle_type_id":"4","last_reported":1778706923,"current_range_meters":3200,"station_id":"cki0cbj6b192h4jlfktg","pricing_plan_id":"cebpf4jnsgd1na2vs0mg"},{"bike_id":"dd30dafa-ab4c-4185-b2c3-6f6ba4f3e360","system_id":"levelo_inurba_marseille","lat":43.25584,"lon":5.38228,"is_reserved":false,"is_disabled":true,"rental_uris":{"android":"levelo://app?vid=dd30dafa-ab4c-4185-b2c3-6f6ba4f3e360","ios":"levelo://app?vid=dd30dafa-ab4c-4185-b2c3-6f6ba4f3e360"},"vehicle_type_id":"4","last_reported":1778706923,"current_range_meters":3200,"station_id":"ce4bhih2rcd13ifvqfs0","pricing_plan_id":"cebpf4jnsgd1na2vs0mg"},{"bike_id":"281baeb8-dde8-4d7e-9f67-5258bcd7adb2","system_id":"levelo_inurba_marseille","lat":43.28073,"lon":5.35234,"is_reserved":false,"is_disabled":false,"rental_uris":{"android":"levelo://app?vid=281baeb8-dde8-4d7e-9f67-5258bcd7adb2","ios":"levelo://app?vid=281baeb8-dde8-4d7e-9f67-5258bcd7adb2"},"vehicle_type_id":"4","last_reported":1778706923,"current_range_meters":3200,"station_id":"","pricing_plan_id":"cebpf4jnsgd1na2vs0mg"},{"bike_id":"85e65660-9792-47c9-a538-8db46a966102","system_id":"levelo_inurba_marseille","lat":43.29603,"lon":5.38087,"is_reserved":false,"is_disabled":false,"rental_uris":{"android":"levelo://app?vid=85e65660-9792-47c9-a538-8db46a966102","ios":"levelo://app?vid=85e65660-9792-47c9-a538-8db46a966102"},"vehicle_type_id":"4","last_reported":1778706923,"current_range_meters":3200,"station_id":"ce4bgl12rcd13ifvqbo0","pricing_plan_id":"cebpf4jnsgd1na2vs0mg"},{"bike_id":"8882e8da-5af3-44e8-ab4e-8407de440b57","system_id":"levelo_inurba_marseille","lat":43.24945,"lon":5.40481,"is_reserved":false,"is_disabled":false,"rental_uris":{"android":"levelo://app?vid=8882e8da-5af3-44e8-ab4e-8407de440b57","ios":"levelo://app?vid=8882e8da-5af3-44e8-ab4e-8407de440b57"},"vehicle_type_id":"4","last_reported":1778706923,"current_range_meters":3200,"station_id":"st_d2ngiaodas8pm72gd1h0","pricing_plan_id":"cebpf4jnsgd1na2vs0mg"},{"bike_id":"e0517db7-0002-4ab4-a6b8-c5a39f1d2f9e","system_id":"levelo_inurba_marseille","lat":43.29564,"lon":5.39956,"is_reserved":false,"is_disabled":true,"rental_uris":{"android":"levelo://app?vid=e0517db7-0002-4ab4-a6b8-c5a39f1d2f9e","ios":"levelo://app?vid=e0517db7-0002-4ab4-a6b8-c5a39f1d2f9e"},"vehicle_type_id":"4","last_reported":1778706923,"current_range_meters":3600,"station_id":"ce4bh312rcd13ifvqdj0","pricing_plan_id":"cebpf4jnsgd1na2vs0mg"},{"bike_id":"2a8b24e9-9caf-4306-b9f8-0461eeb21443","system_id":"levelo_inurba_marseille","lat":43.3134,"lon":5.37918,"is_reserved":false,"is_disabled":false,"rental_uris":{"android":"levelo://app?vid=2a8b24e9-9caf-4306-b9f8-0461eeb21443","ios":"levelo://app?vid=2a8b24e9-9caf-4306-b9f8-0461eeb21443"},"vehicle_type_id":"4","last_reported":1778706923,"current_range_meters":3600,"station_id":"","pricing_plan_id":"cebpf4jnsgd1na2vs0mg"},{"bike_id":"d1982dd3-80b9-4c39-8879-ea5d820911b3","system_id":"levelo_inurba_marseille","lat":43.27223,"lon":5.39215,"is_reserved":false,"is_disabled":false,"rental_uris":{"android":"levelo://app?vid=d1982dd3-80b9-4c39-8879-ea5d820911b3","ios":"levelo://app?vid=d1982dd3-80b9-4c39-8879-ea5d820911b3"},"vehicle_type_id":"4","last_reported":1778706923,"current_range_meters":3600,"station_id":"ce4bhhp2rcd13ifvqfm0","pricing_plan_id":"cebpf4jnsgd1na2vs0mg"},{"bike_id":"b08622a3-72db-4a2e-bcf0-dfe85e04359c","system_id":"levelo_inurba_marseille","lat":43.28661,"lon":5.36257,"is_reserved":false,"is_disabled":false,"rental_uris":{"android":"levelo://app?vid=b08622a3-72db-4a2e-bcf0-dfe85e04359c","ios":"levelo://app?vid=b08622a3-72db-4a2e-bcf0-dfe85e04359c"},"vehicle_type_id":"4","last_reported":1778706923,"current_range_meters":3600,"station_id":"","pricing_plan_id":"cebpf4jnsgd1na2vs0mg"},{"bike_id":"4fa4b39a-f640-40a3-82d4-b22062366cfc","system_id":"levelo_inurba_marseille","lat":43.30004,"lon":5.36725,"is_reserved":false,"is_disabled":false,"rental_uris":{"android":"levelo://app?vid=4fa4b39a-f640-40a3-82d4-b22062366cfc","ios":"levelo://app?vid=4fa4b39a-f640-40a3-82d4-b22062366cfc"},"vehicle_type_id":"4","last_reported":1778706923,"current_range_meters":3600,"station_id":"","pricing_plan_id":"cebpf4jnsgd1na2vs0mg"},{"bike_id":"fd4e18a8-1a97-42ff-a2f0-394a200d1bd7","system_id":"levelo_inurba_marseille","lat":43.29806,"lon":5.40401,"is_reserved":false,"is_disabled":false,"rental_uris":{"android":"levelo://app?vid=fd4e18a8-1a97-42ff-a2f0-394a200d1bd7","ios":"levelo://app?vid=fd4e18a8-1a97-42ff-a2f0-394a200d1bd7"},"vehicle_type_id":"4","last_reported":1778706923,"current_range_meters":3600,"station_id":"ce4bh112rcd13ifvqd90","pricing_plan_id":"cebpf4jnsgd1na2vs0mg"},{"bike_id":"5dd78fb5-ad09-4012-9148-1ce388ebf8ce","system_id":"levelo_inurba_marseille","lat":43.25868,"lon":5.39899,"is_reserved":false,"is_disabled":false,"rental_uris":{"android":"levelo://app?vid=5dd78fb5-ad09-4012-9148-1ce388ebf8ce","ios":"levelo://app?vid=5dd78fb5-ad09-4012-9148-1ce388ebf8ce"},"vehicle_type_id":"4","last_reported":1778706923,"current_range_meters":3600,"station_id":"ce4bhl92rcd13ifvqghg","pricing_plan_id":"cebpf4jnsgd1na2vs0mg"},{"bike_id":"4c1587f0-80fb-4877-b4a7-c6af8aec4de9","system_id":"levelo_inurba_marseille","lat":43.25818,"lon":5.3944,"is_reserved":false,"is_disabled":false,"rental_uris":{"android":"levelo://app?vid=4c1587f0-80fb-4877-b4a7-c6af8aec4de9","ios":"levelo://app?vid=4c1587f0-80fb-4877-b4a7-c6af8aec4de9"},"vehicle_type_id":"4","last_reported":1778706923,"current_range_meters":3600,"station_id":"ce4bhip2rcd13ifvqft0","pricing_plan_id":"cebpf4jnsgd1na2vs0mg"},{"bike_id":"d0e102fb-ba05-46e6-99ff-ded824909976","system_id":"levelo_inurba_marseille","lat":43.29489,"lon":5.4329,"is_reserved":false,"is_disabled":false,"rental_uris":{"android":"levelo://app?vid=d0e102fb-ba05-46e6-99ff-ded824909976","ios":"levelo://app?vid=d0e102fb-ba05-46e6-99ff-ded824909976"},"vehicle_type_id":"4","last_reported":1778706923,"current_range_meters":3600,"station_id":"st_d3j5ugp08ojc73fj9d10","pricing_plan_id":"cebpf4jnsgd1na2vs0mg"},{"bike_id":"baa5c5dd-a783-4fda-a431-62e051ddf1b8","system_id":"levelo_inurba_marseille","lat":43.28672,"lon":5.38679,"is_reserved":false,"is_disabled":false,"rental_uris":{"android":"levelo://app?vid=baa5c5dd-a783-4fda-a431-62e051ddf1b8","ios":"levelo://app?vid=baa5c5dd-a783-4fda-a431-62e051ddf1b8"},"vehicle_type_id":"4","last_reported":1778706923,"current_range_meters":4000,"station_id":"ce4bh492rcd13ifvqdug","pricing_plan_id":"cebpf4jnsgd1na2vs0mg"},{"bike_id":"343e6e00-0d9c-4e3a-a1ef-22b0e22274ab","system_id":"levelo_inurba_marseille","lat":43.30236,"lon":5.40026,"is_reserved":false,"is_disabled":false,"rental_uris":{"android":"levelo://app?vid=343e6e00-0d9c-4e3a-a1ef-22b0e22274ab","ios":"levelo://app?vid=343e6e00-0d9c-4e3a-a1ef-22b0e22274ab"},"vehicle_type_id":"4","last_reported":1778706923,"current_range_meters":4000,"station_id":"","pricing_plan_id":"cebpf4jnsgd1na2vs0mg"},{"bike_id":"5dd68511-b4a3-4276-9fb9-d30a191306db","system_id":"levelo_inurba_marseille","lat":43.33761,"lon":5.37453,"is_reserved":false,"is_disabled":false,"rental_uris":{"android":"levelo://app?vid=5dd68511-b4a3-4276-9fb9-d30a191306db","ios":"levelo://app?vid=5dd68511-b4a3-4276-9fb9-d30a191306db"},"vehicle_type_id":"4","last_reported":1778706923,"current_range_meters":4000,"station_id":"","pricing_plan_id":"cebpf4jnsgd1na2vs0mg"},{"bike_id":"0a548a91-b357-4015-92ae-90e8dde0afd9","system_id":"levelo_inurba_marseille","lat":43.30892,"lon":5.37177,"is_reserved":false,"is_disabled":false,"rental_uris":{"android":"levelo://app?vid=0a548a91-b357-4015-92ae-90e8dde0afd9","ios":"levelo://app?vid=0a548a91-b357-4015-92ae-90e8dde0afd9"},"vehicle_type_id":"4","last_reported":1778706923,"current_range_meters":4000,"station_id":"ce4bguh2rcd13ifvqckg","pricing_plan_id":"cebpf4jnsgd1na2vs0mg"},{"bike_id":"002dd5c2-43d5-4b4b-b355-153088b22174","system_id":"levelo_inurba_marseille","lat":43.29795,"lon":5.39737,"is_reserved":false,"is_disabled":false,"rental_uris":{"android":"levelo://app?vid=002dd5c2-43d5-4b4b-b355-153088b22174","ios":"levelo://app?vid=002dd5c2-43d5-4b4b-b355-153088b22174"},"vehicle_type_id":"4","last_reported":1778706923,"current_range_meters":4000,"station_id":"","pricing_plan_id":"cebpf4jnsgd1na2vs0mg"},{"bike_id":"3549c190-ba25-4a06-b751-5b52c4ff2b2c","system_id":"levelo_inurba_marseille","lat":43.225323,"lon":5.348352,"is_reserved":false,"is_disabled":false,"rental_uris":{"android":"levelo://app?vid=3549c190-ba25-4a06-b751-5b52c4ff2b2c","ios":"levelo://app?vid=3549c190-ba25-4a06-b751-5b52c4ff2b2c"},"vehicle_type_id":"4","last_reported":1778706923,"current_range_meters":4000,"station_id":"st_cvj5dfep6f1abm77gieg","pricing_plan_id":"cebpf4jnsgd1na2vs0mg"},{"bike_id":"1f5556bc-4bf7-481f-9874-e3e1df7edc42","system_id":"levelo_inurba_marseille","lat":43.28542,"lon":5.44091,"is_reserved":false,"is_disabled":true,"rental_uris":{"android":"levelo://app?vid=1f5556bc-4bf7-481f-9874-e3e1df7edc42","ios":"levelo://app?vid=1f5556bc-4bf7-481f-9874-e3e1df7edc42"},"vehicle_type_id":"4","last_reported":1778706923,"current_range_meters":4000,"station_id":"st_d3j3df2ikq2c7380ej80","pricing_plan_id":"cebpf4jnsgd1na2vs0mg"},{"bike_id":"365f3c4f-0aec-469b-84b6-b284aa6da290","system_id":"levelo_inurba_marseille","lat":43.31992,"lon":5.38133,"is_reserved":false,"is_disabled":false,"rental_uris":{"android":"levelo://app?vid=365f3c4f-0aec-469b-84b6-b284aa6da290","ios":"levelo://app?vid=365f3c4f-0aec-469b-84b6-b284aa6da290"},"vehicle_type_id":"4","last_reported":1778706923,"current_range_meters":4000,"station_id":"ce4bhr12rcd13ifvqhpg","pricing_plan_id":"cebpf4jnsgd1na2vs0mg"},{"bike_id":"86e05e9d-89d9-4ad2-be12-157595e837b5","system_id":"levelo_inurba_marseille","lat":43.28536,"lon":5.39496,"is_reserved":false,"is_disabled":false,"rental_uris":{"android":"levelo://app?vid=86e05e9d-89d9-4ad2-be12-157595e837b5","ios":"levelo://app?vid=86e05e9d-89d9-4ad2-be12-157595e837b5"},"vehicle_type_id":"4","last_reported":1778706923,"current_range_meters":4000,"station_id":"ce4bh292rcd13ifvqdg0","pricing_plan_id":"cebpf4jnsgd1na2vs0mg"},{"bike_id":"6d7a821f-064c-4976-a479-b50f4fb40176","system_id":"levelo_inurba_marseille","lat":43.3064,"lon":5.40068,"is_reserved":false,"is_disabled":false,"rental_uris":{"android":"levelo://app?vid=6d7a821f-064c-4976-a479-b50f4fb40176","ios":"levelo://app?vid=6d7a821f-064c-4976-a479-b50f4fb40176"},"vehicle_type_id":"4","last_reported":1778706923,"current_range_meters":4400,"station_id":"ce4bh112rcd13ifvqda0","pricing_plan_id":"cebpf4jnsgd1na2vs0mg"},{"bike_id":"64a46267-6b52-4a02-b6f6-f5c2f77a133d","system_id":"levelo_inurba_marseille","lat":43.28857,"lon":5.40053,"is_reserved":false,"is_disabled":true,"rental_uris":{"android":"levelo://app?vid=64a46267-6b52-4a02-b6f6-f5c2f77a133d","ios":"levelo://app?vid=64a46267-6b52-4a02-b6f6-f5c2f77a133d"},"vehicle_type_id":"4","last_reported":1778706923,"current_range_meters":4400,"station_id":"","pricing_plan_id":"cebpf4jnsgd1na2vs0mg"},{"bike_id":"5f55c865-0bd0-4394-a2ae-c01c075b4bd3","system_id":"levelo_inurba_marseille","lat":43.2893,"lon":5.396344,"is_reserved":false,"is_disabled":false,"rental_uris":{"android":"levelo://app?vid=5f55c865-0bd0-4394-a2ae-c01c075b4bd3","ios":"levelo://app?vid=5f55c865-0bd0-4394-a2ae-c01c075b4bd3"},"vehicle_type_id":"4","last_reported":1778706923,"current_range_meters":4400,"station_id":"ce4bh392rcd13ifvqdm0","pricing_plan_id":"cebpf4jnsgd1na2vs0mg"},{"bike_id":"f3acf221-ac54-4ed5-b1ec-a3daba4e5770","system_id":"levelo_inurba_marseille","lat":43.288594,"lon":5.425146,"is_reserved":false,"is_disabled":true,"rental_uris":{"android":"levelo://app?vid=f3acf221-ac54-4ed5-b1ec-a3daba4e5770","ios":"levelo://app?vid=f3acf221-ac54-4ed5-b1ec-a3daba4e5770"},"vehicle_type_id":"4","last_reported":1778706923,"current_range_meters":4400,"station_id":"","pricing_plan_id":"cebpf4jnsgd1na2vs0mg"},{"bike_id":"cc5b7f7a-0cd1-4ae4-b884-39eb267c4489","system_id":"levelo_inurba_marseille","lat":43.27563,"lon":5.38411,"is_reserved":false,"is_disabled":false,"rental_uris":{"android":"levelo://app?vid=cc5b7f7a-0cd1-4ae4-b884-39eb267c4489","ios":"levelo://app?vid=cc5b7f7a-0cd1-4ae4-b884-39eb267c4489"},"vehicle_type_id":"4","last_reported":1778706923,"current_range_meters":4400,"station_id":"ce4bhh92rcd13ifvqfi0","pricing_plan_id":"cebpf4jnsgd1na2vs0mg"},{"bike_id":"43a06db5-04b5-4a22-9e6f-f46b3fa2bbc7","system_id":"levelo_inurba_marseille","lat":43.3211,"lon":5.36763,"is_reserved":false,"is_disabled":false,"rental_uris":{"android":"levelo://app?vid=43a06db5-04b5-4a22-9e6f-f46b3fa2bbc7","ios":"levelo://app?vid=43a06db5-04b5-4a22-9e6f-f46b3fa2bbc7"},"vehicle_type_id":"4","last_reported":1778706923,"current_range_meters":4400,"station_id":"ce4bhrh2rcd13ifvqhug","pricing_plan_id":"cebpf4jnsgd1na2vs0mg"},{"bike_id":"b8c52f40-c88b-41d6-98f6-76196ddf5d74","system_id":"levelo_inurba_marseille","lat":43.29161,"lon":5.38033,"is_reserved":false,"is_disabled":false,"rental_uris":{"android":"levelo://app?vid=b8c52f40-c88b-41d6-98f6-76196ddf5d74","ios":"levelo://app?vid=b8c52f40-c88b-41d6-98f6-76196ddf5d74"},"vehicle_type_id":"4","last_reported":1778706923,"current_range_meters":4400,"station_id":"","pricing_plan_id":"cebpf4jnsgd1na2vs0mg"},{"bike_id":"a50e09e8-7dbf-4fc0-ab8e-89e093488ce3","system_id":"levelo_inurba_marseille","lat":43.28202,"lon":5.39048,"is_reserved":false,"is_disabled":false,"rental_uris":{"android":"levelo://app?vid=a50e09e8-7dbf-4fc0-ab8e-89e093488ce3","ios":"levelo://app?vid=a50e09e8-7dbf-4fc0-ab8e-89e093488ce3"},"vehicle_type_id":"4","last_reported":1778706923,"current_range_meters":4400,"station_id":"ce4bhn92rcd13ifvqgsg","pricing_plan_id":"cebpf4jnsgd1na2vs0mg"},{"bike_id":"8b2482db-e468-44a2-9f5e-15c9614724f2","system_id":"levelo_inurba_marseille","lat":43.29551,"lon":5.38543,"is_reserved":false,"is_disabled":false,"rental_uris":{"android":"levelo://app?vid=8b2482db-e468-44a2-9f5e-15c9614724f2","ios":"levelo://app?vid=8b2482db-e468-44a2-9f5e-15c9614724f2"},"vehicle_type_id":"4","last_reported":1778706923,"current_range_meters":4400,"station_id":"ce4bgih2rcd13ifvqba0","pricing_plan_id":"cebpf4jnsgd1na2vs0mg"},{"bike_id":"cc07bf0e-fbfe-4b5f-bef1-ce0ea8b187cc","system_id":"levelo_inurba_marseille","lat":43.304287,"lon":5.397473,"is_reserved":false,"is_disabled":false,"rental_uris":{"android":"levelo://app?vid=cc07bf0e-fbfe-4b5f-bef1-ce0ea8b187cc","ios":"levelo://app?vid=cc07bf0e-fbfe-4b5f-bef1-ce0ea8b187cc"},"vehicle_type_id":"4","last_reported":1778706923,"current_range_meters":4400,"station_id":"ce4bh092rcd13ifvqd20","pricing_plan_id":"cebpf4jnsgd1na2vs0mg"},{"bike_id":"72d9b333-6340-445d-b4a3-2541590e555d","system_id":"levelo_inurba_marseille","lat":43.24656,"lon":5.3815,"is_reserved":false,"is_disabled":false,"rental_uris":{"android":"levelo://app?vid=72d9b333-6340-445d-b4a3-2541590e555d","ios":"levelo://app?vid=72d9b333-6340-445d-b4a3-2541590e555d"},"vehicle_type_id":"4","last_reported":1778706923,"current_range_meters":4400,"station_id":"ce4bhih2rcd13ifvqfr0","pricing_plan_id":"cebpf4jnsgd1na2vs0mg"},{"bike_id":"45cf935b-63d2-4e49-b20f-ba3d2961f492","system_id":"levelo_inurba_marseille","lat":43.28606,"lon":5.39851,"is_reserved":false,"is_disabled":false,"rental_uris":{"android":"levelo://app?vid=45cf935b-63d2-4e49-b20f-ba3d2961f492","ios":"levelo://app?vid=45cf935b-63d2-4e49-b20f-ba3d2961f492"},"vehicle_type_id":"4","last_reported":1778706923,"current_range_meters":4400,"station_id":"st_d4a7ka997mjs738ck50g","pricing_plan_id":"cebpf4jnsgd1na2vs0mg"},{"bike_id":"8e012732-d687-40e6-979a-b5776aae3c15","system_id":"levelo_inurba_marseille","lat":43.32118,"lon":5.36776,"is_reserved":false,"is_disabled":false,"rental_uris":{"android":"levelo://app?vid=8e012732-d687-40e6-979a-b5776aae3c15","ios":"levelo://app?vid=8e012732-d687-40e6-979a-b5776aae3c15"},"vehicle_type_id":"4","last_reported":1778706923,"current_range_meters":4800,"station_id":"ce4bhrh2rcd13ifvqhug","pricing_plan_id":"cebpf4jnsgd1na2vs0mg"},{"bike_id":"ab5a67cc-2b0d-4199-b45d-a9d7d6047cab","system_id":"levelo_inurba_marseille","lat":43.30207,"lon":5.36866,"is_reserved":false,"is_disabled":false,"rental_uris":{"android":"levelo://app?vid=ab5a67cc-2b0d-4199-b45d-a9d7d6047cab","ios":"levelo://app?vid=ab5a67cc-2b0d-4199-b45d-a9d7d6047cab"},"vehicle_type_id":"4","last_reported":1778706923,"current_range_meters":4800,"station_id":"","pricing_plan_id":"cebpf4jnsgd1na2vs0mg"},{"bike_id":"7f83a86c-833d-407b-bafc-0a5071eb3dc5","system_id":"levelo_inurba_marseille","lat":43.289539,"lon":5.396823,"is_reserved":false,"is_disabled":false,"rental_uris":{"android":"levelo://app?vid=7f83a86c-833d-407b-bafc-0a5071eb3dc5","ios":"levelo://app?vid=7f83a86c-833d-407b-bafc-0a5071eb3dc5"},"vehicle_type_id":"4","last_reported":1778706923,"current_range_meters":4800,"station_id":"ce4bh3h2rcd13ifvqdn0","pricing_plan_id":"cebpf4jnsgd1na2vs0mg"},{"bike_id":"10a3b9be-d5ba-4992-854a-2354c738daff","system_id":"levelo_inurba_marseille","lat":43.31308,"lon":5.37779,"is_reserved":false,"is_disabled":false,"rental_uris":{"android":"levelo://app?vid=10a3b9be-d5ba-4992-854a-2354c738daff","ios":"levelo://app?vid=10a3b9be-d5ba-4992-854a-2354c738daff"},"vehicle_type_id":"4","last_reported":1778706923,"current_range_meters":4800,"station_id":"","pricing_plan_id":"cebpf4jnsgd1na2vs0mg"},{"bike_id":"04457e6f-0405-4b98-9944-c702e39a01bd","system_id":"levelo_inurba_marseille","lat":43.3144,"lon":5.37392,"is_reserved":false,"is_disabled":false,"rental_uris":{"android":"levelo://app?vid=04457e6f-0405-4b98-9944-c702e39a01bd","ios":"levelo://app?vid=04457e6f-0405-4b98-9944-c702e39a01bd"},"vehicle_type_id":"4","last_reported":1778706923,"current_range_meters":4800,"station_id":"","pricing_plan_id":"cebpf4jnsgd1na2vs0mg"},{"bike_id":"b93f308d-6e17-4743-88cf-22d1124332e6","system_id":"levelo_inurba_marseille","lat":43.25338,"lon":5.42171,"is_reserved":false,"is_disabled":false,"rental_uris":{"android":"levelo://app?vid=b93f308d-6e17-4743-88cf-22d1124332e6","ios":"levelo://app?vid=b93f308d-6e17-4743-88cf-22d1124332e6"},"vehicle_type_id":"4","last_reported":1778706923,"current_range_meters":4800,"station_id":"st_d2m65c5bi1j21697t3ng","pricing_plan_id":"cebpf4jnsgd1na2vs0mg"},{"bike_id":"2430480c-8fa2-4feb-b401-2b92d98db056","system_id":"levelo_inurba_marseille","lat":43.30818,"lon":5.38138,"is_reserved":false,"is_disabled":false,"rental_uris":{"android":"levelo://app?vid=2430480c-8fa2-4feb-b401-2b92d98db056","ios":"levelo://app?vid=2430480c-8fa2-4feb-b401-2b92d98db056"},"vehicle_type_id":"4","last_reported":1778706923,"current_range_meters":4800,"station_id":"ce4bgt12rcd13ifvqce0","pricing_plan_id":"cebpf4jnsgd1na2vs0mg"},{"bike_id":"98aeb44e-8278-4312-aac2-2f16e0920667","system_id":"levelo_inurba_marseille","lat":43.30893,"lon":5.39656,"is_reserved":false,"is_disabled":false,"rental_uris":{"android":"levelo://app?vid=98aeb44e-8278-4312-aac2-2f16e0920667","ios":"levelo://app?vid=98aeb44e-8278-4312-aac2-2f16e0920667"},"vehicle_type_id":"4","last_reported":1778706923,"current_range_meters":4800,"station_id":"ce4bh012rcd13ifvqcv0","pricing_plan_id":"cebpf4jnsgd1na2vs0mg"},{"bike_id":"35b6ecdf-03fe-450e-88d8-82bb00199c3c","system_id":"levelo_inurba_marseille","lat":43.29838,"lon":5.38061,"is_reserved":false,"is_disabled":true,"rental_uris":{"android":"levelo://app?vid=35b6ecdf-03fe-450e-88d8-82bb00199c3c","ios":"levelo://app?vid=35b6ecdf-03fe-450e-88d8-82bb00199c3c"},"vehicle_type_id":"4","last_reported":1778706923,"current_range_meters":4800,"station_id":"","pricing_plan_id":"cebpf4jnsgd1na2vs0mg"},{"bike_id":"b9c7cd32-9284-4f54-9cbe-6b2a766e20fb","system_id":"levelo_inurba_marseille","lat":43.25081,"lon":5.39506,"is_reserved":false,"is_disabled":false,"rental_uris":{"android":"levelo://app?vid=b9c7cd32-9284-4f54-9cbe-6b2a766e20fb","ios":"levelo://app?vid=b9c7cd32-9284-4f54-9cbe-6b2a766e20fb"},"vehicle_type_id":"4","last_reported":1778706923,"current_range_meters":4800,"station_id":"ce4bhm12rcd13ifvqgkg","pricing_plan_id":"cebpf4jnsgd1na2vs0mg"},{"bike_id":"192de476-9345-42a7-8b0c-1c71b2f0da40","system_id":"levelo_inurba_marseille","lat":43.30137,"lon":5.3741,"is_reserved":false,"is_disabled":false,"rental_uris":{"android":"levelo://app?vid=192de476-9345-42a7-8b0c-1c71b2f0da40","ios":"levelo://app?vid=192de476-9345-42a7-8b0c-1c71b2f0da40"},"vehicle_type_id":"4","last_reported":1778706923,"current_range_meters":4800,"station_id":"ce4bgs92rcd13ifvqcc0","pricing_plan_id":"cebpf4jnsgd1na2vs0mg"},{"bike_id":"b2624d21-8d60-49d1-abad-bef1f0574231","system_id":"levelo_inurba_marseille","lat":43.25495,"lon":5.37644,"is_reserved":false,"is_disabled":false,"rental_uris":{"android":"levelo://app?vid=b2624d21-8d60-49d1-abad-bef1f0574231","ios":"levelo://app?vid=b2624d21-8d60-49d1-abad-bef1f0574231"},"vehicle_type_id":"4","last_reported":1778706923,"current_range_meters":4800,"station_id":"ce4bhh12rcd13ifvqff0","pricing_plan_id":"cebpf4jnsgd1na2vs0mg"},{"bike_id":"0f37d688-46c0-4558-9b09-89bb1915d2b6","system_id":"levelo_inurba_marseille","lat":43.33536,"lon":5.37452,"is_reserved":false,"is_disabled":false,"rental_uris":{"android":"levelo://app?vid=0f37d688-46c0-4558-9b09-89bb1915d2b6","ios":"levelo://app?vid=0f37d688-46c0-4558-9b09-89bb1915d2b6"},"vehicle_type_id":"4","last_reported":1778706923,"current_range_meters":4800,"station_id":"st_d46tts09ee8s73dlu43g","pricing_plan_id":"cebpf4jnsgd1na2vs0mg"},{"bike_id":"44625de2-ceea-45a3-b6e0-4e74c0a1850b","system_id":"levelo_inurba_marseille","lat":43.29601,"lon":5.38098,"is_reserved":false,"is_disabled":false,"rental_uris":{"android":"levelo://app?vid=44625de2-ceea-45a3-b6e0-4e74c0a1850b","ios":"levelo://app?vid=44625de2-ceea-45a3-b6e0-4e74c0a1850b"},"vehicle_type_id":"4","last_reported":1778706923,"current_range_meters":4800,"station_id":"ce4bgl12rcd13ifvqbo0","pricing_plan_id":"cebpf4jnsgd1na2vs0mg"},{"bike_id":"630f590b-0a9f-466b-9ca4-6c71573fb46f","system_id":"levelo_inurba_marseille","lat":43.29192,"lon":5.36026,"is_reserved":false,"is_disabled":false,"rental_uris":{"android":"levelo://app?vid=630f590b-0a9f-466b-9ca4-6c71573fb46f","ios":"levelo://app?vid=630f590b-0a9f-466b-9ca4-6c71573fb46f"},"vehicle_type_id":"4","last_reported":1778706923,"current_range_meters":4800,"station_id":"","pricing_plan_id":"cebpf4jnsgd1na2vs0mg"},{"bike_id":"66bb1d1a-0a66-445e-b553-a38109b764e6","system_id":"levelo_inurba_marseille","lat":43.30656,"lon":5.40082,"is_reserved":false,"is_disabled":false,"rental_uris":{"android":"levelo://app?vid=66bb1d1a-0a66-445e-b553-a38109b764e6","ios":"levelo://app?vid=66bb1d1a-0a66-445e-b553-a38109b764e6"},"vehicle_type_id":"4","last_reported":1778706923,"current_range_meters":5600,"station_id":"ce4bh112rcd13ifvqda0","pricing_plan_id":"cebpf4jnsgd1na2vs0mg"},{"bike_id":"aff5cc42-3685-48ce-8c14-8495b1a9b20f","system_id":"levelo_inurba_marseille","lat":43.29169,"lon":5.37162,"is_reserved":false,"is_disabled":false,"rental_uris":{"android":"levelo://app?vid=aff5cc42-3685-48ce-8c14-8495b1a9b20f","ios":"levelo://app?vid=aff5cc42-3685-48ce-8c14-8495b1a9b20f"},"vehicle_type_id":"4","last_reported":1778706923,"current_range_meters":5600,"station_id":"ce4bha92rcd13ifvqeh0","pricing_plan_id":"cebpf4jnsgd1na2vs0mg"},{"bike_id":"492bc1b5-62c1-45cd-be18-d591945c5eae","system_id":"levelo_inurba_marseille","lat":43.25886,"lon":5.39895,"is_reserved":false,"is_disabled":true,"rental_uris":{"android":"levelo://app?vid=492bc1b5-62c1-45cd-be18-d591945c5eae","ios":"levelo://app?vid=492bc1b5-62c1-45cd-be18-d591945c5eae"},"vehicle_type_id":"4","last_reported":1778706923,"current_range_meters":5600,"station_id":"ce4bhl92rcd13ifvqghg","pricing_plan_id":"cebpf4jnsgd1na2vs0mg"},{"bike_id":"bd95c849-fd1f-4061-8a2c-dd7db6e8208e","system_id":"levelo_inurba_marseille","lat":43.24802,"lon":5.37454,"is_reserved":false,"is_disabled":false,"rental_uris":{"android":"levelo://app?vid=bd95c849-fd1f-4061-8a2c-dd7db6e8208e","ios":"levelo://app?vid=bd95c849-fd1f-4061-8a2c-dd7db6e8208e"},"vehicle_type_id":"4","last_reported":1778706923,"current_range_meters":5600,"station_id":"ce4bhgh2rcd13ifvqfb0","pricing_plan_id":"cebpf4jnsgd1na2vs0mg"},{"bike_id":"04fab4f5-3865-44d6-9da6-cd03201dc7b5","system_id":"levelo_inurba_marseille","lat":43.29502,"lon":5.42273,"is_reserved":false,"is_disabled":false,"rental_uris":{"android":"levelo://app?vid=04fab4f5-3865-44d6-9da6-cd03201dc7b5","ios":"levelo://app?vid=04fab4f5-3865-44d6-9da6-cd03201dc7b5"},"vehicle_type_id":"4","last_reported":1778706923,"current_range_meters":5600,"station_id":"","pricing_plan_id":"cebpf4jnsgd1na2vs0mg"},{"bike_id":"6d5846d2-0874-495b-b7bc-c517b4a30462","system_id":"levelo_inurba_marseille","lat":43.30202,"lon":5.38062,"is_reserved":false,"is_disabled":false,"rental_uris":{"android":"levelo://app?vid=6d5846d2-0874-495b-b7bc-c517b4a30462","ios":"levelo://app?vid=6d5846d2-0874-495b-b7bc-c517b4a30462"},"vehicle_type_id":"4","last_reported":1778706923,"current_range_meters":5600,"station_id":"","pricing_plan_id":"cebpf4jnsgd1na2vs0mg"},{"bike_id":"48066121-841a-4b69-bb96-5a67813041e0","system_id":"levelo_inurba_marseille","lat":43.28704,"lon":5.46681,"is_reserved":false,"is_disabled":false,"rental_uris":{"android":"levelo://app?vid=48066121-841a-4b69-bb96-5a67813041e0","ios":"levelo://app?vid=48066121-841a-4b69-bb96-5a67813041e0"},"vehicle_type_id":"4","last_reported":1778706923,"current_range_meters":5600,"station_id":"st_d6tc3vkotcvc738tfjhg","pricing_plan_id":"cebpf4jnsgd1na2vs0mg"},{"bike_id":"22418c41-98c8-454e-b794-2a1abe0ca90b","system_id":"levelo_inurba_marseille","lat":43.29139,"lon":5.36807,"is_reserved":false,"is_disabled":false,"rental_uris":{"android":"levelo://app?vid=22418c41-98c8-454e-b794-2a1abe0ca90b","ios":"levelo://app?vid=22418c41-98c8-454e-b794-2a1abe0ca90b"},"vehicle_type_id":"4","last_reported":1778706923,"current_range_meters":5600,"station_id":"","pricing_plan_id":"cebpf4jnsgd1na2vs0mg"},{"bike_id":"aa3f6d5a-caf7-4884-92ce-12eb0b9c9e82","system_id":"levelo_inurba_marseille","lat":43.28004,"lon":5.39353,"is_reserved":false,"is_disabled":false,"rental_uris":{"android":"levelo://app?vid=aa3f6d5a-caf7-4884-92ce-12eb0b9c9e82","ios":"levelo://app?vid=aa3f6d5a-caf7-4884-92ce-12eb0b9c9e82"},"vehicle_type_id":"4","last_reported":1778706923,"current_range_meters":5600,"station_id":"","pricing_plan_id":"cebpf4jnsgd1na2vs0mg"},{"bike_id":"90696508-a5d0-432c-92b1-dc6f9bd70bd0","system_id":"levelo_inurba_marseille","lat":43.299713,"lon":5.37188,"is_reserved":false,"is_disabled":false,"rental_uris":{"android":"levelo://app?vid=90696508-a5d0-432c-92b1-dc6f9bd70bd0","ios":"levelo://app?vid=90696508-a5d0-432c-92b1-dc6f9bd70bd0"},"vehicle_type_id":"4","last_reported":1778706923,"current_range_meters":6000,"station_id":"ce4bgr92rcd13ifvqc7g","pricing_plan_id":"cebpf4jnsgd1na2vs0mg"},{"bike_id":"de5b6ea9-09fa-482a-bcb1-75522b57abbd","system_id":"levelo_inurba_marseille","lat":43.29589,"lon":5.38103,"is_reserved":false,"is_disabled":false,"rental_uris":{"android":"levelo://app?vid=de5b6ea9-09fa-482a-bcb1-75522b57abbd","ios":"levelo://app?vid=de5b6ea9-09fa-482a-bcb1-75522b57abbd"},"vehicle_type_id":"4","last_reported":1778706923,"current_range_meters":6000,"station_id":"ce4bgl12rcd13ifvqbo0","pricing_plan_id":"cebpf4jnsgd1na2vs0mg"},{"bike_id":"7076757c-102e-4b9a-8844-ed202ef3c20c","system_id":"levelo_inurba_marseille","lat":43.28479,"lon":5.48386,"is_reserved":false,"is_disabled":false,"rental_uris":{"android":"levelo://app?vid=7076757c-102e-4b9a-8844-ed202ef3c20c","ios":"levelo://app?vid=7076757c-102e-4b9a-8844-ed202ef3c20c"},"vehicle_type_id":"4","last_reported":1778706923,"current_range_meters":6000,"station_id":"","pricing_plan_id":"cebpf4jnsgd1na2vs0mg"},{"bike_id":"0ea471c0-5268-4472-afb4-1a263196240b","system_id":"levelo_inurba_marseille","lat":43.29572,"lon":5.39954,"is_reserved":false,"is_disabled":false,"rental_uris":{"android":"levelo://app?vid=0ea471c0-5268-4472-afb4-1a263196240b","ios":"levelo://app?vid=0ea471c0-5268-4472-afb4-1a263196240b"},"vehicle_type_id":"4","last_reported":1778706923,"current_range_meters":6000,"station_id":"ce4bh312rcd13ifvqdj0","pricing_plan_id":"cebpf4jnsgd1na2vs0mg"},{"bike_id":"34cd8bea-a8f6-49af-9554-9386e6d99017","system_id":"levelo_inurba_marseille","lat":43.28166,"lon":5.42657,"is_reserved":false,"is_disabled":false,"rental_uris":{"android":"levelo://app?vid=34cd8bea-a8f6-49af-9554-9386e6d99017","ios":"levelo://app?vid=34cd8bea-a8f6-49af-9554-9386e6d99017"},"vehicle_type_id":"4","last_reported":1778706923,"current_range_meters":6000,"station_id":"ce4bhnh2rcd13ifvqgug","pricing_plan_id":"cebpf4jnsgd1na2vs0mg"},{"bike_id":"76698c43-7ba5-4b3f-bd37-6030574f88f3","system_id":"levelo_inurba_marseille","lat":43.24544,"lon":5.39524,"is_reserved":false,"is_disabled":false,"rental_uris":{"android":"levelo://app?vid=76698c43-7ba5-4b3f-bd37-6030574f88f3","ios":"levelo://app?vid=76698c43-7ba5-4b3f-bd37-6030574f88f3"},"vehicle_type_id":"4","last_reported":1778706923,"current_range_meters":6000,"station_id":"ce4bhlp2rcd13ifvqgjg","pricing_plan_id":"cebpf4jnsgd1na2vs0mg"},{"bike_id":"771b1cfe-b223-47db-bb5c-3a2a5d0efb8f","system_id":"levelo_inurba_marseille","lat":43.26945,"lon":5.40246,"is_reserved":false,"is_disabled":false,"rental_uris":{"android":"levelo://app?vid=771b1cfe-b223-47db-bb5c-3a2a5d0efb8f","ios":"levelo://app?vid=771b1cfe-b223-47db-bb5c-3a2a5d0efb8f"},"vehicle_type_id":"4","last_reported":1778706923,"current_range_meters":6000,"station_id":"cjm6bp8fraef2m0cb0m0","pricing_plan_id":"cebpf4jnsgd1na2vs0mg"},{"bike_id":"c2245c86-b4cb-4972-a027-c4cdcffba543","system_id":"levelo_inurba_marseille","lat":43.25486,"lon":5.37658,"is_reserved":false,"is_disabled":false,"rental_uris":{"android":"levelo://app?vid=c2245c86-b4cb-4972-a027-c4cdcffba543","ios":"levelo://app?vid=c2245c86-b4cb-4972-a027-c4cdcffba543"},"vehicle_type_id":"4","last_reported":1778706923,"current_range_meters":6000,"station_id":"ce4bhh12rcd13ifvqff0","pricing_plan_id":"cebpf4jnsgd1na2vs0mg"},{"bike_id":"b6eb3960-fcc4-4f56-a454-36434df61ceb","system_id":"levelo_inurba_marseille","lat":43.29315,"lon":5.37172,"is_reserved":false,"is_disabled":false,"rental_uris":{"android":"levelo://app?vid=b6eb3960-fcc4-4f56-a454-36434df61ceb","ios":"levelo://app?vid=b6eb3960-fcc4-4f56-a454-36434df61ceb"},"vehicle_type_id":"4","last_reported":1778706923,"current_range_meters":6000,"station_id":"ce4bgh92rcd13ifvqb40","pricing_plan_id":"cebpf4jnsgd1na2vs0mg"},{"bike_id":"7f2cf64e-d432-4a6f-b804-e1e718732a8a","system_id":"levelo_inurba_marseille","lat":43.29201,"lon":5.35798,"is_reserved":false,"is_disabled":false,"rental_uris":{"android":"levelo://app?vid=7f2cf64e-d432-4a6f-b804-e1e718732a8a","ios":"levelo://app?vid=7f2cf64e-d432-4a6f-b804-e1e718732a8a"},"vehicle_type_id":"4","last_reported":1778706923,"current_range_meters":6000,"station_id":"ce4bhb12rcd13ifvqel0","pricing_plan_id":"cebpf4jnsgd1na2vs0mg"},{"bike_id":"5c0dec8f-a0c5-4a2d-84ed-170f482ae47d","system_id":"levelo_inurba_marseille","lat":43.295255,"lon":5.390396,"is_reserved":false,"is_disabled":false,"rental_uris":{"android":"levelo://app?vid=5c0dec8f-a0c5-4a2d-84ed-170f482ae47d","ios":"levelo://app?vid=5c0dec8f-a0c5-4a2d-84ed-170f482ae47d"},"vehicle_type_id":"4","last_reported":1778706923,"current_range_meters":6000,"station_id":"","pricing_plan_id":"cebpf4jnsgd1na2vs0mg"},{"bike_id":"0d7b76bf-bd29-4fd1-a824-bb64da67fbfc","system_id":"levelo_inurba_marseille","lat":43.29537,"lon":5.38537,"is_reserved":false,"is_disabled":false,"rental_uris":{"android":"levelo://app?vid=0d7b76bf-bd29-4fd1-a824-bb64da67fbfc","ios":"levelo://app?vid=0d7b76bf-bd29-4fd1-a824-bb64da67fbfc"},"vehicle_type_id":"4","last_reported":1778706923,"current_range_meters":6000,"station_id":"ce4bgih2rcd13ifvqba0","pricing_plan_id":"cebpf4jnsgd1na2vs0mg"},{"bike_id":"b68725fb-48bd-4094-a63b-2967d5e783dd","system_id":"levelo_inurba_marseille","lat":43.27921,"lon":5.39583,"is_reserved":false,"is_disabled":true,"rental_uris":{"android":"levelo://app?vid=b68725fb-48bd-4094-a63b-2967d5e783dd","ios":"levelo://app?vid=b68725fb-48bd-4094-a63b-2967d5e783dd"},"vehicle_type_id":"4","last_reported":1778706923,"current_range_meters":6000,"station_id":"ce4bhf92rcd13ifvqf40","pricing_plan_id":"cebpf4jnsgd1na2vs0mg"},{"bike_id":"53ab3346-6ae3-47d4-9670-f84e0aea8e0c","system_id":"levelo_inurba_marseille","lat":43.24807,"lon":5.37429,"is_reserved":false,"is_disabled":false,"rental_uris":{"android":"levelo://app?vid=53ab3346-6ae3-47d4-9670-f84e0aea8e0c","ios":"levelo://app?vid=53ab3346-6ae3-47d4-9670-f84e0aea8e0c"},"vehicle_type_id":"4","last_reported":1778706923,"current_range_meters":6000,"station_id":"ce4bhgh2rcd13ifvqfb0","pricing_plan_id":"cebpf4jnsgd1na2vs0mg"},{"bike_id":"1b92dc77-fa37-4622-8e11-1fa6fd28c9b8","system_id":"levelo_inurba_marseille","lat":43.31331,"lon":5.39706,"is_reserved":false,"is_disabled":false,"rental_uris":{"android":"levelo://app?vid=1b92dc77-fa37-4622-8e11-1fa6fd28c9b8","ios":"levelo://app?vid=1b92dc77-fa37-4622-8e11-1fa6fd28c9b8"},"vehicle_type_id":"4","last_reported":1778706923,"current_range_meters":6000,"station_id":"ce4bgvp2rcd13ifvqcu0","pricing_plan_id":"cebpf4jnsgd1na2vs0mg"},{"bike_id":"5fb8929d-8102-448c-b915-edd3a3b92015","system_id":"levelo_inurba_marseille","lat":43.33159,"lon":5.37691,"is_reserved":false,"is_disabled":false,"rental_uris":{"android":"levelo://app?vid=5fb8929d-8102-448c-b915-edd3a3b92015","ios":"levelo://app?vid=5fb8929d-8102-448c-b915-edd3a3b92015"},"vehicle_type_id":"4","last_reported":1778706923,"current_range_meters":6000,"station_id":"st_d46cu089ee8s73dldbu0","pricing_plan_id":"cebpf4jnsgd1na2vs0mg"},{"bike_id":"bc5e2925-16a2-4686-bd58-cc9a88f025e6","system_id":"levelo_inurba_marseille","lat":43.25866,"lon":5.3989,"is_reserved":false,"is_disabled":false,"rental_uris":{"android":"levelo://app?vid=bc5e2925-16a2-4686-bd58-cc9a88f025e6","ios":"levelo://app?vid=bc5e2925-16a2-4686-bd58-cc9a88f025e6"},"vehicle_type_id":"4","last_reported":1778706923,"current_range_meters":6000,"station_id":"ce4bhl92rcd13ifvqghg","pricing_plan_id":"cebpf4jnsgd1na2vs0mg"},{"bike_id":"eb778b7f-d6bc-49a0-94fa-f96e2976ee7d","system_id":"levelo_inurba_marseille","lat":43.25623,"lon":5.41983,"is_reserved":false,"is_disabled":false,"rental_uris":{"android":"levelo://app?vid=eb778b7f-d6bc-49a0-94fa-f96e2976ee7d","ios":"levelo://app?vid=eb778b7f-d6bc-49a0-94fa-f96e2976ee7d"},"vehicle_type_id":"4","last_reported":1778706923,"current_range_meters":6000,"station_id":"","pricing_plan_id":"cebpf4jnsgd1na2vs0mg"},{"bike_id":"386a0781-ba44-458a-8526-4864b27dc5e8","system_id":"levelo_inurba_marseille","lat":43.232,"lon":5.39976,"is_reserved":false,"is_disabled":false,"rental_uris":{"android":"levelo://app?vid=386a0781-ba44-458a-8526-4864b27dc5e8","ios":"levelo://app?vid=386a0781-ba44-458a-8526-4864b27dc5e8"},"vehicle_type_id":"4","last_reported":1778706923,"current_range_meters":6400,"station_id":"ce4bhn12rcd13ifvqgqg","pricing_plan_id":"cebpf4jnsgd1na2vs0mg"},{"bike_id":"405f1dbf-c088-4880-9365-03325b4d46a5","system_id":"levelo_inurba_marseille","lat":43.28033,"lon":5.39984,"is_reserved":false,"is_disabled":false,"rental_uris":{"android":"levelo://app?vid=405f1dbf-c088-4880-9365-03325b4d46a5","ios":"levelo://app?vid=405f1dbf-c088-4880-9365-03325b4d46a5"},"vehicle_type_id":"4","last_reported":1778706923,"current_range_meters":6400,"station_id":"ce4bho92rcd13ifvqh4g","pricing_plan_id":"cebpf4jnsgd1na2vs0mg"},{"bike_id":"4b2a07a7-0d6c-4702-a9af-dc1c6cdb7501","system_id":"levelo_inurba_marseille","lat":43.29492,"lon":5.43306,"is_reserved":false,"is_disabled":false,"rental_uris":{"android":"levelo://app?vid=4b2a07a7-0d6c-4702-a9af-dc1c6cdb7501","ios":"levelo://app?vid=4b2a07a7-0d6c-4702-a9af-dc1c6cdb7501"},"vehicle_type_id":"4","last_reported":1778706923,"current_range_meters":6400,"station_id":"st_d3j5ugp08ojc73fj9d10","pricing_plan_id":"cebpf4jnsgd1na2vs0mg"},{"bike_id":"72179d6d-4306-495c-979e-7fc83e24d3fc","system_id":"levelo_inurba_marseille","lat":43.30187,"lon":5.36622,"is_reserved":false,"is_disabled":false,"rental_uris":{"android":"levelo://app?vid=72179d6d-4306-495c-979e-7fc83e24d3fc","ios":"levelo://app?vid=72179d6d-4306-495c-979e-7fc83e24d3fc"},"vehicle_type_id":"4","last_reported":1778706923,"current_range_meters":6400,"station_id":"ce4bgrh2rcd13ifvqc8g","pricing_plan_id":"cebpf4jnsgd1na2vs0mg"},{"bike_id":"2155b81d-4ed5-458a-9a0a-b79f20514091","system_id":"levelo_inurba_marseille","lat":43.27369,"lon":5.36227,"is_reserved":false,"is_disabled":false,"rental_uris":{"android":"levelo://app?vid=2155b81d-4ed5-458a-9a0a-b79f20514091","ios":"levelo://app?vid=2155b81d-4ed5-458a-9a0a-b79f20514091"},"vehicle_type_id":"4","last_reported":1778706923,"current_range_meters":6400,"station_id":"ce4bhbh2rcd13ifvqeo0","pricing_plan_id":"cebpf4jnsgd1na2vs0mg"},{"bike_id":"4660d09c-3d67-4691-b901-cf7c81798d2c","system_id":"levelo_inurba_marseille","lat":43.27474,"lon":5.41558,"is_reserved":false,"is_disabled":true,"rental_uris":{"android":"levelo://app?vid=4660d09c-3d67-4691-b901-cf7c81798d2c","ios":"levelo://app?vid=4660d09c-3d67-4691-b901-cf7c81798d2c"},"vehicle_type_id":"4","last_reported":1778706923,"current_range_meters":6400,"station_id":"st_d6im8g6chgec73a5pndg","pricing_plan_id":"cebpf4jnsgd1na2vs0mg"},{"bike_id":"e87d90bf-7f27-4494-86f8-3a1d5cd041da","system_id":"levelo_inurba_marseille","lat":43.23789,"lon":5.36629,"is_reserved":false,"is_disabled":false,"rental_uris":{"android":"levelo://app?vid=e87d90bf-7f27-4494-86f8-3a1d5cd041da","ios":"levelo://app?vid=e87d90bf-7f27-4494-86f8-3a1d5cd041da"},"vehicle_type_id":"4","last_reported":1778706923,"current_range_meters":6400,"station_id":"st_d3nk18o9ro0c73en2l3g","pricing_plan_id":"cebpf4jnsgd1na2vs0mg"},{"bike_id":"63b8d8bc-7e74-4cb8-8224-7ac4dd285c8c","system_id":"levelo_inurba_marseille","lat":43.3096,"lon":5.39042,"is_reserved":false,"is_disabled":false,"rental_uris":{"android":"levelo://app?vid=63b8d8bc-7e74-4cb8-8224-7ac4dd285c8c","ios":"levelo://app?vid=63b8d8bc-7e74-4cb8-8224-7ac4dd285c8c"},"vehicle_type_id":"4","last_reported":1778706923,"current_range_meters":6400,"station_id":"ce4bgup2rcd13ifvqco0","pricing_plan_id":"cebpf4jnsgd1na2vs0mg"},{"bike_id":"e8be6d30-92bd-4faa-804d-9aab5a4d7b08","system_id":"levelo_inurba_marseille","lat":43.28949,"lon":5.36656,"is_reserved":false,"is_disabled":false,"rental_uris":{"android":"levelo://app?vid=e8be6d30-92bd-4faa-804d-9aab5a4d7b08","ios":"levelo://app?vid=e8be6d30-92bd-4faa-804d-9aab5a4d7b08"},"vehicle_type_id":"4","last_reported":1778706923,"current_range_meters":6400,"station_id":"ce4bhap2rcd13ifvqek0","pricing_plan_id":"cebpf4jnsgd1na2vs0mg"},{"bike_id":"b539794b-9564-41c4-af5b-33f37d930411","system_id":"levelo_inurba_marseille","lat":43.29869,"lon":5.38903,"is_reserved":false,"is_disabled":false,"rental_uris":{"android":"levelo://app?vid=b539794b-9564-41c4-af5b-33f37d930411","ios":"levelo://app?vid=b539794b-9564-41c4-af5b-33f37d930411"},"vehicle_type_id":"4","last_reported":1778706923,"current_range_meters":6400,"station_id":"ce4bh392rcd13ifvqdl0","pricing_plan_id":"cebpf4jnsgd1na2vs0mg"},{"bike_id":"4c2ebf2f-679f-4d9d-8fea-3fc309890292","system_id":"levelo_inurba_marseille","lat":43.30145,"lon":5.37464,"is_reserved":false,"is_disabled":true,"rental_uris":{"android":"levelo://app?vid=4c2ebf2f-679f-4d9d-8fea-3fc309890292","ios":"levelo://app?vid=4c2ebf2f-679f-4d9d-8fea-3fc309890292"},"vehicle_type_id":"4","last_reported":1778706923,"current_range_meters":6400,"station_id":"ce4bgs92rcd13ifvqcc0","pricing_plan_id":"cebpf4jnsgd1na2vs0mg"},{"bike_id":"1c8551e7-65a0-49fa-ba5d-23c46f24083e","system_id":"levelo_inurba_marseille","lat":43.28696,"lon":5.4669,"is_reserved":false,"is_disabled":false,"rental_uris":{"android":"levelo://app?vid=1c8551e7-65a0-49fa-ba5d-23c46f24083e","ios":"levelo://app?vid=1c8551e7-65a0-49fa-ba5d-23c46f24083e"},"vehicle_type_id":"4","last_reported":1778706923,"current_range_meters":6400,"station_id":"st_d6tc3vkotcvc738tfjhg","pricing_plan_id":"cebpf4jnsgd1na2vs0mg"},{"bike_id":"d76531d7-b431-4b06-82f9-d80bbcfbc5b2","system_id":"levelo_inurba_marseille","lat":43.29255,"lon":5.38429,"is_reserved":false,"is_disabled":false,"rental_uris":{"android":"levelo://app?vid=d76531d7-b431-4b06-82f9-d80bbcfbc5b2","ios":"levelo://app?vid=d76531d7-b431-4b06-82f9-d80bbcfbc5b2"},"vehicle_type_id":"4","last_reported":1778706923,"current_range_meters":6400,"station_id":"ce4bh692rcd13ifvqea0","pricing_plan_id":"cebpf4jnsgd1na2vs0mg"},{"bike_id":"21f7c80b-e859-4147-a914-fe78ef3a4744","system_id":"levelo_inurba_marseille","lat":43.29536,"lon":5.38545,"is_reserved":false,"is_disabled":false,"rental_uris":{"android":"levelo://app?vid=21f7c80b-e859-4147-a914-fe78ef3a4744","ios":"levelo://app?vid=21f7c80b-e859-4147-a914-fe78ef3a4744"},"vehicle_type_id":"4","last_reported":1778706923,"current_range_meters":6400,"station_id":"ce4bgih2rcd13ifvqba0","pricing_plan_id":"cebpf4jnsgd1na2vs0mg"},{"bike_id":"060b0b8a-f4a1-43f2-8818-0f5f59655b6f","system_id":"levelo_inurba_marseille","lat":43.28945,"lon":5.36406,"is_reserved":false,"is_disabled":false,"rental_uris":{"android":"levelo://app?vid=060b0b8a-f4a1-43f2-8818-0f5f59655b6f","ios":"levelo://app?vid=060b0b8a-f4a1-43f2-8818-0f5f59655b6f"},"vehicle_type_id":"4","last_reported":1778706923,"current_range_meters":6400,"station_id":"ce4bhc92rcd13ifvqetg","pricing_plan_id":"cebpf4jnsgd1na2vs0mg"},{"bike_id":"e2c227f8-166e-4b4b-9f67-70972069c715","system_id":"levelo_inurba_marseille","lat":43.28928,"lon":5.38403,"is_reserved":false,"is_disabled":false,"rental_uris":{"android":"levelo://app?vid=e2c227f8-166e-4b4b-9f67-70972069c715","ios":"levelo://app?vid=e2c227f8-166e-4b4b-9f67-70972069c715"},"vehicle_type_id":"4","last_reported":1778706923,"current_range_meters":6400,"station_id":"ce4bh612rcd13ifvqe6g","pricing_plan_id":"cebpf4jnsgd1na2vs0mg"},{"bike_id":"88fc0704-7ae9-4b21-a817-5ad0923d8660","system_id":"levelo_inurba_marseille","lat":43.289,"lon":5.3777,"is_reserved":false,"is_disabled":false,"rental_uris":{"android":"levelo://app?vid=88fc0704-7ae9-4b21-a817-5ad0923d8660","ios":"levelo://app?vid=88fc0704-7ae9-4b21-a817-5ad0923d8660"},"vehicle_type_id":"4","last_reported":1778706923,"current_range_meters":6400,"station_id":"","pricing_plan_id":"cebpf4jnsgd1na2vs0mg"},{"bike_id":"88675d7a-85fd-4d50-8665-07d1abbd3625","system_id":"levelo_inurba_marseille","lat":43.28441,"lon":5.35894,"is_reserved":false,"is_disabled":false,"rental_uris":{"android":"levelo://app?vid=88675d7a-85fd-4d50-8665-07d1abbd3625","ios":"levelo://app?vid=88675d7a-85fd-4d50-8665-07d1abbd3625"},"vehicle_type_id":"4","last_reported":1778706923,"current_range_meters":6400,"station_id":"ce4bhah2rcd13ifvqei0","pricing_plan_id":"cebpf4jnsgd1na2vs0mg"},{"bike_id":"0dac72c1-f82f-4c1f-95e6-fbf0c1410ae5","system_id":"levelo_inurba_marseille","lat":43.2397,"lon":5.3662,"is_reserved":false,"is_disabled":false,"rental_uris":{"android":"levelo://app?vid=0dac72c1-f82f-4c1f-95e6-fbf0c1410ae5","ios":"levelo://app?vid=0dac72c1-f82f-4c1f-95e6-fbf0c1410ae5"},"vehicle_type_id":"4","last_reported":1778706923,"current_range_meters":6400,"station_id":"ce4bhi12rcd13ifvqfp0","pricing_plan_id":"cebpf4jnsgd1na2vs0mg"},{"bike_id":"e82b5d42-3586-42a6-8cf2-e549c0dabdad","system_id":"levelo_inurba_marseille","lat":43.297894,"lon":5.393496,"is_reserved":false,"is_disabled":false,"rental_uris":{"android":"levelo://app?vid=e82b5d42-3586-42a6-8cf2-e549c0dabdad","ios":"levelo://app?vid=e82b5d42-3586-42a6-8cf2-e549c0dabdad"},"vehicle_type_id":"4","last_reported":1778706923,"current_range_meters":6800,"station_id":"chh1huq6cuj3fo74tm60","pricing_plan_id":"cebpf4jnsgd1na2vs0mg"},{"bike_id":"a0606dcd-56a2-486d-a97d-ece2bbdc6e78","system_id":"levelo_inurba_marseille","lat":43.33168,"lon":5.37687,"is_reserved":false,"is_disabled":false,"rental_uris":{"android":"levelo://app?vid=a0606dcd-56a2-486d-a97d-ece2bbdc6e78","ios":"levelo://app?vid=a0606dcd-56a2-486d-a97d-ece2bbdc6e78"},"vehicle_type_id":"4","last_reported":1778706923,"current_range_meters":6800,"station_id":"st_d46cu089ee8s73dldbu0","pricing_plan_id":"cebpf4jnsgd1na2vs0mg"},{"bike_id":"8b873de9-62fe-481f-ac02-087c8d6e6daf","system_id":"levelo_inurba_marseille","lat":43.28911,"lon":5.38406,"is_reserved":false,"is_disabled":false,"rental_uris":{"android":"levelo://app?vid=8b873de9-62fe-481f-ac02-087c8d6e6daf","ios":"levelo://app?vid=8b873de9-62fe-481f-ac02-087c8d6e6daf"},"vehicle_type_id":"4","last_reported":1778706923,"current_range_meters":6800,"station_id":"ce4bh612rcd13ifvqe6g","pricing_plan_id":"cebpf4jnsgd1na2vs0mg"},{"bike_id":"6206d17b-cf9d-41b3-a41d-c6052f6a6ce2","system_id":"levelo_inurba_marseille","lat":43.33544,"lon":5.37462,"is_reserved":false,"is_disabled":false,"rental_uris":{"android":"levelo://app?vid=6206d17b-cf9d-41b3-a41d-c6052f6a6ce2","ios":"levelo://app?vid=6206d17b-cf9d-41b3-a41d-c6052f6a6ce2"},"vehicle_type_id":"4","last_reported":1778706923,"current_range_meters":6800,"station_id":"st_d46tts09ee8s73dlu43g","pricing_plan_id":"cebpf4jnsgd1na2vs0mg"},{"bike_id":"5470fc36-8a97-4da2-82f4-82952878403e","system_id":"levelo_inurba_marseille","lat":43.29521,"lon":5.39025,"is_reserved":false,"is_disabled":false,"rental_uris":{"android":"levelo://app?vid=5470fc36-8a97-4da2-82f4-82952878403e","ios":"levelo://app?vid=5470fc36-8a97-4da2-82f4-82952878403e"},"vehicle_type_id":"4","last_reported":1778706923,"current_range_meters":6800,"station_id":"ce4bh3p2rcd13ifvqdp0","pricing_plan_id":"cebpf4jnsgd1na2vs0mg"},{"bike_id":"a69bbb17-e904-4bbe-b1a6-d8e7b08362c7","system_id":"levelo_inurba_marseille","lat":43.23978,"lon":5.39904,"is_reserved":false,"is_disabled":false,"rental_uris":{"android":"levelo://app?vid=a69bbb17-e904-4bbe-b1a6-d8e7b08362c7","ios":"levelo://app?vid=a69bbb17-e904-4bbe-b1a6-d8e7b08362c7"},"vehicle_type_id":"4","last_reported":1778706923,"current_range_meters":6800,"station_id":"","pricing_plan_id":"cebpf4jnsgd1na2vs0mg"},{"bike_id":"974155a8-15e9-4961-bf5a-c20f8b52fd28","system_id":"levelo_inurba_marseille","lat":43.31326,"lon":5.39688,"is_reserved":false,"is_disabled":false,"rental_uris":{"android":"levelo://app?vid=974155a8-15e9-4961-bf5a-c20f8b52fd28","ios":"levelo://app?vid=974155a8-15e9-4961-bf5a-c20f8b52fd28"},"vehicle_type_id":"4","last_reported":1778706923,"current_range_meters":6800,"station_id":"ce4bgvp2rcd13ifvqcu0","pricing_plan_id":"cebpf4jnsgd1na2vs0mg"},{"bike_id":"f7b71e8a-de3b-4d59-8cbd-1c1ed6357a73","system_id":"levelo_inurba_marseille","lat":43.26935,"lon":5.40262,"is_reserved":false,"is_disabled":true,"rental_uris":{"android":"levelo://app?vid=f7b71e8a-de3b-4d59-8cbd-1c1ed6357a73","ios":"levelo://app?vid=f7b71e8a-de3b-4d59-8cbd-1c1ed6357a73"},"vehicle_type_id":"4","last_reported":1778706923,"current_range_meters":6800,"station_id":"cjm6bp8fraef2m0cb0m0","pricing_plan_id":"cebpf4jnsgd1na2vs0mg"},{"bike_id":"0f4a975b-7889-43db-857b-2d6fb8450403","system_id":"levelo_inurba_marseille","lat":43.2737,"lon":5.36265,"is_reserved":false,"is_disabled":false,"rental_uris":{"android":"levelo://app?vid=0f4a975b-7889-43db-857b-2d6fb8450403","ios":"levelo://app?vid=0f4a975b-7889-43db-857b-2d6fb8450403"},"vehicle_type_id":"4","last_reported":1778706923,"current_range_meters":6800,"station_id":"ce4bhbh2rcd13ifvqeo0","pricing_plan_id":"cebpf4jnsgd1na2vs0mg"},{"bike_id":"1c901c61-6917-4000-9ef1-236856442a22","system_id":"levelo_inurba_marseille","lat":43.29041,"lon":5.39954,"is_reserved":false,"is_disabled":false,"rental_uris":{"android":"levelo://app?vid=1c901c61-6917-4000-9ef1-236856442a22","ios":"levelo://app?vid=1c901c61-6917-4000-9ef1-236856442a22"},"vehicle_type_id":"4","last_reported":1778706923,"current_range_meters":6800,"station_id":"ce4bh392rcd13ifvqdm0","pricing_plan_id":"cebpf4jnsgd1na2vs0mg"},{"bike_id":"87c81631-4451-4236-92c6-4b297de3f797","system_id":"levelo_inurba_marseille","lat":43.31362,"lon":5.38492,"is_reserved":false,"is_disabled":false,"rental_uris":{"android":"levelo://app?vid=87c81631-4451-4236-92c6-4b297de3f797","ios":"levelo://app?vid=87c81631-4451-4236-92c6-4b297de3f797"},"vehicle_type_id":"4","last_reported":1778706923,"current_range_meters":6800,"station_id":"ce4bgt92rcd13ifvqcf0","pricing_plan_id":"cebpf4jnsgd1na2vs0mg"},{"bike_id":"14828b83-6cd4-4aa6-bb7b-55e327957e20","system_id":"levelo_inurba_marseille","lat":43.28945,"lon":5.36413,"is_reserved":false,"is_disabled":false,"rental_uris":{"android":"levelo://app?vid=14828b83-6cd4-4aa6-bb7b-55e327957e20","ios":"levelo://app?vid=14828b83-6cd4-4aa6-bb7b-55e327957e20"},"vehicle_type_id":"4","last_reported":1778706923,"current_range_meters":6800,"station_id":"ce4bhc92rcd13ifvqetg","pricing_plan_id":"cebpf4jnsgd1na2vs0mg"},{"bike_id":"c8f05c78-1548-4c31-916e-2eaa20713e87","system_id":"levelo_inurba_marseille","lat":43.24549,"lon":5.39509,"is_reserved":false,"is_disabled":false,"rental_uris":{"android":"levelo://app?vid=c8f05c78-1548-4c31-916e-2eaa20713e87","ios":"levelo://app?vid=c8f05c78-1548-4c31-916e-2eaa20713e87"},"vehicle_type_id":"4","last_reported":1778706923,"current_range_meters":6800,"station_id":"ce4bhlp2rcd13ifvqgjg","pricing_plan_id":"cebpf4jnsgd1na2vs0mg"},{"bike_id":"d7bbce33-4845-419c-9761-61bbb5b4af7e","system_id":"levelo_inurba_marseille","lat":43.28671,"lon":5.3636,"is_reserved":false,"is_disabled":false,"rental_uris":{"android":"levelo://app?vid=d7bbce33-4845-419c-9761-61bbb5b4af7e","ios":"levelo://app?vid=d7bbce33-4845-419c-9761-61bbb5b4af7e"},"vehicle_type_id":"4","last_reported":1778706923,"current_range_meters":6800,"station_id":"ce4bhah2rcd13ifvqej0","pricing_plan_id":"cebpf4jnsgd1na2vs0mg"},{"bike_id":"1301d2af-c91a-458f-a0c0-3744da869577","system_id":"levelo_inurba_marseille","lat":43.21202,"lon":5.35055,"is_reserved":false,"is_disabled":false,"rental_uris":{"android":"levelo://app?vid=1301d2af-c91a-458f-a0c0-3744da869577","ios":"levelo://app?vid=1301d2af-c91a-458f-a0c0-3744da869577"},"vehicle_type_id":"4","last_reported":1778706923,"current_range_meters":6800,"station_id":"st_cvj6sg6p6f1abm77japg","pricing_plan_id":"cebpf4jnsgd1na2vs0mg"},{"bike_id":"27a20a37-9d8a-472b-a339-870f7a6c402a","system_id":"levelo_inurba_marseille","lat":43.29281,"lon":5.38431,"is_reserved":false,"is_disabled":false,"rental_uris":{"android":"levelo://app?vid=27a20a37-9d8a-472b-a339-870f7a6c402a","ios":"levelo://app?vid=27a20a37-9d8a-472b-a339-870f7a6c402a"},"vehicle_type_id":"4","last_reported":1778706923,"current_range_meters":6800,"station_id":"ce4bh692rcd13ifvqea0","pricing_plan_id":"cebpf4jnsgd1na2vs0mg"},{"bike_id":"eefaa853-23e1-4f86-a64c-004bd99e80e9","system_id":"levelo_inurba_marseille","lat":43.28444,"lon":5.39203,"is_reserved":false,"is_disabled":false,"rental_uris":{"android":"levelo://app?vid=eefaa853-23e1-4f86-a64c-004bd99e80e9","ios":"levelo://app?vid=eefaa853-23e1-4f86-a64c-004bd99e80e9"},"vehicle_type_id":"4","last_reported":1778706923,"current_range_meters":6800,"station_id":"ce4bhoh2rcd13ifvqh5g","pricing_plan_id":"cebpf4jnsgd1na2vs0mg"},{"bike_id":"cd0e15e6-383e-4ca1-af5d-9dc8c2dea329","system_id":"levelo_inurba_marseille","lat":43.3093,"lon":5.40157,"is_reserved":false,"is_disabled":false,"rental_uris":{"android":"levelo://app?vid=cd0e15e6-383e-4ca1-af5d-9dc8c2dea329","ios":"levelo://app?vid=cd0e15e6-383e-4ca1-af5d-9dc8c2dea329"},"vehicle_type_id":"4","last_reported":1778706923,"current_range_meters":6800,"station_id":"ce4bgvp2rcd13ifvqct0","pricing_plan_id":"cebpf4jnsgd1na2vs0mg"},{"bike_id":"51b2de8a-927b-412c-ab54-464df9c65b97","system_id":"levelo_inurba_marseille","lat":43.29531,"lon":5.39037,"is_reserved":false,"is_disabled":false,"rental_uris":{"android":"levelo://app?vid=51b2de8a-927b-412c-ab54-464df9c65b97","ios":"levelo://app?vid=51b2de8a-927b-412c-ab54-464df9c65b97"},"vehicle_type_id":"4","last_reported":1778706923,"current_range_meters":7200,"station_id":"ce4bh3p2rcd13ifvqdp0","pricing_plan_id":"cebpf4jnsgd1na2vs0mg"},{"bike_id":"a5233650-af7d-450e-9ae3-b0989430838e","system_id":"levelo_inurba_marseille","lat":43.29991,"lon":5.38495,"is_reserved":false,"is_disabled":false,"rental_uris":{"android":"levelo://app?vid=a5233650-af7d-450e-9ae3-b0989430838e","ios":"levelo://app?vid=a5233650-af7d-450e-9ae3-b0989430838e"},"vehicle_type_id":"4","last_reported":1778706923,"current_range_meters":7200,"station_id":"ce4bgj92rcd13ifvqbd0","pricing_plan_id":"cebpf4jnsgd1na2vs0mg"},{"bike_id":"ed122cb0-9c4b-4104-b359-218c1bf83706","system_id":"levelo_inurba_marseille","lat":43.296,"lon":5.39968,"is_reserved":false,"is_disabled":true,"rental_uris":{"android":"levelo://app?vid=ed122cb0-9c4b-4104-b359-218c1bf83706","ios":"levelo://app?vid=ed122cb0-9c4b-4104-b359-218c1bf83706"},"vehicle_type_id":"4","last_reported":1778706923,"current_range_meters":7200,"station_id":"ce4bh312rcd13ifvqdj0","pricing_plan_id":"cebpf4jnsgd1na2vs0mg"},{"bike_id":"65191135-268b-4aca-b249-8c026a0bfedd","system_id":"levelo_inurba_marseille","lat":43.27196,"lon":5.40983,"is_reserved":false,"is_disabled":false,"rental_uris":{"android":"levelo://app?vid=65191135-268b-4aca-b249-8c026a0bfedd","ios":"levelo://app?vid=65191135-268b-4aca-b249-8c026a0bfedd"},"vehicle_type_id":"4","last_reported":1778706923,"current_range_meters":7200,"station_id":"ce4bhl12rcd13ifvqgf0","pricing_plan_id":"cebpf4jnsgd1na2vs0mg"},{"bike_id":"fc226c98-f322-48a2-8f2c-6caf8724578d","system_id":"levelo_inurba_marseille","lat":43.31124,"lon":5.37752,"is_reserved":false,"is_disabled":false,"rental_uris":{"android":"levelo://app?vid=fc226c98-f322-48a2-8f2c-6caf8724578d","ios":"levelo://app?vid=fc226c98-f322-48a2-8f2c-6caf8724578d"},"vehicle_type_id":"4","last_reported":1778706923,"current_range_meters":7200,"station_id":"ce4bgt92rcd13ifvqcg0","pricing_plan_id":"cebpf4jnsgd1na2vs0mg"},{"bike_id":"464c74fd-fe31-4df7-9dc5-c340692a38f5","system_id":"levelo_inurba_marseille","lat":43.24955,"lon":5.40501,"is_reserved":false,"is_disabled":false,"rental_uris":{"android":"levelo://app?vid=464c74fd-fe31-4df7-9dc5-c340692a38f5","ios":"levelo://app?vid=464c74fd-fe31-4df7-9dc5-c340692a38f5"},"vehicle_type_id":"4","last_reported":1778706923,"current_range_meters":7200,"station_id":"st_d2ngiaodas8pm72gd1h0","pricing_plan_id":"cebpf4jnsgd1na2vs0mg"},{"bike_id":"4685b90e-2b73-4802-b777-c45c4167e5fa","system_id":"levelo_inurba_marseille","lat":43.30115,"lon":5.4312,"is_reserved":false,"is_disabled":false,"rental_uris":{"android":"levelo://app?vid=4685b90e-2b73-4802-b777-c45c4167e5fa","ios":"levelo://app?vid=4685b90e-2b73-4802-b777-c45c4167e5fa"},"vehicle_type_id":"4","last_reported":1778706923,"current_range_meters":7200,"station_id":"st_d3js3co5814s73ftftug","pricing_plan_id":"cebpf4jnsgd1na2vs0mg"},{"bike_id":"f6c65d3d-db9b-4a87-a6ce-5f2ff940ff4d","system_id":"levelo_inurba_marseille","lat":43.25088,"lon":5.39495,"is_reserved":false,"is_disabled":false,"rental_uris":{"android":"levelo://app?vid=f6c65d3d-db9b-4a87-a6ce-5f2ff940ff4d","ios":"levelo://app?vid=f6c65d3d-db9b-4a87-a6ce-5f2ff940ff4d"},"vehicle_type_id":"4","last_reported":1778706923,"current_range_meters":7200,"station_id":"ce4bhm12rcd13ifvqgkg","pricing_plan_id":"cebpf4jnsgd1na2vs0mg"},{"bike_id":"76550bf5-ac1c-45c1-94bc-61082ba93480","system_id":"levelo_inurba_marseille","lat":43.29021,"lon":5.38623,"is_reserved":false,"is_disabled":false,"rental_uris":{"android":"levelo://app?vid=76550bf5-ac1c-45c1-94bc-61082ba93480","ios":"levelo://app?vid=76550bf5-ac1c-45c1-94bc-61082ba93480"},"vehicle_type_id":"4","last_reported":1778706923,"current_range_meters":7200,"station_id":"ce4bh4p2rcd13ifvqe0g","pricing_plan_id":"cebpf4jnsgd1na2vs0mg"},{"bike_id":"95c02ffd-d429-4bb4-9cec-b7834d99f0f6","system_id":"levelo_inurba_marseille","lat":43.33177,"lon":5.37698,"is_reserved":false,"is_disabled":false,"rental_uris":{"android":"levelo://app?vid=95c02ffd-d429-4bb4-9cec-b7834d99f0f6","ios":"levelo://app?vid=95c02ffd-d429-4bb4-9cec-b7834d99f0f6"},"vehicle_type_id":"4","last_reported":1778706923,"current_range_meters":7200,"station_id":"st_d46cu089ee8s73dldbu0","pricing_plan_id":"cebpf4jnsgd1na2vs0mg"},{"bike_id":"c68f6501-5625-4ed6-95bd-6083060e31f2","system_id":"levelo_inurba_marseille","lat":43.29099,"lon":5.38151,"is_reserved":false,"is_disabled":false,"rental_uris":{"android":"levelo://app?vid=c68f6501-5625-4ed6-95bd-6083060e31f2","ios":"levelo://app?vid=c68f6501-5625-4ed6-95bd-6083060e31f2"},"vehicle_type_id":"4","last_reported":1778706923,"current_range_meters":7200,"station_id":"ce4bh512rcd13ifvqe2g","pricing_plan_id":"cebpf4jnsgd1na2vs0mg"},{"bike_id":"02b0c393-3fce-4646-8e55-954077194616","system_id":"levelo_inurba_marseille","lat":43.27353,"lon":5.36233,"is_reserved":false,"is_disabled":false,"rental_uris":{"android":"levelo://app?vid=02b0c393-3fce-4646-8e55-954077194616","ios":"levelo://app?vid=02b0c393-3fce-4646-8e55-954077194616"},"vehicle_type_id":"4","last_reported":1778706923,"current_range_meters":7200,"station_id":"ce4bhbh2rcd13ifvqeo0","pricing_plan_id":"cebpf4jnsgd1na2vs0mg"},{"bike_id":"85c4beb0-759e-43b8-96d0-4a792eb6f9e1","system_id":"levelo_inurba_marseille","lat":43.24826,"lon":5.37437,"is_reserved":false,"is_disabled":false,"rental_uris":{"android":"levelo://app?vid=85c4beb0-759e-43b8-96d0-4a792eb6f9e1","ios":"levelo://app?vid=85c4beb0-759e-43b8-96d0-4a792eb6f9e1"},"vehicle_type_id":"4","last_reported":1778706923,"current_range_meters":7200,"station_id":"ce4bhgh2rcd13ifvqfb0","pricing_plan_id":"cebpf4jnsgd1na2vs0mg"},{"bike_id":"383588aa-d633-43a8-80c2-bec6a14bec65","system_id":"levelo_inurba_marseille","lat":43.29262,"lon":5.38457,"is_reserved":false,"is_disabled":false,"rental_uris":{"android":"levelo://app?vid=383588aa-d633-43a8-80c2-bec6a14bec65","ios":"levelo://app?vid=383588aa-d633-43a8-80c2-bec6a14bec65"},"vehicle_type_id":"4","last_reported":1778706923,"current_range_meters":7200,"station_id":"ce4bh692rcd13ifvqea0","pricing_plan_id":"cebpf4jnsgd1na2vs0mg"},{"bike_id":"c101c7f9-e59b-4024-bf53-d85625f9fd5b","system_id":"levelo_inurba_marseille","lat":43.28869,"lon":5.42526,"is_reserved":false,"is_disabled":false,"rental_uris":{"android":"levelo://app?vid=c101c7f9-e59b-4024-bf53-d85625f9fd5b","ios":"levelo://app?vid=c101c7f9-e59b-4024-bf53-d85625f9fd5b"},"vehicle_type_id":"4","last_reported":1778706923,"current_range_meters":7200,"station_id":"st_d3b462108ojc7389ooeg","pricing_plan_id":"cebpf4jnsgd1na2vs0mg"},{"bike_id":"1f10d4ed-e4ce-4d38-abe2-e3c7c14b9ed3","system_id":"levelo_inurba_marseille","lat":43.249675,"lon":5.40478,"is_reserved":false,"is_disabled":false,"rental_uris":{"android":"levelo://app?vid=1f10d4ed-e4ce-4d38-abe2-e3c7c14b9ed3","ios":"levelo://app?vid=1f10d4ed-e4ce-4d38-abe2-e3c7c14b9ed3"},"vehicle_type_id":"4","last_reported":1778706923,"current_range_meters":7200,"station_id":"st_d2ngiaodas8pm72gd1h0","pricing_plan_id":"cebpf4jnsgd1na2vs0mg"},{"bike_id":"ce074118-931a-45f0-85a9-21de1c76d0e7","system_id":"levelo_inurba_marseille","lat":43.29526,"lon":5.38532,"is_reserved":false,"is_disabled":false,"rental_uris":{"android":"levelo://app?vid=ce074118-931a-45f0-85a9-21de1c76d0e7","ios":"levelo://app?vid=ce074118-931a-45f0-85a9-21de1c76d0e7"},"vehicle_type_id":"4","last_reported":1778706923,"current_range_meters":7200,"station_id":"ce4bgih2rcd13ifvqba0","pricing_plan_id":"cebpf4jnsgd1na2vs0mg"},{"bike_id":"0ddd1a44-6a20-4f20-87bb-54f6dbe51696","system_id":"levelo_inurba_marseille","lat":43.31745,"lon":5.40186,"is_reserved":false,"is_disabled":false,"rental_uris":{"android":"levelo://app?vid=0ddd1a44-6a20-4f20-87bb-54f6dbe51696","ios":"levelo://app?vid=0ddd1a44-6a20-4f20-87bb-54f6dbe51696"},"vehicle_type_id":"4","last_reported":1778706923,"current_range_meters":7200,"station_id":"","pricing_plan_id":"cebpf4jnsgd1na2vs0mg"},{"bike_id":"6e70dae6-54d0-47a0-93ef-de0e8a081ba0","system_id":"levelo_inurba_marseille","lat":43.30153,"lon":5.37387,"is_reserved":false,"is_disabled":true,"rental_uris":{"android":"levelo://app?vid=6e70dae6-54d0-47a0-93ef-de0e8a081ba0","ios":"levelo://app?vid=6e70dae6-54d0-47a0-93ef-de0e8a081ba0"},"vehicle_type_id":"4","last_reported":1778706923,"current_range_meters":7200,"station_id":"ce4bgs92rcd13ifvqcc0","pricing_plan_id":"cebpf4jnsgd1na2vs0mg"},{"bike_id":"e0e3f93f-16e8-4b39-b089-98387a4c334d","system_id":"levelo_inurba_marseille","lat":43.33537,"lon":5.37472,"is_reserved":false,"is_disabled":false,"rental_uris":{"android":"levelo://app?vid=e0e3f93f-16e8-4b39-b089-98387a4c334d","ios":"levelo://app?vid=e0e3f93f-16e8-4b39-b089-98387a4c334d"},"vehicle_type_id":"4","last_reported":1778706923,"current_range_meters":7200,"station_id":"st_d46tts09ee8s73dlu43g","pricing_plan_id":"cebpf4jnsgd1na2vs0mg"},{"bike_id":"4751127d-3aa2-446e-8601-6629ed659fa5","system_id":"levelo_inurba_marseille","lat":43.22561,"lon":5.41623,"is_reserved":false,"is_disabled":false,"rental_uris":{"android":"levelo://app?vid=4751127d-3aa2-446e-8601-6629ed659fa5","ios":"levelo://app?vid=4751127d-3aa2-446e-8601-6629ed659fa5"},"vehicle_type_id":"4","last_reported":1778706923,"current_range_meters":7200,"station_id":"st_d2o4gvlbi1j2169b742g","pricing_plan_id":"cebpf4jnsgd1na2vs0mg"},{"bike_id":"73062995-ce9d-4468-8fe2-b258182f8416","system_id":"levelo_inurba_marseille","lat":43.279941,"lon":5.416749,"is_reserved":false,"is_disabled":false,"rental_uris":{"android":"levelo://app?vid=73062995-ce9d-4468-8fe2-b258182f8416","ios":"levelo://app?vid=73062995-ce9d-4468-8fe2-b258182f8416"},"vehicle_type_id":"4","last_reported":1778706923,"current_range_meters":7200,"station_id":"ce4bho12rcd13ifvqh1g","pricing_plan_id":"cebpf4jnsgd1na2vs0mg"},{"bike_id":"cea33832-e1d0-4bbe-898f-3d20bbd75847","system_id":"levelo_inurba_marseille","lat":43.29607,"lon":5.38112,"is_reserved":false,"is_disabled":false,"rental_uris":{"android":"levelo://app?vid=cea33832-e1d0-4bbe-898f-3d20bbd75847","ios":"levelo://app?vid=cea33832-e1d0-4bbe-898f-3d20bbd75847"},"vehicle_type_id":"4","last_reported":1778706923,"current_range_meters":7200,"station_id":"ce4bgl12rcd13ifvqbo0","pricing_plan_id":"cebpf4jnsgd1na2vs0mg"},{"bike_id":"1dee72ea-cbbb-4f0f-b373-7962e2bff9d2","system_id":"levelo_inurba_marseille","lat":43.24642,"lon":5.38975,"is_reserved":false,"is_disabled":false,"rental_uris":{"android":"levelo://app?vid=1dee72ea-cbbb-4f0f-b373-7962e2bff9d2","ios":"levelo://app?vid=1dee72ea-cbbb-4f0f-b373-7962e2bff9d2"},"vehicle_type_id":"4","last_reported":1778706923,"current_range_meters":7200,"station_id":"","pricing_plan_id":"cebpf4jnsgd1na2vs0mg"},{"bike_id":"084075a6-a1d2-4077-8dac-48e7f3d7818b","system_id":"levelo_inurba_marseille","lat":43.31363,"lon":5.38486,"is_reserved":false,"is_disabled":false,"rental_uris":{"android":"levelo://app?vid=084075a6-a1d2-4077-8dac-48e7f3d7818b","ios":"levelo://app?vid=084075a6-a1d2-4077-8dac-48e7f3d7818b"},"vehicle_type_id":"4","last_reported":1778706923,"current_range_meters":8000,"station_id":"ce4bgt92rcd13ifvqcf0","pricing_plan_id":"cebpf4jnsgd1na2vs0mg"},{"bike_id":"8c213e32-c8d9-4960-bc93-fa01f8be8240","system_id":"levelo_inurba_marseille","lat":43.31035,"lon":5.37177,"is_reserved":false,"is_disabled":false,"rental_uris":{"android":"levelo://app?vid=8c213e32-c8d9-4960-bc93-fa01f8be8240","ios":"levelo://app?vid=8c213e32-c8d9-4960-bc93-fa01f8be8240"},"vehicle_type_id":"4","last_reported":1778706923,"current_range_meters":8000,"station_id":"st_d4kl2rp97mjs73e7tdfg","pricing_plan_id":"cebpf4jnsgd1na2vs0mg"},{"bike_id":"ae764b70-9be3-49e3-9286-093436898b0f","system_id":"levelo_inurba_marseille","lat":43.29293,"lon":5.38435,"is_reserved":false,"is_disabled":false,"rental_uris":{"android":"levelo://app?vid=ae764b70-9be3-49e3-9286-093436898b0f","ios":"levelo://app?vid=ae764b70-9be3-49e3-9286-093436898b0f"},"vehicle_type_id":"4","last_reported":1778706923,"current_range_meters":8000,"station_id":"ce4bh692rcd13ifvqea0","pricing_plan_id":"cebpf4jnsgd1na2vs0mg"},{"bike_id":"3baf60fe-0260-4ac0-9a4d-b71fdd4d99a9","system_id":"levelo_inurba_marseille","lat":43.31708,"lon":5.40453,"is_reserved":false,"is_disabled":false,"rental_uris":{"android":"levelo://app?vid=3baf60fe-0260-4ac0-9a4d-b71fdd4d99a9","ios":"levelo://app?vid=3baf60fe-0260-4ac0-9a4d-b71fdd4d99a9"},"vehicle_type_id":"4","last_reported":1778706923,"current_range_meters":8000,"station_id":"ce4bh012rcd13ifvqd00","pricing_plan_id":"cebpf4jnsgd1na2vs0mg"},{"bike_id":"9f02bc8a-fa31-4d99-9454-67e6be4c4e30","system_id":"levelo_inurba_marseille","lat":43.24842,"lon":5.37424,"is_reserved":false,"is_disabled":false,"rental_uris":{"android":"levelo://app?vid=9f02bc8a-fa31-4d99-9454-67e6be4c4e30","ios":"levelo://app?vid=9f02bc8a-fa31-4d99-9454-67e6be4c4e30"},"vehicle_type_id":"4","last_reported":1778706923,"current_range_meters":8000,"station_id":"","pricing_plan_id":"cebpf4jnsgd1na2vs0mg"},{"bike_id":"ed4c3f2a-5d31-4810-95b1-c0338c5b21d1","system_id":"levelo_inurba_marseille","lat":43.337742,"lon":5.374345,"is_reserved":false,"is_disabled":false,"rental_uris":{"android":"levelo://app?vid=ed4c3f2a-5d31-4810-95b1-c0338c5b21d1","ios":"levelo://app?vid=ed4c3f2a-5d31-4810-95b1-c0338c5b21d1"},"vehicle_type_id":"4","last_reported":1778706923,"current_range_meters":8000,"station_id":"","pricing_plan_id":"cebpf4jnsgd1na2vs0mg"},{"bike_id":"9c7153ca-4d9e-4321-ac94-48b7873aac07","system_id":"levelo_inurba_marseille","lat":43.27619,"lon":5.36124,"is_reserved":false,"is_disabled":false,"rental_uris":{"android":"levelo://app?vid=9c7153ca-4d9e-4321-ac94-48b7873aac07","ios":"levelo://app?vid=9c7153ca-4d9e-4321-ac94-48b7873aac07"},"vehicle_type_id":"4","last_reported":1778706923,"current_range_meters":8000,"station_id":"ce4bgj92rcd13ifvqbe0","pricing_plan_id":"cebpf4jnsgd1na2vs0mg"},{"bike_id":"b1f85c10-3a72-4895-b4df-4b7782abd0b1","system_id":"levelo_inurba_marseille","lat":43.28533,"lon":5.44087,"is_reserved":false,"is_disabled":false,"rental_uris":{"android":"levelo://app?vid=b1f85c10-3a72-4895-b4df-4b7782abd0b1","ios":"levelo://app?vid=b1f85c10-3a72-4895-b4df-4b7782abd0b1"},"vehicle_type_id":"4","last_reported":1778706923,"current_range_meters":8000,"station_id":"st_d3j3df2ikq2c7380ej80","pricing_plan_id":"cebpf4jnsgd1na2vs0mg"},{"bike_id":"34cc106d-e88f-464c-b290-ce7702652b61","system_id":"levelo_inurba_marseille","lat":43.28962,"lon":5.36402,"is_reserved":false,"is_disabled":false,"rental_uris":{"android":"levelo://app?vid=34cc106d-e88f-464c-b290-ce7702652b61","ios":"levelo://app?vid=34cc106d-e88f-464c-b290-ce7702652b61"},"vehicle_type_id":"4","last_reported":1778706923,"current_range_meters":8000,"station_id":"ce4bhc92rcd13ifvqetg","pricing_plan_id":"cebpf4jnsgd1na2vs0mg"},{"bike_id":"cca1d82c-0eb6-46fd-9a26-94a084e3cf72","system_id":"levelo_inurba_marseille","lat":43.29535,"lon":5.38536,"is_reserved":false,"is_disabled":false,"rental_uris":{"android":"levelo://app?vid=cca1d82c-0eb6-46fd-9a26-94a084e3cf72","ios":"levelo://app?vid=cca1d82c-0eb6-46fd-9a26-94a084e3cf72"},"vehicle_type_id":"4","last_reported":1778706923,"current_range_meters":8000,"station_id":"ce4bgih2rcd13ifvqba0","pricing_plan_id":"cebpf4jnsgd1na2vs0mg"},{"bike_id":"7de3e47a-9259-4402-8b44-44798c60669c","system_id":"levelo_inurba_marseille","lat":43.26698,"lon":5.38263,"is_reserved":false,"is_disabled":false,"rental_uris":{"android":"levelo://app?vid=7de3e47a-9259-4402-8b44-44798c60669c","ios":"levelo://app?vid=7de3e47a-9259-4402-8b44-44798c60669c"},"vehicle_type_id":"4","last_reported":1778706923,"current_range_meters":8000,"station_id":"ce4bhg92rcd13ifvqf90","pricing_plan_id":"cebpf4jnsgd1na2vs0mg"},{"bike_id":"2cc28718-1013-4f46-b22c-7a297eb58a07","system_id":"levelo_inurba_marseille","lat":43.30317,"lon":5.4043,"is_reserved":false,"is_disabled":false,"rental_uris":{"android":"levelo://app?vid=2cc28718-1013-4f46-b22c-7a297eb58a07","ios":"levelo://app?vid=2cc28718-1013-4f46-b22c-7a297eb58a07"},"vehicle_type_id":"4","last_reported":1778706923,"current_range_meters":8000,"station_id":"ce4bh012rcd13ifvqd10","pricing_plan_id":"cebpf4jnsgd1na2vs0mg"},{"bike_id":"0e19ad00-118f-4e3e-9e57-5eaff83bd63e","system_id":"levelo_inurba_marseille","lat":43.29601,"lon":5.38104,"is_reserved":false,"is_disabled":false,"rental_uris":{"android":"levelo://app?vid=0e19ad00-118f-4e3e-9e57-5eaff83bd63e","ios":"levelo://app?vid=0e19ad00-118f-4e3e-9e57-5eaff83bd63e"},"vehicle_type_id":"4","last_reported":1778706923,"current_range_meters":8000,"station_id":"ce4bgl12rcd13ifvqbo0","pricing_plan_id":"cebpf4jnsgd1na2vs0mg"},{"bike_id":"af705914-bb9c-47f1-9802-e7ff0d2548f0","system_id":"levelo_inurba_marseille","lat":43.25505,"lon":5.3759,"is_reserved":false,"is_disabled":false,"rental_uris":{"android":"levelo://app?vid=af705914-bb9c-47f1-9802-e7ff0d2548f0","ios":"levelo://app?vid=af705914-bb9c-47f1-9802-e7ff0d2548f0"},"vehicle_type_id":"4","last_reported":1778706923,"current_range_meters":8000,"station_id":"ce4bhh12rcd13ifvqff0","pricing_plan_id":"cebpf4jnsgd1na2vs0mg"},{"bike_id":"4a568d14-8b20-4b0f-a249-47ba1e0114bd","system_id":"levelo_inurba_marseille","lat":43.26207,"lon":5.37476,"is_reserved":false,"is_disabled":true,"rental_uris":{"android":"levelo://app?vid=4a568d14-8b20-4b0f-a249-47ba1e0114bd","ios":"levelo://app?vid=4a568d14-8b20-4b0f-a249-47ba1e0114bd"},"vehicle_type_id":"4","last_reported":1778706923,"current_range_meters":8000,"station_id":"ce4bhgp2rcd13ifvqfc0","pricing_plan_id":"cebpf4jnsgd1na2vs0mg"},{"bike_id":"8edf9741-10e3-4dc0-96d6-2bc85a82680e","system_id":"levelo_inurba_marseille","lat":43.29498,"lon":5.38549,"is_reserved":false,"is_disabled":false,"rental_uris":{"android":"levelo://app?vid=8edf9741-10e3-4dc0-96d6-2bc85a82680e","ios":"levelo://app?vid=8edf9741-10e3-4dc0-96d6-2bc85a82680e"},"vehicle_type_id":"4","last_reported":1778706923,"current_range_meters":8000,"station_id":"ce4bgih2rcd13ifvqba0","pricing_plan_id":"cebpf4jnsgd1na2vs0mg"},{"bike_id":"b299766d-661b-4293-b516-1846fa5fb91f","system_id":"levelo_inurba_marseille","lat":43.28587,"lon":5.38638,"is_reserved":false,"is_disabled":false,"rental_uris":{"android":"levelo://app?vid=b299766d-661b-4293-b516-1846fa5fb91f","ios":"levelo://app?vid=b299766d-661b-4293-b516-1846fa5fb91f"},"vehicle_type_id":"4","last_reported":1778706923,"current_range_meters":8000,"station_id":"","pricing_plan_id":"cebpf4jnsgd1na2vs0mg"},{"bike_id":"76abce95-1fbb-457c-83c9-8be31c1ba964","system_id":"levelo_inurba_marseille","lat":43.23175,"lon":5.39986,"is_reserved":false,"is_disabled":true,"rental_uris":{"android":"levelo://app?vid=76abce95-1fbb-457c-83c9-8be31c1ba964","ios":"levelo://app?vid=76abce95-1fbb-457c-83c9-8be31c1ba964"},"vehicle_type_id":"4","last_reported":1778706923,"current_range_meters":8000,"station_id":"ce4bhn12rcd13ifvqgqg","pricing_plan_id":"cebpf4jnsgd1na2vs0mg"},{"bike_id":"96cfd789-c593-41fa-98ca-46dbfdd0476a","system_id":"levelo_inurba_marseille","lat":43.26367,"lon":5.41085,"is_reserved":false,"is_disabled":false,"rental_uris":{"android":"levelo://app?vid=96cfd789-c593-41fa-98ca-46dbfdd0476a","ios":"levelo://app?vid=96cfd789-c593-41fa-98ca-46dbfdd0476a"},"vehicle_type_id":"4","last_reported":1778706923,"current_range_meters":8000,"station_id":"st_d4e5ca6na9uc73bfl5fg","pricing_plan_id":"cebpf4jnsgd1na2vs0mg"},{"bike_id":"8bb75740-110f-4d4e-8348-fb9d76c42c05","system_id":"levelo_inurba_marseille","lat":43.28699,"lon":5.46679,"is_reserved":false,"is_disabled":false,"rental_uris":{"android":"levelo://app?vid=8bb75740-110f-4d4e-8348-fb9d76c42c05","ios":"levelo://app?vid=8bb75740-110f-4d4e-8348-fb9d76c42c05"},"vehicle_type_id":"4","last_reported":1778706923,"current_range_meters":8000,"station_id":"st_d6tc3vkotcvc738tfjhg","pricing_plan_id":"cebpf4jnsgd1na2vs0mg"},{"bike_id":"81024744-39a7-4671-8896-502703aa22e9","system_id":"levelo_inurba_marseille","lat":43.29555,"lon":5.38535,"is_reserved":false,"is_disabled":false,"rental_uris":{"android":"levelo://app?vid=81024744-39a7-4671-8896-502703aa22e9","ios":"levelo://app?vid=81024744-39a7-4671-8896-502703aa22e9"},"vehicle_type_id":"4","last_reported":1778706923,"current_range_meters":8000,"station_id":"ce4bgih2rcd13ifvqba0","pricing_plan_id":"cebpf4jnsgd1na2vs0mg"},{"bike_id":"6a19ed57-ac73-42b5-8e17-cb7b62700533","system_id":"levelo_inurba_marseille","lat":43.231931,"lon":5.355496,"is_reserved":false,"is_disabled":false,"rental_uris":{"android":"levelo://app?vid=6a19ed57-ac73-42b5-8e17-cb7b62700533","ios":"levelo://app?vid=6a19ed57-ac73-42b5-8e17-cb7b62700533"},"vehicle_type_id":"4","last_reported":1778706923,"current_range_meters":8000,"station_id":"ce4bhu92rcd13ifvqi70","pricing_plan_id":"cebpf4jnsgd1na2vs0mg"},{"bike_id":"ce615a8c-7a08-4252-af33-b8071ad3e1a3","system_id":"levelo_inurba_marseille","lat":43.29805,"lon":5.39335,"is_reserved":false,"is_disabled":false,"rental_uris":{"android":"levelo://app?vid=ce615a8c-7a08-4252-af33-b8071ad3e1a3","ios":"levelo://app?vid=ce615a8c-7a08-4252-af33-b8071ad3e1a3"},"vehicle_type_id":"4","last_reported":1778706923,"current_range_meters":8400,"station_id":"chh1huq6cuj3fo74tm60","pricing_plan_id":"cebpf4jnsgd1na2vs0mg"},{"bike_id":"0480f53f-32e7-48a7-94bd-18e696381361","system_id":"levelo_inurba_marseille","lat":43.32354,"lon":5.36728,"is_reserved":false,"is_disabled":false,"rental_uris":{"android":"levelo://app?vid=0480f53f-32e7-48a7-94bd-18e696381361","ios":"levelo://app?vid=0480f53f-32e7-48a7-94bd-18e696381361"},"vehicle_type_id":"4","last_reported":1778706923,"current_range_meters":8400,"station_id":"ce4bhsh2rcd13ifvqi2g","pricing_plan_id":"cebpf4jnsgd1na2vs0mg"},{"bike_id":"92ab43c4-65a8-40ad-9026-0da4c99cc465","system_id":"levelo_inurba_marseille","lat":43.25879,"lon":5.40516,"is_reserved":false,"is_disabled":false,"rental_uris":{"android":"levelo://app?vid=92ab43c4-65a8-40ad-9026-0da4c99cc465","ios":"levelo://app?vid=92ab43c4-65a8-40ad-9026-0da4c99cc465"},"vehicle_type_id":"4","last_reported":1778706923,"current_range_meters":8400,"station_id":"","pricing_plan_id":"cebpf4jnsgd1na2vs0mg"},{"bike_id":"ffb3d7f7-6459-4e3d-8b24-278faf4681ca","system_id":"levelo_inurba_marseille","lat":43.28554,"lon":5.39542,"is_reserved":false,"is_disabled":false,"rental_uris":{"android":"levelo://app?vid=ffb3d7f7-6459-4e3d-8b24-278faf4681ca","ios":"levelo://app?vid=ffb3d7f7-6459-4e3d-8b24-278faf4681ca"},"vehicle_type_id":"4","last_reported":1778706923,"current_range_meters":8400,"station_id":"ce4bh292rcd13ifvqdg0","pricing_plan_id":"cebpf4jnsgd1na2vs0mg"},{"bike_id":"42731a40-4bbc-4699-988f-96d94835f8c7","system_id":"levelo_inurba_marseille","lat":43.29998,"lon":5.38507,"is_reserved":false,"is_disabled":false,"rental_uris":{"android":"levelo://app?vid=42731a40-4bbc-4699-988f-96d94835f8c7","ios":"levelo://app?vid=42731a40-4bbc-4699-988f-96d94835f8c7"},"vehicle_type_id":"4","last_reported":1778706923,"current_range_meters":8400,"station_id":"ce4bgj92rcd13ifvqbd0","pricing_plan_id":"cebpf4jnsgd1na2vs0mg"},{"bike_id":"578d139b-2865-42bb-876a-d299fd00e05a","system_id":"levelo_inurba_marseille","lat":43.29037,"lon":5.37548,"is_reserved":false,"is_disabled":false,"rental_uris":{"android":"levelo://app?vid=578d139b-2865-42bb-876a-d299fd00e05a","ios":"levelo://app?vid=578d139b-2865-42bb-876a-d299fd00e05a"},"vehicle_type_id":"4","last_reported":1778706923,"current_range_meters":8400,"station_id":"ce4bh692rcd13ifvqe90","pricing_plan_id":"cebpf4jnsgd1na2vs0mg"},{"bike_id":"35e8ee96-f021-41ee-8a16-5cd416ace246","system_id":"levelo_inurba_marseille","lat":43.28159,"lon":5.42666,"is_reserved":false,"is_disabled":false,"rental_uris":{"android":"levelo://app?vid=35e8ee96-f021-41ee-8a16-5cd416ace246","ios":"levelo://app?vid=35e8ee96-f021-41ee-8a16-5cd416ace246"},"vehicle_type_id":"4","last_reported":1778706923,"current_range_meters":8400,"station_id":"ce4bhnh2rcd13ifvqgug","pricing_plan_id":"cebpf4jnsgd1na2vs0mg"},{"bike_id":"9b15b5e3-5940-4d44-91a5-b0a7ddf2280e","system_id":"levelo_inurba_marseille","lat":43.28432,"lon":5.375,"is_reserved":false,"is_disabled":false,"rental_uris":{"android":"levelo://app?vid=9b15b5e3-5940-4d44-91a5-b0a7ddf2280e","ios":"levelo://app?vid=9b15b5e3-5940-4d44-91a5-b0a7ddf2280e"},"vehicle_type_id":"4","last_reported":1778706923,"current_range_meters":8400,"station_id":"ce4bh412rcd13ifvqds0","pricing_plan_id":"cebpf4jnsgd1na2vs0mg"},{"bike_id":"d42a7cf1-1fa2-40ee-b441-c73427ab11ef","system_id":"levelo_inurba_marseille","lat":43.23963,"lon":5.36632,"is_reserved":false,"is_disabled":false,"rental_uris":{"android":"levelo://app?vid=d42a7cf1-1fa2-40ee-b441-c73427ab11ef","ios":"levelo://app?vid=d42a7cf1-1fa2-40ee-b441-c73427ab11ef"},"vehicle_type_id":"4","last_reported":1778706923,"current_range_meters":8400,"station_id":"ce4bhi12rcd13ifvqfp0","pricing_plan_id":"cebpf4jnsgd1na2vs0mg"},{"bike_id":"3e360de6-20e6-4323-b769-b777116d8d02","system_id":"levelo_inurba_marseille","lat":43.29545,"lon":5.3854,"is_reserved":false,"is_disabled":false,"rental_uris":{"android":"levelo://app?vid=3e360de6-20e6-4323-b769-b777116d8d02","ios":"levelo://app?vid=3e360de6-20e6-4323-b769-b777116d8d02"},"vehicle_type_id":"4","last_reported":1778706923,"current_range_meters":8400,"station_id":"ce4bgih2rcd13ifvqba0","pricing_plan_id":"cebpf4jnsgd1na2vs0mg"},{"bike_id":"d8e2e9f7-fe1c-46c2-9779-5961b2399f2e","system_id":"levelo_inurba_marseille","lat":43.28942,"lon":5.36644,"is_reserved":false,"is_disabled":false,"rental_uris":{"android":"levelo://app?vid=d8e2e9f7-fe1c-46c2-9779-5961b2399f2e","ios":"levelo://app?vid=d8e2e9f7-fe1c-46c2-9779-5961b2399f2e"},"vehicle_type_id":"4","last_reported":1778706923,"current_range_meters":8400,"station_id":"ce4bhap2rcd13ifvqek0","pricing_plan_id":"cebpf4jnsgd1na2vs0mg"},{"bike_id":"3d9bd558-b2dd-47f5-b6aa-011932b10cef","system_id":"levelo_inurba_marseille","lat":43.29517,"lon":5.38532,"is_reserved":false,"is_disabled":false,"rental_uris":{"android":"levelo://app?vid=3d9bd558-b2dd-47f5-b6aa-011932b10cef","ios":"levelo://app?vid=3d9bd558-b2dd-47f5-b6aa-011932b10cef"},"vehicle_type_id":"4","last_reported":1778706923,"current_range_meters":8400,"station_id":"ce4bgih2rcd13ifvqba0","pricing_plan_id":"cebpf4jnsgd1na2vs0mg"},{"bike_id":"6a062c2e-acc6-450d-a835-8eef99e2f09e","system_id":"levelo_inurba_marseille","lat":43.29369,"lon":5.3785,"is_reserved":false,"is_disabled":false,"rental_uris":{"android":"levelo://app?vid=6a062c2e-acc6-450d-a835-8eef99e2f09e","ios":"levelo://app?vid=6a062c2e-acc6-450d-a835-8eef99e2f09e"},"vehicle_type_id":"4","last_reported":1778706923,"current_range_meters":8400,"station_id":"ce4bgjh2rcd13ifvqbf0","pricing_plan_id":"cebpf4jnsgd1na2vs0mg"},{"bike_id":"3b61f2d0-287d-4914-af0e-dee4eef3526c","system_id":"levelo_inurba_marseille","lat":43.28226,"lon":5.39077,"is_reserved":false,"is_disabled":false,"rental_uris":{"android":"levelo://app?vid=3b61f2d0-287d-4914-af0e-dee4eef3526c","ios":"levelo://app?vid=3b61f2d0-287d-4914-af0e-dee4eef3526c"},"vehicle_type_id":"4","last_reported":1778706923,"current_range_meters":8400,"station_id":"ce4bhn92rcd13ifvqgsg","pricing_plan_id":"cebpf4jnsgd1na2vs0mg"},{"bike_id":"18df3caf-e3cd-46b1-8a56-af0d8c09400e","system_id":"levelo_inurba_marseille","lat":43.24201,"lon":5.36408,"is_reserved":false,"is_disabled":false,"rental_uris":{"android":"levelo://app?vid=18df3caf-e3cd-46b1-8a56-af0d8c09400e","ios":"levelo://app?vid=18df3caf-e3cd-46b1-8a56-af0d8c09400e"},"vehicle_type_id":"4","last_reported":1778706923,"current_range_meters":8400,"station_id":"cpo36qri1sfpv3e86is0","pricing_plan_id":"cebpf4jnsgd1na2vs0mg"},{"bike_id":"97e6d2cb-e757-4504-83e7-196b7fa32846","system_id":"levelo_inurba_marseille","lat":43.29531,"lon":5.38528,"is_reserved":false,"is_disabled":false,"rental_uris":{"android":"levelo://app?vid=97e6d2cb-e757-4504-83e7-196b7fa32846","ios":"levelo://app?vid=97e6d2cb-e757-4504-83e7-196b7fa32846"},"vehicle_type_id":"4","last_reported":1778706923,"current_range_meters":8400,"station_id":"ce4bgih2rcd13ifvqba0","pricing_plan_id":"cebpf4jnsgd1na2vs0mg"},{"bike_id":"e7639aa3-651f-4e26-8dc2-eebbc9adb5f8","system_id":"levelo_inurba_marseille","lat":43.24641,"lon":5.38891,"is_reserved":false,"is_disabled":true,"rental_uris":{"android":"levelo://app?vid=e7639aa3-651f-4e26-8dc2-eebbc9adb5f8","ios":"levelo://app?vid=e7639aa3-651f-4e26-8dc2-eebbc9adb5f8"},"vehicle_type_id":"4","last_reported":1778706923,"current_range_meters":8400,"station_id":"ce4bhg12rcd13ifvqf60","pricing_plan_id":"cebpf4jnsgd1na2vs0mg"},{"bike_id":"47d636c0-17c8-4611-ab99-6a24fcfbd62a","system_id":"levelo_inurba_marseille","lat":43.28949,"lon":5.36627,"is_reserved":false,"is_disabled":false,"rental_uris":{"android":"levelo://app?vid=47d636c0-17c8-4611-ab99-6a24fcfbd62a","ios":"levelo://app?vid=47d636c0-17c8-4611-ab99-6a24fcfbd62a"},"vehicle_type_id":"4","last_reported":1778706923,"current_range_meters":8400,"station_id":"ce4bhap2rcd13ifvqek0","pricing_plan_id":"cebpf4jnsgd1na2vs0mg"},{"bike_id":"befa7ca9-07da-4b3a-822a-5e23279d9209","system_id":"levelo_inurba_marseille","lat":43.29557,"lon":5.42289,"is_reserved":false,"is_disabled":false,"rental_uris":{"android":"levelo://app?vid=befa7ca9-07da-4b3a-822a-5e23279d9209","ios":"levelo://app?vid=befa7ca9-07da-4b3a-822a-5e23279d9209"},"vehicle_type_id":"4","last_reported":1778706923,"current_range_meters":8400,"station_id":"ce4bhph2rcd13ifvqhdg","pricing_plan_id":"cebpf4jnsgd1na2vs0mg"},{"bike_id":"bdec0714-2661-4d5d-b0ca-dfb1e5acc403","system_id":"levelo_inurba_marseille","lat":43.21737,"lon":5.34564,"is_reserved":false,"is_disabled":true,"rental_uris":{"android":"levelo://app?vid=bdec0714-2661-4d5d-b0ca-dfb1e5acc403","ios":"levelo://app?vid=bdec0714-2661-4d5d-b0ca-dfb1e5acc403"},"vehicle_type_id":"4","last_reported":1778706923,"current_range_meters":8400,"station_id":"st_cvj6r9ubvosntc0bgbag","pricing_plan_id":"cebpf4jnsgd1na2vs0mg"},{"bike_id":"4d2f6501-f59d-42f5-8f2d-638fca42e820","system_id":"levelo_inurba_marseille","lat":43.28504,"lon":5.48353,"is_reserved":false,"is_disabled":false,"rental_uris":{"android":"levelo://app?vid=4d2f6501-f59d-42f5-8f2d-638fca42e820","ios":"levelo://app?vid=4d2f6501-f59d-42f5-8f2d-638fca42e820"},"vehicle_type_id":"4","last_reported":1778706923,"current_range_meters":8400,"station_id":"","pricing_plan_id":"cebpf4jnsgd1na2vs0mg"},{"bike_id":"526bc345-cb5b-47f1-963d-f2214ff382df","system_id":"levelo_inurba_marseille","lat":43.29259,"lon":5.3844,"is_reserved":false,"is_disabled":false,"rental_uris":{"android":"levelo://app?vid=526bc345-cb5b-47f1-963d-f2214ff382df","ios":"levelo://app?vid=526bc345-cb5b-47f1-963d-f2214ff382df"},"vehicle_type_id":"4","last_reported":1778706923,"current_range_meters":8400,"station_id":"ce4bh692rcd13ifvqea0","pricing_plan_id":"cebpf4jnsgd1na2vs0mg"},{"bike_id":"a35b9556-5c34-48c2-b559-44f4569f578d","system_id":"levelo_inurba_marseille","lat":43.28708,"lon":5.37363,"is_reserved":false,"is_disabled":false,"rental_uris":{"android":"levelo://app?vid=a35b9556-5c34-48c2-b559-44f4569f578d","ios":"levelo://app?vid=a35b9556-5c34-48c2-b559-44f4569f578d"},"vehicle_type_id":"4","last_reported":1778706923,"current_range_meters":8400,"station_id":"ce4bh3p2rcd13ifvqdq0","pricing_plan_id":"cebpf4jnsgd1na2vs0mg"},{"bike_id":"68193e88-4df6-4a84-abe0-d5272c2d7865","system_id":"levelo_inurba_marseille","lat":43.29794,"lon":5.39351,"is_reserved":false,"is_disabled":false,"rental_uris":{"android":"levelo://app?vid=68193e88-4df6-4a84-abe0-d5272c2d7865","ios":"levelo://app?vid=68193e88-4df6-4a84-abe0-d5272c2d7865"},"vehicle_type_id":"4","last_reported":1778706923,"current_range_meters":8400,"station_id":"chh1huq6cuj3fo74tm60","pricing_plan_id":"cebpf4jnsgd1na2vs0mg"},{"bike_id":"0964bc95-3503-4f72-8fdf-9131d7f8127e","system_id":"levelo_inurba_marseille","lat":43.30171,"lon":5.38859,"is_reserved":false,"is_disabled":false,"rental_uris":{"android":"levelo://app?vid=0964bc95-3503-4f72-8fdf-9131d7f8127e","ios":"levelo://app?vid=0964bc95-3503-4f72-8fdf-9131d7f8127e"},"vehicle_type_id":"4","last_reported":1778706923,"current_range_meters":8400,"station_id":"","pricing_plan_id":"cebpf4jnsgd1na2vs0mg"},{"bike_id":"958cb00b-8036-41bc-85a3-ca6ade118af0","system_id":"levelo_inurba_marseille","lat":43.29575,"lon":5.39973,"is_reserved":false,"is_disabled":false,"rental_uris":{"android":"levelo://app?vid=958cb00b-8036-41bc-85a3-ca6ade118af0","ios":"levelo://app?vid=958cb00b-8036-41bc-85a3-ca6ade118af0"},"vehicle_type_id":"4","last_reported":1778706923,"current_range_meters":8400,"station_id":"ce4bh312rcd13ifvqdj0","pricing_plan_id":"cebpf4jnsgd1na2vs0mg"},{"bike_id":"8c194f26-001c-4299-8258-fca14d9edb51","system_id":"levelo_inurba_marseille","lat":43.24602,"lon":5.38016,"is_reserved":false,"is_disabled":false,"rental_uris":{"android":"levelo://app?vid=8c194f26-001c-4299-8258-fca14d9edb51","ios":"levelo://app?vid=8c194f26-001c-4299-8258-fca14d9edb51"},"vehicle_type_id":"4","last_reported":1778706923,"current_range_meters":8400,"station_id":"","pricing_plan_id":"cebpf4jnsgd1na2vs0mg"},{"bike_id":"43dc5ec9-cce1-48fb-99af-2b40ca7b9483","system_id":"levelo_inurba_marseille","lat":43.21767,"lon":5.34594,"is_reserved":false,"is_disabled":false,"rental_uris":{"android":"levelo://app?vid=43dc5ec9-cce1-48fb-99af-2b40ca7b9483","ios":"levelo://app?vid=43dc5ec9-cce1-48fb-99af-2b40ca7b9483"},"vehicle_type_id":"4","last_reported":1778706923,"current_range_meters":8800,"station_id":"st_cvj6r9ubvosntc0bgbag","pricing_plan_id":"cebpf4jnsgd1na2vs0mg"},{"bike_id":"b2b4314a-5925-4700-bab3-038d34f53a7d","system_id":"levelo_inurba_marseille","lat":43.28675,"lon":5.46691,"is_reserved":false,"is_disabled":false,"rental_uris":{"android":"levelo://app?vid=b2b4314a-5925-4700-bab3-038d34f53a7d","ios":"levelo://app?vid=b2b4314a-5925-4700-bab3-038d34f53a7d"},"vehicle_type_id":"4","last_reported":1778706923,"current_range_meters":8800,"station_id":"st_d6tc3vkotcvc738tfjhg","pricing_plan_id":"cebpf4jnsgd1na2vs0mg"},{"bike_id":"1f07e132-97a9-4528-b9b3-ef7c62abf882","system_id":"levelo_inurba_marseille","lat":43.27631,"lon":5.36102,"is_reserved":false,"is_disabled":false,"rental_uris":{"android":"levelo://app?vid=1f07e132-97a9-4528-b9b3-ef7c62abf882","ios":"levelo://app?vid=1f07e132-97a9-4528-b9b3-ef7c62abf882"},"vehicle_type_id":"4","last_reported":1778706923,"current_range_meters":8800,"station_id":"ce4bgj92rcd13ifvqbe0","pricing_plan_id":"cebpf4jnsgd1na2vs0mg"},{"bike_id":"f009bb4b-625b-4482-8ff8-5aeca90a33f4","system_id":"levelo_inurba_marseille","lat":43.26218,"lon":5.37446,"is_reserved":false,"is_disabled":false,"rental_uris":{"android":"levelo://app?vid=f009bb4b-625b-4482-8ff8-5aeca90a33f4","ios":"levelo://app?vid=f009bb4b-625b-4482-8ff8-5aeca90a33f4"},"vehicle_type_id":"4","last_reported":1778706923,"current_range_meters":8800,"station_id":"ce4bhgp2rcd13ifvqfc0","pricing_plan_id":"cebpf4jnsgd1na2vs0mg"},{"bike_id":"b7aef511-a30b-48e6-924f-5b7ff92819c7","system_id":"levelo_inurba_marseille","lat":43.28162,"lon":5.42644,"is_reserved":false,"is_disabled":true,"rental_uris":{"android":"levelo://app?vid=b7aef511-a30b-48e6-924f-5b7ff92819c7","ios":"levelo://app?vid=b7aef511-a30b-48e6-924f-5b7ff92819c7"},"vehicle_type_id":"4","last_reported":1778706923,"current_range_meters":8800,"station_id":"ce4bhnh2rcd13ifvqgug","pricing_plan_id":"cebpf4jnsgd1na2vs0mg"},{"bike_id":"5e57f13f-0095-4757-85ab-b6d06c068367","system_id":"levelo_inurba_marseille","lat":43.28034,"lon":5.36915,"is_reserved":false,"is_disabled":false,"rental_uris":{"android":"levelo://app?vid=5e57f13f-0095-4757-85ab-b6d06c068367","ios":"levelo://app?vid=5e57f13f-0095-4757-85ab-b6d06c068367"},"vehicle_type_id":"4","last_reported":1778706923,"current_range_meters":8800,"station_id":"ce4bha12rcd13ifvqef0","pricing_plan_id":"cebpf4jnsgd1na2vs0mg"},{"bike_id":"668a9b41-354e-4bee-bad3-4c0c0c7f49fe","system_id":"levelo_inurba_marseille","lat":43.27966,"lon":5.38718,"is_reserved":false,"is_disabled":true,"rental_uris":{"android":"levelo://app?vid=668a9b41-354e-4bee-bad3-4c0c0c7f49fe","ios":"levelo://app?vid=668a9b41-354e-4bee-bad3-4c0c0c7f49fe"},"vehicle_type_id":"4","last_reported":1778706923,"current_range_meters":8800,"station_id":"ce4bhg12rcd13ifvqf80","pricing_plan_id":"cebpf4jnsgd1na2vs0mg"},{"bike_id":"0cea4717-0949-40fd-ae94-1db72ec6ad8c","system_id":"levelo_inurba_marseille","lat":43.29541,"lon":5.38522,"is_reserved":false,"is_disabled":false,"rental_uris":{"android":"levelo://app?vid=0cea4717-0949-40fd-ae94-1db72ec6ad8c","ios":"levelo://app?vid=0cea4717-0949-40fd-ae94-1db72ec6ad8c"},"vehicle_type_id":"4","last_reported":1778706923,"current_range_meters":8800,"station_id":"ce4bgih2rcd13ifvqba0","pricing_plan_id":"cebpf4jnsgd1na2vs0mg"},{"bike_id":"844741a2-f80e-4514-aadd-d1fe2ac89ebf","system_id":"levelo_inurba_marseille","lat":43.22933,"lon":5.35365,"is_reserved":false,"is_disabled":false,"rental_uris":{"android":"levelo://app?vid=844741a2-f80e-4514-aadd-d1fe2ac89ebf","ios":"levelo://app?vid=844741a2-f80e-4514-aadd-d1fe2ac89ebf"},"vehicle_type_id":"4","last_reported":1778706923,"current_range_meters":8800,"station_id":"cpo3532slgdg3j2ikp40","pricing_plan_id":"cebpf4jnsgd1na2vs0mg"},{"bike_id":"570fd5c6-e28b-4da3-8ef4-4ebd4d660ec9","system_id":"levelo_inurba_marseille","lat":43.30966,"lon":5.3907,"is_reserved":false,"is_disabled":false,"rental_uris":{"android":"levelo://app?vid=570fd5c6-e28b-4da3-8ef4-4ebd4d660ec9","ios":"levelo://app?vid=570fd5c6-e28b-4da3-8ef4-4ebd4d660ec9"},"vehicle_type_id":"4","last_reported":1778706923,"current_range_meters":8800,"station_id":"ce4bgup2rcd13ifvqco0","pricing_plan_id":"cebpf4jnsgd1na2vs0mg"},{"bike_id":"9a7cc937-a6ec-4087-a3df-066ca7655994","system_id":"levelo_inurba_marseille","lat":43.33728,"lon":5.37461,"is_reserved":false,"is_disabled":false,"rental_uris":{"android":"levelo://app?vid=9a7cc937-a6ec-4087-a3df-066ca7655994","ios":"levelo://app?vid=9a7cc937-a6ec-4087-a3df-066ca7655994"},"vehicle_type_id":"4","last_reported":1778706923,"current_range_meters":8800,"station_id":"","pricing_plan_id":"cebpf4jnsgd1na2vs0mg"},{"bike_id":"9bb62d1d-98d2-456f-8ada-1bbcaeb98c00","system_id":"levelo_inurba_marseille","lat":43.28528,"lon":5.3838,"is_reserved":false,"is_disabled":false,"rental_uris":{"android":"levelo://app?vid=9bb62d1d-98d2-456f-8ada-1bbcaeb98c00","ios":"levelo://app?vid=9bb62d1d-98d2-456f-8ada-1bbcaeb98c00"},"vehicle_type_id":"4","last_reported":1778706923,"current_range_meters":8800,"station_id":"","pricing_plan_id":"cebpf4jnsgd1na2vs0mg"},{"bike_id":"b34f4dab-dccc-4284-91a1-3b795bc0321b","system_id":"levelo_inurba_marseille","lat":43.29259,"lon":5.38419,"is_reserved":false,"is_disabled":false,"rental_uris":{"android":"levelo://app?vid=b34f4dab-dccc-4284-91a1-3b795bc0321b","ios":"levelo://app?vid=b34f4dab-dccc-4284-91a1-3b795bc0321b"},"vehicle_type_id":"4","last_reported":1778706923,"current_range_meters":8800,"station_id":"ce4bh692rcd13ifvqea0","pricing_plan_id":"cebpf4jnsgd1na2vs0mg"},{"bike_id":"961ae3cb-3fb8-4279-8e42-ea1f7ab378e9","system_id":"levelo_inurba_marseille","lat":43.2319,"lon":5.39985,"is_reserved":false,"is_disabled":false,"rental_uris":{"android":"levelo://app?vid=961ae3cb-3fb8-4279-8e42-ea1f7ab378e9","ios":"levelo://app?vid=961ae3cb-3fb8-4279-8e42-ea1f7ab378e9"},"vehicle_type_id":"4","last_reported":1778706923,"current_range_meters":8800,"station_id":"ce4bhn12rcd13ifvqgqg","pricing_plan_id":"cebpf4jnsgd1na2vs0mg"},{"bike_id":"a339c933-e107-4d4b-933f-53ece35c4b10","system_id":"levelo_inurba_marseille","lat":43.23181,"lon":5.39986,"is_reserved":false,"is_disabled":false,"rental_uris":{"android":"levelo://app?vid=a339c933-e107-4d4b-933f-53ece35c4b10","ios":"levelo://app?vid=a339c933-e107-4d4b-933f-53ece35c4b10"},"vehicle_type_id":"4","last_reported":1778706923,"current_range_meters":8800,"station_id":"ce4bhn12rcd13ifvqgqg","pricing_plan_id":"cebpf4jnsgd1na2vs0mg"},{"bike_id":"8b2243e9-3eda-4fa4-a5a4-2f114d2b5cc4","system_id":"levelo_inurba_marseille","lat":43.34142,"lon":5.40908,"is_reserved":false,"is_disabled":false,"rental_uris":{"android":"levelo://app?vid=8b2243e9-3eda-4fa4-a5a4-2f114d2b5cc4","ios":"levelo://app?vid=8b2243e9-3eda-4fa4-a5a4-2f114d2b5cc4"},"vehicle_type_id":"4","last_reported":1778706923,"current_range_meters":8800,"station_id":"ce4bhqh2rcd13ifvqhlg","pricing_plan_id":"cebpf4jnsgd1na2vs0mg"},{"bike_id":"a1703b74-5861-4e9e-8e71-cec27a6bdc75","system_id":"levelo_inurba_marseille","lat":43.25508,"lon":5.37656,"is_reserved":false,"is_disabled":false,"rental_uris":{"android":"levelo://app?vid=a1703b74-5861-4e9e-8e71-cec27a6bdc75","ios":"levelo://app?vid=a1703b74-5861-4e9e-8e71-cec27a6bdc75"},"vehicle_type_id":"4","last_reported":1778706923,"current_range_meters":8800,"station_id":"ce4bhh12rcd13ifvqff0","pricing_plan_id":"cebpf4jnsgd1na2vs0mg"},{"bike_id":"0da6948a-b597-4317-b926-141efbb7181d","system_id":"levelo_inurba_marseille","lat":43.25508,"lon":5.37641,"is_reserved":false,"is_disabled":false,"rental_uris":{"android":"levelo://app?vid=0da6948a-b597-4317-b926-141efbb7181d","ios":"levelo://app?vid=0da6948a-b597-4317-b926-141efbb7181d"},"vehicle_type_id":"4","last_reported":1778706923,"current_range_meters":8800,"station_id":"ce4bhh12rcd13ifvqff0","pricing_plan_id":"cebpf4jnsgd1na2vs0mg"},{"bike_id":"03d79ccb-0d3d-4459-a92d-65dd8d8533bb","system_id":"levelo_inurba_marseille","lat":43.24796,"lon":5.37441,"is_reserved":false,"is_disabled":false,"rental_uris":{"android":"levelo://app?vid=03d79ccb-0d3d-4459-a92d-65dd8d8533bb","ios":"levelo://app?vid=03d79ccb-0d3d-4459-a92d-65dd8d8533bb"},"vehicle_type_id":"4","last_reported":1778706923,"current_range_meters":8800,"station_id":"ce4bhgh2rcd13ifvqfb0","pricing_plan_id":"cebpf4jnsgd1na2vs0mg"},{"bike_id":"6cf28338-ea98-4723-8566-9f7e17ab35d2","system_id":"levelo_inurba_marseille","lat":43.25522,"lon":5.37638,"is_reserved":false,"is_disabled":false,"rental_uris":{"android":"levelo://app?vid=6cf28338-ea98-4723-8566-9f7e17ab35d2","ios":"levelo://app?vid=6cf28338-ea98-4723-8566-9f7e17ab35d2"},"vehicle_type_id":"4","last_reported":1778706923,"current_range_meters":8800,"station_id":"ce4bhh12rcd13ifvqff0","pricing_plan_id":"cebpf4jnsgd1na2vs0mg"},{"bike_id":"036a62b4-030b-4807-b1c3-e27dba76c0c2","system_id":"levelo_inurba_marseille","lat":43.29531,"lon":5.38543,"is_reserved":false,"is_disabled":false,"rental_uris":{"android":"levelo://app?vid=036a62b4-030b-4807-b1c3-e27dba76c0c2","ios":"levelo://app?vid=036a62b4-030b-4807-b1c3-e27dba76c0c2"},"vehicle_type_id":"4","last_reported":1778706923,"current_range_meters":8800,"station_id":"ce4bgih2rcd13ifvqba0","pricing_plan_id":"cebpf4jnsgd1na2vs0mg"},{"bike_id":"9ab268a0-a8ea-4091-be12-135023a9af46","system_id":"levelo_inurba_marseille","lat":43.304,"lon":5.39694,"is_reserved":false,"is_disabled":false,"rental_uris":{"android":"levelo://app?vid=9ab268a0-a8ea-4091-be12-135023a9af46","ios":"levelo://app?vid=9ab268a0-a8ea-4091-be12-135023a9af46"},"vehicle_type_id":"4","last_reported":1778706923,"current_range_meters":8800,"station_id":"","pricing_plan_id":"cebpf4jnsgd1na2vs0mg"},{"bike_id":"66fd8018-0de1-49f2-826e-b4cee9b193a8","system_id":"levelo_inurba_marseille","lat":43.30201,"lon":5.36625,"is_reserved":false,"is_disabled":true,"rental_uris":{"android":"levelo://app?vid=66fd8018-0de1-49f2-826e-b4cee9b193a8","ios":"levelo://app?vid=66fd8018-0de1-49f2-826e-b4cee9b193a8"},"vehicle_type_id":"4","last_reported":1778706923,"current_range_meters":8800,"station_id":"ce4bgrh2rcd13ifvqc8g","pricing_plan_id":"cebpf4jnsgd1na2vs0mg"},{"bike_id":"172e030c-548d-43d9-8416-85bf279b848f","system_id":"levelo_inurba_marseille","lat":43.29253,"lon":5.38443,"is_reserved":false,"is_disabled":false,"rental_uris":{"android":"levelo://app?vid=172e030c-548d-43d9-8416-85bf279b848f","ios":"levelo://app?vid=172e030c-548d-43d9-8416-85bf279b848f"},"vehicle_type_id":"4","last_reported":1778706923,"current_range_meters":8800,"station_id":"ce4bh692rcd13ifvqea0","pricing_plan_id":"cebpf4jnsgd1na2vs0mg"},{"bike_id":"38fa3dd4-0d4d-4dc9-8308-80c879aa0ce4","system_id":"levelo_inurba_marseille","lat":43.29974,"lon":5.37186,"is_reserved":false,"is_disabled":false,"rental_uris":{"android":"levelo://app?vid=38fa3dd4-0d4d-4dc9-8308-80c879aa0ce4","ios":"levelo://app?vid=38fa3dd4-0d4d-4dc9-8308-80c879aa0ce4"},"vehicle_type_id":"4","last_reported":1778706923,"current_range_meters":8800,"station_id":"ce4bgr92rcd13ifvqc7g","pricing_plan_id":"cebpf4jnsgd1na2vs0mg"},{"bike_id":"658164e4-bc7e-43dd-9349-f00c206a0226","system_id":"levelo_inurba_marseille","lat":43.29419,"lon":5.38214,"is_reserved":false,"is_disabled":false,"rental_uris":{"android":"levelo://app?vid=658164e4-bc7e-43dd-9349-f00c206a0226","ios":"levelo://app?vid=658164e4-bc7e-43dd-9349-f00c206a0226"},"vehicle_type_id":"4","last_reported":1778706923,"current_range_meters":8800,"station_id":"","pricing_plan_id":"cebpf4jnsgd1na2vs0mg"},{"bike_id":"37878f0d-6592-4bac-866e-21f85ad07eac","system_id":"levelo_inurba_marseille","lat":43.28937,"lon":5.36633,"is_reserved":false,"is_disabled":false,"rental_uris":{"android":"levelo://app?vid=37878f0d-6592-4bac-866e-21f85ad07eac","ios":"levelo://app?vid=37878f0d-6592-4bac-866e-21f85ad07eac"},"vehicle_type_id":"4","last_reported":1778706923,"current_range_meters":8800,"station_id":"ce4bhap2rcd13ifvqek0","pricing_plan_id":"cebpf4jnsgd1na2vs0mg"},{"bike_id":"586f827f-dad1-4170-8c47-6e12389583c8","system_id":"levelo_inurba_marseille","lat":43.29283,"lon":5.38412,"is_reserved":false,"is_disabled":false,"rental_uris":{"android":"levelo://app?vid=586f827f-dad1-4170-8c47-6e12389583c8","ios":"levelo://app?vid=586f827f-dad1-4170-8c47-6e12389583c8"},"vehicle_type_id":"4","last_reported":1778706923,"current_range_meters":8800,"station_id":"ce4bh692rcd13ifvqea0","pricing_plan_id":"cebpf4jnsgd1na2vs0mg"},{"bike_id":"ead892c9-b844-4758-9093-438046339052","system_id":"levelo_inurba_marseille","lat":43.33555,"lon":5.37473,"is_reserved":false,"is_disabled":false,"rental_uris":{"android":"levelo://app?vid=ead892c9-b844-4758-9093-438046339052","ios":"levelo://app?vid=ead892c9-b844-4758-9093-438046339052"},