{"last_updated":1736579261,"ttl":60,"version":"2.2","data":{"bikes":[{"bike_id":"9efffc4b-6a38-4517-ab0e-918d1c43dbfa","system_id":"levelo_inurba_marseille","lat":43.33615,"lon":5.41013,"is_reserved":false,"is_disabled":false,"rental_uris":{"android":"levelo://app?vid=9efffc4b-6a38-4517-ab0e-918d1c43dbfa","ios":"levelo://app?vid=9efffc4b-6a38-4517-ab0e-918d1c43dbfa"},"vehicle_type_id":"4","last_reported":1736579262,"current_range_meters":34800,"station_id":"ce4bhqh2rcd13ifvqhmg","pricing_plan_id":"cebpf4jnsgd1na2vs0mg"},{"bike_id":"14a8245a-9128-40d3-8265-cf1423d2fdc8","system_id":"levelo_inurba_marseille","lat":43.24804,"lon":5.37457,"is_reserved":false,"is_disabled":false,"rental_uris":{"android":"levelo://app?vid=14a8245a-9128-40d3-8265-cf1423d2fdc8","ios":"levelo://app?vid=14a8245a-9128-40d3-8265-cf1423d2fdc8"},"vehicle_type_id":"4","last_reported":1736579262,"current_range_meters":38800,"station_id":"ce4bhgh2rcd13ifvqfb0","pricing_plan_id":"cebpf4jnsgd1na2vs0mg"},{"bike_id":"d4b06b90-36bb-4ab0-af4e-3334c9d4e6d4","system_id":"levelo_inurba_marseille","lat":43.23402,"lon":5.35888,"is_reserved":false,"is_disabled":false,"rental_uris":{"android":"levelo://app?vid=d4b06b90-36bb-4ab0-af4e-3334c9d4e6d4","ios":"levelo://app?vid=d4b06b90-36bb-4ab0-af4e-3334c9d4e6d4"},"vehicle_type_id":"4","last_reported":1736579262,"current_range_meters":7200,"station_id":"","pricing_plan_id":"cebpf4jnsgd1na2vs0mg"},{"bike_id":"9ff24b9e-60a3-48d4-8cde-0ae6dfde2dc8","system_id":"levelo_inurba_marseille","lat":43.3302,"lon":5.39041,"is_reserved":false,"is_disabled":false,"rental_uris":{"android":"levelo://app?vid=9ff24b9e-60a3-48d4-8cde-0ae6dfde2dc8","ios":"levelo://app?vid=9ff24b9e-60a3-48d4-8cde-0ae6dfde2dc8"},"vehicle_type_id":"4","last_reported":1736579262,"current_range_meters":30000,"station_id":"ce4bhr92rcd13ifvqhrg","pricing_plan_id":"cebpf4jnsgd1na2vs0mg"},{"bike_id":"79a7df46-a7ca-4d27-97af-0883a0d4aacd","system_id":"levelo_inurba_marseille","lat":43.24794,"lon":5.37452,"is_reserved":false,"is_disabled":false,"rental_uris":{"android":"levelo://app?vid=79a7df46-a7ca-4d27-97af-0883a0d4aacd","ios":"levelo://app?vid=79a7df46-a7ca-4d27-97af-0883a0d4aacd"},"vehicle_type_id":"4","last_reported":1736579262,"current_range_meters":33200,"station_id":"ce4bhgh2rcd13ifvqfb0","pricing_plan_id":"cebpf4jnsgd1na2vs0mg"},{"bike_id":"42034ff5-e6b0-40c2-8baa-a33bc13731d4","system_id":"levelo_inurba_marseille","lat":43.25927,"lon":5.40919,"is_reserved":false,"is_disabled":true,"rental_uris":{"android":"levelo://app?vid=42034ff5-e6b0-40c2-8baa-a33bc13731d4","ios":"levelo://app?vid=42034ff5-e6b0-40c2-8baa-a33bc13731d4"},"vehicle_type_id":"4","last_reported":1736579262,"current_range_meters":26800,"station_id":"ce4bhm92rcd13ifvqglg","pricing_plan_id":"cebpf4jnsgd1na2vs0mg"},{"bike_id":"ebabb552-3cc3-471d-94ae-9e96bc183c3b","system_id":"levelo_inurba_marseille","lat":43.2618,"lon":5.3791,"is_reserved":false,"is_disabled":false,"rental_uris":{"android":"levelo://app?vid=ebabb552-3cc3-471d-94ae-9e96bc183c3b","ios":"levelo://app?vid=ebabb552-3cc3-471d-94ae-9e96bc183c3b"},"vehicle_type_id":"4","last_reported":1736579262,"current_range_meters":31200,"station_id":"ce4bhjp2rcd13ifvqg90","pricing_plan_id":"cebpf4jnsgd1na2vs0mg"},{"bike_id":"02fa8d23-b641-466a-8661-f76f63fb8c6e","system_id":"levelo_inurba_marseille","lat":43.31531,"lon":5.38027,"is_reserved":false,"is_disabled":false,"rental_uris":{"android":"levelo://app?vid=02fa8d23-b641-466a-8661-f76f63fb8c6e","ios":"levelo://app?vid=02fa8d23-b641-466a-8661-f76f63fb8c6e"},"vehicle_type_id":"4","last_reported":1736579262,"current_range_meters":38800,"station_id":"ce4bhsp2rcd13ifvqi50","pricing_plan_id":"cebpf4jnsgd1na2vs0mg"},{"bike_id":"0fe425bb-f9c2-47cb-b4cc-f55ce66357e3","system_id":"levelo_inurba_marseille","lat":43.240705,"lon":5.377624,"is_reserved":false,"is_disabled":false,"rental_uris":{"android":"levelo://app?vid=0fe425bb-f9c2-47cb-b4cc-f55ce66357e3","ios":"levelo://app?vid=0fe425bb-f9c2-47cb-b4cc-f55ce66357e3"},"vehicle_type_id":"4","last_reported":1736579262,"current_range_meters":38800,"station_id":"ce4bhnp2rcd13ifvqgvg","pricing_plan_id":"cebpf4jnsgd1na2vs0mg"},{"bike_id":"d2f823e9-4311-4ea5-8493-dc6417fe0a04","system_id":"levelo_inurba_marseille","lat":43.284142,"lon":5.349917,"is_reserved":false,"is_disabled":true,"rental_uris":{"android":"levelo://app?vid=d2f823e9-4311-4ea5-8493-dc6417fe0a04","ios":"levelo://app?vid=d2f823e9-4311-4ea5-8493-dc6417fe0a04"},"vehicle_type_id":"4","last_reported":1736579262,"current_range_meters":800,"station_id":"ce4bhbh2rcd13ifvqepg","pricing_plan_id":"cebpf4jnsgd1na2vs0mg"},{"bike_id":"a444a04d-7a75-4bb0-b921-23a4f692b157","system_id":"levelo_inurba_marseille","lat":43.246546,"lon":5.388879,"is_reserved":false,"is_disabled":false,"rental_uris":{"android":"levelo://app?vid=a444a04d-7a75-4bb0-b921-23a4f692b157","ios":"levelo://app?vid=a444a04d-7a75-4bb0-b921-23a4f692b157"},"vehicle_type_id":"4","last_reported":1736579262,"current_range_meters":20000,"station_id":"ce4bhg12rcd13ifvqf60","pricing_plan_id":"cebpf4jnsgd1na2vs0mg"},{"bike_id":"b246f170-19e2-4621-9322-d904efe8f685","system_id":"levelo_inurba_marseille","lat":43.33609,"lon":5.41001,"is_reserved":false,"is_disabled":true,"rental_uris":{"android":"levelo://app?vid=b246f170-19e2-4621-9322-d904efe8f685","ios":"levelo://app?vid=b246f170-19e2-4621-9322-d904efe8f685"},"vehicle_type_id":"4","last_reported":1736579262,"current_range_meters":800,"station_id":"ce4bhqh2rcd13ifvqhmg","pricing_plan_id":"cebpf4jnsgd1na2vs0mg"},{"bike_id":"42b2945a-873e-44b2-ae60-3504061c9f79","system_id":"levelo_inurba_marseille","lat":43.282757,"lon":5.350743,"is_reserved":false,"is_disabled":false,"rental_uris":{"android":"levelo://app?vid=42b2945a-873e-44b2-ae60-3504061c9f79","ios":"levelo://app?vid=42b2945a-873e-44b2-ae60-3504061c9f79"},"vehicle_type_id":"4","last_reported":1736579262,"current_range_meters":12000,"station_id":"ce4bhbp2rcd13ifvqerg","pricing_plan_id":"cebpf4jnsgd1na2vs0mg"},{"bike_id":"4a1197e9-1d8f-4601-b512-fd7b383aeec4","system_id":"levelo_inurba_marseille","lat":43.23955,"lon":5.36649,"is_reserved":false,"is_disabled":false,"rental_uris":{"android":"levelo://app?vid=4a1197e9-1d8f-4601-b512-fd7b383aeec4","ios":"levelo://app?vid=4a1197e9-1d8f-4601-b512-fd7b383aeec4"},"vehicle_type_id":"4","last_reported":1736579262,"current_range_meters":20000,"station_id":"ce4bhi12rcd13ifvqfp0","pricing_plan_id":"cebpf4jnsgd1na2vs0mg"},{"bike_id":"6fe5b625-308d-46c2-acb0-57f2692f006c","system_id":"levelo_inurba_marseille","lat":43.30116,"lon":5.39874,"is_reserved":false,"is_disabled":false,"rental_uris":{"android":"levelo://app?vid=6fe5b625-308d-46c2-acb0-57f2692f006c","ios":"levelo://app?vid=6fe5b625-308d-46c2-acb0-57f2692f006c"},"vehicle_type_id":"4","last_reported":1736579262,"current_range_meters":28400,"station_id":"ce4bh0h2rcd13ifvqd40","pricing_plan_id":"cebpf4jnsgd1na2vs0mg"},{"bike_id":"6ee99b54-07df-4491-99ea-6f1d2bd7badf","system_id":"levelo_inurba_marseille","lat":43.30579,"lon":5.39355,"is_reserved":false,"is_disabled":false,"rental_uris":{"android":"levelo://app?vid=6ee99b54-07df-4491-99ea-6f1d2bd7badf","ios":"levelo://app?vid=6ee99b54-07df-4491-99ea-6f1d2bd7badf"},"vehicle_type_id":"4","last_reported":1736579262,"current_range_meters":36400,"station_id":"ce4bh0p2rcd13ifvqd80","pricing_plan_id":"cebpf4jnsgd1na2vs0mg"},{"bike_id":"f27315e5-5b6e-4c1c-bf3c-bb19556d13a1","system_id":"levelo_inurba_marseille","lat":43.33608,"lon":5.41022,"is_reserved":false,"is_disabled":false,"rental_uris":{"android":"levelo://app?vid=f27315e5-5b6e-4c1c-bf3c-bb19556d13a1","ios":"levelo://app?vid=f27315e5-5b6e-4c1c-bf3c-bb19556d13a1"},"vehicle_type_id":"4","last_reported":1736579262,"current_range_meters":38800,"station_id":"ce4bhqh2rcd13ifvqhmg","pricing_plan_id":"cebpf4jnsgd1na2vs0mg"},{"bike_id":"91e92e19-3b30-4f9d-9cb8-e0e26630b776","system_id":"levelo_inurba_marseille","lat":43.258607,"lon":5.399023,"is_reserved":false,"is_disabled":false,"rental_uris":{"android":"levelo://app?vid=91e92e19-3b30-4f9d-9cb8-e0e26630b776","ios":"levelo://app?vid=91e92e19-3b30-4f9d-9cb8-e0e26630b776"},"vehicle_type_id":"4","last_reported":1736579262,"current_range_meters":38000,"station_id":"ce4bhl92rcd13ifvqghg","pricing_plan_id":"cebpf4jnsgd1na2vs0mg"},{"bike_id":"853d56cd-3451-4764-beab-a40e85523b05","system_id":"levelo_inurba_marseille","lat":43.24643,"lon":5.38925,"is_reserved":false,"is_disabled":false,"rental_uris":{"android":"levelo://app?vid=853d56cd-3451-4764-beab-a40e85523b05","ios":"levelo://app?vid=853d56cd-3451-4764-beab-a40e85523b05"},"vehicle_type_id":"4","last_reported":1736579262,"current_range_meters":6000,"station_id":"ce4bhg12rcd13ifvqf60","pricing_plan_id":"cebpf4jnsgd1na2vs0mg"},{"bike_id":"2c1e6826-ba01-47fd-9f3c-08c7df023fd8","system_id":"levelo_inurba_marseille","lat":43.28446,"lon":5.35905,"is_reserved":false,"is_disabled":false,"rental_uris":{"android":"levelo://app?vid=2c1e6826-ba01-47fd-9f3c-08c7df023fd8","ios":"levelo://app?vid=2c1e6826-ba01-47fd-9f3c-08c7df023fd8"},"vehicle_type_id":"4","last_reported":1736579262,"current_range_meters":19200,"station_id":"ce4bhah2rcd13ifvqei0","pricing_plan_id":"cebpf4jnsgd1na2vs0mg"},{"bike_id":"004c2ac5-7f25-4e48-8a80-9a02537f6ba6","system_id":"levelo_inurba_marseille","lat":43.32106,"lon":5.36782,"is_reserved":false,"is_disabled":false,"rental_uris":{"android":"levelo://app?vid=004c2ac5-7f25-4e48-8a80-9a02537f6ba6","ios":"levelo://app?vid=004c2ac5-7f25-4e48-8a80-9a02537f6ba6"},"vehicle_type_id":"4","last_reported":1736579262,"current_range_meters":31200,"station_id":"ce4bhrh2rcd13ifvqhug","pricing_plan_id":"cebpf4jnsgd1na2vs0mg"},{"bike_id":"6a8dc65c-8c47-4239-8815-8efa2acdc338","system_id":"levelo_inurba_marseille","lat":43.27991,"lon":5.41661,"is_reserved":false,"is_disabled":true,"rental_uris":{"android":"levelo://app?vid=6a8dc65c-8c47-4239-8815-8efa2acdc338","ios":"levelo://app?vid=6a8dc65c-8c47-4239-8815-8efa2acdc338"},"vehicle_type_id":"4","last_reported":1736579262,"current_range_meters":11600,"station_id":"ce4bho12rcd13ifvqh1g","pricing_plan_id":"cebpf4jnsgd1na2vs0mg"},{"bike_id":"2f457c0c-5283-4f66-b319-69a87ce07d89","system_id":"levelo_inurba_marseille","lat":43.25006,"lon":5.38914,"is_reserved":false,"is_disabled":false,"rental_uris":{"android":"levelo://app?vid=2f457c0c-5283-4f66-b319-69a87ce07d89","ios":"levelo://app?vid=2f457c0c-5283-4f66-b319-69a87ce07d89"},"vehicle_type_id":"4","last_reported":1736579262,"current_range_meters":32000,"station_id":"ce4bhgp2rcd13ifvqfd0","pricing_plan_id":"cebpf4jnsgd1na2vs0mg"},{"bike_id":"aca9d58c-8821-4d79-88c1-67c3a044952f","system_id":"levelo_inurba_marseille","lat":43.3302,"lon":5.39046,"is_reserved":false,"is_disabled":false,"rental_uris":{"android":"levelo://app?vid=aca9d58c-8821-4d79-88c1-67c3a044952f","ios":"levelo://app?vid=aca9d58c-8821-4d79-88c1-67c3a044952f"},"vehicle_type_id":"4","last_reported":1736579262,"current_range_meters":23200,"station_id":"ce4bhr92rcd13ifvqhrg","pricing_plan_id":"cebpf4jnsgd1na2vs0mg"},{"bike_id":"86cd1141-6e96-4c04-94b3-22ca752a46a1","system_id":"levelo_inurba_marseille","lat":43.23184,"lon":5.399836,"is_reserved":false,"is_disabled":false,"rental_uris":{"android":"levelo://app?vid=86cd1141-6e96-4c04-94b3-22ca752a46a1","ios":"levelo://app?vid=86cd1141-6e96-4c04-94b3-22ca752a46a1"},"vehicle_type_id":"4","last_reported":1736579262,"current_range_meters":38800,"station_id":"ce4bhn12rcd13ifvqgqg","pricing_plan_id":"cebpf4jnsgd1na2vs0mg"},{"bike_id":"0754a3a6-d8ad-4e11-a0fd-2e381f851794","system_id":"levelo_inurba_marseille","lat":43.337296,"lon":5.391772,"is_reserved":false,"is_disabled":false,"rental_uris":{"android":"levelo://app?vid=0754a3a6-d8ad-4e11-a0fd-2e381f851794","ios":"levelo://app?vid=0754a3a6-d8ad-4e11-a0fd-2e381f851794"},"vehicle_type_id":"4","last_reported":1736579262,"current_range_meters":38800,"station_id":"ce4bhr92rcd13ifvqhsg","pricing_plan_id":"cebpf4jnsgd1na2vs0mg"},{"bike_id":"ba43f1cb-442f-415b-aaf2-ab3a50e56056","system_id":"levelo_inurba_marseille","lat":43.239604,"lon":5.366328,"is_reserved":false,"is_disabled":false,"rental_uris":{"android":"levelo://app?vid=ba43f1cb-442f-415b-aaf2-ab3a50e56056","ios":"levelo://app?vid=ba43f1cb-442f-415b-aaf2-ab3a50e56056"},"vehicle_type_id":"4","last_reported":1736579262,"current_range_meters":10800,"station_id":"ce4bhi12rcd13ifvqfp0","pricing_plan_id":"cebpf4jnsgd1na2vs0mg"},{"bike_id":"50bd41a2-4134-4514-bd21-8188f8f923aa","system_id":"levelo_inurba_marseille","lat":43.28713,"lon":5.39961,"is_reserved":false,"is_disabled":true,"rental_uris":{"android":"levelo://app?vid=50bd41a2-4134-4514-bd21-8188f8f923aa","ios":"levelo://app?vid=50bd41a2-4134-4514-bd21-8188f8f923aa"},"vehicle_type_id":"4","last_reported":1736579262,"current_range_meters":800,"station_id":"ce4bho92rcd13ifvqh3g","pricing_plan_id":"cebpf4jnsgd1na2vs0mg"},{"bike_id":"c1dea8eb-dedb-48c3-82b9-ba4d059a0755","system_id":"levelo_inurba_marseille","lat":43.26553,"lon":5.37276,"is_reserved":false,"is_disabled":true,"rental_uris":{"android":"levelo://app?vid=c1dea8eb-dedb-48c3-82b9-ba4d059a0755","ios":"levelo://app?vid=c1dea8eb-dedb-48c3-82b9-ba4d059a0755"},"vehicle_type_id":"4","last_reported":1736579262,"current_range_meters":10000,"station_id":"ce4bhg12rcd13ifvqf70","pricing_plan_id":"cebpf4jnsgd1na2vs0mg"},{"bike_id":"666c0c92-428a-4f95-8531-2a4d6f4a5bb0","system_id":"levelo_inurba_marseille","lat":43.2465,"lon":5.3815,"is_reserved":false,"is_disabled":false,"rental_uris":{"android":"levelo://app?vid=666c0c92-428a-4f95-8531-2a4d6f4a5bb0","ios":"levelo://app?vid=666c0c92-428a-4f95-8531-2a4d6f4a5bb0"},"vehicle_type_id":"4","last_reported":1736579262,"current_range_meters":8800,"station_id":"ce4bhih2rcd13ifvqfr0","pricing_plan_id":"cebpf4jnsgd1na2vs0mg"},{"bike_id":"3e35ef7b-3237-4c6e-a7b1-693543e13672","system_id":"levelo_inurba_marseille","lat":43.24643,"lon":5.38887,"is_reserved":false,"is_disabled":false,"rental_uris":{"android":"levelo://app?vid=3e35ef7b-3237-4c6e-a7b1-693543e13672","ios":"levelo://app?vid=3e35ef7b-3237-4c6e-a7b1-693543e13672"},"vehicle_type_id":"4","last_reported":1736579262,"current_range_meters":30000,"station_id":"ce4bhg12rcd13ifvqf60","pricing_plan_id":"cebpf4jnsgd1na2vs0mg"},{"bike_id":"7d7ab368-2e64-4821-85fb-ce6f430b2ae3","system_id":"levelo_inurba_marseille","lat":43.29006,"lon":5.35603,"is_reserved":false,"is_disabled":false,"rental_uris":{"android":"levelo://app?vid=7d7ab368-2e64-4821-85fb-ce6f430b2ae3","ios":"levelo://app?vid=7d7ab368-2e64-4821-85fb-ce6f430b2ae3"},"vehicle_type_id":"4","last_reported":1736579262,"current_range_meters":39200,"station_id":"ce4bhb92rcd13ifvqen0","pricing_plan_id":"cebpf4jnsgd1na2vs0mg"},{"bike_id":"f1fed00d-7214-4615-a882-fc8ac039a804","system_id":"levelo_inurba_marseille","lat":43.31719,"lon":5.42387,"is_reserved":false,"is_disabled":false,"rental_uris":{"android":"levelo://app?vid=f1fed00d-7214-4615-a882-fc8ac039a804","ios":"levelo://app?vid=f1fed00d-7214-4615-a882-fc8ac039a804"},"vehicle_type_id":"4","last_reported":1736579262,"current_range_meters":14400,"station_id":"ce4bhp92rcd13ifvqhbg","pricing_plan_id":"cebpf4jnsgd1na2vs0mg"},{"bike_id":"71cf82d9-2798-42b4-a4cc-4ab59dd88803","system_id":"levelo_inurba_marseille","lat":43.2319,"lon":5.39991,"is_reserved":false,"is_disabled":false,"rental_uris":{"android":"levelo://app?vid=71cf82d9-2798-42b4-a4cc-4ab59dd88803","ios":"levelo://app?vid=71cf82d9-2798-42b4-a4cc-4ab59dd88803"},"vehicle_type_id":"4","last_reported":1736579262,"current_range_meters":8400,"station_id":"ce4bhn12rcd13ifvqgqg","pricing_plan_id":"cebpf4jnsgd1na2vs0mg"},{"bike_id":"dcb2126a-d21d-4ccc-8dd5-f93c643abd4d","system_id":"levelo_inurba_marseille","lat":43.28918,"lon":5.38376,"is_reserved":false,"is_disabled":true,"rental_uris":{"android":"levelo://app?vid=dcb2126a-d21d-4ccc-8dd5-f93c643abd4d","ios":"levelo://app?vid=dcb2126a-d21d-4ccc-8dd5-f93c643abd4d"},"vehicle_type_id":"4","last_reported":1736579262,"current_range_meters":9200,"station_id":"ce4bh612rcd13ifvqe6g","pricing_plan_id":"cebpf4jnsgd1na2vs0mg"},{"bike_id":"40aa582d-815a-4ab4-b49f-d3b3d622ee04","system_id":"levelo_inurba_marseille","lat":43.23064,"lon":5.35498,"is_reserved":false,"is_disabled":false,"rental_uris":{"android":"levelo://app?vid=40aa582d-815a-4ab4-b49f-d3b3d622ee04","ios":"levelo://app?vid=40aa582d-815a-4ab4-b49f-d3b3d622ee04"},"vehicle_type_id":"4","last_reported":1736579262,"current_range_meters":38800,"station_id":"cpo3342slgdg3j2ifvpg","pricing_plan_id":"cebpf4jnsgd1na2vs0mg"},{"bike_id":"6b750947-fb43-40e2-9931-495446cc2b3f","system_id":"levelo_inurba_marseille","lat":43.22927,"lon":5.35369,"is_reserved":false,"is_disabled":false,"rental_uris":{"android":"levelo://app?vid=6b750947-fb43-40e2-9931-495446cc2b3f","ios":"levelo://app?vid=6b750947-fb43-40e2-9931-495446cc2b3f"},"vehicle_type_id":"4","last_reported":1736579262,"current_range_meters":38400,"station_id":"cpo3532slgdg3j2ikp40","pricing_plan_id":"cebpf4jnsgd1na2vs0mg"},{"bike_id":"c8e997c0-8580-4d0f-8d9f-0766596381e1","system_id":"levelo_inurba_marseille","lat":43.3402,"lon":5.37536,"is_reserved":false,"is_disabled":false,"rental_uris":{"android":"levelo://app?vid=c8e997c0-8580-4d0f-8d9f-0766596381e1","ios":"levelo://app?vid=c8e997c0-8580-4d0f-8d9f-0766596381e1"},"vehicle_type_id":"4","last_reported":1736579262,"current_range_meters":6800,"station_id":"","pricing_plan_id":"cebpf4jnsgd1na2vs0mg"},{"bike_id":"cdd6ea3b-b2d4-4fc4-9a6f-f8f110676853","system_id":"levelo_inurba_marseille","lat":43.27543,"lon":5.38415,"is_reserved":false,"is_disabled":false,"rental_uris":{"android":"levelo://app?vid=cdd6ea3b-b2d4-4fc4-9a6f-f8f110676853","ios":"levelo://app?vid=cdd6ea3b-b2d4-4fc4-9a6f-f8f110676853"},"vehicle_type_id":"4","last_reported":1736579262,"current_range_meters":38000,"station_id":"ce4bhh92rcd13ifvqfi0","pricing_plan_id":"cebpf4jnsgd1na2vs0mg"},{"bike_id":"5b79b006-d7c3-4b04-9541-c9d77e2d63cb","system_id":"levelo_inurba_marseille","lat":43.31738,"lon":5.40477,"is_reserved":false,"is_disabled":true,"rental_uris":{"android":"levelo://app?vid=5b79b006-d7c3-4b04-9541-c9d77e2d63cb","ios":"levelo://app?vid=5b79b006-d7c3-4b04-9541-c9d77e2d63cb"},"vehicle_type_id":"4","last_reported":1736579262,"current_range_meters":12400,"station_id":"","pricing_plan_id":"cebpf4jnsgd1na2vs0mg"},{"bike_id":"1f5ef9f6-050f-4f79-a9ce-badba66ed461","system_id":"levelo_inurba_marseille","lat":43.28629,"lon":5.40065,"is_reserved":false,"is_disabled":false,"rental_uris":{"android":"levelo://app?vid=1f5ef9f6-050f-4f79-a9ce-badba66ed461","ios":"levelo://app?vid=1f5ef9f6-050f-4f79-a9ce-badba66ed461"},"vehicle_type_id":"4","last_reported":1736579262,"current_range_meters":23200,"station_id":"","pricing_plan_id":"cebpf4jnsgd1na2vs0mg"},{"bike_id":"56bddece-92f9-4ae4-872a-f4e44198a5cb","system_id":"levelo_inurba_marseille","lat":43.28663,"lon":5.36348,"is_reserved":false,"is_disabled":false,"rental_uris":{"android":"levelo://app?vid=56bddece-92f9-4ae4-872a-f4e44198a5cb","ios":"levelo://app?vid=56bddece-92f9-4ae4-872a-f4e44198a5cb"},"vehicle_type_id":"4","last_reported":1736579262,"current_range_meters":20000,"station_id":"ce4bhah2rcd13ifvqej0","pricing_plan_id":"cebpf4jnsgd1na2vs0mg"},{"bike_id":"79da2544-1cc6-4479-aa5c-48161bc5839b","system_id":"levelo_inurba_marseille","lat":43.30418,"lon":5.39748,"is_reserved":false,"is_disabled":true,"rental_uris":{"android":"levelo://app?vid=79da2544-1cc6-4479-aa5c-48161bc5839b","ios":"levelo://app?vid=79da2544-1cc6-4479-aa5c-48161bc5839b"},"vehicle_type_id":"4","last_reported":1736579262,"current_range_meters":28000,"station_id":"ce4bh092rcd13ifvqd20","pricing_plan_id":"cebpf4jnsgd1na2vs0mg"},{"bike_id":"8c51b07a-8e07-48bf-b1a9-e9c7292766b1","system_id":"levelo_inurba_marseille","lat":43.25678,"lon":5.41123,"is_reserved":false,"is_disabled":false,"rental_uris":{"android":"levelo://app?vid=8c51b07a-8e07-48bf-b1a9-e9c7292766b1","ios":"levelo://app?vid=8c51b07a-8e07-48bf-b1a9-e9c7292766b1"},"vehicle_type_id":"4","last_reported":1736579262,"current_range_meters":4800,"station_id":"ce4bhkp2rcd13ifvqgd0","pricing_plan_id":"cebpf4jnsgd1na2vs0mg"},{"bike_id":"6d907632-b7a4-409f-98d5-031bae93ab87","system_id":"levelo_inurba_marseille","lat":43.23967,"lon":5.36635,"is_reserved":false,"is_disabled":false,"rental_uris":{"android":"levelo://app?vid=6d907632-b7a4-409f-98d5-031bae93ab87","ios":"levelo://app?vid=6d907632-b7a4-409f-98d5-031bae93ab87"},"vehicle_type_id":"4","last_reported":1736579262,"current_range_meters":37600,"station_id":"ce4bhi12rcd13ifvqfp0","pricing_plan_id":"cebpf4jnsgd1na2vs0mg"},{"bike_id":"eb9b2df2-fdc1-4d66-abed-6bda4748c4f1","system_id":"levelo_inurba_marseille","lat":43.26209,"lon":5.37925,"is_reserved":false,"is_disabled":false,"rental_uris":{"android":"levelo://app?vid=eb9b2df2-fdc1-4d66-abed-6bda4748c4f1","ios":"levelo://app?vid=eb9b2df2-fdc1-4d66-abed-6bda4748c4f1"},"vehicle_type_id":"4","last_reported":1736579262,"current_range_meters":28000,"station_id":"ce4bhjp2rcd13ifvqg90","pricing_plan_id":"cebpf4jnsgd1na2vs0mg"},{"bike_id":"756acf7b-5e79-461a-9a9d-14e00e8d684f","system_id":"levelo_inurba_marseille","lat":43.30483,"lon":5.37906,"is_reserved":false,"is_disabled":false,"rental_uris":{"android":"levelo://app?vid=756acf7b-5e79-461a-9a9d-14e00e8d684f","ios":"levelo://app?vid=756acf7b-5e79-461a-9a9d-14e00e8d684f"},"vehicle_type_id":"4","last_reported":1736579262,"current_range_meters":36400,"station_id":"ce4bgup2rcd13ifvqcn0","pricing_plan_id":"cebpf4jnsgd1na2vs0mg"},{"bike_id":"4e36486e-78ed-45f0-99d4-e2d2e858abb4","system_id":"levelo_inurba_marseille","lat":43.28939,"lon":5.39616,"is_reserved":false,"is_disabled":false,"rental_uris":{"android":"levelo://app?vid=4e36486e-78ed-45f0-99d4-e2d2e858abb4","ios":"levelo://app?vid=4e36486e-78ed-45f0-99d4-e2d2e858abb4"},"vehicle_type_id":"4","last_reported":1736579262,"current_range_meters":39200,"station_id":"ce4bh3h2rcd13ifvqdn0","pricing_plan_id":"cebpf4jnsgd1na2vs0mg"},{"bike_id":"0733d0cd-72e9-4a2d-9972-1be8c4843257","system_id":"levelo_inurba_marseille","lat":43.30421,"lon":5.3974,"is_reserved":false,"is_disabled":false,"rental_uris":{"android":"levelo://app?vid=0733d0cd-72e9-4a2d-9972-1be8c4843257","ios":"levelo://app?vid=0733d0cd-72e9-4a2d-9972-1be8c4843257"},"vehicle_type_id":"4","last_reported":1736579262,"current_range_meters":19200,"station_id":"ce4bh092rcd13ifvqd20","pricing_plan_id":"cebpf4jnsgd1na2vs0mg"},{"bike_id":"6b764e8c-1a43-46a3-97d7-14881c8e848c","system_id":"levelo_inurba_marseille","lat":43.25822,"lon":5.39436,"is_reserved":false,"is_disabled":false,"rental_uris":{"android":"levelo://app?vid=6b764e8c-1a43-46a3-97d7-14881c8e848c","ios":"levelo://app?vid=6b764e8c-1a43-46a3-97d7-14881c8e848c"},"vehicle_type_id":"4","last_reported":1736579262,"current_range_meters":38800,"station_id":"ce4bhip2rcd13ifvqft0","pricing_plan_id":"cebpf4jnsgd1na2vs0mg"},{"bike_id":"d8327471-e10e-4e1d-a46b-c43156fc0620","system_id":"levelo_inurba_marseille","lat":43.26776,"lon":5.3942,"is_reserved":false,"is_disabled":true,"rental_uris":{"android":"levelo://app?vid=d8327471-e10e-4e1d-a46b-c43156fc0620","ios":"levelo://app?vid=d8327471-e10e-4e1d-a46b-c43156fc0620"},"vehicle_type_id":"4","last_reported":1736579262,"current_range_meters":0,"station_id":"ce4bhh12rcd13ifvqfg0","pricing_plan_id":"cebpf4jnsgd1na2vs0mg"},{"bike_id":"f404313a-b453-4ed2-9cf2-f503539db699","system_id":"levelo_inurba_marseille","lat":43.2799,"lon":5.399904,"is_reserved":false,"is_disabled":true,"rental_uris":{"android":"levelo://app?vid=f404313a-b453-4ed2-9cf2-f503539db699","ios":"levelo://app?vid=f404313a-b453-4ed2-9cf2-f503539db699"},"vehicle_type_id":"4","last_reported":1736579262,"current_range_meters":1600,"station_id":"ce4bho92rcd13ifvqh4g","pricing_plan_id":"cebpf4jnsgd1na2vs0mg"},{"bike_id":"43258fea-a3d8-442e-8bbb-7f9c02bf7b94","system_id":"levelo_inurba_marseille","lat":43.30799,"lon":5.37629,"is_reserved":false,"is_disabled":false,"rental_uris":{"android":"levelo://app?vid=43258fea-a3d8-442e-8bbb-7f9c02bf7b94","ios":"levelo://app?vid=43258fea-a3d8-442e-8bbb-7f9c02bf7b94"},"vehicle_type_id":"4","last_reported":1736579262,"current_range_meters":28000,"station_id":"ce4bgv92rcd13ifvqcq0","pricing_plan_id":"cebpf4jnsgd1na2vs0mg"},{"bike_id":"04c4b38d-167d-4231-b1f2-bdd3347f88b9","system_id":"levelo_inurba_marseille","lat":43.28851,"lon":5.39332,"is_reserved":false,"is_disabled":false,"rental_uris":{"android":"levelo://app?vid=04c4b38d-167d-4231-b1f2-bdd3347f88b9","ios":"levelo://app?vid=04c4b38d-167d-4231-b1f2-bdd3347f88b9"},"vehicle_type_id":"4","last_reported":1736579262,"current_range_meters":38800,"station_id":"ce4bh2p2rcd13ifvqdi0","pricing_plan_id":"cebpf4jnsgd1na2vs0mg"},{"bike_id":"b8a70a4d-0bda-4b8b-9e34-99ec66f6e055","system_id":"levelo_inurba_marseille","lat":43.279733,"lon":5.387487,"is_reserved":false,"is_disabled":false,"rental_uris":{"android":"levelo://app?vid=b8a70a4d-0bda-4b8b-9e34-99ec66f6e055","ios":"levelo://app?vid=b8a70a4d-0bda-4b8b-9e34-99ec66f6e055"},"vehicle_type_id":"4","last_reported":1736579262,"current_range_meters":17600,"station_id":"ce4bhg12rcd13ifvqf80","pricing_plan_id":"cebpf4jnsgd1na2vs0mg"},{"bike_id":"205b7d5c-f249-493e-95ba-aef9f33766e7","system_id":"levelo_inurba_marseille","lat":43.24067,"lon":5.37747,"is_reserved":false,"is_disabled":false,"rental_uris":{"android":"levelo://app?vid=205b7d5c-f249-493e-95ba-aef9f33766e7","ios":"levelo://app?vid=205b7d5c-f249-493e-95ba-aef9f33766e7"},"vehicle_type_id":"4","last_reported":1736579262,"current_range_meters":32800,"station_id":"ce4bhnp2rcd13ifvqgvg","pricing_plan_id":"cebpf4jnsgd1na2vs0mg"},{"bike_id":"4fe9a578-bb1b-4c06-a180-e2c3473d1475","system_id":"levelo_inurba_marseille","lat":43.307998,"lon":5.381573,"is_reserved":false,"is_disabled":false,"rental_uris":{"android":"levelo://app?vid=4fe9a578-bb1b-4c06-a180-e2c3473d1475","ios":"levelo://app?vid=4fe9a578-bb1b-4c06-a180-e2c3473d1475"},"vehicle_type_id":"4","last_reported":1736579262,"current_range_meters":30400,"station_id":"ce4bgt12rcd13ifvqce0","pricing_plan_id":"cebpf4jnsgd1na2vs0mg"},{"bike_id":"c0b21104-fdbd-4548-a6af-f0a8553ce1f9","system_id":"levelo_inurba_marseille","lat":43.3302,"lon":5.390265,"is_reserved":false,"is_disabled":false,"rental_uris":{"android":"levelo://app?vid=c0b21104-fdbd-4548-a6af-f0a8553ce1f9","ios":"levelo://app?vid=c0b21104-fdbd-4548-a6af-f0a8553ce1f9"},"vehicle_type_id":"4","last_reported":1736579262,"current_range_meters":16800,"station_id":"ce4bhr92rcd13ifvqhrg","pricing_plan_id":"cebpf4jnsgd1na2vs0mg"},{"bike_id":"426ee80e-06b0-4d0f-86a5-ea8ad64aaa11","system_id":"levelo_inurba_marseille","lat":43.28963,"lon":5.43811,"is_reserved":false,"is_disabled":false,"rental_uris":{"android":"levelo://app?vid=426ee80e-06b0-4d0f-86a5-ea8ad64aaa11","ios":"levelo://app?vid=426ee80e-06b0-4d0f-86a5-ea8ad64aaa11"},"vehicle_type_id":"4","last_reported":1736579262,"current_range_meters":18800,"station_id":"","pricing_plan_id":"cebpf4jnsgd1na2vs0mg"},{"bike_id":"f4ba1f99-e6f4-494e-88e3-098ca5ac79ff","system_id":"levelo_inurba_marseille","lat":43.278418,"lon":5.392008,"is_reserved":false,"is_disabled":false,"rental_uris":{"android":"levelo://app?vid=f4ba1f99-e6f4-494e-88e3-098ca5ac79ff","ios":"levelo://app?vid=f4ba1f99-e6f4-494e-88e3-098ca5ac79ff"},"vehicle_type_id":"4","last_reported":1736579262,"current_range_meters":38800,"station_id":"ce4bhjp2rcd13ifvqga0","pricing_plan_id":"cebpf4jnsgd1na2vs0mg"},{"bike_id":"0305a46a-8828-4eb8-9b74-a0ed320d40a1","system_id":"levelo_inurba_marseille","lat":43.30262,"lon":5.37708,"is_reserved":false,"is_disabled":false,"rental_uris":{"android":"levelo://app?vid=0305a46a-8828-4eb8-9b74-a0ed320d40a1","ios":"levelo://app?vid=0305a46a-8828-4eb8-9b74-a0ed320d40a1"},"vehicle_type_id":"4","last_reported":1736579262,"current_range_meters":37600,"station_id":"ce4bguh2rcd13ifvqcj0","pricing_plan_id":"cebpf4jnsgd1na2vs0mg"},{"bike_id":"61b93e95-d2fd-499f-b980-b0147ee7fd26","system_id":"levelo_inurba_marseille","lat":43.31884,"lon":5.40741,"is_reserved":false,"is_disabled":false,"rental_uris":{"android":"levelo://app?vid=61b93e95-d2fd-499f-b980-b0147ee7fd26","ios":"levelo://app?vid=61b93e95-d2fd-499f-b980-b0147ee7fd26"},"vehicle_type_id":"4","last_reported":1736579262,"current_range_meters":28400,"station_id":"ce4bhq12rcd13ifvqhig","pricing_plan_id":"cebpf4jnsgd1na2vs0mg"},{"bike_id":"314d0b94-da02-4586-aafe-32947b2151c1","system_id":"levelo_inurba_marseille","lat":43.25836,"lon":5.39431,"is_reserved":false,"is_disabled":true,"rental_uris":{"android":"levelo://app?vid=314d0b94-da02-4586-aafe-32947b2151c1","ios":"levelo://app?vid=314d0b94-da02-4586-aafe-32947b2151c1"},"vehicle_type_id":"4","last_reported":1736579262,"current_range_meters":6400,"station_id":"ce4bhip2rcd13ifvqft0","pricing_plan_id":"cebpf4jnsgd1na2vs0mg"},{"bike_id":"cd5d2c77-56dc-4c6c-858c-3d8eb2773dc9","system_id":"levelo_inurba_marseille","lat":43.30318,"lon":5.40426,"is_reserved":false,"is_disabled":false,"rental_uris":{"android":"levelo://app?vid=cd5d2c77-56dc-4c6c-858c-3d8eb2773dc9","ios":"levelo://app?vid=cd5d2c77-56dc-4c6c-858c-3d8eb2773dc9"},"vehicle_type_id":"4","last_reported":1736579262,"current_range_meters":24800,"station_id":"ce4bh012rcd13ifvqd10","pricing_plan_id":"cebpf4jnsgd1na2vs0mg"},{"bike_id":"b27cc99f-6b66-4ab0-833d-ef1cae10794f","system_id":"levelo_inurba_marseille","lat":43.25868,"lon":5.39884,"is_reserved":false,"is_disabled":false,"rental_uris":{"android":"levelo://app?vid=b27cc99f-6b66-4ab0-833d-ef1cae10794f","ios":"levelo://app?vid=b27cc99f-6b66-4ab0-833d-ef1cae10794f"},"vehicle_type_id":"4","last_reported":1736579262,"current_range_meters":38800,"station_id":"ce4bhl92rcd13ifvqghg","pricing_plan_id":"cebpf4jnsgd1na2vs0mg"},{"bike_id":"ac0e8162-b3fd-4541-ab8c-fac6912321c6","system_id":"levelo_inurba_marseille","lat":43.299799,"lon":5.384991,"is_reserved":false,"is_disabled":true,"rental_uris":{"android":"levelo://app?vid=ac0e8162-b3fd-4541-ab8c-fac6912321c6","ios":"levelo://app?vid=ac0e8162-b3fd-4541-ab8c-fac6912321c6"},"vehicle_type_id":"4","last_reported":1736579262,"current_range_meters":25200,"station_id":"ce4bgj92rcd13ifvqbd0","pricing_plan_id":"cebpf4jnsgd1na2vs0mg"},{"bike_id":"64e22768-79ef-4593-847f-a621c4893945","system_id":"levelo_inurba_marseille","lat":43.31523,"lon":5.38047,"is_reserved":false,"is_disabled":false,"rental_uris":{"android":"levelo://app?vid=64e22768-79ef-4593-847f-a621c4893945","ios":"levelo://app?vid=64e22768-79ef-4593-847f-a621c4893945"},"vehicle_type_id":"4","last_reported":1736579262,"current_range_meters":38400,"station_id":"ce4bhsp2rcd13ifvqi50","pricing_plan_id":"cebpf4jnsgd1na2vs0mg"},{"bike_id":"f4dbc556-58b0-4dfd-be99-18a51c032520","system_id":"levelo_inurba_marseille","lat":43.24142,"lon":5.39684,"is_reserved":false,"is_disabled":true,"rental_uris":{"android":"levelo://app?vid=f4dbc556-58b0-4dfd-be99-18a51c032520","ios":"levelo://app?vid=f4dbc556-58b0-4dfd-be99-18a51c032520"},"vehicle_type_id":"4","last_reported":1736579262,"current_range_meters":38800,"station_id":"ce4bhn12rcd13ifvqgpg","pricing_plan_id":"cebpf4jnsgd1na2vs0mg"},{"bike_id":"6f45a843-e7bd-4016-9970-d3a312ad1221","system_id":"levelo_inurba_marseille","lat":43.28718,"lon":5.37934,"is_reserved":false,"is_disabled":false,"rental_uris":{"android":"levelo://app?vid=6f45a843-e7bd-4016-9970-d3a312ad1221","ios":"levelo://app?vid=6f45a843-e7bd-4016-9970-d3a312ad1221"},"vehicle_type_id":"4","last_reported":1736579262,"current_range_meters":28400,"station_id":"ce4bh9p2rcd13ifvqec0","pricing_plan_id":"cebpf4jnsgd1na2vs0mg"},{"bike_id":"d2916d76-3bbb-46d8-809e-46d373125475","system_id":"levelo_inurba_marseille","lat":43.28412,"lon":5.3498,"is_reserved":false,"is_disabled":false,"rental_uris":{"android":"levelo://app?vid=d2916d76-3bbb-46d8-809e-46d373125475","ios":"levelo://app?vid=d2916d76-3bbb-46d8-809e-46d373125475"},"vehicle_type_id":"4","last_reported":1736579262,"current_range_meters":8400,"station_id":"ce4bhbh2rcd13ifvqepg","pricing_plan_id":"cebpf4jnsgd1na2vs0mg"},{"bike_id":"dfdf6cf6-27b1-4897-a14f-3ee04c7f9e89","system_id":"levelo_inurba_marseille","lat":43.28936,"lon":5.36635,"is_reserved":false,"is_disabled":false,"rental_uris":{"android":"levelo://app?vid=dfdf6cf6-27b1-4897-a14f-3ee04c7f9e89","ios":"levelo://app?vid=dfdf6cf6-27b1-4897-a14f-3ee04c7f9e89"},"vehicle_type_id":"4","last_reported":1736579262,"current_range_meters":31200,"station_id":"ce4bhap2rcd13ifvqek0","pricing_plan_id":"cebpf4jnsgd1na2vs0mg"},{"bike_id":"f118e424-6b03-4824-828f-9ebd6aab85c0","system_id":"levelo_inurba_marseille","lat":43.30169,"lon":5.3807,"is_reserved":false,"is_disabled":false,"rental_uris":{"android":"levelo://app?vid=f118e424-6b03-4824-828f-9ebd6aab85c0","ios":"levelo://app?vid=f118e424-6b03-4824-828f-9ebd6aab85c0"},"vehicle_type_id":"4","last_reported":1736579262,"current_range_meters":6400,"station_id":"ce4bgjp2rcd13ifvqbh0","pricing_plan_id":"cebpf4jnsgd1na2vs0mg"},{"bike_id":"c288978b-67c0-4f36-9730-1b779f239c88","system_id":"levelo_inurba_marseille","lat":43.31346,"lon":5.3672,"is_reserved":false,"is_disabled":false,"rental_uris":{"android":"levelo://app?vid=c288978b-67c0-4f36-9730-1b779f239c88","ios":"levelo://app?vid=c288978b-67c0-4f36-9730-1b779f239c88"},"vehicle_type_id":"4","last_reported":1736579262,"current_range_meters":38000,"station_id":"ce4bgr92rcd13ifvqc6g","pricing_plan_id":"cebpf4jnsgd1na2vs0mg"},{"bike_id":"80609ff8-7d7d-4ae2-9159-aea837c7c52b","system_id":"levelo_inurba_marseille","lat":43.239571,"lon":5.36627,"is_reserved":false,"is_disabled":false,"rental_uris":{"android":"levelo://app?vid=80609ff8-7d7d-4ae2-9159-aea837c7c52b","ios":"levelo://app?vid=80609ff8-7d7d-4ae2-9159-aea837c7c52b"},"vehicle_type_id":"4","last_reported":1736579262,"current_range_meters":11600,"station_id":"ce4bhi12rcd13ifvqfp0","pricing_plan_id":"cebpf4jnsgd1na2vs0mg"},{"bike_id":"a54e3103-dd05-4edc-b802-d77e205514d2","system_id":"levelo_inurba_marseille","lat":43.255017,"lon":5.376516,"is_reserved":false,"is_disabled":false,"rental_uris":{"android":"levelo://app?vid=a54e3103-dd05-4edc-b802-d77e205514d2","ios":"levelo://app?vid=a54e3103-dd05-4edc-b802-d77e205514d2"},"vehicle_type_id":"4","last_reported":1736579262,"current_range_meters":26800,"station_id":"ce4bhh12rcd13ifvqff0","pricing_plan_id":"cebpf4jnsgd1na2vs0mg"},{"bike_id":"35828faa-18e0-4956-b613-39471aef9dd1","system_id":"levelo_inurba_marseille","lat":43.31491,"lon":5.37301,"is_reserved":false,"is_disabled":false,"rental_uris":{"android":"levelo://app?vid=35828faa-18e0-4956-b613-39471aef9dd1","ios":"levelo://app?vid=35828faa-18e0-4956-b613-39471aef9dd1"},"vehicle_type_id":"4","last_reported":1736579262,"current_range_meters":37600,"station_id":"ce4bgt12rcd13ifvqcd0","pricing_plan_id":"cebpf4jnsgd1na2vs0mg"},{"bike_id":"ff26ca3b-66d2-47c9-bf97-1371a28b591b","system_id":"levelo_inurba_marseille","lat":43.283645,"lon":5.386278,"is_reserved":false,"is_disabled":false,"rental_uris":{"android":"levelo://app?vid=ff26ca3b-66d2-47c9-bf97-1371a28b591b","ios":"levelo://app?vid=ff26ca3b-66d2-47c9-bf97-1371a28b591b"},"vehicle_type_id":"4","last_reported":1736579262,"current_range_meters":39200,"station_id":"ce4bh492rcd13ifvqdvg","pricing_plan_id":"cebpf4jnsgd1na2vs0mg"},{"bike_id":"4c98b426-117a-4c85-9df8-d16e360d8aed","system_id":"levelo_inurba_marseille","lat":43.31169,"lon":5.38722,"is_reserved":false,"is_disabled":false,"rental_uris":{"android":"levelo://app?vid=4c98b426-117a-4c85-9df8-d16e360d8aed","ios":"levelo://app?vid=4c98b426-117a-4c85-9df8-d16e360d8aed"},"vehicle_type_id":"4","last_reported":1736579262,"current_range_meters":26800,"station_id":"ce4bgv12rcd13ifvqcp0","pricing_plan_id":"cebpf4jnsgd1na2vs0mg"},{"bike_id":"5edb9b21-4917-4f45-9961-6635931db922","system_id":"levelo_inurba_marseille","lat":43.22929,"lon":5.35385,"is_reserved":false,"is_disabled":false,"rental_uris":{"android":"levelo://app?vid=5edb9b21-4917-4f45-9961-6635931db922","ios":"levelo://app?vid=5edb9b21-4917-4f45-9961-6635931db922"},"vehicle_type_id":"4","last_reported":1736579262,"current_range_meters":38800,"station_id":"cpo3532slgdg3j2ikp40","pricing_plan_id":"cebpf4jnsgd1na2vs0mg"},{"bike_id":"6c16b955-c13c-49a6-a5bb-29559922d02c","system_id":"levelo_inurba_marseille","lat":43.23958,"lon":5.3664,"is_reserved":false,"is_disabled":false,"rental_uris":{"android":"levelo://app?vid=6c16b955-c13c-49a6-a5bb-29559922d02c","ios":"levelo://app?vid=6c16b955-c13c-49a6-a5bb-29559922d02c"},"vehicle_type_id":"4","last_reported":1736579262,"current_range_meters":22800,"station_id":"ce4bhi12rcd13ifvqfp0","pricing_plan_id":"cebpf4jnsgd1na2vs0mg"},{"bike_id":"acc57c46-0c06-4767-b429-edb19e5dc1a2","system_id":"levelo_inurba_marseille","lat":43.30153,"lon":5.3985,"is_reserved":false,"is_disabled":true,"rental_uris":{"android":"levelo://app?vid=acc57c46-0c06-4767-b429-edb19e5dc1a2","ios":"levelo://app?vid=acc57c46-0c06-4767-b429-edb19e5dc1a2"},"vehicle_type_id":"4","last_reported":1736579262,"current_range_meters":28400,"station_id":"ce4bh0h2rcd13ifvqd40","pricing_plan_id":"cebpf4jnsgd1na2vs0mg"},{"bike_id":"816f16d8-6ff0-4785-861d-d7f867697579","system_id":"levelo_inurba_marseille","lat":43.3153,"lon":5.38031,"is_reserved":false,"is_disabled":false,"rental_uris":{"android":"levelo://app?vid=816f16d8-6ff0-4785-861d-d7f867697579","ios":"levelo://app?vid=816f16d8-6ff0-4785-861d-d7f867697579"},"vehicle_type_id":"4","last_reported":1736579262,"current_range_meters":38800,"station_id":"ce4bhsp2rcd13ifvqi50","pricing_plan_id":"cebpf4jnsgd1na2vs0mg"},{"bike_id":"7f297130-5859-40f6-8adb-5ad46eabf70c","system_id":"levelo_inurba_marseille","lat":43.308763,"lon":5.396443,"is_reserved":false,"is_disabled":false,"rental_uris":{"android":"levelo://app?vid=7f297130-5859-40f6-8adb-5ad46eabf70c","ios":"levelo://app?vid=7f297130-5859-40f6-8adb-5ad46eabf70c"},"vehicle_type_id":"4","last_reported":1736579262,"current_range_meters":27200,"station_id":"ce4bh012rcd13ifvqcv0","pricing_plan_id":"cebpf4jnsgd1na2vs0mg"},{"bike_id":"ccb1b754-1c55-42c8-a839-f81bb658ca10","system_id":"levelo_inurba_marseille","lat":43.31487,"lon":5.37311,"is_reserved":false,"is_disabled":false,"rental_uris":{"android":"levelo://app?vid=ccb1b754-1c55-42c8-a839-f81bb658ca10","ios":"levelo://app?vid=ccb1b754-1c55-42c8-a839-f81bb658ca10"},"vehicle_type_id":"4","last_reported":1736579262,"current_range_meters":38400,"station_id":"ce4bgt12rcd13ifvqcd0","pricing_plan_id":"cebpf4jnsgd1na2vs0mg"},{"bike_id":"42c9d2a9-f7d4-4d22-8098-0422955b2af1","system_id":"levelo_inurba_marseille","lat":43.29366,"lon":5.37836,"is_reserved":false,"is_disabled":false,"rental_uris":{"android":"levelo://app?vid=42c9d2a9-f7d4-4d22-8098-0422955b2af1","ios":"levelo://app?vid=42c9d2a9-f7d4-4d22-8098-0422955b2af1"},"vehicle_type_id":"4","last_reported":1736579262,"current_range_meters":9200,"station_id":"ce4bgjh2rcd13ifvqbf0","pricing_plan_id":"cebpf4jnsgd1na2vs0mg"},{"bike_id":"7b9cf42a-0b63-4429-ba11-ff3acd526613","system_id":"levelo_inurba_marseille","lat":43.30148,"lon":5.38066,"is_reserved":false,"is_disabled":false,"rental_uris":{"android":"levelo://app?vid=7b9cf42a-0b63-4429-ba11-ff3acd526613","ios":"levelo://app?vid=7b9cf42a-0b63-4429-ba11-ff3acd526613"},"vehicle_type_id":"4","last_reported":1736579262,"current_range_meters":35200,"station_id":"ce4bgjp2rcd13ifvqbh0","pricing_plan_id":"cebpf4jnsgd1na2vs0mg"},{"bike_id":"be72791f-542a-45be-974d-1c1a1f8c7f71","system_id":"levelo_inurba_marseille","lat":43.28925,"lon":5.36626,"is_reserved":false,"is_disabled":false,"rental_uris":{"android":"levelo://app?vid=be72791f-542a-45be-974d-1c1a1f8c7f71","ios":"levelo://app?vid=be72791f-542a-45be-974d-1c1a1f8c7f71"},"vehicle_type_id":"4","last_reported":1736579262,"current_range_meters":38800,"station_id":"ce4bhap2rcd13ifvqek0","pricing_plan_id":"cebpf4jnsgd1na2vs0mg"},{"bike_id":"6be0c4ce-0844-4f84-87fd-0c954d6de298","system_id":"levelo_inurba_marseille","lat":43.286973,"lon":5.374003,"is_reserved":false,"is_disabled":false,"rental_uris":{"android":"levelo://app?vid=6be0c4ce-0844-4f84-87fd-0c954d6de298","ios":"levelo://app?vid=6be0c4ce-0844-4f84-87fd-0c954d6de298"},"vehicle_type_id":"4","last_reported":1736579262,"current_range_meters":38800,"station_id":"ce4bh3p2rcd13ifvqdq0","pricing_plan_id":"cebpf4jnsgd1na2vs0mg"},{"bike_id":"534c6702-dfa1-401b-970b-2ac69bdd882a","system_id":"levelo_inurba_marseille","lat":43.24071,"lon":5.37762,"is_reserved":false,"is_disabled":false,"rental_uris":{"android":"levelo://app?vid=534c6702-dfa1-401b-970b-2ac69bdd882a","ios":"levelo://app?vid=534c6702-dfa1-401b-970b-2ac69bdd882a"},"vehicle_type_id":"4","last_reported":1736579262,"current_range_meters":29600,"station_id":"ce4bhnp2rcd13ifvqgvg","pricing_plan_id":"cebpf4jnsgd1na2vs0mg"},{"bike_id":"066fc890-cce1-4b7e-a941-320c51e991c9","system_id":"levelo_inurba_marseille","lat":43.23967,"lon":5.3662,"is_reserved":false,"is_disabled":false,"rental_uris":{"android":"levelo://app?vid=066fc890-cce1-4b7e-a941-320c51e991c9","ios":"levelo://app?vid=066fc890-cce1-4b7e-a941-320c51e991c9"},"vehicle_type_id":"4","last_reported":1736579262,"current_range_meters":23200,"station_id":"ce4bhi12rcd13ifvqfp0","pricing_plan_id":"cebpf4jnsgd1na2vs0mg"},{"bike_id":"1f320d40-5106-4360-ae07-0c583456ec9f","system_id":"levelo_inurba_marseille","lat":43.28453,"lon":5.35889,"is_reserved":false,"is_disabled":false,"rental_uris":{"android":"levelo://app?vid=1f320d40-5106-4360-ae07-0c583456ec9f","ios":"levelo://app?vid=1f320d40-5106-4360-ae07-0c583456ec9f"},"vehicle_type_id":"4","last_reported":1736579262,"current_range_meters":36000,"station_id":"ce4bhah2rcd13ifvqei0","pricing_plan_id":"cebpf4jnsgd1na2vs0mg"},{"bike_id":"19b55f17-1b94-4def-82c4-bc756350d072","system_id":"levelo_inurba_marseille","lat":43.33755,"lon":5.3747,"is_reserved":false,"is_disabled":false,"rental_uris":{"android":"levelo://app?vid=19b55f17-1b94-4def-82c4-bc756350d072","ios":"levelo://app?vid=19b55f17-1b94-4def-82c4-bc756350d072"},"vehicle_type_id":"4","last_reported":1736579262,"current_range_meters":20800,"station_id":"","pricing_plan_id":"cebpf4jnsgd1na2vs0mg"},{"bike_id":"b1cd05bd-cc6d-452b-8b8c-f24ee7fb627f","system_id":"levelo_inurba_marseille","lat":43.25824,"lon":5.39426,"is_reserved":false,"is_disabled":false,"rental_uris":{"android":"levelo://app?vid=b1cd05bd-cc6d-452b-8b8c-f24ee7fb627f","ios":"levelo://app?vid=b1cd05bd-cc6d-452b-8b8c-f24ee7fb627f"},"vehicle_type_id":"4","last_reported":1736579262,"current_range_meters":33200,"station_id":"ce4bhip2rcd13ifvqft0","pricing_plan_id":"cebpf4jnsgd1na2vs0mg"},{"bike_id":"920798f7-7e0f-4faf-94c5-26499c6ea003","system_id":"levelo_inurba_marseille","lat":43.29801,"lon":5.40418,"is_reserved":false,"is_disabled":false,"rental_uris":{"android":"levelo://app?vid=920798f7-7e0f-4faf-94c5-26499c6ea003","ios":"levelo://app?vid=920798f7-7e0f-4faf-94c5-26499c6ea003"},"vehicle_type_id":"4","last_reported":1736579262,"current_range_meters":38000,"station_id":"ce4bh112rcd13ifvqd90","pricing_plan_id":"cebpf4jnsgd1na2vs0mg"},{"bike_id":"200f3726-f376-4e1a-b922-6fa633b9c4ac","system_id":"levelo_inurba_marseille","lat":43.24669,"lon":5.3817,"is_reserved":false,"is_disabled":false,"rental_uris":{"android":"levelo://app?vid=200f3726-f376-4e1a-b922-6fa633b9c4ac","ios":"levelo://app?vid=200f3726-f376-4e1a-b922-6fa633b9c4ac"},"vehicle_type_id":"4","last_reported":1736579262,"current_range_meters":7200,"station_id":"ce4bhih2rcd13ifvqfr0","pricing_plan_id":"cebpf4jnsgd1na2vs0mg"},{"bike_id":"b94841c1-eb31-4836-a3e0-47119f4d34b1","system_id":"levelo_inurba_marseille","lat":43.31165,"lon":5.38713,"is_reserved":false,"is_disabled":false,"rental_uris":{"android":"levelo://app?vid=b94841c1-eb31-4836-a3e0-47119f4d34b1","ios":"levelo://app?vid=b94841c1-eb31-4836-a3e0-47119f4d34b1"},"vehicle_type_id":"4","last_reported":1736579262,"current_range_meters":8800,"station_id":"ce4bgv12rcd13ifvqcp0","pricing_plan_id":"cebpf4jnsgd1na2vs0mg"},{"bike_id":"f7248333-c3ea-4047-84a5-689947d7b51f","system_id":"levelo_inurba_marseille","lat":43.29975,"lon":5.41324,"is_reserved":false,"is_disabled":false,"rental_uris":{"android":"levelo://app?vid=f7248333-c3ea-4047-84a5-689947d7b51f","ios":"levelo://app?vid=f7248333-c3ea-4047-84a5-689947d7b51f"},"vehicle_type_id":"4","last_reported":1736579262,"current_range_meters":38000,"station_id":"ce4bhp12rcd13ifvqh9g","pricing_plan_id":"cebpf4jnsgd1na2vs0mg"},{"bike_id":"07976425-b8b8-41af-ba52-03dfb92537fe","system_id":"levelo_inurba_marseille","lat":43.28344,"lon":5.38086,"is_reserved":false,"is_disabled":false,"rental_uris":{"android":"levelo://app?vid=07976425-b8b8-41af-ba52-03dfb92537fe","ios":"levelo://app?vid=07976425-b8b8-41af-ba52-03dfb92537fe"},"vehicle_type_id":"4","last_reported":1736579262,"current_range_meters":6400,"station_id":"ce4bh412rcd13ifvqdr0","pricing_plan_id":"cebpf4jnsgd1na2vs0mg"},{"bike_id":"2c9dd628-c688-4c37-b6d2-d665ced3ed71","system_id":"levelo_inurba_marseille","lat":43.24976,"lon":5.38954,"is_reserved":false,"is_disabled":false,"rental_uris":{"android":"levelo://app?vid=2c9dd628-c688-4c37-b6d2-d665ced3ed71","ios":"levelo://app?vid=2c9dd628-c688-4c37-b6d2-d665ced3ed71"},"vehicle_type_id":"4","last_reported":1736579262,"current_range_meters":38800,"station_id":"ce4bhgp2rcd13ifvqfd0","pricing_plan_id":"cebpf4jnsgd1na2vs0mg"},{"bike_id":"471bf253-796f-4272-a47b-069ce2ba791e","system_id":"levelo_inurba_marseille","lat":43.30244,"lon":5.40074,"is_reserved":false,"is_disabled":false,"rental_uris":{"android":"levelo://app?vid=471bf253-796f-4272-a47b-069ce2ba791e","ios":"levelo://app?vid=471bf253-796f-4272-a47b-069ce2ba791e"},"vehicle_type_id":"4","last_reported":1736579262,"current_range_meters":38000,"station_id":"ce4bgvh2rcd13ifvqcs0","pricing_plan_id":"cebpf4jnsgd1na2vs0mg"},{"bike_id":"85077f2d-96d6-4799-acc0-68a7354da011","system_id":"levelo_inurba_marseille","lat":43.254951,"lon":5.376454,"is_reserved":false,"is_disabled":false,"rental_uris":{"android":"levelo://app?vid=85077f2d-96d6-4799-acc0-68a7354da011","ios":"levelo://app?vid=85077f2d-96d6-4799-acc0-68a7354da011"},"vehicle_type_id":"4","last_reported":1736579262,"current_range_meters":34000,"station_id":"ce4bhh12rcd13ifvqff0","pricing_plan_id":"cebpf4jnsgd1na2vs0mg"},{"bike_id":"6f5d218f-db1a-4b96-bcf2-b235eea71c2f","system_id":"levelo_inurba_marseille","lat":43.255,"lon":5.37661,"is_reserved":false,"is_disabled":false,"rental_uris":{"android":"levelo://app?vid=6f5d218f-db1a-4b96-bcf2-b235eea71c2f","ios":"levelo://app?vid=6f5d218f-db1a-4b96-bcf2-b235eea71c2f"},"vehicle_type_id":"4","last_reported":1736579262,"current_range_meters":6000,"station_id":"ce4bhh12rcd13ifvqff0","pricing_plan_id":"cebpf4jnsgd1na2vs0mg"},{"bike_id":"0734aaa2-3547-415d-bfbd-0fccaa1be7a4","system_id":"levelo_inurba_marseille","lat":43.23195,"lon":5.399675,"is_reserved":false,"is_disabled":false,"rental_uris":{"android":"levelo://app?vid=0734aaa2-3547-415d-bfbd-0fccaa1be7a4","ios":"levelo://app?vid=0734aaa2-3547-415d-bfbd-0fccaa1be7a4"},"vehicle_type_id":"4","last_reported":1736579262,"current_range_meters":19200,"station_id":"ce4bhn12rcd13ifvqgqg","pricing_plan_id":"cebpf4jnsgd1na2vs0mg"},{"bike_id":"bc72b692-fa80-4572-afe8-0e7949eae868","system_id":"levelo_inurba_marseille","lat":43.33739,"lon":5.37436,"is_reserved":false,"is_disabled":false,"rental_uris":{"android":"levelo://app?vid=bc72b692-fa80-4572-afe8-0e7949eae868","ios":"levelo://app?vid=bc72b692-fa80-4572-afe8-0e7949eae868"},"vehicle_type_id":"4","last_reported":1736579262,"current_range_meters":24000,"station_id":"","pricing_plan_id":"cebpf4jnsgd1na2vs0mg"},{"bike_id":"f034f60e-f6a5-493d-81f8-11f969db77cf","system_id":"levelo_inurba_marseille","lat":43.28658,"lon":5.36365,"is_reserved":false,"is_disabled":false,"rental_uris":{"android":"levelo://app?vid=f034f60e-f6a5-493d-81f8-11f969db77cf","ios":"levelo://app?vid=f034f60e-f6a5-493d-81f8-11f969db77cf"},"vehicle_type_id":"4","last_reported":1736579262,"current_range_meters":25600,"station_id":"ce4bhah2rcd13ifvqej0","pricing_plan_id":"cebpf4jnsgd1na2vs0mg"},{"bike_id":"403b6456-c595-432f-9fb5-fe207e40ff7b","system_id":"levelo_inurba_marseille","lat":43.27179,"lon":5.40978,"is_reserved":false,"is_disabled":false,"rental_uris":{"android":"levelo://app?vid=403b6456-c595-432f-9fb5-fe207e40ff7b","ios":"levelo://app?vid=403b6456-c595-432f-9fb5-fe207e40ff7b"},"vehicle_type_id":"4","last_reported":1736579262,"current_range_meters":38800,"station_id":"ce4bhl12rcd13ifvqgf0","pricing_plan_id":"cebpf4jnsgd1na2vs0mg"},{"bike_id":"4542b8b5-d27d-4e0c-9348-2a3f5aa5cfe4","system_id":"levelo_inurba_marseille","lat":43.29518,"lon":5.39401,"is_reserved":false,"is_disabled":false,"rental_uris":{"android":"levelo://app?vid=4542b8b5-d27d-4e0c-9348-2a3f5aa5cfe4","ios":"levelo://app?vid=4542b8b5-d27d-4e0c-9348-2a3f5aa5cfe4"},"vehicle_type_id":"4","last_reported":1736579262,"current_range_meters":16400,"station_id":"ce4bh292rcd13ifvqdf0","pricing_plan_id":"cebpf4jnsgd1na2vs0mg"},{"bike_id":"927ed3ac-e7cb-406a-84ae-66f41fc9f0f5","system_id":"levelo_inurba_marseille","lat":43.28448,"lon":5.35898,"is_reserved":false,"is_disabled":false,"rental_uris":{"android":"levelo://app?vid=927ed3ac-e7cb-406a-84ae-66f41fc9f0f5","ios":"levelo://app?vid=927ed3ac-e7cb-406a-84ae-66f41fc9f0f5"},"vehicle_type_id":"4","last_reported":1736579262,"current_range_meters":14400,"station_id":"ce4bhah2rcd13ifvqei0","pricing_plan_id":"cebpf4jnsgd1na2vs0mg"},{"bike_id":"cdd589a6-cc5d-48f2-9993-8953777bdc8d","system_id":"levelo_inurba_marseille","lat":43.29228,"lon":5.36072,"is_reserved":false,"is_disabled":false,"rental_uris":{"android":"levelo://app?vid=cdd589a6-cc5d-48f2-9993-8953777bdc8d","ios":"levelo://app?vid=cdd589a6-cc5d-48f2-9993-8953777bdc8d"},"vehicle_type_id":"4","last_reported":1736579262,"current_range_meters":34000,"station_id":"ce4bhbh2rcd13ifvqeqg","pricing_plan_id":"cebpf4jnsgd1na2vs0mg"},{"bike_id":"7e9a745e-c82d-4677-a3f0-c081269f42e9","system_id":"levelo_inurba_marseille","lat":43.28999,"lon":5.35619,"is_reserved":false,"is_disabled":false,"rental_uris":{"android":"levelo://app?vid=7e9a745e-c82d-4677-a3f0-c081269f42e9","ios":"levelo://app?vid=7e9a745e-c82d-4677-a3f0-c081269f42e9"},"vehicle_type_id":"4","last_reported":1736579262,"current_range_meters":28000,"station_id":"ce4bhb92rcd13ifvqen0","pricing_plan_id":"cebpf4jnsgd1na2vs0mg"},{"bike_id":"c977511d-6e29-434c-bf37-ffa630521630","system_id":"levelo_inurba_marseille","lat":43.29029,"lon":5.39938,"is_reserved":false,"is_disabled":false,"rental_uris":{"android":"levelo://app?vid=c977511d-6e29-434c-bf37-ffa630521630","ios":"levelo://app?vid=c977511d-6e29-434c-bf37-ffa630521630"},"vehicle_type_id":"4","last_reported":1736579262,"current_range_meters":33200,"station_id":"ce4bh392rcd13ifvqdm0","pricing_plan_id":"cebpf4jnsgd1na2vs0mg"},{"bike_id":"e28483d1-4b50-47d3-8f68-bbbc48a67024","system_id":"levelo_inurba_marseille","lat":43.29056,"lon":5.37169,"is_reserved":false,"is_disabled":true,"rental_uris":{"android":"levelo://app?vid=e28483d1-4b50-47d3-8f68-bbbc48a67024","ios":"levelo://app?vid=e28483d1-4b50-47d3-8f68-bbbc48a67024"},"vehicle_type_id":"4","last_reported":1736579262,"current_range_meters":28800,"station_id":"ce4bh5p2rcd13ifvqe4g","pricing_plan_id":"cebpf4jnsgd1na2vs0mg"},{"bike_id":"1d4a8f95-f17f-4c5f-8510-b75a9f17f9a0","system_id":"levelo_inurba_marseille","lat":43.31356,"lon":5.38502,"is_reserved":false,"is_disabled":false,"rental_uris":{"android":"levelo://app?vid=1d4a8f95-f17f-4c5f-8510-b75a9f17f9a0","ios":"levelo://app?vid=1d4a8f95-f17f-4c5f-8510-b75a9f17f9a0"},"vehicle_type_id":"4","last_reported":1736579262,"current_range_meters":24800,"station_id":"ce4bgt92rcd13ifvqcf0","pricing_plan_id":"cebpf4jnsgd1na2vs0mg"},{"bike_id":"82b556fb-1e29-46d6-967a-3d3f7c9da2ae","system_id":"levelo_inurba_marseille","lat":43.23964,"lon":5.36627,"is_reserved":false,"is_disabled":false,"rental_uris":{"android":"levelo://app?vid=82b556fb-1e29-46d6-967a-3d3f7c9da2ae","ios":"levelo://app?vid=82b556fb-1e29-46d6-967a-3d3f7c9da2ae"},"vehicle_type_id":"4","last_reported":1736579262,"current_range_meters":22400,"station_id":"ce4bhi12rcd13ifvqfp0","pricing_plan_id":"cebpf4jnsgd1na2vs0mg"},{"bike_id":"0da916ad-7fc3-43b9-a34a-22ae57eaaf04","system_id":"levelo_inurba_marseille","lat":43.29547,"lon":5.42284,"is_reserved":false,"is_disabled":false,"rental_uris":{"android":"levelo://app?vid=0da916ad-7fc3-43b9-a34a-22ae57eaaf04","ios":"levelo://app?vid=0da916ad-7fc3-43b9-a34a-22ae57eaaf04"},"vehicle_type_id":"4","last_reported":1736579262,"current_range_meters":37600,"station_id":"ce4bhph2rcd13ifvqhdg","pricing_plan_id":"cebpf4jnsgd1na2vs0mg"},{"bike_id":"ea85eaf0-fde0-43c4-b882-10e3bd598be8","system_id":"levelo_inurba_marseille","lat":43.251126,"lon":5.403293,"is_reserved":false,"is_disabled":true,"rental_uris":{"android":"levelo://app?vid=ea85eaf0-fde0-43c4-b882-10e3bd598be8","ios":"levelo://app?vid=ea85eaf0-fde0-43c4-b882-10e3bd598be8"},"vehicle_type_id":"4","last_reported":1736579262,"current_range_meters":6400,"station_id":"ce4bhlh2rcd13ifvqgig","pricing_plan_id":"cebpf4jnsgd1na2vs0mg"},{"bike_id":"bc2ecfb6-7911-4f67-9761-2fa9eb95f393","system_id":"levelo_inurba_marseille","lat":43.29723,"lon":5.37694,"is_reserved":false,"is_disabled":false,"rental_uris":{"android":"levelo://app?vid=bc2ecfb6-7911-4f67-9761-2fa9eb95f393","ios":"levelo://app?vid=bc2ecfb6-7911-4f67-9761-2fa9eb95f393"},"vehicle_type_id":"4","last_reported":1736579262,"current_range_meters":38000,"station_id":"ce4bgkh2rcd13ifvqbl0","pricing_plan_id":"cebpf4jnsgd1na2vs0mg"},{"bike_id":"7a0a8a69-615c-43f3-a001-073b74f4a57b","system_id":"levelo_inurba_marseille","lat":43.25569,"lon":5.38237,"is_reserved":false,"is_disabled":false,"rental_uris":{"android":"levelo://app?vid=7a0a8a69-615c-43f3-a001-073b74f4a57b","ios":"levelo://app?vid=7a0a8a69-615c-43f3-a001-073b74f4a57b"},"vehicle_type_id":"4","last_reported":1736579262,"current_range_meters":24400,"station_id":"ce4bhih2rcd13ifvqfs0","pricing_plan_id":"cebpf4jnsgd1na2vs0mg"},{"bike_id":"83b551bf-f2fc-4dad-a913-91d0e1a6bcff","system_id":"levelo_inurba_marseille","lat":43.31082,"lon":5.38356,"is_reserved":false,"is_disabled":false,"rental_uris":{"android":"levelo://app?vid=83b551bf-f2fc-4dad-a913-91d0e1a6bcff","ios":"levelo://app?vid=83b551bf-f2fc-4dad-a913-91d0e1a6bcff"},"vehicle_type_id":"4","last_reported":1736579262,"current_range_meters":17200,"station_id":"ce4bgv92rcd13ifvqcr0","pricing_plan_id":"cebpf4jnsgd1na2vs0mg"},{"bike_id":"04b99ebe-7927-40e6-9554-a7aa6d8ff5da","system_id":"levelo_inurba_marseille","lat":43.33023,"lon":5.39043,"is_reserved":false,"is_disabled":false,"rental_uris":{"android":"levelo://app?vid=04b99ebe-7927-40e6-9554-a7aa6d8ff5da","ios":"levelo://app?vid=04b99ebe-7927-40e6-9554-a7aa6d8ff5da"},"vehicle_type_id":"4","last_reported":1736579262,"current_range_meters":38800,"station_id":"ce4bhr92rcd13ifvqhrg","pricing_plan_id":"cebpf4jnsgd1na2vs0mg"},{"bike_id":"00ce025b-3337-4565-8d1c-47adff4217d7","system_id":"levelo_inurba_marseille","lat":43.24533,"lon":5.39518,"is_reserved":false,"is_disabled":false,"rental_uris":{"android":"levelo://app?vid=00ce025b-3337-4565-8d1c-47adff4217d7","ios":"levelo://app?vid=00ce025b-3337-4565-8d1c-47adff4217d7"},"vehicle_type_id":"4","last_reported":1736579262,"current_range_meters":38800,"station_id":"ce4bhlp2rcd13ifvqgjg","pricing_plan_id":"cebpf4jnsgd1na2vs0mg"},{"bike_id":"b984475e-70f5-478d-a365-e48ebf91675f","system_id":"levelo_inurba_marseille","lat":43.29537,"lon":5.38537,"is_reserved":false,"is_disabled":true,"rental_uris":{"android":"levelo://app?vid=b984475e-70f5-478d-a365-e48ebf91675f","ios":"levelo://app?vid=b984475e-70f5-478d-a365-e48ebf91675f"},"vehicle_type_id":"4","last_reported":1736579262,"current_range_meters":0,"station_id":"ce4bgih2rcd13ifvqba0","pricing_plan_id":"cebpf4jnsgd1na2vs0mg"},{"bike_id":"e2cf5614-606d-46e0-bba1-511a39a5ccf3","system_id":"levelo_inurba_marseille","lat":43.30929,"lon":5.40148,"is_reserved":false,"is_disabled":false,"rental_uris":{"android":"levelo://app?vid=e2cf5614-606d-46e0-bba1-511a39a5ccf3","ios":"levelo://app?vid=e2cf5614-606d-46e0-bba1-511a39a5ccf3"},"vehicle_type_id":"4","last_reported":1736579262,"current_range_meters":36800,"station_id":"ce4bgvp2rcd13ifvqct0","pricing_plan_id":"cebpf4jnsgd1na2vs0mg"},{"bike_id":"af38867d-be91-4da5-9124-0d5c4fc919d2","system_id":"levelo_inurba_marseille","lat":43.31522,"lon":5.38041,"is_reserved":false,"is_disabled":false,"rental_uris":{"android":"levelo://app?vid=af38867d-be91-4da5-9124-0d5c4fc919d2","ios":"levelo://app?vid=af38867d-be91-4da5-9124-0d5c4fc919d2"},"vehicle_type_id":"4","last_reported":1736579262,"current_range_meters":26800,"station_id":"ce4bhsp2rcd13ifvqi50","pricing_plan_id":"cebpf4jnsgd1na2vs0mg"},{"bike_id":"c659b38a-f5c3-4a38-b728-280247010d6a","system_id":"levelo_inurba_marseille","lat":43.28845,"lon":5.39328,"is_reserved":false,"is_disabled":false,"rental_uris":{"android":"levelo://app?vid=c659b38a-f5c3-4a38-b728-280247010d6a","ios":"levelo://app?vid=c659b38a-f5c3-4a38-b728-280247010d6a"},"vehicle_type_id":"4","last_reported":1736579262,"current_range_meters":38800,"station_id":"ce4bh2p2rcd13ifvqdi0","pricing_plan_id":"cebpf4jnsgd1na2vs0mg"},{"bike_id":"11e44c56-62a9-4c68-9a67-ca1cf255933f","system_id":"levelo_inurba_marseille","lat":43.27496,"lon":5.42449,"is_reserved":false,"is_disabled":false,"rental_uris":{"android":"levelo://app?vid=11e44c56-62a9-4c68-9a67-ca1cf255933f","ios":"levelo://app?vid=11e44c56-62a9-4c68-9a67-ca1cf255933f"},"vehicle_type_id":"4","last_reported":1736579262,"current_range_meters":26000,"station_id":"ce4bhn92rcd13ifvqgrg","pricing_plan_id":"cebpf4jnsgd1na2vs0mg"},{"bike_id":"d4e77abc-3bbc-4e4b-a5bc-6b106cd5b9ec","system_id":"levelo_inurba_marseille","lat":43.3107,"lon":5.383451,"is_reserved":false,"is_disabled":false,"rental_uris":{"android":"levelo://app?vid=d4e77abc-3bbc-4e4b-a5bc-6b106cd5b9ec","ios":"levelo://app?vid=d4e77abc-3bbc-4e4b-a5bc-6b106cd5b9ec"},"vehicle_type_id":"4","last_reported":1736579262,"current_range_meters":38800,"station_id":"ce4bgv92rcd13ifvqcr0","pricing_plan_id":"cebpf4jnsgd1na2vs0mg"},{"bike_id":"9f05c648-5d50-42e3-af14-75306509626f","system_id":"levelo_inurba_marseille","lat":43.26554,"lon":5.37284,"is_reserved":false,"is_disabled":false,"rental_uris":{"android":"levelo://app?vid=9f05c648-5d50-42e3-af14-75306509626f","ios":"levelo://app?vid=9f05c648-5d50-42e3-af14-75306509626f"},"vehicle_type_id":"4","last_reported":1736579262,"current_range_meters":34000,"station_id":"ce4bhg12rcd13ifvqf70","pricing_plan_id":"cebpf4jnsgd1na2vs0mg"},{"bike_id":"29bd74f6-2d23-419f-a342-bfe9a1997636","system_id":"levelo_inurba_marseille","lat":43.28717,"lon":5.39966,"is_reserved":false,"is_disabled":false,"rental_uris":{"android":"levelo://app?vid=29bd74f6-2d23-419f-a342-bfe9a1997636","ios":"levelo://app?vid=29bd74f6-2d23-419f-a342-bfe9a1997636"},"vehicle_type_id":"4","last_reported":1736579262,"current_range_meters":24800,"station_id":"ce4bho92rcd13ifvqh3g","pricing_plan_id":"cebpf4jnsgd1na2vs0mg"},{"bike_id":"0bcc64a9-b35b-445e-951b-117593e1c83a","system_id":"levelo_inurba_marseille","lat":43.278106,"lon":5.407096,"is_reserved":false,"is_disabled":false,"rental_uris":{"android":"levelo://app?vid=0bcc64a9-b35b-445e-951b-117593e1c83a","ios":"levelo://app?vid=0bcc64a9-b35b-445e-951b-117593e1c83a"},"vehicle_type_id":"4","last_reported":1736579262,"current_range_meters":32400,"station_id":"ce4bhnh2rcd13ifvqgtg","pricing_plan_id":"cebpf4jnsgd1na2vs0mg"},{"bike_id":"0a8818d9-1057-4d06-8dc5-11aac2634135","system_id":"levelo_inurba_marseille","lat":43.31272,"lon":5.40161,"is_reserved":false,"is_disabled":false,"rental_uris":{"android":"levelo://app?vid=0a8818d9-1057-4d06-8dc5-11aac2634135","ios":"levelo://app?vid=0a8818d9-1057-4d06-8dc5-11aac2634135"},"vehicle_type_id":"4","last_reported":1736579262,"current_range_meters":8800,"station_id":"ce4bh092rcd13ifvqd30","pricing_plan_id":"cebpf4jnsgd1na2vs0mg"},{"bike_id":"dc11ba24-a904-4ff2-b474-52348d374425","system_id":"levelo_inurba_marseille","lat":43.276188,"lon":5.3612,"is_reserved":false,"is_disabled":false,"rental_uris":{"android":"levelo://app?vid=dc11ba24-a904-4ff2-b474-52348d374425","ios":"levelo://app?vid=dc11ba24-a904-4ff2-b474-52348d374425"},"vehicle_type_id":"4","last_reported":1736579262,"current_range_meters":37600,"station_id":"ce4bgj92rcd13ifvqbe0","pricing_plan_id":"cebpf4jnsgd1na2vs0mg"},{"bike_id":"aad17fe9-5eb4-4717-a51a-da7e6a7942e4","system_id":"levelo_inurba_marseille","lat":43.31487,"lon":5.37305,"is_reserved":false,"is_disabled":false,"rental_uris":{"android":"levelo://app?vid=aad17fe9-5eb4-4717-a51a-da7e6a7942e4","ios":"levelo://app?vid=aad17fe9-5eb4-4717-a51a-da7e6a7942e4"},"vehicle_type_id":"4","last_reported":1736579262,"current_range_meters":8400,"station_id":"ce4bgt12rcd13ifvqcd0","pricing_plan_id":"cebpf4jnsgd1na2vs0mg"},{"bike_id":"a65c46ae-456f-4ee3-8a9f-a2ed306f68c3","system_id":"levelo_inurba_marseille","lat":43.28687,"lon":5.36312,"is_reserved":false,"is_disabled":false,"rental_uris":{"android":"levelo://app?vid=a65c46ae-456f-4ee3-8a9f-a2ed306f68c3","ios":"levelo://app?vid=a65c46ae-456f-4ee3-8a9f-a2ed306f68c3"},"vehicle_type_id":"4","last_reported":1736579262,"current_range_meters":27200,"station_id":"ce4bhah2rcd13ifvqej0","pricing_plan_id":"cebpf4jnsgd1na2vs0mg"},{"bike_id":"bb09aba3-e725-4db5-9d0b-860b910730c7","system_id":"levelo_inurba_marseille","lat":43.31322,"lon":5.39696,"is_reserved":false,"is_disabled":true,"rental_uris":{"android":"levelo://app?vid=bb09aba3-e725-4db5-9d0b-860b910730c7","ios":"levelo://app?vid=bb09aba3-e725-4db5-9d0b-860b910730c7"},"vehicle_type_id":"4","last_reported":1736579262,"current_range_meters":2000,"station_id":"ce4bgvp2rcd13ifvqcu0","pricing_plan_id":"cebpf4jnsgd1na2vs0mg"},{"bike_id":"406c4c05-cb21-4d5d-983d-a575ffe52a99","system_id":"levelo_inurba_marseille","lat":43.29364,"lon":5.3783,"is_reserved":false,"is_disabled":false,"rental_uris":{"android":"levelo://app?vid=406c4c05-cb21-4d5d-983d-a575ffe52a99","ios":"levelo://app?vid=406c4c05-cb21-4d5d-983d-a575ffe52a99"},"vehicle_type_id":"4","last_reported":1736579262,"current_range_meters":28800,"station_id":"ce4bgjh2rcd13ifvqbf0","pricing_plan_id":"cebpf4jnsgd1na2vs0mg"},{"bike_id":"1ff4d6af-d168-4206-80a1-8f85ab0c0a00","system_id":"levelo_inurba_marseille","lat":43.258654,"lon":5.399071,"is_reserved":false,"is_disabled":true,"rental_uris":{"android":"levelo://app?vid=1ff4d6af-d168-4206-80a1-8f85ab0c0a00","ios":"levelo://app?vid=1ff4d6af-d168-4206-80a1-8f85ab0c0a00"},"vehicle_type_id":"4","last_reported":1736579262,"current_range_meters":19200,"station_id":"ce4bhl92rcd13ifvqghg","pricing_plan_id":"cebpf4jnsgd1na2vs0mg"},{"bike_id":"6a8a7e32-0f66-4fdd-a2b8-81f2afb9b4a8","system_id":"levelo_inurba_marseille","lat":43.2396,"lon":5.36635,"is_reserved":false,"is_disabled":false,"rental_uris":{"android":"levelo://app?vid=6a8a7e32-0f66-4fdd-a2b8-81f2afb9b4a8","ios":"levelo://app?vid=6a8a7e32-0f66-4fdd-a2b8-81f2afb9b4a8"},"vehicle_type_id":"4","last_reported":1736579262,"current_range_meters":17200,"station_id":"ce4bhi12rcd13ifvqfp0","pricing_plan_id":"cebpf4jnsgd1na2vs0mg"},{"bike_id":"3846c4b1-ae4b-4878-9059-04a6b95712db","system_id":"levelo_inurba_marseille","lat":43.2993,"lon":5.36528,"is_reserved":false,"is_disabled":false,"rental_uris":{"android":"levelo://app?vid=3846c4b1-ae4b-4878-9059-04a6b95712db","ios":"levelo://app?vid=3846c4b1-ae4b-4878-9059-04a6b95712db"},"vehicle_type_id":"4","last_reported":1736579262,"current_range_meters":24800,"station_id":"ce4bgm92rcd13ifvqbr0","pricing_plan_id":"cebpf4jnsgd1na2vs0mg"},{"bike_id":"1d174f3c-56fd-4bd2-841f-15687ff97534","system_id":"levelo_inurba_marseille","lat":43.301357,"lon":5.398732,"is_reserved":false,"is_disabled":true,"rental_uris":{"android":"levelo://app?vid=1d174f3c-56fd-4bd2-841f-15687ff97534","ios":"levelo://app?vid=1d174f3c-56fd-4bd2-841f-15687ff97534"},"vehicle_type_id":"4","last_reported":1736579262,"current_range_meters":0,"station_id":"ce4bh0h2rcd13ifvqd40","pricing_plan_id":"cebpf4jnsgd1na2vs0mg"},{"bike_id":"750dedb6-a00f-4b07-bc2f-3484aab220a6","system_id":"levelo_inurba_marseille","lat":43.33013,"lon":5.39023,"is_reserved":false,"is_disabled":false,"rental_uris":{"android":"levelo://app?vid=750dedb6-a00f-4b07-bc2f-3484aab220a6","ios":"levelo://app?vid=750dedb6-a00f-4b07-bc2f-3484aab220a6"},"vehicle_type_id":"4","last_reported":1736579262,"current_range_meters":37600,"station_id":"ce4bhr92rcd13ifvqhrg","pricing_plan_id":"cebpf4jnsgd1na2vs0mg"},{"bike_id":"6d3d6abc-fcc3-4022-a1ec-5eeec13350b2","system_id":"levelo_inurba_marseille","lat":43.27495,"lon":5.42458,"is_reserved":false,"is_disabled":false,"rental_uris":{"android":"levelo://app?vid=6d3d6abc-fcc3-4022-a1ec-5eeec13350b2","ios":"levelo://app?vid=6d3d6abc-fcc3-4022-a1ec-5eeec13350b2"},"vehicle_type_id":"4","last_reported":1736579262,"current_range_meters":35200,"station_id":"ce4bhn92rcd13ifvqgrg","pricing_plan_id":"cebpf4jnsgd1na2vs0mg"},{"bike_id":"d4b9ec52-492e-41b6-8dae-be3aec56cf81","system_id":"levelo_inurba_marseille","lat":43.28621,"lon":5.35088,"is_reserved":false,"is_disabled":false,"rental_uris":{"android":"levelo://app?vid=d4b9ec52-492e-41b6-8dae-be3aec56cf81","ios":"levelo://app?vid=d4b9ec52-492e-41b6-8dae-be3aec56cf81"},"vehicle_type_id":"4","last_reported":1736579262,"current_range_meters":8000,"station_id":"ce4bhch2rcd13ifvqeug","pricing_plan_id":"cebpf4jnsgd1na2vs0mg"},{"bike_id":"e041ed2a-1ada-4409-8815-abd8eb3a5e49","system_id":"levelo_inurba_marseille","lat":43.30132,"lon":5.39862,"is_reserved":false,"is_disabled":false,"rental_uris":{"android":"levelo://app?vid=e041ed2a-1ada-4409-8815-abd8eb3a5e49","ios":"levelo://app?vid=e041ed2a-1ada-4409-8815-abd8eb3a5e49"},"vehicle_type_id":"4","last_reported":1736579262,"current_range_meters":22800,"station_id":"ce4bh0h2rcd13ifvqd40","pricing_plan_id":"cebpf4jnsgd1na2vs0mg"},{"bike_id":"2b4cffb3-77ea-48e3-baee-701d676c1001","system_id":"levelo_inurba_marseille","lat":43.26077,"lon":5.38715,"is_reserved":false,"is_disabled":false,"rental_uris":{"android":"levelo://app?vid=2b4cffb3-77ea-48e3-baee-701d676c1001","ios":"levelo://app?vid=2b4cffb3-77ea-48e3-baee-701d676c1001"},"vehicle_type_id":"4","last_reported":1736579262,"current_range_meters":8000,"station_id":"","pricing_plan_id":"cebpf4jnsgd1na2vs0mg"},{"bike_id":"10f7d31a-ef8d-4e8a-acbf-8aa9a8c72143","system_id":"levelo_inurba_marseille","lat":43.24362,"lon":5.37156,"is_reserved":false,"is_disabled":false,"rental_uris":{"android":"levelo://app?vid=10f7d31a-ef8d-4e8a-acbf-8aa9a8c72143","ios":"levelo://app?vid=10f7d31a-ef8d-4e8a-acbf-8aa9a8c72143"},"vehicle_type_id":"4","last_reported":1736579262,"current_range_meters":19200,"station_id":"ce4bhhh2rcd13ifvqfk0","pricing_plan_id":"cebpf4jnsgd1na2vs0mg"},{"bike_id":"229a4a9e-a4d6-48f4-a974-2872d0fec353","system_id":"levelo_inurba_marseille","lat":43.261936,"lon":5.374524,"is_reserved":false,"is_disabled":false,"rental_uris":{"android":"levelo://app?vid=229a4a9e-a4d6-48f4-a974-2872d0fec353","ios":"levelo://app?vid=229a4a9e-a4d6-48f4-a974-2872d0fec353"},"vehicle_type_id":"4","last_reported":1736579262,"current_range_meters":25600,"station_id":"ce4bhgp2rcd13ifvqfc0","pricing_plan_id":"cebpf4jnsgd1na2vs0mg"},{"bike_id":"f0c080b7-cc84-4ae6-b5d3-19e354905365","system_id":"levelo_inurba_marseille","lat":43.29015,"lon":5.38147,"is_reserved":false,"is_disabled":true,"rental_uris":{"android":"levelo://app?vid=f0c080b7-cc84-4ae6-b5d3-19e354905365","ios":"levelo://app?vid=f0c080b7-cc84-4ae6-b5d3-19e354905365"},"vehicle_type_id":"4","last_reported":1736579262,"current_range_meters":36800,"station_id":"ce4bh4p2rcd13ifvqe1g","pricing_plan_id":"cebpf4jnsgd1na2vs0mg"},{"bike_id":"55a8c816-477f-44cc-9354-255cd9a320bb","system_id":"levelo_inurba_marseille","lat":43.2871,"lon":5.3793,"is_reserved":false,"is_disabled":false,"rental_uris":{"android":"levelo://app?vid=55a8c816-477f-44cc-9354-255cd9a320bb","ios":"levelo://app?vid=55a8c816-477f-44cc-9354-255cd9a320bb"},"vehicle_type_id":"4","last_reported":1736579262,"current_range_meters":32000,"station_id":"ce4bh9p2rcd13ifvqec0","pricing_plan_id":"cebpf4jnsgd1na2vs0mg"},{"bike_id":"ae29e0de-7b5a-45d6-ace3-313c5e88010a","system_id":"levelo_inurba_marseille","lat":43.2799,"lon":5.41662,"is_reserved":false,"is_disabled":true,"rental_uris":{"android":"levelo://app?vid=ae29e0de-7b5a-45d6-ace3-313c5e88010a","ios":"levelo://app?vid=ae29e0de-7b5a-45d6-ace3-313c5e88010a"},"vehicle_type_id":"4","last_reported":1736579262,"current_range_meters":1600,"station_id":"ce4bho12rcd13ifvqh1g","pricing_plan_id":"cebpf4jnsgd1na2vs0mg"},{"bike_id":"6d3c43c5-c17b-40f3-93fb-200e6d3a08d1","system_id":"levelo_inurba_marseille","lat":43.297809,"lon":5.38108,"is_reserved":false,"is_disabled":true,"rental_uris":{"android":"levelo://app?vid=6d3c43c5-c17b-40f3-93fb-200e6d3a08d1","ios":"levelo://app?vid=6d3c43c5-c17b-40f3-93fb-200e6d3a08d1"},"vehicle_type_id":"4","last_reported":1736579262,"current_range_meters":38000,"station_id":"ce4bgip2rcd13ifvqbb0","pricing_plan_id":"cebpf4jnsgd1na2vs0mg"},{"bike_id":"572f0254-11cf-4ef2-b3f9-66737ed8298a","system_id":"levelo_inurba_marseille","lat":43.28418,"lon":5.34984,"is_reserved":false,"is_disabled":true,"rental_uris":{"android":"levelo://app?vid=572f0254-11cf-4ef2-b3f9-66737ed8298a","ios":"levelo://app?vid=572f0254-11cf-4ef2-b3f9-66737ed8298a"},"vehicle_type_id":"4","last_reported":1736579262,"current_range_meters":0,"station_id":"ce4bhbh2rcd13ifvqepg","pricing_plan_id":"cebpf4jnsgd1na2vs0mg"},{"bike_id":"81e650fb-946f-4e41-a04f-8169232bb99d","system_id":"levelo_inurba_marseille","lat":43.231872,"lon":5.399874,"is_reserved":false,"is_disabled":false,"rental_uris":{"android":"levelo://app?vid=81e650fb-946f-4e41-a04f-8169232bb99d","ios":"levelo://app?vid=81e650fb-946f-4e41-a04f-8169232bb99d"},"vehicle_type_id":"4","last_reported":1736579262,"current_range_meters":32000,"station_id":"ce4bhn12rcd13ifvqgqg","pricing_plan_id":"cebpf4jnsgd1na2vs0mg"},{"bike_id":"24bd131f-fceb-4ce6-b6f3-2cc044254956","system_id":"levelo_inurba_marseille","lat":43.29036,"lon":5.39978,"is_reserved":false,"is_disabled":false,"rental_uris":{"android":"levelo://app?vid=24bd131f-fceb-4ce6-b6f3-2cc044254956","ios":"levelo://app?vid=24bd131f-fceb-4ce6-b6f3-2cc044254956"},"vehicle_type_id":"4","last_reported":1736579262,"current_range_meters":38000,"station_id":"ce4bh392rcd13ifvqdm0","pricing_plan_id":"cebpf4jnsgd1na2vs0mg"},{"bike_id":"f0fb8bfb-285b-4d03-adbf-fe52517bb93c","system_id":"levelo_inurba_marseille","lat":43.23201,"lon":5.35549,"is_reserved":false,"is_disabled":false,"rental_uris":{"android":"levelo://app?vid=f0fb8bfb-285b-4d03-adbf-fe52517bb93c","ios":"levelo://app?vid=f0fb8bfb-285b-4d03-adbf-fe52517bb93c"},"vehicle_type_id":"4","last_reported":1736579262,"current_range_meters":38000,"station_id":"ce4bhu92rcd13ifvqi70","pricing_plan_id":"cebpf4jnsgd1na2vs0mg"},{"bike_id":"204b913d-2cab-47ef-b537-218fcdf75de2","system_id":"levelo_inurba_marseille","lat":43.24674,"lon":5.38161,"is_reserved":false,"is_disabled":false,"rental_uris":{"android":"levelo://app?vid=204b913d-2cab-47ef-b537-218fcdf75de2","ios":"levelo://app?vid=204b913d-2cab-47ef-b537-218fcdf75de2"},"vehicle_type_id":"4","last_reported":1736579262,"current_range_meters":30000,"station_id":"ce4bhih2rcd13ifvqfr0","pricing_plan_id":"cebpf4jnsgd1na2vs0mg"},{"bike_id":"2699aa44-e054-4052-825f-54a662a06c6e","system_id":"levelo_inurba_marseille","lat":43.23194,"lon":5.39977,"is_reserved":false,"is_disabled":false,"rental_uris":{"android":"levelo://app?vid=2699aa44-e054-4052-825f-54a662a06c6e","ios":"levelo://app?vid=2699aa44-e054-4052-825f-54a662a06c6e"},"vehicle_type_id":"4","last_reported":1736579262,"current_range_meters":38800,"station_id":"ce4bhn12rcd13ifvqgqg","pricing_plan_id":"cebpf4jnsgd1na2vs0mg"},{"bike_id":"61754fba-3376-4768-8c7c-511ea5daf5e6","system_id":"levelo_inurba_marseille","lat":43.314435,"lon":5.373752,"is_reserved":false,"is_disabled":false,"rental_uris":{"android":"levelo://app?vid=61754fba-3376-4768-8c7c-511ea5daf5e6","ios":"levelo://app?vid=61754fba-3376-4768-8c7c-511ea5daf5e6"},"vehicle_type_id":"4","last_reported":1736579262,"current_range_meters":2800,"station_id":"","pricing_plan_id":"cebpf4jnsgd1na2vs0mg"},{"bike_id":"e5d237dd-02ee-4407-835a-80c7604a33d8","system_id":"levelo_inurba_marseille","lat":43.27685,"lon":5.389,"is_reserved":false,"is_disabled":false,"rental_uris":{"android":"levelo://app?vid=e5d237dd-02ee-4407-835a-80c7604a33d8","ios":"levelo://app?vid=e5d237dd-02ee-4407-835a-80c7604a33d8"},"vehicle_type_id":"4","last_reported":1736579262,"current_range_meters":38000,"station_id":"ce4bhi12rcd13ifvqfo0","pricing_plan_id":"cebpf4jnsgd1na2vs0mg"},{"bike_id":"a6bab0bb-085a-41b1-b8e2-10de2a66914c","system_id":"levelo_inurba_marseille","lat":43.311175,"lon":5.377741,"is_reserved":false,"is_disabled":false,"rental_uris":{"android":"levelo://app?vid=a6bab0bb-085a-41b1-b8e2-10de2a66914c","ios":"levelo://app?vid=a6bab0bb-085a-41b1-b8e2-10de2a66914c"},"vehicle_type_id":"4","last_reported":1736579262,"current_range_meters":18800,"station_id":"ce4bgt92rcd13ifvqcg0","pricing_plan_id":"cebpf4jnsgd1na2vs0mg"},{"bike_id":"30653996-9326-4bca-864c-21ac92f61041","system_id":"levelo_inurba_marseille","lat":43.24626,"lon":5.38903,"is_reserved":false,"is_disabled":false,"rental_uris":{"android":"levelo://app?vid=30653996-9326-4bca-864c-21ac92f61041","ios":"levelo://app?vid=30653996-9326-4bca-864c-21ac92f61041"},"vehicle_type_id":"4","last_reported":1736579262,"current_range_meters":34000,"station_id":"ce4bhg12rcd13ifvqf60","pricing_plan_id":"cebpf4jnsgd1na2vs0mg"},{"bike_id":"adcbc14e-e2fe-4b1d-9a5c-4991fa8d3d69","system_id":"levelo_inurba_marseille","lat":43.28996,"lon":5.35595,"is_reserved":false,"is_disabled":true,"rental_uris":{"android":"levelo://app?vid=adcbc14e-e2fe-4b1d-9a5c-4991fa8d3d69","ios":"levelo://app?vid=adcbc14e-e2fe-4b1d-9a5c-4991fa8d3d69"},"vehicle_type_id":"4","last_reported":1736579262,"current_range_meters":38800,"station_id":"ce4bhb92rcd13ifvqen0","pricing_plan_id":"cebpf4jnsgd1na2vs0mg"},{"bike_id":"bed24a32-106d-49f4-8d2d-17f021b9dbe6","system_id":"levelo_inurba_marseille","lat":43.27499,"lon":5.42457,"is_reserved":false,"is_disabled":true,"rental_uris":{"android":"levelo://app?vid=bed24a32-106d-49f4-8d2d-17f021b9dbe6","ios":"levelo://app?vid=bed24a32-106d-49f4-8d2d-17f021b9dbe6"},"vehicle_type_id":"4","last_reported":1736579262,"current_range_meters":1200,"station_id":"ce4bhn92rcd13ifvqgrg","pricing_plan_id":"cebpf4jnsgd1na2vs0mg"},{"bike_id":"fd64c8a3-a4fc-42da-8d2c-308cff8a2a4f","system_id":"levelo_inurba_marseille","lat":43.302486,"lon":5.400638,"is_reserved":false,"is_disabled":false,"rental_uris":{"android":"levelo://app?vid=fd64c8a3-a4fc-42da-8d2c-308cff8a2a4f","ios":"levelo://app?vid=fd64c8a3-a4fc-42da-8d2c-308cff8a2a4f"},"vehicle_type_id":"4","last_reported":1736579262,"current_range_meters":38800,"station_id":"ce4bgvh2rcd13ifvqcs0","pricing_plan_id":"cebpf4jnsgd1na2vs0mg"},{"bike_id":"e3a2c608-d3bf-4234-9440-b094ed87366b","system_id":"levelo_inurba_marseille","lat":43.287,"lon":5.37383,"is_reserved":false,"is_disabled":false,"rental_uris":{"android":"levelo://app?vid=e3a2c608-d3bf-4234-9440-b094ed87366b","ios":"levelo://app?vid=e3a2c608-d3bf-4234-9440-b094ed87366b"},"vehicle_type_id":"4","last_reported":1736579262,"current_range_meters":28800,"station_id":"ce4bh3p2rcd13ifvqdq0","pricing_plan_id":"cebpf4jnsgd1na2vs0mg"},{"bike_id":"51098504-36bc-46da-bc89-d62c2a5ea627","system_id":"levelo_inurba_marseille","lat":43.29408,"lon":5.38597,"is_reserved":false,"is_disabled":true,"rental_uris":{"android":"levelo://app?vid=51098504-36bc-46da-bc89-d62c2a5ea627","ios":"levelo://app?vid=51098504-36bc-46da-bc89-d62c2a5ea627"},"vehicle_type_id":"4","last_reported":1736579262,"current_range_meters":800,"station_id":"ce4bh2h2rcd13ifvqdh0","pricing_plan_id":"cebpf4jnsgd1na2vs0mg"},{"bike_id":"d20a774b-60d4-4fea-8501-140e94d9ac48","system_id":"levelo_inurba_marseille","lat":43.27116,"lon":5.38506,"is_reserved":false,"is_disabled":false,"rental_uris":{"android":"levelo://app?vid=d20a774b-60d4-4fea-8501-140e94d9ac48","ios":"levelo://app?vid=d20a774b-60d4-4fea-8501-140e94d9ac48"},"vehicle_type_id":"4","last_reported":1736579262,"current_range_meters":29600,"station_id":"","pricing_plan_id":"cebpf4jnsgd1na2vs0mg"},{"bike_id":"7317d6d0-ec2e-4f43-a527-c168ad6c9de8","system_id":"levelo_inurba_marseille","lat":43.27478,"lon":5.39501,"is_reserved":false,"is_disabled":false,"rental_uris":{"android":"levelo://app?vid=7317d6d0-ec2e-4f43-a527-c168ad6c9de8","ios":"levelo://app?vid=7317d6d0-ec2e-4f43-a527-c168ad6c9de8"},"vehicle_type_id":"4","last_reported":1736579262,"current_range_meters":36000,"station_id":"","pricing_plan_id":"cebpf4jnsgd1na2vs0mg"},{"bike_id":"b704bf42-2bc7-4506-b669-8ca7a3330fef","system_id":"levelo_inurba_marseille","lat":43.28144,"lon":5.42635,"is_reserved":false,"is_disabled":true,"rental_uris":{"android":"levelo://app?vid=b704bf42-2bc7-4506-b669-8ca7a3330fef","ios":"levelo://app?vid=b704bf42-2bc7-4506-b669-8ca7a3330fef"},"vehicle_type_id":"4","last_reported":1736579262,"current_range_meters":33600,"station_id":"ce4bhnh2rcd13ifvqgug","pricing_plan_id":"cebpf4jnsgd1na2vs0mg"},{"bike_id":"04c144bb-885d-4367-8bc8-e2ccfca26ca3","system_id":"levelo_inurba_marseille","lat":43.31517,"lon":5.38901,"is_reserved":false,"is_disabled":true,"rental_uris":{"android":"levelo://app?vid=04c144bb-885d-4367-8bc8-e2ccfca26ca3","ios":"levelo://app?vid=04c144bb-885d-4367-8bc8-e2ccfca26ca3"},"vehicle_type_id":"4","last_reported":1736579262,"current_range_meters":23200,"station_id":"","pricing_plan_id":"cebpf4jnsgd1na2vs0mg"},{"bike_id":"fc409626-cf3b-4f65-bf74-11f59f5d8632","system_id":"levelo_inurba_marseille","lat":43.28663,"lon":5.36363,"is_reserved":false,"is_disabled":false,"rental_uris":{"android":"levelo://app?vid=fc409626-cf3b-4f65-bf74-11f59f5d8632","ios":"levelo://app?vid=fc409626-cf3b-4f65-bf74-11f59f5d8632"},"vehicle_type_id":"4","last_reported":1736579262,"current_range_meters":38800,"station_id":"ce4bhah2rcd13ifvqej0","pricing_plan_id":"cebpf4jnsgd1na2vs0mg"},{"bike_id":"1987856f-76cd-431b-a3f6-7cd1fa990954","system_id":"levelo_inurba_marseille","lat":43.29041,"lon":5.39952,"is_reserved":false,"is_disabled":false,"rental_uris":{"android":"levelo://app?vid=1987856f-76cd-431b-a3f6-7cd1fa990954","ios":"levelo://app?vid=1987856f-76cd-431b-a3f6-7cd1fa990954"},"vehicle_type_id":"4","last_reported":1736579262,"current_range_meters":38800,"station_id":"ce4bh392rcd13ifvqdm0","pricing_plan_id":"cebpf4jnsgd1na2vs0mg"},{"bike_id":"ef656606-4429-4ee4-bc24-929ad2bc221a","system_id":"levelo_inurba_marseille","lat":43.287261,"lon":5.360959,"is_reserved":false,"is_disabled":false,"rental_uris":{"android":"levelo://app?vid=ef656606-4429-4ee4-bc24-929ad2bc221a","ios":"levelo://app?vid=ef656606-4429-4ee4-bc24-929ad2bc221a"},"vehicle_type_id":"4","last_reported":1736579262,"current_range_meters":21600,"station_id":"cki0cbj6b192h4jlfktg","pricing_plan_id":"cebpf4jnsgd1na2vs0mg"},{"bike_id":"ede473a8-4ad3-4177-9dfc-dc40ae6098e2","system_id":"levelo_inurba_marseille","lat":43.2466,"lon":5.38152,"is_reserved":false,"is_disabled":false,"rental_uris":{"android":"levelo://app?vid=ede473a8-4ad3-4177-9dfc-dc40ae6098e2","ios":"levelo://app?vid=ede473a8-4ad3-4177-9dfc-dc40ae6098e2"},"vehicle_type_id":"4","last_reported":1736579262,"current_range_meters":8400,"station_id":"ce4bhih2rcd13ifvqfr0","pricing_plan_id":"cebpf4jnsgd1na2vs0mg"},{"bike_id":"89f21abd-2121-48f5-ae07-10c03ed8e233","system_id":"levelo_inurba_marseille","lat":43.280753,"lon":5.396462,"is_reserved":false,"is_disabled":false,"rental_uris":{"android":"levelo://app?vid=89f21abd-2121-48f5-ae07-10c03ed8e233","ios":"levelo://app?vid=89f21abd-2121-48f5-ae07-10c03ed8e233"},"vehicle_type_id":"4","last_reported":1736579262,"current_range_meters":38000,"station_id":"ce4bho12rcd13ifvqh2g","pricing_plan_id":"cebpf4jnsgd1na2vs0mg"},{"bike_id":"e2744ec8-2f1a-4025-9ec0-6a07f5db3fc4","system_id":"levelo_inurba_marseille","lat":43.25501,"lon":5.37642,"is_reserved":false,"is_disabled":false,"rental_uris":{"android":"levelo://app?vid=e2744ec8-2f1a-4025-9ec0-6a07f5db3fc4","ios":"levelo://app?vid=e2744ec8-2f1a-4025-9ec0-6a07f5db3fc4"},"vehicle_type_id":"4","last_reported":1736579262,"current_range_meters":38800,"station_id":"ce4bhh12rcd13ifvqff0","pricing_plan_id":"cebpf4jnsgd1na2vs0mg"},{"bike_id":"39e8b8db-a45b-47ac-924f-708d2b3bef9a","system_id":"levelo_inurba_marseille","lat":43.286179,"lon":5.351034,"is_reserved":false,"is_disabled":false,"rental_uris":{"android":"levelo://app?vid=39e8b8db-a45b-47ac-924f-708d2b3bef9a","ios":"levelo://app?vid=39e8b8db-a45b-47ac-924f-708d2b3bef9a"},"vehicle_type_id":"4","last_reported":1736579262,"current_range_meters":15200,"station_id":"ce4bhch2rcd13ifvqeug","pricing_plan_id":"cebpf4jnsgd1na2vs0mg"},{"bike_id":"cc759f92-165c-46f7-84dc-07726493697c","system_id":"levelo_inurba_marseille","lat":43.28082,"lon":5.39654,"is_reserved":false,"is_disabled":false,"rental_uris":{"android":"levelo://app?vid=cc759f92-165c-46f7-84dc-07726493697c","ios":"levelo://app?vid=cc759f92-165c-46f7-84dc-07726493697c"},"vehicle_type_id":"4","last_reported":1736579262,"current_range_meters":28800,"station_id":"ce4bho12rcd13ifvqh2g","pricing_plan_id":"cebpf4jnsgd1na2vs0mg"},{"bike_id":"9c413fb1-8955-4528-ba15-78d41b7bda61","system_id":"levelo_inurba_marseille","lat":43.28721,"lon":5.36074,"is_reserved":false,"is_disabled":false,"rental_uris":{"android":"levelo://app?vid=9c413fb1-8955-4528-ba15-78d41b7bda61","ios":"levelo://app?vid=9c413fb1-8955-4528-ba15-78d41b7bda61"},"vehicle_type_id":"4","last_reported":1736579262,"current_range_meters":38800,"station_id":"cki0cbj6b192h4jlfktg","pricing_plan_id":"cebpf4jnsgd1na2vs0mg"},{"bike_id":"87c3ade5-5b5d-4fc5-a54f-31056d132ad4","system_id":"levelo_inurba_marseille","lat":43.27571,"lon":5.3841,"is_reserved":false,"is_disabled":false,"rental_uris":{"android":"levelo://app?vid=87c3ade5-5b5d-4fc5-a54f-31056d132ad4","ios":"levelo://app?vid=87c3ade5-5b5d-4fc5-a54f-31056d132ad4"},"vehicle_type_id":"4","last_reported":1736579262,"current_range_meters":33200,"station_id":"ce4bhh92rcd13ifvqfi0","pricing_plan_id":"cebpf4jnsgd1na2vs0mg"},{"bike_id":"9be01537-e054-45c4-92d8-0b0eb1e034b4","system_id":"levelo_inurba_marseille","lat":43.278186,"lon":5.407116,"is_reserved":false,"is_disabled":false,"rental_uris":{"android":"levelo://app?vid=9be01537-e054-45c4-92d8-0b0eb1e034b4","ios":"levelo://app?vid=9be01537-e054-45c4-92d8-0b0eb1e034b4"},"vehicle_type_id":"4","last_reported":1736579262,"current_range_meters":38800,"station_id":"ce4bhnh2rcd13ifvqgtg","pricing_plan_id":"cebpf4jnsgd1na2vs0mg"},{"bike_id":"22b3f247-bf1f-493d-8d75-89304a76ad0b","system_id":"levelo_inurba_marseille","lat":43.27493,"lon":5.42454,"is_reserved":false,"is_disabled":false,"rental_uris":{"android":"levelo://app?vid=22b3f247-bf1f-493d-8d75-89304a76ad0b","ios":"levelo://app?vid=22b3f247-bf1f-493d-8d75-89304a76ad0b"},"vehicle_type_id":"4","last_reported":1736579262,"current_range_meters":32400,"station_id":"ce4bhn92rcd13ifvqgrg","pricing_plan_id":"cebpf4jnsgd1na2vs0mg"},{"bike_id":"85484f10-51a2-483d-b3e8-f9cd8e11b722","system_id":"levelo_inurba_marseille","lat":43.29043,"lon":5.39951,"is_reserved":false,"is_disabled":false,"rental_uris":{"android":"levelo://app?vid=85484f10-51a2-483d-b3e8-f9cd8e11b722","ios":"levelo://app?vid=85484f10-51a2-483d-b3e8-f9cd8e11b722"},"vehicle_type_id":"4","last_reported":1736579262,"current_range_meters":20400,"station_id":"ce4bh392rcd13ifvqdm0","pricing_plan_id":"cebpf4jnsgd1na2vs0mg"},{"bike_id":"e6f7d7e2-d224-4aea-aab6-683e10be3675","system_id":"levelo_inurba_marseille","lat":43.288378,"lon":5.35835,"is_reserved":false,"is_disabled":false,"rental_uris":{"android":"levelo://app?vid=e6f7d7e2-d224-4aea-aab6-683e10be3675","ios":"levelo://app?vid=e6f7d7e2-d224-4aea-aab6-683e10be3675"},"vehicle_type_id":"4","last_reported":1736579262,"current_range_meters":36400,"station_id":"ce4bhb12rcd13ifvqem0","pricing_plan_id":"cebpf4jnsgd1na2vs0mg"},{"bike_id":"38cdaef5-f35d-4e8a-a90b-854df294e43a","system_id":"levelo_inurba_marseille","lat":43.30638,"lon":5.40066,"is_reserved":false,"is_disabled":true,"rental_uris":{"android":"levelo://app?vid=38cdaef5-f35d-4e8a-a90b-854df294e43a","ios":"levelo://app?vid=38cdaef5-f35d-4e8a-a90b-854df294e43a"},"vehicle_type_id":"4","last_reported":1736579262,"current_range_meters":0,"station_id":"ce4bh112rcd13ifvqda0","pricing_plan_id":"cebpf4jnsgd1na2vs0mg"},{"bike_id":"f6071aa5-be8a-4ad9-aee5-14dfd3eef30b","system_id":"levelo_inurba_marseille","lat":43.31486,"lon":5.37293,"is_reserved":false,"is_disabled":false,"rental_uris":{"android":"levelo://app?vid=f6071aa5-be8a-4ad9-aee5-14dfd3eef30b","ios":"levelo://app?vid=f6071aa5-be8a-4ad9-aee5-14dfd3eef30b"},"vehicle_type_id":"4","last_reported":1736579262,"current_range_meters":38800,"station_id":"ce4bgt12rcd13ifvqcd0","pricing_plan_id":"cebpf4jnsgd1na2vs0mg"},{"bike_id":"1e2223a2-c032-49e7-8dbf-982df86a0520","system_id":"levelo_inurba_marseille","lat":43.22919,"lon":5.35377,"is_reserved":false,"is_disabled":false,"rental_uris":{"android":"levelo://app?vid=1e2223a2-c032-49e7-8dbf-982df86a0520","ios":"levelo://app?vid=1e2223a2-c032-49e7-8dbf-982df86a0520"},"vehicle_type_id":"4","last_reported":1736579262,"current_range_meters":29600,"station_id":"cpo3532slgdg3j2ikp40","pricing_plan_id":"cebpf4jnsgd1na2vs0mg"},{"bike_id":"7042dd75-b7d4-4323-a32c-b213e72ea8eb","system_id":"levelo_inurba_marseille","lat":43.30116,"lon":5.39862,"is_reserved":false,"is_disabled":false,"rental_uris":{"android":"levelo://app?vid=7042dd75-b7d4-4323-a32c-b213e72ea8eb","ios":"levelo://app?vid=7042dd75-b7d4-4323-a32c-b213e72ea8eb"},"vehicle_type_id":"4","last_reported":1736579262,"current_range_meters":36400,"station_id":"ce4bh0h2rcd13ifvqd40","pricing_plan_id":"cebpf4jnsgd1na2vs0mg"},{"bike_id":"aa8ac0ca-89b2-472c-abe3-0a86d5057c87","system_id":"levelo_inurba_marseille","lat":43.26054,"lon":5.39383,"is_reserved":false,"is_disabled":false,"rental_uris":{"android":"levelo://app?vid=aa8ac0ca-89b2-472c-abe3-0a86d5057c87","ios":"levelo://app?vid=aa8ac0ca-89b2-472c-abe3-0a86d5057c87"},"vehicle_type_id":"4","last_reported":1736579262,"current_range_meters":6800,"station_id":"ce4bhh92rcd13ifvqfj0","pricing_plan_id":"cebpf4jnsgd1na2vs0mg"},{"bike_id":"5f2cf356-122a-4d24-85ba-e38bc4612223","system_id":"levelo_inurba_marseille","lat":43.2558,"lon":5.38224,"is_reserved":false,"is_disabled":true,"rental_uris":{"android":"levelo://app?vid=5f2cf356-122a-4d24-85ba-e38bc4612223","ios":"levelo://app?vid=5f2cf356-122a-4d24-85ba-e38bc4612223"},"vehicle_type_id":"4","last_reported":1736579262,"current_range_meters":34800,"station_id":"ce4bhih2rcd13ifvqfs0","pricing_plan_id":"cebpf4jnsgd1na2vs0mg"},{"bike_id":"be8a233f-ad85-41b2-af03-bfa1e3033438","system_id":"levelo_inurba_marseille","lat":43.2321,"lon":5.35545,"is_reserved":false,"is_disabled":false,"rental_uris":{"android":"levelo://app?vid=be8a233f-ad85-41b2-af03-bfa1e3033438","ios":"levelo://app?vid=be8a233f-ad85-41b2-af03-bfa1e3033438"},"vehicle_type_id":"4","last_reported":1736579262,"current_range_meters":20800,"station_id":"ce4bhu92rcd13ifvqi70","pricing_plan_id":"cebpf4jnsgd1na2vs0mg"},{"bike_id":"d7284d59-0fa0-4e55-88c3-9102035d8a99","system_id":"levelo_inurba_marseille","lat":43.30238,"lon":5.40047,"is_reserved":false,"is_disabled":true,"rental_uris":{"android":"levelo://app?vid=d7284d59-0fa0-4e55-88c3-9102035d8a99","ios":"levelo://app?vid=d7284d59-0fa0-4e55-88c3-9102035d8a99"},"vehicle_type_id":"4","last_reported":1736579262,"current_range_meters":10000,"station_id":"ce4bgvh2rcd13ifvqcs0","pricing_plan_id":"cebpf4jnsgd1na2vs0mg"},{"bike_id":"c5d1d69e-d576-4c18-9575-313b82dc76db","system_id":"levelo_inurba_marseille","lat":43.28606,"lon":5.37068,"is_reserved":false,"is_disabled":false,"rental_uris":{"android":"levelo://app?vid=c5d1d69e-d576-4c18-9575-313b82dc76db","ios":"levelo://app?vid=c5d1d69e-d576-4c18-9575-313b82dc76db"},"vehicle_type_id":"4","last_reported":1736579262,"current_range_meters":25600,"station_id":"ce4bht12rcd13ifvqi60","pricing_plan_id":"cebpf4jnsgd1na2vs0mg"},{"bike_id":"6f217313-e82a-4ced-ad03-cd53b8b45ef1","system_id":"levelo_inurba_marseille","lat":43.29909,"lon":5.37815,"is_reserved":false,"is_disabled":false,"rental_uris":{"android":"levelo://app?vid=6f217313-e82a-4ced-ad03-cd53b8b45ef1","ios":"levelo://app?vid=6f217313-e82a-4ced-ad03-cd53b8b45ef1"},"vehicle_type_id":"4","last_reported":1736579262,"current_range_meters":16800,"station_id":"","pricing_plan_id":"cebpf4jnsgd1na2vs0mg"},{"bike_id":"049cc9e4-2f8e-4d46-986b-fac77d19d852","system_id":"levelo_inurba_marseille","lat":43.305513,"lon":5.365325,"is_reserved":false,"is_disabled":false,"rental_uris":{"android":"levelo://app?vid=049cc9e4-2f8e-4d46-986b-fac77d19d852","ios":"levelo://app?vid=049cc9e4-2f8e-4d46-986b-fac77d19d852"},"vehicle_type_id":"4","last_reported":1736579262,"current_range_meters":37600,"station_id":"ce4bgs12rcd13ifvqcag","pricing_plan_id":"cebpf4jnsgd1na2vs0mg"},{"bike_id":"fe947a9b-e256-4748-8819-d7de9b18287a","system_id":"levelo_inurba_marseille","lat":43.26931,"lon":5.38926,"is_reserved":false,"is_disabled":false,"rental_uris":{"android":"levelo://app?vid=fe947a9b-e256-4748-8819-d7de9b18287a","ios":"levelo://app?vid=fe947a9b-e256-4748-8819-d7de9b18287a"},"vehicle_type_id":"4","last_reported":1736579262,"current_range_meters":33200,"station_id":"ce4bhhh2rcd13ifvqfl0","pricing_plan_id":"cebpf4jnsgd1na2vs0mg"},{"bike_id":"bd5a03fb-294d-4244-a230-4aab97da9d6f","system_id":"levelo_inurba_marseille","lat":43.30925,"lon":5.40134,"is_reserved":false,"is_disabled":false,"rental_uris":{"android":"levelo://app?vid=bd5a03fb-294d-4244-a230-4aab97da9d6f","ios":"levelo://app?vid=bd5a03fb-294d-4244-a230-4aab97da9d6f"},"vehicle_type_id":"4","last_reported":1736579262,"current_range_meters":22800,"station_id":"ce4bgvp2rcd13ifvqct0","pricing_plan_id":"cebpf4jnsgd1na2vs0mg"},{"bike_id":"57f5a8a9-f2e5-4673-966d-ca04b8d8c8e6","system_id":"levelo_inurba_marseille","lat":43.31117,"lon":5.37753,"is_reserved":false,"is_disabled":false,"rental_uris":{"android":"levelo://app?vid=57f5a8a9-f2e5-4673-966d-ca04b8d8c8e6","ios":"levelo://app?vid=57f5a8a9-f2e5-4673-966d-ca04b8d8c8e6"},"vehicle_type_id":"4","last_reported":1736579262,"current_range_meters":8000,"station_id":"ce4bgt92rcd13ifvqcg0","pricing_plan_id":"cebpf4jnsgd1na2vs0mg"},{"bike_id":"85427a88-99f5-4856-b496-8ef79c1ec2f5","system_id":"levelo_inurba_marseille","lat":43.246709,"lon":5.381664,"is_reserved":false,"is_disabled":false,"rental_uris":{"android":"levelo://app?vid=85427a88-99f5-4856-b496-8ef79c1ec2f5","ios":"levelo://app?vid=85427a88-99f5-4856-b496-8ef79c1ec2f5"},"vehicle_type_id":"4","last_reported":1736579262,"current_range_meters":35600,"station_id":"ce4bhih2rcd13ifvqfr0","pricing_plan_id":"cebpf4jnsgd1na2vs0mg"},{"bike_id":"65388605-1a70-4c58-b461-d0046c57c728","system_id":"levelo_inurba_marseille","lat":43.31488,"lon":5.373,"is_reserved":false,"is_disabled":false,"rental_uris":{"android":"levelo://app?vid=65388605-1a70-4c58-b461-d0046c57c728","ios":"levelo://app?vid=65388605-1a70-4c58-b461-d0046c57c728"},"vehicle_type_id":"4","last_reported":1736579262,"current_range_meters":16000,"station_id":"ce4bgt12rcd13ifvqcd0","pricing_plan_id":"cebpf4jnsgd1na2vs0mg"},{"bike_id":"6d62c332-8463-4361-8de6-c419ab720f3d","system_id":"levelo_inurba_marseille","lat":43.28075,"lon":5.39651,"is_reserved":false,"is_disabled":false,"rental_uris":{"android":"levelo://app?vid=6d62c332-8463-4361-8de6-c419ab720f3d","ios":"levelo://app?vid=6d62c332-8463-4361-8de6-c419ab720f3d"},"vehicle_type_id":"4","last_reported":1736579262,"current_range_meters":28400,"station_id":"ce4bho12rcd13ifvqh2g","pricing_plan_id":"cebpf4jnsgd1na2vs0mg"},{"bike_id":"78c8047f-e41a-4487-8427-e1ed61d400e6","system_id":"levelo_inurba_marseille","lat":43.24082,"lon":5.37738,"is_reserved":false,"is_disabled":false,"rental_uris":{"android":"levelo://app?vid=78c8047f-e41a-4487-8427-e1ed61d400e6","ios":"levelo://app?vid=78c8047f-e41a-4487-8427-e1ed61d400e6"},"vehicle_type_id":"4","last_reported":1736579262,"current_range_meters":21600,"station_id":"ce4bhnp2rcd13ifvqgvg","pricing_plan_id":"cebpf4jnsgd1na2vs0mg"},{"bike_id":"10b087d3-b27a-4384-ae75-250401046e12","system_id":"levelo_inurba_marseille","lat":43.31519,"lon":5.38038,"is_reserved":false,"is_disabled":false,"rental_uris":{"android":"levelo://app?vid=10b087d3-b27a-4384-ae75-250401046e12","ios":"levelo://app?vid=10b087d3-b27a-4384-ae75-250401046e12"},"vehicle_type_id":"4","last_reported":1736579262,"current_range_meters":38400,"station_id":"ce4bhsp2rcd13ifvqi50","pricing_plan_id":"cebpf4jnsgd1na2vs0mg"},{"bike_id":"cbc47527-3ca1-4448-a53a-1fa30b5ad082","system_id":"levelo_inurba_marseille","lat":43.28442,"lon":5.39182,"is_reserved":false,"is_disabled":false,"rental_uris":{"android":"levelo://app?vid=cbc47527-3ca1-4448-a53a-1fa30b5ad082","ios":"levelo://app?vid=cbc47527-3ca1-4448-a53a-1fa30b5ad082"},"vehicle_type_id":"4","last_reported":1736579262,"current_range_meters":8800,"station_id":"ce4bhoh2rcd13ifvqh5g","pricing_plan_id":"cebpf4jnsgd1na2vs0mg"},{"bike_id":"ad28bd53-1c8c-44ea-9a1c-1e5a5b2498fe","system_id":"levelo_inurba_marseille","lat":43.24168,"lon":5.3641,"is_reserved":false,"is_disabled":false,"rental_uris":{"android":"levelo://app?vid=ad28bd53-1c8c-44ea-9a1c-1e5a5b2498fe","ios":"levelo://app?vid=ad28bd53-1c8c-44ea-9a1c-1e5a5b2498fe"},"vehicle_type_id":"4","last_reported":1736579262,"current_range_meters":8000,"station_id":"cpo36qri1sfpv3e86is0","pricing_plan_id":"cebpf4jnsgd1na2vs0mg"},{"bike_id":"30b4f19a-5b8b-4ac5-8a89-8b14fe041003","system_id":"levelo_inurba_marseille","lat":43.24805,"lon":5.37449,"is_reserved":false,"is_disabled":false,"rental_uris":{"android":"levelo://app?vid=30b4f19a-5b8b-4ac5-8a89-8b14fe041003","ios":"levelo://app?vid=30b4f19a-5b8b-4ac5-8a89-8b14fe041003"},"vehicle_type_id":"4","last_reported":1736579262,"current_range_meters":19600,"station_id":"ce4bhgh2rcd13ifvqfb0","pricing_plan_id":"cebpf4jnsgd1na2vs0mg"},{"bike_id":"ad746cf8-4245-4698-b3cf-55cfec0266f7","system_id":"levelo_inurba_marseille","lat":43.25858,"lon":5.39902,"is_reserved":false,"is_disabled":false,"rental_uris":{"android":"levelo://app?vid=ad746cf8-4245-4698-b3cf-55cfec0266f7","ios":"levelo://app?vid=ad746cf8-4245-4698-b3cf-55cfec0266f7"},"vehicle_type_id":"4","last_reported":1736579262,"current_range_meters":38000,"station_id":"ce4bhl92rcd13ifvqghg","pricing_plan_id":"cebpf4jnsgd1na2vs0mg"},{"bike_id":"dbd9b530-fed1-4d45-bb60-d02086423e0f","system_id":"levelo_inurba_marseille","lat":43.27177,"lon":5.40993,"is_reserved":false,"is_disabled":false,"rental_uris":{"android":"levelo://app?vid=dbd9b530-fed1-4d45-bb60-d02086423e0f","ios":"levelo://app?vid=dbd9b530-fed1-4d45-bb60-d02086423e0f"},"vehicle_type_id":"4","last_reported":1736579262,"current_range_meters":38800,"station_id":"ce4bhl12rcd13ifvqgf0","pricing_plan_id":"cebpf4jnsgd1na2vs0mg"},{"bike_id":"04dafb08-87ad-4cfe-be8b-3c9f0fe86a42","system_id":"levelo_inurba_marseille","lat":43.25828,"lon":5.39427,"is_reserved":false,"is_disabled":false,"rental_uris":{"android":"levelo://app?vid=04dafb08-87ad-4cfe-be8b-3c9f0fe86a42","ios":"levelo://app?vid=04dafb08-87ad-4cfe-be8b-3c9f0fe86a42"},"vehicle_type_id":"4","last_reported":1736579262,"current_range_meters":18000,"station_id":"ce4bhip2rcd13ifvqft0","pricing_plan_id":"cebpf4jnsgd1na2vs0mg"},{"bike_id":"edc2e534-d1c4-4d9c-a67c-87dfaa1de669","system_id":"levelo_inurba_marseille","lat":43.28617,"lon":5.35101,"is_reserved":false,"is_disabled":false,"rental_uris":{"android":"levelo://app?vid=edc2e534-d1c4-4d9c-a67c-87dfaa1de669","ios":"levelo://app?vid=edc2e534-d1c4-4d9c-a67c-87dfaa1de669"},"vehicle_type_id":"4","last_reported":1736579262,"current_range_meters":6000,"station_id":"ce4bhch2rcd13ifvqeug","pricing_plan_id":"cebpf4jnsgd1na2vs0mg"},{"bike_id":"b5a31aab-1574-4a6b-8401-1e0a2c59ce4b","system_id":"levelo_inurba_marseille","lat":43.27838,"lon":5.39223,"is_reserved":false,"is_disabled":false,"rental_uris":{"android":"levelo://app?vid=b5a31aab-1574-4a6b-8401-1e0a2c59ce4b","ios":"levelo://app?vid=b5a31aab-1574-4a6b-8401-1e0a2c59ce4b"},"vehicle_type_id":"4","last_reported":1736579262,"current_range_meters":24000,"station_id":"ce4bhjp2rcd13ifvqga0","pricing_plan_id":"cebpf4jnsgd1na2vs0mg"},{"bike_id":"2d18369b-801b-4b4a-903b-d976e9a33c0d","system_id":"levelo_inurba_marseille","lat":43.25822,"lon":5.39433,"is_reserved":false,"is_disabled":false,"rental_uris":{"android":"levelo://app?vid=2d18369b-801b-4b4a-903b-d976e9a33c0d","ios":"levelo://app?vid=2d18369b-801b-4b4a-903b-d976e9a33c0d"},"vehicle_type_id":"4","last_reported":1736579262,"current_range_meters":30800,"station_id":"ce4bhip2rcd13ifvqft0","pricing_plan_id":"cebpf4jnsgd1na2vs0mg"},{"bike_id":"8b88170d-e695-4530-8583-a66b3ec41a93","system_id":"levelo_inurba_marseille","lat":43.33604,"lon":5.41049,"is_reserved":false,"is_disabled":false,"rental_uris":{"android":"levelo://app?vid=8b88170d-e695-4530-8583-a66b3ec41a93","ios":"levelo://app?vid=8b88170d-e695-4530-8583-a66b3ec41a93"},"vehicle_type_id":"4","last_reported":1736579262,"current_range_meters":12800,"station_id":"ce4bhqh2rcd13ifvqhmg","pricing_plan_id":"cebpf4jnsgd1na2vs0mg"},{"bike_id":"3a16c1ee-f720-45eb-bdaf-ae71c9e16faf","system_id":"levelo_inurba_marseille","lat":43.32547,"lon":5.41468,"is_reserved":false,"is_disabled":false,"rental_uris":{"android":"levelo://app?vid=3a16c1ee-f720-45eb-bdaf-ae71c9e16faf","ios":"levelo://app?vid=3a16c1ee-f720-45eb-bdaf-ae71c9e16faf"},"vehicle_type_id":"4","last_reported":1736579262,"current_range_meters":38000,"station_id":"ce4bhq12rcd13ifvqhhg","pricing_plan_id":"cebpf4jnsgd1na2vs0mg"},{"bike_id":"b8acbba0-a715-4ced-a2aa-0517db10ac9d","system_id":"levelo_inurba_marseille","lat":43.229242,"lon":5.353759,"is_reserved":false,"is_disabled":true,"rental_uris":{"android":"levelo://app?vid=b8acbba0-a715-4ced-a2aa-0517db10ac9d","ios":"levelo://app?vid=b8acbba0-a715-4ced-a2aa-0517db10ac9d"},"vehicle_type_id":"4","last_reported":1736579262,"current_range_meters":36800,"station_id":"cpo3532slgdg3j2ikp40","pricing_plan_id":"cebpf4jnsgd1na2vs0mg"},{"bike_id":"93eae98b-5ccf-4ee7-9d96-0e4060f411f2","system_id":"levelo_inurba_marseille","lat":43.2396,"lon":5.36651,"is_reserved":false,"is_disabled":false,"rental_uris":{"android":"levelo://app?vid=93eae98b-5ccf-4ee7-9d96-0e4060f411f2","ios":"levelo://app?vid=93eae98b-5ccf-4ee7-9d96-0e4060f411f2"},"vehicle_type_id":"4","last_reported":1736579262,"current_range_meters":28800,"station_id":"ce4bhi12rcd13ifvqfp0","pricing_plan_id":"cebpf4jnsgd1na2vs0mg"},{"bike_id":"55d6bc39-d199-4c02-aa2e-392175452eee","system_id":"levelo_inurba_marseille","lat":43.24658,"lon":5.38173,"is_reserved":false,"is_disabled":false,"rental_uris":{"android":"levelo://app?vid=55d6bc39-d199-4c02-aa2e-392175452eee","ios":"levelo://app?vid=55d6bc39-d199-4c02-aa2e-392175452eee"},"vehicle_type_id":"4","last_reported":1736579262,"current_range_meters":14800,"station_id":"ce4bhih2rcd13ifvqfr0","pricing_plan_id":"cebpf4jnsgd1na2vs0mg"},{"bike_id":"47894883-9411-4bd7-8b31-81ed1947cbf2","system_id":"levelo_inurba_marseille","lat":43.27981,"lon":5.41647,"is_reserved":false,"is_disabled":false,"rental_uris":{"android":"levelo://app?vid=47894883-9411-4bd7-8b31-81ed1947cbf2","ios":"levelo://app?vid=47894883-9411-4bd7-8b31-81ed1947cbf2"},"vehicle_type_id":"4","last_reported":1736579262,"current_range_meters":32000,"station_id":"ce4bho12rcd13ifvqh1g","pricing_plan_id":"cebpf4jnsgd1na2vs0mg"},{"bike_id":"0678955c-edb4-4b5b-90a2-6f15544e4612","system_id":"levelo_inurba_marseille","lat":43.28259,"lon":5.35067,"is_reserved":false,"is_disabled":false,"rental_uris":{"android":"levelo://app?vid=0678955c-edb4-4b5b-90a2-6f15544e4612","ios":"levelo://app?vid=0678955c-edb4-4b5b-90a2-6f15544e4612"},"vehicle_type_id":"4","last_reported":1736579262,"current_range_meters":38000,"station_id":"ce4bhbp2rcd13ifvqerg","pricing_plan_id":"cebpf4jnsgd1na2vs0mg"},