{"last_updated":1687205193,"ttl":30,"version":"2.2","data":{"bikes":[{"bike_id":"0fe6c353-6499-4357-a7f0-44df91633bcf","system_id":"levelo_inurba_marseille","lat":43.31341,"lon":5.367098,"is_reserved":false,"is_disabled":false,"rental_uris":{"android":"levelo://app?vid=0fe6c353-6499-4357-a7f0-44df91633bcf","ios":"levelo://app?vid=0fe6c353-6499-4357-a7f0-44df91633bcf"},"vehicle_type_id":"4","last_reported":1687205194,"current_range_meters":2800,"station_id":"ce4bgr92rcd13ifvqc6g","pricing_plan_id":"free"},{"bike_id":"b5ac4b97-9a94-457f-a575-e6d25dffa009","system_id":"levelo_inurba_marseille","lat":43.313391,"lon":5.36706,"is_reserved":false,"is_disabled":false,"rental_uris":{"android":"levelo://app?vid=b5ac4b97-9a94-457f-a575-e6d25dffa009","ios":"levelo://app?vid=b5ac4b97-9a94-457f-a575-e6d25dffa009"},"vehicle_type_id":"4","last_reported":1687205194,"current_range_meters":4000,"station_id":"ce4bgr92rcd13ifvqc6g","pricing_plan_id":"free"},{"bike_id":"3790bd2c-cdf4-4c58-b4a0-83637b70aa45","system_id":"levelo_inurba_marseille","lat":43.308606,"lon":5.372099,"is_reserved":false,"is_disabled":false,"rental_uris":{"android":"levelo://app?vid=3790bd2c-cdf4-4c58-b4a0-83637b70aa45","ios":"levelo://app?vid=3790bd2c-cdf4-4c58-b4a0-83637b70aa45"},"vehicle_type_id":"4","last_reported":1687205194,"current_range_meters":23600,"station_id":"ce4bguh2rcd13ifvqckg","pricing_plan_id":"free"},{"bike_id":"dbbec664-0198-49df-a23d-9ff50ab09d11","system_id":"levelo_inurba_marseille","lat":43.308606,"lon":5.372099,"is_reserved":false,"is_disabled":false,"rental_uris":{"android":"levelo://app?vid=dbbec664-0198-49df-a23d-9ff50ab09d11","ios":"levelo://app?vid=dbbec664-0198-49df-a23d-9ff50ab09d11"},"vehicle_type_id":"4","last_reported":1687205194,"current_range_meters":26800,"station_id":"ce4bguh2rcd13ifvqckg","pricing_plan_id":"free"},{"bike_id":"99337b18-7415-427e-9a4c-577a3c61786c","system_id":"levelo_inurba_marseille","lat":43.308606,"lon":5.372099,"is_reserved":false,"is_disabled":false,"rental_uris":{"android":"levelo://app?vid=99337b18-7415-427e-9a4c-577a3c61786c","ios":"levelo://app?vid=99337b18-7415-427e-9a4c-577a3c61786c"},"vehicle_type_id":"4","last_reported":1687205194,"current_range_meters":9200,"station_id":"ce4bguh2rcd13ifvqckg","pricing_plan_id":"free"},{"bike_id":"addb8dd8-a70a-4c19-977f-ec5bdcc74995","system_id":"levelo_inurba_marseille","lat":43.308614,"lon":5.372098,"is_reserved":false,"is_disabled":false,"rental_uris":{"android":"levelo://app?vid=addb8dd8-a70a-4c19-977f-ec5bdcc74995","ios":"levelo://app?vid=addb8dd8-a70a-4c19-977f-ec5bdcc74995"},"vehicle_type_id":"4","last_reported":1687205194,"current_range_meters":7200,"station_id":"ce4bguh2rcd13ifvqckg","pricing_plan_id":"free"},{"bike_id":"e6450de7-59f2-49a8-a38b-1b3318208631","system_id":"levelo_inurba_marseille","lat":43.308606,"lon":5.372099,"is_reserved":false,"is_disabled":false,"rental_uris":{"android":"levelo://app?vid=e6450de7-59f2-49a8-a38b-1b3318208631","ios":"levelo://app?vid=e6450de7-59f2-49a8-a38b-1b3318208631"},"vehicle_type_id":"4","last_reported":1687205194,"current_range_meters":15200,"station_id":"ce4bguh2rcd13ifvqckg","pricing_plan_id":"free"},{"bike_id":"6eb2d025-77f2-46fb-a6de-ba5fdf1407cf","system_id":"levelo_inurba_marseille","lat":43.31879,"lon":5.37289,"is_reserved":false,"is_disabled":false,"rental_uris":{"android":"levelo://app?vid=6eb2d025-77f2-46fb-a6de-ba5fdf1407cf","ios":"levelo://app?vid=6eb2d025-77f2-46fb-a6de-ba5fdf1407cf"},"vehicle_type_id":"4","last_reported":1687205194,"current_range_meters":0,"station_id":"","pricing_plan_id":"free"},{"bike_id":"f2d0eef9-249f-41ad-8d56-e6c16080ac05","system_id":"levelo_inurba_marseille","lat":43.305714,"lon":5.365633,"is_reserved":false,"is_disabled":false,"rental_uris":{"android":"levelo://app?vid=f2d0eef9-249f-41ad-8d56-e6c16080ac05","ios":"levelo://app?vid=f2d0eef9-249f-41ad-8d56-e6c16080ac05"},"vehicle_type_id":"4","last_reported":1687205194,"current_range_meters":12400,"station_id":"ce4bgs12rcd13ifvqcag","pricing_plan_id":"free"},{"bike_id":"7ab35d12-1b61-4b8e-afee-4e5552c6bb50","system_id":"levelo_inurba_marseille","lat":43.311131,"lon":5.377651,"is_reserved":false,"is_disabled":false,"rental_uris":{"android":"levelo://app?vid=7ab35d12-1b61-4b8e-afee-4e5552c6bb50","ios":"levelo://app?vid=7ab35d12-1b61-4b8e-afee-4e5552c6bb50"},"vehicle_type_id":"4","last_reported":1687205194,"current_range_meters":7600,"station_id":"ce4bgt92rcd13ifvqcg0","pricing_plan_id":"free"},{"bike_id":"21ae993f-c395-45d8-ae5a-610a62504433","system_id":"levelo_inurba_marseille","lat":43.311131,"lon":5.377651,"is_reserved":false,"is_disabled":false,"rental_uris":{"android":"levelo://app?vid=21ae993f-c395-45d8-ae5a-610a62504433","ios":"levelo://app?vid=21ae993f-c395-45d8-ae5a-610a62504433"},"vehicle_type_id":"4","last_reported":1687205194,"current_range_meters":12400,"station_id":"ce4bgt92rcd13ifvqcg0","pricing_plan_id":"free"},{"bike_id":"524ec4e4-9f8c-464b-9441-4fd456170724","system_id":"levelo_inurba_marseille","lat":43.311131,"lon":5.377651,"is_reserved":false,"is_disabled":false,"rental_uris":{"android":"levelo://app?vid=524ec4e4-9f8c-464b-9441-4fd456170724","ios":"levelo://app?vid=524ec4e4-9f8c-464b-9441-4fd456170724"},"vehicle_type_id":"4","last_reported":1687205194,"current_range_meters":26400,"station_id":"ce4bgt92rcd13ifvqcg0","pricing_plan_id":"free"},{"bike_id":"e7d8dcdd-da52-4aa1-b7f7-a9e0e13cdabb","system_id":"levelo_inurba_marseille","lat":43.311125,"lon":5.377624,"is_reserved":false,"is_disabled":false,"rental_uris":{"android":"levelo://app?vid=e7d8dcdd-da52-4aa1-b7f7-a9e0e13cdabb","ios":"levelo://app?vid=e7d8dcdd-da52-4aa1-b7f7-a9e0e13cdabb"},"vehicle_type_id":"4","last_reported":1687205194,"current_range_meters":22000,"station_id":"ce4bgt92rcd13ifvqcg0","pricing_plan_id":"free"},{"bike_id":"437b55da-ae1b-4617-8074-10600d92965c","system_id":"levelo_inurba_marseille","lat":43.311131,"lon":5.377651,"is_reserved":false,"is_disabled":false,"rental_uris":{"android":"levelo://app?vid=437b55da-ae1b-4617-8074-10600d92965c","ios":"levelo://app?vid=437b55da-ae1b-4617-8074-10600d92965c"},"vehicle_type_id":"4","last_reported":1687205194,"current_range_meters":25600,"station_id":"ce4bgt92rcd13ifvqcg0","pricing_plan_id":"free"},{"bike_id":"e394e8a3-8395-4593-825c-5dec0d725b94","system_id":"levelo_inurba_marseille","lat":43.30964,"lon":5.37962,"is_reserved":false,"is_disabled":false,"rental_uris":{"android":"levelo://app?vid=e394e8a3-8395-4593-825c-5dec0d725b94","ios":"levelo://app?vid=e394e8a3-8395-4593-825c-5dec0d725b94"},"vehicle_type_id":"4","last_reported":1687205194,"current_range_meters":18000,"station_id":"","pricing_plan_id":"free"},{"bike_id":"42ca8b03-b89a-4548-865c-54181a7d6b09","system_id":"levelo_inurba_marseille","lat":43.31537,"lon":5.38024,"is_reserved":false,"is_disabled":false,"rental_uris":{"android":"levelo://app?vid=42ca8b03-b89a-4548-865c-54181a7d6b09","ios":"levelo://app?vid=42ca8b03-b89a-4548-865c-54181a7d6b09"},"vehicle_type_id":"4","last_reported":1687205194,"current_range_meters":12000,"station_id":"ce4bhsp2rcd13ifvqi50","pricing_plan_id":"free"},{"bike_id":"9ad1cddf-b44e-42a0-9280-d2dc4c422719","system_id":"levelo_inurba_marseille","lat":43.315293,"lon":5.380349,"is_reserved":false,"is_disabled":false,"rental_uris":{"android":"levelo://app?vid=9ad1cddf-b44e-42a0-9280-d2dc4c422719","ios":"levelo://app?vid=9ad1cddf-b44e-42a0-9280-d2dc4c422719"},"vehicle_type_id":"4","last_reported":1687205194,"current_range_meters":8400,"station_id":"ce4bhsp2rcd13ifvqi50","pricing_plan_id":"free"},{"bike_id":"3a3b0222-de45-4a80-be95-f0781b4c3a5d","system_id":"levelo_inurba_marseille","lat":43.315289,"lon":5.380349,"is_reserved":false,"is_disabled":false,"rental_uris":{"android":"levelo://app?vid=3a3b0222-de45-4a80-be95-f0781b4c3a5d","ios":"levelo://app?vid=3a3b0222-de45-4a80-be95-f0781b4c3a5d"},"vehicle_type_id":"4","last_reported":1687205194,"current_range_meters":22400,"station_id":"ce4bhsp2rcd13ifvqi50","pricing_plan_id":"free"},{"bike_id":"ae33307b-fcd5-479b-9ae1-9002ed226c6e","system_id":"levelo_inurba_marseille","lat":43.308012,"lon":5.381511,"is_reserved":false,"is_disabled":false,"rental_uris":{"android":"levelo://app?vid=ae33307b-fcd5-479b-9ae1-9002ed226c6e","ios":"levelo://app?vid=ae33307b-fcd5-479b-9ae1-9002ed226c6e"},"vehicle_type_id":"4","last_reported":1687205194,"current_range_meters":24000,"station_id":"ce4bgt12rcd13ifvqce0","pricing_plan_id":"free"},{"bike_id":"9ee7b2a5-9a71-4aa8-b94c-79099d6313d7","system_id":"levelo_inurba_marseille","lat":43.308012,"lon":5.381511,"is_reserved":false,"is_disabled":false,"rental_uris":{"android":"levelo://app?vid=9ee7b2a5-9a71-4aa8-b94c-79099d6313d7","ios":"levelo://app?vid=9ee7b2a5-9a71-4aa8-b94c-79099d6313d7"},"vehicle_type_id":"4","last_reported":1687205194,"current_range_meters":21600,"station_id":"ce4bgt12rcd13ifvqce0","pricing_plan_id":"free"},{"bike_id":"2d7b0f81-f842-49ab-a5a5-0b7f7837518f","system_id":"levelo_inurba_marseille","lat":43.304606,"lon":5.379026,"is_reserved":false,"is_disabled":false,"rental_uris":{"android":"levelo://app?vid=2d7b0f81-f842-49ab-a5a5-0b7f7837518f","ios":"levelo://app?vid=2d7b0f81-f842-49ab-a5a5-0b7f7837518f"},"vehicle_type_id":"4","last_reported":1687205194,"current_range_meters":2400,"station_id":"ce4bgup2rcd13ifvqcn0","pricing_plan_id":"free"},{"bike_id":"11ece4dc-078d-4759-ab88-73bef5b937cc","system_id":"levelo_inurba_marseille","lat":43.304606,"lon":5.379026,"is_reserved":false,"is_disabled":false,"rental_uris":{"android":"levelo://app?vid=11ece4dc-078d-4759-ab88-73bef5b937cc","ios":"levelo://app?vid=11ece4dc-078d-4759-ab88-73bef5b937cc"},"vehicle_type_id":"4","last_reported":1687205194,"current_range_meters":0,"station_id":"ce4bgup2rcd13ifvqcn0","pricing_plan_id":"free"},{"bike_id":"5965d893-0a57-4cbe-b065-e9aa1470b3e6","system_id":"levelo_inurba_marseille","lat":43.304606,"lon":5.379026,"is_reserved":false,"is_disabled":false,"rental_uris":{"android":"levelo://app?vid=5965d893-0a57-4cbe-b065-e9aa1470b3e6","ios":"levelo://app?vid=5965d893-0a57-4cbe-b065-e9aa1470b3e6"},"vehicle_type_id":"4","last_reported":1687205194,"current_range_meters":0,"station_id":"ce4bgup2rcd13ifvqcn0","pricing_plan_id":"free"},{"bike_id":"93fe88cc-b61c-459d-803d-af234967ed83","system_id":"levelo_inurba_marseille","lat":43.30465,"lon":5.37912,"is_reserved":false,"is_disabled":false,"rental_uris":{"android":"levelo://app?vid=93fe88cc-b61c-459d-803d-af234967ed83","ios":"levelo://app?vid=93fe88cc-b61c-459d-803d-af234967ed83"},"vehicle_type_id":"4","last_reported":1687205194,"current_range_meters":0,"station_id":"ce4bgup2rcd13ifvqcn0","pricing_plan_id":"free"},{"bike_id":"43fc693e-f2a9-4aec-8fd9-d094bb02cb70","system_id":"levelo_inurba_marseille","lat":43.304606,"lon":5.379026,"is_reserved":false,"is_disabled":false,"rental_uris":{"android":"levelo://app?vid=43fc693e-f2a9-4aec-8fd9-d094bb02cb70","ios":"levelo://app?vid=43fc693e-f2a9-4aec-8fd9-d094bb02cb70"},"vehicle_type_id":"4","last_reported":1687205194,"current_range_meters":12400,"station_id":"ce4bgup2rcd13ifvqcn0","pricing_plan_id":"free"},{"bike_id":"b3bfb59c-60ea-4c21-bcf4-6279511c8802","system_id":"levelo_inurba_marseille","lat":43.302784,"lon":5.377158,"is_reserved":false,"is_disabled":false,"rental_uris":{"android":"levelo://app?vid=b3bfb59c-60ea-4c21-bcf4-6279511c8802","ios":"levelo://app?vid=b3bfb59c-60ea-4c21-bcf4-6279511c8802"},"vehicle_type_id":"4","last_reported":1687205194,"current_range_meters":22800,"station_id":"ce4bguh2rcd13ifvqcj0","pricing_plan_id":"free"},{"bike_id":"5ab790a9-b7bf-472a-aaf1-73b60ccb5218","system_id":"levelo_inurba_marseille","lat":43.319935,"lon":5.381699,"is_reserved":false,"is_disabled":false,"rental_uris":{"android":"levelo://app?vid=5ab790a9-b7bf-472a-aaf1-73b60ccb5218","ios":"levelo://app?vid=5ab790a9-b7bf-472a-aaf1-73b60ccb5218"},"vehicle_type_id":"4","last_reported":1687205194,"current_range_meters":4800,"station_id":"ce4bhr12rcd13ifvqhpg","pricing_plan_id":"free"},{"bike_id":"8846a4b4-eb37-461c-9af6-3503a780d1c9","system_id":"levelo_inurba_marseille","lat":43.30718,"lon":5.38332,"is_reserved":false,"is_disabled":false,"rental_uris":{"android":"levelo://app?vid=8846a4b4-eb37-461c-9af6-3503a780d1c9","ios":"levelo://app?vid=8846a4b4-eb37-461c-9af6-3503a780d1c9"},"vehicle_type_id":"4","last_reported":1687205194,"current_range_meters":16000,"station_id":"","pricing_plan_id":"free"},{"bike_id":"edb2068a-f845-41cf-9340-fd1019257168","system_id":"levelo_inurba_marseille","lat":43.311722,"lon":5.387247,"is_reserved":false,"is_disabled":false,"rental_uris":{"android":"levelo://app?vid=edb2068a-f845-41cf-9340-fd1019257168","ios":"levelo://app?vid=edb2068a-f845-41cf-9340-fd1019257168"},"vehicle_type_id":"4","last_reported":1687205194,"current_range_meters":14400,"station_id":"ce4bgv12rcd13ifvqcp0","pricing_plan_id":"free"},{"bike_id":"a218a88f-2ca2-44a8-ac63-fba7b3798958","system_id":"levelo_inurba_marseille","lat":43.299243,"lon":5.374807,"is_reserved":false,"is_disabled":false,"rental_uris":{"android":"levelo://app?vid=a218a88f-2ca2-44a8-ac63-fba7b3798958","ios":"levelo://app?vid=a218a88f-2ca2-44a8-ac63-fba7b3798958"},"vehicle_type_id":"4","last_reported":1687205194,"current_range_meters":800,"station_id":"ce4bgjh2rcd13ifvqbg0","pricing_plan_id":"free"},{"bike_id":"ed551a1d-28ad-435c-a319-316c408c0167","system_id":"levelo_inurba_marseille","lat":43.311722,"lon":5.387247,"is_reserved":false,"is_disabled":false,"rental_uris":{"android":"levelo://app?vid=ed551a1d-28ad-435c-a319-316c408c0167","ios":"levelo://app?vid=ed551a1d-28ad-435c-a319-316c408c0167"},"vehicle_type_id":"4","last_reported":1687205194,"current_range_meters":30800,"station_id":"ce4bgv12rcd13ifvqcp0","pricing_plan_id":"free"},{"bike_id":"484a5c09-87e6-4c62-8215-f53f46be9319","system_id":"levelo_inurba_marseille","lat":43.311722,"lon":5.387247,"is_reserved":false,"is_disabled":false,"rental_uris":{"android":"levelo://app?vid=484a5c09-87e6-4c62-8215-f53f46be9319","ios":"levelo://app?vid=484a5c09-87e6-4c62-8215-f53f46be9319"},"vehicle_type_id":"4","last_reported":1687205194,"current_range_meters":30400,"station_id":"ce4bgv12rcd13ifvqcp0","pricing_plan_id":"free"},{"bike_id":"80d7a99a-8c74-4bfc-84ff-917e3870565a","system_id":"levelo_inurba_marseille","lat":43.29787,"lon":5.37092,"is_reserved":false,"is_disabled":false,"rental_uris":{"android":"levelo://app?vid=80d7a99a-8c74-4bfc-84ff-917e3870565a","ios":"levelo://app?vid=80d7a99a-8c74-4bfc-84ff-917e3870565a"},"vehicle_type_id":"4","last_reported":1687205194,"current_range_meters":4800,"station_id":"ce4bgop2rcd13ifvqc1g","pricing_plan_id":"free"},{"bike_id":"832e1273-fa14-42aa-b411-4f520f45589b","system_id":"levelo_inurba_marseille","lat":43.328371,"lon":5.366909,"is_reserved":false,"is_disabled":false,"rental_uris":{"android":"levelo://app?vid=832e1273-fa14-42aa-b411-4f520f45589b","ios":"levelo://app?vid=832e1273-fa14-42aa-b411-4f520f45589b"},"vehicle_type_id":"4","last_reported":1687205194,"current_range_meters":11600,"station_id":"ce4bhs92rcd13ifvqi0g","pricing_plan_id":"free"},{"bike_id":"88891ba8-b823-4940-ae8b-8c5976032a51","system_id":"levelo_inurba_marseille","lat":43.328371,"lon":5.366909,"is_reserved":false,"is_disabled":false,"rental_uris":{"android":"levelo://app?vid=88891ba8-b823-4940-ae8b-8c5976032a51","ios":"levelo://app?vid=88891ba8-b823-4940-ae8b-8c5976032a51"},"vehicle_type_id":"4","last_reported":1687205194,"current_range_meters":22400,"station_id":"ce4bhs92rcd13ifvqi0g","pricing_plan_id":"free"},{"bike_id":"e93309f2-bd00-4c8f-a983-5dee94fd489b","system_id":"levelo_inurba_marseille","lat":43.328371,"lon":5.366909,"is_reserved":false,"is_disabled":false,"rental_uris":{"android":"levelo://app?vid=e93309f2-bd00-4c8f-a983-5dee94fd489b","ios":"levelo://app?vid=e93309f2-bd00-4c8f-a983-5dee94fd489b"},"vehicle_type_id":"4","last_reported":1687205194,"current_range_meters":30800,"station_id":"ce4bhs92rcd13ifvqi0g","pricing_plan_id":"free"},{"bike_id":"8c36a403-105d-454f-9b4d-de3a6095102f","system_id":"levelo_inurba_marseille","lat":43.328371,"lon":5.366909,"is_reserved":false,"is_disabled":false,"rental_uris":{"android":"levelo://app?vid=8c36a403-105d-454f-9b4d-de3a6095102f","ios":"levelo://app?vid=8c36a403-105d-454f-9b4d-de3a6095102f"},"vehicle_type_id":"4","last_reported":1687205194,"current_range_meters":10800,"station_id":"ce4bhs92rcd13ifvqi0g","pricing_plan_id":"free"},{"bike_id":"28c906fd-ae46-485e-8f81-ba6b6a7f661f","system_id":"levelo_inurba_marseille","lat":43.328371,"lon":5.366909,"is_reserved":false,"is_disabled":false,"rental_uris":{"android":"levelo://app?vid=28c906fd-ae46-485e-8f81-ba6b6a7f661f","ios":"levelo://app?vid=28c906fd-ae46-485e-8f81-ba6b6a7f661f"},"vehicle_type_id":"4","last_reported":1687205194,"current_range_meters":800,"station_id":"ce4bhs92rcd13ifvqi0g","pricing_plan_id":"free"},{"bike_id":"6f487f60-4214-4498-b676-89f74f02209c","system_id":"levelo_inurba_marseille","lat":43.328371,"lon":5.366909,"is_reserved":false,"is_disabled":false,"rental_uris":{"android":"levelo://app?vid=6f487f60-4214-4498-b676-89f74f02209c","ios":"levelo://app?vid=6f487f60-4214-4498-b676-89f74f02209c"},"vehicle_type_id":"4","last_reported":1687205194,"current_range_meters":18400,"station_id":"ce4bhs92rcd13ifvqi0g","pricing_plan_id":"free"},{"bike_id":"2a4c1dc3-4e3c-4ab9-bb46-5e19f27e0907","system_id":"levelo_inurba_marseille","lat":43.328371,"lon":5.366909,"is_reserved":false,"is_disabled":false,"rental_uris":{"android":"levelo://app?vid=2a4c1dc3-4e3c-4ab9-bb46-5e19f27e0907","ios":"levelo://app?vid=2a4c1dc3-4e3c-4ab9-bb46-5e19f27e0907"},"vehicle_type_id":"4","last_reported":1687205194,"current_range_meters":16000,"station_id":"ce4bhs92rcd13ifvqi0g","pricing_plan_id":"free"},{"bike_id":"f5c7f8b6-0397-45cd-aaf7-282381eb2475","system_id":"levelo_inurba_marseille","lat":43.29709,"lon":5.3661,"is_reserved":false,"is_disabled":false,"rental_uris":{"android":"levelo://app?vid=f5c7f8b6-0397-45cd-aaf7-282381eb2475","ios":"levelo://app?vid=f5c7f8b6-0397-45cd-aaf7-282381eb2475"},"vehicle_type_id":"4","last_reported":1687205194,"current_range_meters":29600,"station_id":"ce4bgn12rcd13ifvqbt0","pricing_plan_id":"free"},{"bike_id":"176f4894-d7fc-460e-aa5d-7c8c1e206dc3","system_id":"levelo_inurba_marseille","lat":43.29707,"lon":5.36613,"is_reserved":false,"is_disabled":false,"rental_uris":{"android":"levelo://app?vid=176f4894-d7fc-460e-aa5d-7c8c1e206dc3","ios":"levelo://app?vid=176f4894-d7fc-460e-aa5d-7c8c1e206dc3"},"vehicle_type_id":"4","last_reported":1687205194,"current_range_meters":28000,"station_id":"ce4bgn12rcd13ifvqbt0","pricing_plan_id":"free"},{"bike_id":"493b7ee3-0728-4205-925f-0f351e2364a3","system_id":"levelo_inurba_marseille","lat":43.2968,"lon":5.37291,"is_reserved":false,"is_disabled":false,"rental_uris":{"android":"levelo://app?vid=493b7ee3-0728-4205-925f-0f351e2364a3","ios":"levelo://app?vid=493b7ee3-0728-4205-925f-0f351e2364a3"},"vehicle_type_id":"4","last_reported":1687205194,"current_range_meters":22400,"station_id":"ce4bgk12rcd13ifvqbj0","pricing_plan_id":"free"},{"bike_id":"010175d9-288d-4236-bd7b-27129d9ea7bc","system_id":"levelo_inurba_marseille","lat":43.296131,"lon":5.370791,"is_reserved":false,"is_disabled":false,"rental_uris":{"android":"levelo://app?vid=010175d9-288d-4236-bd7b-27129d9ea7bc","ios":"levelo://app?vid=010175d9-288d-4236-bd7b-27129d9ea7bc"},"vehicle_type_id":"4","last_reported":1687205194,"current_range_meters":26000,"station_id":"ce4bgnh2rcd13ifvqc0g","pricing_plan_id":"free"},{"bike_id":"1dd974dc-f6a5-4bc5-a31c-7eaf93e24bc1","system_id":"levelo_inurba_marseille","lat":43.29573,"lon":5.367355,"is_reserved":false,"is_disabled":false,"rental_uris":{"android":"levelo://app?vid=1dd974dc-f6a5-4bc5-a31c-7eaf93e24bc1","ios":"levelo://app?vid=1dd974dc-f6a5-4bc5-a31c-7eaf93e24bc1"},"vehicle_type_id":"4","last_reported":1687205194,"current_range_meters":28000,"station_id":"ce4bgph2rcd13ifvqc2g","pricing_plan_id":"free"},{"bike_id":"1e3a9b2a-d432-4fe9-a8b7-353fe4345ecc","system_id":"levelo_inurba_marseille","lat":43.29573,"lon":5.367355,"is_reserved":false,"is_disabled":false,"rental_uris":{"android":"levelo://app?vid=1e3a9b2a-d432-4fe9-a8b7-353fe4345ecc","ios":"levelo://app?vid=1e3a9b2a-d432-4fe9-a8b7-353fe4345ecc"},"vehicle_type_id":"4","last_reported":1687205194,"current_range_meters":31200,"station_id":"ce4bgph2rcd13ifvqc2g","pricing_plan_id":"free"},{"bike_id":"38d1f81c-b9ce-45b9-80b0-9ef047975f81","system_id":"levelo_inurba_marseille","lat":43.29573,"lon":5.367355,"is_reserved":false,"is_disabled":false,"rental_uris":{"android":"levelo://app?vid=38d1f81c-b9ce-45b9-80b0-9ef047975f81","ios":"levelo://app?vid=38d1f81c-b9ce-45b9-80b0-9ef047975f81"},"vehicle_type_id":"4","last_reported":1687205194,"current_range_meters":6400,"station_id":"ce4bgph2rcd13ifvqc2g","pricing_plan_id":"free"},{"bike_id":"c3735140-f178-4ecb-9de3-c62eb294234a","system_id":"levelo_inurba_marseille","lat":43.29573,"lon":5.367355,"is_reserved":false,"is_disabled":false,"rental_uris":{"android":"levelo://app?vid=c3735140-f178-4ecb-9de3-c62eb294234a","ios":"levelo://app?vid=c3735140-f178-4ecb-9de3-c62eb294234a"},"vehicle_type_id":"4","last_reported":1687205194,"current_range_meters":22400,"station_id":"ce4bgph2rcd13ifvqc2g","pricing_plan_id":"free"},{"bike_id":"42bb0ac6-9188-4d1c-9972-f3df9226a99e","system_id":"levelo_inurba_marseille","lat":43.29573,"lon":5.367355,"is_reserved":false,"is_disabled":false,"rental_uris":{"android":"levelo://app?vid=42bb0ac6-9188-4d1c-9972-f3df9226a99e","ios":"levelo://app?vid=42bb0ac6-9188-4d1c-9972-f3df9226a99e"},"vehicle_type_id":"4","last_reported":1687205194,"current_range_meters":19600,"station_id":"ce4bgph2rcd13ifvqc2g","pricing_plan_id":"free"},{"bike_id":"6f015f4f-4936-481d-a0ad-da8b75100980","system_id":"levelo_inurba_marseille","lat":43.29573,"lon":5.367355,"is_reserved":false,"is_disabled":false,"rental_uris":{"android":"levelo://app?vid=6f015f4f-4936-481d-a0ad-da8b75100980","ios":"levelo://app?vid=6f015f4f-4936-481d-a0ad-da8b75100980"},"vehicle_type_id":"4","last_reported":1687205194,"current_range_meters":0,"station_id":"ce4bgph2rcd13ifvqc2g","pricing_plan_id":"free"},{"bike_id":"24f41ca5-b432-4feb-a0c8-a15026b97306","system_id":"levelo_inurba_marseille","lat":43.296131,"lon":5.370773,"is_reserved":false,"is_disabled":false,"rental_uris":{"android":"levelo://app?vid=24f41ca5-b432-4feb-a0c8-a15026b97306","ios":"levelo://app?vid=24f41ca5-b432-4feb-a0c8-a15026b97306"},"vehicle_type_id":"4","last_reported":1687205194,"current_range_meters":7200,"station_id":"ce4bgnh2rcd13ifvqc0g","pricing_plan_id":"free"},{"bike_id":"cefd5f06-46c6-482a-8f79-38019cce7ca9","system_id":"levelo_inurba_marseille","lat":43.29573,"lon":5.367355,"is_reserved":false,"is_disabled":false,"rental_uris":{"android":"levelo://app?vid=cefd5f06-46c6-482a-8f79-38019cce7ca9","ios":"levelo://app?vid=cefd5f06-46c6-482a-8f79-38019cce7ca9"},"vehicle_type_id":"4","last_reported":1687205194,"current_range_meters":8800,"station_id":"ce4bgph2rcd13ifvqc2g","pricing_plan_id":"free"},{"bike_id":"65905c9f-fc8c-4ec4-b637-71ab56d79cc9","system_id":"levelo_inurba_marseille","lat":43.299028,"lon":5.381509,"is_reserved":false,"is_disabled":false,"rental_uris":{"android":"levelo://app?vid=65905c9f-fc8c-4ec4-b637-71ab56d79cc9","ios":"levelo://app?vid=65905c9f-fc8c-4ec4-b637-71ab56d79cc9"},"vehicle_type_id":"4","last_reported":1687205194,"current_range_meters":7600,"station_id":"ce4bgj12rcd13ifvqbc0","pricing_plan_id":"free"},{"bike_id":"d14d09b5-e9ab-4295-9302-2aff47a3bed3","system_id":"levelo_inurba_marseille","lat":43.296921,"lon":5.376579,"is_reserved":false,"is_disabled":false,"rental_uris":{"android":"levelo://app?vid=d14d09b5-e9ab-4295-9302-2aff47a3bed3","ios":"levelo://app?vid=d14d09b5-e9ab-4295-9302-2aff47a3bed3"},"vehicle_type_id":"4","last_reported":1687205194,"current_range_meters":24000,"station_id":"ce4bgkh2rcd13ifvqbl0","pricing_plan_id":"free"},{"bike_id":"0e4c47a3-8b33-4180-baba-7180af8ae3b9","system_id":"levelo_inurba_marseille","lat":43.29709,"lon":5.37701,"is_reserved":false,"is_disabled":false,"rental_uris":{"android":"levelo://app?vid=0e4c47a3-8b33-4180-baba-7180af8ae3b9","ios":"levelo://app?vid=0e4c47a3-8b33-4180-baba-7180af8ae3b9"},"vehicle_type_id":"4","last_reported":1687205194,"current_range_meters":23200,"station_id":"","pricing_plan_id":"free"},{"bike_id":"b399f472-25b6-4ce7-b533-84b5e2fe11d9","system_id":"levelo_inurba_marseille","lat":43.296935,"lon":5.376544,"is_reserved":false,"is_disabled":false,"rental_uris":{"android":"levelo://app?vid=b399f472-25b6-4ce7-b533-84b5e2fe11d9","ios":"levelo://app?vid=b399f472-25b6-4ce7-b533-84b5e2fe11d9"},"vehicle_type_id":"4","last_reported":1687205194,"current_range_meters":2000,"station_id":"ce4bgkh2rcd13ifvqbl0","pricing_plan_id":"free"},{"bike_id":"66ec4041-f2cf-4d7a-80d6-c00c4785a809","system_id":"levelo_inurba_marseille","lat":43.299,"lon":5.38144,"is_reserved":false,"is_disabled":false,"rental_uris":{"android":"levelo://app?vid=66ec4041-f2cf-4d7a-80d6-c00c4785a809","ios":"levelo://app?vid=66ec4041-f2cf-4d7a-80d6-c00c4785a809"},"vehicle_type_id":"4","last_reported":1687205194,"current_range_meters":26000,"station_id":"ce4bgj12rcd13ifvqbc0","pricing_plan_id":"free"},{"bike_id":"ab137c87-7b5d-4a6d-b139-0e4813e4842d","system_id":"levelo_inurba_marseille","lat":43.317557,"lon":5.390173,"is_reserved":false,"is_disabled":false,"rental_uris":{"android":"levelo://app?vid=ab137c87-7b5d-4a6d-b139-0e4813e4842d","ios":"levelo://app?vid=ab137c87-7b5d-4a6d-b139-0e4813e4842d"},"vehicle_type_id":"4","last_reported":1687205194,"current_range_meters":22000,"station_id":"ce4bhqp2rcd13ifvqhng","pricing_plan_id":"free"},{"bike_id":"734ce217-e6fb-41df-bb44-4b53bd35a53a","system_id":"levelo_inurba_marseille","lat":43.317557,"lon":5.390173,"is_reserved":false,"is_disabled":false,"rental_uris":{"android":"levelo://app?vid=734ce217-e6fb-41df-bb44-4b53bd35a53a","ios":"levelo://app?vid=734ce217-e6fb-41df-bb44-4b53bd35a53a"},"vehicle_type_id":"4","last_reported":1687205194,"current_range_meters":10400,"station_id":"ce4bhqp2rcd13ifvqhng","pricing_plan_id":"free"},{"bike_id":"34e2d3aa-169c-4af3-8480-807be04aae36","system_id":"levelo_inurba_marseille","lat":43.317557,"lon":5.390173,"is_reserved":false,"is_disabled":false,"rental_uris":{"android":"levelo://app?vid=34e2d3aa-169c-4af3-8480-807be04aae36","ios":"levelo://app?vid=34e2d3aa-169c-4af3-8480-807be04aae36"},"vehicle_type_id":"4","last_reported":1687205194,"current_range_meters":8800,"station_id":"ce4bhqp2rcd13ifvqhng","pricing_plan_id":"free"},{"bike_id":"1847f86a-1f94-4ab7-ad00-b0594c53fb00","system_id":"levelo_inurba_marseille","lat":43.29809,"lon":5.38096,"is_reserved":false,"is_disabled":false,"rental_uris":{"android":"levelo://app?vid=1847f86a-1f94-4ab7-ad00-b0594c53fb00","ios":"levelo://app?vid=1847f86a-1f94-4ab7-ad00-b0594c53fb00"},"vehicle_type_id":"4","last_reported":1687205194,"current_range_meters":5200,"station_id":"ce4bgip2rcd13ifvqbb0","pricing_plan_id":"free"},{"bike_id":"91efc722-d856-4930-b55e-112cd83cd03f","system_id":"levelo_inurba_marseille","lat":43.298037,"lon":5.381066,"is_reserved":false,"is_disabled":false,"rental_uris":{"android":"levelo://app?vid=91efc722-d856-4930-b55e-112cd83cd03f","ios":"levelo://app?vid=91efc722-d856-4930-b55e-112cd83cd03f"},"vehicle_type_id":"4","last_reported":1687205194,"current_range_meters":29600,"station_id":"ce4bgip2rcd13ifvqbb0","pricing_plan_id":"free"},{"bike_id":"6081c3d6-ef7b-4860-ab97-620d85c8f00c","system_id":"levelo_inurba_marseille","lat":43.295761,"lon":5.375029,"is_reserved":false,"is_disabled":false,"rental_uris":{"android":"levelo://app?vid=6081c3d6-ef7b-4860-ab97-620d85c8f00c","ios":"levelo://app?vid=6081c3d6-ef7b-4860-ab97-620d85c8f00c"},"vehicle_type_id":"4","last_reported":1687205194,"current_range_meters":12000,"station_id":"","pricing_plan_id":"free"},{"bike_id":"63b9d957-c522-4fb1-b16a-6b985a905130","system_id":"levelo_inurba_marseille","lat":43.29571,"lon":5.37493,"is_reserved":false,"is_disabled":false,"rental_uris":{"android":"levelo://app?vid=63b9d957-c522-4fb1-b16a-6b985a905130","ios":"levelo://app?vid=63b9d957-c522-4fb1-b16a-6b985a905130"},"vehicle_type_id":"4","last_reported":1687205194,"current_range_meters":14000,"station_id":"ce4bgh92rcd13ifvqb50","pricing_plan_id":"free"},{"bike_id":"250c8a96-8498-4211-b8f3-1b00a8d1fbaf","system_id":"levelo_inurba_marseille","lat":43.296477,"lon":5.37768,"is_reserved":false,"is_disabled":false,"rental_uris":{"android":"levelo://app?vid=250c8a96-8498-4211-b8f3-1b00a8d1fbaf","ios":"levelo://app?vid=250c8a96-8498-4211-b8f3-1b00a8d1fbaf"},"vehicle_type_id":"4","last_reported":1687205194,"current_range_meters":7600,"station_id":"","pricing_plan_id":"free"},{"bike_id":"7b95d82d-c9c7-4c62-b1f8-c83a7761e01c","system_id":"levelo_inurba_marseille","lat":43.29571,"lon":5.37519,"is_reserved":false,"is_disabled":false,"rental_uris":{"android":"levelo://app?vid=7b95d82d-c9c7-4c62-b1f8-c83a7761e01c","ios":"levelo://app?vid=7b95d82d-c9c7-4c62-b1f8-c83a7761e01c"},"vehicle_type_id":"4","last_reported":1687205194,"current_range_meters":19200,"station_id":"ce4bgh92rcd13ifvqb50","pricing_plan_id":"free"},{"bike_id":"b7b1d109-f109-46f0-bcde-562f2f46f0be","system_id":"levelo_inurba_marseille","lat":43.30433,"lon":5.38893,"is_reserved":false,"is_disabled":false,"rental_uris":{"android":"levelo://app?vid=b7b1d109-f109-46f0-bcde-562f2f46f0be","ios":"levelo://app?vid=b7b1d109-f109-46f0-bcde-562f2f46f0be"},"vehicle_type_id":"4","last_reported":1687205194,"current_range_meters":0,"station_id":"ce4bgk12rcd13ifvqbi0","pricing_plan_id":"free"},{"bike_id":"7f49c7bd-037d-40a6-bac3-f24680a10bb4","system_id":"levelo_inurba_marseille","lat":43.304239,"lon":5.388917,"is_reserved":false,"is_disabled":false,"rental_uris":{"android":"levelo://app?vid=7f49c7bd-037d-40a6-bac3-f24680a10bb4","ios":"levelo://app?vid=7f49c7bd-037d-40a6-bac3-f24680a10bb4"},"vehicle_type_id":"4","last_reported":1687205194,"current_range_meters":24400,"station_id":"","pricing_plan_id":"free"},{"bike_id":"072abdd3-4c4b-4c05-bc4f-3ed9175263c6","system_id":"levelo_inurba_marseille","lat":43.296935,"lon":5.376544,"is_reserved":false,"is_disabled":false,"rental_uris":{"android":"levelo://app?vid=072abdd3-4c4b-4c05-bc4f-3ed9175263c6","ios":"levelo://app?vid=072abdd3-4c4b-4c05-bc4f-3ed9175263c6"},"vehicle_type_id":"4","last_reported":1687205194,"current_range_meters":26800,"station_id":"ce4bgkh2rcd13ifvqbl0","pricing_plan_id":"free"},{"bike_id":"bcf5ddfb-e85d-4f89-9ce1-98a1a4937c8a","system_id":"levelo_inurba_marseille","lat":43.29575,"lon":5.37596,"is_reserved":false,"is_disabled":false,"rental_uris":{"android":"levelo://app?vid=bcf5ddfb-e85d-4f89-9ce1-98a1a4937c8a","ios":"levelo://app?vid=bcf5ddfb-e85d-4f89-9ce1-98a1a4937c8a"},"vehicle_type_id":"4","last_reported":1687205194,"current_range_meters":2400,"station_id":"","pricing_plan_id":"free"},{"bike_id":"499a5301-dc84-4c52-a5a8-4132281ab878","system_id":"levelo_inurba_marseille","lat":43.299717,"lon":5.384845,"is_reserved":false,"is_disabled":false,"rental_uris":{"android":"levelo://app?vid=499a5301-dc84-4c52-a5a8-4132281ab878","ios":"levelo://app?vid=499a5301-dc84-4c52-a5a8-4132281ab878"},"vehicle_type_id":"4","last_reported":1687205194,"current_range_meters":400,"station_id":"ce4bgj92rcd13ifvqbd0","pricing_plan_id":"free"},{"bike_id":"eb56f040-d7e3-440c-9d05-82afe187dd21","system_id":"levelo_inurba_marseille","lat":43.299717,"lon":5.384845,"is_reserved":false,"is_disabled":false,"rental_uris":{"android":"levelo://app?vid=eb56f040-d7e3-440c-9d05-82afe187dd21","ios":"levelo://app?vid=eb56f040-d7e3-440c-9d05-82afe187dd21"},"vehicle_type_id":"4","last_reported":1687205194,"current_range_meters":30400,"station_id":"ce4bgj92rcd13ifvqbd0","pricing_plan_id":"free"},{"bike_id":"88ad8d6f-d77f-4018-a64d-4bae6b8543db","system_id":"levelo_inurba_marseille","lat":43.29939,"lon":5.3852,"is_reserved":false,"is_disabled":false,"rental_uris":{"android":"levelo://app?vid=88ad8d6f-d77f-4018-a64d-4bae6b8543db","ios":"levelo://app?vid=88ad8d6f-d77f-4018-a64d-4bae6b8543db"},"vehicle_type_id":"4","last_reported":1687205194,"current_range_meters":0,"station_id":"","pricing_plan_id":"free"},{"bike_id":"709e83c0-4cc9-4649-a912-da02c41b49b2","system_id":"levelo_inurba_marseille","lat":43.32367,"lon":5.388836,"is_reserved":false,"is_disabled":false,"rental_uris":{"android":"levelo://app?vid=709e83c0-4cc9-4649-a912-da02c41b49b2","ios":"levelo://app?vid=709e83c0-4cc9-4649-a912-da02c41b49b2"},"vehicle_type_id":"4","last_reported":1687205194,"current_range_meters":15600,"station_id":"ce4bhqp2rcd13ifvqhog","pricing_plan_id":"free"},{"bike_id":"b3af4213-6f75-4eeb-a9c5-95698eb70200","system_id":"levelo_inurba_marseille","lat":43.32367,"lon":5.388836,"is_reserved":false,"is_disabled":false,"rental_uris":{"android":"levelo://app?vid=b3af4213-6f75-4eeb-a9c5-95698eb70200","ios":"levelo://app?vid=b3af4213-6f75-4eeb-a9c5-95698eb70200"},"vehicle_type_id":"4","last_reported":1687205194,"current_range_meters":2800,"station_id":"ce4bhqp2rcd13ifvqhog","pricing_plan_id":"free"},{"bike_id":"554d461b-faf0-4249-b043-1ce5292e3cda","system_id":"levelo_inurba_marseille","lat":43.32366,"lon":5.3888,"is_reserved":false,"is_disabled":false,"rental_uris":{"android":"levelo://app?vid=554d461b-faf0-4249-b043-1ce5292e3cda","ios":"levelo://app?vid=554d461b-faf0-4249-b043-1ce5292e3cda"},"vehicle_type_id":"4","last_reported":1687205194,"current_range_meters":3200,"station_id":"ce4bhqp2rcd13ifvqhog","pricing_plan_id":"free"},{"bike_id":"fed0fa05-6563-4a2c-a686-a1bf0f63a977","system_id":"levelo_inurba_marseille","lat":43.32367,"lon":5.388836,"is_reserved":false,"is_disabled":false,"rental_uris":{"android":"levelo://app?vid=fed0fa05-6563-4a2c-a686-a1bf0f63a977","ios":"levelo://app?vid=fed0fa05-6563-4a2c-a686-a1bf0f63a977"},"vehicle_type_id":"4","last_reported":1687205194,"current_range_meters":4800,"station_id":"ce4bhqp2rcd13ifvqhog","pricing_plan_id":"free"},{"bike_id":"8ff62679-d701-4f24-9465-711c38e796ba","system_id":"levelo_inurba_marseille","lat":43.32367,"lon":5.388836,"is_reserved":false,"is_disabled":false,"rental_uris":{"android":"levelo://app?vid=8ff62679-d701-4f24-9465-711c38e796ba","ios":"levelo://app?vid=8ff62679-d701-4f24-9465-711c38e796ba"},"vehicle_type_id":"4","last_reported":1687205194,"current_range_meters":0,"station_id":"ce4bhqp2rcd13ifvqhog","pricing_plan_id":"free"},{"bike_id":"c25bbca6-334a-48c9-b2aa-c69eb97c9d81","system_id":"levelo_inurba_marseille","lat":43.32367,"lon":5.388836,"is_reserved":false,"is_disabled":false,"rental_uris":{"android":"levelo://app?vid=c25bbca6-334a-48c9-b2aa-c69eb97c9d81","ios":"levelo://app?vid=c25bbca6-334a-48c9-b2aa-c69eb97c9d81"},"vehicle_type_id":"4","last_reported":1687205194,"current_range_meters":24800,"station_id":"ce4bhqp2rcd13ifvqhog","pricing_plan_id":"free"},{"bike_id":"a1992d99-4166-47a2-9232-caeb23792c5e","system_id":"levelo_inurba_marseille","lat":43.29601,"lon":5.381084,"is_reserved":false,"is_disabled":false,"rental_uris":{"android":"levelo://app?vid=a1992d99-4166-47a2-9232-caeb23792c5e","ios":"levelo://app?vid=a1992d99-4166-47a2-9232-caeb23792c5e"},"vehicle_type_id":"4","last_reported":1687205194,"current_range_meters":14400,"station_id":"ce4bgl12rcd13ifvqbo0","pricing_plan_id":"free"},{"bike_id":"a276b400-356f-4662-a65f-e0de6a307bb6","system_id":"levelo_inurba_marseille","lat":43.29602,"lon":5.381084,"is_reserved":false,"is_disabled":false,"rental_uris":{"android":"levelo://app?vid=a276b400-356f-4662-a65f-e0de6a307bb6","ios":"levelo://app?vid=a276b400-356f-4662-a65f-e0de6a307bb6"},"vehicle_type_id":"4","last_reported":1687205194,"current_range_meters":400,"station_id":"ce4bgl12rcd13ifvqbo0","pricing_plan_id":"free"},{"bike_id":"5c485a33-2430-456b-afb3-307aac6a8424","system_id":"levelo_inurba_marseille","lat":43.33146,"lon":5.3752,"is_reserved":false,"is_disabled":false,"rental_uris":{"android":"levelo://app?vid=5c485a33-2430-456b-afb3-307aac6a8424","ios":"levelo://app?vid=5c485a33-2430-456b-afb3-307aac6a8424"},"vehicle_type_id":"4","last_reported":1687205194,"current_range_meters":25200,"station_id":"","pricing_plan_id":"free"},{"bike_id":"b9562462-b964-4344-ac9e-c734e680aa12","system_id":"levelo_inurba_marseille","lat":43.293249,"lon":5.371578,"is_reserved":false,"is_disabled":false,"rental_uris":{"android":"levelo://app?vid=b9562462-b964-4344-ac9e-c734e680aa12","ios":"levelo://app?vid=b9562462-b964-4344-ac9e-c734e680aa12"},"vehicle_type_id":"4","last_reported":1687205194,"current_range_meters":1600,"station_id":"ce4bgh92rcd13ifvqb40","pricing_plan_id":"free"},{"bike_id":"f60c0121-2d4e-489f-8665-cfb735467c32","system_id":"levelo_inurba_marseille","lat":43.29304,"lon":5.37459,"is_reserved":false,"is_disabled":false,"rental_uris":{"android":"levelo://app?vid=f60c0121-2d4e-489f-8665-cfb735467c32","ios":"levelo://app?vid=f60c0121-2d4e-489f-8665-cfb735467c32"},"vehicle_type_id":"4","last_reported":1687205194,"current_range_meters":28000,"station_id":"ce4bgi12rcd13ifvqb70","pricing_plan_id":"free"},{"bike_id":"66b480a6-9947-4496-98e2-93e61a3244b4","system_id":"levelo_inurba_marseille","lat":43.30589,"lon":5.39345,"is_reserved":false,"is_disabled":false,"rental_uris":{"android":"levelo://app?vid=66b480a6-9947-4496-98e2-93e61a3244b4","ios":"levelo://app?vid=66b480a6-9947-4496-98e2-93e61a3244b4"},"vehicle_type_id":"4","last_reported":1687205194,"current_range_meters":29600,"station_id":"ce4bh0p2rcd13ifvqd80","pricing_plan_id":"free"},{"bike_id":"f96bc5ef-773a-4c29-b818-b40707fecfaa","system_id":"levelo_inurba_marseille","lat":43.30596,"lon":5.39354,"is_reserved":false,"is_disabled":false,"rental_uris":{"android":"levelo://app?vid=f96bc5ef-773a-4c29-b818-b40707fecfaa","ios":"levelo://app?vid=f96bc5ef-773a-4c29-b818-b40707fecfaa"},"vehicle_type_id":"4","last_reported":1687205194,"current_range_meters":31200,"station_id":"ce4bh0p2rcd13ifvqd80","pricing_plan_id":"free"},{"bike_id":"dbc2cadf-155d-41b5-8117-021a4980ad01","system_id":"levelo_inurba_marseille","lat":43.305994,"lon":5.393687,"is_reserved":false,"is_disabled":false,"rental_uris":{"android":"levelo://app?vid=dbc2cadf-155d-41b5-8117-021a4980ad01","ios":"levelo://app?vid=dbc2cadf-155d-41b5-8117-021a4980ad01"},"vehicle_type_id":"4","last_reported":1687205194,"current_range_meters":26800,"station_id":"ce4bh0p2rcd13ifvqd80","pricing_plan_id":"free"},{"bike_id":"659b5d8b-1631-48ee-8cff-de6411143e1c","system_id":"levelo_inurba_marseille","lat":43.30298,"lon":5.39205,"is_reserved":false,"is_disabled":false,"rental_uris":{"android":"levelo://app?vid=659b5d8b-1631-48ee-8cff-de6411143e1c","ios":"levelo://app?vid=659b5d8b-1631-48ee-8cff-de6411143e1c"},"vehicle_type_id":"4","last_reported":1687205194,"current_range_meters":0,"station_id":"ce4bgkh2rcd13ifvqbk0","pricing_plan_id":"free"},{"bike_id":"7ee8e857-e58f-4d0f-9ec8-cf55d6494b29","system_id":"levelo_inurba_marseille","lat":43.29264,"lon":5.35961,"is_reserved":false,"is_disabled":false,"rental_uris":{"android":"levelo://app?vid=7ee8e857-e58f-4d0f-9ec8-cf55d6494b29","ios":"levelo://app?vid=7ee8e857-e58f-4d0f-9ec8-cf55d6494b29"},"vehicle_type_id":"4","last_reported":1687205194,"current_range_meters":5600,"station_id":"","pricing_plan_id":"free"},{"bike_id":"60911a48-48ce-4cf8-86ce-f4cee02fd8f6","system_id":"levelo_inurba_marseille","lat":43.2936,"lon":5.37835,"is_reserved":false,"is_disabled":false,"rental_uris":{"android":"levelo://app?vid=60911a48-48ce-4cf8-86ce-f4cee02fd8f6","ios":"levelo://app?vid=60911a48-48ce-4cf8-86ce-f4cee02fd8f6"},"vehicle_type_id":"4","last_reported":1687205194,"current_range_meters":2400,"station_id":"ce4bgjh2rcd13ifvqbf0","pricing_plan_id":"free"},{"bike_id":"b3553dbf-5b83-4012-999c-9728ac571931","system_id":"levelo_inurba_marseille","lat":43.2936,"lon":5.37835,"is_reserved":false,"is_disabled":false,"rental_uris":{"android":"levelo://app?vid=b3553dbf-5b83-4012-999c-9728ac571931","ios":"levelo://app?vid=b3553dbf-5b83-4012-999c-9728ac571931"},"vehicle_type_id":"4","last_reported":1687205194,"current_range_meters":22000,"station_id":"ce4bgjh2rcd13ifvqbf0","pricing_plan_id":"free"},{"bike_id":"5fc66e64-3424-4d9b-b53d-2d4d36813ccd","system_id":"levelo_inurba_marseille","lat":43.2936,"lon":5.37835,"is_reserved":false,"is_disabled":false,"rental_uris":{"android":"levelo://app?vid=5fc66e64-3424-4d9b-b53d-2d4d36813ccd","ios":"levelo://app?vid=5fc66e64-3424-4d9b-b53d-2d4d36813ccd"},"vehicle_type_id":"4","last_reported":1687205194,"current_range_meters":14400,"station_id":"ce4bgjh2rcd13ifvqbf0","pricing_plan_id":"free"},{"bike_id":"2ac9f389-6f01-4ea5-8925-e515645f34a6","system_id":"levelo_inurba_marseille","lat":43.304278,"lon":5.388868,"is_reserved":false,"is_disabled":false,"rental_uris":{"android":"levelo://app?vid=2ac9f389-6f01-4ea5-8925-e515645f34a6","ios":"levelo://app?vid=2ac9f389-6f01-4ea5-8925-e515645f34a6"},"vehicle_type_id":"4","last_reported":1687205194,"current_range_meters":400,"station_id":"ce4bgk12rcd13ifvqbi0","pricing_plan_id":"free"},{"bike_id":"8defb793-bd42-454a-85b8-9e9e2c438d0f","system_id":"levelo_inurba_marseille","lat":43.298764,"lon":5.388973,"is_reserved":false,"is_disabled":false,"rental_uris":{"android":"levelo://app?vid=8defb793-bd42-454a-85b8-9e9e2c438d0f","ios":"levelo://app?vid=8defb793-bd42-454a-85b8-9e9e2c438d0f"},"vehicle_type_id":"4","last_reported":1687205194,"current_range_meters":28400,"station_id":"ce4bh392rcd13ifvqdl0","pricing_plan_id":"free"},{"bike_id":"fc170ce6-7099-4dd4-b6d3-37e9a19ddb5d","system_id":"levelo_inurba_marseille","lat":43.29874,"lon":5.38904,"is_reserved":false,"is_disabled":false,"rental_uris":{"android":"levelo://app?vid=fc170ce6-7099-4dd4-b6d3-37e9a19ddb5d","ios":"levelo://app?vid=fc170ce6-7099-4dd4-b6d3-37e9a19ddb5d"},"vehicle_type_id":"4","last_reported":1687205194,"current_range_meters":31200,"station_id":"ce4bh392rcd13ifvqdl0","pricing_plan_id":"free"},{"bike_id":"b27e4bf4-0d51-43bd-aefd-f617f799590d","system_id":"levelo_inurba_marseille","lat":43.292005,"lon":5.357875,"is_reserved":false,"is_disabled":false,"rental_uris":{"android":"levelo://app?vid=b27e4bf4-0d51-43bd-aefd-f617f799590d","ios":"levelo://app?vid=b27e4bf4-0d51-43bd-aefd-f617f799590d"},"vehicle_type_id":"4","last_reported":1687205194,"current_range_meters":0,"station_id":"ce4bhb12rcd13ifvqel0","pricing_plan_id":"free"},{"bike_id":"d38c5de4-1b75-44fb-88b5-eb30bcdcd7d0","system_id":"levelo_inurba_marseille","lat":43.31325,"lon":5.396882,"is_reserved":false,"is_disabled":false,"rental_uris":{"android":"levelo://app?vid=d38c5de4-1b75-44fb-88b5-eb30bcdcd7d0","ios":"levelo://app?vid=d38c5de4-1b75-44fb-88b5-eb30bcdcd7d0"},"vehicle_type_id":"4","last_reported":1687205194,"current_range_meters":25200,"station_id":"","pricing_plan_id":"free"},{"bike_id":"69933801-724a-4a89-9efa-c0bd2f3567a2","system_id":"levelo_inurba_marseille","lat":43.309038,"lon":5.396546,"is_reserved":false,"is_disabled":false,"rental_uris":{"android":"levelo://app?vid=69933801-724a-4a89-9efa-c0bd2f3567a2","ios":"levelo://app?vid=69933801-724a-4a89-9efa-c0bd2f3567a2"},"vehicle_type_id":"4","last_reported":1687205194,"current_range_meters":27600,"station_id":"ce4bh012rcd13ifvqcv0","pricing_plan_id":"free"},{"bike_id":"bc176c9f-0272-49a5-9cfa-debe67a3910d","system_id":"levelo_inurba_marseille","lat":43.309038,"lon":5.396546,"is_reserved":false,"is_disabled":false,"rental_uris":{"android":"levelo://app?vid=bc176c9f-0272-49a5-9cfa-debe67a3910d","ios":"levelo://app?vid=bc176c9f-0272-49a5-9cfa-debe67a3910d"},"vehicle_type_id":"4","last_reported":1687205194,"current_range_meters":800,"station_id":"ce4bh012rcd13ifvqcv0","pricing_plan_id":"free"},{"bike_id":"d4e5d1f6-7438-4ecd-a6a9-287b7fb7f769","system_id":"levelo_inurba_marseille","lat":43.313262,"lon":5.396987,"is_reserved":false,"is_disabled":false,"rental_uris":{"android":"levelo://app?vid=d4e5d1f6-7438-4ecd-a6a9-287b7fb7f769","ios":"levelo://app?vid=d4e5d1f6-7438-4ecd-a6a9-287b7fb7f769"},"vehicle_type_id":"4","last_reported":1687205194,"current_range_meters":22000,"station_id":"ce4bgvp2rcd13ifvqcu0","pricing_plan_id":"free"},{"bike_id":"d7ec17da-c062-436f-a937-7b9ff940324d","system_id":"levelo_inurba_marseille","lat":43.29526,"lon":5.38508,"is_reserved":false,"is_disabled":false,"rental_uris":{"android":"levelo://app?vid=d7ec17da-c062-436f-a937-7b9ff940324d","ios":"levelo://app?vid=d7ec17da-c062-436f-a937-7b9ff940324d"},"vehicle_type_id":"4","last_reported":1687205194,"current_range_meters":23200,"station_id":"","pricing_plan_id":"free"},{"bike_id":"e20c06a3-917c-487f-92f2-5427deefec06","system_id":"levelo_inurba_marseille","lat":43.29529,"lon":5.385581,"is_reserved":false,"is_disabled":false,"rental_uris":{"android":"levelo://app?vid=e20c06a3-917c-487f-92f2-5427deefec06","ios":"levelo://app?vid=e20c06a3-917c-487f-92f2-5427deefec06"},"vehicle_type_id":"4","last_reported":1687205194,"current_range_meters":14000,"station_id":"ce4bgih2rcd13ifvqba0","pricing_plan_id":"free"},{"bike_id":"db1c2786-6dac-4504-af29-737170ad371d","system_id":"levelo_inurba_marseille","lat":43.29532,"lon":5.3854,"is_reserved":false,"is_disabled":false,"rental_uris":{"android":"levelo://app?vid=db1c2786-6dac-4504-af29-737170ad371d","ios":"levelo://app?vid=db1c2786-6dac-4504-af29-737170ad371d"},"vehicle_type_id":"4","last_reported":1687205194,"current_range_meters":13600,"station_id":"","pricing_plan_id":"free"},{"bike_id":"801ecad2-0f4e-4d18-9d26-ab211f839220","system_id":"levelo_inurba_marseille","lat":43.30626,"lon":5.39586,"is_reserved":false,"is_disabled":false,"rental_uris":{"android":"levelo://app?vid=801ecad2-0f4e-4d18-9d26-ab211f839220","ios":"levelo://app?vid=801ecad2-0f4e-4d18-9d26-ab211f839220"},"vehicle_type_id":"4","last_reported":1687205194,"current_range_meters":28800,"station_id":"","pricing_plan_id":"free"},{"bike_id":"d05fa727-d75b-4f82-a107-5d9bf3d93307","system_id":"levelo_inurba_marseille","lat":43.29529,"lon":5.385581,"is_reserved":false,"is_disabled":false,"rental_uris":{"android":"levelo://app?vid=d05fa727-d75b-4f82-a107-5d9bf3d93307","ios":"levelo://app?vid=d05fa727-d75b-4f82-a107-5d9bf3d93307"},"vehicle_type_id":"4","last_reported":1687205194,"current_range_meters":17200,"station_id":"ce4bgih2rcd13ifvqba0","pricing_plan_id":"free"},{"bike_id":"83164b3c-b078-4dad-824a-d06119329cd9","system_id":"levelo_inurba_marseille","lat":43.290779,"lon":5.371482,"is_reserved":false,"is_disabled":false,"rental_uris":{"android":"levelo://app?vid=83164b3c-b078-4dad-824a-d06119329cd9","ios":"levelo://app?vid=83164b3c-b078-4dad-824a-d06119329cd9"},"vehicle_type_id":"4","last_reported":1687205194,"current_range_meters":16800,"station_id":"ce4bh5p2rcd13ifvqe4g","pricing_plan_id":"free"},{"bike_id":"9252f1f9-2017-4894-a3bb-07e89a912cb5","system_id":"levelo_inurba_marseille","lat":43.29147,"lon":5.37748,"is_reserved":false,"is_disabled":false,"rental_uris":{"android":"levelo://app?vid=9252f1f9-2017-4894-a3bb-07e89a912cb5","ios":"levelo://app?vid=9252f1f9-2017-4894-a3bb-07e89a912cb5"},"vehicle_type_id":"4","last_reported":1687205194,"current_range_meters":9600,"station_id":"","pricing_plan_id":"free"},{"bike_id":"8929540a-e010-4fd7-8754-1ddb18f8cbcf","system_id":"levelo_inurba_marseille","lat":43.302008,"lon":5.394694,"is_reserved":false,"is_disabled":false,"rental_uris":{"android":"levelo://app?vid=8929540a-e010-4fd7-8754-1ddb18f8cbcf","ios":"levelo://app?vid=8929540a-e010-4fd7-8754-1ddb18f8cbcf"},"vehicle_type_id":"4","last_reported":1687205194,"current_range_meters":9200,"station_id":"ce4bh0p2rcd13ifvqd70","pricing_plan_id":"free"},{"bike_id":"cc2a4ced-817d-440f-b0d5-8f71633785ee","system_id":"levelo_inurba_marseille","lat":43.29041,"lon":5.37556,"is_reserved":false,"is_disabled":false,"rental_uris":{"android":"levelo://app?vid=cc2a4ced-817d-440f-b0d5-8f71633785ee","ios":"levelo://app?vid=cc2a4ced-817d-440f-b0d5-8f71633785ee"},"vehicle_type_id":"4","last_reported":1687205194,"current_range_meters":30400,"station_id":"ce4bh692rcd13ifvqe90","pricing_plan_id":"free"},{"bike_id":"20216e56-92f2-4125-aecd-320bebccb2ae","system_id":"levelo_inurba_marseille","lat":43.294162,"lon":5.386292,"is_reserved":false,"is_disabled":false,"rental_uris":{"android":"levelo://app?vid=20216e56-92f2-4125-aecd-320bebccb2ae","ios":"levelo://app?vid=20216e56-92f2-4125-aecd-320bebccb2ae"},"vehicle_type_id":"4","last_reported":1687205194,"current_range_meters":26400,"station_id":"ce4bh2h2rcd13ifvqdh0","pricing_plan_id":"free"},{"bike_id":"85e76a01-cdf1-4bda-ae54-d3eae37eb0fc","system_id":"levelo_inurba_marseille","lat":43.294153,"lon":5.386305,"is_reserved":false,"is_disabled":false,"rental_uris":{"android":"levelo://app?vid=85e76a01-cdf1-4bda-ae54-d3eae37eb0fc","ios":"levelo://app?vid=85e76a01-cdf1-4bda-ae54-d3eae37eb0fc"},"vehicle_type_id":"4","last_reported":1687205194,"current_range_meters":11600,"station_id":"ce4bh2h2rcd13ifvqdh0","pricing_plan_id":"free"},{"bike_id":"0609f09b-61e5-40d1-a057-3a5b9409ddd1","system_id":"levelo_inurba_marseille","lat":43.29416,"lon":5.38628,"is_reserved":false,"is_disabled":false,"rental_uris":{"android":"levelo://app?vid=0609f09b-61e5-40d1-a057-3a5b9409ddd1","ios":"levelo://app?vid=0609f09b-61e5-40d1-a057-3a5b9409ddd1"},"vehicle_type_id":"4","last_reported":1687205194,"current_range_meters":28400,"station_id":"ce4bh2h2rcd13ifvqdh0","pricing_plan_id":"free"},{"bike_id":"13996ae2-4dac-4749-b815-c9135c2ef0e4","system_id":"levelo_inurba_marseille","lat":43.28939,"lon":5.36638,"is_reserved":false,"is_disabled":false,"rental_uris":{"android":"levelo://app?vid=13996ae2-4dac-4749-b815-c9135c2ef0e4","ios":"levelo://app?vid=13996ae2-4dac-4749-b815-c9135c2ef0e4"},"vehicle_type_id":"4","last_reported":1687205194,"current_range_meters":6800,"station_id":"ce4bhap2rcd13ifvqek0","pricing_plan_id":"free"},{"bike_id":"298e3d0e-d68f-44d6-831f-eac509fff7b1","system_id":"levelo_inurba_marseille","lat":43.28939,"lon":5.36627,"is_reserved":false,"is_disabled":false,"rental_uris":{"android":"levelo://app?vid=298e3d0e-d68f-44d6-831f-eac509fff7b1","ios":"levelo://app?vid=298e3d0e-d68f-44d6-831f-eac509fff7b1"},"vehicle_type_id":"4","last_reported":1687205194,"current_range_meters":0,"station_id":"ce4bhap2rcd13ifvqek0","pricing_plan_id":"free"},{"bike_id":"d90a5f82-5aa8-4326-8ad8-70720c23a142","system_id":"levelo_inurba_marseille","lat":43.289184,"lon":5.366408,"is_reserved":false,"is_disabled":false,"rental_uris":{"android":"levelo://app?vid=d90a5f82-5aa8-4326-8ad8-70720c23a142","ios":"levelo://app?vid=d90a5f82-5aa8-4326-8ad8-70720c23a142"},"vehicle_type_id":"4","last_reported":1687205194,"current_range_meters":18800,"station_id":"ce4bhap2rcd13ifvqek0","pricing_plan_id":"free"},{"bike_id":"839a4d1f-57a1-4c73-ab2a-a22796ee9855","system_id":"levelo_inurba_marseille","lat":43.28937,"lon":5.36644,"is_reserved":false,"is_disabled":false,"rental_uris":{"android":"levelo://app?vid=839a4d1f-57a1-4c73-ab2a-a22796ee9855","ios":"levelo://app?vid=839a4d1f-57a1-4c73-ab2a-a22796ee9855"},"vehicle_type_id":"4","last_reported":1687205194,"current_range_meters":17600,"station_id":"ce4bhap2rcd13ifvqek0","pricing_plan_id":"free"},{"bike_id":"eae60c7f-bfd7-470e-9044-bfb281d0ff32","system_id":"levelo_inurba_marseille","lat":43.28937,"lon":5.36635,"is_reserved":false,"is_disabled":false,"rental_uris":{"android":"levelo://app?vid=eae60c7f-bfd7-470e-9044-bfb281d0ff32","ios":"levelo://app?vid=eae60c7f-bfd7-470e-9044-bfb281d0ff32"},"vehicle_type_id":"4","last_reported":1687205194,"current_range_meters":0,"station_id":"ce4bhap2rcd13ifvqek0","pricing_plan_id":"free"},{"bike_id":"86204a71-32f7-48a3-b865-0fd0dea3e79b","system_id":"levelo_inurba_marseille","lat":43.28937,"lon":5.36628,"is_reserved":false,"is_disabled":false,"rental_uris":{"android":"levelo://app?vid=86204a71-32f7-48a3-b865-0fd0dea3e79b","ios":"levelo://app?vid=86204a71-32f7-48a3-b865-0fd0dea3e79b"},"vehicle_type_id":"4","last_reported":1687205194,"current_range_meters":5600,"station_id":"ce4bhap2rcd13ifvqek0","pricing_plan_id":"free"},{"bike_id":"253795c1-45b2-4c07-89a5-34d2564de43f","system_id":"levelo_inurba_marseille","lat":43.289184,"lon":5.366408,"is_reserved":false,"is_disabled":false,"rental_uris":{"android":"levelo://app?vid=253795c1-45b2-4c07-89a5-34d2564de43f","ios":"levelo://app?vid=253795c1-45b2-4c07-89a5-34d2564de43f"},"vehicle_type_id":"4","last_reported":1687205194,"current_range_meters":0,"station_id":"ce4bhap2rcd13ifvqek0","pricing_plan_id":"free"},{"bike_id":"c259bab6-104d-4dbd-9941-41c8fda9734c","system_id":"levelo_inurba_marseille","lat":43.289184,"lon":5.366408,"is_reserved":false,"is_disabled":false,"rental_uris":{"android":"levelo://app?vid=c259bab6-104d-4dbd-9941-41c8fda9734c","ios":"levelo://app?vid=c259bab6-104d-4dbd-9941-41c8fda9734c"},"vehicle_type_id":"4","last_reported":1687205194,"current_range_meters":24000,"station_id":"ce4bhap2rcd13ifvqek0","pricing_plan_id":"free"},{"bike_id":"9fe0326f-536a-4737-963c-2bdf1b644bd0","system_id":"levelo_inurba_marseille","lat":43.289184,"lon":5.366408,"is_reserved":false,"is_disabled":false,"rental_uris":{"android":"levelo://app?vid=9fe0326f-536a-4737-963c-2bdf1b644bd0","ios":"levelo://app?vid=9fe0326f-536a-4737-963c-2bdf1b644bd0"},"vehicle_type_id":"4","last_reported":1687205194,"current_range_meters":27600,"station_id":"ce4bhap2rcd13ifvqek0","pricing_plan_id":"free"},{"bike_id":"e4949276-2f86-4580-acd9-22f5b2dbb6df","system_id":"levelo_inurba_marseille","lat":43.289184,"lon":5.366408,"is_reserved":false,"is_disabled":false,"rental_uris":{"android":"levelo://app?vid=e4949276-2f86-4580-acd9-22f5b2dbb6df","ios":"levelo://app?vid=e4949276-2f86-4580-acd9-22f5b2dbb6df"},"vehicle_type_id":"4","last_reported":1687205194,"current_range_meters":12400,"station_id":"ce4bhap2rcd13ifvqek0","pricing_plan_id":"free"},{"bike_id":"16e1ab2d-df08-4a8a-97ec-cc3df171c2a3","system_id":"levelo_inurba_marseille","lat":43.289468,"lon":5.363719,"is_reserved":false,"is_disabled":false,"rental_uris":{"android":"levelo://app?vid=16e1ab2d-df08-4a8a-97ec-cc3df171c2a3","ios":"levelo://app?vid=16e1ab2d-df08-4a8a-97ec-cc3df171c2a3"},"vehicle_type_id":"4","last_reported":1687205194,"current_range_meters":14000,"station_id":"ce4bhc92rcd13ifvqetg","pricing_plan_id":"free"},{"bike_id":"737d5716-ef6d-4bfb-bdc7-d634eb75ef0b","system_id":"levelo_inurba_marseille","lat":43.28931,"lon":5.3663,"is_reserved":false,"is_disabled":false,"rental_uris":{"android":"levelo://app?vid=737d5716-ef6d-4bfb-bdc7-d634eb75ef0b","ios":"levelo://app?vid=737d5716-ef6d-4bfb-bdc7-d634eb75ef0b"},"vehicle_type_id":"4","last_reported":1687205194,"current_range_meters":31200,"station_id":"ce4bhap2rcd13ifvqek0","pricing_plan_id":"free"},{"bike_id":"bee16c1e-f84c-46d2-b97f-ae246b01b0e5","system_id":"levelo_inurba_marseille","lat":43.289184,"lon":5.366408,"is_reserved":false,"is_disabled":false,"rental_uris":{"android":"levelo://app?vid=bee16c1e-f84c-46d2-b97f-ae246b01b0e5","ios":"levelo://app?vid=bee16c1e-f84c-46d2-b97f-ae246b01b0e5"},"vehicle_type_id":"4","last_reported":1687205194,"current_range_meters":31200,"station_id":"ce4bhap2rcd13ifvqek0","pricing_plan_id":"free"},{"bike_id":"1c529055-6786-4483-ae05-c6271161332e","system_id":"levelo_inurba_marseille","lat":43.292644,"lon":5.384257,"is_reserved":false,"is_disabled":false,"rental_uris":{"android":"levelo://app?vid=1c529055-6786-4483-ae05-c6271161332e","ios":"levelo://app?vid=1c529055-6786-4483-ae05-c6271161332e"},"vehicle_type_id":"4","last_reported":1687205194,"current_range_meters":14000,"station_id":"ce4bh692rcd13ifvqea0","pricing_plan_id":"free"},{"bike_id":"fcaa30cb-1efb-4966-b1ce-fc4ab247588c","system_id":"levelo_inurba_marseille","lat":43.292642,"lon":5.384254,"is_reserved":false,"is_disabled":false,"rental_uris":{"android":"levelo://app?vid=fcaa30cb-1efb-4966-b1ce-fc4ab247588c","ios":"levelo://app?vid=fcaa30cb-1efb-4966-b1ce-fc4ab247588c"},"vehicle_type_id":"4","last_reported":1687205194,"current_range_meters":23200,"station_id":"ce4bh692rcd13ifvqea0","pricing_plan_id":"free"},{"bike_id":"474c64f1-54c8-47eb-a881-1854d735eee9","system_id":"levelo_inurba_marseille","lat":43.304296,"lon":5.397513,"is_reserved":false,"is_disabled":false,"rental_uris":{"android":"levelo://app?vid=474c64f1-54c8-47eb-a881-1854d735eee9","ios":"levelo://app?vid=474c64f1-54c8-47eb-a881-1854d735eee9"},"vehicle_type_id":"4","last_reported":1687205194,"current_range_meters":4800,"station_id":"ce4bh092rcd13ifvqd20","pricing_plan_id":"free"},{"bike_id":"0f3e40c1-7da0-4618-9dbd-11bfeb024c5d","system_id":"levelo_inurba_marseille","lat":43.292642,"lon":5.384254,"is_reserved":false,"is_disabled":false,"rental_uris":{"android":"levelo://app?vid=0f3e40c1-7da0-4618-9dbd-11bfeb024c5d","ios":"levelo://app?vid=0f3e40c1-7da0-4618-9dbd-11bfeb024c5d"},"vehicle_type_id":"4","last_reported":1687205194,"current_range_meters":0,"station_id":"ce4bh692rcd13ifvqea0","pricing_plan_id":"free"},{"bike_id":"4bb725c7-ae91-4525-b1bc-76b24165c39a","system_id":"levelo_inurba_marseille","lat":43.292642,"lon":5.384254,"is_reserved":false,"is_disabled":false,"rental_uris":{"android":"levelo://app?vid=4bb725c7-ae91-4525-b1bc-76b24165c39a","ios":"levelo://app?vid=4bb725c7-ae91-4525-b1bc-76b24165c39a"},"vehicle_type_id":"4","last_reported":1687205194,"current_range_meters":10000,"station_id":"ce4bh692rcd13ifvqea0","pricing_plan_id":"free"},{"bike_id":"9b3a1b7c-fa9c-4e4f-948b-42121d457f18","system_id":"levelo_inurba_marseille","lat":43.292644,"lon":5.384257,"is_reserved":false,"is_disabled":false,"rental_uris":{"android":"levelo://app?vid=9b3a1b7c-fa9c-4e4f-948b-42121d457f18","ios":"levelo://app?vid=9b3a1b7c-fa9c-4e4f-948b-42121d457f18"},"vehicle_type_id":"4","last_reported":1687205194,"current_range_meters":0,"station_id":"ce4bh692rcd13ifvqea0","pricing_plan_id":"free"},{"bike_id":"b86524c6-ee3b-4fe7-b0d2-a8f8eff9967c","system_id":"levelo_inurba_marseille","lat":43.292644,"lon":5.384257,"is_reserved":false,"is_disabled":false,"rental_uris":{"android":"levelo://app?vid=b86524c6-ee3b-4fe7-b0d2-a8f8eff9967c","ios":"levelo://app?vid=b86524c6-ee3b-4fe7-b0d2-a8f8eff9967c"},"vehicle_type_id":"4","last_reported":1687205194,"current_range_meters":10800,"station_id":"ce4bh692rcd13ifvqea0","pricing_plan_id":"free"},{"bike_id":"38eb09af-7166-42b9-865e-84246929498f","system_id":"levelo_inurba_marseille","lat":43.292644,"lon":5.384257,"is_reserved":false,"is_disabled":false,"rental_uris":{"android":"levelo://app?vid=38eb09af-7166-42b9-865e-84246929498f","ios":"levelo://app?vid=38eb09af-7166-42b9-865e-84246929498f"},"vehicle_type_id":"4","last_reported":1687205194,"current_range_meters":31600,"station_id":"ce4bh692rcd13ifvqea0","pricing_plan_id":"free"},{"bike_id":"4238f08a-0ae4-4151-ab54-950df94f66b8","system_id":"levelo_inurba_marseille","lat":43.292642,"lon":5.384254,"is_reserved":false,"is_disabled":false,"rental_uris":{"android":"levelo://app?vid=4238f08a-0ae4-4151-ab54-950df94f66b8","ios":"levelo://app?vid=4238f08a-0ae4-4151-ab54-950df94f66b8"},"vehicle_type_id":"4","last_reported":1687205194,"current_range_meters":4000,"station_id":"ce4bh692rcd13ifvqea0","pricing_plan_id":"free"},{"bike_id":"f44d880f-e513-448e-9c95-12889e917159","system_id":"levelo_inurba_marseille","lat":43.292642,"lon":5.384254,"is_reserved":false,"is_disabled":false,"rental_uris":{"android":"levelo://app?vid=f44d880f-e513-448e-9c95-12889e917159","ios":"levelo://app?vid=f44d880f-e513-448e-9c95-12889e917159"},"vehicle_type_id":"4","last_reported":1687205194,"current_range_meters":6800,"station_id":"ce4bh692rcd13ifvqea0","pricing_plan_id":"free"},{"bike_id":"735c83e0-4d9d-466f-aa98-225a6a30cd49","system_id":"levelo_inurba_marseille","lat":43.297815,"lon":5.393548,"is_reserved":false,"is_disabled":false,"rental_uris":{"android":"levelo://app?vid=735c83e0-4d9d-466f-aa98-225a6a30cd49","ios":"levelo://app?vid=735c83e0-4d9d-466f-aa98-225a6a30cd49"},"vehicle_type_id":"4","last_reported":1687205194,"current_range_meters":23200,"station_id":"chh1huq6cuj3fo74tm60","pricing_plan_id":"free"},{"bike_id":"54590e75-dc5a-4a8a-b9c5-a0a5343a8aa3","system_id":"levelo_inurba_marseille","lat":43.289741,"lon":5.378306,"is_reserved":false,"is_disabled":false,"rental_uris":{"android":"levelo://app?vid=54590e75-dc5a-4a8a-b9c5-a0a5343a8aa3","ios":"levelo://app?vid=54590e75-dc5a-4a8a-b9c5-a0a5343a8aa3"},"vehicle_type_id":"4","last_reported":1687205194,"current_range_meters":12000,"station_id":"ce4bh9p2rcd13ifvqed0","pricing_plan_id":"free"},{"bike_id":"7a6e6fc4-6488-4261-978f-d61bfcde5dc1","system_id":"levelo_inurba_marseille","lat":43.295169,"lon":5.390426,"is_reserved":false,"is_disabled":false,"rental_uris":{"android":"levelo://app?vid=7a6e6fc4-6488-4261-978f-d61bfcde5dc1","ios":"levelo://app?vid=7a6e6fc4-6488-4261-978f-d61bfcde5dc1"},"vehicle_type_id":"4","last_reported":1687205194,"current_range_meters":31200,"station_id":"ce4bh3p2rcd13ifvqdp0","pricing_plan_id":"free"},{"bike_id":"c326ecc8-b73d-4d38-b0d4-f33f341fac1d","system_id":"levelo_inurba_marseille","lat":43.295169,"lon":5.390426,"is_reserved":false,"is_disabled":false,"rental_uris":{"android":"levelo://app?vid=c326ecc8-b73d-4d38-b0d4-f33f341fac1d","ios":"levelo://app?vid=c326ecc8-b73d-4d38-b0d4-f33f341fac1d"},"vehicle_type_id":"4","last_reported":1687205194,"current_range_meters":17600,"station_id":"ce4bh3p2rcd13ifvqdp0","pricing_plan_id":"free"},{"bike_id":"372a747f-b3e2-42c9-9975-8fb5eeb828c6","system_id":"levelo_inurba_marseille","lat":43.295169,"lon":5.390426,"is_reserved":false,"is_disabled":false,"rental_uris":{"android":"levelo://app?vid=372a747f-b3e2-42c9-9975-8fb5eeb828c6","ios":"levelo://app?vid=372a747f-b3e2-42c9-9975-8fb5eeb828c6"},"vehicle_type_id":"4","last_reported":1687205194,"current_range_meters":24000,"station_id":"ce4bh3p2rcd13ifvqdp0","pricing_plan_id":"free"},{"bike_id":"f0024a45-4aa0-4dee-88fa-9912da60206c","system_id":"levelo_inurba_marseille","lat":43.295169,"lon":5.390426,"is_reserved":false,"is_disabled":false,"rental_uris":{"android":"levelo://app?vid=f0024a45-4aa0-4dee-88fa-9912da60206c","ios":"levelo://app?vid=f0024a45-4aa0-4dee-88fa-9912da60206c"},"vehicle_type_id":"4","last_reported":1687205194,"current_range_meters":21600,"station_id":"ce4bh3p2rcd13ifvqdp0","pricing_plan_id":"free"},{"bike_id":"b9b44b37-7edf-4ab6-8685-17eb58a26dbc","system_id":"levelo_inurba_marseille","lat":43.295169,"lon":5.390426,"is_reserved":false,"is_disabled":false,"rental_uris":{"android":"levelo://app?vid=b9b44b37-7edf-4ab6-8685-17eb58a26dbc","ios":"levelo://app?vid=b9b44b37-7edf-4ab6-8685-17eb58a26dbc"},"vehicle_type_id":"4","last_reported":1687205194,"current_range_meters":31200,"station_id":"ce4bh3p2rcd13ifvqdp0","pricing_plan_id":"free"},{"bike_id":"704e4e02-2735-423c-a05e-0054ac61315c","system_id":"levelo_inurba_marseille","lat":43.295169,"lon":5.390426,"is_reserved":false,"is_disabled":false,"rental_uris":{"android":"levelo://app?vid=704e4e02-2735-423c-a05e-0054ac61315c","ios":"levelo://app?vid=704e4e02-2735-423c-a05e-0054ac61315c"},"vehicle_type_id":"4","last_reported":1687205194,"current_range_meters":13600,"station_id":"ce4bh3p2rcd13ifvqdp0","pricing_plan_id":"free"},{"bike_id":"dbf061f2-72bf-4ade-b69a-4b731333442f","system_id":"levelo_inurba_marseille","lat":43.295169,"lon":5.390426,"is_reserved":false,"is_disabled":false,"rental_uris":{"android":"levelo://app?vid=dbf061f2-72bf-4ade-b69a-4b731333442f","ios":"levelo://app?vid=dbf061f2-72bf-4ade-b69a-4b731333442f"},"vehicle_type_id":"4","last_reported":1687205194,"current_range_meters":21200,"station_id":"ce4bh3p2rcd13ifvqdp0","pricing_plan_id":"free"},{"bike_id":"33510915-09ce-4b3d-948a-520fc36327fb","system_id":"levelo_inurba_marseille","lat":43.295169,"lon":5.390426,"is_reserved":false,"is_disabled":false,"rental_uris":{"android":"levelo://app?vid=33510915-09ce-4b3d-948a-520fc36327fb","ios":"levelo://app?vid=33510915-09ce-4b3d-948a-520fc36327fb"},"vehicle_type_id":"4","last_reported":1687205194,"current_range_meters":30800,"station_id":"ce4bh3p2rcd13ifvqdp0","pricing_plan_id":"free"},{"bike_id":"401b4dd4-ac16-414a-b7b8-c566af4b6360","system_id":"levelo_inurba_marseille","lat":43.28856,"lon":5.358371,"is_reserved":false,"is_disabled":false,"rental_uris":{"android":"levelo://app?vid=401b4dd4-ac16-414a-b7b8-c566af4b6360","ios":"levelo://app?vid=401b4dd4-ac16-414a-b7b8-c566af4b6360"},"vehicle_type_id":"4","last_reported":1687205194,"current_range_meters":29200,"station_id":"ce4bhb12rcd13ifvqem0","pricing_plan_id":"free"},{"bike_id":"40d2f73b-5520-4627-ade9-c4d186012c09","system_id":"levelo_inurba_marseille","lat":43.28856,"lon":5.358371,"is_reserved":false,"is_disabled":false,"rental_uris":{"android":"levelo://app?vid=40d2f73b-5520-4627-ade9-c4d186012c09","ios":"levelo://app?vid=40d2f73b-5520-4627-ade9-c4d186012c09"},"vehicle_type_id":"4","last_reported":1687205194,"current_range_meters":0,"station_id":"ce4bhb12rcd13ifvqem0","pricing_plan_id":"free"},{"bike_id":"e006e3f1-73af-4d4d-8626-313aed5b5829","system_id":"levelo_inurba_marseille","lat":43.3093,"lon":5.40132,"is_reserved":false,"is_disabled":false,"rental_uris":{"android":"levelo://app?vid=e006e3f1-73af-4d4d-8626-313aed5b5829","ios":"levelo://app?vid=e006e3f1-73af-4d4d-8626-313aed5b5829"},"vehicle_type_id":"4","last_reported":1687205194,"current_range_meters":8000,"station_id":"ce4bgvp2rcd13ifvqct0","pricing_plan_id":"free"},{"bike_id":"d23da691-1ad9-401f-8ad8-0a9defbe9b1a","system_id":"levelo_inurba_marseille","lat":43.30928,"lon":5.40142,"is_reserved":false,"is_disabled":false,"rental_uris":{"android":"levelo://app?vid=d23da691-1ad9-401f-8ad8-0a9defbe9b1a","ios":"levelo://app?vid=d23da691-1ad9-401f-8ad8-0a9defbe9b1a"},"vehicle_type_id":"4","last_reported":1687205194,"current_range_meters":3600,"station_id":"ce4bgvp2rcd13ifvqct0","pricing_plan_id":"free"},{"bike_id":"88e31033-4f89-4587-8c47-fe8ed0779fbc","system_id":"levelo_inurba_marseille","lat":43.30925,"lon":5.40145,"is_reserved":false,"is_disabled":false,"rental_uris":{"android":"levelo://app?vid=88e31033-4f89-4587-8c47-fe8ed0779fbc","ios":"levelo://app?vid=88e31033-4f89-4587-8c47-fe8ed0779fbc"},"vehicle_type_id":"4","last_reported":1687205194,"current_range_meters":10800,"station_id":"ce4bgvp2rcd13ifvqct0","pricing_plan_id":"free"},{"bike_id":"597f3c43-c39f-4923-a2b3-d905b18f3e9a","system_id":"levelo_inurba_marseille","lat":43.30647,"lon":5.40074,"is_reserved":false,"is_disabled":false,"rental_uris":{"android":"levelo://app?vid=597f3c43-c39f-4923-a2b3-d905b18f3e9a","ios":"levelo://app?vid=597f3c43-c39f-4923-a2b3-d905b18f3e9a"},"vehicle_type_id":"4","last_reported":1687205194,"current_range_meters":9600,"station_id":"","pricing_plan_id":"free"},{"bike_id":"db7d0f1c-1716-4712-b15a-04ba07ba0f96","system_id":"levelo_inurba_marseille","lat":43.3065,"lon":5.40076,"is_reserved":false,"is_disabled":false,"rental_uris":{"android":"levelo://app?vid=db7d0f1c-1716-4712-b15a-04ba07ba0f96","ios":"levelo://app?vid=db7d0f1c-1716-4712-b15a-04ba07ba0f96"},"vehicle_type_id":"4","last_reported":1687205194,"current_range_meters":19200,"station_id":"ce4bh112rcd13ifvqda0","pricing_plan_id":"free"},{"bike_id":"41a8749b-6d93-4d1b-8e52-c5f60f65ae7c","system_id":"levelo_inurba_marseille","lat":43.33756,"lon":5.3745,"is_reserved":false,"is_disabled":false,"rental_uris":{"android":"levelo://app?vid=41a8749b-6d93-4d1b-8e52-c5f60f65ae7c","ios":"levelo://app?vid=41a8749b-6d93-4d1b-8e52-c5f60f65ae7c"},"vehicle_type_id":"4","last_reported":1687205194,"current_range_meters":30400,"station_id":"","pricing_plan_id":"free"},{"bike_id":"42a2a75a-9d72-4603-bca9-e6720bab50e0","system_id":"levelo_inurba_marseille","lat":43.306412,"lon":5.401035,"is_reserved":false,"is_disabled":false,"rental_uris":{"android":"levelo://app?vid=42a2a75a-9d72-4603-bca9-e6720bab50e0","ios":"levelo://app?vid=42a2a75a-9d72-4603-bca9-e6720bab50e0"},"vehicle_type_id":"4","last_reported":1687205194,"current_range_meters":23600,"station_id":"ce4bh112rcd13ifvqda0","pricing_plan_id":"free"},{"bike_id":"b34b0b72-8cc8-4086-a968-440a07c19996","system_id":"levelo_inurba_marseille","lat":43.30583,"lon":5.40103,"is_reserved":false,"is_disabled":false,"rental_uris":{"android":"levelo://app?vid=b34b0b72-8cc8-4086-a968-440a07c19996","ios":"levelo://app?vid=b34b0b72-8cc8-4086-a968-440a07c19996"},"vehicle_type_id":"4","last_reported":1687205194,"current_range_meters":15600,"station_id":"","pricing_plan_id":"free"},{"bike_id":"a859e5bc-6ff4-4b17-a34d-b8d8f44c2788","system_id":"levelo_inurba_marseille","lat":43.28709,"lon":5.37361,"is_reserved":false,"is_disabled":false,"rental_uris":{"android":"levelo://app?vid=a859e5bc-6ff4-4b17-a34d-b8d8f44c2788","ios":"levelo://app?vid=a859e5bc-6ff4-4b17-a34d-b8d8f44c2788"},"vehicle_type_id":"4","last_reported":1687205194,"current_range_meters":8800,"station_id":"ce4bh3p2rcd13ifvqdq0","pricing_plan_id":"free"},{"bike_id":"d58e2862-e122-4c0d-85cc-e1677792f8a8","system_id":"levelo_inurba_marseille","lat":43.28709,"lon":5.37382,"is_reserved":false,"is_disabled":false,"rental_uris":{"android":"levelo://app?vid=d58e2862-e122-4c0d-85cc-e1677792f8a8","ios":"levelo://app?vid=d58e2862-e122-4c0d-85cc-e1677792f8a8"},"vehicle_type_id":"4","last_reported":1687205194,"current_range_meters":27600,"station_id":"ce4bh3p2rcd13ifvqdq0","pricing_plan_id":"free"},{"bike_id":"bd25ace9-ff77-492f-9ad4-aa5a03f1f10b","system_id":"levelo_inurba_marseille","lat":43.298681,"lon":5.397225,"is_reserved":false,"is_disabled":false,"rental_uris":{"android":"levelo://app?vid=bd25ace9-ff77-492f-9ad4-aa5a03f1f10b","ios":"levelo://app?vid=bd25ace9-ff77-492f-9ad4-aa5a03f1f10b"},"vehicle_type_id":"4","last_reported":1687205194,"current_range_meters":7200,"station_id":"ce4bh0h2rcd13ifvqd50","pricing_plan_id":"free"},{"bike_id":"6de98da6-6b85-4650-826c-cee1e1701899","system_id":"levelo_inurba_marseille","lat":43.28705,"lon":5.37385,"is_reserved":false,"is_disabled":false,"rental_uris":{"android":"levelo://app?vid=6de98da6-6b85-4650-826c-cee1e1701899","ios":"levelo://app?vid=6de98da6-6b85-4650-826c-cee1e1701899"},"vehicle_type_id":"4","last_reported":1687205194,"current_range_meters":20400,"station_id":"ce4bh3p2rcd13ifvqdq0","pricing_plan_id":"free"},{"bike_id":"c19d18ab-0551-4b60-9271-c56c586526af","system_id":"levelo_inurba_marseille","lat":43.286591,"lon":5.363346,"is_reserved":false,"is_disabled":false,"rental_uris":{"android":"levelo://app?vid=c19d18ab-0551-4b60-9271-c56c586526af","ios":"levelo://app?vid=c19d18ab-0551-4b60-9271-c56c586526af"},"vehicle_type_id":"4","last_reported":1687205194,"current_range_meters":22800,"station_id":"ce4bhah2rcd13ifvqej0","pricing_plan_id":"free"},{"bike_id":"c476a54f-8d83-4e77-a2f2-049d903ad886","system_id":"levelo_inurba_marseille","lat":43.28704,"lon":5.37384,"is_reserved":false,"is_disabled":false,"rental_uris":{"android":"levelo://app?vid=c476a54f-8d83-4e77-a2f2-049d903ad886","ios":"levelo://app?vid=c476a54f-8d83-4e77-a2f2-049d903ad886"},"vehicle_type_id":"4","last_reported":1687205194,"current_range_meters":24800,"station_id":"ce4bh3p2rcd13ifvqdq0","pricing_plan_id":"free"},{"bike_id":"77f87782-71ce-4bfc-b347-ed91a6cb4e6b","system_id":"levelo_inurba_marseille","lat":43.286961,"lon":5.373785,"is_reserved":false,"is_disabled":false,"rental_uris":{"android":"levelo://app?vid=77f87782-71ce-4bfc-b347-ed91a6cb4e6b","ios":"levelo://app?vid=77f87782-71ce-4bfc-b347-ed91a6cb4e6b"},"vehicle_type_id":"4","last_reported":1687205194,"current_range_meters":26800,"station_id":"ce4bh3p2rcd13ifvqdq0","pricing_plan_id":"free"},{"bike_id":"c89b08d5-a7d6-44dc-8524-449412d91a79","system_id":"levelo_inurba_marseille","lat":43.295196,"lon":5.39397,"is_reserved":false,"is_disabled":false,"rental_uris":{"android":"levelo://app?vid=c89b08d5-a7d6-44dc-8524-449412d91a79","ios":"levelo://app?vid=c89b08d5-a7d6-44dc-8524-449412d91a79"},"vehicle_type_id":"4","last_reported":1687205194,"current_range_meters":24000,"station_id":"ce4bh292rcd13ifvqdf0","pricing_plan_id":"free"},{"bike_id":"74bd893a-d183-4975-a74c-9e7eb43bc9f4","system_id":"levelo_inurba_marseille","lat":43.286591,"lon":5.363346,"is_reserved":false,"is_disabled":false,"rental_uris":{"android":"levelo://app?vid=74bd893a-d183-4975-a74c-9e7eb43bc9f4","ios":"levelo://app?vid=74bd893a-d183-4975-a74c-9e7eb43bc9f4"},"vehicle_type_id":"4","last_reported":1687205194,"current_range_meters":17600,"station_id":"ce4bhah2rcd13ifvqej0","pricing_plan_id":"free"},{"bike_id":"f6a9d880-3c4c-4303-9e41-a38c3d4fb2d9","system_id":"levelo_inurba_marseille","lat":43.286591,"lon":5.363346,"is_reserved":false,"is_disabled":false,"rental_uris":{"android":"levelo://app?vid=f6a9d880-3c4c-4303-9e41-a38c3d4fb2d9","ios":"levelo://app?vid=f6a9d880-3c4c-4303-9e41-a38c3d4fb2d9"},"vehicle_type_id":"4","last_reported":1687205194,"current_range_meters":24000,"station_id":"ce4bhah2rcd13ifvqej0","pricing_plan_id":"free"},{"bike_id":"59a8dd6e-0c6a-4f29-baa9-849daffd0f17","system_id":"levelo_inurba_marseille","lat":43.286591,"lon":5.363346,"is_reserved":false,"is_disabled":false,"rental_uris":{"android":"levelo://app?vid=59a8dd6e-0c6a-4f29-baa9-849daffd0f17","ios":"levelo://app?vid=59a8dd6e-0c6a-4f29-baa9-849daffd0f17"},"vehicle_type_id":"4","last_reported":1687205194,"current_range_meters":28000,"station_id":"ce4bhah2rcd13ifvqej0","pricing_plan_id":"free"},{"bike_id":"5bd24d25-dbfc-4194-9a30-1f85667f506b","system_id":"levelo_inurba_marseille","lat":43.287,"lon":5.37395,"is_reserved":false,"is_disabled":false,"rental_uris":{"android":"levelo://app?vid=5bd24d25-dbfc-4194-9a30-1f85667f506b","ios":"levelo://app?vid=5bd24d25-dbfc-4194-9a30-1f85667f506b"},"vehicle_type_id":"4","last_reported":1687205194,"current_range_meters":0,"station_id":"ce4bh3p2rcd13ifvqdq0","pricing_plan_id":"free"},{"bike_id":"7d9876a4-6d60-4a00-913f-f07acb5c951d","system_id":"levelo_inurba_marseille","lat":43.28697,"lon":5.37384,"is_reserved":false,"is_disabled":false,"rental_uris":{"android":"levelo://app?vid=7d9876a4-6d60-4a00-913f-f07acb5c951d","ios":"levelo://app?vid=7d9876a4-6d60-4a00-913f-f07acb5c951d"},"vehicle_type_id":"4","last_reported":1687205194,"current_range_meters":4800,"station_id":"ce4bh3p2rcd13ifvqdq0","pricing_plan_id":"free"},{"bike_id":"26f2452e-80d2-47a2-b2eb-062da5d2be94","system_id":"levelo_inurba_marseille","lat":43.286591,"lon":5.363346,"is_reserved":false,"is_disabled":false,"rental_uris":{"android":"levelo://app?vid=26f2452e-80d2-47a2-b2eb-062da5d2be94","ios":"levelo://app?vid=26f2452e-80d2-47a2-b2eb-062da5d2be94"},"vehicle_type_id":"4","last_reported":1687205194,"current_range_meters":21600,"station_id":"ce4bhah2rcd13ifvqej0","pricing_plan_id":"free"},{"bike_id":"6508969b-e311-4e99-a7e1-d3604e63463d","system_id":"levelo_inurba_marseille","lat":43.28695,"lon":5.37373,"is_reserved":false,"is_disabled":false,"rental_uris":{"android":"levelo://app?vid=6508969b-e311-4e99-a7e1-d3604e63463d","ios":"levelo://app?vid=6508969b-e311-4e99-a7e1-d3604e63463d"},"vehicle_type_id":"4","last_reported":1687205194,"current_range_meters":9200,"station_id":"ce4bh3p2rcd13ifvqdq0","pricing_plan_id":"free"},{"bike_id":"42ff071e-316a-4b7a-9675-009743f02561","system_id":"levelo_inurba_marseille","lat":43.28694,"lon":5.37379,"is_reserved":false,"is_disabled":false,"rental_uris":{"android":"levelo://app?vid=42ff071e-316a-4b7a-9675-009743f02561","ios":"levelo://app?vid=42ff071e-316a-4b7a-9675-009743f02561"},"vehicle_type_id":"4","last_reported":1687205194,"current_range_meters":3200,"station_id":"ce4bh3p2rcd13ifvqdq0","pricing_plan_id":"free"},{"bike_id":"b5bbddaf-5240-4ead-9806-c661f9de4fe1","system_id":"levelo_inurba_marseille","lat":43.295196,"lon":5.39397,"is_reserved":false,"is_disabled":false,"rental_uris":{"android":"levelo://app?vid=b5bbddaf-5240-4ead-9806-c661f9de4fe1","ios":"levelo://app?vid=b5bbddaf-5240-4ead-9806-c661f9de4fe1"},"vehicle_type_id":"4","last_reported":1687205194,"current_range_meters":13200,"station_id":"ce4bh292rcd13ifvqdf0","pricing_plan_id":"free"},{"bike_id":"eca0acdc-7d10-4eea-aa74-3b0ef91d232d","system_id":"levelo_inurba_marseille","lat":43.286593,"lon":5.363346,"is_reserved":false,"is_disabled":false,"rental_uris":{"android":"levelo://app?vid=eca0acdc-7d10-4eea-aa74-3b0ef91d232d","ios":"levelo://app?vid=eca0acdc-7d10-4eea-aa74-3b0ef91d232d"},"vehicle_type_id":"4","last_reported":1687205194,"current_range_meters":11200,"station_id":"ce4bhah2rcd13ifvqej0","pricing_plan_id":"free"},{"bike_id":"dbe8d5e1-a1c0-4a50-995c-b78c4cb8327b","system_id":"levelo_inurba_marseille","lat":43.298681,"lon":5.397225,"is_reserved":false,"is_disabled":false,"rental_uris":{"android":"levelo://app?vid=dbe8d5e1-a1c0-4a50-995c-b78c4cb8327b","ios":"levelo://app?vid=dbe8d5e1-a1c0-4a50-995c-b78c4cb8327b"},"vehicle_type_id":"4","last_reported":1687205194,"current_range_meters":4400,"station_id":"ce4bh0h2rcd13ifvqd50","pricing_plan_id":"free"},{"bike_id":"41438965-7576-4ba1-a2b9-bf2152b5fe96","system_id":"levelo_inurba_marseille","lat":43.286593,"lon":5.363346,"is_reserved":false,"is_disabled":false,"rental_uris":{"android":"levelo://app?vid=41438965-7576-4ba1-a2b9-bf2152b5fe96","ios":"levelo://app?vid=41438965-7576-4ba1-a2b9-bf2152b5fe96"},"vehicle_type_id":"4","last_reported":1687205194,"current_range_meters":31200,"station_id":"ce4bhah2rcd13ifvqej0","pricing_plan_id":"free"},{"bike_id":"0896dc81-9870-4d05-9d15-ec1bb925afc2","system_id":"levelo_inurba_marseille","lat":43.286593,"lon":5.363346,"is_reserved":false,"is_disabled":false,"rental_uris":{"android":"levelo://app?vid=0896dc81-9870-4d05-9d15-ec1bb925afc2","ios":"levelo://app?vid=0896dc81-9870-4d05-9d15-ec1bb925afc2"},"vehicle_type_id":"4","last_reported":1687205194,"current_range_meters":15200,"station_id":"ce4bhah2rcd13ifvqej0","pricing_plan_id":"free"},{"bike_id":"97c125aa-ba6a-4ada-a2c2-11da55f2d84f","system_id":"levelo_inurba_marseille","lat":43.295194,"lon":5.39397,"is_reserved":false,"is_disabled":false,"rental_uris":{"android":"levelo://app?vid=97c125aa-ba6a-4ada-a2c2-11da55f2d84f","ios":"levelo://app?vid=97c125aa-ba6a-4ada-a2c2-11da55f2d84f"},"vehicle_type_id":"4","last_reported":1687205194,"current_range_meters":2000,"station_id":"ce4bh292rcd13ifvqdf0","pricing_plan_id":"free"},{"bike_id":"910b273a-2078-4be7-9a1b-47952e614627","system_id":"levelo_inurba_marseille","lat":43.295194,"lon":5.39397,"is_reserved":false,"is_disabled":false,"rental_uris":{"android":"levelo://app?vid=910b273a-2078-4be7-9a1b-47952e614627","ios":"levelo://app?vid=910b273a-2078-4be7-9a1b-47952e614627"},"vehicle_type_id":"4","last_reported":1687205194,"current_range_meters":29600,"station_id":"ce4bh292rcd13ifvqdf0","pricing_plan_id":"free"},{"bike_id":"5284f260-dd31-4cd9-8ac9-e0974e8922dc","system_id":"levelo_inurba_marseille","lat":43.295194,"lon":5.39397,"is_reserved":false,"is_disabled":false,"rental_uris":{"android":"levelo://app?vid=5284f260-dd31-4cd9-8ac9-e0974e8922dc","ios":"levelo://app?vid=5284f260-dd31-4cd9-8ac9-e0974e8922dc"},"vehicle_type_id":"4","last_reported":1687205194,"current_range_meters":13600,"station_id":"ce4bh292rcd13ifvqdf0","pricing_plan_id":"free"},{"bike_id":"2c337063-752e-44c9-b51d-dca6a057f6e5","system_id":"levelo_inurba_marseille","lat":43.290345,"lon":5.38646,"is_reserved":false,"is_disabled":false,"rental_uris":{"android":"levelo://app?vid=2c337063-752e-44c9-b51d-dca6a057f6e5","ios":"levelo://app?vid=2c337063-752e-44c9-b51d-dca6a057f6e5"},"vehicle_type_id":"4","last_reported":1687205194,"current_range_meters":25600,"station_id":"ce4bh4p2rcd13ifvqe0g","pricing_plan_id":"free"},{"bike_id":"ccc78c48-0be9-4175-b265-c29f8574c0fb","system_id":"levelo_inurba_marseille","lat":43.295194,"lon":5.39397,"is_reserved":false,"is_disabled":false,"rental_uris":{"android":"levelo://app?vid=ccc78c48-0be9-4175-b265-c29f8574c0fb","ios":"levelo://app?vid=ccc78c48-0be9-4175-b265-c29f8574c0fb"},"vehicle_type_id":"4","last_reported":1687205194,"current_range_meters":31200,"station_id":"ce4bh292rcd13ifvqdf0","pricing_plan_id":"free"},{"bike_id":"92ecafca-5ced-414d-8c42-be91550aa936","system_id":"levelo_inurba_marseille","lat":43.290336,"lon":5.386425,"is_reserved":false,"is_disabled":false,"rental_uris":{"android":"levelo://app?vid=92ecafca-5ced-414d-8c42-be91550aa936","ios":"levelo://app?vid=92ecafca-5ced-414d-8c42-be91550aa936"},"vehicle_type_id":"4","last_reported":1687205194,"current_range_meters":29200,"station_id":"ce4bh4p2rcd13ifvqe0g","pricing_plan_id":"free"},{"bike_id":"99ea09e1-cc06-4716-82ad-59558d1689e2","system_id":"levelo_inurba_marseille","lat":43.286039,"lon":5.370679,"is_reserved":false,"is_disabled":false,"rental_uris":{"android":"levelo://app?vid=99ea09e1-cc06-4716-82ad-59558d1689e2","ios":"levelo://app?vid=99ea09e1-cc06-4716-82ad-59558d1689e2"},"vehicle_type_id":"4","last_reported":1687205194,"current_range_meters":16800,"station_id":"ce4bht12rcd13ifvqi60","pricing_plan_id":"free"},{"bike_id":"095bb42c-561c-40bd-b9f0-9cc61cbb6d31","system_id":"levelo_inurba_marseille","lat":43.286039,"lon":5.370679,"is_reserved":false,"is_disabled":false,"rental_uris":{"android":"levelo://app?vid=095bb42c-561c-40bd-b9f0-9cc61cbb6d31","ios":"levelo://app?vid=095bb42c-561c-40bd-b9f0-9cc61cbb6d31"},"vehicle_type_id":"4","last_reported":1687205194,"current_range_meters":8000,"station_id":"ce4bht12rcd13ifvqi60","pricing_plan_id":"free"},{"bike_id":"d048b0e3-e725-4084-9bad-c3b64fddba66","system_id":"levelo_inurba_marseille","lat":43.302759,"lon":5.400793,"is_reserved":false,"is_disabled":false,"rental_uris":{"android":"levelo://app?vid=d048b0e3-e725-4084-9bad-c3b64fddba66","ios":"levelo://app?vid=d048b0e3-e725-4084-9bad-c3b64fddba66"},"vehicle_type_id":"4","last_reported":1687205194,"current_range_meters":6400,"station_id":"ce4bgvh2rcd13ifvqcs0","pricing_plan_id":"free"},{"bike_id":"49e1651d-3a2f-47cd-8992-e4acb1b5d5bb","system_id":"levelo_inurba_marseille","lat":43.286039,"lon":5.370679,"is_reserved":false,"is_disabled":false,"rental_uris":{"android":"levelo://app?vid=49e1651d-3a2f-47cd-8992-e4acb1b5d5bb","ios":"levelo://app?vid=49e1651d-3a2f-47cd-8992-e4acb1b5d5bb"},"vehicle_type_id":"4","last_reported":1687205194,"current_range_meters":10400,"station_id":"ce4bht12rcd13ifvqi60","pricing_plan_id":"free"},{"bike_id":"a1c8ee6f-2199-4c03-904d-fd737f40cbfc","system_id":"levelo_inurba_marseille","lat":43.286039,"lon":5.370679,"is_reserved":false,"is_disabled":false,"rental_uris":{"android":"levelo://app?vid=a1c8ee6f-2199-4c03-904d-fd737f40cbfc","ios":"levelo://app?vid=a1c8ee6f-2199-4c03-904d-fd737f40cbfc"},"vehicle_type_id":"4","last_reported":1687205194,"current_range_meters":19200,"station_id":"ce4bht12rcd13ifvqi60","pricing_plan_id":"free"},{"bike_id":"a9f795b5-e874-4ef7-a488-5af35dccbd65","system_id":"levelo_inurba_marseille","lat":43.286039,"lon":5.370679,"is_reserved":false,"is_disabled":false,"rental_uris":{"android":"levelo://app?vid=a9f795b5-e874-4ef7-a488-5af35dccbd65","ios":"levelo://app?vid=a9f795b5-e874-4ef7-a488-5af35dccbd65"},"vehicle_type_id":"4","last_reported":1687205194,"current_range_meters":6400,"station_id":"ce4bht12rcd13ifvqi60","pricing_plan_id":"free"},{"bike_id":"c67abad2-7d99-4a97-b547-4caf697f84d5","system_id":"levelo_inurba_marseille","lat":43.286039,"lon":5.370679,"is_reserved":false,"is_disabled":false,"rental_uris":{"android":"levelo://app?vid=c67abad2-7d99-4a97-b547-4caf697f84d5","ios":"levelo://app?vid=c67abad2-7d99-4a97-b547-4caf697f84d5"},"vehicle_type_id":"4","last_reported":1687205194,"current_range_meters":16800,"station_id":"ce4bht12rcd13ifvqi60","pricing_plan_id":"free"},{"bike_id":"fa8ea5f8-793b-432d-85f3-feb7caffc709","system_id":"levelo_inurba_marseille","lat":43.28611,"lon":5.37086,"is_reserved":false,"is_disabled":false,"rental_uris":{"android":"levelo://app?vid=fa8ea5f8-793b-432d-85f3-feb7caffc709","ios":"levelo://app?vid=fa8ea5f8-793b-432d-85f3-feb7caffc709"},"vehicle_type_id":"4","last_reported":1687205194,"current_range_meters":1600,"station_id":"ce4bht12rcd13ifvqi60","pricing_plan_id":"free"},{"bike_id":"56ecc47f-47ac-4705-b725-7b66e9e6de9d","system_id":"levelo_inurba_marseille","lat":43.28609,"lon":5.37065,"is_reserved":false,"is_disabled":false,"rental_uris":{"android":"levelo://app?vid=56ecc47f-47ac-4705-b725-7b66e9e6de9d","ios":"levelo://app?vid=56ecc47f-47ac-4705-b725-7b66e9e6de9d"},"vehicle_type_id":"4","last_reported":1687205194,"current_range_meters":21600,"station_id":"ce4bht12rcd13ifvqi60","pricing_plan_id":"free"},{"bike_id":"be821724-5bb3-499c-a063-37a60b49f0a9","system_id":"levelo_inurba_marseille","lat":43.286039,"lon":5.370679,"is_reserved":false,"is_disabled":false,"rental_uris":{"android":"levelo://app?vid=be821724-5bb3-499c-a063-37a60b49f0a9","ios":"levelo://app?vid=be821724-5bb3-499c-a063-37a60b49f0a9"},"vehicle_type_id":"4","last_reported":1687205194,"current_range_meters":30400,"station_id":"ce4bht12rcd13ifvqi60","pricing_plan_id":"free"},{"bike_id":"1f8a0da9-42f1-42f6-b68f-454a3d9c27ee","system_id":"levelo_inurba_marseille","lat":43.287184,"lon":5.37937,"is_reserved":false,"is_disabled":false,"rental_uris":{"android":"levelo://app?vid=1f8a0da9-42f1-42f6-b68f-454a3d9c27ee","ios":"levelo://app?vid=1f8a0da9-42f1-42f6-b68f-454a3d9c27ee"},"vehicle_type_id":"4","last_reported":1687205194,"current_range_meters":28800,"station_id":"ce4bh9p2rcd13ifvqec0","pricing_plan_id":"free"},{"bike_id":"38ec8256-621c-4835-8698-80eb7ab4c4b4","system_id":"levelo_inurba_marseille","lat":43.287185,"lon":5.379373,"is_reserved":false,"is_disabled":false,"rental_uris":{"android":"levelo://app?vid=38ec8256-621c-4835-8698-80eb7ab4c4b4","ios":"levelo://app?vid=38ec8256-621c-4835-8698-80eb7ab4c4b4"},"vehicle_type_id":"4","last_reported":1687205194,"current_range_meters":4000,"station_id":"ce4bh9p2rcd13ifvqec0","pricing_plan_id":"free"},{"bike_id":"283774e1-c3ab-4bd5-bbdf-32a545d88480","system_id":"levelo_inurba_marseille","lat":43.287184,"lon":5.37937,"is_reserved":false,"is_disabled":false,"rental_uris":{"android":"levelo://app?vid=283774e1-c3ab-4bd5-bbdf-32a545d88480","ios":"levelo://app?vid=283774e1-c3ab-4bd5-bbdf-32a545d88480"},"vehicle_type_id":"4","last_reported":1687205194,"current_range_meters":28800,"station_id":"ce4bh9p2rcd13ifvqec0","pricing_plan_id":"free"},{"bike_id":"0b4f93c1-fc99-4353-b06c-bb5cc2178374","system_id":"levelo_inurba_marseille","lat":43.28977,"lon":5.38677,"is_reserved":false,"is_disabled":false,"rental_uris":{"android":"levelo://app?vid=0b4f93c1-fc99-4353-b06c-bb5cc2178374","ios":"levelo://app?vid=0b4f93c1-fc99-4353-b06c-bb5cc2178374"},"vehicle_type_id":"4","last_reported":1687205194,"current_range_meters":16000,"station_id":"","pricing_plan_id":"free"},{"bike_id":"cd0bebe8-4d51-452b-9ebc-5c634e8d5b38","system_id":"levelo_inurba_marseille","lat":43.287184,"lon":5.37937,"is_reserved":false,"is_disabled":false,"rental_uris":{"android":"levelo://app?vid=cd0bebe8-4d51-452b-9ebc-5c634e8d5b38","ios":"levelo://app?vid=cd0bebe8-4d51-452b-9ebc-5c634e8d5b38"},"vehicle_type_id":"4","last_reported":1687205194,"current_range_meters":10000,"station_id":"ce4bh9p2rcd13ifvqec0","pricing_plan_id":"free"},{"bike_id":"0366a65b-39d8-47a8-935d-16d0e1ade187","system_id":"levelo_inurba_marseille","lat":43.316517,"lon":5.404375,"is_reserved":false,"is_disabled":false,"rental_uris":{"android":"levelo://app?vid=0366a65b-39d8-47a8-935d-16d0e1ade187","ios":"levelo://app?vid=0366a65b-39d8-47a8-935d-16d0e1ade187"},"vehicle_type_id":"4","last_reported":1687205194,"current_range_meters":31200,"station_id":"ce4bh012rcd13ifvqd00","pricing_plan_id":"free"},{"bike_id":"e82d67ec-7742-4675-8fb6-a7d739f276fb","system_id":"levelo_inurba_marseille","lat":43.316517,"lon":5.404375,"is_reserved":false,"is_disabled":false,"rental_uris":{"android":"levelo://app?vid=e82d67ec-7742-4675-8fb6-a7d739f276fb","ios":"levelo://app?vid=e82d67ec-7742-4675-8fb6-a7d739f276fb"},"vehicle_type_id":"4","last_reported":1687205194,"current_range_meters":17600,"station_id":"ce4bh012rcd13ifvqd00","pricing_plan_id":"free"},{"bike_id":"588cb08b-7841-4614-93d1-566388f1e3a3","system_id":"levelo_inurba_marseille","lat":43.316517,"lon":5.404375,"is_reserved":false,"is_disabled":false,"rental_uris":{"android":"levelo://app?vid=588cb08b-7841-4614-93d1-566388f1e3a3","ios":"levelo://app?vid=588cb08b-7841-4614-93d1-566388f1e3a3"},"vehicle_type_id":"4","last_reported":1687205194,"current_range_meters":15600,"station_id":"ce4bh012rcd13ifvqd00","pricing_plan_id":"free"},{"bike_id":"6dda6d9b-07ee-4499-951c-7afb7ba5a2f4","system_id":"levelo_inurba_marseille","lat":43.31646,"lon":5.40435,"is_reserved":false,"is_disabled":false,"rental_uris":{"android":"levelo://app?vid=6dda6d9b-07ee-4499-951c-7afb7ba5a2f4","ios":"levelo://app?vid=6dda6d9b-07ee-4499-951c-7afb7ba5a2f4"},"vehicle_type_id":"4","last_reported":1687205194,"current_range_meters":28000,"station_id":"ce4bh012rcd13ifvqd00","pricing_plan_id":"free"},{"bike_id":"fb6d7503-112a-4e9d-9853-7b957cff013f","system_id":"levelo_inurba_marseille","lat":43.3165,"lon":5.40436,"is_reserved":false,"is_disabled":false,"rental_uris":{"android":"levelo://app?vid=fb6d7503-112a-4e9d-9853-7b957cff013f","ios":"levelo://app?vid=fb6d7503-112a-4e9d-9853-7b957cff013f"},"vehicle_type_id":"4","last_reported":1687205194,"current_range_meters":11200,"station_id":"ce4bh012rcd13ifvqd00","pricing_plan_id":"free"},{"bike_id":"545826c9-941d-4a1d-a65e-f0b1d830baa1","system_id":"levelo_inurba_marseille","lat":43.29191,"lon":5.39324,"is_reserved":false,"is_disabled":false,"rental_uris":{"android":"levelo://app?vid=545826c9-941d-4a1d-a65e-f0b1d830baa1","ios":"levelo://app?vid=545826c9-941d-4a1d-a65e-f0b1d830baa1"},"vehicle_type_id":"4","last_reported":1687205194,"current_range_meters":30000,"station_id":"ce4bh192rcd13ifvqdd0","pricing_plan_id":"free"},{"bike_id":"449af95a-7b68-48f9-9b49-5f77796e17f4","system_id":"levelo_inurba_marseille","lat":43.291994,"lon":5.392907,"is_reserved":false,"is_disabled":false,"rental_uris":{"android":"levelo://app?vid=449af95a-7b68-48f9-9b49-5f77796e17f4","ios":"levelo://app?vid=449af95a-7b68-48f9-9b49-5f77796e17f4"},"vehicle_type_id":"4","last_reported":1687205194,"current_range_meters":8800,"station_id":"ce4bh192rcd13ifvqdd0","pricing_plan_id":"free"},{"bike_id":"3b2f76b7-c379-4bd1-8bfe-2ae46fb3669d","system_id":"levelo_inurba_marseille","lat":43.291994,"lon":5.392907,"is_reserved":false,"is_disabled":false,"rental_uris":{"android":"levelo://app?vid=3b2f76b7-c379-4bd1-8bfe-2ae46fb3669d","ios":"levelo://app?vid=3b2f76b7-c379-4bd1-8bfe-2ae46fb3669d"},"vehicle_type_id":"4","last_reported":1687205194,"current_range_meters":14800,"station_id":"ce4bh192rcd13ifvqdd0","pricing_plan_id":"free"},{"bike_id":"8a6283e4-e183-4339-903a-57ff084e1820","system_id":"levelo_inurba_marseille","lat":43.291994,"lon":5.392907,"is_reserved":false,"is_disabled":false,"rental_uris":{"android":"levelo://app?vid=8a6283e4-e183-4339-903a-57ff084e1820","ios":"levelo://app?vid=8a6283e4-e183-4339-903a-57ff084e1820"},"vehicle_type_id":"4","last_reported":1687205194,"current_range_meters":21600,"station_id":"ce4bh192rcd13ifvqdd0","pricing_plan_id":"free"},{"bike_id":"a7fc1897-79df-49f5-b5a0-3a86b7ed938b","system_id":"levelo_inurba_marseille","lat":43.33356,"lon":5.39371,"is_reserved":false,"is_disabled":false,"rental_uris":{"android":"levelo://app?vid=a7fc1897-79df-49f5-b5a0-3a86b7ed938b","ios":"levelo://app?vid=a7fc1897-79df-49f5-b5a0-3a86b7ed938b"},"vehicle_type_id":"4","last_reported":1687205194,"current_range_meters":4400,"station_id":"","pricing_plan_id":"free"},{"bike_id":"0fc71b69-4e94-4f77-9ccb-d2651cefa289","system_id":"levelo_inurba_marseille","lat":43.28464,"lon":5.35898,"is_reserved":false,"is_disabled":false,"rental_uris":{"android":"levelo://app?vid=0fc71b69-4e94-4f77-9ccb-d2651cefa289","ios":"levelo://app?vid=0fc71b69-4e94-4f77-9ccb-d2651cefa289"},"vehicle_type_id":"4","last_reported":1687205194,"current_range_meters":22400,"station_id":"","pricing_plan_id":"free"},{"bike_id":"067d59e0-5c7b-4b23-a85c-32d2e7405ead","system_id":"levelo_inurba_marseille","lat":43.284534,"lon":5.358662,"is_reserved":false,"is_disabled":false,"rental_uris":{"android":"levelo://app?vid=067d59e0-5c7b-4b23-a85c-32d2e7405ead","ios":"levelo://app?vid=067d59e0-5c7b-4b23-a85c-32d2e7405ead"},"vehicle_type_id":"4","last_reported":1687205194,"current_range_meters":13600,"station_id":"ce4bhah2rcd13ifvqei0","pricing_plan_id":"free"},{"bike_id":"574d0051-386c-4c59-aa68-c10eead93831","system_id":"levelo_inurba_marseille","lat":43.28458,"lon":5.35895,"is_reserved":false,"is_disabled":false,"rental_uris":{"android":"levelo://app?vid=574d0051-386c-4c59-aa68-c10eead93831","ios":"levelo://app?vid=574d0051-386c-4c59-aa68-c10eead93831"},"vehicle_type_id":"4","last_reported":1687205194,"current_range_meters":16400,"station_id":"ce4bhah2rcd13ifvqei0","pricing_plan_id":"free"},{"bike_id":"112c4fef-0cd3-4194-a6ae-e92e70b287e5","system_id":"levelo_inurba_marseille","lat":43.284534,"lon":5.358662,"is_reserved":false,"is_disabled":false,"rental_uris":{"android":"levelo://app?vid=112c4fef-0cd3-4194-a6ae-e92e70b287e5","ios":"levelo://app?vid=112c4fef-0cd3-4194-a6ae-e92e70b287e5"},"vehicle_type_id":"4","last_reported":1687205194,"current_range_meters":25600,"station_id":"ce4bhah2rcd13ifvqei0","pricing_plan_id":"free"},{"bike_id":"2aa7921b-598c-4799-ab87-e650e9e7e1b3","system_id":"levelo_inurba_marseille","lat":43.284534,"lon":5.358662,"is_reserved":false,"is_disabled":false,"rental_uris":{"android":"levelo://app?vid=2aa7921b-598c-4799-ab87-e650e9e7e1b3","ios":"levelo://app?vid=2aa7921b-598c-4799-ab87-e650e9e7e1b3"},"vehicle_type_id":"4","last_reported":1687205194,"current_range_meters":19600,"station_id":"ce4bhah2rcd13ifvqei0","pricing_plan_id":"free"},{"bike_id":"c7875f67-2e7b-4098-b5c9-cfd1f193f550","system_id":"levelo_inurba_marseille","lat":43.284534,"lon":5.358662,"is_reserved":false,"is_disabled":false,"rental_uris":{"android":"levelo://app?vid=c7875f67-2e7b-4098-b5c9-cfd1f193f550","ios":"levelo://app?vid=c7875f67-2e7b-4098-b5c9-cfd1f193f550"},"vehicle_type_id":"4","last_reported":1687205194,"current_range_meters":18800,"station_id":"ce4bhah2rcd13ifvqei0","pricing_plan_id":"free"},{"bike_id":"92511ac5-cefe-4f24-a0b8-998109d1c924","system_id":"levelo_inurba_marseille","lat":43.284534,"lon":5.358662,"is_reserved":false,"is_disabled":false,"rental_uris":{"android":"levelo://app?vid=92511ac5-cefe-4f24-a0b8-998109d1c924","ios":"levelo://app?vid=92511ac5-cefe-4f24-a0b8-998109d1c924"},"vehicle_type_id":"4","last_reported":1687205194,"current_range_meters":14800,"station_id":"ce4bhah2rcd13ifvqei0","pricing_plan_id":"free"},{"bike_id":"87ba3843-7f13-459c-a8b8-3e43c845081b","system_id":"levelo_inurba_marseille","lat":43.284534,"lon":5.358662,"is_reserved":false,"is_disabled":false,"rental_uris":{"android":"levelo://app?vid=87ba3843-7f13-459c-a8b8-3e43c845081b","ios":"levelo://app?vid=87ba3843-7f13-459c-a8b8-3e43c845081b"},"vehicle_type_id":"4","last_reported":1687205194,"current_range_meters":3200,"station_id":"ce4bhah2rcd13ifvqei0","pricing_plan_id":"free"},{"bike_id":"7f684ca4-bf5b-4229-993b-ffee8bd6d310","system_id":"levelo_inurba_marseille","lat":43.294314,"lon":5.397498,"is_reserved":false,"is_disabled":false,"rental_uris":{"android":"levelo://app?vid=7f684ca4-bf5b-4229-993b-ffee8bd6d310","ios":"levelo://app?vid=7f684ca4-bf5b-4229-993b-ffee8bd6d310"},"vehicle_type_id":"4","last_reported":1687205194,"current_range_meters":31200,"station_id":"ce4bh3h2rcd13ifvqdo0","pricing_plan_id":"free"},{"bike_id":"3eff5fdd-0391-4072-bf77-7fb98feb0723","system_id":"levelo_inurba_marseille","lat":43.284534,"lon":5.358662,"is_reserved":false,"is_disabled":false,"rental_uris":{"android":"levelo://app?vid=3eff5fdd-0391-4072-bf77-7fb98feb0723","ios":"levelo://app?vid=3eff5fdd-0391-4072-bf77-7fb98feb0723"},"vehicle_type_id":"4","last_reported":1687205194,"current_range_meters":18800,"station_id":"ce4bhah2rcd13ifvqei0","pricing_plan_id":"free"},{"bike_id":"b086daeb-f46f-46b6-8420-2ec2c974bd0e","system_id":"levelo_inurba_marseille","lat":43.284534,"lon":5.358662,"is_reserved":false,"is_disabled":false,"rental_uris":{"android":"levelo://app?vid=b086daeb-f46f-46b6-8420-2ec2c974bd0e","ios":"levelo://app?vid=b086daeb-f46f-46b6-8420-2ec2c974bd0e"},"vehicle_type_id":"4","last_reported":1687205194,"current_range_meters":27200,"station_id":"ce4bhah2rcd13ifvqei0","pricing_plan_id":"free"},{"bike_id":"3f33731e-46ba-4934-9b8f-7454e90a2d0d","system_id":"levelo_inurba_marseille","lat":43.294314,"lon":5.397498,"is_reserved":false,"is_disabled":false,"rental_uris":{"android":"levelo://app?vid=3f33731e-46ba-4934-9b8f-7454e90a2d0d","ios":"levelo://app?vid=3f33731e-46ba-4934-9b8f-7454e90a2d0d"},"vehicle_type_id":"4","last_reported":1687205194,"current_range_meters":18400,"station_id":"ce4bh3h2rcd13ifvqdo0","pricing_plan_id":"free"},{"bike_id":"9e45e0fc-2192-4800-9e7b-3b671c1d3977","system_id":"levelo_inurba_marseille","lat":43.284534,"lon":5.358662,"is_reserved":false,"is_disabled":false,"rental_uris":{"android":"levelo://app?vid=9e45e0fc-2192-4800-9e7b-3b671c1d3977","ios":"levelo://app?vid=9e45e0fc-2192-4800-9e7b-3b671c1d3977"},"vehicle_type_id":"4","last_reported":1687205194,"current_range_meters":30400,"station_id":"ce4bhah2rcd13ifvqei0","pricing_plan_id":"free"},{"bike_id":"1315a5c3-75d6-4610-af85-28e786b5d881","system_id":"levelo_inurba_marseille","lat":43.284534,"lon":5.358662,"is_reserved":false,"is_disabled":false,"rental_uris":{"android":"levelo://app?vid=1315a5c3-75d6-4610-af85-28e786b5d881","ios":"levelo://app?vid=1315a5c3-75d6-4610-af85-28e786b5d881"},"vehicle_type_id":"4","last_reported":1687205194,"current_range_meters":12000,"station_id":"ce4bhah2rcd13ifvqei0","pricing_plan_id":"free"},{"bike_id":"fafa1ebe-3264-48de-a5a9-d148e565eb30","system_id":"levelo_inurba_marseille","lat":43.284534,"lon":5.358662,"is_reserved":false,"is_disabled":false,"rental_uris":{"android":"levelo://app?vid=fafa1ebe-3264-48de-a5a9-d148e565eb30","ios":"levelo://app?vid=fafa1ebe-3264-48de-a5a9-d148e565eb30"},"vehicle_type_id":"4","last_reported":1687205194,"current_range_meters":20400,"station_id":"ce4bhah2rcd13ifvqei0","pricing_plan_id":"free"},{"bike_id":"81495a49-6ba8-402b-bf62-2ac92962e6d2","system_id":"levelo_inurba_marseille","lat":43.284534,"lon":5.358662,"is_reserved":false,"is_disabled":false,"rental_uris":{"android":"levelo://app?vid=81495a49-6ba8-402b-bf62-2ac92962e6d2","ios":"levelo://app?vid=81495a49-6ba8-402b-bf62-2ac92962e6d2"},"vehicle_type_id":"4","last_reported":1687205194,"current_range_meters":8000,"station_id":"ce4bhah2rcd13ifvqei0","pricing_plan_id":"free"},{"bike_id":"3b818723-c420-4f99-923e-0e40dec0b476","system_id":"levelo_inurba_marseille","lat":43.284534,"lon":5.358662,"is_reserved":false,"is_disabled":false,"rental_uris":{"android":"levelo://app?vid=3b818723-c420-4f99-923e-0e40dec0b476","ios":"levelo://app?vid=3b818723-c420-4f99-923e-0e40dec0b476"},"vehicle_type_id":"4","last_reported":1687205194,"current_range_meters":8000,"station_id":"ce4bhah2rcd13ifvqei0","pricing_plan_id":"free"},{"bike_id":"86844344-5d9a-4b3b-b9f0-230e77a5bd99","system_id":"levelo_inurba_marseille","lat":43.284534,"lon":5.358662,"is_reserved":false,"is_disabled":false,"rental_uris":{"android":"levelo://app?vid=86844344-5d9a-4b3b-b9f0-230e77a5bd99","ios":"levelo://app?vid=86844344-5d9a-4b3b-b9f0-230e77a5bd99"},"vehicle_type_id":"4","last_reported":1687205194,"current_range_meters":7200,"station_id":"ce4bhah2rcd13ifvqei0","pricing_plan_id":"free"},{"bike_id":"3006740e-38f5-4f37-a73b-ef15133ead78","system_id":"levelo_inurba_marseille","lat":43.28456,"lon":5.35874,"is_reserved":false,"is_disabled":false,"rental_uris":{"android":"levelo://app?vid=3006740e-38f5-4f37-a73b-ef15133ead78","ios":"levelo://app?vid=3006740e-38f5-4f37-a73b-ef15133ead78"},"vehicle_type_id":"4","last_reported":1687205194,"current_range_meters":20800,"station_id":"ce4bhah2rcd13ifvqei0","pricing_plan_id":"free"},{"bike_id":"f0ae1263-172f-46cc-b476-ab8b5e0f0312","system_id":"levelo_inurba_marseille","lat":43.284534,"lon":5.358662,"is_reserved":false,"is_disabled":false,"rental_uris":{"android":"levelo://app?vid=f0ae1263-172f-46cc-b476-ab8b5e0f0312","ios":"levelo://app?vid=f0ae1263-172f-46cc-b476-ab8b5e0f0312"},"vehicle_type_id":"4","last_reported":1687205194,"current_range_meters":22800,"station_id":"ce4bhah2rcd13ifvqei0","pricing_plan_id":"free"},