{"last_updated":1740769632,"ttl":60,"version":"2.2","data":{"bikes":[{"bike_id":"1a92604f-5bf8-4d47-8ee7-131b9850a1ed","system_id":"levelo_inurba_marseille","lat":43.29438,"lon":5.38629,"is_reserved":false,"is_disabled":false,"rental_uris":{"android":"levelo://app?vid=1a92604f-5bf8-4d47-8ee7-131b9850a1ed","ios":"levelo://app?vid=1a92604f-5bf8-4d47-8ee7-131b9850a1ed"},"vehicle_type_id":"4","last_reported":1740769632,"current_range_meters":1200,"station_id":"ce4bh2h2rcd13ifvqdh0","pricing_plan_id":"cebpf4jnsgd1na2vs0mg"},{"bike_id":"8b6f5bfa-e58c-4139-8277-3a252ffc0668","system_id":"levelo_inurba_marseille","lat":43.28614,"lon":5.35101,"is_reserved":false,"is_disabled":false,"rental_uris":{"android":"levelo://app?vid=8b6f5bfa-e58c-4139-8277-3a252ffc0668","ios":"levelo://app?vid=8b6f5bfa-e58c-4139-8277-3a252ffc0668"},"vehicle_type_id":"4","last_reported":1740769632,"current_range_meters":2800,"station_id":"ce4bhch2rcd13ifvqeug","pricing_plan_id":"cebpf4jnsgd1na2vs0mg"},{"bike_id":"0a9af9a9-1e26-4d47-8248-91425291d6de","system_id":"levelo_inurba_marseille","lat":43.26958,"lon":5.38634,"is_reserved":false,"is_disabled":false,"rental_uris":{"android":"levelo://app?vid=0a9af9a9-1e26-4d47-8248-91425291d6de","ios":"levelo://app?vid=0a9af9a9-1e26-4d47-8248-91425291d6de"},"vehicle_type_id":"4","last_reported":1740769632,"current_range_meters":2800,"station_id":"ce4bhh92rcd13ifvqfh0","pricing_plan_id":"cebpf4jnsgd1na2vs0mg"},{"bike_id":"a9d562a9-d91a-4877-8df0-02045d15f771","system_id":"levelo_inurba_marseille","lat":43.29803,"lon":5.38101,"is_reserved":false,"is_disabled":false,"rental_uris":{"android":"levelo://app?vid=a9d562a9-d91a-4877-8df0-02045d15f771","ios":"levelo://app?vid=a9d562a9-d91a-4877-8df0-02045d15f771"},"vehicle_type_id":"4","last_reported":1740769632,"current_range_meters":2800,"station_id":"ce4bgip2rcd13ifvqbb0","pricing_plan_id":"cebpf4jnsgd1na2vs0mg"},{"bike_id":"6f1b72f4-7c77-472c-b611-396452c0bad3","system_id":"levelo_inurba_marseille","lat":43.28577,"lon":5.39495,"is_reserved":false,"is_disabled":false,"rental_uris":{"android":"levelo://app?vid=6f1b72f4-7c77-472c-b611-396452c0bad3","ios":"levelo://app?vid=6f1b72f4-7c77-472c-b611-396452c0bad3"},"vehicle_type_id":"4","last_reported":1740769632,"current_range_meters":2000,"station_id":"ce4bh292rcd13ifvqdg0","pricing_plan_id":"cebpf4jnsgd1na2vs0mg"},{"bike_id":"86739fb3-1ff6-4491-a1ac-d19fd4e73dbe","system_id":"levelo_inurba_marseille","lat":43.29423,"lon":5.38613,"is_reserved":false,"is_disabled":false,"rental_uris":{"android":"levelo://app?vid=86739fb3-1ff6-4491-a1ac-d19fd4e73dbe","ios":"levelo://app?vid=86739fb3-1ff6-4491-a1ac-d19fd4e73dbe"},"vehicle_type_id":"4","last_reported":1740769632,"current_range_meters":2800,"station_id":"ce4bh2h2rcd13ifvqdh0","pricing_plan_id":"cebpf4jnsgd1na2vs0mg"},{"bike_id":"36c5d2e6-ebfa-41e8-a592-5100f8d115d2","system_id":"levelo_inurba_marseille","lat":43.28708,"lon":5.39993,"is_reserved":false,"is_disabled":false,"rental_uris":{"android":"levelo://app?vid=36c5d2e6-ebfa-41e8-a592-5100f8d115d2","ios":"levelo://app?vid=36c5d2e6-ebfa-41e8-a592-5100f8d115d2"},"vehicle_type_id":"4","last_reported":1740769632,"current_range_meters":4800,"station_id":"ce4bho92rcd13ifvqh3g","pricing_plan_id":"cebpf4jnsgd1na2vs0mg"},{"bike_id":"23f33733-9e48-4f0e-89e6-8287c59106a5","system_id":"levelo_inurba_marseille","lat":43.28351,"lon":5.381,"is_reserved":false,"is_disabled":false,"rental_uris":{"android":"levelo://app?vid=23f33733-9e48-4f0e-89e6-8287c59106a5","ios":"levelo://app?vid=23f33733-9e48-4f0e-89e6-8287c59106a5"},"vehicle_type_id":"4","last_reported":1740769632,"current_range_meters":2800,"station_id":"ce4bh412rcd13ifvqdr0","pricing_plan_id":"cebpf4jnsgd1na2vs0mg"},{"bike_id":"cd3f4cf4-1fb5-4836-9a23-a7711110479a","system_id":"levelo_inurba_marseille","lat":43.26683,"lon":5.38267,"is_reserved":false,"is_disabled":false,"rental_uris":{"android":"levelo://app?vid=cd3f4cf4-1fb5-4836-9a23-a7711110479a","ios":"levelo://app?vid=cd3f4cf4-1fb5-4836-9a23-a7711110479a"},"vehicle_type_id":"4","last_reported":1740769632,"current_range_meters":2800,"station_id":"ce4bhg92rcd13ifvqf90","pricing_plan_id":"cebpf4jnsgd1na2vs0mg"},{"bike_id":"aa8cae61-f614-49d4-a6f9-04073c79edfc","system_id":"levelo_inurba_marseille","lat":43.2931,"lon":5.37169,"is_reserved":false,"is_disabled":false,"rental_uris":{"android":"levelo://app?vid=aa8cae61-f614-49d4-a6f9-04073c79edfc","ios":"levelo://app?vid=aa8cae61-f614-49d4-a6f9-04073c79edfc"},"vehicle_type_id":"4","last_reported":1740769632,"current_range_meters":3200,"station_id":"ce4bgh92rcd13ifvqb40","pricing_plan_id":"cebpf4jnsgd1na2vs0mg"},{"bike_id":"9091ec34-e2d2-44ef-8fd0-f63ccc18c451","system_id":"levelo_inurba_marseille","lat":43.26951,"lon":5.38628,"is_reserved":false,"is_disabled":false,"rental_uris":{"android":"levelo://app?vid=9091ec34-e2d2-44ef-8fd0-f63ccc18c451","ios":"levelo://app?vid=9091ec34-e2d2-44ef-8fd0-f63ccc18c451"},"vehicle_type_id":"4","last_reported":1740769632,"current_range_meters":3200,"station_id":"ce4bhh92rcd13ifvqfh0","pricing_plan_id":"cebpf4jnsgd1na2vs0mg"},{"bike_id":"6cef07d3-7c6d-4ddb-bae8-9afc751e1644","system_id":"levelo_inurba_marseille","lat":43.29423,"lon":5.38626,"is_reserved":false,"is_disabled":false,"rental_uris":{"android":"levelo://app?vid=6cef07d3-7c6d-4ddb-bae8-9afc751e1644","ios":"levelo://app?vid=6cef07d3-7c6d-4ddb-bae8-9afc751e1644"},"vehicle_type_id":"4","last_reported":1740769632,"current_range_meters":3200,"station_id":"ce4bh2h2rcd13ifvqdh0","pricing_plan_id":"cebpf4jnsgd1na2vs0mg"},{"bike_id":"658c9600-5e3f-4c2a-bba2-3bb030d931b0","system_id":"levelo_inurba_marseille","lat":43.30885,"lon":5.39665,"is_reserved":false,"is_disabled":false,"rental_uris":{"android":"levelo://app?vid=658c9600-5e3f-4c2a-bba2-3bb030d931b0","ios":"levelo://app?vid=658c9600-5e3f-4c2a-bba2-3bb030d931b0"},"vehicle_type_id":"4","last_reported":1740769632,"current_range_meters":3200,"station_id":"ce4bh012rcd13ifvqcv0","pricing_plan_id":"cebpf4jnsgd1na2vs0mg"},{"bike_id":"a9aae0a9-d4df-4570-ba76-26f0d08f6102","system_id":"levelo_inurba_marseille","lat":43.30954,"lon":5.39051,"is_reserved":false,"is_disabled":false,"rental_uris":{"android":"levelo://app?vid=a9aae0a9-d4df-4570-ba76-26f0d08f6102","ios":"levelo://app?vid=a9aae0a9-d4df-4570-ba76-26f0d08f6102"},"vehicle_type_id":"4","last_reported":1740769632,"current_range_meters":4400,"station_id":"ce4bgup2rcd13ifvqco0","pricing_plan_id":"cebpf4jnsgd1na2vs0mg"},{"bike_id":"32868c2d-a268-4d0a-8f0d-f0a33470d335","system_id":"levelo_inurba_marseille","lat":43.30429,"lon":5.39747,"is_reserved":false,"is_disabled":false,"rental_uris":{"android":"levelo://app?vid=32868c2d-a268-4d0a-8f0d-f0a33470d335","ios":"levelo://app?vid=32868c2d-a268-4d0a-8f0d-f0a33470d335"},"vehicle_type_id":"4","last_reported":1740769632,"current_range_meters":3200,"station_id":"ce4bh092rcd13ifvqd20","pricing_plan_id":"cebpf4jnsgd1na2vs0mg"},{"bike_id":"821e24b4-49e7-4ea0-be3b-7d2f8dca3be2","system_id":"levelo_inurba_marseille","lat":43.32107,"lon":5.36764,"is_reserved":false,"is_disabled":false,"rental_uris":{"android":"levelo://app?vid=821e24b4-49e7-4ea0-be3b-7d2f8dca3be2","ios":"levelo://app?vid=821e24b4-49e7-4ea0-be3b-7d2f8dca3be2"},"vehicle_type_id":"4","last_reported":1740769632,"current_range_meters":3200,"station_id":"ce4bhrh2rcd13ifvqhug","pricing_plan_id":"cebpf4jnsgd1na2vs0mg"},{"bike_id":"6135e43a-1661-459b-a12e-4344877f1f50","system_id":"levelo_inurba_marseille","lat":43.29264,"lon":5.40907,"is_reserved":false,"is_disabled":false,"rental_uris":{"android":"levelo://app?vid=6135e43a-1661-459b-a12e-4344877f1f50","ios":"levelo://app?vid=6135e43a-1661-459b-a12e-4344877f1f50"},"vehicle_type_id":"4","last_reported":1740769632,"current_range_meters":3200,"station_id":"ce4bh192rcd13ifvqdc0","pricing_plan_id":"cebpf4jnsgd1na2vs0mg"},{"bike_id":"d22dadb3-c609-4f7d-8585-2baf5f6c3076","system_id":"levelo_inurba_marseille","lat":43.27814,"lon":5.40715,"is_reserved":false,"is_disabled":false,"rental_uris":{"android":"levelo://app?vid=d22dadb3-c609-4f7d-8585-2baf5f6c3076","ios":"levelo://app?vid=d22dadb3-c609-4f7d-8585-2baf5f6c3076"},"vehicle_type_id":"4","last_reported":1740769632,"current_range_meters":3200,"station_id":"ce4bhnh2rcd13ifvqgtg","pricing_plan_id":"cebpf4jnsgd1na2vs0mg"},{"bike_id":"300a05ce-cd50-4aea-86b1-8cf45270cb3b","system_id":"levelo_inurba_marseille","lat":43.30652,"lon":5.40095,"is_reserved":false,"is_disabled":false,"rental_uris":{"android":"levelo://app?vid=300a05ce-cd50-4aea-86b1-8cf45270cb3b","ios":"levelo://app?vid=300a05ce-cd50-4aea-86b1-8cf45270cb3b"},"vehicle_type_id":"4","last_reported":1740769632,"current_range_meters":1600,"station_id":"ce4bh112rcd13ifvqda0","pricing_plan_id":"cebpf4jnsgd1na2vs0mg"},{"bike_id":"0da6e0a1-a80c-4bfa-9f42-9441a63191ed","system_id":"levelo_inurba_marseille","lat":43.24814,"lon":5.3746,"is_reserved":false,"is_disabled":false,"rental_uris":{"android":"levelo://app?vid=0da6e0a1-a80c-4bfa-9f42-9441a63191ed","ios":"levelo://app?vid=0da6e0a1-a80c-4bfa-9f42-9441a63191ed"},"vehicle_type_id":"4","last_reported":1740769632,"current_range_meters":3600,"station_id":"ce4bhgh2rcd13ifvqfb0","pricing_plan_id":"cebpf4jnsgd1na2vs0mg"},{"bike_id":"fb63423b-c6d5-4271-a0b6-ba8e80e2282f","system_id":"levelo_inurba_marseille","lat":43.29604,"lon":5.38086,"is_reserved":false,"is_disabled":false,"rental_uris":{"android":"levelo://app?vid=fb63423b-c6d5-4271-a0b6-ba8e80e2282f","ios":"levelo://app?vid=fb63423b-c6d5-4271-a0b6-ba8e80e2282f"},"vehicle_type_id":"4","last_reported":1740769632,"current_range_meters":3600,"station_id":"ce4bgl12rcd13ifvqbo0","pricing_plan_id":"cebpf4jnsgd1na2vs0mg"},{"bike_id":"0e03c0d3-a297-4d5e-b98a-ae84e0203b9f","system_id":"levelo_inurba_marseille","lat":43.32002,"lon":5.38166,"is_reserved":false,"is_disabled":false,"rental_uris":{"android":"levelo://app?vid=0e03c0d3-a297-4d5e-b98a-ae84e0203b9f","ios":"levelo://app?vid=0e03c0d3-a297-4d5e-b98a-ae84e0203b9f"},"vehicle_type_id":"4","last_reported":1740769632,"current_range_meters":3200,"station_id":"ce4bhr12rcd13ifvqhpg","pricing_plan_id":"cebpf4jnsgd1na2vs0mg"},{"bike_id":"e9ca09aa-e838-4112-84fb-075d57b55fb0","system_id":"levelo_inurba_marseille","lat":43.26217,"lon":5.37438,"is_reserved":false,"is_disabled":false,"rental_uris":{"android":"levelo://app?vid=e9ca09aa-e838-4112-84fb-075d57b55fb0","ios":"levelo://app?vid=e9ca09aa-e838-4112-84fb-075d57b55fb0"},"vehicle_type_id":"4","last_reported":1740769632,"current_range_meters":2000,"station_id":"ce4bhgp2rcd13ifvqfc0","pricing_plan_id":"cebpf4jnsgd1na2vs0mg"},{"bike_id":"1ce8e669-4db6-4be4-b44f-d537b8c0fd11","system_id":"levelo_inurba_marseille","lat":43.27994,"lon":5.38769,"is_reserved":false,"is_disabled":false,"rental_uris":{"android":"levelo://app?vid=1ce8e669-4db6-4be4-b44f-d537b8c0fd11","ios":"levelo://app?vid=1ce8e669-4db6-4be4-b44f-d537b8c0fd11"},"vehicle_type_id":"4","last_reported":1740769632,"current_range_meters":4000,"station_id":"ce4bhg12rcd13ifvqf80","pricing_plan_id":"cebpf4jnsgd1na2vs0mg"},{"bike_id":"bd41a143-67f2-40b0-aad9-d5db494062ac","system_id":"levelo_inurba_marseille","lat":43.29271,"lon":5.38437,"is_reserved":false,"is_disabled":false,"rental_uris":{"android":"levelo://app?vid=bd41a143-67f2-40b0-aad9-d5db494062ac","ios":"levelo://app?vid=bd41a143-67f2-40b0-aad9-d5db494062ac"},"vehicle_type_id":"4","last_reported":1740769632,"current_range_meters":4000,"station_id":"ce4bh692rcd13ifvqea0","pricing_plan_id":"cebpf4jnsgd1na2vs0mg"},{"bike_id":"f76a9bb9-4bf0-4537-93d3-75de8415c2dd","system_id":"levelo_inurba_marseille","lat":43.30148,"lon":5.38068,"is_reserved":false,"is_disabled":false,"rental_uris":{"android":"levelo://app?vid=f76a9bb9-4bf0-4537-93d3-75de8415c2dd","ios":"levelo://app?vid=f76a9bb9-4bf0-4537-93d3-75de8415c2dd"},"vehicle_type_id":"4","last_reported":1740769632,"current_range_meters":3600,"station_id":"ce4bgjp2rcd13ifvqbh0","pricing_plan_id":"cebpf4jnsgd1na2vs0mg"},{"bike_id":"d43f306a-a676-4a9f-95b4-f5284935f917","system_id":"levelo_inurba_marseille","lat":43.31649,"lon":5.40428,"is_reserved":false,"is_disabled":false,"rental_uris":{"android":"levelo://app?vid=d43f306a-a676-4a9f-95b4-f5284935f917","ios":"levelo://app?vid=d43f306a-a676-4a9f-95b4-f5284935f917"},"vehicle_type_id":"4","last_reported":1740769632,"current_range_meters":4000,"station_id":"","pricing_plan_id":"cebpf4jnsgd1na2vs0mg"},{"bike_id":"07431943-c3e2-46c6-bff4-bcf3d09b554d","system_id":"levelo_inurba_marseille","lat":43.32,"lon":5.3816,"is_reserved":false,"is_disabled":false,"rental_uris":{"android":"levelo://app?vid=07431943-c3e2-46c6-bff4-bcf3d09b554d","ios":"levelo://app?vid=07431943-c3e2-46c6-bff4-bcf3d09b554d"},"vehicle_type_id":"4","last_reported":1740769632,"current_range_meters":4000,"station_id":"ce4bhr12rcd13ifvqhpg","pricing_plan_id":"cebpf4jnsgd1na2vs0mg"},{"bike_id":"5b7dff33-3897-453e-8549-1a6e9c2dc1be","system_id":"levelo_inurba_marseille","lat":43.2558,"lon":5.38242,"is_reserved":false,"is_disabled":false,"rental_uris":{"android":"levelo://app?vid=5b7dff33-3897-453e-8549-1a6e9c2dc1be","ios":"levelo://app?vid=5b7dff33-3897-453e-8549-1a6e9c2dc1be"},"vehicle_type_id":"4","last_reported":1740769632,"current_range_meters":4400,"station_id":"ce4bhih2rcd13ifvqfs0","pricing_plan_id":"cebpf4jnsgd1na2vs0mg"},{"bike_id":"a712d588-4b65-4e45-9ffa-0674dcc4d15a","system_id":"levelo_inurba_marseille","lat":43.29727,"lon":5.36619,"is_reserved":false,"is_disabled":false,"rental_uris":{"android":"levelo://app?vid=a712d588-4b65-4e45-9ffa-0674dcc4d15a","ios":"levelo://app?vid=a712d588-4b65-4e45-9ffa-0674dcc4d15a"},"vehicle_type_id":"4","last_reported":1740769632,"current_range_meters":4000,"station_id":"ce4bgn12rcd13ifvqbt0","pricing_plan_id":"cebpf4jnsgd1na2vs0mg"},{"bike_id":"64faff75-8560-405b-9d08-f43485363478","system_id":"levelo_inurba_marseille","lat":43.26067,"lon":5.39386,"is_reserved":false,"is_disabled":false,"rental_uris":{"android":"levelo://app?vid=64faff75-8560-405b-9d08-f43485363478","ios":"levelo://app?vid=64faff75-8560-405b-9d08-f43485363478"},"vehicle_type_id":"4","last_reported":1740769632,"current_range_meters":4000,"station_id":"ce4bhh92rcd13ifvqfj0","pricing_plan_id":"cebpf4jnsgd1na2vs0mg"},{"bike_id":"6ef2d5b0-e2be-4b34-bcbf-65a8b9369a95","system_id":"levelo_inurba_marseille","lat":43.28627,"lon":5.35101,"is_reserved":false,"is_disabled":false,"rental_uris":{"android":"levelo://app?vid=6ef2d5b0-e2be-4b34-bcbf-65a8b9369a95","ios":"levelo://app?vid=6ef2d5b0-e2be-4b34-bcbf-65a8b9369a95"},"vehicle_type_id":"4","last_reported":1740769632,"current_range_meters":2000,"station_id":"ce4bhch2rcd13ifvqeug","pricing_plan_id":"cebpf4jnsgd1na2vs0mg"},{"bike_id":"4e92ad20-f1c9-4e8d-be26-28b682c15e81","system_id":"levelo_inurba_marseille","lat":43.28616,"lon":5.35103,"is_reserved":false,"is_disabled":false,"rental_uris":{"android":"levelo://app?vid=4e92ad20-f1c9-4e8d-be26-28b682c15e81","ios":"levelo://app?vid=4e92ad20-f1c9-4e8d-be26-28b682c15e81"},"vehicle_type_id":"4","last_reported":1740769632,"current_range_meters":0,"station_id":"ce4bhch2rcd13ifvqeug","pricing_plan_id":"cebpf4jnsgd1na2vs0mg"},{"bike_id":"dbb938bf-03cb-4b54-bd0d-6b81eaab63cf","system_id":"levelo_inurba_marseille","lat":43.28404,"lon":5.37515,"is_reserved":false,"is_disabled":false,"rental_uris":{"android":"levelo://app?vid=dbb938bf-03cb-4b54-bd0d-6b81eaab63cf","ios":"levelo://app?vid=dbb938bf-03cb-4b54-bd0d-6b81eaab63cf"},"vehicle_type_id":"4","last_reported":1740769632,"current_range_meters":4000,"station_id":"ce4bh412rcd13ifvqds0","pricing_plan_id":"cebpf4jnsgd1na2vs0mg"},{"bike_id":"e9783a72-39c5-49e7-8847-fa0f76b6d257","system_id":"levelo_inurba_marseille","lat":43.29977,"lon":5.38482,"is_reserved":false,"is_disabled":true,"rental_uris":{"android":"levelo://app?vid=e9783a72-39c5-49e7-8847-fa0f76b6d257","ios":"levelo://app?vid=e9783a72-39c5-49e7-8847-fa0f76b6d257"},"vehicle_type_id":"4","last_reported":1740769632,"current_range_meters":4800,"station_id":"ce4bgj92rcd13ifvqbd0","pricing_plan_id":"cebpf4jnsgd1na2vs0mg"},{"bike_id":"975e5f22-d3c9-4a45-8ecc-3d8debf06201","system_id":"levelo_inurba_marseille","lat":43.29715,"lon":5.36619,"is_reserved":false,"is_disabled":false,"rental_uris":{"android":"levelo://app?vid=975e5f22-d3c9-4a45-8ecc-3d8debf06201","ios":"levelo://app?vid=975e5f22-d3c9-4a45-8ecc-3d8debf06201"},"vehicle_type_id":"4","last_reported":1740769632,"current_range_meters":3600,"station_id":"ce4bgn12rcd13ifvqbt0","pricing_plan_id":"cebpf4jnsgd1na2vs0mg"},{"bike_id":"bb5465a0-a5e4-4af9-bcec-28adcf24376f","system_id":"levelo_inurba_marseille","lat":43.29198,"lon":5.3932,"is_reserved":false,"is_disabled":false,"rental_uris":{"android":"levelo://app?vid=bb5465a0-a5e4-4af9-bcec-28adcf24376f","ios":"levelo://app?vid=bb5465a0-a5e4-4af9-bcec-28adcf24376f"},"vehicle_type_id":"4","last_reported":1740769632,"current_range_meters":4800,"station_id":"ce4bh192rcd13ifvqdd0","pricing_plan_id":"cebpf4jnsgd1na2vs0mg"},{"bike_id":"a8328c72-27ce-4150-a953-d0b7993a21b2","system_id":"levelo_inurba_marseille","lat":43.29263,"lon":5.37617,"is_reserved":false,"is_disabled":false,"rental_uris":{"android":"levelo://app?vid=a8328c72-27ce-4150-a953-d0b7993a21b2","ios":"levelo://app?vid=a8328c72-27ce-4150-a953-d0b7993a21b2"},"vehicle_type_id":"4","last_reported":1740769632,"current_range_meters":4800,"station_id":"ce4bgi12rcd13ifvqb80","pricing_plan_id":"cebpf4jnsgd1na2vs0mg"},{"bike_id":"049dbaef-bf7d-467f-8e77-0ad41e5cb2fe","system_id":"levelo_inurba_marseille","lat":43.29031,"lon":5.35908,"is_reserved":false,"is_disabled":false,"rental_uris":{"android":"levelo://app?vid=049dbaef-bf7d-467f-8e77-0ad41e5cb2fe","ios":"levelo://app?vid=049dbaef-bf7d-467f-8e77-0ad41e5cb2fe"},"vehicle_type_id":"4","last_reported":1740769632,"current_range_meters":5600,"station_id":"ce4bha92rcd13ifvqeg0","pricing_plan_id":"cebpf4jnsgd1na2vs0mg"},{"bike_id":"6c6d6ca8-05c1-484e-958c-563948c71bb6","system_id":"levelo_inurba_marseille","lat":43.29526,"lon":5.39037,"is_reserved":false,"is_disabled":false,"rental_uris":{"android":"levelo://app?vid=6c6d6ca8-05c1-484e-958c-563948c71bb6","ios":"levelo://app?vid=6c6d6ca8-05c1-484e-958c-563948c71bb6"},"vehicle_type_id":"4","last_reported":1740769632,"current_range_meters":1200,"station_id":"ce4bh3p2rcd13ifvqdp0","pricing_plan_id":"cebpf4jnsgd1na2vs0mg"},{"bike_id":"7e2d0214-3706-4f83-9447-b4c2396016b8","system_id":"levelo_inurba_marseille","lat":43.27807,"lon":5.40684,"is_reserved":false,"is_disabled":false,"rental_uris":{"android":"levelo://app?vid=7e2d0214-3706-4f83-9447-b4c2396016b8","ios":"levelo://app?vid=7e2d0214-3706-4f83-9447-b4c2396016b8"},"vehicle_type_id":"4","last_reported":1740769632,"current_range_meters":5600,"station_id":"ce4bhnh2rcd13ifvqgtg","pricing_plan_id":"cebpf4jnsgd1na2vs0mg"},{"bike_id":"a402dcb0-63b6-4569-b9e8-ad825500c3f8","system_id":"levelo_inurba_marseille","lat":43.2901,"lon":5.35947,"is_reserved":false,"is_disabled":false,"rental_uris":{"android":"levelo://app?vid=a402dcb0-63b6-4569-b9e8-ad825500c3f8","ios":"levelo://app?vid=a402dcb0-63b6-4569-b9e8-ad825500c3f8"},"vehicle_type_id":"4","last_reported":1740769632,"current_range_meters":5600,"station_id":"","pricing_plan_id":"cebpf4jnsgd1na2vs0mg"},{"bike_id":"1d8752c0-e276-464c-9e4e-539ec4cc5160","system_id":"levelo_inurba_marseille","lat":43.31082,"lon":5.42432,"is_reserved":false,"is_disabled":false,"rental_uris":{"android":"levelo://app?vid=1d8752c0-e276-464c-9e4e-539ec4cc5160","ios":"levelo://app?vid=1d8752c0-e276-464c-9e4e-539ec4cc5160"},"vehicle_type_id":"4","last_reported":1740769632,"current_range_meters":5600,"station_id":"ce4bhp92rcd13ifvqhag","pricing_plan_id":"cebpf4jnsgd1na2vs0mg"},{"bike_id":"39b10acf-6936-42e7-8e6e-b1a68f4ca84d","system_id":"levelo_inurba_marseille","lat":43.2893,"lon":5.3839,"is_reserved":false,"is_disabled":false,"rental_uris":{"android":"levelo://app?vid=39b10acf-6936-42e7-8e6e-b1a68f4ca84d","ios":"levelo://app?vid=39b10acf-6936-42e7-8e6e-b1a68f4ca84d"},"vehicle_type_id":"4","last_reported":1740769632,"current_range_meters":4800,"station_id":"ce4bh612rcd13ifvqe6g","pricing_plan_id":"cebpf4jnsgd1na2vs0mg"},{"bike_id":"54a667ee-6d08-4b96-a85f-315a744d7be3","system_id":"levelo_inurba_marseille","lat":43.30797,"lon":5.43528,"is_reserved":false,"is_disabled":false,"rental_uris":{"android":"levelo://app?vid=54a667ee-6d08-4b96-a85f-315a744d7be3","ios":"levelo://app?vid=54a667ee-6d08-4b96-a85f-315a744d7be3"},"vehicle_type_id":"4","last_reported":1740769632,"current_range_meters":10000,"station_id":"ce4bhph2rcd13ifvqheg","pricing_plan_id":"cebpf4jnsgd1na2vs0mg"},{"bike_id":"5e968d6c-bb56-4b0e-9eb7-9a5f6b50ebf1","system_id":"levelo_inurba_marseille","lat":43.27821,"lon":5.40721,"is_reserved":false,"is_disabled":false,"rental_uris":{"android":"levelo://app?vid=5e968d6c-bb56-4b0e-9eb7-9a5f6b50ebf1","ios":"levelo://app?vid=5e968d6c-bb56-4b0e-9eb7-9a5f6b50ebf1"},"vehicle_type_id":"4","last_reported":1740769632,"current_range_meters":6000,"station_id":"ce4bhnh2rcd13ifvqgtg","pricing_plan_id":"cebpf4jnsgd1na2vs0mg"},{"bike_id":"d3d19b81-575a-4121-bbb1-2580bf694acb","system_id":"levelo_inurba_marseille","lat":43.29543,"lon":5.38542,"is_reserved":false,"is_disabled":false,"rental_uris":{"android":"levelo://app?vid=d3d19b81-575a-4121-bbb1-2580bf694acb","ios":"levelo://app?vid=d3d19b81-575a-4121-bbb1-2580bf694acb"},"vehicle_type_id":"4","last_reported":1740769632,"current_range_meters":6000,"station_id":"ce4bgih2rcd13ifvqba0","pricing_plan_id":"cebpf4jnsgd1na2vs0mg"},{"bike_id":"47ab1dbc-d155-46b0-bfa9-431288314450","system_id":"levelo_inurba_marseille","lat":43.27951,"lon":5.41038,"is_reserved":false,"is_disabled":false,"rental_uris":{"android":"levelo://app?vid=47ab1dbc-d155-46b0-bfa9-431288314450","ios":"levelo://app?vid=47ab1dbc-d155-46b0-bfa9-431288314450"},"vehicle_type_id":"4","last_reported":1740769632,"current_range_meters":6000,"station_id":"ce4bhnp2rcd13ifvqh0g","pricing_plan_id":"cebpf4jnsgd1na2vs0mg"},{"bike_id":"a9c97e81-f74b-49c5-bb44-06851e21e7c3","system_id":"levelo_inurba_marseille","lat":43.284758,"lon":5.384076,"is_reserved":false,"is_disabled":false,"rental_uris":{"android":"levelo://app?vid=a9c97e81-f74b-49c5-bb44-06851e21e7c3","ios":"levelo://app?vid=a9c97e81-f74b-49c5-bb44-06851e21e7c3"},"vehicle_type_id":"4","last_reported":1740769632,"current_range_meters":5600,"station_id":"cki0cbj6b192h4jlfktg","pricing_plan_id":"cebpf4jnsgd1na2vs0mg"},{"bike_id":"8bdf76db-9f2b-4cc0-8f7a-9d3b05368523","system_id":"levelo_inurba_marseille","lat":43.25728,"lon":5.41102,"is_reserved":false,"is_disabled":false,"rental_uris":{"android":"levelo://app?vid=8bdf76db-9f2b-4cc0-8f7a-9d3b05368523","ios":"levelo://app?vid=8bdf76db-9f2b-4cc0-8f7a-9d3b05368523"},"vehicle_type_id":"4","last_reported":1740769632,"current_range_meters":6400,"station_id":"ce4bhkp2rcd13ifvqgd0","pricing_plan_id":"cebpf4jnsgd1na2vs0mg"},{"bike_id":"07312a4c-053d-41cf-91d5-386ab2cd37a6","system_id":"levelo_inurba_marseille","lat":43.3136,"lon":5.3849,"is_reserved":false,"is_disabled":false,"rental_uris":{"android":"levelo://app?vid=07312a4c-053d-41cf-91d5-386ab2cd37a6","ios":"levelo://app?vid=07312a4c-053d-41cf-91d5-386ab2cd37a6"},"vehicle_type_id":"4","last_reported":1740769632,"current_range_meters":6400,"station_id":"ce4bgt92rcd13ifvqcf0","pricing_plan_id":"cebpf4jnsgd1na2vs0mg"},{"bike_id":"4e21c123-fed3-4db6-ad81-45cccdae0542","system_id":"levelo_inurba_marseille","lat":43.24158,"lon":5.36419,"is_reserved":false,"is_disabled":true,"rental_uris":{"android":"levelo://app?vid=4e21c123-fed3-4db6-ad81-45cccdae0542","ios":"levelo://app?vid=4e21c123-fed3-4db6-ad81-45cccdae0542"},"vehicle_type_id":"4","last_reported":1740769632,"current_range_meters":6800,"station_id":"cpo36qri1sfpv3e86is0","pricing_plan_id":"cebpf4jnsgd1na2vs0mg"},{"bike_id":"5f244c3c-d7fd-4617-a436-fec1148397fa","system_id":"levelo_inurba_marseille","lat":43.29423,"lon":5.3865,"is_reserved":false,"is_disabled":false,"rental_uris":{"android":"levelo://app?vid=5f244c3c-d7fd-4617-a436-fec1148397fa","ios":"levelo://app?vid=5f244c3c-d7fd-4617-a436-fec1148397fa"},"vehicle_type_id":"4","last_reported":1740769632,"current_range_meters":6400,"station_id":"ce4bh2h2rcd13ifvqdh0","pricing_plan_id":"cebpf4jnsgd1na2vs0mg"},{"bike_id":"7da1bbfb-ecf5-448a-9357-e5cb4241f67f","system_id":"levelo_inurba_marseille","lat":43.27843,"lon":5.40732,"is_reserved":false,"is_disabled":false,"rental_uris":{"android":"levelo://app?vid=7da1bbfb-ecf5-448a-9357-e5cb4241f67f","ios":"levelo://app?vid=7da1bbfb-ecf5-448a-9357-e5cb4241f67f"},"vehicle_type_id":"4","last_reported":1740769632,"current_range_meters":6400,"station_id":"ce4bhnh2rcd13ifvqgtg","pricing_plan_id":"cebpf4jnsgd1na2vs0mg"},{"bike_id":"89a7517e-6658-46c5-a615-9e427ec79029","system_id":"levelo_inurba_marseille","lat":43.25721,"lon":5.41804,"is_reserved":false,"is_disabled":false,"rental_uris":{"android":"levelo://app?vid=89a7517e-6658-46c5-a615-9e427ec79029","ios":"levelo://app?vid=89a7517e-6658-46c5-a615-9e427ec79029"},"vehicle_type_id":"4","last_reported":1740769632,"current_range_meters":6400,"station_id":"","pricing_plan_id":"cebpf4jnsgd1na2vs0mg"},{"bike_id":"a9a19c6c-0bed-4d1f-a200-55a2f4d3052e","system_id":"levelo_inurba_marseille","lat":43.2905,"lon":5.42603,"is_reserved":false,"is_disabled":false,"rental_uris":{"android":"levelo://app?vid=a9a19c6c-0bed-4d1f-a200-55a2f4d3052e","ios":"levelo://app?vid=a9a19c6c-0bed-4d1f-a200-55a2f4d3052e"},"vehicle_type_id":"4","last_reported":1740769632,"current_range_meters":6400,"station_id":"","pricing_plan_id":"cebpf4jnsgd1na2vs0mg"},{"bike_id":"59aa282c-9472-418d-a42b-241732bf9db3","system_id":"levelo_inurba_marseille","lat":43.29299,"lon":5.37446,"is_reserved":false,"is_disabled":false,"rental_uris":{"android":"levelo://app?vid=59aa282c-9472-418d-a42b-241732bf9db3","ios":"levelo://app?vid=59aa282c-9472-418d-a42b-241732bf9db3"},"vehicle_type_id":"4","last_reported":1740769632,"current_range_meters":6400,"station_id":"ce4bgi12rcd13ifvqb70","pricing_plan_id":"cebpf4jnsgd1na2vs0mg"},{"bike_id":"ce4d7f39-9dd7-48ab-8c29-e2547d0e680f","system_id":"levelo_inurba_marseille","lat":43.29297,"lon":5.37459,"is_reserved":false,"is_disabled":false,"rental_uris":{"android":"levelo://app?vid=ce4d7f39-9dd7-48ab-8c29-e2547d0e680f","ios":"levelo://app?vid=ce4d7f39-9dd7-48ab-8c29-e2547d0e680f"},"vehicle_type_id":"4","last_reported":1740769632,"current_range_meters":6800,"station_id":"ce4bgi12rcd13ifvqb70","pricing_plan_id":"cebpf4jnsgd1na2vs0mg"},{"bike_id":"b3fd7fb7-0cff-4164-bd73-e7bbe5e011d2","system_id":"levelo_inurba_marseille","lat":43.29281,"lon":5.3685,"is_reserved":false,"is_disabled":false,"rental_uris":{"android":"levelo://app?vid=b3fd7fb7-0cff-4164-bd73-e7bbe5e011d2","ios":"levelo://app?vid=b3fd7fb7-0cff-4164-bd73-e7bbe5e011d2"},"vehicle_type_id":"4","last_reported":1740769632,"current_range_meters":6800,"station_id":"ce4bhbp2rcd13ifvqesg","pricing_plan_id":"cebpf4jnsgd1na2vs0mg"},{"bike_id":"05bcb122-922f-43c1-a192-82d8ed7cccc5","system_id":"levelo_inurba_marseille","lat":43.31374,"lon":5.38503,"is_reserved":false,"is_disabled":false,"rental_uris":{"android":"levelo://app?vid=05bcb122-922f-43c1-a192-82d8ed7cccc5","ios":"levelo://app?vid=05bcb122-922f-43c1-a192-82d8ed7cccc5"},"vehicle_type_id":"4","last_reported":1740769632,"current_range_meters":6800,"station_id":"ce4bgt92rcd13ifvqcf0","pricing_plan_id":"cebpf4jnsgd1na2vs0mg"},{"bike_id":"94da13ba-7e54-4c47-9e05-7b78fd9211fe","system_id":"levelo_inurba_marseille","lat":43.293,"lon":5.37451,"is_reserved":false,"is_disabled":false,"rental_uris":{"android":"levelo://app?vid=94da13ba-7e54-4c47-9e05-7b78fd9211fe","ios":"levelo://app?vid=94da13ba-7e54-4c47-9e05-7b78fd9211fe"},"vehicle_type_id":"4","last_reported":1740769632,"current_range_meters":6800,"station_id":"ce4bgi12rcd13ifvqb70","pricing_plan_id":"cebpf4jnsgd1na2vs0mg"},{"bike_id":"ede0b108-363e-4e9e-846d-3838edc31275","system_id":"levelo_inurba_marseille","lat":43.28668,"lon":5.38668,"is_reserved":false,"is_disabled":false,"rental_uris":{"android":"levelo://app?vid=ede0b108-363e-4e9e-846d-3838edc31275","ios":"levelo://app?vid=ede0b108-363e-4e9e-846d-3838edc31275"},"vehicle_type_id":"4","last_reported":1740769632,"current_range_meters":6400,"station_id":"ce4bh492rcd13ifvqdug","pricing_plan_id":"cebpf4jnsgd1na2vs0mg"},{"bike_id":"dc7481a4-16ff-4efc-b4bf-8cb2aef63c84","system_id":"levelo_inurba_marseille","lat":43.29305,"lon":5.37154,"is_reserved":false,"is_disabled":false,"rental_uris":{"android":"levelo://app?vid=dc7481a4-16ff-4efc-b4bf-8cb2aef63c84","ios":"levelo://app?vid=dc7481a4-16ff-4efc-b4bf-8cb2aef63c84"},"vehicle_type_id":"4","last_reported":1740769632,"current_range_meters":6400,"station_id":"ce4bgh92rcd13ifvqb40","pricing_plan_id":"cebpf4jnsgd1na2vs0mg"},{"bike_id":"55f306c6-820d-4fa0-bdc4-8b744d1f1eea","system_id":"levelo_inurba_marseille","lat":43.24805,"lon":5.37453,"is_reserved":false,"is_disabled":false,"rental_uris":{"android":"levelo://app?vid=55f306c6-820d-4fa0-bdc4-8b744d1f1eea","ios":"levelo://app?vid=55f306c6-820d-4fa0-bdc4-8b744d1f1eea"},"vehicle_type_id":"4","last_reported":1740769632,"current_range_meters":6800,"station_id":"ce4bhgh2rcd13ifvqfb0","pricing_plan_id":"cebpf4jnsgd1na2vs0mg"},{"bike_id":"a778294d-9cff-431f-ba90-2a072d2892ce","system_id":"levelo_inurba_marseille","lat":43.29793,"lon":5.38096,"is_reserved":false,"is_disabled":false,"rental_uris":{"android":"levelo://app?vid=a778294d-9cff-431f-ba90-2a072d2892ce","ios":"levelo://app?vid=a778294d-9cff-431f-ba90-2a072d2892ce"},"vehicle_type_id":"4","last_reported":1740769632,"current_range_meters":6400,"station_id":"ce4bgip2rcd13ifvqbb0","pricing_plan_id":"cebpf4jnsgd1na2vs0mg"},{"bike_id":"048889bf-861b-45fc-8e8b-55d474c3801a","system_id":"levelo_inurba_marseille","lat":43.28616,"lon":5.35119,"is_reserved":false,"is_disabled":false,"rental_uris":{"android":"levelo://app?vid=048889bf-861b-45fc-8e8b-55d474c3801a","ios":"levelo://app?vid=048889bf-861b-45fc-8e8b-55d474c3801a"},"vehicle_type_id":"4","last_reported":1740769632,"current_range_meters":6800,"station_id":"ce4bhch2rcd13ifvqeug","pricing_plan_id":"cebpf4jnsgd1na2vs0mg"},{"bike_id":"4c3cbff4-8fcd-449f-9462-8524115108b2","system_id":"levelo_inurba_marseille","lat":43.26203,"lon":5.37917,"is_reserved":false,"is_disabled":true,"rental_uris":{"android":"levelo://app?vid=4c3cbff4-8fcd-449f-9462-8524115108b2","ios":"levelo://app?vid=4c3cbff4-8fcd-449f-9462-8524115108b2"},"vehicle_type_id":"4","last_reported":1740769632,"current_range_meters":6800,"station_id":"ce4bhjp2rcd13ifvqg90","pricing_plan_id":"cebpf4jnsgd1na2vs0mg"},{"bike_id":"e27f0c45-8b34-4d03-ae5e-09ec5466239a","system_id":"levelo_inurba_marseille","lat":43.29261,"lon":5.3844,"is_reserved":false,"is_disabled":false,"rental_uris":{"android":"levelo://app?vid=e27f0c45-8b34-4d03-ae5e-09ec5466239a","ios":"levelo://app?vid=e27f0c45-8b34-4d03-ae5e-09ec5466239a"},"vehicle_type_id":"4","last_reported":1740769632,"current_range_meters":4000,"station_id":"ce4bh692rcd13ifvqea0","pricing_plan_id":"cebpf4jnsgd1na2vs0mg"},{"bike_id":"7e09accb-d31c-4e14-bf19-a464bbe3989d","system_id":"levelo_inurba_marseille","lat":43.30433,"lon":5.39745,"is_reserved":false,"is_disabled":false,"rental_uris":{"android":"levelo://app?vid=7e09accb-d31c-4e14-bf19-a464bbe3989d","ios":"levelo://app?vid=7e09accb-d31c-4e14-bf19-a464bbe3989d"},"vehicle_type_id":"4","last_reported":1740769632,"current_range_meters":7200,"station_id":"ce4bh092rcd13ifvqd20","pricing_plan_id":"cebpf4jnsgd1na2vs0mg"},{"bike_id":"43c32004-94fe-4598-87ba-734917dbcf43","system_id":"levelo_inurba_marseille","lat":43.29263,"lon":5.37616,"is_reserved":false,"is_disabled":false,"rental_uris":{"android":"levelo://app?vid=43c32004-94fe-4598-87ba-734917dbcf43","ios":"levelo://app?vid=43c32004-94fe-4598-87ba-734917dbcf43"},"vehicle_type_id":"4","last_reported":1740769632,"current_range_meters":7200,"station_id":"ce4bgi12rcd13ifvqb80","pricing_plan_id":"cebpf4jnsgd1na2vs0mg"},{"bike_id":"1a7e59fe-d85c-47d5-a0c3-3de4c8486fd9","system_id":"levelo_inurba_marseille","lat":43.32305,"lon":5.38243,"is_reserved":false,"is_disabled":false,"rental_uris":{"android":"levelo://app?vid=1a7e59fe-d85c-47d5-a0c3-3de4c8486fd9","ios":"levelo://app?vid=1a7e59fe-d85c-47d5-a0c3-3de4c8486fd9"},"vehicle_type_id":"4","last_reported":1740769632,"current_range_meters":7200,"station_id":"ce4bhr12rcd13ifvqhqg","pricing_plan_id":"cebpf4jnsgd1na2vs0mg"},{"bike_id":"e9f70944-2436-472f-ab2d-92bdf79b6a23","system_id":"levelo_inurba_marseille","lat":43.29302,"lon":5.37451,"is_reserved":false,"is_disabled":false,"rental_uris":{"android":"levelo://app?vid=e9f70944-2436-472f-ab2d-92bdf79b6a23","ios":"levelo://app?vid=e9f70944-2436-472f-ab2d-92bdf79b6a23"},"vehicle_type_id":"4","last_reported":1740769632,"current_range_meters":7200,"station_id":"ce4bgi12rcd13ifvqb70","pricing_plan_id":"cebpf4jnsgd1na2vs0mg"},{"bike_id":"569ce547-37a1-487f-a123-cf186f9f6063","system_id":"levelo_inurba_marseille","lat":43.29289,"lon":5.37462,"is_reserved":false,"is_disabled":false,"rental_uris":{"android":"levelo://app?vid=569ce547-37a1-487f-a123-cf186f9f6063","ios":"levelo://app?vid=569ce547-37a1-487f-a123-cf186f9f6063"},"vehicle_type_id":"4","last_reported":1740769632,"current_range_meters":7200,"station_id":"ce4bgi12rcd13ifvqb70","pricing_plan_id":"cebpf4jnsgd1na2vs0mg"},{"bike_id":"a701e546-059c-4de2-b195-340e724b95b1","system_id":"levelo_inurba_marseille","lat":43.29969,"lon":5.38495,"is_reserved":false,"is_disabled":false,"rental_uris":{"android":"levelo://app?vid=a701e546-059c-4de2-b195-340e724b95b1","ios":"levelo://app?vid=a701e546-059c-4de2-b195-340e724b95b1"},"vehicle_type_id":"4","last_reported":1740769632,"current_range_meters":6800,"station_id":"ce4bgj92rcd13ifvqbd0","pricing_plan_id":"cebpf4jnsgd1na2vs0mg"},{"bike_id":"059a68ed-99c5-4117-a11a-c80f70ea81e0","system_id":"levelo_inurba_marseille","lat":43.29191,"lon":5.393,"is_reserved":false,"is_disabled":false,"rental_uris":{"android":"levelo://app?vid=059a68ed-99c5-4117-a11a-c80f70ea81e0","ios":"levelo://app?vid=059a68ed-99c5-4117-a11a-c80f70ea81e0"},"vehicle_type_id":"4","last_reported":1740769632,"current_range_meters":7200,"station_id":"ce4bh192rcd13ifvqdd0","pricing_plan_id":"cebpf4jnsgd1na2vs0mg"},{"bike_id":"69c3d416-f9e9-4a73-8c5d-691a8bb8bdae","system_id":"levelo_inurba_marseille","lat":43.30611,"lon":5.37218,"is_reserved":false,"is_disabled":false,"rental_uris":{"android":"levelo://app?vid=69c3d416-f9e9-4a73-8c5d-691a8bb8bdae","ios":"levelo://app?vid=69c3d416-f9e9-4a73-8c5d-691a8bb8bdae"},"vehicle_type_id":"4","last_reported":1740769632,"current_range_meters":6800,"station_id":"ce4bgqh2rcd13ifvqc4g","pricing_plan_id":"cebpf4jnsgd1na2vs0mg"},{"bike_id":"17ddbbb5-11e9-4dea-8d48-8df35a23e77a","system_id":"levelo_inurba_marseille","lat":43.31761,"lon":5.3899,"is_reserved":false,"is_disabled":false,"rental_uris":{"android":"levelo://app?vid=17ddbbb5-11e9-4dea-8d48-8df35a23e77a","ios":"levelo://app?vid=17ddbbb5-11e9-4dea-8d48-8df35a23e77a"},"vehicle_type_id":"4","last_reported":1740769632,"current_range_meters":7200,"station_id":"ce4bhqp2rcd13ifvqhng","pricing_plan_id":"cebpf4jnsgd1na2vs0mg"},{"bike_id":"1d423b7c-95b0-4f07-a5c0-fe88800182f7","system_id":"levelo_inurba_marseille","lat":43.33153,"lon":5.38486,"is_reserved":false,"is_disabled":false,"rental_uris":{"android":"levelo://app?vid=1d423b7c-95b0-4f07-a5c0-fe88800182f7","ios":"levelo://app?vid=1d423b7c-95b0-4f07-a5c0-fe88800182f7"},"vehicle_type_id":"4","last_reported":1740769632,"current_range_meters":7200,"station_id":"","pricing_plan_id":"cebpf4jnsgd1na2vs0mg"},{"bike_id":"0e07936b-b5f4-4ce0-90ff-73c063994f1c","system_id":"levelo_inurba_marseille","lat":43.30489,"lon":5.37241,"is_reserved":false,"is_disabled":false,"rental_uris":{"android":"levelo://app?vid=0e07936b-b5f4-4ce0-90ff-73c063994f1c","ios":"levelo://app?vid=0e07936b-b5f4-4ce0-90ff-73c063994f1c"},"vehicle_type_id":"4","last_reported":1740769632,"current_range_meters":7200,"station_id":"","pricing_plan_id":"cebpf4jnsgd1na2vs0mg"},{"bike_id":"dcff507d-3819-435b-8033-cab0f880c6a6","system_id":"levelo_inurba_marseille","lat":43.26497,"lon":5.39548,"is_reserved":false,"is_disabled":true,"rental_uris":{"android":"levelo://app?vid=dcff507d-3819-435b-8033-cab0f880c6a6","ios":"levelo://app?vid=dcff507d-3819-435b-8033-cab0f880c6a6"},"vehicle_type_id":"4","last_reported":1740769632,"current_range_meters":7200,"station_id":"ce4bhi12rcd13ifvqfq0","pricing_plan_id":"cebpf4jnsgd1na2vs0mg"},{"bike_id":"5c23f4ac-0bae-4704-82f7-dd8aab5f8673","system_id":"levelo_inurba_marseille","lat":43.31687,"lon":5.40478,"is_reserved":false,"is_disabled":false,"rental_uris":{"android":"levelo://app?vid=5c23f4ac-0bae-4704-82f7-dd8aab5f8673","ios":"levelo://app?vid=5c23f4ac-0bae-4704-82f7-dd8aab5f8673"},"vehicle_type_id":"4","last_reported":1740769632,"current_range_meters":6800,"station_id":"ce4bh012rcd13ifvqd00","pricing_plan_id":"cebpf4jnsgd1na2vs0mg"},{"bike_id":"32f6ed21-d374-4255-9c69-74520b89ecc1","system_id":"levelo_inurba_marseille","lat":43.29613,"lon":5.38104,"is_reserved":false,"is_disabled":false,"rental_uris":{"android":"levelo://app?vid=32f6ed21-d374-4255-9c69-74520b89ecc1","ios":"levelo://app?vid=32f6ed21-d374-4255-9c69-74520b89ecc1"},"vehicle_type_id":"4","last_reported":1740769632,"current_range_meters":8000,"station_id":"ce4bgl12rcd13ifvqbo0","pricing_plan_id":"cebpf4jnsgd1na2vs0mg"},{"bike_id":"b62b0866-a949-433e-9edd-5fec2d47ca82","system_id":"levelo_inurba_marseille","lat":43.29607,"lon":5.38092,"is_reserved":false,"is_disabled":false,"rental_uris":{"android":"levelo://app?vid=b62b0866-a949-433e-9edd-5fec2d47ca82","ios":"levelo://app?vid=b62b0866-a949-433e-9edd-5fec2d47ca82"},"vehicle_type_id":"4","last_reported":1740769632,"current_range_meters":8000,"station_id":"ce4bgl12rcd13ifvqbo0","pricing_plan_id":"cebpf4jnsgd1na2vs0mg"},{"bike_id":"121f184f-90a0-4e66-9d33-06a22d0922f3","system_id":"levelo_inurba_marseille","lat":43.24158,"lon":5.36416,"is_reserved":false,"is_disabled":false,"rental_uris":{"android":"levelo://app?vid=121f184f-90a0-4e66-9d33-06a22d0922f3","ios":"levelo://app?vid=121f184f-90a0-4e66-9d33-06a22d0922f3"},"vehicle_type_id":"4","last_reported":1740769632,"current_range_meters":8000,"station_id":"cpo36qri1sfpv3e86is0","pricing_plan_id":"cebpf4jnsgd1na2vs0mg"},{"bike_id":"67ce8cfb-6f6b-425f-bc83-c1ca88627e6b","system_id":"levelo_inurba_marseille","lat":43.29267,"lon":5.37621,"is_reserved":false,"is_disabled":false,"rental_uris":{"android":"levelo://app?vid=67ce8cfb-6f6b-425f-bc83-c1ca88627e6b","ios":"levelo://app?vid=67ce8cfb-6f6b-425f-bc83-c1ca88627e6b"},"vehicle_type_id":"4","last_reported":1740769632,"current_range_meters":8000,"station_id":"ce4bgi12rcd13ifvqb80","pricing_plan_id":"cebpf4jnsgd1na2vs0mg"},{"bike_id":"74ac8b7f-f3ed-41d1-9814-269602a8adc4","system_id":"levelo_inurba_marseille","lat":43.32281,"lon":5.3828,"is_reserved":false,"is_disabled":false,"rental_uris":{"android":"levelo://app?vid=74ac8b7f-f3ed-41d1-9814-269602a8adc4","ios":"levelo://app?vid=74ac8b7f-f3ed-41d1-9814-269602a8adc4"},"vehicle_type_id":"4","last_reported":1740769632,"current_range_meters":8000,"station_id":"ce4bhr12rcd13ifvqhqg","pricing_plan_id":"cebpf4jnsgd1na2vs0mg"},{"bike_id":"3452a918-fa30-4c0a-aa63-5a9d272da4b4","system_id":"levelo_inurba_marseille","lat":43.25508,"lon":5.3765,"is_reserved":false,"is_disabled":false,"rental_uris":{"android":"levelo://app?vid=3452a918-fa30-4c0a-aa63-5a9d272da4b4","ios":"levelo://app?vid=3452a918-fa30-4c0a-aa63-5a9d272da4b4"},"vehicle_type_id":"4","last_reported":1740769632,"current_range_meters":6000,"station_id":"ce4bhh12rcd13ifvqff0","pricing_plan_id":"cebpf4jnsgd1na2vs0mg"},{"bike_id":"63fa412d-c5ac-4871-8f86-1682a5c5b5d5","system_id":"levelo_inurba_marseille","lat":43.29262,"lon":5.38439,"is_reserved":false,"is_disabled":false,"rental_uris":{"android":"levelo://app?vid=63fa412d-c5ac-4871-8f86-1682a5c5b5d5","ios":"levelo://app?vid=63fa412d-c5ac-4871-8f86-1682a5c5b5d5"},"vehicle_type_id":"4","last_reported":1740769632,"current_range_meters":8000,"station_id":"ce4bh692rcd13ifvqea0","pricing_plan_id":"cebpf4jnsgd1na2vs0mg"},{"bike_id":"583c93d8-f92a-4aad-931b-edc253df8745","system_id":"levelo_inurba_marseille","lat":43.29295,"lon":5.37465,"is_reserved":false,"is_disabled":false,"rental_uris":{"android":"levelo://app?vid=583c93d8-f92a-4aad-931b-edc253df8745","ios":"levelo://app?vid=583c93d8-f92a-4aad-931b-edc253df8745"},"vehicle_type_id":"4","last_reported":1740769632,"current_range_meters":8000,"station_id":"ce4bgi12rcd13ifvqb70","pricing_plan_id":"cebpf4jnsgd1na2vs0mg"},{"bike_id":"76260b4b-026a-4258-bd05-c875297786b3","system_id":"levelo_inurba_marseille","lat":43.28407,"lon":5.37508,"is_reserved":false,"is_disabled":false,"rental_uris":{"android":"levelo://app?vid=76260b4b-026a-4258-bd05-c875297786b3","ios":"levelo://app?vid=76260b4b-026a-4258-bd05-c875297786b3"},"vehicle_type_id":"4","last_reported":1740769632,"current_range_meters":8000,"station_id":"ce4bh412rcd13ifvqds0","pricing_plan_id":"cebpf4jnsgd1na2vs0mg"},{"bike_id":"0c596060-749e-4171-b7d5-ab76d0e98de5","system_id":"levelo_inurba_marseille","lat":43.31982,"lon":5.38079,"is_reserved":false,"is_disabled":false,"rental_uris":{"android":"levelo://app?vid=0c596060-749e-4171-b7d5-ab76d0e98de5","ios":"levelo://app?vid=0c596060-749e-4171-b7d5-ab76d0e98de5"},"vehicle_type_id":"4","last_reported":1740769632,"current_range_meters":8000,"station_id":"","pricing_plan_id":"cebpf4jnsgd1na2vs0mg"},{"bike_id":"5a73ca79-55f1-446c-be07-32c7b26cfdd7","system_id":"levelo_inurba_marseille","lat":43.3054,"lon":5.367,"is_reserved":false,"is_disabled":false,"rental_uris":{"android":"levelo://app?vid=5a73ca79-55f1-446c-be07-32c7b26cfdd7","ios":"levelo://app?vid=5a73ca79-55f1-446c-be07-32c7b26cfdd7"},"vehicle_type_id":"4","last_reported":1740769632,"current_range_meters":8000,"station_id":"ce4bgrp2rcd13ifvqc9g","pricing_plan_id":"cebpf4jnsgd1na2vs0mg"},{"bike_id":"cdca0976-9734-442b-a2c0-d541a74466e5","system_id":"levelo_inurba_marseille","lat":43.29224,"lon":5.36093,"is_reserved":false,"is_disabled":false,"rental_uris":{"android":"levelo://app?vid=cdca0976-9734-442b-a2c0-d541a74466e5","ios":"levelo://app?vid=cdca0976-9734-442b-a2c0-d541a74466e5"},"vehicle_type_id":"4","last_reported":1740769632,"current_range_meters":8400,"station_id":"ce4bhbh2rcd13ifvqeqg","pricing_plan_id":"cebpf4jnsgd1na2vs0mg"},{"bike_id":"32028d2a-d834-4678-a648-cf11d05314f9","system_id":"levelo_inurba_marseille","lat":43.292391,"lon":5.39666,"is_reserved":false,"is_disabled":false,"rental_uris":{"android":"levelo://app?vid=32028d2a-d834-4678-a648-cf11d05314f9","ios":"levelo://app?vid=32028d2a-d834-4678-a648-cf11d05314f9"},"vehicle_type_id":"4","last_reported":1740769632,"current_range_meters":8400,"station_id":"ce4bhah2rcd13ifvqej0","pricing_plan_id":"cebpf4jnsgd1na2vs0mg"},{"bike_id":"c2a3fb9d-e5b2-4210-ae32-e09c58a9c5c2","system_id":"levelo_inurba_marseille","lat":43.28929,"lon":5.38401,"is_reserved":false,"is_disabled":false,"rental_uris":{"android":"levelo://app?vid=c2a3fb9d-e5b2-4210-ae32-e09c58a9c5c2","ios":"levelo://app?vid=c2a3fb9d-e5b2-4210-ae32-e09c58a9c5c2"},"vehicle_type_id":"4","last_reported":1740769632,"current_range_meters":8800,"station_id":"ce4bh612rcd13ifvqe6g","pricing_plan_id":"cebpf4jnsgd1na2vs0mg"},{"bike_id":"9753fb54-7bac-4c39-b532-b7089220649f","system_id":"levelo_inurba_marseille","lat":43.31075,"lon":5.42436,"is_reserved":false,"is_disabled":false,"rental_uris":{"android":"levelo://app?vid=9753fb54-7bac-4c39-b532-b7089220649f","ios":"levelo://app?vid=9753fb54-7bac-4c39-b532-b7089220649f"},"vehicle_type_id":"4","last_reported":1740769632,"current_range_meters":8400,"station_id":"ce4bhp92rcd13ifvqhag","pricing_plan_id":"cebpf4jnsgd1na2vs0mg"},{"bike_id":"f26c35c1-6d74-4839-8620-0ecaba4ac374","system_id":"levelo_inurba_marseille","lat":43.2501,"lon":5.38934,"is_reserved":false,"is_disabled":false,"rental_uris":{"android":"levelo://app?vid=f26c35c1-6d74-4839-8620-0ecaba4ac374","ios":"levelo://app?vid=f26c35c1-6d74-4839-8620-0ecaba4ac374"},"vehicle_type_id":"4","last_reported":1740769632,"current_range_meters":8400,"station_id":"ce4bhgp2rcd13ifvqfd0","pricing_plan_id":"cebpf4jnsgd1na2vs0mg"},{"bike_id":"7e58c837-7fb0-4c05-8cf6-75f1c8257daa","system_id":"levelo_inurba_marseille","lat":43.28499,"lon":5.38563,"is_reserved":false,"is_disabled":false,"rental_uris":{"android":"levelo://app?vid=7e58c837-7fb0-4c05-8cf6-75f1c8257daa","ios":"levelo://app?vid=7e58c837-7fb0-4c05-8cf6-75f1c8257daa"},"vehicle_type_id":"4","last_reported":1740769632,"current_range_meters":6800,"station_id":"ce4bh8p2rcd13ifvqeb0","pricing_plan_id":"cebpf4jnsgd1na2vs0mg"},{"bike_id":"efb1767d-e373-4493-a83c-ffc0e3e6376c","system_id":"levelo_inurba_marseille","lat":43.29533,"lon":5.38553,"is_reserved":false,"is_disabled":false,"rental_uris":{"android":"levelo://app?vid=efb1767d-e373-4493-a83c-ffc0e3e6376c","ios":"levelo://app?vid=efb1767d-e373-4493-a83c-ffc0e3e6376c"},"vehicle_type_id":"4","last_reported":1740769632,"current_range_meters":12000,"station_id":"ce4bgih2rcd13ifvqba0","pricing_plan_id":"cebpf4jnsgd1na2vs0mg"},{"bike_id":"b8b88347-b7ce-49df-bf76-688d2ec18502","system_id":"levelo_inurba_marseille","lat":43.30303,"lon":5.39215,"is_reserved":false,"is_disabled":false,"rental_uris":{"android":"levelo://app?vid=b8b88347-b7ce-49df-bf76-688d2ec18502","ios":"levelo://app?vid=b8b88347-b7ce-49df-bf76-688d2ec18502"},"vehicle_type_id":"4","last_reported":1740769632,"current_range_meters":8400,"station_id":"ce4bgkh2rcd13ifvqbk0","pricing_plan_id":"cebpf4jnsgd1na2vs0mg"},{"bike_id":"2c3bf2fe-f081-4685-9d04-5171a9f43f10","system_id":"levelo_inurba_marseille","lat":43.28624,"lon":5.35109,"is_reserved":false,"is_disabled":false,"rental_uris":{"android":"levelo://app?vid=2c3bf2fe-f081-4685-9d04-5171a9f43f10","ios":"levelo://app?vid=2c3bf2fe-f081-4685-9d04-5171a9f43f10"},"vehicle_type_id":"4","last_reported":1740769632,"current_range_meters":8400,"station_id":"ce4bhch2rcd13ifvqeug","pricing_plan_id":"cebpf4jnsgd1na2vs0mg"},{"bike_id":"fadd3e26-6605-45b6-87d1-543673adaa29","system_id":"levelo_inurba_marseille","lat":43.33017,"lon":5.39029,"is_reserved":false,"is_disabled":false,"rental_uris":{"android":"levelo://app?vid=fadd3e26-6605-45b6-87d1-543673adaa29","ios":"levelo://app?vid=fadd3e26-6605-45b6-87d1-543673adaa29"},"vehicle_type_id":"4","last_reported":1740769632,"current_range_meters":8400,"station_id":"ce4bhr92rcd13ifvqhrg","pricing_plan_id":"cebpf4jnsgd1na2vs0mg"},{"bike_id":"3de9aeda-1f9a-4bbc-8b90-e02a49e56ca9","system_id":"levelo_inurba_marseille","lat":43.231896,"lon":5.355613,"is_reserved":false,"is_disabled":false,"rental_uris":{"android":"levelo://app?vid=3de9aeda-1f9a-4bbc-8b90-e02a49e56ca9","ios":"levelo://app?vid=3de9aeda-1f9a-4bbc-8b90-e02a49e56ca9"},"vehicle_type_id":"4","last_reported":1740769632,"current_range_meters":8400,"station_id":"ce4bhu92rcd13ifvqi70","pricing_plan_id":"cebpf4jnsgd1na2vs0mg"},{"bike_id":"f098baab-67ed-406a-8cdc-1d495e4779ab","system_id":"levelo_inurba_marseille","lat":43.32293,"lon":5.38256,"is_reserved":false,"is_disabled":false,"rental_uris":{"android":"levelo://app?vid=f098baab-67ed-406a-8cdc-1d495e4779ab","ios":"levelo://app?vid=f098baab-67ed-406a-8cdc-1d495e4779ab"},"vehicle_type_id":"4","last_reported":1740769632,"current_range_meters":8800,"station_id":"ce4bhr12rcd13ifvqhqg","pricing_plan_id":"cebpf4jnsgd1na2vs0mg"},{"bike_id":"a841825f-d30a-4442-aacf-c20d378ce259","system_id":"levelo_inurba_marseille","lat":43.28002,"lon":5.40012,"is_reserved":false,"is_disabled":false,"rental_uris":{"android":"levelo://app?vid=a841825f-d30a-4442-aacf-c20d378ce259","ios":"levelo://app?vid=a841825f-d30a-4442-aacf-c20d378ce259"},"vehicle_type_id":"4","last_reported":1740769632,"current_range_meters":8800,"station_id":"ce4bho92rcd13ifvqh4g","pricing_plan_id":"cebpf4jnsgd1na2vs0mg"},{"bike_id":"d013a78a-b275-4446-b2e7-8bba7dd432cb","system_id":"levelo_inurba_marseille","lat":43.29257,"lon":5.38418,"is_reserved":false,"is_disabled":false,"rental_uris":{"android":"levelo://app?vid=d013a78a-b275-4446-b2e7-8bba7dd432cb","ios":"levelo://app?vid=d013a78a-b275-4446-b2e7-8bba7dd432cb"},"vehicle_type_id":"4","last_reported":1740769632,"current_range_meters":8800,"station_id":"ce4bh692rcd13ifvqea0","pricing_plan_id":"cebpf4jnsgd1na2vs0mg"},{"bike_id":"513c0392-fd78-49ca-9b05-ba7cdead2c21","system_id":"levelo_inurba_marseille","lat":43.29536,"lon":5.38535,"is_reserved":false,"is_disabled":false,"rental_uris":{"android":"levelo://app?vid=513c0392-fd78-49ca-9b05-ba7cdead2c21","ios":"levelo://app?vid=513c0392-fd78-49ca-9b05-ba7cdead2c21"},"vehicle_type_id":"4","last_reported":1740769632,"current_range_meters":8800,"station_id":"ce4bgih2rcd13ifvqba0","pricing_plan_id":"cebpf4jnsgd1na2vs0mg"},{"bike_id":"620ba232-2d97-4cfe-bdaf-3a50962fd2de","system_id":"levelo_inurba_marseille","lat":43.2781,"lon":5.40709,"is_reserved":false,"is_disabled":false,"rental_uris":{"android":"levelo://app?vid=620ba232-2d97-4cfe-bdaf-3a50962fd2de","ios":"levelo://app?vid=620ba232-2d97-4cfe-bdaf-3a50962fd2de"},"vehicle_type_id":"4","last_reported":1740769632,"current_range_meters":8400,"station_id":"ce4bhnh2rcd13ifvqgtg","pricing_plan_id":"cebpf4jnsgd1na2vs0mg"},{"bike_id":"31d27e17-cda1-462b-b1a7-b35a5a2c46fa","system_id":"levelo_inurba_marseille","lat":43.29282,"lon":5.36839,"is_reserved":false,"is_disabled":false,"rental_uris":{"android":"levelo://app?vid=31d27e17-cda1-462b-b1a7-b35a5a2c46fa","ios":"levelo://app?vid=31d27e17-cda1-462b-b1a7-b35a5a2c46fa"},"vehicle_type_id":"4","last_reported":1740769632,"current_range_meters":8800,"station_id":"ce4bhbp2rcd13ifvqesg","pricing_plan_id":"cebpf4jnsgd1na2vs0mg"},{"bike_id":"e2704488-6442-4325-b810-0363cdc100d7","system_id":"levelo_inurba_marseille","lat":43.29421,"lon":5.38619,"is_reserved":false,"is_disabled":false,"rental_uris":{"android":"levelo://app?vid=e2704488-6442-4325-b810-0363cdc100d7","ios":"levelo://app?vid=e2704488-6442-4325-b810-0363cdc100d7"},"vehicle_type_id":"4","last_reported":1740769632,"current_range_meters":8400,"station_id":"ce4bh2h2rcd13ifvqdh0","pricing_plan_id":"cebpf4jnsgd1na2vs0mg"},{"bike_id":"cdb49f82-26f4-4ee1-ba90-4d28297e46cc","system_id":"levelo_inurba_marseille","lat":43.2931,"lon":5.37168,"is_reserved":false,"is_disabled":false,"rental_uris":{"android":"levelo://app?vid=cdb49f82-26f4-4ee1-ba90-4d28297e46cc","ios":"levelo://app?vid=cdb49f82-26f4-4ee1-ba90-4d28297e46cc"},"vehicle_type_id":"4","last_reported":1740769632,"current_range_meters":8800,"station_id":"ce4bgh92rcd13ifvqb40","pricing_plan_id":"cebpf4jnsgd1na2vs0mg"},{"bike_id":"6d66fc76-1515-4e1f-83bc-5db27ddc8a03","system_id":"levelo_inurba_marseille","lat":43.24806,"lon":5.37451,"is_reserved":false,"is_disabled":false,"rental_uris":{"android":"levelo://app?vid=6d66fc76-1515-4e1f-83bc-5db27ddc8a03","ios":"levelo://app?vid=6d66fc76-1515-4e1f-83bc-5db27ddc8a03"},"vehicle_type_id":"4","last_reported":1740769632,"current_range_meters":9200,"station_id":"ce4bhgh2rcd13ifvqfb0","pricing_plan_id":"cebpf4jnsgd1na2vs0mg"},{"bike_id":"249a4e2f-9905-457b-9944-9fce212c592f","system_id":"levelo_inurba_marseille","lat":43.25829,"lon":5.39439,"is_reserved":false,"is_disabled":false,"rental_uris":{"android":"levelo://app?vid=249a4e2f-9905-457b-9944-9fce212c592f","ios":"levelo://app?vid=249a4e2f-9905-457b-9944-9fce212c592f"},"vehicle_type_id":"4","last_reported":1740769632,"current_range_meters":9200,"station_id":"ce4bhip2rcd13ifvqft0","pricing_plan_id":"cebpf4jnsgd1na2vs0mg"},{"bike_id":"d4918d6a-5525-4be8-b0c4-7af64b54343d","system_id":"levelo_inurba_marseille","lat":43.24159,"lon":5.36404,"is_reserved":false,"is_disabled":false,"rental_uris":{"android":"levelo://app?vid=d4918d6a-5525-4be8-b0c4-7af64b54343d","ios":"levelo://app?vid=d4918d6a-5525-4be8-b0c4-7af64b54343d"},"vehicle_type_id":"4","last_reported":1740769632,"current_range_meters":9200,"station_id":"cpo36qri1sfpv3e86is0","pricing_plan_id":"cebpf4jnsgd1na2vs0mg"},{"bike_id":"80cbf868-d3ad-4638-b873-4a7da721b7cd","system_id":"levelo_inurba_marseille","lat":43.2928,"lon":5.36848,"is_reserved":false,"is_disabled":false,"rental_uris":{"android":"levelo://app?vid=80cbf868-d3ad-4638-b873-4a7da721b7cd","ios":"levelo://app?vid=80cbf868-d3ad-4638-b873-4a7da721b7cd"},"vehicle_type_id":"4","last_reported":1740769632,"current_range_meters":9200,"station_id":"ce4bhbp2rcd13ifvqesg","pricing_plan_id":"cebpf4jnsgd1na2vs0mg"},{"bike_id":"fb469847-d0bc-4e87-9009-3266224b9f69","system_id":"levelo_inurba_marseille","lat":43.29191,"lon":5.39316,"is_reserved":false,"is_disabled":false,"rental_uris":{"android":"levelo://app?vid=fb469847-d0bc-4e87-9009-3266224b9f69","ios":"levelo://app?vid=fb469847-d0bc-4e87-9009-3266224b9f69"},"vehicle_type_id":"4","last_reported":1740769632,"current_range_meters":9200,"station_id":"ce4bh192rcd13ifvqdd0","pricing_plan_id":"cebpf4jnsgd1na2vs0mg"},{"bike_id":"7d382dad-5be0-4a3a-bb79-36cd53bb4dfd","system_id":"levelo_inurba_marseille","lat":43.29283,"lon":5.36851,"is_reserved":false,"is_disabled":false,"rental_uris":{"android":"levelo://app?vid=7d382dad-5be0-4a3a-bb79-36cd53bb4dfd","ios":"levelo://app?vid=7d382dad-5be0-4a3a-bb79-36cd53bb4dfd"},"vehicle_type_id":"4","last_reported":1740769632,"current_range_meters":9200,"station_id":"ce4bhbp2rcd13ifvqesg","pricing_plan_id":"cebpf4jnsgd1na2vs0mg"},{"bike_id":"62e07eef-5db6-4a16-a521-b54f5f9ad73a","system_id":"levelo_inurba_marseille","lat":43.29929,"lon":5.36544,"is_reserved":false,"is_disabled":false,"rental_uris":{"android":"levelo://app?vid=62e07eef-5db6-4a16-a521-b54f5f9ad73a","ios":"levelo://app?vid=62e07eef-5db6-4a16-a521-b54f5f9ad73a"},"vehicle_type_id":"4","last_reported":1740769632,"current_range_meters":4400,"station_id":"ce4bgm92rcd13ifvqbr0","pricing_plan_id":"cebpf4jnsgd1na2vs0mg"},{"bike_id":"53b23b24-07e8-4870-8ab7-c63d39038125","system_id":"levelo_inurba_marseille","lat":43.29423,"lon":5.38606,"is_reserved":false,"is_disabled":true,"rental_uris":{"android":"levelo://app?vid=53b23b24-07e8-4870-8ab7-c63d39038125","ios":"levelo://app?vid=53b23b24-07e8-4870-8ab7-c63d39038125"},"vehicle_type_id":"4","last_reported":1740769632,"current_range_meters":9200,"station_id":"ce4bh2h2rcd13ifvqdh0","pricing_plan_id":"cebpf4jnsgd1na2vs0mg"},{"bike_id":"e6523c8f-91c8-42d0-8ebc-ed99984691d7","system_id":"levelo_inurba_marseille","lat":43.30961,"lon":5.39036,"is_reserved":false,"is_disabled":false,"rental_uris":{"android":"levelo://app?vid=e6523c8f-91c8-42d0-8ebc-ed99984691d7","ios":"levelo://app?vid=e6523c8f-91c8-42d0-8ebc-ed99984691d7"},"vehicle_type_id":"4","last_reported":1740769632,"current_range_meters":8800,"station_id":"ce4bgup2rcd13ifvqco0","pricing_plan_id":"cebpf4jnsgd1na2vs0mg"},{"bike_id":"d9b078a9-9e4f-4a1b-a10e-d49f9598b1e0","system_id":"levelo_inurba_marseille","lat":43.28043,"lon":5.36956,"is_reserved":false,"is_disabled":false,"rental_uris":{"android":"levelo://app?vid=d9b078a9-9e4f-4a1b-a10e-d49f9598b1e0","ios":"levelo://app?vid=d9b078a9-9e4f-4a1b-a10e-d49f9598b1e0"},"vehicle_type_id":"4","last_reported":1740769632,"current_range_meters":8800,"station_id":"ce4bha12rcd13ifvqef0","pricing_plan_id":"cebpf4jnsgd1na2vs0mg"},{"bike_id":"6307e284-bd51-4cbd-8c15-de2bbfb0291d","system_id":"levelo_inurba_marseille","lat":43.29433,"lon":5.3863,"is_reserved":false,"is_disabled":false,"rental_uris":{"android":"levelo://app?vid=6307e284-bd51-4cbd-8c15-de2bbfb0291d","ios":"levelo://app?vid=6307e284-bd51-4cbd-8c15-de2bbfb0291d"},"vehicle_type_id":"4","last_reported":1740769632,"current_range_meters":8800,"station_id":"ce4bh2h2rcd13ifvqdh0","pricing_plan_id":"cebpf4jnsgd1na2vs0mg"},{"bike_id":"1c76862c-aff0-4beb-be2e-65b2c2294c68","system_id":"levelo_inurba_marseille","lat":43.29536,"lon":5.38536,"is_reserved":false,"is_disabled":false,"rental_uris":{"android":"levelo://app?vid=1c76862c-aff0-4beb-be2e-65b2c2294c68","ios":"levelo://app?vid=1c76862c-aff0-4beb-be2e-65b2c2294c68"},"vehicle_type_id":"4","last_reported":1740769632,"current_range_meters":9600,"station_id":"ce4bgih2rcd13ifvqba0","pricing_plan_id":"cebpf4jnsgd1na2vs0mg"},{"bike_id":"749fee80-dfaa-43de-aa58-d21bbf5e0792","system_id":"levelo_inurba_marseille","lat":43.23192,"lon":5.39989,"is_reserved":false,"is_disabled":false,"rental_uris":{"android":"levelo://app?vid=749fee80-dfaa-43de-aa58-d21bbf5e0792","ios":"levelo://app?vid=749fee80-dfaa-43de-aa58-d21bbf5e0792"},"vehicle_type_id":"4","last_reported":1740769632,"current_range_meters":9600,"station_id":"ce4bhn12rcd13ifvqgqg","pricing_plan_id":"cebpf4jnsgd1na2vs0mg"},{"bike_id":"4b7d95b1-35d3-47cc-a9b5-4ba973f3cafd","system_id":"levelo_inurba_marseille","lat":43.24802,"lon":5.37447,"is_reserved":false,"is_disabled":false,"rental_uris":{"android":"levelo://app?vid=4b7d95b1-35d3-47cc-a9b5-4ba973f3cafd","ios":"levelo://app?vid=4b7d95b1-35d3-47cc-a9b5-4ba973f3cafd"},"vehicle_type_id":"4","last_reported":1740769632,"current_range_meters":9600,"station_id":"ce4bhgh2rcd13ifvqfb0","pricing_plan_id":"cebpf4jnsgd1na2vs0mg"},{"bike_id":"f1453ca0-223f-4e71-a87b-2fcb18a0c056","system_id":"levelo_inurba_marseille","lat":43.29604,"lon":5.38088,"is_reserved":false,"is_disabled":false,"rental_uris":{"android":"levelo://app?vid=f1453ca0-223f-4e71-a87b-2fcb18a0c056","ios":"levelo://app?vid=f1453ca0-223f-4e71-a87b-2fcb18a0c056"},"vehicle_type_id":"4","last_reported":1740769632,"current_range_meters":9600,"station_id":"ce4bgl12rcd13ifvqbo0","pricing_plan_id":"cebpf4jnsgd1na2vs0mg"},{"bike_id":"07218d0c-edee-4927-8301-a0b5a1c7809f","system_id":"levelo_inurba_marseille","lat":43.2558,"lon":5.38236,"is_reserved":false,"is_disabled":false,"rental_uris":{"android":"levelo://app?vid=07218d0c-edee-4927-8301-a0b5a1c7809f","ios":"levelo://app?vid=07218d0c-edee-4927-8301-a0b5a1c7809f"},"vehicle_type_id":"4","last_reported":1740769632,"current_range_meters":10000,"station_id":"ce4bhih2rcd13ifvqfs0","pricing_plan_id":"cebpf4jnsgd1na2vs0mg"},{"bike_id":"da5c9d82-c961-41d7-8995-c7c8a1fbd0c4","system_id":"levelo_inurba_marseille","lat":43.27052,"lon":5.40256,"is_reserved":false,"is_disabled":false,"rental_uris":{"android":"levelo://app?vid=da5c9d82-c961-41d7-8995-c7c8a1fbd0c4","ios":"levelo://app?vid=da5c9d82-c961-41d7-8995-c7c8a1fbd0c4"},"vehicle_type_id":"4","last_reported":1740769632,"current_range_meters":9600,"station_id":"ce4bhk92rcd13ifvqgc0","pricing_plan_id":"cebpf4jnsgd1na2vs0mg"},{"bike_id":"945b8149-c963-40c0-9847-d8e4dee42bdb","system_id":"levelo_inurba_marseille","lat":43.2928,"lon":5.36847,"is_reserved":false,"is_disabled":false,"rental_uris":{"android":"levelo://app?vid=945b8149-c963-40c0-9847-d8e4dee42bdb","ios":"levelo://app?vid=945b8149-c963-40c0-9847-d8e4dee42bdb"},"vehicle_type_id":"4","last_reported":1740769632,"current_range_meters":9600,"station_id":"ce4bhbp2rcd13ifvqesg","pricing_plan_id":"cebpf4jnsgd1na2vs0mg"},{"bike_id":"04637487-bba0-4fc3-b487-91b0966835a6","system_id":"levelo_inurba_marseille","lat":43.25004,"lon":5.38929,"is_reserved":false,"is_disabled":false,"rental_uris":{"android":"levelo://app?vid=04637487-bba0-4fc3-b487-91b0966835a6","ios":"levelo://app?vid=04637487-bba0-4fc3-b487-91b0966835a6"},"vehicle_type_id":"4","last_reported":1740769632,"current_range_meters":9600,"station_id":"ce4bhgp2rcd13ifvqfd0","pricing_plan_id":"cebpf4jnsgd1na2vs0mg"},{"bike_id":"c45a5ca8-64f5-4c3f-8446-d0f2f6e6723a","system_id":"levelo_inurba_marseille","lat":43.30909,"lon":5.36839,"is_reserved":false,"is_disabled":false,"rental_uris":{"android":"levelo://app?vid=c45a5ca8-64f5-4c3f-8446-d0f2f6e6723a","ios":"levelo://app?vid=c45a5ca8-64f5-4c3f-8446-d0f2f6e6723a"},"vehicle_type_id":"4","last_reported":1740769632,"current_range_meters":9600,"station_id":"ce4bgn92rcd13ifvqbvg","pricing_plan_id":"cebpf4jnsgd1na2vs0mg"},{"bike_id":"90ee2a5b-7695-495f-b76e-372d2bab917b","system_id":"levelo_inurba_marseille","lat":43.29851,"lon":5.36277,"is_reserved":false,"is_disabled":false,"rental_uris":{"android":"levelo://app?vid=90ee2a5b-7695-495f-b76e-372d2bab917b","ios":"levelo://app?vid=90ee2a5b-7695-495f-b76e-372d2bab917b"},"vehicle_type_id":"4","last_reported":1740769632,"current_range_meters":10000,"station_id":"ce4bgpp2rcd13ifvqc3g","pricing_plan_id":"cebpf4jnsgd1na2vs0mg"},{"bike_id":"ccaa0880-963f-40fd-b326-00a6ee5eff9b","system_id":"levelo_inurba_marseille","lat":43.29023,"lon":5.38628,"is_reserved":false,"is_disabled":false,"rental_uris":{"android":"levelo://app?vid=ccaa0880-963f-40fd-b326-00a6ee5eff9b","ios":"levelo://app?vid=ccaa0880-963f-40fd-b326-00a6ee5eff9b"},"vehicle_type_id":"4","last_reported":1740769632,"current_range_meters":9600,"station_id":"ce4bh4p2rcd13ifvqe0g","pricing_plan_id":"cebpf4jnsgd1na2vs0mg"},{"bike_id":"50c22642-3685-4c66-a09c-47a9f81b3ccf","system_id":"levelo_inurba_marseille","lat":43.29438,"lon":5.39756,"is_reserved":false,"is_disabled":false,"rental_uris":{"android":"levelo://app?vid=50c22642-3685-4c66-a09c-47a9f81b3ccf","ios":"levelo://app?vid=50c22642-3685-4c66-a09c-47a9f81b3ccf"},"vehicle_type_id":"4","last_reported":1740769632,"current_range_meters":9600,"station_id":"ce4bh3h2rcd13ifvqdo0","pricing_plan_id":"cebpf4jnsgd1na2vs0mg"},{"bike_id":"ac67bfc8-8307-484c-a2cc-e2aa7c603c40","system_id":"levelo_inurba_marseille","lat":43.29804,"lon":5.38122,"is_reserved":false,"is_disabled":false,"rental_uris":{"android":"levelo://app?vid=ac67bfc8-8307-484c-a2cc-e2aa7c603c40","ios":"levelo://app?vid=ac67bfc8-8307-484c-a2cc-e2aa7c603c40"},"vehicle_type_id":"4","last_reported":1740769632,"current_range_meters":10000,"station_id":"ce4bgip2rcd13ifvqbb0","pricing_plan_id":"cebpf4jnsgd1na2vs0mg"},{"bike_id":"7aa6e57c-d562-40b6-9ecf-77bb4751ffde","system_id":"levelo_inurba_marseille","lat":43.29261,"lon":5.38434,"is_reserved":false,"is_disabled":false,"rental_uris":{"android":"levelo://app?vid=7aa6e57c-d562-40b6-9ecf-77bb4751ffde","ios":"levelo://app?vid=7aa6e57c-d562-40b6-9ecf-77bb4751ffde"},"vehicle_type_id":"4","last_reported":1740769632,"current_range_meters":14000,"station_id":"ce4bh692rcd13ifvqea0","pricing_plan_id":"cebpf4jnsgd1na2vs0mg"},{"bike_id":"e1b46f76-5144-4002-af83-81b645ecf520","system_id":"levelo_inurba_marseille","lat":43.28152,"lon":5.42644,"is_reserved":false,"is_disabled":false,"rental_uris":{"android":"levelo://app?vid=e1b46f76-5144-4002-af83-81b645ecf520","ios":"levelo://app?vid=e1b46f76-5144-4002-af83-81b645ecf520"},"vehicle_type_id":"4","last_reported":1740769632,"current_range_meters":10000,"station_id":"ce4bhnh2rcd13ifvqgug","pricing_plan_id":"cebpf4jnsgd1na2vs0mg"},{"bike_id":"87e93e74-8cd3-44d1-b4df-fd004e9d2d43","system_id":"levelo_inurba_marseille","lat":43.28108,"lon":5.3783,"is_reserved":false,"is_disabled":false,"rental_uris":{"android":"levelo://app?vid=87e93e74-8cd3-44d1-b4df-fd004e9d2d43","ios":"levelo://app?vid=87e93e74-8cd3-44d1-b4df-fd004e9d2d43"},"vehicle_type_id":"4","last_reported":1740769632,"current_range_meters":10000,"station_id":"ce4bha12rcd13ifvqee0","pricing_plan_id":"cebpf4jnsgd1na2vs0mg"},{"bike_id":"ac5d7217-5a58-4b31-8796-3715631b8c89","system_id":"levelo_inurba_marseille","lat":43.330267,"lon":5.390443,"is_reserved":false,"is_disabled":false,"rental_uris":{"android":"levelo://app?vid=ac5d7217-5a58-4b31-8796-3715631b8c89","ios":"levelo://app?vid=ac5d7217-5a58-4b31-8796-3715631b8c89"},"vehicle_type_id":"4","last_reported":1740769632,"current_range_meters":10000,"station_id":"ce4bhr92rcd13ifvqhrg","pricing_plan_id":"cebpf4jnsgd1na2vs0mg"},{"bike_id":"f91383d0-bbc3-4dad-bbac-c09150d5663f","system_id":"levelo_inurba_marseille","lat":43.30533,"lon":5.36524,"is_reserved":false,"is_disabled":false,"rental_uris":{"android":"levelo://app?vid=f91383d0-bbc3-4dad-bbac-c09150d5663f","ios":"levelo://app?vid=f91383d0-bbc3-4dad-bbac-c09150d5663f"},"vehicle_type_id":"4","last_reported":1740769632,"current_range_meters":10000,"station_id":"ce4bgs12rcd13ifvqcag","pricing_plan_id":"cebpf4jnsgd1na2vs0mg"},{"bike_id":"53dd6714-86b3-47b8-8237-7c6f82280c02","system_id":"levelo_inurba_marseille","lat":43.28105,"lon":5.37836,"is_reserved":false,"is_disabled":false,"rental_uris":{"android":"levelo://app?vid=53dd6714-86b3-47b8-8237-7c6f82280c02","ios":"levelo://app?vid=53dd6714-86b3-47b8-8237-7c6f82280c02"},"vehicle_type_id":"4","last_reported":1740769632,"current_range_meters":10000,"station_id":"ce4bha12rcd13ifvqee0","pricing_plan_id":"cebpf4jnsgd1na2vs0mg"},{"bike_id":"ea9cf9d7-7341-4809-8dba-dc2ffdbb0198","system_id":"levelo_inurba_marseille","lat":43.27911,"lon":5.38048,"is_reserved":false,"is_disabled":false,"rental_uris":{"android":"levelo://app?vid=ea9cf9d7-7341-4809-8dba-dc2ffdbb0198","ios":"levelo://app?vid=ea9cf9d7-7341-4809-8dba-dc2ffdbb0198"},"vehicle_type_id":"4","last_reported":1740769632,"current_range_meters":10800,"station_id":"ce4bhf92rcd13ifvqf50","pricing_plan_id":"cebpf4jnsgd1na2vs0mg"},{"bike_id":"5010cd71-7aef-4ca9-93d7-beb92bd3eb3c","system_id":"levelo_inurba_marseille","lat":43.29686,"lon":5.36604,"is_reserved":false,"is_disabled":false,"rental_uris":{"android":"levelo://app?vid=5010cd71-7aef-4ca9-93d7-beb92bd3eb3c","ios":"levelo://app?vid=5010cd71-7aef-4ca9-93d7-beb92bd3eb3c"},"vehicle_type_id":"4","last_reported":1740769632,"current_range_meters":10000,"station_id":"ce4bgn12rcd13ifvqbt0","pricing_plan_id":"cebpf4jnsgd1na2vs0mg"},{"bike_id":"c776e964-75a1-4343-b453-0b5fc1f76818","system_id":"levelo_inurba_marseille","lat":43.33477,"lon":5.38203,"is_reserved":false,"is_disabled":false,"rental_uris":{"android":"levelo://app?vid=c776e964-75a1-4343-b453-0b5fc1f76818","ios":"levelo://app?vid=c776e964-75a1-4343-b453-0b5fc1f76818"},"vehicle_type_id":"4","last_reported":1740769632,"current_range_meters":10800,"station_id":"","pricing_plan_id":"cebpf4jnsgd1na2vs0mg"},{"bike_id":"43d6aa6f-20c7-4a1b-bcb8-31b660876567","system_id":"levelo_inurba_marseille","lat":43.26555,"lon":5.37259,"is_reserved":false,"is_disabled":false,"rental_uris":{"android":"levelo://app?vid=43d6aa6f-20c7-4a1b-bcb8-31b660876567","ios":"levelo://app?vid=43d6aa6f-20c7-4a1b-bcb8-31b660876567"},"vehicle_type_id":"4","last_reported":1740769632,"current_range_meters":10800,"station_id":"ce4bhg12rcd13ifvqf70","pricing_plan_id":"cebpf4jnsgd1na2vs0mg"},{"bike_id":"7cebbaad-c8b9-4907-879a-36adc54e8c92","system_id":"levelo_inurba_marseille","lat":43.29417,"lon":5.38624,"is_reserved":false,"is_disabled":false,"rental_uris":{"android":"levelo://app?vid=7cebbaad-c8b9-4907-879a-36adc54e8c92","ios":"levelo://app?vid=7cebbaad-c8b9-4907-879a-36adc54e8c92"},"vehicle_type_id":"4","last_reported":1740769632,"current_range_meters":10800,"station_id":"ce4bh2h2rcd13ifvqdh0","pricing_plan_id":"cebpf4jnsgd1na2vs0mg"},{"bike_id":"a8491c1d-2364-406e-946f-98d58f145a67","system_id":"levelo_inurba_marseille","lat":43.32297,"lon":5.38271,"is_reserved":false,"is_disabled":false,"rental_uris":{"android":"levelo://app?vid=a8491c1d-2364-406e-946f-98d58f145a67","ios":"levelo://app?vid=a8491c1d-2364-406e-946f-98d58f145a67"},"vehicle_type_id":"4","last_reported":1740769632,"current_range_meters":10800,"station_id":"ce4bhr12rcd13ifvqhqg","pricing_plan_id":"cebpf4jnsgd1na2vs0mg"},{"bike_id":"3f5e4c77-943b-4a46-b257-614bf13afec4","system_id":"levelo_inurba_marseille","lat":43.24155,"lon":5.36428,"is_reserved":false,"is_disabled":false,"rental_uris":{"android":"levelo://app?vid=3f5e4c77-943b-4a46-b257-614bf13afec4","ios":"levelo://app?vid=3f5e4c77-943b-4a46-b257-614bf13afec4"},"vehicle_type_id":"4","last_reported":1740769632,"current_range_meters":10800,"station_id":"cpo36qri1sfpv3e86is0","pricing_plan_id":"cebpf4jnsgd1na2vs0mg"},{"bike_id":"ac6ae336-5d06-4686-8ec8-309e709c476b","system_id":"levelo_inurba_marseille","lat":43.26944,"lon":5.40256,"is_reserved":false,"is_disabled":false,"rental_uris":{"android":"levelo://app?vid=ac6ae336-5d06-4686-8ec8-309e709c476b","ios":"levelo://app?vid=ac6ae336-5d06-4686-8ec8-309e709c476b"},"vehicle_type_id":"4","last_reported":1740769632,"current_range_meters":10800,"station_id":"cjm6bp8fraef2m0cb0m0","pricing_plan_id":"cebpf4jnsgd1na2vs0mg"},{"bike_id":"481c5a82-892c-4874-a82b-b11ee4631289","system_id":"levelo_inurba_marseille","lat":43.31332,"lon":5.3969,"is_reserved":false,"is_disabled":false,"rental_uris":{"android":"levelo://app?vid=481c5a82-892c-4874-a82b-b11ee4631289","ios":"levelo://app?vid=481c5a82-892c-4874-a82b-b11ee4631289"},"vehicle_type_id":"4","last_reported":1740769632,"current_range_meters":10800,"station_id":"ce4bgvp2rcd13ifvqcu0","pricing_plan_id":"cebpf4jnsgd1na2vs0mg"},{"bike_id":"0f05a067-fc47-4f72-9c97-e54bcd9cbfb2","system_id":"levelo_inurba_marseille","lat":43.30155,"lon":5.38098,"is_reserved":false,"is_disabled":false,"rental_uris":{"android":"levelo://app?vid=0f05a067-fc47-4f72-9c97-e54bcd9cbfb2","ios":"levelo://app?vid=0f05a067-fc47-4f72-9c97-e54bcd9cbfb2"},"vehicle_type_id":"4","last_reported":1740769632,"current_range_meters":10800,"station_id":"ce4bgjp2rcd13ifvqbh0","pricing_plan_id":"cebpf4jnsgd1na2vs0mg"},{"bike_id":"3ebdb845-a46d-4c53-8b9d-7148cd63e153","system_id":"levelo_inurba_marseille","lat":43.25505,"lon":5.37649,"is_reserved":false,"is_disabled":false,"rental_uris":{"android":"levelo://app?vid=3ebdb845-a46d-4c53-8b9d-7148cd63e153","ios":"levelo://app?vid=3ebdb845-a46d-4c53-8b9d-7148cd63e153"},"vehicle_type_id":"4","last_reported":1740769632,"current_range_meters":10000,"station_id":"ce4bhh12rcd13ifvqff0","pricing_plan_id":"cebpf4jnsgd1na2vs0mg"},{"bike_id":"e539e494-fa17-4683-9bd7-83b731a11d93","system_id":"levelo_inurba_marseille","lat":43.24163,"lon":5.36394,"is_reserved":false,"is_disabled":false,"rental_uris":{"android":"levelo://app?vid=e539e494-fa17-4683-9bd7-83b731a11d93","ios":"levelo://app?vid=e539e494-fa17-4683-9bd7-83b731a11d93"},"vehicle_type_id":"4","last_reported":1740769632,"current_range_meters":10800,"station_id":"cpo36qri1sfpv3e86is0","pricing_plan_id":"cebpf4jnsgd1na2vs0mg"},{"bike_id":"223ddbbd-7f15-4af2-889d-b8b62c080b4c","system_id":"levelo_inurba_marseille","lat":43.29024,"lon":5.38127,"is_reserved":false,"is_disabled":false,"rental_uris":{"android":"levelo://app?vid=223ddbbd-7f15-4af2-889d-b8b62c080b4c","ios":"levelo://app?vid=223ddbbd-7f15-4af2-889d-b8b62c080b4c"},"vehicle_type_id":"4","last_reported":1740769632,"current_range_meters":10800,"station_id":"ce4bh4p2rcd13ifvqe1g","pricing_plan_id":"cebpf4jnsgd1na2vs0mg"},{"bike_id":"2655c289-ffcb-4c2d-8692-8eab2dd39511","system_id":"levelo_inurba_marseille","lat":43.23195,"lon":5.3999,"is_reserved":false,"is_disabled":false,"rental_uris":{"android":"levelo://app?vid=2655c289-ffcb-4c2d-8692-8eab2dd39511","ios":"levelo://app?vid=2655c289-ffcb-4c2d-8692-8eab2dd39511"},"vehicle_type_id":"4","last_reported":1740769632,"current_range_meters":11200,"station_id":"ce4bhn12rcd13ifvqgqg","pricing_plan_id":"cebpf4jnsgd1na2vs0mg"},{"bike_id":"dab286ce-7b54-4a78-be8f-907a2ca9f0f8","system_id":"levelo_inurba_marseille","lat":43.24664,"lon":5.38163,"is_reserved":false,"is_disabled":false,"rental_uris":{"android":"levelo://app?vid=dab286ce-7b54-4a78-be8f-907a2ca9f0f8","ios":"levelo://app?vid=dab286ce-7b54-4a78-be8f-907a2ca9f0f8"},"vehicle_type_id":"4","last_reported":1740769632,"current_range_meters":11200,"station_id":"ce4bhih2rcd13ifvqfr0","pricing_plan_id":"cebpf4jnsgd1na2vs0mg"},{"bike_id":"1e97b9f7-9056-4243-a9b1-b64c1a485da0","system_id":"levelo_inurba_marseille","lat":43.29261,"lon":5.38435,"is_reserved":false,"is_disabled":false,"rental_uris":{"android":"levelo://app?vid=1e97b9f7-9056-4243-a9b1-b64c1a485da0","ios":"levelo://app?vid=1e97b9f7-9056-4243-a9b1-b64c1a485da0"},"vehicle_type_id":"4","last_reported":1740769632,"current_range_meters":11200,"station_id":"ce4bh692rcd13ifvqea0","pricing_plan_id":"cebpf4jnsgd1na2vs0mg"},{"bike_id":"47e998bf-fe5c-4150-99b1-7975b55e5333","system_id":"levelo_inurba_marseille","lat":43.2931,"lon":5.37169,"is_reserved":false,"is_disabled":false,"rental_uris":{"android":"levelo://app?vid=47e998bf-fe5c-4150-99b1-7975b55e5333","ios":"levelo://app?vid=47e998bf-fe5c-4150-99b1-7975b55e5333"},"vehicle_type_id":"4","last_reported":1740769632,"current_range_meters":11200,"station_id":"ce4bgh92rcd13ifvqb40","pricing_plan_id":"cebpf4jnsgd1na2vs0mg"},{"bike_id":"cd367089-2df3-47ed-8622-d921bdc3c74c","system_id":"levelo_inurba_marseille","lat":43.29529,"lon":5.39402,"is_reserved":false,"is_disabled":false,"rental_uris":{"android":"levelo://app?vid=cd367089-2df3-47ed-8622-d921bdc3c74c","ios":"levelo://app?vid=cd367089-2df3-47ed-8622-d921bdc3c74c"},"vehicle_type_id":"4","last_reported":1740769632,"current_range_meters":11600,"station_id":"ce4bh292rcd13ifvqdf0","pricing_plan_id":"cebpf4jnsgd1na2vs0mg"},{"bike_id":"be42606a-2aba-414f-96b3-5743090e9515","system_id":"levelo_inurba_marseille","lat":43.27946,"lon":5.41038,"is_reserved":false,"is_disabled":false,"rental_uris":{"android":"levelo://app?vid=be42606a-2aba-414f-96b3-5743090e9515","ios":"levelo://app?vid=be42606a-2aba-414f-96b3-5743090e9515"},"vehicle_type_id":"4","last_reported":1740769632,"current_range_meters":11600,"station_id":"ce4bhnp2rcd13ifvqh0g","pricing_plan_id":"cebpf4jnsgd1na2vs0mg"},{"bike_id":"152d5173-ed9c-4346-9b22-eb5f34e49026","system_id":"levelo_inurba_marseille","lat":43.28,"lon":5.4001,"is_reserved":false,"is_disabled":false,"rental_uris":{"android":"levelo://app?vid=152d5173-ed9c-4346-9b22-eb5f34e49026","ios":"levelo://app?vid=152d5173-ed9c-4346-9b22-eb5f34e49026"},"vehicle_type_id":"4","last_reported":1740769632,"current_range_meters":11200,"station_id":"ce4bho92rcd13ifvqh4g","pricing_plan_id":"cebpf4jnsgd1na2vs0mg"},{"bike_id":"dbe6ead4-602f-47e7-8e24-b80d544c8713","system_id":"levelo_inurba_marseille","lat":43.27814,"lon":5.40711,"is_reserved":false,"is_disabled":false,"rental_uris":{"android":"levelo://app?vid=dbe6ead4-602f-47e7-8e24-b80d544c8713","ios":"levelo://app?vid=dbe6ead4-602f-47e7-8e24-b80d544c8713"},"vehicle_type_id":"4","last_reported":1740769632,"current_range_meters":11200,"station_id":"ce4bhnh2rcd13ifvqgtg","pricing_plan_id":"cebpf4jnsgd1na2vs0mg"},{"bike_id":"5133fc72-65ce-4545-887a-28c61a41db2c","system_id":"levelo_inurba_marseille","lat":43.27999,"lon":5.40017,"is_reserved":false,"is_disabled":false,"rental_uris":{"android":"levelo://app?vid=5133fc72-65ce-4545-887a-28c61a41db2c","ios":"levelo://app?vid=5133fc72-65ce-4545-887a-28c61a41db2c"},"vehicle_type_id":"4","last_reported":1740769632,"current_range_meters":11200,"station_id":"ce4bho92rcd13ifvqh4g","pricing_plan_id":"cebpf4jnsgd1na2vs0mg"},{"bike_id":"89bb895d-b072-432d-b8b8-488d98d9bf16","system_id":"levelo_inurba_marseille","lat":43.23181,"lon":5.39984,"is_reserved":false,"is_disabled":false,"rental_uris":{"android":"levelo://app?vid=89bb895d-b072-432d-b8b8-488d98d9bf16","ios":"levelo://app?vid=89bb895d-b072-432d-b8b8-488d98d9bf16"},"vehicle_type_id":"4","last_reported":1740769632,"current_range_meters":11600,"station_id":"ce4bhn12rcd13ifvqgqg","pricing_plan_id":"cebpf4jnsgd1na2vs0mg"},{"bike_id":"295074d4-e65f-44d3-b275-546c1451560b","system_id":"levelo_inurba_marseille","lat":43.27818,"lon":5.40722,"is_reserved":false,"is_disabled":false,"rental_uris":{"android":"levelo://app?vid=295074d4-e65f-44d3-b275-546c1451560b","ios":"levelo://app?vid=295074d4-e65f-44d3-b275-546c1451560b"},"vehicle_type_id":"4","last_reported":1740769632,"current_range_meters":12000,"station_id":"ce4bhnh2rcd13ifvqgtg","pricing_plan_id":"cebpf4jnsgd1na2vs0mg"},{"bike_id":"1a44e2f3-b712-436a-9a7d-ebb760b6c14b","system_id":"levelo_inurba_marseille","lat":43.29417,"lon":5.38636,"is_reserved":false,"is_disabled":false,"rental_uris":{"android":"levelo://app?vid=1a44e2f3-b712-436a-9a7d-ebb760b6c14b","ios":"levelo://app?vid=1a44e2f3-b712-436a-9a7d-ebb760b6c14b"},"vehicle_type_id":"4","last_reported":1740769632,"current_range_meters":12400,"station_id":"ce4bh2h2rcd13ifvqdh0","pricing_plan_id":"cebpf4jnsgd1na2vs0mg"},{"bike_id":"a012c9a5-8758-46e3-b5db-da9eb218cc7f","system_id":"levelo_inurba_marseille","lat":43.29535,"lon":5.38547,"is_reserved":false,"is_disabled":false,"rental_uris":{"android":"levelo://app?vid=a012c9a5-8758-46e3-b5db-da9eb218cc7f","ios":"levelo://app?vid=a012c9a5-8758-46e3-b5db-da9eb218cc7f"},"vehicle_type_id":"4","last_reported":1740769632,"current_range_meters":12000,"station_id":"ce4bgih2rcd13ifvqba0","pricing_plan_id":"cebpf4jnsgd1na2vs0mg"},{"bike_id":"0c55fb85-5b2f-489e-9659-37711df2297d","system_id":"levelo_inurba_marseille","lat":43.25502,"lon":5.37648,"is_reserved":false,"is_disabled":false,"rental_uris":{"android":"levelo://app?vid=0c55fb85-5b2f-489e-9659-37711df2297d","ios":"levelo://app?vid=0c55fb85-5b2f-489e-9659-37711df2297d"},"vehicle_type_id":"4","last_reported":1740769632,"current_range_meters":12000,"station_id":"ce4bhh12rcd13ifvqff0","pricing_plan_id":"cebpf4jnsgd1na2vs0mg"},{"bike_id":"18153e23-4968-4c37-a8f2-c4bf1933c80b","system_id":"levelo_inurba_marseille","lat":43.25731,"lon":5.41106,"is_reserved":false,"is_disabled":false,"rental_uris":{"android":"levelo://app?vid=18153e23-4968-4c37-a8f2-c4bf1933c80b","ios":"levelo://app?vid=18153e23-4968-4c37-a8f2-c4bf1933c80b"},"vehicle_type_id":"4","last_reported":1740769632,"current_range_meters":11600,"station_id":"ce4bhkp2rcd13ifvqgd0","pricing_plan_id":"cebpf4jnsgd1na2vs0mg"},{"bike_id":"8e89a4ec-707f-4b58-b75d-096b7eb5c7f4","system_id":"levelo_inurba_marseille","lat":43.29539,"lon":5.38545,"is_reserved":false,"is_disabled":false,"rental_uris":{"android":"levelo://app?vid=8e89a4ec-707f-4b58-b75d-096b7eb5c7f4","ios":"levelo://app?vid=8e89a4ec-707f-4b58-b75d-096b7eb5c7f4"},"vehicle_type_id":"4","last_reported":1740769632,"current_range_meters":15200,"station_id":"ce4bgih2rcd13ifvqba0","pricing_plan_id":"cebpf4jnsgd1na2vs0mg"},{"bike_id":"e533b9b2-d364-472e-b446-ff66f3297f75","system_id":"levelo_inurba_marseille","lat":43.32665,"lon":5.40974,"is_reserved":false,"is_disabled":false,"rental_uris":{"android":"levelo://app?vid=e533b9b2-d364-472e-b446-ff66f3297f75","ios":"levelo://app?vid=e533b9b2-d364-472e-b446-ff66f3297f75"},"vehicle_type_id":"4","last_reported":1740769632,"current_range_meters":9200,"station_id":"ce4bhpp2rcd13ifvqhgg","pricing_plan_id":"cebpf4jnsgd1na2vs0mg"},{"bike_id":"bcf10ec7-0dc7-4b31-90db-9fddabad3e7a","system_id":"levelo_inurba_marseille","lat":43.30534,"lon":5.36785,"is_reserved":false,"is_disabled":true,"rental_uris":{"android":"levelo://app?vid=bcf10ec7-0dc7-4b31-90db-9fddabad3e7a","ios":"levelo://app?vid=bcf10ec7-0dc7-4b31-90db-9fddabad3e7a"},"vehicle_type_id":"4","last_reported":1740769632,"current_range_meters":12000,"station_id":"ce4bgrp2rcd13ifvqc9g","pricing_plan_id":"cebpf4jnsgd1na2vs0mg"},{"bike_id":"55c9b6b3-4894-4eeb-aa31-79a86f812205","system_id":"levelo_inurba_marseille","lat":43.30308,"lon":5.39196,"is_reserved":false,"is_disabled":false,"rental_uris":{"android":"levelo://app?vid=55c9b6b3-4894-4eeb-aa31-79a86f812205","ios":"levelo://app?vid=55c9b6b3-4894-4eeb-aa31-79a86f812205"},"vehicle_type_id":"4","last_reported":1740769632,"current_range_meters":12400,"station_id":"ce4bgkh2rcd13ifvqbk0","pricing_plan_id":"cebpf4jnsgd1na2vs0mg"},{"bike_id":"32ab60c7-610f-4770-af1d-39505ebf7294","system_id":"levelo_inurba_marseille","lat":43.28339,"lon":5.38091,"is_reserved":false,"is_disabled":false,"rental_uris":{"android":"levelo://app?vid=32ab60c7-610f-4770-af1d-39505ebf7294","ios":"levelo://app?vid=32ab60c7-610f-4770-af1d-39505ebf7294"},"vehicle_type_id":"4","last_reported":1740769632,"current_range_meters":12400,"station_id":"ce4bh412rcd13ifvqdr0","pricing_plan_id":"cebpf4jnsgd1na2vs0mg"},{"bike_id":"3982dbd6-9a15-42a1-8fa4-dc968e23cbf0","system_id":"levelo_inurba_marseille","lat":43.28348,"lon":5.38098,"is_reserved":false,"is_disabled":false,"rental_uris":{"android":"levelo://app?vid=3982dbd6-9a15-42a1-8fa4-dc968e23cbf0","ios":"levelo://app?vid=3982dbd6-9a15-42a1-8fa4-dc968e23cbf0"},"vehicle_type_id":"4","last_reported":1740769632,"current_range_meters":12400,"station_id":"ce4bh412rcd13ifvqdr0","pricing_plan_id":"cebpf4jnsgd1na2vs0mg"},{"bike_id":"593edb3c-7add-4a3d-9dbe-95cef549de0d","system_id":"levelo_inurba_marseille","lat":43.23066,"lon":5.35494,"is_reserved":false,"is_disabled":false,"rental_uris":{"android":"levelo://app?vid=593edb3c-7add-4a3d-9dbe-95cef549de0d","ios":"levelo://app?vid=593edb3c-7add-4a3d-9dbe-95cef549de0d"},"vehicle_type_id":"4","last_reported":1740769632,"current_range_meters":12400,"station_id":"cpo3342slgdg3j2ifvpg","pricing_plan_id":"cebpf4jnsgd1na2vs0mg"},{"bike_id":"a9f6dbe6-6598-4d7b-a8fd-113edc3cf174","system_id":"levelo_inurba_marseille","lat":43.30148,"lon":5.39841,"is_reserved":false,"is_disabled":false,"rental_uris":{"android":"levelo://app?vid=a9f6dbe6-6598-4d7b-a8fd-113edc3cf174","ios":"levelo://app?vid=a9f6dbe6-6598-4d7b-a8fd-113edc3cf174"},"vehicle_type_id":"4","last_reported":1740769632,"current_range_meters":16000,"station_id":"ce4bh0h2rcd13ifvqd40","pricing_plan_id":"cebpf4jnsgd1na2vs0mg"},{"bike_id":"ccac8f22-e7ce-41f0-affd-5273ac01f506","system_id":"levelo_inurba_marseille","lat":43.28941,"lon":5.36636,"is_reserved":false,"is_disabled":false,"rental_uris":{"android":"levelo://app?vid=ccac8f22-e7ce-41f0-affd-5273ac01f506","ios":"levelo://app?vid=ccac8f22-e7ce-41f0-affd-5273ac01f506"},"vehicle_type_id":"4","last_reported":1740769632,"current_range_meters":12800,"station_id":"ce4bhap2rcd13ifvqek0","pricing_plan_id":"cebpf4jnsgd1na2vs0mg"},{"bike_id":"d56036d2-528e-4b8f-a11a-e065c3a57244","system_id":"levelo_inurba_marseille","lat":43.2942,"lon":5.38631,"is_reserved":false,"is_disabled":false,"rental_uris":{"android":"levelo://app?vid=d56036d2-528e-4b8f-a11a-e065c3a57244","ios":"levelo://app?vid=d56036d2-528e-4b8f-a11a-e065c3a57244"},"vehicle_type_id":"4","last_reported":1740769632,"current_range_meters":12800,"station_id":"ce4bh2h2rcd13ifvqdh0","pricing_plan_id":"cebpf4jnsgd1na2vs0mg"},{"bike_id":"364b209e-752e-45ea-b26c-06b2552c1833","system_id":"levelo_inurba_marseille","lat":43.23186,"lon":5.35567,"is_reserved":false,"is_disabled":false,"rental_uris":{"android":"levelo://app?vid=364b209e-752e-45ea-b26c-06b2552c1833","ios":"levelo://app?vid=364b209e-752e-45ea-b26c-06b2552c1833"},"vehicle_type_id":"4","last_reported":1740769632,"current_range_meters":12800,"station_id":"ce4bhu92rcd13ifvqi70","pricing_plan_id":"cebpf4jnsgd1na2vs0mg"},{"bike_id":"01a3d87a-a630-4d6f-ad97-42ff108b93f0","system_id":"levelo_inurba_marseille","lat":43.29253,"lon":5.38432,"is_reserved":false,"is_disabled":false,"rental_uris":{"android":"levelo://app?vid=01a3d87a-a630-4d6f-ad97-42ff108b93f0","ios":"levelo://app?vid=01a3d87a-a630-4d6f-ad97-42ff108b93f0"},"vehicle_type_id":"4","last_reported":1740769632,"current_range_meters":10000,"station_id":"ce4bh692rcd13ifvqea0","pricing_plan_id":"cebpf4jnsgd1na2vs0mg"},{"bike_id":"49e9cdc7-76a5-4b66-ae2d-61c73beb73a8","system_id":"levelo_inurba_marseille","lat":43.24159,"lon":5.36495,"is_reserved":false,"is_disabled":false,"rental_uris":{"android":"levelo://app?vid=49e9cdc7-76a5-4b66-ae2d-61c73beb73a8","ios":"levelo://app?vid=49e9cdc7-76a5-4b66-ae2d-61c73beb73a8"},"vehicle_type_id":"4","last_reported":1740769632,"current_range_meters":12800,"station_id":"cpo36qri1sfpv3e86is0","pricing_plan_id":"cebpf4jnsgd1na2vs0mg"},{"bike_id":"46cbd385-eee1-4e74-821e-e784dd181c83","system_id":"levelo_inurba_marseille","lat":43.30604,"lon":5.37231,"is_reserved":false,"is_disabled":false,"rental_uris":{"android":"levelo://app?vid=46cbd385-eee1-4e74-821e-e784dd181c83","ios":"levelo://app?vid=46cbd385-eee1-4e74-821e-e784dd181c83"},"vehicle_type_id":"4","last_reported":1740769632,"current_range_meters":13600,"station_id":"ce4bgqh2rcd13ifvqc4g","pricing_plan_id":"cebpf4jnsgd1na2vs0mg"},{"bike_id":"eeab2b0f-b74a-40c0-a740-ffe04bdfaf49","system_id":"levelo_inurba_marseille","lat":43.29537,"lon":5.38547,"is_reserved":false,"is_disabled":false,"rental_uris":{"android":"levelo://app?vid=eeab2b0f-b74a-40c0-a740-ffe04bdfaf49","ios":"levelo://app?vid=eeab2b0f-b74a-40c0-a740-ffe04bdfaf49"},"vehicle_type_id":"4","last_reported":1740769632,"current_range_meters":13600,"station_id":"ce4bgih2rcd13ifvqba0","pricing_plan_id":"cebpf4jnsgd1na2vs0mg"},{"bike_id":"f5fe4361-1d3d-4314-a7e8-95ca49fcf6f9","system_id":"levelo_inurba_marseille","lat":43.32211,"lon":5.38764,"is_reserved":false,"is_disabled":false,"rental_uris":{"android":"levelo://app?vid=f5fe4361-1d3d-4314-a7e8-95ca49fcf6f9","ios":"levelo://app?vid=f5fe4361-1d3d-4314-a7e8-95ca49fcf6f9"},"vehicle_type_id":"4","last_reported":1740769632,"current_range_meters":13600,"station_id":"","pricing_plan_id":"cebpf4jnsgd1na2vs0mg"},{"bike_id":"01fbad68-ad1f-42c8-9255-de17f11fe195","system_id":"levelo_inurba_marseille","lat":43.28613,"lon":5.3706,"is_reserved":false,"is_disabled":false,"rental_uris":{"android":"levelo://app?vid=01fbad68-ad1f-42c8-9255-de17f11fe195","ios":"levelo://app?vid=01fbad68-ad1f-42c8-9255-de17f11fe195"},"vehicle_type_id":"4","last_reported":1740769632,"current_range_meters":12800,"station_id":"ce4bht12rcd13ifvqi60","pricing_plan_id":"cebpf4jnsgd1na2vs0mg"},{"bike_id":"bd817eae-1279-4fa2-9854-4d71936144d1","system_id":"levelo_inurba_marseille","lat":43.24181,"lon":5.39735,"is_reserved":false,"is_disabled":false,"rental_uris":{"android":"levelo://app?vid=bd817eae-1279-4fa2-9854-4d71936144d1","ios":"levelo://app?vid=bd817eae-1279-4fa2-9854-4d71936144d1"},"vehicle_type_id":"4","last_reported":1740769632,"current_range_meters":12800,"station_id":"ce4bhn12rcd13ifvqgpg","pricing_plan_id":"cebpf4jnsgd1na2vs0mg"},{"bike_id":"a381a5b9-a403-4200-9ffe-4dd1764c25e1","system_id":"levelo_inurba_marseille","lat":43.29543,"lon":5.38538,"is_reserved":false,"is_disabled":false,"rental_uris":{"android":"levelo://app?vid=a381a5b9-a403-4200-9ffe-4dd1764c25e1","ios":"levelo://app?vid=a381a5b9-a403-4200-9ffe-4dd1764c25e1"},"vehicle_type_id":"4","last_reported":1740769632,"current_range_meters":14000,"station_id":"ce4bgih2rcd13ifvqba0","pricing_plan_id":"cebpf4jnsgd1na2vs0mg"},{"bike_id":"0b6e94b6-6e13-4368-b298-e254ac519406","system_id":"levelo_inurba_marseille","lat":43.32547,"lon":5.41433,"is_reserved":false,"is_disabled":false,"rental_uris":{"android":"levelo://app?vid=0b6e94b6-6e13-4368-b298-e254ac519406","ios":"levelo://app?vid=0b6e94b6-6e13-4368-b298-e254ac519406"},"vehicle_type_id":"4","last_reported":1740769632,"current_range_meters":13600,"station_id":"ce4bhq12rcd13ifvqhhg","pricing_plan_id":"cebpf4jnsgd1na2vs0mg"},{"bike_id":"9b3c2c8c-74e2-4378-b67f-cfcd4f054ac4","system_id":"levelo_inurba_marseille","lat":43.28099,"lon":5.37847,"is_reserved":false,"is_disabled":false,"rental_uris":{"android":"levelo://app?vid=9b3c2c8c-74e2-4378-b67f-cfcd4f054ac4","ios":"levelo://app?vid=9b3c2c8c-74e2-4378-b67f-cfcd4f054ac4"},"vehicle_type_id":"4","last_reported":1740769632,"current_range_meters":14000,"station_id":"ce4bha12rcd13ifvqee0","pricing_plan_id":"cebpf4jnsgd1na2vs0mg"},{"bike_id":"7c3db7e8-81c8-424b-90eb-a84331a077d1","system_id":"levelo_inurba_marseille","lat":43.31755,"lon":5.39011,"is_reserved":false,"is_disabled":false,"rental_uris":{"android":"levelo://app?vid=7c3db7e8-81c8-424b-90eb-a84331a077d1","ios":"levelo://app?vid=7c3db7e8-81c8-424b-90eb-a84331a077d1"},"vehicle_type_id":"4","last_reported":1740769632,"current_range_meters":13600,"station_id":"ce4bhqp2rcd13ifvqhng","pricing_plan_id":"cebpf4jnsgd1na2vs0mg"},{"bike_id":"597c78d8-1097-48db-b3be-fafc8754eab9","system_id":"levelo_inurba_marseille","lat":43.24163,"lon":5.36406,"is_reserved":false,"is_disabled":false,"rental_uris":{"android":"levelo://app?vid=597c78d8-1097-48db-b3be-fafc8754eab9","ios":"levelo://app?vid=597c78d8-1097-48db-b3be-fafc8754eab9"},"vehicle_type_id":"4","last_reported":1740769632,"current_range_meters":14000,"station_id":"cpo36qri1sfpv3e86is0","pricing_plan_id":"cebpf4jnsgd1na2vs0mg"},{"bike_id":"f903fd24-6696-43fd-9b6e-a49dd31530b7","system_id":"levelo_inurba_marseille","lat":43.30805,"lon":5.43542,"is_reserved":false,"is_disabled":false,"rental_uris":{"android":"levelo://app?vid=f903fd24-6696-43fd-9b6e-a49dd31530b7","ios":"levelo://app?vid=f903fd24-6696-43fd-9b6e-a49dd31530b7"},"vehicle_type_id":"4","last_reported":1740769632,"current_range_meters":14000,"station_id":"ce4bhph2rcd13ifvqheg","pricing_plan_id":"cebpf4jnsgd1na2vs0mg"},{"bike_id":"721d9695-ddc2-46fa-9c0a-c2d62c810324","system_id":"levelo_inurba_marseille","lat":43.27817,"lon":5.40711,"is_reserved":false,"is_disabled":false,"rental_uris":{"android":"levelo://app?vid=721d9695-ddc2-46fa-9c0a-c2d62c810324","ios":"levelo://app?vid=721d9695-ddc2-46fa-9c0a-c2d62c810324"},"vehicle_type_id":"4","last_reported":1740769632,"current_range_meters":14000,"station_id":"ce4bhnh2rcd13ifvqgtg","pricing_plan_id":"cebpf4jnsgd1na2vs0mg"},{"bike_id":"72ef3f92-8b01-4eb5-8b85-c3fcefa04465","system_id":"levelo_inurba_marseille","lat":43.31122,"lon":5.37765,"is_reserved":false,"is_disabled":false,"rental_uris":{"android":"levelo://app?vid=72ef3f92-8b01-4eb5-8b85-c3fcefa04465","ios":"levelo://app?vid=72ef3f92-8b01-4eb5-8b85-c3fcefa04465"},"vehicle_type_id":"4","last_reported":1740769632,"current_range_meters":14400,"station_id":"ce4bgt92rcd13ifvqcg0","pricing_plan_id":"cebpf4jnsgd1na2vs0mg"},{"bike_id":"8f7e47eb-fd13-43b3-ba06-ffd1c629ed6c","system_id":"levelo_inurba_marseille","lat":43.29273,"lon":5.38442,"is_reserved":false,"is_disabled":false,"rental_uris":{"android":"levelo://app?vid=8f7e47eb-fd13-43b3-ba06-ffd1c629ed6c","ios":"levelo://app?vid=8f7e47eb-fd13-43b3-ba06-ffd1c629ed6c"},"vehicle_type_id":"4","last_reported":1740769632,"current_range_meters":14400,"station_id":"ce4bh692rcd13ifvqea0","pricing_plan_id":"cebpf4jnsgd1na2vs0mg"},{"bike_id":"74bdaba9-ddf5-4116-ac2f-aa7e97c64476","system_id":"levelo_inurba_marseille","lat":43.25019,"lon":5.38939,"is_reserved":false,"is_disabled":false,"rental_uris":{"android":"levelo://app?vid=74bdaba9-ddf5-4116-ac2f-aa7e97c64476","ios":"levelo://app?vid=74bdaba9-ddf5-4116-ac2f-aa7e97c64476"},"vehicle_type_id":"4","last_reported":1740769632,"current_range_meters":14800,"station_id":"ce4bhgp2rcd13ifvqfd0","pricing_plan_id":"cebpf4jnsgd1na2vs0mg"},{"bike_id":"bed62423-f932-47d3-9982-65542442f1fc","system_id":"levelo_inurba_marseille","lat":43.29285,"lon":5.36848,"is_reserved":false,"is_disabled":false,"rental_uris":{"android":"levelo://app?vid=bed62423-f932-47d3-9982-65542442f1fc","ios":"levelo://app?vid=bed62423-f932-47d3-9982-65542442f1fc"},"vehicle_type_id":"4","last_reported":1740769632,"current_range_meters":14800,"station_id":"ce4bhbp2rcd13ifvqesg","pricing_plan_id":"cebpf4jnsgd1na2vs0mg"},{"bike_id":"7d7c3645-a1b8-4cba-8ed4-36c4931e6932","system_id":"levelo_inurba_marseille","lat":43.255836,"lon":5.38252,"is_reserved":false,"is_disabled":false,"rental_uris":{"android":"levelo://app?vid=7d7c3645-a1b8-4cba-8ed4-36c4931e6932","ios":"levelo://app?vid=7d7c3645-a1b8-4cba-8ed4-36c4931e6932"},"vehicle_type_id":"4","last_reported":1740769632,"current_range_meters":15200,"station_id":"ce4bhih2rcd13ifvqfs0","pricing_plan_id":"cebpf4jnsgd1na2vs0mg"},{"bike_id":"12b126ba-358c-4355-aa4d-bf52a4182a64","system_id":"levelo_inurba_marseille","lat":43.29797,"lon":5.40399,"is_reserved":false,"is_disabled":false,"rental_uris":{"android":"levelo://app?vid=12b126ba-358c-4355-aa4d-bf52a4182a64","ios":"levelo://app?vid=12b126ba-358c-4355-aa4d-bf52a4182a64"},"vehicle_type_id":"4","last_reported":1740769632,"current_range_meters":14800,"station_id":"ce4bh112rcd13ifvqd90","pricing_plan_id":"cebpf4jnsgd1na2vs0mg"},{"bike_id":"202a89fb-23cc-43f6-8a82-08d33c6311cb","system_id":"levelo_inurba_marseille","lat":43.29293,"lon":5.37432,"is_reserved":false,"is_disabled":false,"rental_uris":{"android":"levelo://app?vid=202a89fb-23cc-43f6-8a82-08d33c6311cb","ios":"levelo://app?vid=202a89fb-23cc-43f6-8a82-08d33c6311cb"},"vehicle_type_id":"4","last_reported":1740769632,"current_range_meters":14800,"station_id":"ce4bgi12rcd13ifvqb70","pricing_plan_id":"cebpf4jnsgd1na2vs0mg"},{"bike_id":"4e7f37a0-af0d-4899-8dab-5290f4678646","system_id":"levelo_inurba_marseille","lat":43.28619,"lon":5.35099,"is_reserved":false,"is_disabled":false,"rental_uris":{"android":"levelo://app?vid=4e7f37a0-af0d-4899-8dab-5290f4678646","ios":"levelo://app?vid=4e7f37a0-af0d-4899-8dab-5290f4678646"},"vehicle_type_id":"4","last_reported":1740769632,"current_range_meters":14800,"station_id":"ce4bhch2rcd13ifvqeug","pricing_plan_id":"cebpf4jnsgd1na2vs0mg"},{"bike_id":"96e41af9-9d9d-446b-9ca8-85d995844227","system_id":"levelo_inurba_marseille","lat":43.28617,"lon":5.35104,"is_reserved":false,"is_disabled":false,"rental_uris":{"android":"levelo://app?vid=96e41af9-9d9d-446b-9ca8-85d995844227","ios":"levelo://app?vid=96e41af9-9d9d-446b-9ca8-85d995844227"},"vehicle_type_id":"4","last_reported":1740769632,"current_range_meters":15200,"station_id":"ce4bhch2rcd13ifvqeug","pricing_plan_id":"cebpf4jnsgd1na2vs0mg"},{"bike_id":"8c86cb21-5e53-44c8-a766-70640a93721c","system_id":"levelo_inurba_marseille","lat":43.291806,"lon":5.375543,"is_reserved":false,"is_disabled":false,"rental_uris":{"android":"levelo://app?vid=8c86cb21-5e53-44c8-a766-70640a93721c","ios":"levelo://app?vid=8c86cb21-5e53-44c8-a766-70640a93721c"},"vehicle_type_id":"4","last_reported":1740769632,"current_range_meters":15200,"station_id":"","pricing_plan_id":"cebpf4jnsgd1na2vs0mg"},{"bike_id":"9725ec55-e9d9-44a8-96a3-498fbe3bd261","system_id":"levelo_inurba_marseille","lat":43.29202,"lon":5.35809,"is_reserved":false,"is_disabled":false,"rental_uris":{"android":"levelo://app?vid=9725ec55-e9d9-44a8-96a3-498fbe3bd261","ios":"levelo://app?vid=9725ec55-e9d9-44a8-96a3-498fbe3bd261"},"vehicle_type_id":"4","last_reported":1740769632,"current_range_meters":15200,"station_id":"ce4bhb12rcd13ifvqel0","pricing_plan_id":"cebpf4jnsgd1na2vs0mg"},{"bike_id":"440d1bdc-1f71-46f3-82a3-4ff31341ef30","system_id":"levelo_inurba_marseille","lat":43.30531,"lon":5.3653,"is_reserved":false,"is_disabled":false,"rental_uris":{"android":"levelo://app?vid=440d1bdc-1f71-46f3-82a3-4ff31341ef30","ios":"levelo://app?vid=440d1bdc-1f71-46f3-82a3-4ff31341ef30"},"vehicle_type_id":"4","last_reported":1740769632,"current_range_meters":16000,"station_id":"ce4bgs12rcd13ifvqcag","pricing_plan_id":"cebpf4jnsgd1na2vs0mg"},{"bike_id":"4bfecc6c-3ed2-4c20-8579-4d5b1bbdb3a4","system_id":"levelo_inurba_marseille","lat":43.27811,"lon":5.40714,"is_reserved":false,"is_disabled":false,"rental_uris":{"android":"levelo://app?vid=4bfecc6c-3ed2-4c20-8579-4d5b1bbdb3a4","ios":"levelo://app?vid=4bfecc6c-3ed2-4c20-8579-4d5b1bbdb3a4"},"vehicle_type_id":"4","last_reported":1740769632,"current_range_meters":14800,"station_id":"ce4bhnh2rcd13ifvqgtg","pricing_plan_id":"cebpf4jnsgd1na2vs0mg"},{"bike_id":"27f8d61f-de01-4772-8b8c-ceceaf4de61e","system_id":"levelo_inurba_marseille","lat":43.29074,"lon":5.37159,"is_reserved":false,"is_disabled":true,"rental_uris":{"android":"levelo://app?vid=27f8d61f-de01-4772-8b8c-ceceaf4de61e","ios":"levelo://app?vid=27f8d61f-de01-4772-8b8c-ceceaf4de61e"},"vehicle_type_id":"4","last_reported":1740769632,"current_range_meters":15200,"station_id":"ce4bh5p2rcd13ifvqe4g","pricing_plan_id":"cebpf4jnsgd1na2vs0mg"},{"bike_id":"0450fd91-866e-4847-9272-3ca674ad8121","system_id":"levelo_inurba_marseille","lat":43.30589,"lon":5.39359,"is_reserved":false,"is_disabled":false,"rental_uris":{"android":"levelo://app?vid=0450fd91-866e-4847-9272-3ca674ad8121","ios":"levelo://app?vid=0450fd91-866e-4847-9272-3ca674ad8121"},"vehicle_type_id":"4","last_reported":1740769632,"current_range_meters":15200,"station_id":"ce4bh0p2rcd13ifvqd80","pricing_plan_id":"cebpf4jnsgd1na2vs0mg"},{"bike_id":"877ec0bf-a63a-4701-89ba-dbff94ab6148","system_id":"levelo_inurba_marseille","lat":43.27834,"lon":5.40708,"is_reserved":false,"is_disabled":false,"rental_uris":{"android":"levelo://app?vid=877ec0bf-a63a-4701-89ba-dbff94ab6148","ios":"levelo://app?vid=877ec0bf-a63a-4701-89ba-dbff94ab6148"},"vehicle_type_id":"4","last_reported":1740769632,"current_range_meters":12800,"station_id":"ce4bhnh2rcd13ifvqgtg","pricing_plan_id":"cebpf4jnsgd1na2vs0mg"},{"bike_id":"8c836072-915f-4439-a119-794f52217e20","system_id":"levelo_inurba_marseille","lat":43.27815,"lon":5.40714,"is_reserved":false,"is_disabled":false,"rental_uris":{"android":"levelo://app?vid=8c836072-915f-4439-a119-794f52217e20","ios":"levelo://app?vid=8c836072-915f-4439-a119-794f52217e20"},"vehicle_type_id":"4","last_reported":1740769632,"current_range_meters":16400,"station_id":"ce4bhnh2rcd13ifvqgtg","pricing_plan_id":"cebpf4jnsgd1na2vs0mg"},{"bike_id":"32036ee7-d3d7-4fd5-98a9-6c3c0fc224b6","system_id":"levelo_inurba_marseille","lat":43.27816,"lon":5.40713,"is_reserved":false,"is_disabled":false,"rental_uris":{"android":"levelo://app?vid=32036ee7-d3d7-4fd5-98a9-6c3c0fc224b6","ios":"levelo://app?vid=32036ee7-d3d7-4fd5-98a9-6c3c0fc224b6"},"vehicle_type_id":"4","last_reported":1740769632,"current_range_meters":16000,"station_id":"ce4bhnh2rcd13ifvqgtg","pricing_plan_id":"cebpf4jnsgd1na2vs0mg"},{"bike_id":"9c7b8a1f-a057-4b1e-b2e5-f536eda0ac26","system_id":"levelo_inurba_marseille","lat":43.27808,"lon":5.4071,"is_reserved":false,"is_disabled":false,"rental_uris":{"android":"levelo://app?vid=9c7b8a1f-a057-4b1e-b2e5-f536eda0ac26","ios":"levelo://app?vid=9c7b8a1f-a057-4b1e-b2e5-f536eda0ac26"},"vehicle_type_id":"4","last_reported":1740769632,"current_range_meters":16800,"station_id":"ce4bhnh2rcd13ifvqgtg","pricing_plan_id":"cebpf4jnsgd1na2vs0mg"},{"bike_id":"a43d23d2-0d6e-4cf7-8691-8ab079a8ff69","system_id":"levelo_inurba_marseille","lat":43.299008,"lon":5.436658,"is_reserved":false,"is_disabled":false,"rental_uris":{"android":"levelo://app?vid=a43d23d2-0d6e-4cf7-8691-8ab079a8ff69","ios":"levelo://app?vid=a43d23d2-0d6e-4cf7-8691-8ab079a8ff69"},"vehicle_type_id":"4","last_reported":1740769632,"current_range_meters":16000,"station_id":"ce4bhpp2rcd13ifvqhfg","pricing_plan_id":"cebpf4jnsgd1na2vs0mg"},{"bike_id":"4015c440-7267-44b4-8be2-f4b87cb51aa9","system_id":"levelo_inurba_marseille","lat":43.25575,"lon":5.38245,"is_reserved":false,"is_disabled":false,"rental_uris":{"android":"levelo://app?vid=4015c440-7267-44b4-8be2-f4b87cb51aa9","ios":"levelo://app?vid=4015c440-7267-44b4-8be2-f4b87cb51aa9"},"vehicle_type_id":"4","last_reported":1740769632,"current_range_meters":16000,"station_id":"ce4bhih2rcd13ifvqfs0","pricing_plan_id":"cebpf4jnsgd1na2vs0mg"},{"bike_id":"20d2ee05-766c-42f5-ad36-8379672e425d","system_id":"levelo_inurba_marseille","lat":43.29326,"lon":5.37084,"is_reserved":false,"is_disabled":false,"rental_uris":{"android":"levelo://app?vid=20d2ee05-766c-42f5-ad36-8379672e425d","ios":"levelo://app?vid=20d2ee05-766c-42f5-ad36-8379672e425d"},"vehicle_type_id":"4","last_reported":1740769632,"current_range_meters":16000,"station_id":"","pricing_plan_id":"cebpf4jnsgd1na2vs0mg"},{"bike_id":"e2002dc7-8529-4007-bfdf-b903f22cf884","system_id":"levelo_inurba_marseille","lat":43.308,"lon":5.4353,"is_reserved":false,"is_disabled":false,"rental_uris":{"android":"levelo://app?vid=e2002dc7-8529-4007-bfdf-b903f22cf884","ios":"levelo://app?vid=e2002dc7-8529-4007-bfdf-b903f22cf884"},"vehicle_type_id":"4","last_reported":1740769632,"current_range_meters":16000,"station_id":"ce4bhph2rcd13ifvqheg","pricing_plan_id":"cebpf4jnsgd1na2vs0mg"},{"bike_id":"43b4ba4f-c857-4e5e-a746-5fa5e749b88e","system_id":"levelo_inurba_marseille","lat":43.24157,"lon":5.39711,"is_reserved":false,"is_disabled":false,"rental_uris":{"android":"levelo://app?vid=43b4ba4f-c857-4e5e-a746-5fa5e749b88e","ios":"levelo://app?vid=43b4ba4f-c857-4e5e-a746-5fa5e749b88e"},"vehicle_type_id":"4","last_reported":1740769632,"current_range_meters":16400,"station_id":"ce4bhn12rcd13ifvqgpg","pricing_plan_id":"cebpf4jnsgd1na2vs0mg"},{"bike_id":"f225fbfc-2eec-4a57-82f0-6edd42c66d04","system_id":"levelo_inurba_marseille","lat":43.27818,"lon":5.40708,"is_reserved":false,"is_disabled":false,"rental_uris":{"android":"levelo://app?vid=f225fbfc-2eec-4a57-82f0-6edd42c66d04","ios":"levelo://app?vid=f225fbfc-2eec-4a57-82f0-6edd42c66d04"},"vehicle_type_id":"4","last_reported":1740769632,"current_range_meters":16000,"station_id":"ce4bhnh2rcd13ifvqgtg","pricing_plan_id":"cebpf4jnsgd1na2vs0mg"},