{"last_updated":1744661463,"ttl":60,"version":"2.2","data":{"bikes":[{"bike_id":"5112ec40-7765-4028-8ee8-e4987f57aebe","system_id":"levelo_inurba_marseille","lat":43.31363,"lon":5.38487,"is_reserved":false,"is_disabled":false,"rental_uris":{"android":"levelo://app?vid=5112ec40-7765-4028-8ee8-e4987f57aebe","ios":"levelo://app?vid=5112ec40-7765-4028-8ee8-e4987f57aebe"},"vehicle_type_id":"4","last_reported":1744661463,"current_range_meters":2800,"station_id":"ce4bgt92rcd13ifvqcf0","pricing_plan_id":"cebpf4jnsgd1na2vs0mg"},{"bike_id":"8e257129-2fc1-4b7e-9af0-0037d9dd9fc9","system_id":"levelo_inurba_marseille","lat":43.2899,"lon":5.37606,"is_reserved":false,"is_disabled":false,"rental_uris":{"android":"levelo://app?vid=8e257129-2fc1-4b7e-9af0-0037d9dd9fc9","ios":"levelo://app?vid=8e257129-2fc1-4b7e-9af0-0037d9dd9fc9"},"vehicle_type_id":"4","last_reported":1744661463,"current_range_meters":2800,"station_id":"","pricing_plan_id":"cebpf4jnsgd1na2vs0mg"},{"bike_id":"535109a7-a781-4c37-94a8-6aca03b19120","system_id":"levelo_inurba_marseille","lat":43.30664,"lon":5.40077,"is_reserved":false,"is_disabled":false,"rental_uris":{"android":"levelo://app?vid=535109a7-a781-4c37-94a8-6aca03b19120","ios":"levelo://app?vid=535109a7-a781-4c37-94a8-6aca03b19120"},"vehicle_type_id":"4","last_reported":1744661463,"current_range_meters":2800,"station_id":"ce4bh112rcd13ifvqda0","pricing_plan_id":"cebpf4jnsgd1na2vs0mg"},{"bike_id":"634874a3-5d2a-4495-95d5-86b2b8c21b4e","system_id":"levelo_inurba_marseille","lat":43.276703,"lon":5.388747,"is_reserved":false,"is_disabled":false,"rental_uris":{"android":"levelo://app?vid=634874a3-5d2a-4495-95d5-86b2b8c21b4e","ios":"levelo://app?vid=634874a3-5d2a-4495-95d5-86b2b8c21b4e"},"vehicle_type_id":"4","last_reported":1744661463,"current_range_meters":2800,"station_id":"ce4bhgh2rcd13ifvqfb0","pricing_plan_id":"cebpf4jnsgd1na2vs0mg"},{"bike_id":"944bddab-9f41-4da7-80e2-b3e803e6b9a5","system_id":"levelo_inurba_marseille","lat":43.21195,"lon":5.35071,"is_reserved":false,"is_disabled":false,"rental_uris":{"android":"levelo://app?vid=944bddab-9f41-4da7-80e2-b3e803e6b9a5","ios":"levelo://app?vid=944bddab-9f41-4da7-80e2-b3e803e6b9a5"},"vehicle_type_id":"4","last_reported":1744661463,"current_range_meters":2800,"station_id":"st_cvj6sg6p6f1abm77japg","pricing_plan_id":"cebpf4jnsgd1na2vs0mg"},{"bike_id":"e588d744-8ca3-4d0e-ade4-4409f4c7b9bd","system_id":"levelo_inurba_marseille","lat":43.34146,"lon":5.40902,"is_reserved":false,"is_disabled":false,"rental_uris":{"android":"levelo://app?vid=e588d744-8ca3-4d0e-ade4-4409f4c7b9bd","ios":"levelo://app?vid=e588d744-8ca3-4d0e-ade4-4409f4c7b9bd"},"vehicle_type_id":"4","last_reported":1744661463,"current_range_meters":2800,"station_id":"ce4bhqh2rcd13ifvqhlg","pricing_plan_id":"cebpf4jnsgd1na2vs0mg"},{"bike_id":"33c2ae9d-70c1-4a78-aa2d-f399064824ec","system_id":"levelo_inurba_marseille","lat":43.29259,"lon":5.40909,"is_reserved":false,"is_disabled":false,"rental_uris":{"android":"levelo://app?vid=33c2ae9d-70c1-4a78-aa2d-f399064824ec","ios":"levelo://app?vid=33c2ae9d-70c1-4a78-aa2d-f399064824ec"},"vehicle_type_id":"4","last_reported":1744661463,"current_range_meters":3200,"station_id":"ce4bh192rcd13ifvqdc0","pricing_plan_id":"cebpf4jnsgd1na2vs0mg"},{"bike_id":"bef5b350-2db9-4611-ba0a-40ff88db9d78","system_id":"levelo_inurba_marseille","lat":43.298154,"lon":5.38117,"is_reserved":false,"is_disabled":false,"rental_uris":{"android":"levelo://app?vid=bef5b350-2db9-4611-ba0a-40ff88db9d78","ios":"levelo://app?vid=bef5b350-2db9-4611-ba0a-40ff88db9d78"},"vehicle_type_id":"4","last_reported":1744661463,"current_range_meters":3200,"station_id":"ce4bgip2rcd13ifvqbb0","pricing_plan_id":"cebpf4jnsgd1na2vs0mg"},{"bike_id":"e914ccdb-80a0-4ea0-bc19-3385a95b7428","system_id":"levelo_inurba_marseille","lat":43.27663,"lon":5.389,"is_reserved":false,"is_disabled":true,"rental_uris":{"android":"levelo://app?vid=e914ccdb-80a0-4ea0-bc19-3385a95b7428","ios":"levelo://app?vid=e914ccdb-80a0-4ea0-bc19-3385a95b7428"},"vehicle_type_id":"4","last_reported":1744661463,"current_range_meters":3200,"station_id":"ce4bhi12rcd13ifvqfo0","pricing_plan_id":"cebpf4jnsgd1na2vs0mg"},{"bike_id":"48981f29-3bcb-416e-b2f0-7091b2fa2597","system_id":"levelo_inurba_marseille","lat":43.28156,"lon":5.42642,"is_reserved":false,"is_disabled":false,"rental_uris":{"android":"levelo://app?vid=48981f29-3bcb-416e-b2f0-7091b2fa2597","ios":"levelo://app?vid=48981f29-3bcb-416e-b2f0-7091b2fa2597"},"vehicle_type_id":"4","last_reported":1744661463,"current_range_meters":3200,"station_id":"ce4bhnh2rcd13ifvqgug","pricing_plan_id":"cebpf4jnsgd1na2vs0mg"},{"bike_id":"a8148b93-384c-4c6d-93ee-2ca37834395c","system_id":"levelo_inurba_marseille","lat":43.25611,"lon":5.38206,"is_reserved":false,"is_disabled":false,"rental_uris":{"android":"levelo://app?vid=a8148b93-384c-4c6d-93ee-2ca37834395c","ios":"levelo://app?vid=a8148b93-384c-4c6d-93ee-2ca37834395c"},"vehicle_type_id":"4","last_reported":1744661463,"current_range_meters":3600,"station_id":"ce4bhih2rcd13ifvqfs0","pricing_plan_id":"cebpf4jnsgd1na2vs0mg"},{"bike_id":"33ac4b06-6650-43dd-8223-418132dee349","system_id":"levelo_inurba_marseille","lat":43.298994,"lon":5.40058,"is_reserved":false,"is_disabled":false,"rental_uris":{"android":"levelo://app?vid=33ac4b06-6650-43dd-8223-418132dee349","ios":"levelo://app?vid=33ac4b06-6650-43dd-8223-418132dee349"},"vehicle_type_id":"4","last_reported":1744661463,"current_range_meters":3600,"station_id":"ce4bgvh2rcd13ifvqcs0","pricing_plan_id":"cebpf4jnsgd1na2vs0mg"},{"bike_id":"2fcac4f1-5e68-453d-8130-4fdfdc4171ae","system_id":"levelo_inurba_marseille","lat":43.28412,"lon":5.37514,"is_reserved":false,"is_disabled":false,"rental_uris":{"android":"levelo://app?vid=2fcac4f1-5e68-453d-8130-4fdfdc4171ae","ios":"levelo://app?vid=2fcac4f1-5e68-453d-8130-4fdfdc4171ae"},"vehicle_type_id":"4","last_reported":1744661463,"current_range_meters":3600,"station_id":"ce4bh412rcd13ifvqds0","pricing_plan_id":"cebpf4jnsgd1na2vs0mg"},{"bike_id":"6db93bc8-c7a5-430b-85c6-1725072957c9","system_id":"levelo_inurba_marseille","lat":43.3008,"lon":5.37743,"is_reserved":false,"is_disabled":false,"rental_uris":{"android":"levelo://app?vid=6db93bc8-c7a5-430b-85c6-1725072957c9","ios":"levelo://app?vid=6db93bc8-c7a5-430b-85c6-1725072957c9"},"vehicle_type_id":"4","last_reported":1744661463,"current_range_meters":3600,"station_id":"","pricing_plan_id":"cebpf4jnsgd1na2vs0mg"},{"bike_id":"128e37b1-0cb4-4b51-8779-c5fac30f906e","system_id":"levelo_inurba_marseille","lat":43.29542,"lon":5.39425,"is_reserved":false,"is_disabled":false,"rental_uris":{"android":"levelo://app?vid=128e37b1-0cb4-4b51-8779-c5fac30f906e","ios":"levelo://app?vid=128e37b1-0cb4-4b51-8779-c5fac30f906e"},"vehicle_type_id":"4","last_reported":1744661463,"current_range_meters":3600,"station_id":"ce4bh292rcd13ifvqdf0","pricing_plan_id":"cebpf4jnsgd1na2vs0mg"},{"bike_id":"caffca0f-4aa3-4aaf-a020-b7190befb739","system_id":"levelo_inurba_marseille","lat":43.30152,"lon":5.3878,"is_reserved":false,"is_disabled":true,"rental_uris":{"android":"levelo://app?vid=caffca0f-4aa3-4aaf-a020-b7190befb739","ios":"levelo://app?vid=caffca0f-4aa3-4aaf-a020-b7190befb739"},"vehicle_type_id":"4","last_reported":1744661463,"current_range_meters":4000,"station_id":"ce4bghh2rcd13ifvqb60","pricing_plan_id":"cebpf4jnsgd1na2vs0mg"},{"bike_id":"65435030-ae97-4569-9e9c-5b9c66528d23","system_id":"levelo_inurba_marseille","lat":43.30641,"lon":5.40095,"is_reserved":false,"is_disabled":false,"rental_uris":{"android":"levelo://app?vid=65435030-ae97-4569-9e9c-5b9c66528d23","ios":"levelo://app?vid=65435030-ae97-4569-9e9c-5b9c66528d23"},"vehicle_type_id":"4","last_reported":1744661463,"current_range_meters":4000,"station_id":"ce4bh112rcd13ifvqda0","pricing_plan_id":"cebpf4jnsgd1na2vs0mg"},{"bike_id":"ae8e1f29-85bc-4c3c-997b-fc33f33f029f","system_id":"levelo_inurba_marseille","lat":43.28465,"lon":5.35875,"is_reserved":false,"is_disabled":false,"rental_uris":{"android":"levelo://app?vid=ae8e1f29-85bc-4c3c-997b-fc33f33f029f","ios":"levelo://app?vid=ae8e1f29-85bc-4c3c-997b-fc33f33f029f"},"vehicle_type_id":"4","last_reported":1744661463,"current_range_meters":4000,"station_id":"ce4bhah2rcd13ifvqei0","pricing_plan_id":"cebpf4jnsgd1na2vs0mg"},{"bike_id":"c63ed2ec-8177-467b-8581-8cb5a65609fb","system_id":"levelo_inurba_marseille","lat":43.2438,"lon":5.37065,"is_reserved":false,"is_disabled":true,"rental_uris":{"android":"levelo://app?vid=c63ed2ec-8177-467b-8581-8cb5a65609fb","ios":"levelo://app?vid=c63ed2ec-8177-467b-8581-8cb5a65609fb"},"vehicle_type_id":"4","last_reported":1744661463,"current_range_meters":4000,"station_id":"ce4bhhh2rcd13ifvqfk0","pricing_plan_id":"cebpf4jnsgd1na2vs0mg"},{"bike_id":"c83810a8-e51a-4124-b3eb-ddba8eacd3a7","system_id":"levelo_inurba_marseille","lat":43.2407,"lon":5.3774,"is_reserved":false,"is_disabled":false,"rental_uris":{"android":"levelo://app?vid=c83810a8-e51a-4124-b3eb-ddba8eacd3a7","ios":"levelo://app?vid=c83810a8-e51a-4124-b3eb-ddba8eacd3a7"},"vehicle_type_id":"4","last_reported":1744661463,"current_range_meters":4000,"station_id":"ce4bhnp2rcd13ifvqgvg","pricing_plan_id":"cebpf4jnsgd1na2vs0mg"},{"bike_id":"bc0dbed4-38e8-49d1-b02f-880a0dc1855f","system_id":"levelo_inurba_marseille","lat":43.28085,"lon":5.39668,"is_reserved":false,"is_disabled":false,"rental_uris":{"android":"levelo://app?vid=bc0dbed4-38e8-49d1-b02f-880a0dc1855f","ios":"levelo://app?vid=bc0dbed4-38e8-49d1-b02f-880a0dc1855f"},"vehicle_type_id":"4","last_reported":1744661463,"current_range_meters":4000,"station_id":"ce4bho12rcd13ifvqh2g","pricing_plan_id":"cebpf4jnsgd1na2vs0mg"},{"bike_id":"a18545af-d41b-4480-b736-d163603d1337","system_id":"levelo_inurba_marseille","lat":43.242639,"lon":5.39696,"is_reserved":false,"is_disabled":false,"rental_uris":{"android":"levelo://app?vid=a18545af-d41b-4480-b736-d163603d1337","ios":"levelo://app?vid=a18545af-d41b-4480-b736-d163603d1337"},"vehicle_type_id":"4","last_reported":1744661463,"current_range_meters":4400,"station_id":"ce4bhhp2rcd13ifvqfm0","pricing_plan_id":"cebpf4jnsgd1na2vs0mg"},{"bike_id":"12cc3cd8-4838-42c2-9569-5dd38ca11e95","system_id":"levelo_inurba_marseille","lat":43.27676,"lon":5.38874,"is_reserved":false,"is_disabled":false,"rental_uris":{"android":"levelo://app?vid=12cc3cd8-4838-42c2-9569-5dd38ca11e95","ios":"levelo://app?vid=12cc3cd8-4838-42c2-9569-5dd38ca11e95"},"vehicle_type_id":"4","last_reported":1744661463,"current_range_meters":4400,"station_id":"ce4bhi12rcd13ifvqfo0","pricing_plan_id":"cebpf4jnsgd1na2vs0mg"},{"bike_id":"76450c2c-888f-4d08-a5c0-d825237615aa","system_id":"levelo_inurba_marseille","lat":43.27227,"lon":5.42302,"is_reserved":false,"is_disabled":false,"rental_uris":{"android":"levelo://app?vid=76450c2c-888f-4d08-a5c0-d825237615aa","ios":"levelo://app?vid=76450c2c-888f-4d08-a5c0-d825237615aa"},"vehicle_type_id":"4","last_reported":1744661463,"current_range_meters":4800,"station_id":"","pricing_plan_id":"cebpf4jnsgd1na2vs0mg"},{"bike_id":"509ab134-6120-4e27-96a8-d4c280f9dcae","system_id":"levelo_inurba_marseille","lat":43.2861,"lon":5.35103,"is_reserved":false,"is_disabled":false,"rental_uris":{"android":"levelo://app?vid=509ab134-6120-4e27-96a8-d4c280f9dcae","ios":"levelo://app?vid=509ab134-6120-4e27-96a8-d4c280f9dcae"},"vehicle_type_id":"4","last_reported":1744661463,"current_range_meters":4800,"station_id":"ce4bhch2rcd13ifvqeug","pricing_plan_id":"cebpf4jnsgd1na2vs0mg"},{"bike_id":"9972275d-008e-4230-842c-df84a8b282fc","system_id":"levelo_inurba_marseille","lat":43.33598,"lon":5.41034,"is_reserved":false,"is_disabled":false,"rental_uris":{"android":"levelo://app?vid=9972275d-008e-4230-842c-df84a8b282fc","ios":"levelo://app?vid=9972275d-008e-4230-842c-df84a8b282fc"},"vehicle_type_id":"4","last_reported":1744661463,"current_range_meters":4800,"station_id":"ce4bhqh2rcd13ifvqhmg","pricing_plan_id":"cebpf4jnsgd1na2vs0mg"},{"bike_id":"17637803-ed28-487c-b796-1f9bd7ef5a65","system_id":"levelo_inurba_marseille","lat":43.2306,"lon":5.35518,"is_reserved":false,"is_disabled":false,"rental_uris":{"android":"levelo://app?vid=17637803-ed28-487c-b796-1f9bd7ef5a65","ios":"levelo://app?vid=17637803-ed28-487c-b796-1f9bd7ef5a65"},"vehicle_type_id":"4","last_reported":1744661463,"current_range_meters":5600,"station_id":"cpo3342slgdg3j2ifvpg","pricing_plan_id":"cebpf4jnsgd1na2vs0mg"},{"bike_id":"35f45292-d288-4cff-9d86-2541934af03b","system_id":"levelo_inurba_marseille","lat":43.31117,"lon":5.37772,"is_reserved":false,"is_disabled":false,"rental_uris":{"android":"levelo://app?vid=35f45292-d288-4cff-9d86-2541934af03b","ios":"levelo://app?vid=35f45292-d288-4cff-9d86-2541934af03b"},"vehicle_type_id":"4","last_reported":1744661463,"current_range_meters":5600,"station_id":"ce4bgt92rcd13ifvqcg0","pricing_plan_id":"cebpf4jnsgd1na2vs0mg"},{"bike_id":"b3c67fd6-498d-468f-ab01-6c9732154dfa","system_id":"levelo_inurba_marseille","lat":43.27196,"lon":5.39169,"is_reserved":false,"is_disabled":false,"rental_uris":{"android":"levelo://app?vid=b3c67fd6-498d-468f-ab01-6c9732154dfa","ios":"levelo://app?vid=b3c67fd6-498d-468f-ab01-6c9732154dfa"},"vehicle_type_id":"4","last_reported":1744661463,"current_range_meters":5600,"station_id":"ce4bhhp2rcd13ifvqfm0","pricing_plan_id":"cebpf4jnsgd1na2vs0mg"},{"bike_id":"78e5e9fc-0fc5-41fa-a1b1-617b5e4db10c","system_id":"levelo_inurba_marseille","lat":43.21751,"lon":5.34591,"is_reserved":false,"is_disabled":false,"rental_uris":{"android":"levelo://app?vid=78e5e9fc-0fc5-41fa-a1b1-617b5e4db10c","ios":"levelo://app?vid=78e5e9fc-0fc5-41fa-a1b1-617b5e4db10c"},"vehicle_type_id":"4","last_reported":1744661463,"current_range_meters":5600,"station_id":"st_cvj6r9ubvosntc0bgbag","pricing_plan_id":"cebpf4jnsgd1na2vs0mg"},{"bike_id":"2acf4c65-abd7-4a99-a435-635e0b9d0ff0","system_id":"levelo_inurba_marseille","lat":43.27048,"lon":5.40267,"is_reserved":false,"is_disabled":false,"rental_uris":{"android":"levelo://app?vid=2acf4c65-abd7-4a99-a435-635e0b9d0ff0","ios":"levelo://app?vid=2acf4c65-abd7-4a99-a435-635e0b9d0ff0"},"vehicle_type_id":"4","last_reported":1744661463,"current_range_meters":6000,"station_id":"ce4bhk92rcd13ifvqgc0","pricing_plan_id":"cebpf4jnsgd1na2vs0mg"},{"bike_id":"7ba3577b-f14a-47b3-8ecb-35158daf49ef","system_id":"levelo_inurba_marseille","lat":43.30048,"lon":5.39861,"is_reserved":false,"is_disabled":false,"rental_uris":{"android":"levelo://app?vid=7ba3577b-f14a-47b3-8ecb-35158daf49ef","ios":"levelo://app?vid=7ba3577b-f14a-47b3-8ecb-35158daf49ef"},"vehicle_type_id":"4","last_reported":1744661463,"current_range_meters":6000,"station_id":"","pricing_plan_id":"cebpf4jnsgd1na2vs0mg"},{"bike_id":"f6151468-df2d-459f-ab57-449c0333cf42","system_id":"levelo_inurba_marseille","lat":43.24662,"lon":5.38163,"is_reserved":false,"is_disabled":false,"rental_uris":{"android":"levelo://app?vid=f6151468-df2d-459f-ab57-449c0333cf42","ios":"levelo://app?vid=f6151468-df2d-459f-ab57-449c0333cf42"},"vehicle_type_id":"4","last_reported":1744661463,"current_range_meters":6000,"station_id":"ce4bhih2rcd13ifvqfr0","pricing_plan_id":"cebpf4jnsgd1na2vs0mg"},{"bike_id":"2f7c83e8-c28e-49f8-9393-775130069462","system_id":"levelo_inurba_marseille","lat":43.27215,"lon":5.39206,"is_reserved":false,"is_disabled":true,"rental_uris":{"android":"levelo://app?vid=2f7c83e8-c28e-49f8-9393-775130069462","ios":"levelo://app?vid=2f7c83e8-c28e-49f8-9393-775130069462"},"vehicle_type_id":"4","last_reported":1744661463,"current_range_meters":6400,"station_id":"ce4bhhp2rcd13ifvqfm0","pricing_plan_id":"cebpf4jnsgd1na2vs0mg"},{"bike_id":"62071601-6207-470a-80a8-aecb07300239","system_id":"levelo_inurba_marseille","lat":43.27667,"lon":5.38881,"is_reserved":false,"is_disabled":false,"rental_uris":{"android":"levelo://app?vid=62071601-6207-470a-80a8-aecb07300239","ios":"levelo://app?vid=62071601-6207-470a-80a8-aecb07300239"},"vehicle_type_id":"4","last_reported":1744661463,"current_range_meters":6400,"station_id":"ce4bhi12rcd13ifvqfo0","pricing_plan_id":"cebpf4jnsgd1na2vs0mg"},{"bike_id":"b55dd5e7-54b2-4035-b945-7b626dd7afc7","system_id":"levelo_inurba_marseille","lat":43.27983,"lon":5.40559,"is_reserved":false,"is_disabled":false,"rental_uris":{"android":"levelo://app?vid=b55dd5e7-54b2-4035-b945-7b626dd7afc7","ios":"levelo://app?vid=b55dd5e7-54b2-4035-b945-7b626dd7afc7"},"vehicle_type_id":"4","last_reported":1744661463,"current_range_meters":6400,"station_id":"","pricing_plan_id":"cebpf4jnsgd1na2vs0mg"},{"bike_id":"515271b0-9b96-43f1-9b62-f663213b7c02","system_id":"levelo_inurba_marseille","lat":43.29032,"lon":5.35694,"is_reserved":false,"is_disabled":false,"rental_uris":{"android":"levelo://app?vid=515271b0-9b96-43f1-9b62-f663213b7c02","ios":"levelo://app?vid=515271b0-9b96-43f1-9b62-f663213b7c02"},"vehicle_type_id":"4","last_reported":1744661463,"current_range_meters":6400,"station_id":"","pricing_plan_id":"cebpf4jnsgd1na2vs0mg"},{"bike_id":"58760ace-ce77-41d1-8fff-13adfe6644fd","system_id":"levelo_inurba_marseille","lat":43.25587,"lon":5.38263,"is_reserved":false,"is_disabled":false,"rental_uris":{"android":"levelo://app?vid=58760ace-ce77-41d1-8fff-13adfe6644fd","ios":"levelo://app?vid=58760ace-ce77-41d1-8fff-13adfe6644fd"},"vehicle_type_id":"4","last_reported":1744661463,"current_range_meters":6400,"station_id":"ce4bhih2rcd13ifvqfs0","pricing_plan_id":"cebpf4jnsgd1na2vs0mg"},{"bike_id":"a0ef96bc-b7e9-4975-baa1-3028a1c6df19","system_id":"levelo_inurba_marseille","lat":43.31117,"lon":5.37762,"is_reserved":false,"is_disabled":false,"rental_uris":{"android":"levelo://app?vid=a0ef96bc-b7e9-4975-baa1-3028a1c6df19","ios":"levelo://app?vid=a0ef96bc-b7e9-4975-baa1-3028a1c6df19"},"vehicle_type_id":"4","last_reported":1744661463,"current_range_meters":6800,"station_id":"ce4bgt92rcd13ifvqcg0","pricing_plan_id":"cebpf4jnsgd1na2vs0mg"},{"bike_id":"dece098d-46f0-44e4-9761-730c7524e769","system_id":"levelo_inurba_marseille","lat":43.30213,"lon":5.39475,"is_reserved":false,"is_disabled":false,"rental_uris":{"android":"levelo://app?vid=dece098d-46f0-44e4-9761-730c7524e769","ios":"levelo://app?vid=dece098d-46f0-44e4-9761-730c7524e769"},"vehicle_type_id":"4","last_reported":1744661463,"current_range_meters":6800,"station_id":"ce4bh0p2rcd13ifvqd70","pricing_plan_id":"cebpf4jnsgd1na2vs0mg"},{"bike_id":"96a94ade-6c36-45c3-b9f3-3c3a0426b20d","system_id":"levelo_inurba_marseille","lat":43.28614,"lon":5.35107,"is_reserved":false,"is_disabled":false,"rental_uris":{"android":"levelo://app?vid=96a94ade-6c36-45c3-b9f3-3c3a0426b20d","ios":"levelo://app?vid=96a94ade-6c36-45c3-b9f3-3c3a0426b20d"},"vehicle_type_id":"4","last_reported":1744661463,"current_range_meters":6800,"station_id":"ce4bhch2rcd13ifvqeug","pricing_plan_id":"cebpf4jnsgd1na2vs0mg"},{"bike_id":"ffd9a623-0631-4899-8f41-7f2e09483ce4","system_id":"levelo_inurba_marseille","lat":43.28437,"lon":5.35905,"is_reserved":false,"is_disabled":false,"rental_uris":{"android":"levelo://app?vid=ffd9a623-0631-4899-8f41-7f2e09483ce4","ios":"levelo://app?vid=ffd9a623-0631-4899-8f41-7f2e09483ce4"},"vehicle_type_id":"4","last_reported":1744661463,"current_range_meters":6800,"station_id":"ce4bhah2rcd13ifvqei0","pricing_plan_id":"cebpf4jnsgd1na2vs0mg"},{"bike_id":"1db06f83-e2df-4c88-abff-fe3fd63cf02f","system_id":"levelo_inurba_marseille","lat":43.24551,"lon":5.39529,"is_reserved":false,"is_disabled":false,"rental_uris":{"android":"levelo://app?vid=1db06f83-e2df-4c88-abff-fe3fd63cf02f","ios":"levelo://app?vid=1db06f83-e2df-4c88-abff-fe3fd63cf02f"},"vehicle_type_id":"4","last_reported":1744661463,"current_range_meters":6800,"station_id":"ce4bhlp2rcd13ifvqgjg","pricing_plan_id":"cebpf4jnsgd1na2vs0mg"},{"bike_id":"67d41231-155d-4bf7-bd1f-7aad355fd70a","system_id":"levelo_inurba_marseille","lat":43.30606,"lon":5.37241,"is_reserved":false,"is_disabled":false,"rental_uris":{"android":"levelo://app?vid=67d41231-155d-4bf7-bd1f-7aad355fd70a","ios":"levelo://app?vid=67d41231-155d-4bf7-bd1f-7aad355fd70a"},"vehicle_type_id":"4","last_reported":1744661463,"current_range_meters":6800,"station_id":"ce4bgqh2rcd13ifvqc4g","pricing_plan_id":"cebpf4jnsgd1na2vs0mg"},{"bike_id":"cdefaf23-b564-4f66-ad44-d79e40a15561","system_id":"levelo_inurba_marseille","lat":43.30428,"lon":5.41265,"is_reserved":false,"is_disabled":true,"rental_uris":{"android":"levelo://app?vid=cdefaf23-b564-4f66-ad44-d79e40a15561","ios":"levelo://app?vid=cdefaf23-b564-4f66-ad44-d79e40a15561"},"vehicle_type_id":"4","last_reported":1744661463,"current_range_meters":6800,"station_id":"ce4bhop2rcd13ifvqh8g","pricing_plan_id":"cebpf4jnsgd1na2vs0mg"},{"bike_id":"abe3eae6-df1f-40ae-ad65-1d564617eebe","system_id":"levelo_inurba_marseille","lat":43.29098,"lon":5.38128,"is_reserved":false,"is_disabled":false,"rental_uris":{"android":"levelo://app?vid=abe3eae6-df1f-40ae-ad65-1d564617eebe","ios":"levelo://app?vid=abe3eae6-df1f-40ae-ad65-1d564617eebe"},"vehicle_type_id":"4","last_reported":1744661463,"current_range_meters":6800,"station_id":"ce4bh512rcd13ifvqe2g","pricing_plan_id":"cebpf4jnsgd1na2vs0mg"},{"bike_id":"d89b1bb6-d84b-47ce-8634-edd267b6adbf","system_id":"levelo_inurba_marseille","lat":43.295096,"lon":5.394079,"is_reserved":false,"is_disabled":false,"rental_uris":{"android":"levelo://app?vid=d89b1bb6-d84b-47ce-8634-edd267b6adbf","ios":"levelo://app?vid=d89b1bb6-d84b-47ce-8634-edd267b6adbf"},"vehicle_type_id":"4","last_reported":1744661463,"current_range_meters":6800,"station_id":"ce4bh292rcd13ifvqdf0","pricing_plan_id":"cebpf4jnsgd1na2vs0mg"},{"bike_id":"e164f831-c423-4a4c-ab46-aaa381e5dd7d","system_id":"levelo_inurba_marseille","lat":43.31101,"lon":5.37772,"is_reserved":false,"is_disabled":false,"rental_uris":{"android":"levelo://app?vid=e164f831-c423-4a4c-ab46-aaa381e5dd7d","ios":"levelo://app?vid=e164f831-c423-4a4c-ab46-aaa381e5dd7d"},"vehicle_type_id":"4","last_reported":1744661463,"current_range_meters":7200,"station_id":"ce4bgt92rcd13ifvqcg0","pricing_plan_id":"cebpf4jnsgd1na2vs0mg"},{"bike_id":"101df704-d3a4-4744-b23d-f516d37358f2","system_id":"levelo_inurba_marseille","lat":43.24156,"lon":5.39702,"is_reserved":false,"is_disabled":false,"rental_uris":{"android":"levelo://app?vid=101df704-d3a4-4744-b23d-f516d37358f2","ios":"levelo://app?vid=101df704-d3a4-4744-b23d-f516d37358f2"},"vehicle_type_id":"4","last_reported":1744661463,"current_range_meters":8000,"station_id":"ce4bhn12rcd13ifvqgpg","pricing_plan_id":"cebpf4jnsgd1na2vs0mg"},{"bike_id":"bc1e941d-5514-4193-a637-cfb6de114bfa","system_id":"levelo_inurba_marseille","lat":43.25622,"lon":5.38207,"is_reserved":false,"is_disabled":false,"rental_uris":{"android":"levelo://app?vid=bc1e941d-5514-4193-a637-cfb6de114bfa","ios":"levelo://app?vid=bc1e941d-5514-4193-a637-cfb6de114bfa"},"vehicle_type_id":"4","last_reported":1744661463,"current_range_meters":8000,"station_id":"","pricing_plan_id":"cebpf4jnsgd1na2vs0mg"},{"bike_id":"10b67fc8-d7f4-4ca4-8342-e9ded53bf972","system_id":"levelo_inurba_marseille","lat":43.30083,"lon":5.39059,"is_reserved":false,"is_disabled":false,"rental_uris":{"android":"levelo://app?vid=10b67fc8-d7f4-4ca4-8342-e9ded53bf972","ios":"levelo://app?vid=10b67fc8-d7f4-4ca4-8342-e9ded53bf972"},"vehicle_type_id":"4","last_reported":1744661463,"current_range_meters":8000,"station_id":"ce4bh192rcd13ifvqdb0","pricing_plan_id":"cebpf4jnsgd1na2vs0mg"},{"bike_id":"e69cab50-793c-43ab-92b8-25b879325996","system_id":"levelo_inurba_marseille","lat":43.30606,"lon":5.37231,"is_reserved":false,"is_disabled":false,"rental_uris":{"android":"levelo://app?vid=e69cab50-793c-43ab-92b8-25b879325996","ios":"levelo://app?vid=e69cab50-793c-43ab-92b8-25b879325996"},"vehicle_type_id":"4","last_reported":1744661463,"current_range_meters":8000,"station_id":"ce4bgqh2rcd13ifvqc4g","pricing_plan_id":"cebpf4jnsgd1na2vs0mg"},{"bike_id":"ea57a632-faf4-41db-ad02-90c8174c7665","system_id":"levelo_inurba_marseille","lat":43.28264,"lon":5.3506,"is_reserved":false,"is_disabled":false,"rental_uris":{"android":"levelo://app?vid=ea57a632-faf4-41db-ad02-90c8174c7665","ios":"levelo://app?vid=ea57a632-faf4-41db-ad02-90c8174c7665"},"vehicle_type_id":"4","last_reported":1744661463,"current_range_meters":8400,"station_id":"ce4bhbp2rcd13ifvqerg","pricing_plan_id":"cebpf4jnsgd1na2vs0mg"},{"bike_id":"23513b38-7714-49c7-8754-f378019e100d","system_id":"levelo_inurba_marseille","lat":43.29889,"lon":5.39736,"is_reserved":false,"is_disabled":false,"rental_uris":{"android":"levelo://app?vid=23513b38-7714-49c7-8754-f378019e100d","ios":"levelo://app?vid=23513b38-7714-49c7-8754-f378019e100d"},"vehicle_type_id":"4","last_reported":1744661463,"current_range_meters":8400,"station_id":"ce4bh0h2rcd13ifvqd50","pricing_plan_id":"cebpf4jnsgd1na2vs0mg"},{"bike_id":"6de28620-3f24-4504-bdec-b37ca0847ae6","system_id":"levelo_inurba_marseille","lat":43.29886,"lon":5.38902,"is_reserved":false,"is_disabled":false,"rental_uris":{"android":"levelo://app?vid=6de28620-3f24-4504-bdec-b37ca0847ae6","ios":"levelo://app?vid=6de28620-3f24-4504-bdec-b37ca0847ae6"},"vehicle_type_id":"4","last_reported":1744661463,"current_range_meters":8400,"station_id":"ce4bh392rcd13ifvqdl0","pricing_plan_id":"cebpf4jnsgd1na2vs0mg"},{"bike_id":"19a89524-a9e5-411c-9a2d-95c0f553dcf9","system_id":"levelo_inurba_marseille","lat":43.31938,"lon":5.38123,"is_reserved":false,"is_disabled":false,"rental_uris":{"android":"levelo://app?vid=19a89524-a9e5-411c-9a2d-95c0f553dcf9","ios":"levelo://app?vid=19a89524-a9e5-411c-9a2d-95c0f553dcf9"},"vehicle_type_id":"4","last_reported":1744661463,"current_range_meters":8400,"station_id":"","pricing_plan_id":"cebpf4jnsgd1na2vs0mg"},{"bike_id":"0a7cab43-9343-46f0-9a4d-34c8fb861430","system_id":"levelo_inurba_marseille","lat":43.29173,"lon":5.40012,"is_reserved":false,"is_disabled":false,"rental_uris":{"android":"levelo://app?vid=0a7cab43-9343-46f0-9a4d-34c8fb861430","ios":"levelo://app?vid=0a7cab43-9343-46f0-9a4d-34c8fb861430"},"vehicle_type_id":"4","last_reported":1744661463,"current_range_meters":8400,"station_id":"","pricing_plan_id":"cebpf4jnsgd1na2vs0mg"},{"bike_id":"2adaa2cb-c0d5-4f18-b8a6-1467f9548961","system_id":"levelo_inurba_marseille","lat":43.29582,"lon":5.38098,"is_reserved":false,"is_disabled":false,"rental_uris":{"android":"levelo://app?vid=2adaa2cb-c0d5-4f18-b8a6-1467f9548961","ios":"levelo://app?vid=2adaa2cb-c0d5-4f18-b8a6-1467f9548961"},"vehicle_type_id":"4","last_reported":1744661463,"current_range_meters":8400,"station_id":"ce4bgl12rcd13ifvqbo0","pricing_plan_id":"cebpf4jnsgd1na2vs0mg"},{"bike_id":"8d24a072-21ed-41cd-b0aa-05b3f1373b74","system_id":"levelo_inurba_marseille","lat":43.31068,"lon":5.38349,"is_reserved":false,"is_disabled":true,"rental_uris":{"android":"levelo://app?vid=8d24a072-21ed-41cd-b0aa-05b3f1373b74","ios":"levelo://app?vid=8d24a072-21ed-41cd-b0aa-05b3f1373b74"},"vehicle_type_id":"4","last_reported":1744661463,"current_range_meters":8800,"station_id":"ce4bgv92rcd13ifvqcr0","pricing_plan_id":"cebpf4jnsgd1na2vs0mg"},{"bike_id":"fc60c0c3-5ecb-4fd2-b815-75e503fb234e","system_id":"levelo_inurba_marseille","lat":43.24069,"lon":5.37732,"is_reserved":false,"is_disabled":false,"rental_uris":{"android":"levelo://app?vid=fc60c0c3-5ecb-4fd2-b815-75e503fb234e","ios":"levelo://app?vid=fc60c0c3-5ecb-4fd2-b815-75e503fb234e"},"vehicle_type_id":"4","last_reported":1744661463,"current_range_meters":8800,"station_id":"ce4bhnp2rcd13ifvqgvg","pricing_plan_id":"cebpf4jnsgd1na2vs0mg"},{"bike_id":"e1cfb2db-9308-45d0-913f-899415789267","system_id":"levelo_inurba_marseille","lat":43.2584,"lon":5.39431,"is_reserved":false,"is_disabled":false,"rental_uris":{"android":"levelo://app?vid=e1cfb2db-9308-45d0-913f-899415789267","ios":"levelo://app?vid=e1cfb2db-9308-45d0-913f-899415789267"},"vehicle_type_id":"4","last_reported":1744661463,"current_range_meters":8800,"station_id":"ce4bhip2rcd13ifvqft0","pricing_plan_id":"cebpf4jnsgd1na2vs0mg"},{"bike_id":"e8f703a1-eb3b-45ed-827d-ca43a8842bf7","system_id":"levelo_inurba_marseille","lat":43.29992,"lon":5.38504,"is_reserved":false,"is_disabled":true,"rental_uris":{"android":"levelo://app?vid=e8f703a1-eb3b-45ed-827d-ca43a8842bf7","ios":"levelo://app?vid=e8f703a1-eb3b-45ed-827d-ca43a8842bf7"},"vehicle_type_id":"4","last_reported":1744661463,"current_range_meters":8800,"station_id":"ce4bgj92rcd13ifvqbd0","pricing_plan_id":"cebpf4jnsgd1na2vs0mg"},{"bike_id":"52467ef2-bb23-4d5a-aebd-2782338dc161","system_id":"levelo_inurba_marseille","lat":43.21187,"lon":5.35071,"is_reserved":false,"is_disabled":false,"rental_uris":{"android":"levelo://app?vid=52467ef2-bb23-4d5a-aebd-2782338dc161","ios":"levelo://app?vid=52467ef2-bb23-4d5a-aebd-2782338dc161"},"vehicle_type_id":"4","last_reported":1744661463,"current_range_meters":8800,"station_id":"st_cvj6sg6p6f1abm77japg","pricing_plan_id":"cebpf4jnsgd1na2vs0mg"},{"bike_id":"729563a6-41a3-4ff3-a068-44e58651bb98","system_id":"levelo_inurba_marseille","lat":43.25879,"lon":5.39893,"is_reserved":false,"is_disabled":false,"rental_uris":{"android":"levelo://app?vid=729563a6-41a3-4ff3-a068-44e58651bb98","ios":"levelo://app?vid=729563a6-41a3-4ff3-a068-44e58651bb98"},"vehicle_type_id":"4","last_reported":1744661463,"current_range_meters":8800,"station_id":"ce4bhl92rcd13ifvqghg","pricing_plan_id":"cebpf4jnsgd1na2vs0mg"},{"bike_id":"e5fec748-d40e-4920-9754-2970802f80fb","system_id":"levelo_inurba_marseille","lat":43.30322,"lon":5.40441,"is_reserved":false,"is_disabled":false,"rental_uris":{"android":"levelo://app?vid=e5fec748-d40e-4920-9754-2970802f80fb","ios":"levelo://app?vid=e5fec748-d40e-4920-9754-2970802f80fb"},"vehicle_type_id":"4","last_reported":1744661463,"current_range_meters":8800,"station_id":"ce4bh012rcd13ifvqd10","pricing_plan_id":"cebpf4jnsgd1na2vs0mg"},{"bike_id":"de4d2c31-9d8b-4909-9a3d-40678fb63656","system_id":"levelo_inurba_marseille","lat":43.28492,"lon":5.38541,"is_reserved":false,"is_disabled":false,"rental_uris":{"android":"levelo://app?vid=de4d2c31-9d8b-4909-9a3d-40678fb63656","ios":"levelo://app?vid=de4d2c31-9d8b-4909-9a3d-40678fb63656"},"vehicle_type_id":"4","last_reported":1744661463,"current_range_meters":9200,"station_id":"ce4bh8p2rcd13ifvqeb0","pricing_plan_id":"cebpf4jnsgd1na2vs0mg"},{"bike_id":"c3a32f8a-9407-4ddd-9e73-bccb9215daad","system_id":"levelo_inurba_marseille","lat":43.28946,"lon":5.3663,"is_reserved":false,"is_disabled":false,"rental_uris":{"android":"levelo://app?vid=c3a32f8a-9407-4ddd-9e73-bccb9215daad","ios":"levelo://app?vid=c3a32f8a-9407-4ddd-9e73-bccb9215daad"},"vehicle_type_id":"4","last_reported":1744661463,"current_range_meters":9200,"station_id":"ce4bhap2rcd13ifvqek0","pricing_plan_id":"cebpf4jnsgd1na2vs0mg"},{"bike_id":"b62d1434-c42b-4d2d-977d-d90a2291da9b","system_id":"levelo_inurba_marseille","lat":43.26919,"lon":5.40277,"is_reserved":false,"is_disabled":true,"rental_uris":{"android":"levelo://app?vid=b62d1434-c42b-4d2d-977d-d90a2291da9b","ios":"levelo://app?vid=b62d1434-c42b-4d2d-977d-d90a2291da9b"},"vehicle_type_id":"4","last_reported":1744661463,"current_range_meters":9200,"station_id":"cjm6bp8fraef2m0cb0m0","pricing_plan_id":"cebpf4jnsgd1na2vs0mg"},{"bike_id":"d373ed4c-aba0-4974-b8ad-53c5cbe85936","system_id":"levelo_inurba_marseille","lat":43.29461,"lon":5.3975,"is_reserved":false,"is_disabled":true,"rental_uris":{"android":"levelo://app?vid=d373ed4c-aba0-4974-b8ad-53c5cbe85936","ios":"levelo://app?vid=d373ed4c-aba0-4974-b8ad-53c5cbe85936"},"vehicle_type_id":"4","last_reported":1744661463,"current_range_meters":9200,"station_id":"ce4bh3h2rcd13ifvqdo0","pricing_plan_id":"cebpf4jnsgd1na2vs0mg"},{"bike_id":"52e35b17-d133-46bf-93c3-c186aae4771e","system_id":"levelo_inurba_marseille","lat":43.29415,"lon":5.3863,"is_reserved":false,"is_disabled":false,"rental_uris":{"android":"levelo://app?vid=52e35b17-d133-46bf-93c3-c186aae4771e","ios":"levelo://app?vid=52e35b17-d133-46bf-93c3-c186aae4771e"},"vehicle_type_id":"4","last_reported":1744661463,"current_range_meters":9200,"station_id":"ce4bh2h2rcd13ifvqdh0","pricing_plan_id":"cebpf4jnsgd1na2vs0mg"},{"bike_id":"4c6a994b-1f66-4f75-b0a4-f098669fe83f","system_id":"levelo_inurba_marseille","lat":43.3088,"lon":5.39639,"is_reserved":false,"is_disabled":false,"rental_uris":{"android":"levelo://app?vid=4c6a994b-1f66-4f75-b0a4-f098669fe83f","ios":"levelo://app?vid=4c6a994b-1f66-4f75-b0a4-f098669fe83f"},"vehicle_type_id":"4","last_reported":1744661463,"current_range_meters":9600,"station_id":"ce4bh012rcd13ifvqcv0","pricing_plan_id":"cebpf4jnsgd1na2vs0mg"},{"bike_id":"b4a19ddd-ec2c-4178-96c7-9e5bf749190e","system_id":"levelo_inurba_marseille","lat":43.29895,"lon":5.43658,"is_reserved":false,"is_disabled":false,"rental_uris":{"android":"levelo://app?vid=b4a19ddd-ec2c-4178-96c7-9e5bf749190e","ios":"levelo://app?vid=b4a19ddd-ec2c-4178-96c7-9e5bf749190e"},"vehicle_type_id":"4","last_reported":1744661463,"current_range_meters":9600,"station_id":"ce4bhpp2rcd13ifvqhfg","pricing_plan_id":"cebpf4jnsgd1na2vs0mg"},{"bike_id":"31d640de-ded1-4a23-82fc-8080e8c65b5f","system_id":"levelo_inurba_marseille","lat":43.290504,"lon":5.378121,"is_reserved":false,"is_disabled":false,"rental_uris":{"android":"levelo://app?vid=31d640de-ded1-4a23-82fc-8080e8c65b5f","ios":"levelo://app?vid=31d640de-ded1-4a23-82fc-8080e8c65b5f"},"vehicle_type_id":"4","last_reported":1744661463,"current_range_meters":9600,"station_id":"ce4bhap2rcd13ifvqek0","pricing_plan_id":"cebpf4jnsgd1na2vs0mg"},{"bike_id":"ef734429-5e24-498b-98db-95ee16873a56","system_id":"levelo_inurba_marseille","lat":43.27078,"lon":5.42275,"is_reserved":false,"is_disabled":false,"rental_uris":{"android":"levelo://app?vid=ef734429-5e24-498b-98db-95ee16873a56","ios":"levelo://app?vid=ef734429-5e24-498b-98db-95ee16873a56"},"vehicle_type_id":"4","last_reported":1744661463,"current_range_meters":9600,"station_id":"ce4bhk92rcd13ifvqgb0","pricing_plan_id":"cebpf4jnsgd1na2vs0mg"},{"bike_id":"8a58a04e-f069-487b-905a-c2f308a407cd","system_id":"levelo_inurba_marseille","lat":43.33041,"lon":5.39051,"is_reserved":false,"is_disabled":false,"rental_uris":{"android":"levelo://app?vid=8a58a04e-f069-487b-905a-c2f308a407cd","ios":"levelo://app?vid=8a58a04e-f069-487b-905a-c2f308a407cd"},"vehicle_type_id":"4","last_reported":1744661463,"current_range_meters":9600,"station_id":"ce4bhr92rcd13ifvqhrg","pricing_plan_id":"cebpf4jnsgd1na2vs0mg"},{"bike_id":"35652074-a189-4dda-9948-248bda899afb","system_id":"levelo_inurba_marseille","lat":43.29597,"lon":5.38102,"is_reserved":false,"is_disabled":false,"rental_uris":{"android":"levelo://app?vid=35652074-a189-4dda-9948-248bda899afb","ios":"levelo://app?vid=35652074-a189-4dda-9948-248bda899afb"},"vehicle_type_id":"4","last_reported":1744661463,"current_range_meters":9600,"station_id":"ce4bgl12rcd13ifvqbo0","pricing_plan_id":"cebpf4jnsgd1na2vs0mg"},{"bike_id":"a805b716-d3f2-41f8-8ac2-43d02ff2936a","system_id":"levelo_inurba_marseille","lat":43.28328,"lon":5.38102,"is_reserved":false,"is_disabled":false,"rental_uris":{"android":"levelo://app?vid=a805b716-d3f2-41f8-8ac2-43d02ff2936a","ios":"levelo://app?vid=a805b716-d3f2-41f8-8ac2-43d02ff2936a"},"vehicle_type_id":"4","last_reported":1744661463,"current_range_meters":9600,"station_id":"ce4bh412rcd13ifvqdr0","pricing_plan_id":"cebpf4jnsgd1na2vs0mg"},{"bike_id":"000cce46-0aba-4c03-8967-d18cf441ccd3","system_id":"levelo_inurba_marseille","lat":43.30322,"lon":5.4045,"is_reserved":false,"is_disabled":false,"rental_uris":{"android":"levelo://app?vid=000cce46-0aba-4c03-8967-d18cf441ccd3","ios":"levelo://app?vid=000cce46-0aba-4c03-8967-d18cf441ccd3"},"vehicle_type_id":"4","last_reported":1744661463,"current_range_meters":9600,"station_id":"ce4bh012rcd13ifvqd10","pricing_plan_id":"cebpf4jnsgd1na2vs0mg"},{"bike_id":"590cc22c-861b-469b-a6e9-93f3a3a9dcd5","system_id":"levelo_inurba_marseille","lat":43.28698,"lon":5.39984,"is_reserved":false,"is_disabled":false,"rental_uris":{"android":"levelo://app?vid=590cc22c-861b-469b-a6e9-93f3a3a9dcd5","ios":"levelo://app?vid=590cc22c-861b-469b-a6e9-93f3a3a9dcd5"},"vehicle_type_id":"4","last_reported":1744661463,"current_range_meters":9600,"station_id":"ce4bho92rcd13ifvqh3g","pricing_plan_id":"cebpf4jnsgd1na2vs0mg"},{"bike_id":"fe1a207e-0368-4df6-8e3d-aa5766bd2a70","system_id":"levelo_inurba_marseille","lat":43.27908,"lon":5.39576,"is_reserved":false,"is_disabled":false,"rental_uris":{"android":"levelo://app?vid=fe1a207e-0368-4df6-8e3d-aa5766bd2a70","ios":"levelo://app?vid=fe1a207e-0368-4df6-8e3d-aa5766bd2a70"},"vehicle_type_id":"4","last_reported":1744661463,"current_range_meters":10000,"station_id":"ce4bhf92rcd13ifvqf40","pricing_plan_id":"cebpf4jnsgd1na2vs0mg"},{"bike_id":"8f2adbcd-b044-4ad0-b1eb-0aa42ca31983","system_id":"levelo_inurba_marseille","lat":43.31063,"lon":5.38354,"is_reserved":false,"is_disabled":false,"rental_uris":{"android":"levelo://app?vid=8f2adbcd-b044-4ad0-b1eb-0aa42ca31983","ios":"levelo://app?vid=8f2adbcd-b044-4ad0-b1eb-0aa42ca31983"},"vehicle_type_id":"4","last_reported":1744661463,"current_range_meters":10000,"station_id":"ce4bgv92rcd13ifvqcr0","pricing_plan_id":"cebpf4jnsgd1na2vs0mg"},{"bike_id":"f4d0523c-f7eb-4944-bb84-72a1dacaa200","system_id":"levelo_inurba_marseille","lat":43.27913,"lon":5.39587,"is_reserved":false,"is_disabled":false,"rental_uris":{"android":"levelo://app?vid=f4d0523c-f7eb-4944-bb84-72a1dacaa200","ios":"levelo://app?vid=f4d0523c-f7eb-4944-bb84-72a1dacaa200"},"vehicle_type_id":"4","last_reported":1744661463,"current_range_meters":10000,"station_id":"ce4bhf92rcd13ifvqf40","pricing_plan_id":"cebpf4jnsgd1na2vs0mg"},{"bike_id":"1fc91b51-0f1a-4fb4-b89e-5f446dbc5368","system_id":"levelo_inurba_marseille","lat":43.26577,"lon":5.39019,"is_reserved":false,"is_disabled":false,"rental_uris":{"android":"levelo://app?vid=1fc91b51-0f1a-4fb4-b89e-5f446dbc5368","ios":"levelo://app?vid=1fc91b51-0f1a-4fb4-b89e-5f446dbc5368"},"vehicle_type_id":"4","last_reported":1744661463,"current_range_meters":10800,"station_id":"ce4bhe12rcd13ifvqf30","pricing_plan_id":"cebpf4jnsgd1na2vs0mg"},{"bike_id":"16a2b383-68c4-40a9-8f59-77dc12518cf4","system_id":"levelo_inurba_marseille","lat":43.28717,"lon":5.37399,"is_reserved":false,"is_disabled":false,"rental_uris":{"android":"levelo://app?vid=16a2b383-68c4-40a9-8f59-77dc12518cf4","ios":"levelo://app?vid=16a2b383-68c4-40a9-8f59-77dc12518cf4"},"vehicle_type_id":"4","last_reported":1744661463,"current_range_meters":10800,"station_id":"ce4bh3p2rcd13ifvqdq0","pricing_plan_id":"cebpf4jnsgd1na2vs0mg"},{"bike_id":"b05bd043-0b85-49a7-8d07-2a52a4392edb","system_id":"levelo_inurba_marseille","lat":43.27173,"lon":5.40999,"is_reserved":false,"is_disabled":false,"rental_uris":{"android":"levelo://app?vid=b05bd043-0b85-49a7-8d07-2a52a4392edb","ios":"levelo://app?vid=b05bd043-0b85-49a7-8d07-2a52a4392edb"},"vehicle_type_id":"4","last_reported":1744661463,"current_range_meters":10800,"station_id":"ce4bhl12rcd13ifvqgf0","pricing_plan_id":"cebpf4jnsgd1na2vs0mg"},{"bike_id":"2f93173f-d02c-4e29-ab59-1fff882697d7","system_id":"levelo_inurba_marseille","lat":43.24072,"lon":5.37759,"is_reserved":false,"is_disabled":false,"rental_uris":{"android":"levelo://app?vid=2f93173f-d02c-4e29-ab59-1fff882697d7","ios":"levelo://app?vid=2f93173f-d02c-4e29-ab59-1fff882697d7"},"vehicle_type_id":"4","last_reported":1744661463,"current_range_meters":10800,"station_id":"ce4bhnp2rcd13ifvqgvg","pricing_plan_id":"cebpf4jnsgd1na2vs0mg"},{"bike_id":"bdc2dbce-cf91-4bb2-8489-85422358ad88","system_id":"levelo_inurba_marseille","lat":43.27676,"lon":5.38874,"is_reserved":false,"is_disabled":false,"rental_uris":{"android":"levelo://app?vid=bdc2dbce-cf91-4bb2-8489-85422358ad88","ios":"levelo://app?vid=bdc2dbce-cf91-4bb2-8489-85422358ad88"},"vehicle_type_id":"4","last_reported":1744661463,"current_range_meters":11200,"station_id":"ce4bhi12rcd13ifvqfo0","pricing_plan_id":"cebpf4jnsgd1na2vs0mg"},{"bike_id":"fb13c941-1858-46a4-86ad-2a5e302996c3","system_id":"levelo_inurba_marseille","lat":43.25859,"lon":5.39914,"is_reserved":false,"is_disabled":true,"rental_uris":{"android":"levelo://app?vid=fb13c941-1858-46a4-86ad-2a5e302996c3","ios":"levelo://app?vid=fb13c941-1858-46a4-86ad-2a5e302996c3"},"vehicle_type_id":"4","last_reported":1744661463,"current_range_meters":11200,"station_id":"ce4bhl92rcd13ifvqghg","pricing_plan_id":"cebpf4jnsgd1na2vs0mg"},{"bike_id":"6c41ce82-3ce7-4d83-af6d-6eb0fdf49328","system_id":"levelo_inurba_marseille","lat":43.28035,"lon":5.36959,"is_reserved":false,"is_disabled":false,"rental_uris":{"android":"levelo://app?vid=6c41ce82-3ce7-4d83-af6d-6eb0fdf49328","ios":"levelo://app?vid=6c41ce82-3ce7-4d83-af6d-6eb0fdf49328"},"vehicle_type_id":"4","last_reported":1744661463,"current_range_meters":11200,"station_id":"ce4bha12rcd13ifvqef0","pricing_plan_id":"cebpf4jnsgd1na2vs0mg"},{"bike_id":"e0c49b4e-20fa-4104-917d-fcb54a76eaa0","system_id":"levelo_inurba_marseille","lat":43.28351,"lon":5.38116,"is_reserved":false,"is_disabled":false,"rental_uris":{"android":"levelo://app?vid=e0c49b4e-20fa-4104-917d-fcb54a76eaa0","ios":"levelo://app?vid=e0c49b4e-20fa-4104-917d-fcb54a76eaa0"},"vehicle_type_id":"4","last_reported":1744661463,"current_range_meters":11200,"station_id":"ce4bh412rcd13ifvqdr0","pricing_plan_id":"cebpf4jnsgd1na2vs0mg"},{"bike_id":"8b593afb-f953-47f1-aa36-fe621a312c43","system_id":"levelo_inurba_marseille","lat":43.29048,"lon":5.39956,"is_reserved":false,"is_disabled":false,"rental_uris":{"android":"levelo://app?vid=8b593afb-f953-47f1-aa36-fe621a312c43","ios":"levelo://app?vid=8b593afb-f953-47f1-aa36-fe621a312c43"},"vehicle_type_id":"4","last_reported":1744661463,"current_range_meters":10800,"station_id":"ce4bh392rcd13ifvqdm0","pricing_plan_id":"cebpf4jnsgd1na2vs0mg"},{"bike_id":"79b65902-8df7-45c2-9888-c069fa4e019b","system_id":"levelo_inurba_marseille","lat":43.29266,"lon":5.36852,"is_reserved":false,"is_disabled":false,"rental_uris":{"android":"levelo://app?vid=79b65902-8df7-45c2-9888-c069fa4e019b","ios":"levelo://app?vid=79b65902-8df7-45c2-9888-c069fa4e019b"},"vehicle_type_id":"4","last_reported":1744661463,"current_range_meters":11200,"station_id":"ce4bhbp2rcd13ifvqesg","pricing_plan_id":"cebpf4jnsgd1na2vs0mg"},{"bike_id":"df24e887-fe82-46f8-ad88-3f9e2f7268c0","system_id":"levelo_inurba_marseille","lat":43.284,"lon":5.3751,"is_reserved":false,"is_disabled":false,"rental_uris":{"android":"levelo://app?vid=df24e887-fe82-46f8-ad88-3f9e2f7268c0","ios":"levelo://app?vid=df24e887-fe82-46f8-ad88-3f9e2f7268c0"},"vehicle_type_id":"4","last_reported":1744661463,"current_range_meters":11600,"station_id":"ce4bh412rcd13ifvqds0","pricing_plan_id":"cebpf4jnsgd1na2vs0mg"},{"bike_id":"f77c0807-b2f7-4d0c-bf81-2209fa6e64cd","system_id":"levelo_inurba_marseille","lat":43.27817,"lon":5.40698,"is_reserved":false,"is_disabled":false,"rental_uris":{"android":"levelo://app?vid=f77c0807-b2f7-4d0c-bf81-2209fa6e64cd","ios":"levelo://app?vid=f77c0807-b2f7-4d0c-bf81-2209fa6e64cd"},"vehicle_type_id":"4","last_reported":1744661463,"current_range_meters":11600,"station_id":"ce4bhnh2rcd13ifvqgtg","pricing_plan_id":"cebpf4jnsgd1na2vs0mg"},{"bike_id":"f0c2e435-2297-4255-8f4a-2419c7256a4a","system_id":"levelo_inurba_marseille","lat":43.32357,"lon":5.36761,"is_reserved":false,"is_disabled":false,"rental_uris":{"android":"levelo://app?vid=f0c2e435-2297-4255-8f4a-2419c7256a4a","ios":"levelo://app?vid=f0c2e435-2297-4255-8f4a-2419c7256a4a"},"vehicle_type_id":"4","last_reported":1744661463,"current_range_meters":11600,"station_id":"ce4bhsh2rcd13ifvqi2g","pricing_plan_id":"cebpf4jnsgd1na2vs0mg"},{"bike_id":"b7f2ab3e-7333-4a50-9375-1a8103e49920","system_id":"levelo_inurba_marseille","lat":43.25831,"lon":5.39436,"is_reserved":false,"is_disabled":false,"rental_uris":{"android":"levelo://app?vid=b7f2ab3e-7333-4a50-9375-1a8103e49920","ios":"levelo://app?vid=b7f2ab3e-7333-4a50-9375-1a8103e49920"},"vehicle_type_id":"4","last_reported":1744661463,"current_range_meters":11600,"station_id":"ce4bhip2rcd13ifvqft0","pricing_plan_id":"cebpf4jnsgd1na2vs0mg"},{"bike_id":"06b3ad59-951e-471c-8547-f48ea50b5493","system_id":"levelo_inurba_marseille","lat":43.28663,"lon":5.38665,"is_reserved":false,"is_disabled":false,"rental_uris":{"android":"levelo://app?vid=06b3ad59-951e-471c-8547-f48ea50b5493","ios":"levelo://app?vid=06b3ad59-951e-471c-8547-f48ea50b5493"},"vehicle_type_id":"4","last_reported":1744661463,"current_range_meters":11600,"station_id":"ce4bh492rcd13ifvqdug","pricing_plan_id":"cebpf4jnsgd1na2vs0mg"},{"bike_id":"1923198b-0436-4bd8-972d-1bc17fd7d33d","system_id":"levelo_inurba_marseille","lat":43.27916,"lon":5.39582,"is_reserved":false,"is_disabled":false,"rental_uris":{"android":"levelo://app?vid=1923198b-0436-4bd8-972d-1bc17fd7d33d","ios":"levelo://app?vid=1923198b-0436-4bd8-972d-1bc17fd7d33d"},"vehicle_type_id":"4","last_reported":1744661463,"current_range_meters":11600,"station_id":"ce4bhf92rcd13ifvqf40","pricing_plan_id":"cebpf4jnsgd1na2vs0mg"},{"bike_id":"b6e57735-58a0-4b84-b9a3-e8ec73b97d6e","system_id":"levelo_inurba_marseille","lat":43.31536,"lon":5.3803,"is_reserved":false,"is_disabled":false,"rental_uris":{"android":"levelo://app?vid=b6e57735-58a0-4b84-b9a3-e8ec73b97d6e","ios":"levelo://app?vid=b6e57735-58a0-4b84-b9a3-e8ec73b97d6e"},"vehicle_type_id":"4","last_reported":1744661463,"current_range_meters":11600,"station_id":"ce4bhsp2rcd13ifvqi50","pricing_plan_id":"cebpf4jnsgd1na2vs0mg"},{"bike_id":"843838ea-15ea-4750-a740-a6a4d52b3162","system_id":"levelo_inurba_marseille","lat":43.27999,"lon":5.41655,"is_reserved":false,"is_disabled":false,"rental_uris":{"android":"levelo://app?vid=843838ea-15ea-4750-a740-a6a4d52b3162","ios":"levelo://app?vid=843838ea-15ea-4750-a740-a6a4d52b3162"},"vehicle_type_id":"4","last_reported":1744661463,"current_range_meters":12000,"station_id":"ce4bho12rcd13ifvqh1g","pricing_plan_id":"cebpf4jnsgd1na2vs0mg"},{"bike_id":"c94b7e70-352f-40ea-b9b7-a6392aad62db","system_id":"levelo_inurba_marseille","lat":43.28704,"lon":5.3998,"is_reserved":false,"is_disabled":false,"rental_uris":{"android":"levelo://app?vid=c94b7e70-352f-40ea-b9b7-a6392aad62db","ios":"levelo://app?vid=c94b7e70-352f-40ea-b9b7-a6392aad62db"},"vehicle_type_id":"4","last_reported":1744661463,"current_range_meters":11600,"station_id":"ce4bho92rcd13ifvqh3g","pricing_plan_id":"cebpf4jnsgd1na2vs0mg"},{"bike_id":"677b30b3-8594-46cc-a68a-9743c3dc2167","system_id":"levelo_inurba_marseille","lat":43.28829,"lon":5.35857,"is_reserved":false,"is_disabled":false,"rental_uris":{"android":"levelo://app?vid=677b30b3-8594-46cc-a68a-9743c3dc2167","ios":"levelo://app?vid=677b30b3-8594-46cc-a68a-9743c3dc2167"},"vehicle_type_id":"4","last_reported":1744661463,"current_range_meters":12000,"station_id":"ce4bhb12rcd13ifvqem0","pricing_plan_id":"cebpf4jnsgd1na2vs0mg"},{"bike_id":"ff6c5bbc-009f-4fe9-b11b-60ef4508468b","system_id":"levelo_inurba_marseille","lat":43.28446,"lon":5.39188,"is_reserved":false,"is_disabled":true,"rental_uris":{"android":"levelo://app?vid=ff6c5bbc-009f-4fe9-b11b-60ef4508468b","ios":"levelo://app?vid=ff6c5bbc-009f-4fe9-b11b-60ef4508468b"},"vehicle_type_id":"4","last_reported":1744661463,"current_range_meters":12000,"station_id":"ce4bhoh2rcd13ifvqh5g","pricing_plan_id":"cebpf4jnsgd1na2vs0mg"},{"bike_id":"9032fd9f-8258-4b06-828f-3216c8110290","system_id":"levelo_inurba_marseille","lat":43.31015,"lon":5.4177,"is_reserved":false,"is_disabled":false,"rental_uris":{"android":"levelo://app?vid=9032fd9f-8258-4b06-828f-3216c8110290","ios":"levelo://app?vid=9032fd9f-8258-4b06-828f-3216c8110290"},"vehicle_type_id":"4","last_reported":1744661463,"current_range_meters":12000,"station_id":"","pricing_plan_id":"cebpf4jnsgd1na2vs0mg"},{"bike_id":"d974283f-b87f-448e-af4e-0b9749a8d4b6","system_id":"levelo_inurba_marseille","lat":43.2416,"lon":5.36393,"is_reserved":false,"is_disabled":false,"rental_uris":{"android":"levelo://app?vid=d974283f-b87f-448e-af4e-0b9749a8d4b6","ios":"levelo://app?vid=d974283f-b87f-448e-af4e-0b9749a8d4b6"},"vehicle_type_id":"4","last_reported":1744661463,"current_range_meters":12400,"station_id":"cpo36qri1sfpv3e86is0","pricing_plan_id":"cebpf4jnsgd1na2vs0mg"},{"bike_id":"00dec87e-b29b-4394-8199-600d5b4f1e16","system_id":"levelo_inurba_marseille","lat":43.28941,"lon":5.36639,"is_reserved":false,"is_disabled":false,"rental_uris":{"android":"levelo://app?vid=00dec87e-b29b-4394-8199-600d5b4f1e16","ios":"levelo://app?vid=00dec87e-b29b-4394-8199-600d5b4f1e16"},"vehicle_type_id":"4","last_reported":1744661463,"current_range_meters":12400,"station_id":"ce4bhap2rcd13ifvqek0","pricing_plan_id":"cebpf4jnsgd1na2vs0mg"},{"bike_id":"0e8e0d85-2932-4765-902a-4c3b14a3eac4","system_id":"levelo_inurba_marseille","lat":43.25637,"lon":5.3766,"is_reserved":false,"is_disabled":false,"rental_uris":{"android":"levelo://app?vid=0e8e0d85-2932-4765-902a-4c3b14a3eac4","ios":"levelo://app?vid=0e8e0d85-2932-4765-902a-4c3b14a3eac4"},"vehicle_type_id":"4","last_reported":1744661463,"current_range_meters":12400,"station_id":"","pricing_plan_id":"cebpf4jnsgd1na2vs0mg"},{"bike_id":"ad590656-5665-4c60-886d-622c7b00d99c","system_id":"levelo_inurba_marseille","lat":43.29522,"lon":5.39377,"is_reserved":false,"is_disabled":false,"rental_uris":{"android":"levelo://app?vid=ad590656-5665-4c60-886d-622c7b00d99c","ios":"levelo://app?vid=ad590656-5665-4c60-886d-622c7b00d99c"},"vehicle_type_id":"4","last_reported":1744661463,"current_range_meters":12000,"station_id":"ce4bh292rcd13ifvqdf0","pricing_plan_id":"cebpf4jnsgd1na2vs0mg"},{"bike_id":"9150690c-4dbe-4c60-a177-af8ea973e079","system_id":"levelo_inurba_marseille","lat":43.28953,"lon":5.36622,"is_reserved":false,"is_disabled":false,"rental_uris":{"android":"levelo://app?vid=9150690c-4dbe-4c60-a177-af8ea973e079","ios":"levelo://app?vid=9150690c-4dbe-4c60-a177-af8ea973e079"},"vehicle_type_id":"4","last_reported":1744661463,"current_range_meters":12800,"station_id":"ce4bhap2rcd13ifvqek0","pricing_plan_id":"cebpf4jnsgd1na2vs0mg"},{"bike_id":"5bac84e2-3c94-4fdd-a5a6-3f7db5002922","system_id":"levelo_inurba_marseille","lat":43.26802,"lon":5.40244,"is_reserved":false,"is_disabled":false,"rental_uris":{"android":"levelo://app?vid=5bac84e2-3c94-4fdd-a5a6-3f7db5002922","ios":"levelo://app?vid=5bac84e2-3c94-4fdd-a5a6-3f7db5002922"},"vehicle_type_id":"4","last_reported":1744661463,"current_range_meters":12800,"station_id":"ce501612rcd8frsf0b60","pricing_plan_id":"cebpf4jnsgd1na2vs0mg"},{"bike_id":"d7e5f1df-20a8-4d25-b990-2a90b3f59d81","system_id":"levelo_inurba_marseille","lat":43.31105,"lon":5.37773,"is_reserved":false,"is_disabled":false,"rental_uris":{"android":"levelo://app?vid=d7e5f1df-20a8-4d25-b990-2a90b3f59d81","ios":"levelo://app?vid=d7e5f1df-20a8-4d25-b990-2a90b3f59d81"},"vehicle_type_id":"4","last_reported":1744661463,"current_range_meters":12800,"station_id":"ce4bgt92rcd13ifvqcg0","pricing_plan_id":"cebpf4jnsgd1na2vs0mg"},{"bike_id":"61f247c8-8777-4bcc-862d-441ae99dcd93","system_id":"levelo_inurba_marseille","lat":43.2704,"lon":5.4027,"is_reserved":false,"is_disabled":false,"rental_uris":{"android":"levelo://app?vid=61f247c8-8777-4bcc-862d-441ae99dcd93","ios":"levelo://app?vid=61f247c8-8777-4bcc-862d-441ae99dcd93"},"vehicle_type_id":"4","last_reported":1744661463,"current_range_meters":12800,"station_id":"ce4bhk92rcd13ifvqgc0","pricing_plan_id":"cebpf4jnsgd1na2vs0mg"},{"bike_id":"209a0192-0fdc-4e02-9c79-b42f732cc1f7","system_id":"levelo_inurba_marseille","lat":43.23966,"lon":5.36633,"is_reserved":false,"is_disabled":false,"rental_uris":{"android":"levelo://app?vid=209a0192-0fdc-4e02-9c79-b42f732cc1f7","ios":"levelo://app?vid=209a0192-0fdc-4e02-9c79-b42f732cc1f7"},"vehicle_type_id":"4","last_reported":1744661463,"current_range_meters":12800,"station_id":"ce4bhi12rcd13ifvqfp0","pricing_plan_id":"cebpf4jnsgd1na2vs0mg"},{"bike_id":"dd55a95c-84ae-4f2d-9924-3ca8c1853af4","system_id":"levelo_inurba_marseille","lat":43.26802,"lon":5.40256,"is_reserved":false,"is_disabled":false,"rental_uris":{"android":"levelo://app?vid=dd55a95c-84ae-4f2d-9924-3ca8c1853af4","ios":"levelo://app?vid=dd55a95c-84ae-4f2d-9924-3ca8c1853af4"},"vehicle_type_id":"4","last_reported":1744661463,"current_range_meters":12800,"station_id":"ce501612rcd8frsf0b60","pricing_plan_id":"cebpf4jnsgd1na2vs0mg"},{"bike_id":"27a55245-8dd2-4f1a-af63-95a9d7b71690","system_id":"levelo_inurba_marseille","lat":43.31076,"lon":5.37826,"is_reserved":false,"is_disabled":true,"rental_uris":{"android":"levelo://app?vid=27a55245-8dd2-4f1a-af63-95a9d7b71690","ios":"levelo://app?vid=27a55245-8dd2-4f1a-af63-95a9d7b71690"},"vehicle_type_id":"4","last_reported":1744661463,"current_range_meters":12800,"station_id":"","pricing_plan_id":"cebpf4jnsgd1na2vs0mg"},{"bike_id":"3cd2b3d2-12ab-4b29-b82b-b005e07e7825","system_id":"levelo_inurba_marseille","lat":43.26936,"lon":5.40256,"is_reserved":false,"is_disabled":false,"rental_uris":{"android":"levelo://app?vid=3cd2b3d2-12ab-4b29-b82b-b005e07e7825","ios":"levelo://app?vid=3cd2b3d2-12ab-4b29-b82b-b005e07e7825"},"vehicle_type_id":"4","last_reported":1744661463,"current_range_meters":13600,"station_id":"cjm6bp8fraef2m0cb0m0","pricing_plan_id":"cebpf4jnsgd1na2vs0mg"},{"bike_id":"aaeab5e2-1426-4054-aa04-9dfb87f37424","system_id":"levelo_inurba_marseille","lat":43.26061,"lon":5.3937,"is_reserved":false,"is_disabled":false,"rental_uris":{"android":"levelo://app?vid=aaeab5e2-1426-4054-aa04-9dfb87f37424","ios":"levelo://app?vid=aaeab5e2-1426-4054-aa04-9dfb87f37424"},"vehicle_type_id":"4","last_reported":1744661463,"current_range_meters":13600,"station_id":"ce4bhh92rcd13ifvqfj0","pricing_plan_id":"cebpf4jnsgd1na2vs0mg"},{"bike_id":"c9d1e054-dcca-4519-948f-2d6ee58aeff5","system_id":"levelo_inurba_marseille","lat":43.289215,"lon":5.383785,"is_reserved":false,"is_disabled":false,"rental_uris":{"android":"levelo://app?vid=c9d1e054-dcca-4519-948f-2d6ee58aeff5","ios":"levelo://app?vid=c9d1e054-dcca-4519-948f-2d6ee58aeff5"},"vehicle_type_id":"4","last_reported":1744661463,"current_range_meters":13600,"station_id":"ce4bhbp2rcd13ifvqerg","pricing_plan_id":"cebpf4jnsgd1na2vs0mg"},{"bike_id":"9357e327-cb00-4fd9-852c-698a42e274fa","system_id":"levelo_inurba_marseille","lat":43.29903,"lon":5.43664,"is_reserved":false,"is_disabled":false,"rental_uris":{"android":"levelo://app?vid=9357e327-cb00-4fd9-852c-698a42e274fa","ios":"levelo://app?vid=9357e327-cb00-4fd9-852c-698a42e274fa"},"vehicle_type_id":"4","last_reported":1744661463,"current_range_meters":13600,"station_id":"ce4bhpp2rcd13ifvqhfg","pricing_plan_id":"cebpf4jnsgd1na2vs0mg"},{"bike_id":"49312242-09f6-4270-8df9-a649b1accedf","system_id":"levelo_inurba_marseille","lat":43.29576,"lon":5.38109,"is_reserved":false,"is_disabled":false,"rental_uris":{"android":"levelo://app?vid=49312242-09f6-4270-8df9-a649b1accedf","ios":"levelo://app?vid=49312242-09f6-4270-8df9-a649b1accedf"},"vehicle_type_id":"4","last_reported":1744661463,"current_range_meters":14000,"station_id":"ce4bgl12rcd13ifvqbo0","pricing_plan_id":"cebpf4jnsgd1na2vs0mg"},{"bike_id":"073cf7d8-8976-45f8-a876-b8ff2d3c7521","system_id":"levelo_inurba_marseille","lat":43.31331,"lon":5.396927,"is_reserved":false,"is_disabled":false,"rental_uris":{"android":"levelo://app?vid=073cf7d8-8976-45f8-a876-b8ff2d3c7521","ios":"levelo://app?vid=073cf7d8-8976-45f8-a876-b8ff2d3c7521"},"vehicle_type_id":"4","last_reported":1744661463,"current_range_meters":14000,"station_id":"ce4bgvp2rcd13ifvqcu0","pricing_plan_id":"cebpf4jnsgd1na2vs0mg"},{"bike_id":"868fffe6-2078-483c-8f93-998064696c0f","system_id":"levelo_inurba_marseille","lat":43.30354,"lon":5.41882,"is_reserved":false,"is_disabled":false,"rental_uris":{"android":"levelo://app?vid=868fffe6-2078-483c-8f93-998064696c0f","ios":"levelo://app?vid=868fffe6-2078-483c-8f93-998064696c0f"},"vehicle_type_id":"4","last_reported":1744661463,"current_range_meters":14000,"station_id":"ce4bhop2rcd13ifvqh7g","pricing_plan_id":"cebpf4jnsgd1na2vs0mg"},{"bike_id":"52e340c3-039a-4c47-97af-26d5c54a9440","system_id":"levelo_inurba_marseille","lat":43.28909,"lon":5.39637,"is_reserved":false,"is_disabled":false,"rental_uris":{"android":"levelo://app?vid=52e340c3-039a-4c47-97af-26d5c54a9440","ios":"levelo://app?vid=52e340c3-039a-4c47-97af-26d5c54a9440"},"vehicle_type_id":"4","last_reported":1744661463,"current_range_meters":14400,"station_id":"ce4bh3h2rcd13ifvqdn0","pricing_plan_id":"cebpf4jnsgd1na2vs0mg"},{"bike_id":"9481a4d4-998c-4242-822b-0b8fa3017440","system_id":"levelo_inurba_marseille","lat":43.28866,"lon":5.39317,"is_reserved":false,"is_disabled":true,"rental_uris":{"android":"levelo://app?vid=9481a4d4-998c-4242-822b-0b8fa3017440","ios":"levelo://app?vid=9481a4d4-998c-4242-822b-0b8fa3017440"},"vehicle_type_id":"4","last_reported":1744661463,"current_range_meters":14400,"station_id":"ce4bh2p2rcd13ifvqdi0","pricing_plan_id":"cebpf4jnsgd1na2vs0mg"},{"bike_id":"56135a82-d19f-45ea-a72c-58b1131d0fcb","system_id":"levelo_inurba_marseille","lat":43.280859,"lon":5.396573,"is_reserved":false,"is_disabled":true,"rental_uris":{"android":"levelo://app?vid=56135a82-d19f-45ea-a72c-58b1131d0fcb","ios":"levelo://app?vid=56135a82-d19f-45ea-a72c-58b1131d0fcb"},"vehicle_type_id":"4","last_reported":1744661463,"current_range_meters":14400,"station_id":"ce4bho12rcd13ifvqh2g","pricing_plan_id":"cebpf4jnsgd1na2vs0mg"},{"bike_id":"adc57c37-ce55-4115-a740-875a9e1ac006","system_id":"levelo_inurba_marseille","lat":43.28462,"lon":5.35883,"is_reserved":false,"is_disabled":false,"rental_uris":{"android":"levelo://app?vid=adc57c37-ce55-4115-a740-875a9e1ac006","ios":"levelo://app?vid=adc57c37-ce55-4115-a740-875a9e1ac006"},"vehicle_type_id":"4","last_reported":1744661463,"current_range_meters":14400,"station_id":"ce4bhah2rcd13ifvqei0","pricing_plan_id":"cebpf4jnsgd1na2vs0mg"},{"bike_id":"93b02a0f-e2f5-49ef-90ae-4a058707e43d","system_id":"levelo_inurba_marseille","lat":43.29682,"lon":5.37286,"is_reserved":false,"is_disabled":true,"rental_uris":{"android":"levelo://app?vid=93b02a0f-e2f5-49ef-90ae-4a058707e43d","ios":"levelo://app?vid=93b02a0f-e2f5-49ef-90ae-4a058707e43d"},"vehicle_type_id":"4","last_reported":1744661463,"current_range_meters":14400,"station_id":"ce4bgk12rcd13ifvqbj0","pricing_plan_id":"cebpf4jnsgd1na2vs0mg"},{"bike_id":"43d3bf26-29ea-4ece-8562-b4e82b077989","system_id":"levelo_inurba_marseille","lat":43.3054,"lon":5.38427,"is_reserved":false,"is_disabled":false,"rental_uris":{"android":"levelo://app?vid=43d3bf26-29ea-4ece-8562-b4e82b077989","ios":"levelo://app?vid=43d3bf26-29ea-4ece-8562-b4e82b077989"},"vehicle_type_id":"4","last_reported":1744661463,"current_range_meters":14400,"station_id":"ce4bgg92rcd13ifvqb30","pricing_plan_id":"cebpf4jnsgd1na2vs0mg"},{"bike_id":"6e9b163a-f980-44e9-b8ab-63beb58fc4e6","system_id":"levelo_inurba_marseille","lat":43.29024,"lon":5.38642,"is_reserved":false,"is_disabled":false,"rental_uris":{"android":"levelo://app?vid=6e9b163a-f980-44e9-b8ab-63beb58fc4e6","ios":"levelo://app?vid=6e9b163a-f980-44e9-b8ab-63beb58fc4e6"},"vehicle_type_id":"4","last_reported":1744661463,"current_range_meters":14800,"station_id":"ce4bh4p2rcd13ifvqe0g","pricing_plan_id":"cebpf4jnsgd1na2vs0mg"},{"bike_id":"0ba05dd4-526b-4b83-a7a3-6421c906d746","system_id":"levelo_inurba_marseille","lat":43.31709,"lon":5.37744,"is_reserved":false,"is_disabled":false,"rental_uris":{"android":"levelo://app?vid=0ba05dd4-526b-4b83-a7a3-6421c906d746","ios":"levelo://app?vid=0ba05dd4-526b-4b83-a7a3-6421c906d746"},"vehicle_type_id":"4","last_reported":1744661463,"current_range_meters":14800,"station_id":"ce4bgth2rcd13ifvqch0","pricing_plan_id":"cebpf4jnsgd1na2vs0mg"},{"bike_id":"80589066-0399-4cc0-bc38-2a742e14cd9b","system_id":"levelo_inurba_marseille","lat":43.28325,"lon":5.38102,"is_reserved":false,"is_disabled":false,"rental_uris":{"android":"levelo://app?vid=80589066-0399-4cc0-bc38-2a742e14cd9b","ios":"levelo://app?vid=80589066-0399-4cc0-bc38-2a742e14cd9b"},"vehicle_type_id":"4","last_reported":1744661463,"current_range_meters":14800,"station_id":"ce4bh412rcd13ifvqdr0","pricing_plan_id":"cebpf4jnsgd1na2vs0mg"},{"bike_id":"03afe5d8-cbc4-4c11-b5d1-6cedb50ce9e1","system_id":"levelo_inurba_marseille","lat":43.281,"lon":5.37839,"is_reserved":false,"is_disabled":false,"rental_uris":{"android":"levelo://app?vid=03afe5d8-cbc4-4c11-b5d1-6cedb50ce9e1","ios":"levelo://app?vid=03afe5d8-cbc4-4c11-b5d1-6cedb50ce9e1"},"vehicle_type_id":"4","last_reported":1744661463,"current_range_meters":14800,"station_id":"ce4bha12rcd13ifvqee0","pricing_plan_id":"cebpf4jnsgd1na2vs0mg"},{"bike_id":"bc1416e1-1cdb-44b9-92b2-8d8a45840292","system_id":"levelo_inurba_marseille","lat":43.232208,"lon":5.43617,"is_reserved":false,"is_disabled":false,"rental_uris":{"android":"levelo://app?vid=bc1416e1-1cdb-44b9-92b2-8d8a45840292","ios":"levelo://app?vid=bc1416e1-1cdb-44b9-92b2-8d8a45840292"},"vehicle_type_id":"4","last_reported":1744661463,"current_range_meters":14400,"station_id":"ce4bhi12rcd13ifvqfp0","pricing_plan_id":"cebpf4jnsgd1na2vs0mg"},{"bike_id":"038f24e5-d8e3-47c1-a2bf-21ad4ab92bed","system_id":"levelo_inurba_marseille","lat":43.31076,"lon":5.38336,"is_reserved":false,"is_disabled":false,"rental_uris":{"android":"levelo://app?vid=038f24e5-d8e3-47c1-a2bf-21ad4ab92bed","ios":"levelo://app?vid=038f24e5-d8e3-47c1-a2bf-21ad4ab92bed"},"vehicle_type_id":"4","last_reported":1744661463,"current_range_meters":14800,"station_id":"ce4bgv92rcd13ifvqcr0","pricing_plan_id":"cebpf4jnsgd1na2vs0mg"},{"bike_id":"9050bcb2-4fea-4bae-b3fe-93394c76bda1","system_id":"levelo_inurba_marseille","lat":43.31707,"lon":5.40397,"is_reserved":false,"is_disabled":false,"rental_uris":{"android":"levelo://app?vid=9050bcb2-4fea-4bae-b3fe-93394c76bda1","ios":"levelo://app?vid=9050bcb2-4fea-4bae-b3fe-93394c76bda1"},"vehicle_type_id":"4","last_reported":1744661463,"current_range_meters":14800,"station_id":"ce4bh012rcd13ifvqd00","pricing_plan_id":"cebpf4jnsgd1na2vs0mg"},{"bike_id":"c982b9d5-0af8-4516-bb15-2e04fca48a52","system_id":"levelo_inurba_marseille","lat":43.28683,"lon":5.373956,"is_reserved":false,"is_disabled":false,"rental_uris":{"android":"levelo://app?vid=c982b9d5-0af8-4516-bb15-2e04fca48a52","ios":"levelo://app?vid=c982b9d5-0af8-4516-bb15-2e04fca48a52"},"vehicle_type_id":"4","last_reported":1744661463,"current_range_meters":14800,"station_id":"ce4bh3p2rcd13ifvqdq0","pricing_plan_id":"cebpf4jnsgd1na2vs0mg"},{"bike_id":"9fc301a4-cfe4-46d0-9b07-89eb173ef9fa","system_id":"levelo_inurba_marseille","lat":43.29767,"lon":5.37084,"is_reserved":false,"is_disabled":false,"rental_uris":{"android":"levelo://app?vid=9fc301a4-cfe4-46d0-9b07-89eb173ef9fa","ios":"levelo://app?vid=9fc301a4-cfe4-46d0-9b07-89eb173ef9fa"},"vehicle_type_id":"4","last_reported":1744661463,"current_range_meters":15200,"station_id":"ce4bgop2rcd13ifvqc1g","pricing_plan_id":"cebpf4jnsgd1na2vs0mg"},{"bike_id":"45152fd8-c07c-4d52-b7a7-6670add35e00","system_id":"levelo_inurba_marseille","lat":43.26103,"lon":5.42079,"is_reserved":false,"is_disabled":false,"rental_uris":{"android":"levelo://app?vid=45152fd8-c07c-4d52-b7a7-6670add35e00","ios":"levelo://app?vid=45152fd8-c07c-4d52-b7a7-6670add35e00"},"vehicle_type_id":"4","last_reported":1744661463,"current_range_meters":15200,"station_id":"","pricing_plan_id":"cebpf4jnsgd1na2vs0mg"},{"bike_id":"fafb0c88-0ec1-4a81-9ae4-6b06460d4a2c","system_id":"levelo_inurba_marseille","lat":43.2863,"lon":5.3509,"is_reserved":false,"is_disabled":false,"rental_uris":{"android":"levelo://app?vid=fafb0c88-0ec1-4a81-9ae4-6b06460d4a2c","ios":"levelo://app?vid=fafb0c88-0ec1-4a81-9ae4-6b06460d4a2c"},"vehicle_type_id":"4","last_reported":1744661463,"current_range_meters":15200,"station_id":"ce4bhch2rcd13ifvqeug","pricing_plan_id":"cebpf4jnsgd1na2vs0mg"},{"bike_id":"60d0f600-facc-4eb7-b686-a2b19d1324aa","system_id":"levelo_inurba_marseille","lat":43.30329,"lon":5.40432,"is_reserved":false,"is_disabled":false,"rental_uris":{"android":"levelo://app?vid=60d0f600-facc-4eb7-b686-a2b19d1324aa","ios":"levelo://app?vid=60d0f600-facc-4eb7-b686-a2b19d1324aa"},"vehicle_type_id":"4","last_reported":1744661463,"current_range_meters":15200,"station_id":"ce4bh012rcd13ifvqd10","pricing_plan_id":"cebpf4jnsgd1na2vs0mg"},{"bike_id":"02dc5853-d17c-47ac-a646-82ded7ba5800","system_id":"levelo_inurba_marseille","lat":43.30231,"lon":5.40065,"is_reserved":false,"is_disabled":true,"rental_uris":{"android":"levelo://app?vid=02dc5853-d17c-47ac-a646-82ded7ba5800","ios":"levelo://app?vid=02dc5853-d17c-47ac-a646-82ded7ba5800"},"vehicle_type_id":"4","last_reported":1744661463,"current_range_meters":16000,"station_id":"ce4bgvh2rcd13ifvqcs0","pricing_plan_id":"cebpf4jnsgd1na2vs0mg"},{"bike_id":"b225db6f-f59a-478a-a565-451dda7af67c","system_id":"levelo_inurba_marseille","lat":43.2619,"lon":5.40465,"is_reserved":false,"is_disabled":false,"rental_uris":{"android":"levelo://app?vid=b225db6f-f59a-478a-a565-451dda7af67c","ios":"levelo://app?vid=b225db6f-f59a-478a-a565-451dda7af67c"},"vehicle_type_id":"4","last_reported":1744661463,"current_range_meters":16000,"station_id":"ce4bhmh2rcd13ifvqgmg","pricing_plan_id":"cebpf4jnsgd1na2vs0mg"},{"bike_id":"37342bdf-d586-43ba-a25b-da22b3393da6","system_id":"levelo_inurba_marseille","lat":43.29179,"lon":5.37481,"is_reserved":false,"is_disabled":false,"rental_uris":{"android":"levelo://app?vid=37342bdf-d586-43ba-a25b-da22b3393da6","ios":"levelo://app?vid=37342bdf-d586-43ba-a25b-da22b3393da6"},"vehicle_type_id":"4","last_reported":1744661463,"current_range_meters":16000,"station_id":"","pricing_plan_id":"cebpf4jnsgd1na2vs0mg"},{"bike_id":"86507adb-43c1-4a89-acc7-c74cd80a099f","system_id":"levelo_inurba_marseille","lat":43.23126,"lon":5.36658,"is_reserved":false,"is_disabled":false,"rental_uris":{"android":"levelo://app?vid=86507adb-43c1-4a89-acc7-c74cd80a099f","ios":"levelo://app?vid=86507adb-43c1-4a89-acc7-c74cd80a099f"},"vehicle_type_id":"4","last_reported":1744661463,"current_range_meters":16000,"station_id":"","pricing_plan_id":"cebpf4jnsgd1na2vs0mg"},{"bike_id":"a6df17eb-3570-436e-862c-fc5ce65d2e7e","system_id":"levelo_inurba_marseille","lat":43.2862,"lon":5.35102,"is_reserved":false,"is_disabled":false,"rental_uris":{"android":"levelo://app?vid=a6df17eb-3570-436e-862c-fc5ce65d2e7e","ios":"levelo://app?vid=a6df17eb-3570-436e-862c-fc5ce65d2e7e"},"vehicle_type_id":"4","last_reported":1744661463,"current_range_meters":16400,"station_id":"ce4bhch2rcd13ifvqeug","pricing_plan_id":"cebpf4jnsgd1na2vs0mg"},{"bike_id":"b3f3917b-babe-4e57-b21e-9f79ef1e3bdd","system_id":"levelo_inurba_marseille","lat":43.29511,"lon":5.39406,"is_reserved":false,"is_disabled":false,"rental_uris":{"android":"levelo://app?vid=b3f3917b-babe-4e57-b21e-9f79ef1e3bdd","ios":"levelo://app?vid=b3f3917b-babe-4e57-b21e-9f79ef1e3bdd"},"vehicle_type_id":"4","last_reported":1744661463,"current_range_meters":16400,"station_id":"ce4bh292rcd13ifvqdf0","pricing_plan_id":"cebpf4jnsgd1na2vs0mg"},{"bike_id":"60dcad6e-0bf0-43ed-8c17-3d1b1e91ba96","system_id":"levelo_inurba_marseille","lat":43.2953,"lon":5.38535,"is_reserved":false,"is_disabled":false,"rental_uris":{"android":"levelo://app?vid=60dcad6e-0bf0-43ed-8c17-3d1b1e91ba96","ios":"levelo://app?vid=60dcad6e-0bf0-43ed-8c17-3d1b1e91ba96"},"vehicle_type_id":"4","last_reported":1744661463,"current_range_meters":16400,"station_id":"ce4bgih2rcd13ifvqba0","pricing_plan_id":"cebpf4jnsgd1na2vs0mg"},{"bike_id":"f404719f-5359-4db7-b8f8-95735abc5d42","system_id":"levelo_inurba_marseille","lat":43.29523,"lon":5.39402,"is_reserved":false,"is_disabled":false,"rental_uris":{"android":"levelo://app?vid=f404719f-5359-4db7-b8f8-95735abc5d42","ios":"levelo://app?vid=f404719f-5359-4db7-b8f8-95735abc5d42"},"vehicle_type_id":"4","last_reported":1744661463,"current_range_meters":16400,"station_id":"ce4bh292rcd13ifvqdf0","pricing_plan_id":"cebpf4jnsgd1na2vs0mg"},{"bike_id":"382a1a40-cce5-4bcf-8677-ad51fb5a2457","system_id":"levelo_inurba_marseille","lat":43.28839,"lon":5.39344,"is_reserved":false,"is_disabled":true,"rental_uris":{"android":"levelo://app?vid=382a1a40-cce5-4bcf-8677-ad51fb5a2457","ios":"levelo://app?vid=382a1a40-cce5-4bcf-8677-ad51fb5a2457"},"vehicle_type_id":"4","last_reported":1744661463,"current_range_meters":16400,"station_id":"ce4bh2p2rcd13ifvqdi0","pricing_plan_id":"cebpf4jnsgd1na2vs0mg"},{"bike_id":"fba4afcb-68ca-4991-a70e-fd3b55fef9da","system_id":"levelo_inurba_marseille","lat":43.30933,"lon":5.40142,"is_reserved":false,"is_disabled":false,"rental_uris":{"android":"levelo://app?vid=fba4afcb-68ca-4991-a70e-fd3b55fef9da","ios":"levelo://app?vid=fba4afcb-68ca-4991-a70e-fd3b55fef9da"},"vehicle_type_id":"4","last_reported":1744661463,"current_range_meters":16800,"station_id":"ce4bgvp2rcd13ifvqct0","pricing_plan_id":"cebpf4jnsgd1na2vs0mg"},{"bike_id":"5c0cc5dd-7c03-4f8b-838c-65a8bfb31b5b","system_id":"levelo_inurba_marseille","lat":43.24677,"lon":5.38132,"is_reserved":false,"is_disabled":false,"rental_uris":{"android":"levelo://app?vid=5c0cc5dd-7c03-4f8b-838c-65a8bfb31b5b","ios":"levelo://app?vid=5c0cc5dd-7c03-4f8b-838c-65a8bfb31b5b"},"vehicle_type_id":"4","last_reported":1744661463,"current_range_meters":16800,"station_id":"ce4bhih2rcd13ifvqfr0","pricing_plan_id":"cebpf4jnsgd1na2vs0mg"},{"bike_id":"795050b8-16c0-4966-8647-df1dbd8db37a","system_id":"levelo_inurba_marseille","lat":43.284081,"lon":5.375052,"is_reserved":false,"is_disabled":false,"rental_uris":{"android":"levelo://app?vid=795050b8-16c0-4966-8647-df1dbd8db37a","ios":"levelo://app?vid=795050b8-16c0-4966-8647-df1dbd8db37a"},"vehicle_type_id":"4","last_reported":1744661463,"current_range_meters":16800,"station_id":"ce4bh412rcd13ifvqds0","pricing_plan_id":"cebpf4jnsgd1na2vs0mg"},{"bike_id":"9d18629a-09fb-499c-8bd0-400337810599","system_id":"levelo_inurba_marseille","lat":43.29885,"lon":5.39736,"is_reserved":false,"is_disabled":false,"rental_uris":{"android":"levelo://app?vid=9d18629a-09fb-499c-8bd0-400337810599","ios":"levelo://app?vid=9d18629a-09fb-499c-8bd0-400337810599"},"vehicle_type_id":"4","last_reported":1744661463,"current_range_meters":16800,"station_id":"","pricing_plan_id":"cebpf4jnsgd1na2vs0mg"},{"bike_id":"8300a52c-971f-43fc-b5ec-33d22e852aa6","system_id":"levelo_inurba_marseille","lat":43.31273,"lon":5.40159,"is_reserved":false,"is_disabled":false,"rental_uris":{"android":"levelo://app?vid=8300a52c-971f-43fc-b5ec-33d22e852aa6","ios":"levelo://app?vid=8300a52c-971f-43fc-b5ec-33d22e852aa6"},"vehicle_type_id":"4","last_reported":1744661463,"current_range_meters":16800,"station_id":"ce4bh092rcd13ifvqd30","pricing_plan_id":"cebpf4jnsgd1na2vs0mg"},{"bike_id":"150c92f3-516d-41fe-89f9-fa7bb41a1f80","system_id":"levelo_inurba_marseille","lat":43.30336,"lon":5.40436,"is_reserved":false,"is_disabled":false,"rental_uris":{"android":"levelo://app?vid=150c92f3-516d-41fe-89f9-fa7bb41a1f80","ios":"levelo://app?vid=150c92f3-516d-41fe-89f9-fa7bb41a1f80"},"vehicle_type_id":"4","last_reported":1744661463,"current_range_meters":16800,"station_id":"ce4bh012rcd13ifvqd10","pricing_plan_id":"cebpf4jnsgd1na2vs0mg"},{"bike_id":"eee1ae19-0a4d-4fb6-8b87-1e6d20ca2059","system_id":"levelo_inurba_marseille","lat":43.26804,"lon":5.40265,"is_reserved":false,"is_disabled":false,"rental_uris":{"android":"levelo://app?vid=eee1ae19-0a4d-4fb6-8b87-1e6d20ca2059","ios":"levelo://app?vid=eee1ae19-0a4d-4fb6-8b87-1e6d20ca2059"},"vehicle_type_id":"4","last_reported":1744661463,"current_range_meters":16800,"station_id":"ce501612rcd8frsf0b60","pricing_plan_id":"cebpf4jnsgd1na2vs0mg"},{"bike_id":"fedb9457-c408-43a0-8b5e-ccdff25947f5","system_id":"levelo_inurba_marseille","lat":43.26176,"lon":5.40451,"is_reserved":false,"is_disabled":true,"rental_uris":{"android":"levelo://app?vid=fedb9457-c408-43a0-8b5e-ccdff25947f5","ios":"levelo://app?vid=fedb9457-c408-43a0-8b5e-ccdff25947f5"},"vehicle_type_id":"4","last_reported":1744661463,"current_range_meters":16800,"station_id":"ce4bhlh2rcd13ifvqgig","pricing_plan_id":"cebpf4jnsgd1na2vs0mg"},{"bike_id":"4b5a4f10-701e-42d6-be46-8eb892c465ed","system_id":"levelo_inurba_marseille","lat":43.32655,"lon":5.40998,"is_reserved":false,"is_disabled":false,"rental_uris":{"android":"levelo://app?vid=4b5a4f10-701e-42d6-be46-8eb892c465ed","ios":"levelo://app?vid=4b5a4f10-701e-42d6-be46-8eb892c465ed"},"vehicle_type_id":"4","last_reported":1744661463,"current_range_meters":16400,"station_id":"ce4bhqh2rcd13ifvqhmg","pricing_plan_id":"cebpf4jnsgd1na2vs0mg"},{"bike_id":"e298fb17-60fe-4ee1-bc94-645f9b8b1bb4","system_id":"levelo_inurba_marseille","lat":43.2899,"lon":5.37624,"is_reserved":false,"is_disabled":false,"rental_uris":{"android":"levelo://app?vid=e298fb17-60fe-4ee1-bc94-645f9b8b1bb4","ios":"levelo://app?vid=e298fb17-60fe-4ee1-bc94-645f9b8b1bb4"},"vehicle_type_id":"4","last_reported":1744661463,"current_range_meters":16800,"station_id":"","pricing_plan_id":"cebpf4jnsgd1na2vs0mg"},{"bike_id":"49b5f6ea-a059-43a6-855a-f3b024f97555","system_id":"levelo_inurba_marseille","lat":43.27677,"lon":5.38874,"is_reserved":false,"is_disabled":false,"rental_uris":{"android":"levelo://app?vid=49b5f6ea-a059-43a6-855a-f3b024f97555","ios":"levelo://app?vid=49b5f6ea-a059-43a6-855a-f3b024f97555"},"vehicle_type_id":"4","last_reported":1744661463,"current_range_meters":17200,"station_id":"ce4bhi12rcd13ifvqfo0","pricing_plan_id":"cebpf4jnsgd1na2vs0mg"},{"bike_id":"387b3d88-f772-4a6b-a2da-436f829bf1f6","system_id":"levelo_inurba_marseille","lat":43.27368,"lon":5.36259,"is_reserved":false,"is_disabled":false,"rental_uris":{"android":"levelo://app?vid=387b3d88-f772-4a6b-a2da-436f829bf1f6","ios":"levelo://app?vid=387b3d88-f772-4a6b-a2da-436f829bf1f6"},"vehicle_type_id":"4","last_reported":1744661463,"current_range_meters":17200,"station_id":"ce4bhbh2rcd13ifvqeo0","pricing_plan_id":"cebpf4jnsgd1na2vs0mg"},{"bike_id":"216c0a2c-fab0-4352-94a0-14b77c387959","system_id":"levelo_inurba_marseille","lat":43.2469,"lon":5.38137,"is_reserved":false,"is_disabled":false,"rental_uris":{"android":"levelo://app?vid=216c0a2c-fab0-4352-94a0-14b77c387959","ios":"levelo://app?vid=216c0a2c-fab0-4352-94a0-14b77c387959"},"vehicle_type_id":"4","last_reported":1744661463,"current_range_meters":17200,"station_id":"ce4bhih2rcd13ifvqfr0","pricing_plan_id":"cebpf4jnsgd1na2vs0mg"},{"bike_id":"d2d37f01-fa46-4fbc-a721-7789f4003663","system_id":"levelo_inurba_marseille","lat":43.24994,"lon":5.38999,"is_reserved":false,"is_disabled":false,"rental_uris":{"android":"levelo://app?vid=d2d37f01-fa46-4fbc-a721-7789f4003663","ios":"levelo://app?vid=d2d37f01-fa46-4fbc-a721-7789f4003663"},"vehicle_type_id":"4","last_reported":1744661463,"current_range_meters":17200,"station_id":"","pricing_plan_id":"cebpf4jnsgd1na2vs0mg"},{"bike_id":"c8e984f3-79bc-47f3-b161-ec088e899012","system_id":"levelo_inurba_marseille","lat":43.26943,"lon":5.40261,"is_reserved":false,"is_disabled":false,"rental_uris":{"android":"levelo://app?vid=c8e984f3-79bc-47f3-b161-ec088e899012","ios":"levelo://app?vid=c8e984f3-79bc-47f3-b161-ec088e899012"},"vehicle_type_id":"4","last_reported":1744661463,"current_range_meters":17200,"station_id":"cjm6bp8fraef2m0cb0m0","pricing_plan_id":"cebpf4jnsgd1na2vs0mg"},{"bike_id":"88f894bb-59b1-4a36-879a-be2d8520ef7a","system_id":"levelo_inurba_marseille","lat":43.30646,"lon":5.40052,"is_reserved":false,"is_disabled":false,"rental_uris":{"android":"levelo://app?vid=88f894bb-59b1-4a36-879a-be2d8520ef7a","ios":"levelo://app?vid=88f894bb-59b1-4a36-879a-be2d8520ef7a"},"vehicle_type_id":"4","last_reported":1744661463,"current_range_meters":17200,"station_id":"ce4bh112rcd13ifvqda0","pricing_plan_id":"cebpf4jnsgd1na2vs0mg"},{"bike_id":"205a676e-388e-4b5d-b5d4-92bca6b76c07","system_id":"levelo_inurba_marseille","lat":43.31155,"lon":5.38016,"is_reserved":false,"is_disabled":true,"rental_uris":{"android":"levelo://app?vid=205a676e-388e-4b5d-b5d4-92bca6b76c07","ios":"levelo://app?vid=205a676e-388e-4b5d-b5d4-92bca6b76c07"},"vehicle_type_id":"4","last_reported":1744661463,"current_range_meters":17200,"station_id":"","pricing_plan_id":"cebpf4jnsgd1na2vs0mg"},{"bike_id":"47a85634-40b2-4bd1-8409-1d1cf2f06bdc","system_id":"levelo_inurba_marseille","lat":43.2405,"lon":5.37785,"is_reserved":false,"is_disabled":false,"rental_uris":{"android":"levelo://app?vid=47a85634-40b2-4bd1-8409-1d1cf2f06bdc","ios":"levelo://app?vid=47a85634-40b2-4bd1-8409-1d1cf2f06bdc"},"vehicle_type_id":"4","last_reported":1744661463,"current_range_meters":17600,"station_id":"ce4bhnp2rcd13ifvqgvg","pricing_plan_id":"cebpf4jnsgd1na2vs0mg"},{"bike_id":"488ca2ad-29ab-4fd5-8ece-7e4ac0dd5749","system_id":"levelo_inurba_marseille","lat":43.28674,"lon":5.3866,"is_reserved":false,"is_disabled":false,"rental_uris":{"android":"levelo://app?vid=488ca2ad-29ab-4fd5-8ece-7e4ac0dd5749","ios":"levelo://app?vid=488ca2ad-29ab-4fd5-8ece-7e4ac0dd5749"},"vehicle_type_id":"4","last_reported":1744661463,"current_range_meters":17600,"station_id":"ce4bh492rcd13ifvqdug","pricing_plan_id":"cebpf4jnsgd1na2vs0mg"},{"bike_id":"821623c5-bbfa-441f-a7e8-552067b34bea","system_id":"levelo_inurba_marseille","lat":43.30537,"lon":5.36549,"is_reserved":false,"is_disabled":false,"rental_uris":{"android":"levelo://app?vid=821623c5-bbfa-441f-a7e8-552067b34bea","ios":"levelo://app?vid=821623c5-bbfa-441f-a7e8-552067b34bea"},"vehicle_type_id":"4","last_reported":1744661463,"current_range_meters":17600,"station_id":"ce4bgs12rcd13ifvqcag","pricing_plan_id":"cebpf4jnsgd1na2vs0mg"},{"bike_id":"b6ed0a66-3ddf-4db3-97da-b5c4b0ebe94b","system_id":"levelo_inurba_marseille","lat":43.31176,"lon":5.38714,"is_reserved":false,"is_disabled":false,"rental_uris":{"android":"levelo://app?vid=b6ed0a66-3ddf-4db3-97da-b5c4b0ebe94b","ios":"levelo://app?vid=b6ed0a66-3ddf-4db3-97da-b5c4b0ebe94b"},"vehicle_type_id":"4","last_reported":1744661463,"current_range_meters":17200,"station_id":"ce4bgv12rcd13ifvqcp0","pricing_plan_id":"cebpf4jnsgd1na2vs0mg"},{"bike_id":"690344b0-9f80-484a-9c0a-0cb50bc24e58","system_id":"levelo_inurba_marseille","lat":43.31524,"lon":5.3728,"is_reserved":false,"is_disabled":false,"rental_uris":{"android":"levelo://app?vid=690344b0-9f80-484a-9c0a-0cb50bc24e58","ios":"levelo://app?vid=690344b0-9f80-484a-9c0a-0cb50bc24e58"},"vehicle_type_id":"4","last_reported":1744661463,"current_range_meters":17600,"station_id":"","pricing_plan_id":"cebpf4jnsgd1na2vs0mg"},{"bike_id":"e3b29c86-a5aa-40cb-a450-01d079ca4748","system_id":"levelo_inurba_marseille","lat":43.29619,"lon":5.38092,"is_reserved":false,"is_disabled":false,"rental_uris":{"android":"levelo://app?vid=e3b29c86-a5aa-40cb-a450-01d079ca4748","ios":"levelo://app?vid=e3b29c86-a5aa-40cb-a450-01d079ca4748"},"vehicle_type_id":"4","last_reported":1744661463,"current_range_meters":17600,"station_id":"ce4bgl12rcd13ifvqbo0","pricing_plan_id":"cebpf4jnsgd1na2vs0mg"},{"bike_id":"f7719bba-a73f-48cd-93fa-ffe58e476c22","system_id":"levelo_inurba_marseille","lat":43.29015,"lon":5.38153,"is_reserved":false,"is_disabled":false,"rental_uris":{"android":"levelo://app?vid=f7719bba-a73f-48cd-93fa-ffe58e476c22","ios":"levelo://app?vid=f7719bba-a73f-48cd-93fa-ffe58e476c22"},"vehicle_type_id":"4","last_reported":1744661463,"current_range_meters":17600,"station_id":"ce4bh4p2rcd13ifvqe1g","pricing_plan_id":"cebpf4jnsgd1na2vs0mg"},{"bike_id":"da90772e-673b-48e1-9c97-282d5c4ebfeb","system_id":"levelo_inurba_marseille","lat":43.31781,"lon":5.39011,"is_reserved":false,"is_disabled":false,"rental_uris":{"android":"levelo://app?vid=da90772e-673b-48e1-9c97-282d5c4ebfeb","ios":"levelo://app?vid=da90772e-673b-48e1-9c97-282d5c4ebfeb"},"vehicle_type_id":"4","last_reported":1744661463,"current_range_meters":18000,"station_id":"ce4bhqp2rcd13ifvqhng","pricing_plan_id":"cebpf4jnsgd1na2vs0mg"},{"bike_id":"3ab9c95d-7500-4a1b-8add-6e9d58866300","system_id":"levelo_inurba_marseille","lat":43.24683,"lon":5.3815,"is_reserved":false,"is_disabled":false,"rental_uris":{"android":"levelo://app?vid=3ab9c95d-7500-4a1b-8add-6e9d58866300","ios":"levelo://app?vid=3ab9c95d-7500-4a1b-8add-6e9d58866300"},"vehicle_type_id":"4","last_reported":1744661463,"current_range_meters":18000,"station_id":"ce4bhih2rcd13ifvqfr0","pricing_plan_id":"cebpf4jnsgd1na2vs0mg"},{"bike_id":"17b543ad-6f08-496d-bdd2-6337f67f5fc8","system_id":"levelo_inurba_marseille","lat":43.28406,"lon":5.37534,"is_reserved":false,"is_disabled":false,"rental_uris":{"android":"levelo://app?vid=17b543ad-6f08-496d-bdd2-6337f67f5fc8","ios":"levelo://app?vid=17b543ad-6f08-496d-bdd2-6337f67f5fc8"},"vehicle_type_id":"4","last_reported":1744661463,"current_range_meters":18000,"station_id":"ce4bh412rcd13ifvqds0","pricing_plan_id":"cebpf4jnsgd1na2vs0mg"},{"bike_id":"7282ea70-0923-45fc-a703-28d7b3244700","system_id":"levelo_inurba_marseille","lat":43.298,"lon":5.40397,"is_reserved":false,"is_disabled":false,"rental_uris":{"android":"levelo://app?vid=7282ea70-0923-45fc-a703-28d7b3244700","ios":"levelo://app?vid=7282ea70-0923-45fc-a703-28d7b3244700"},"vehicle_type_id":"4","last_reported":1744661463,"current_range_meters":18000,"station_id":"ce4bh112rcd13ifvqd90","pricing_plan_id":"cebpf4jnsgd1na2vs0mg"},{"bike_id":"5447dc62-fd60-4585-9283-08e72056710b","system_id":"levelo_inurba_marseille","lat":43.248095,"lon":5.374592,"is_reserved":false,"is_disabled":false,"rental_uris":{"android":"levelo://app?vid=5447dc62-fd60-4585-9283-08e72056710b","ios":"levelo://app?vid=5447dc62-fd60-4585-9283-08e72056710b"},"vehicle_type_id":"4","last_reported":1744661463,"current_range_meters":18000,"station_id":"ce4bhgh2rcd13ifvqfb0","pricing_plan_id":"cebpf4jnsgd1na2vs0mg"},{"bike_id":"08ca8e63-35b8-4bc6-809a-f02ef51474bb","system_id":"levelo_inurba_marseille","lat":43.28689,"lon":5.37409,"is_reserved":false,"is_disabled":false,"rental_uris":{"android":"levelo://app?vid=08ca8e63-35b8-4bc6-809a-f02ef51474bb","ios":"levelo://app?vid=08ca8e63-35b8-4bc6-809a-f02ef51474bb"},"vehicle_type_id":"4","last_reported":1744661463,"current_range_meters":18800,"station_id":"ce4bh3p2rcd13ifvqdq0","pricing_plan_id":"cebpf4jnsgd1na2vs0mg"},{"bike_id":"01edb7e3-a611-40b3-909d-252893b12e50","system_id":"levelo_inurba_marseille","lat":43.29543,"lon":5.37488,"is_reserved":false,"is_disabled":false,"rental_uris":{"android":"levelo://app?vid=01edb7e3-a611-40b3-909d-252893b12e50","ios":"levelo://app?vid=01edb7e3-a611-40b3-909d-252893b12e50"},"vehicle_type_id":"4","last_reported":1744661463,"current_range_meters":18800,"station_id":"ce4bgkp2rcd13ifvqbmg","pricing_plan_id":"cebpf4jnsgd1na2vs0mg"},{"bike_id":"c1c136a9-3fe6-408a-a2d9-f5423d116933","system_id":"levelo_inurba_marseille","lat":43.28071,"lon":5.39619,"is_reserved":false,"is_disabled":false,"rental_uris":{"android":"levelo://app?vid=c1c136a9-3fe6-408a-a2d9-f5423d116933","ios":"levelo://app?vid=c1c136a9-3fe6-408a-a2d9-f5423d116933"},"vehicle_type_id":"4","last_reported":1744661463,"current_range_meters":18800,"station_id":"ce4bho12rcd13ifvqh2g","pricing_plan_id":"cebpf4jnsgd1na2vs0mg"},{"bike_id":"7eacb872-0584-4b06-8fad-feb612d3799a","system_id":"levelo_inurba_marseille","lat":43.29709,"lon":5.38131,"is_reserved":false,"is_disabled":false,"rental_uris":{"android":"levelo://app?vid=7eacb872-0584-4b06-8fad-feb612d3799a","ios":"levelo://app?vid=7eacb872-0584-4b06-8fad-feb612d3799a"},"vehicle_type_id":"4","last_reported":1744661463,"current_range_meters":18800,"station_id":"","pricing_plan_id":"cebpf4jnsgd1na2vs0mg"},{"bike_id":"c417c17e-b147-4f7d-a26a-1f902d139095","system_id":"levelo_inurba_marseille","lat":43.28152,"lon":5.4264,"is_reserved":false,"is_disabled":false,"rental_uris":{"android":"levelo://app?vid=c417c17e-b147-4f7d-a26a-1f902d139095","ios":"levelo://app?vid=c417c17e-b147-4f7d-a26a-1f902d139095"},"vehicle_type_id":"4","last_reported":1744661463,"current_range_meters":18800,"station_id":"ce4bhnh2rcd13ifvqgug","pricing_plan_id":"cebpf4jnsgd1na2vs0mg"},{"bike_id":"3cf53dd6-8b21-4e6c-ba52-3a63109baf27","system_id":"levelo_inurba_marseille","lat":43.29459,"lon":5.38511,"is_reserved":false,"is_disabled":false,"rental_uris":{"android":"levelo://app?vid=3cf53dd6-8b21-4e6c-ba52-3a63109baf27","ios":"levelo://app?vid=3cf53dd6-8b21-4e6c-ba52-3a63109baf27"},"vehicle_type_id":"4","last_reported":1744661463,"current_range_meters":18800,"station_id":"","pricing_plan_id":"cebpf4jnsgd1na2vs0mg"},{"bike_id":"686d071e-6131-4f0b-bcc4-ab3418cac800","system_id":"levelo_inurba_marseille","lat":43.2809,"lon":5.37866,"is_reserved":false,"is_disabled":false,"rental_uris":{"android":"levelo://app?vid=686d071e-6131-4f0b-bcc4-ab3418cac800","ios":"levelo://app?vid=686d071e-6131-4f0b-bcc4-ab3418cac800"},"vehicle_type_id":"4","last_reported":1744661463,"current_range_meters":18800,"station_id":"ce4bha12rcd13ifvqee0","pricing_plan_id":"cebpf4jnsgd1na2vs0mg"},{"bike_id":"90ade505-5308-452c-ace7-cee618f45386","system_id":"levelo_inurba_marseille","lat":43.25273,"lon":5.39933,"is_reserved":false,"is_disabled":false,"rental_uris":{"android":"levelo://app?vid=90ade505-5308-452c-ace7-cee618f45386","ios":"levelo://app?vid=90ade505-5308-452c-ace7-cee618f45386"},"vehicle_type_id":"4","last_reported":1744661463,"current_range_meters":18800,"station_id":"","pricing_plan_id":"cebpf4jnsgd1na2vs0mg"},{"bike_id":"fc148142-1661-4ecb-8127-f080f454a8c4","system_id":"levelo_inurba_marseille","lat":43.29267,"lon":5.38439,"is_reserved":false,"is_disabled":false,"rental_uris":{"android":"levelo://app?vid=fc148142-1661-4ecb-8127-f080f454a8c4","ios":"levelo://app?vid=fc148142-1661-4ecb-8127-f080f454a8c4"},"vehicle_type_id":"4","last_reported":1744661463,"current_range_meters":18800,"station_id":"ce4bh692rcd13ifvqea0","pricing_plan_id":"cebpf4jnsgd1na2vs0mg"},{"bike_id":"affbca8d-78d3-46b7-bfff-742df77116b5","system_id":"levelo_inurba_marseille","lat":43.287,"lon":5.374,"is_reserved":false,"is_disabled":false,"rental_uris":{"android":"levelo://app?vid=affbca8d-78d3-46b7-bfff-742df77116b5","ios":"levelo://app?vid=affbca8d-78d3-46b7-bfff-742df77116b5"},"vehicle_type_id":"4","last_reported":1744661463,"current_range_meters":19200,"station_id":"ce4bh3p2rcd13ifvqdq0","pricing_plan_id":"cebpf4jnsgd1na2vs0mg"},{"bike_id":"69ab595a-0d38-4c64-acbf-de2deb74927e","system_id":"levelo_inurba_marseille","lat":43.27938,"lon":5.39589,"is_reserved":false,"is_disabled":false,"rental_uris":{"android":"levelo://app?vid=69ab595a-0d38-4c64-acbf-de2deb74927e","ios":"levelo://app?vid=69ab595a-0d38-4c64-acbf-de2deb74927e"},"vehicle_type_id":"4","last_reported":1744661463,"current_range_meters":19200,"station_id":"ce4bhf92rcd13ifvqf40","pricing_plan_id":"cebpf4jnsgd1na2vs0mg"},{"bike_id":"7c9bd843-59d7-4f59-8ef8-6ed7a7e2c861","system_id":"levelo_inurba_marseille","lat":43.2439,"lon":5.37064,"is_reserved":false,"is_disabled":false,"rental_uris":{"android":"levelo://app?vid=7c9bd843-59d7-4f59-8ef8-6ed7a7e2c861","ios":"levelo://app?vid=7c9bd843-59d7-4f59-8ef8-6ed7a7e2c861"},"vehicle_type_id":"4","last_reported":1744661463,"current_range_meters":19200,"station_id":"ce4bhhh2rcd13ifvqfk0","pricing_plan_id":"cebpf4jnsgd1na2vs0mg"},{"bike_id":"013a924c-1ee5-4674-a305-ba7bd5a1d58b","system_id":"levelo_inurba_marseille","lat":43.23065,"lon":5.35494,"is_reserved":false,"is_disabled":false,"rental_uris":{"android":"levelo://app?vid=013a924c-1ee5-4674-a305-ba7bd5a1d58b","ios":"levelo://app?vid=013a924c-1ee5-4674-a305-ba7bd5a1d58b"},"vehicle_type_id":"4","last_reported":1744661463,"current_range_meters":19200,"station_id":"cpo3342slgdg3j2ifvpg","pricing_plan_id":"cebpf4jnsgd1na2vs0mg"},{"bike_id":"6bd9cdbd-cefd-4be0-afea-1d27cbf07448","system_id":"levelo_inurba_marseille","lat":43.2893,"lon":5.3963,"is_reserved":false,"is_disabled":false,"rental_uris":{"android":"levelo://app?vid=6bd9cdbd-cefd-4be0-afea-1d27cbf07448","ios":"levelo://app?vid=6bd9cdbd-cefd-4be0-afea-1d27cbf07448"},"vehicle_type_id":"4","last_reported":1744661463,"current_range_meters":19200,"station_id":"ce4bh3h2rcd13ifvqdn0","pricing_plan_id":"cebpf4jnsgd1na2vs0mg"},{"bike_id":"c8d24df4-b09f-432c-8af3-427efe4ed90b","system_id":"levelo_inurba_marseille","lat":43.30465,"lon":5.36711,"is_reserved":false,"is_disabled":false,"rental_uris":{"android":"levelo://app?vid=c8d24df4-b09f-432c-8af3-427efe4ed90b","ios":"levelo://app?vid=c8d24df4-b09f-432c-8af3-427efe4ed90b"},"vehicle_type_id":"4","last_reported":1744661463,"current_range_meters":19200,"station_id":"","pricing_plan_id":"cebpf4jnsgd1na2vs0mg"},{"bike_id":"beaec46a-1475-4097-9e96-b24ab4774e57","system_id":"levelo_inurba_marseille","lat":43.30509,"lon":5.37281,"is_reserved":false,"is_disabled":false,"rental_uris":{"android":"levelo://app?vid=beaec46a-1475-4097-9e96-b24ab4774e57","ios":"levelo://app?vid=beaec46a-1475-4097-9e96-b24ab4774e57"},"vehicle_type_id":"4","last_reported":1744661463,"current_range_meters":19200,"station_id":"ce4bgqh2rcd13ifvqc4g","pricing_plan_id":"cebpf4jnsgd1na2vs0mg"},{"bike_id":"32ef499e-ccb6-4e90-bac0-d4a1b914c43c","system_id":"levelo_inurba_marseille","lat":43.28738,"lon":5.36075,"is_reserved":false,"is_disabled":false,"rental_uris":{"android":"levelo://app?vid=32ef499e-ccb6-4e90-bac0-d4a1b914c43c","ios":"levelo://app?vid=32ef499e-ccb6-4e90-bac0-d4a1b914c43c"},"vehicle_type_id":"4","last_reported":1744661463,"current_range_meters":19200,"station_id":"cki0cbj6b192h4jlfktg","pricing_plan_id":"cebpf4jnsgd1na2vs0mg"},{"bike_id":"a487674e-98bb-4ed0-b64f-d5c0fe42ec5a","system_id":"levelo_inurba_marseille","lat":43.30383,"lon":5.37766,"is_reserved":false,"is_disabled":false,"rental_uris":{"android":"levelo://app?vid=a487674e-98bb-4ed0-b64f-d5c0fe42ec5a","ios":"levelo://app?vid=a487674e-98bb-4ed0-b64f-d5c0fe42ec5a"},"vehicle_type_id":"4","last_reported":1744661463,"current_range_meters":19200,"station_id":"","pricing_plan_id":"cebpf4jnsgd1na2vs0mg"},{"bike_id":"b8e27718-a768-4db1-b4db-4a904067afe9","system_id":"levelo_inurba_marseille","lat":43.29539,"lon":5.38547,"is_reserved":false,"is_disabled":false,"rental_uris":{"android":"levelo://app?vid=b8e27718-a768-4db1-b4db-4a904067afe9","ios":"levelo://app?vid=b8e27718-a768-4db1-b4db-4a904067afe9"},"vehicle_type_id":"4","last_reported":1744661463,"current_range_meters":18800,"station_id":"ce4bgih2rcd13ifvqba0","pricing_plan_id":"cebpf4jnsgd1na2vs0mg"},{"bike_id":"36876367-0653-48ca-8a5b-eb699405aa30","system_id":"levelo_inurba_marseille","lat":43.2884,"lon":5.39319,"is_reserved":false,"is_disabled":false,"rental_uris":{"android":"levelo://app?vid=36876367-0653-48ca-8a5b-eb699405aa30","ios":"levelo://app?vid=36876367-0653-48ca-8a5b-eb699405aa30"},"vehicle_type_id":"4","last_reported":1744661463,"current_range_meters":19200,"station_id":"ce4bh2p2rcd13ifvqdi0","pricing_plan_id":"cebpf4jnsgd1na2vs0mg"},{"bike_id":"40a8d0e0-d59d-4895-9f22-da5bd9b27bd8","system_id":"levelo_inurba_marseille","lat":43.2987,"lon":5.39747,"is_reserved":false,"is_disabled":false,"rental_uris":{"android":"levelo://app?vid=40a8d0e0-d59d-4895-9f22-da5bd9b27bd8","ios":"levelo://app?vid=40a8d0e0-d59d-4895-9f22-da5bd9b27bd8"},"vehicle_type_id":"4","last_reported":1744661463,"current_range_meters":18800,"station_id":"ce4bh0h2rcd13ifvqd50","pricing_plan_id":"cebpf4jnsgd1na2vs0mg"},{"bike_id":"447b0138-f51d-4e74-8d74-14be01eaa9ba","system_id":"levelo_inurba_marseille","lat":43.297837,"lon":5.393587,"is_reserved":false,"is_disabled":false,"rental_uris":{"android":"levelo://app?vid=447b0138-f51d-4e74-8d74-14be01eaa9ba","ios":"levelo://app?vid=447b0138-f51d-4e74-8d74-14be01eaa9ba"},"vehicle_type_id":"4","last_reported":1744661463,"current_range_meters":19200,"station_id":"chh1huq6cuj3fo74tm60","pricing_plan_id":"cebpf4jnsgd1na2vs0mg"},{"bike_id":"80dcdbb4-df1d-42b0-9b04-d3646089ba95","system_id":"levelo_inurba_marseille","lat":43.27926,"lon":5.39593,"is_reserved":false,"is_disabled":false,"rental_uris":{"android":"levelo://app?vid=80dcdbb4-df1d-42b0-9b04-d3646089ba95","ios":"levelo://app?vid=80dcdbb4-df1d-42b0-9b04-d3646089ba95"},"vehicle_type_id":"4","last_reported":1744661463,"current_range_meters":19600,"station_id":"ce4bhf92rcd13ifvqf40","pricing_plan_id":"cebpf4jnsgd1na2vs0mg"},{"bike_id":"0dbb8451-6fbf-4474-9639-bd687b68c8c2","system_id":"levelo_inurba_marseille","lat":43.32485,"lon":5.36879,"is_reserved":false,"is_disabled":false,"rental_uris":{"android":"levelo://app?vid=0dbb8451-6fbf-4474-9639-bd687b68c8c2","ios":"levelo://app?vid=0dbb8451-6fbf-4474-9639-bd687b68c8c2"},"vehicle_type_id":"4","last_reported":1744661463,"current_range_meters":19600,"station_id":"","pricing_plan_id":"cebpf4jnsgd1na2vs0mg"},{"bike_id":"8c981319-bef8-4009-85b0-56d64dccf3b2","system_id":"levelo_inurba_marseille","lat":43.27996,"lon":5.40011,"is_reserved":false,"is_disabled":false,"rental_uris":{"android":"levelo://app?vid=8c981319-bef8-4009-85b0-56d64dccf3b2","ios":"levelo://app?vid=8c981319-bef8-4009-85b0-56d64dccf3b2"},"vehicle_type_id":"4","last_reported":1744661463,"current_range_meters":19600,"station_id":"ce4bho92rcd13ifvqh4g","pricing_plan_id":"cebpf4jnsgd1na2vs0mg"},{"bike_id":"dae75ed9-5269-4b58-adc5-ffcf573b6ae1","system_id":"levelo_inurba_marseille","lat":43.30876,"lon":5.37217,"is_reserved":false,"is_disabled":true,"rental_uris":{"android":"levelo://app?vid=dae75ed9-5269-4b58-adc5-ffcf573b6ae1","ios":"levelo://app?vid=dae75ed9-5269-4b58-adc5-ffcf573b6ae1"},"vehicle_type_id":"4","last_reported":1744661463,"current_range_meters":19600,"station_id":"ce4bguh2rcd13ifvqckg","pricing_plan_id":"cebpf4jnsgd1na2vs0mg"},{"bike_id":"079b03f9-db21-40c1-9899-ccf83eb158be","system_id":"levelo_inurba_marseille","lat":43.30882,"lon":5.39629,"is_reserved":false,"is_disabled":false,"rental_uris":{"android":"levelo://app?vid=079b03f9-db21-40c1-9899-ccf83eb158be","ios":"levelo://app?vid=079b03f9-db21-40c1-9899-ccf83eb158be"},"vehicle_type_id":"4","last_reported":1744661463,"current_range_meters":19600,"station_id":"ce4bh012rcd13ifvqcv0","pricing_plan_id":"cebpf4jnsgd1na2vs0mg"},{"bike_id":"53837df3-73ec-4e40-89dc-fba795da7d2e","system_id":"levelo_inurba_marseille","lat":43.28355,"lon":5.38104,"is_reserved":false,"is_disabled":false,"rental_uris":{"android":"levelo://app?vid=53837df3-73ec-4e40-89dc-fba795da7d2e","ios":"levelo://app?vid=53837df3-73ec-4e40-89dc-fba795da7d2e"},"vehicle_type_id":"4","last_reported":1744661463,"current_range_meters":19600,"station_id":"ce4bh412rcd13ifvqdr0","pricing_plan_id":"cebpf4jnsgd1na2vs0mg"},{"bike_id":"05664e36-336b-404a-b8de-2ca42d4238f0","system_id":"levelo_inurba_marseille","lat":43.24984,"lon":5.38201,"is_reserved":false,"is_disabled":false,"rental_uris":{"android":"levelo://app?vid=05664e36-336b-404a-b8de-2ca42d4238f0","ios":"levelo://app?vid=05664e36-336b-404a-b8de-2ca42d4238f0"},"vehicle_type_id":"4","last_reported":1744661463,"current_range_meters":19600,"station_id":"","pricing_plan_id":"cebpf4jnsgd1na2vs0mg"},{"bike_id":"e2183b1e-b3f1-404b-b3d3-510ec3ef77c0","system_id":"levelo_inurba_marseille","lat":43.28063,"lon":5.37882,"is_reserved":false,"is_disabled":false,"rental_uris":{"android":"levelo://app?vid=e2183b1e-b3f1-404b-b3d3-510ec3ef77c0","ios":"levelo://app?vid=e2183b1e-b3f1-404b-b3d3-510ec3ef77c0"},"vehicle_type_id":"4","last_reported":1744661463,"current_range_meters":20000,"station_id":"","pricing_plan_id":"cebpf4jnsgd1na2vs0mg"},{"bike_id":"c154dee5-878f-4a1d-b96f-a0290d675357","system_id":"levelo_inurba_marseille","lat":43.32476,"lon":5.3655,"is_reserved":false,"is_disabled":false,"rental_uris":{"android":"levelo://app?vid=c154dee5-878f-4a1d-b96f-a0290d675357","ios":"levelo://app?vid=c154dee5-878f-4a1d-b96f-a0290d675357"},"vehicle_type_id":"4","last_reported":1744661463,"current_range_meters":20000,"station_id":"ce4bhs12rcd13ifvqhvg","pricing_plan_id":"cebpf4jnsgd1na2vs0mg"},{"bike_id":"2f47e1e9-c8a5-4f1d-954e-ccb95f739537","system_id":"levelo_inurba_marseille","lat":43.24069,"lon":5.37762,"is_reserved":false,"is_disabled":false,"rental_uris":{"android":"levelo://app?vid=2f47e1e9-c8a5-4f1d-954e-ccb95f739537","ios":"levelo://app?vid=2f47e1e9-c8a5-4f1d-954e-ccb95f739537"},"vehicle_type_id":"4","last_reported":1744661463,"current_range_meters":20000,"station_id":"ce4bhnp2rcd13ifvqgvg","pricing_plan_id":"cebpf4jnsgd1na2vs0mg"},{"bike_id":"9f815d1f-0f68-4c8f-b1b5-8479483fda1c","system_id":"levelo_inurba_marseille","lat":43.28408,"lon":5.37538,"is_reserved":false,"is_disabled":false,"rental_uris":{"android":"levelo://app?vid=9f815d1f-0f68-4c8f-b1b5-8479483fda1c","ios":"levelo://app?vid=9f815d1f-0f68-4c8f-b1b5-8479483fda1c"},"vehicle_type_id":"4","last_reported":1744661463,"current_range_meters":20000,"station_id":"ce4bh412rcd13ifvqds0","pricing_plan_id":"cebpf4jnsgd1na2vs0mg"},{"bike_id":"eaa5447c-88c1-4b44-ad62-292a375a78da","system_id":"levelo_inurba_marseille","lat":43.29909,"lon":5.38155,"is_reserved":false,"is_disabled":false,"rental_uris":{"android":"levelo://app?vid=eaa5447c-88c1-4b44-ad62-292a375a78da","ios":"levelo://app?vid=eaa5447c-88c1-4b44-ad62-292a375a78da"},"vehicle_type_id":"4","last_reported":1744661463,"current_range_meters":20000,"station_id":"ce4bgj12rcd13ifvqbc0","pricing_plan_id":"cebpf4jnsgd1na2vs0mg"},{"bike_id":"f2d060c4-528c-492a-9160-b1e7dba2cdf8","system_id":"levelo_inurba_marseille","lat":43.28716,"lon":5.37946,"is_reserved":false,"is_disabled":false,"rental_uris":{"android":"levelo://app?vid=f2d060c4-528c-492a-9160-b1e7dba2cdf8","ios":"levelo://app?vid=f2d060c4-528c-492a-9160-b1e7dba2cdf8"},"vehicle_type_id":"4","last_reported":1744661463,"current_range_meters":20000,"station_id":"ce4bh9p2rcd13ifvqec0","pricing_plan_id":"cebpf4jnsgd1na2vs0mg"},{"bike_id":"803ac8b3-e9c8-4809-9332-d502fce4e3b8","system_id":"levelo_inurba_marseille","lat":43.26805,"lon":5.40253,"is_reserved":false,"is_disabled":false,"rental_uris":{"android":"levelo://app?vid=803ac8b3-e9c8-4809-9332-d502fce4e3b8","ios":"levelo://app?vid=803ac8b3-e9c8-4809-9332-d502fce4e3b8"},"vehicle_type_id":"4","last_reported":1744661463,"current_range_meters":20000,"station_id":"ce501612rcd8frsf0b60","pricing_plan_id":"cebpf4jnsgd1na2vs0mg"},{"bike_id":"9769e90d-325c-4b4a-a25b-a96792ed5293","system_id":"levelo_inurba_marseille","lat":43.29773,"lon":5.39365,"is_reserved":false,"is_disabled":false,"rental_uris":{"android":"levelo://app?vid=9769e90d-325c-4b4a-a25b-a96792ed5293","ios":"levelo://app?vid=9769e90d-325c-4b4a-a25b-a96792ed5293"},"vehicle_type_id":"4","last_reported":1744661463,"current_range_meters":20000,"station_id":"chh1huq6cuj3fo74tm60","pricing_plan_id":"cebpf4jnsgd1na2vs0mg"},{"bike_id":"01fffd21-fd81-4530-88ee-89261bfaaebd","system_id":"levelo_inurba_marseille","lat":43.281093,"lon":5.378493,"is_reserved":false,"is_disabled":false,"rental_uris":{"android":"levelo://app?vid=01fffd21-fd81-4530-88ee-89261bfaaebd","ios":"levelo://app?vid=01fffd21-fd81-4530-88ee-89261bfaaebd"},"vehicle_type_id":"4","last_reported":1744661463,"current_range_meters":20000,"station_id":"ce4bha12rcd13ifvqee0","pricing_plan_id":"cebpf4jnsgd1na2vs0mg"},{"bike_id":"1f4ec533-a072-4fbb-9542-d54347fe352e","system_id":"levelo_inurba_marseille","lat":43.30541,"lon":5.36699,"is_reserved":false,"is_disabled":false,"rental_uris":{"android":"levelo://app?vid=1f4ec533-a072-4fbb-9542-d54347fe352e","ios":"levelo://app?vid=1f4ec533-a072-4fbb-9542-d54347fe352e"},"vehicle_type_id":"4","last_reported":1744661463,"current_range_meters":20000,"station_id":"ce4bgrp2rcd13ifvqc9g","pricing_plan_id":"cebpf4jnsgd1na2vs0mg"},{"bike_id":"504cf016-be85-40ae-bd6e-21fe1e837c30","system_id":"levelo_inurba_marseille","lat":43.32493,"lon":5.36577,"is_reserved":false,"is_disabled":false,"rental_uris":{"android":"levelo://app?vid=504cf016-be85-40ae-bd6e-21fe1e837c30","ios":"levelo://app?vid=504cf016-be85-40ae-bd6e-21fe1e837c30"},"vehicle_type_id":"4","last_reported":1744661463,"current_range_meters":20400,"station_id":"ce4bhs12rcd13ifvqhvg","pricing_plan_id":"cebpf4jnsgd1na2vs0mg"},{"bike_id":"f8a2aca9-a595-41b4-9746-786cf0fc2e07","system_id":"levelo_inurba_marseille","lat":43.295644,"lon":5.37508,"is_reserved":false,"is_disabled":true,"rental_uris":{"android":"levelo://app?vid=f8a2aca9-a595-41b4-9746-786cf0fc2e07","ios":"levelo://app?vid=f8a2aca9-a595-41b4-9746-786cf0fc2e07"},"vehicle_type_id":"4","last_reported":1744661463,"current_range_meters":20400,"station_id":"ce4bgh92rcd13ifvqb50","pricing_plan_id":"cebpf4jnsgd1na2vs0mg"},{"bike_id":"19c15561-15c8-46a6-b989-83b9818249ad","system_id":"levelo_inurba_marseille","lat":43.29587,"lon":5.38099,"is_reserved":false,"is_disabled":false,"rental_uris":{"android":"levelo://app?vid=19c15561-15c8-46a6-b989-83b9818249ad","ios":"levelo://app?vid=19c15561-15c8-46a6-b989-83b9818249ad"},"vehicle_type_id":"4","last_reported":1744661463,"current_range_meters":20400,"station_id":"ce4bgl12rcd13ifvqbo0","pricing_plan_id":"cebpf4jnsgd1na2vs0mg"},