{"last_updated":1702946138,"ttl":30,"version":"2.2","data":{"bikes":[{"bike_id":"4d7e5963-ee78-449c-b394-871559bb3a79","system_id":"levelo_inurba_marseille","lat":43.314811,"lon":5.373103,"is_reserved":false,"is_disabled":false,"rental_uris":{"android":"levelo://app?vid=4d7e5963-ee78-449c-b394-871559bb3a79","ios":"levelo://app?vid=4d7e5963-ee78-449c-b394-871559bb3a79"},"vehicle_type_id":"4","last_reported":1702946138,"current_range_meters":14800,"station_id":"ce4bgt12rcd13ifvqcd0","pricing_plan_id":"free"},{"bike_id":"51924c62-2025-45b5-9b0e-ad48e83d8fbc","system_id":"levelo_inurba_marseille","lat":43.314811,"lon":5.373104,"is_reserved":false,"is_disabled":false,"rental_uris":{"android":"levelo://app?vid=51924c62-2025-45b5-9b0e-ad48e83d8fbc","ios":"levelo://app?vid=51924c62-2025-45b5-9b0e-ad48e83d8fbc"},"vehicle_type_id":"4","last_reported":1702946138,"current_range_meters":3200,"station_id":"ce4bgt12rcd13ifvqcd0","pricing_plan_id":"free"},{"bike_id":"150842a4-974c-4344-ab16-a236e2bb7b3f","system_id":"levelo_inurba_marseille","lat":43.314819,"lon":5.373174,"is_reserved":false,"is_disabled":false,"rental_uris":{"android":"levelo://app?vid=150842a4-974c-4344-ab16-a236e2bb7b3f","ios":"levelo://app?vid=150842a4-974c-4344-ab16-a236e2bb7b3f"},"vehicle_type_id":"4","last_reported":1702946138,"current_range_meters":22800,"station_id":"","pricing_plan_id":"free"},{"bike_id":"a83cae18-f5e4-457f-b5bc-5922646e1fad","system_id":"levelo_inurba_marseille","lat":43.30889,"lon":5.37182,"is_reserved":false,"is_disabled":false,"rental_uris":{"android":"levelo://app?vid=a83cae18-f5e4-457f-b5bc-5922646e1fad","ios":"levelo://app?vid=a83cae18-f5e4-457f-b5bc-5922646e1fad"},"vehicle_type_id":"4","last_reported":1702946138,"current_range_meters":21200,"station_id":"ce4bguh2rcd13ifvqckg","pricing_plan_id":"free"},{"bike_id":"acd31840-efd3-422e-af8b-00186662955f","system_id":"levelo_inurba_marseille","lat":43.30888,"lon":5.37181,"is_reserved":false,"is_disabled":false,"rental_uris":{"android":"levelo://app?vid=acd31840-efd3-422e-af8b-00186662955f","ios":"levelo://app?vid=acd31840-efd3-422e-af8b-00186662955f"},"vehicle_type_id":"4","last_reported":1702946138,"current_range_meters":22400,"station_id":"ce4bguh2rcd13ifvqckg","pricing_plan_id":"free"},{"bike_id":"41ce6951-bbf9-4384-8625-8d3c34ace17a","system_id":"levelo_inurba_marseille","lat":43.309039,"lon":5.371797,"is_reserved":false,"is_disabled":false,"rental_uris":{"android":"levelo://app?vid=41ce6951-bbf9-4384-8625-8d3c34ace17a","ios":"levelo://app?vid=41ce6951-bbf9-4384-8625-8d3c34ace17a"},"vehicle_type_id":"4","last_reported":1702946138,"current_range_meters":29200,"station_id":"ce4bguh2rcd13ifvqckg","pricing_plan_id":"free"},{"bike_id":"dae4932e-fc2f-4b7f-8c94-54974cff6514","system_id":"levelo_inurba_marseille","lat":43.30892,"lon":5.37192,"is_reserved":false,"is_disabled":false,"rental_uris":{"android":"levelo://app?vid=dae4932e-fc2f-4b7f-8c94-54974cff6514","ios":"levelo://app?vid=dae4932e-fc2f-4b7f-8c94-54974cff6514"},"vehicle_type_id":"4","last_reported":1702946138,"current_range_meters":23600,"station_id":"ce4bguh2rcd13ifvqckg","pricing_plan_id":"free"},{"bike_id":"f545bdcb-3170-466b-b6ad-e9d820344efc","system_id":"levelo_inurba_marseille","lat":43.309039,"lon":5.371797,"is_reserved":false,"is_disabled":false,"rental_uris":{"android":"levelo://app?vid=f545bdcb-3170-466b-b6ad-e9d820344efc","ios":"levelo://app?vid=f545bdcb-3170-466b-b6ad-e9d820344efc"},"vehicle_type_id":"4","last_reported":1702946138,"current_range_meters":28000,"station_id":"ce4bguh2rcd13ifvqckg","pricing_plan_id":"free"},{"bike_id":"955e4ab2-16e5-44e8-a986-a2f50ff96c06","system_id":"levelo_inurba_marseille","lat":43.305382,"lon":5.365389,"is_reserved":false,"is_disabled":false,"rental_uris":{"android":"levelo://app?vid=955e4ab2-16e5-44e8-a986-a2f50ff96c06","ios":"levelo://app?vid=955e4ab2-16e5-44e8-a986-a2f50ff96c06"},"vehicle_type_id":"4","last_reported":1702946138,"current_range_meters":6000,"station_id":"","pricing_plan_id":"free"},{"bike_id":"f84936f0-f226-486c-a4e1-85a058cd29d3","system_id":"levelo_inurba_marseille","lat":43.305706,"lon":5.365654,"is_reserved":false,"is_disabled":false,"rental_uris":{"android":"levelo://app?vid=f84936f0-f226-486c-a4e1-85a058cd29d3","ios":"levelo://app?vid=f84936f0-f226-486c-a4e1-85a058cd29d3"},"vehicle_type_id":"4","last_reported":1702946138,"current_range_meters":28000,"station_id":"ce4bgs12rcd13ifvqcag","pricing_plan_id":"free"},{"bike_id":"e8551574-b543-4e28-a92f-df91f86783ee","system_id":"levelo_inurba_marseille","lat":43.311125,"lon":5.377624,"is_reserved":false,"is_disabled":false,"rental_uris":{"android":"levelo://app?vid=e8551574-b543-4e28-a92f-df91f86783ee","ios":"levelo://app?vid=e8551574-b543-4e28-a92f-df91f86783ee"},"vehicle_type_id":"4","last_reported":1702946138,"current_range_meters":26400,"station_id":"ce4bgt92rcd13ifvqcg0","pricing_plan_id":"free"},{"bike_id":"312d8022-e4a9-4105-82e8-9354ad706c61","system_id":"levelo_inurba_marseille","lat":43.31113,"lon":5.377644,"is_reserved":false,"is_disabled":false,"rental_uris":{"android":"levelo://app?vid=312d8022-e4a9-4105-82e8-9354ad706c61","ios":"levelo://app?vid=312d8022-e4a9-4105-82e8-9354ad706c61"},"vehicle_type_id":"4","last_reported":1702946138,"current_range_meters":400,"station_id":"ce4bgt92rcd13ifvqcg0","pricing_plan_id":"free"},{"bike_id":"3adb993f-6662-492d-977a-503bd7df04d5","system_id":"levelo_inurba_marseille","lat":43.3112,"lon":5.37767,"is_reserved":false,"is_disabled":false,"rental_uris":{"android":"levelo://app?vid=3adb993f-6662-492d-977a-503bd7df04d5","ios":"levelo://app?vid=3adb993f-6662-492d-977a-503bd7df04d5"},"vehicle_type_id":"4","last_reported":1702946138,"current_range_meters":5600,"station_id":"ce4bgt92rcd13ifvqcg0","pricing_plan_id":"free"},{"bike_id":"db432b97-bfb8-4393-9090-660a81c3af8c","system_id":"levelo_inurba_marseille","lat":43.3079,"lon":5.37651,"is_reserved":false,"is_disabled":false,"rental_uris":{"android":"levelo://app?vid=db432b97-bfb8-4393-9090-660a81c3af8c","ios":"levelo://app?vid=db432b97-bfb8-4393-9090-660a81c3af8c"},"vehicle_type_id":"4","last_reported":1702946138,"current_range_meters":2400,"station_id":"ce4bgv92rcd13ifvqcq0","pricing_plan_id":"free"},{"bike_id":"81f45c1b-53fa-4a58-a765-52e5c02a148f","system_id":"levelo_inurba_marseille","lat":43.307945,"lon":5.376487,"is_reserved":false,"is_disabled":false,"rental_uris":{"android":"levelo://app?vid=81f45c1b-53fa-4a58-a765-52e5c02a148f","ios":"levelo://app?vid=81f45c1b-53fa-4a58-a765-52e5c02a148f"},"vehicle_type_id":"4","last_reported":1702946138,"current_range_meters":30000,"station_id":"ce4bgv92rcd13ifvqcq0","pricing_plan_id":"free"},{"bike_id":"b7fa031c-b110-4ff0-a58d-bcb08e3a330f","system_id":"levelo_inurba_marseille","lat":43.307945,"lon":5.376487,"is_reserved":false,"is_disabled":false,"rental_uris":{"android":"levelo://app?vid=b7fa031c-b110-4ff0-a58d-bcb08e3a330f","ios":"levelo://app?vid=b7fa031c-b110-4ff0-a58d-bcb08e3a330f"},"vehicle_type_id":"4","last_reported":1702946138,"current_range_meters":0,"station_id":"ce4bgv92rcd13ifvqcq0","pricing_plan_id":"free"},{"bike_id":"30aa48f3-d1bd-405f-a58e-149d52cf7cad","system_id":"levelo_inurba_marseille","lat":43.30305,"lon":5.36903,"is_reserved":false,"is_disabled":false,"rental_uris":{"android":"levelo://app?vid=30aa48f3-d1bd-405f-a58e-149d52cf7cad","ios":"levelo://app?vid=30aa48f3-d1bd-405f-a58e-149d52cf7cad"},"vehicle_type_id":"4","last_reported":1702946138,"current_range_meters":20400,"station_id":"ce4bgqh2rcd13ifvqc5g","pricing_plan_id":"free"},{"bike_id":"7fff9f38-4835-4a37-922b-2626be2b3c5f","system_id":"levelo_inurba_marseille","lat":43.315334,"lon":5.380345,"is_reserved":false,"is_disabled":false,"rental_uris":{"android":"levelo://app?vid=7fff9f38-4835-4a37-922b-2626be2b3c5f","ios":"levelo://app?vid=7fff9f38-4835-4a37-922b-2626be2b3c5f"},"vehicle_type_id":"4","last_reported":1702946138,"current_range_meters":14800,"station_id":"ce4bhsp2rcd13ifvqi50","pricing_plan_id":"free"},{"bike_id":"a2cd93c5-960d-45d0-9350-f90118b65bd6","system_id":"levelo_inurba_marseille","lat":43.31539,"lon":5.38033,"is_reserved":false,"is_disabled":false,"rental_uris":{"android":"levelo://app?vid=a2cd93c5-960d-45d0-9350-f90118b65bd6","ios":"levelo://app?vid=a2cd93c5-960d-45d0-9350-f90118b65bd6"},"vehicle_type_id":"4","last_reported":1702946138,"current_range_meters":18000,"station_id":"ce4bhsp2rcd13ifvqi50","pricing_plan_id":"free"},{"bike_id":"c9a7da10-51dd-44fc-b231-07a2a56eaa55","system_id":"levelo_inurba_marseille","lat":43.301939,"lon":5.366286,"is_reserved":false,"is_disabled":false,"rental_uris":{"android":"levelo://app?vid=c9a7da10-51dd-44fc-b231-07a2a56eaa55","ios":"levelo://app?vid=c9a7da10-51dd-44fc-b231-07a2a56eaa55"},"vehicle_type_id":"4","last_reported":1702946138,"current_range_meters":29600,"station_id":"ce4bgrh2rcd13ifvqc8g","pricing_plan_id":"free"},{"bike_id":"5e10ae76-4e68-474d-80e0-a1ca36f4ce67","system_id":"levelo_inurba_marseille","lat":43.308012,"lon":5.381511,"is_reserved":false,"is_disabled":false,"rental_uris":{"android":"levelo://app?vid=5e10ae76-4e68-474d-80e0-a1ca36f4ce67","ios":"levelo://app?vid=5e10ae76-4e68-474d-80e0-a1ca36f4ce67"},"vehicle_type_id":"4","last_reported":1702946138,"current_range_meters":30800,"station_id":"ce4bgt12rcd13ifvqce0","pricing_plan_id":"free"},{"bike_id":"8b97c3f1-bb5f-4c4b-bae8-74bcb68230ca","system_id":"levelo_inurba_marseille","lat":43.310713,"lon":5.383265,"is_reserved":false,"is_disabled":false,"rental_uris":{"android":"levelo://app?vid=8b97c3f1-bb5f-4c4b-bae8-74bcb68230ca","ios":"levelo://app?vid=8b97c3f1-bb5f-4c4b-bae8-74bcb68230ca"},"vehicle_type_id":"4","last_reported":1702946138,"current_range_meters":0,"station_id":"","pricing_plan_id":"free"},{"bike_id":"45339936-a93c-4679-9636-b2c04e6f7a50","system_id":"levelo_inurba_marseille","lat":43.324771,"lon":5.36557,"is_reserved":false,"is_disabled":false,"rental_uris":{"android":"levelo://app?vid=45339936-a93c-4679-9636-b2c04e6f7a50","ios":"levelo://app?vid=45339936-a93c-4679-9636-b2c04e6f7a50"},"vehicle_type_id":"4","last_reported":1702946138,"current_range_meters":15200,"station_id":"ce4bhs12rcd13ifvqhvg","pricing_plan_id":"free"},{"bike_id":"64111b8b-0e7b-45b0-8c8f-7769ca39dbe7","system_id":"levelo_inurba_marseille","lat":43.313571,"lon":5.384829,"is_reserved":false,"is_disabled":false,"rental_uris":{"android":"levelo://app?vid=64111b8b-0e7b-45b0-8c8f-7769ca39dbe7","ios":"levelo://app?vid=64111b8b-0e7b-45b0-8c8f-7769ca39dbe7"},"vehicle_type_id":"4","last_reported":1702946138,"current_range_meters":26400,"station_id":"ce4bgt92rcd13ifvqcf0","pricing_plan_id":"free"},{"bike_id":"d440d492-7c4b-4617-99bc-3e1a43d765a5","system_id":"levelo_inurba_marseille","lat":43.313571,"lon":5.384829,"is_reserved":false,"is_disabled":false,"rental_uris":{"android":"levelo://app?vid=d440d492-7c4b-4617-99bc-3e1a43d765a5","ios":"levelo://app?vid=d440d492-7c4b-4617-99bc-3e1a43d765a5"},"vehicle_type_id":"4","last_reported":1702946138,"current_range_meters":27600,"station_id":"ce4bgt92rcd13ifvqcf0","pricing_plan_id":"free"},{"bike_id":"da537520-39a6-419b-9060-184b50000ed9","system_id":"levelo_inurba_marseille","lat":43.313677,"lon":5.384951,"is_reserved":false,"is_disabled":false,"rental_uris":{"android":"levelo://app?vid=da537520-39a6-419b-9060-184b50000ed9","ios":"levelo://app?vid=da537520-39a6-419b-9060-184b50000ed9"},"vehicle_type_id":"4","last_reported":1702946138,"current_range_meters":27200,"station_id":"ce4bgt92rcd13ifvqcf0","pricing_plan_id":"free"},{"bike_id":"5275ea88-3624-4c0d-91e6-e4385dca5ddb","system_id":"levelo_inurba_marseille","lat":43.313677,"lon":5.385016,"is_reserved":false,"is_disabled":false,"rental_uris":{"android":"levelo://app?vid=5275ea88-3624-4c0d-91e6-e4385dca5ddb","ios":"levelo://app?vid=5275ea88-3624-4c0d-91e6-e4385dca5ddb"},"vehicle_type_id":"4","last_reported":1702946138,"current_range_meters":26800,"station_id":"ce4bgt92rcd13ifvqcf0","pricing_plan_id":"free"},{"bike_id":"b7abe86b-cd2b-4151-b8b4-b40f1e853582","system_id":"levelo_inurba_marseille","lat":43.313611,"lon":5.385027,"is_reserved":false,"is_disabled":false,"rental_uris":{"android":"levelo://app?vid=b7abe86b-cd2b-4151-b8b4-b40f1e853582","ios":"levelo://app?vid=b7abe86b-cd2b-4151-b8b4-b40f1e853582"},"vehicle_type_id":"4","last_reported":1702946138,"current_range_meters":4800,"station_id":"ce4bgt92rcd13ifvqcf0","pricing_plan_id":"free"},{"bike_id":"2bb9245c-a54d-4e1e-8a8f-ab65d828fd16","system_id":"levelo_inurba_marseille","lat":43.29929,"lon":5.3653,"is_reserved":false,"is_disabled":false,"rental_uris":{"android":"levelo://app?vid=2bb9245c-a54d-4e1e-8a8f-ab65d828fd16","ios":"levelo://app?vid=2bb9245c-a54d-4e1e-8a8f-ab65d828fd16"},"vehicle_type_id":"4","last_reported":1702946138,"current_range_meters":28400,"station_id":"ce4bgm92rcd13ifvqbr0","pricing_plan_id":"free"},{"bike_id":"79d601df-f6ee-4561-a7b4-ed663d193864","system_id":"levelo_inurba_marseille","lat":43.299724,"lon":5.371829,"is_reserved":false,"is_disabled":false,"rental_uris":{"android":"levelo://app?vid=79d601df-f6ee-4561-a7b4-ed663d193864","ios":"levelo://app?vid=79d601df-f6ee-4561-a7b4-ed663d193864"},"vehicle_type_id":"4","last_reported":1702946138,"current_range_meters":6400,"station_id":"ce4bgr92rcd13ifvqc7g","pricing_plan_id":"free"},{"bike_id":"819cb438-2e9c-4e0b-902b-5e19ef554d5c","system_id":"levelo_inurba_marseille","lat":43.305509,"lon":5.384346,"is_reserved":false,"is_disabled":false,"rental_uris":{"android":"levelo://app?vid=819cb438-2e9c-4e0b-902b-5e19ef554d5c","ios":"levelo://app?vid=819cb438-2e9c-4e0b-902b-5e19ef554d5c"},"vehicle_type_id":"4","last_reported":1702946138,"current_range_meters":5200,"station_id":"ce4bgg92rcd13ifvqb30","pricing_plan_id":"free"},{"bike_id":"3e575783-9108-4f0a-8cc3-c4feec9ad827","system_id":"levelo_inurba_marseille","lat":43.311722,"lon":5.387247,"is_reserved":false,"is_disabled":false,"rental_uris":{"android":"levelo://app?vid=3e575783-9108-4f0a-8cc3-c4feec9ad827","ios":"levelo://app?vid=3e575783-9108-4f0a-8cc3-c4feec9ad827"},"vehicle_type_id":"4","last_reported":1702946138,"current_range_meters":16000,"station_id":"ce4bgv12rcd13ifvqcp0","pricing_plan_id":"free"},{"bike_id":"cbb5ddc9-3054-4006-868a-28069c439e14","system_id":"levelo_inurba_marseille","lat":43.311715,"lon":5.387148,"is_reserved":false,"is_disabled":false,"rental_uris":{"android":"levelo://app?vid=cbb5ddc9-3054-4006-868a-28069c439e14","ios":"levelo://app?vid=cbb5ddc9-3054-4006-868a-28069c439e14"},"vehicle_type_id":"4","last_reported":1702946138,"current_range_meters":11600,"station_id":"ce4bgv12rcd13ifvqcp0","pricing_plan_id":"free"},{"bike_id":"d865ce0a-cc28-4af2-a878-65550b342026","system_id":"levelo_inurba_marseille","lat":43.311722,"lon":5.387247,"is_reserved":false,"is_disabled":false,"rental_uris":{"android":"levelo://app?vid=d865ce0a-cc28-4af2-a878-65550b342026","ios":"levelo://app?vid=d865ce0a-cc28-4af2-a878-65550b342026"},"vehicle_type_id":"4","last_reported":1702946138,"current_range_meters":13600,"station_id":"ce4bgv12rcd13ifvqcp0","pricing_plan_id":"free"},{"bike_id":"820d16f2-d9d6-4664-aca7-dad1fcbc836e","system_id":"levelo_inurba_marseille","lat":43.311722,"lon":5.387247,"is_reserved":false,"is_disabled":false,"rental_uris":{"android":"levelo://app?vid=820d16f2-d9d6-4664-aca7-dad1fcbc836e","ios":"levelo://app?vid=820d16f2-d9d6-4664-aca7-dad1fcbc836e"},"vehicle_type_id":"4","last_reported":1702946138,"current_range_meters":13600,"station_id":"ce4bgv12rcd13ifvqcp0","pricing_plan_id":"free"},{"bike_id":"11b62f67-a827-4afe-b218-13f451da0993","system_id":"levelo_inurba_marseille","lat":43.311722,"lon":5.387247,"is_reserved":false,"is_disabled":false,"rental_uris":{"android":"levelo://app?vid=11b62f67-a827-4afe-b218-13f451da0993","ios":"levelo://app?vid=11b62f67-a827-4afe-b218-13f451da0993"},"vehicle_type_id":"4","last_reported":1702946138,"current_range_meters":29600,"station_id":"ce4bgv12rcd13ifvqcp0","pricing_plan_id":"free"},{"bike_id":"e66617a4-437e-4611-bcde-9766d1b74975","system_id":"levelo_inurba_marseille","lat":43.322872,"lon":5.382756,"is_reserved":false,"is_disabled":false,"rental_uris":{"android":"levelo://app?vid=e66617a4-437e-4611-bcde-9766d1b74975","ios":"levelo://app?vid=e66617a4-437e-4611-bcde-9766d1b74975"},"vehicle_type_id":"4","last_reported":1702946138,"current_range_meters":30400,"station_id":"ce4bhr12rcd13ifvqhqg","pricing_plan_id":"free"},{"bike_id":"7c176465-6945-4436-928c-4712c4de2d86","system_id":"levelo_inurba_marseille","lat":43.297163,"lon":5.365866,"is_reserved":false,"is_disabled":false,"rental_uris":{"android":"levelo://app?vid=7c176465-6945-4436-928c-4712c4de2d86","ios":"levelo://app?vid=7c176465-6945-4436-928c-4712c4de2d86"},"vehicle_type_id":"4","last_reported":1702946138,"current_range_meters":26400,"station_id":"ce4bgn12rcd13ifvqbt0","pricing_plan_id":"free"},{"bike_id":"6d85332b-7fb3-42bf-91c3-981a57630acd","system_id":"levelo_inurba_marseille","lat":43.309589,"lon":5.390258,"is_reserved":false,"is_disabled":false,"rental_uris":{"android":"levelo://app?vid=6d85332b-7fb3-42bf-91c3-981a57630acd","ios":"levelo://app?vid=6d85332b-7fb3-42bf-91c3-981a57630acd"},"vehicle_type_id":"4","last_reported":1702946138,"current_range_meters":30000,"station_id":"ce4bgup2rcd13ifvqco0","pricing_plan_id":"free"},{"bike_id":"6b63a6f8-f74e-433d-9e69-f408dd343e1e","system_id":"levelo_inurba_marseille","lat":43.317557,"lon":5.390173,"is_reserved":false,"is_disabled":false,"rental_uris":{"android":"levelo://app?vid=6b63a6f8-f74e-433d-9e69-f408dd343e1e","ios":"levelo://app?vid=6b63a6f8-f74e-433d-9e69-f408dd343e1e"},"vehicle_type_id":"4","last_reported":1702946138,"current_range_meters":18400,"station_id":"ce4bhqp2rcd13ifvqhng","pricing_plan_id":"free"},{"bike_id":"5a0dec12-6d40-456c-a336-a2b332cfce8e","system_id":"levelo_inurba_marseille","lat":43.317558,"lon":5.390135,"is_reserved":false,"is_disabled":false,"rental_uris":{"android":"levelo://app?vid=5a0dec12-6d40-456c-a336-a2b332cfce8e","ios":"levelo://app?vid=5a0dec12-6d40-456c-a336-a2b332cfce8e"},"vehicle_type_id":"4","last_reported":1702946138,"current_range_meters":31200,"station_id":"ce4bhqp2rcd13ifvqhng","pricing_plan_id":"free"},{"bike_id":"91352816-fb91-44e7-aa41-38c74758eacf","system_id":"levelo_inurba_marseille","lat":43.31758,"lon":5.39014,"is_reserved":false,"is_disabled":false,"rental_uris":{"android":"levelo://app?vid=91352816-fb91-44e7-aa41-38c74758eacf","ios":"levelo://app?vid=91352816-fb91-44e7-aa41-38c74758eacf"},"vehicle_type_id":"4","last_reported":1702946138,"current_range_meters":14400,"station_id":"ce4bhqp2rcd13ifvqhng","pricing_plan_id":"free"},{"bike_id":"e15474c2-e747-4189-9f34-58dedd7babf8","system_id":"levelo_inurba_marseille","lat":43.317612,"lon":5.39016,"is_reserved":false,"is_disabled":false,"rental_uris":{"android":"levelo://app?vid=e15474c2-e747-4189-9f34-58dedd7babf8","ios":"levelo://app?vid=e15474c2-e747-4189-9f34-58dedd7babf8"},"vehicle_type_id":"4","last_reported":1702946138,"current_range_meters":10400,"station_id":"ce4bhqp2rcd13ifvqhng","pricing_plan_id":"free"},{"bike_id":"708ff2df-6df8-437a-83a8-a660675bae4f","system_id":"levelo_inurba_marseille","lat":43.31757,"lon":5.39021,"is_reserved":false,"is_disabled":false,"rental_uris":{"android":"levelo://app?vid=708ff2df-6df8-437a-83a8-a660675bae4f","ios":"levelo://app?vid=708ff2df-6df8-437a-83a8-a660675bae4f"},"vehicle_type_id":"4","last_reported":1702946138,"current_range_meters":5600,"station_id":"ce4bhqp2rcd13ifvqhng","pricing_plan_id":"free"},{"bike_id":"2995b6bd-2ab4-4fad-ab59-670ee038577d","system_id":"levelo_inurba_marseille","lat":43.304274,"lon":5.388873,"is_reserved":false,"is_disabled":false,"rental_uris":{"android":"levelo://app?vid=2995b6bd-2ab4-4fad-ab59-670ee038577d","ios":"levelo://app?vid=2995b6bd-2ab4-4fad-ab59-670ee038577d"},"vehicle_type_id":"4","last_reported":1702946138,"current_range_meters":30800,"station_id":"ce4bgk12rcd13ifvqbi0","pricing_plan_id":"free"},{"bike_id":"2db684b6-3afb-41e1-b426-e20f8957c07c","system_id":"levelo_inurba_marseille","lat":43.304278,"lon":5.388868,"is_reserved":false,"is_disabled":false,"rental_uris":{"android":"levelo://app?vid=2db684b6-3afb-41e1-b426-e20f8957c07c","ios":"levelo://app?vid=2db684b6-3afb-41e1-b426-e20f8957c07c"},"vehicle_type_id":"4","last_reported":1702946138,"current_range_meters":24400,"station_id":"ce4bgk12rcd13ifvqbi0","pricing_plan_id":"free"},{"bike_id":"efba8d7e-8a9c-4db6-8522-52dc6495973d","system_id":"levelo_inurba_marseille","lat":43.304274,"lon":5.388873,"is_reserved":false,"is_disabled":false,"rental_uris":{"android":"levelo://app?vid=efba8d7e-8a9c-4db6-8522-52dc6495973d","ios":"levelo://app?vid=efba8d7e-8a9c-4db6-8522-52dc6495973d"},"vehicle_type_id":"4","last_reported":1702946138,"current_range_meters":0,"station_id":"ce4bgk12rcd13ifvqbi0","pricing_plan_id":"free"},{"bike_id":"10d7df7f-fd5d-419c-8505-c3bd4c2fcdec","system_id":"levelo_inurba_marseille","lat":43.296353,"lon":5.380077,"is_reserved":false,"is_disabled":false,"rental_uris":{"android":"levelo://app?vid=10d7df7f-fd5d-419c-8505-c3bd4c2fcdec","ios":"levelo://app?vid=10d7df7f-fd5d-419c-8505-c3bd4c2fcdec"},"vehicle_type_id":"4","last_reported":1702946138,"current_range_meters":19200,"station_id":"","pricing_plan_id":"free"},{"bike_id":"a5a022d2-c1e5-48a2-a373-fb2a93268330","system_id":"levelo_inurba_marseille","lat":43.303002,"lon":5.392142,"is_reserved":false,"is_disabled":false,"rental_uris":{"android":"levelo://app?vid=a5a022d2-c1e5-48a2-a373-fb2a93268330","ios":"levelo://app?vid=a5a022d2-c1e5-48a2-a373-fb2a93268330"},"vehicle_type_id":"4","last_reported":1702946138,"current_range_meters":27600,"station_id":"ce4bgkh2rcd13ifvqbk0","pricing_plan_id":"free"},{"bike_id":"53788122-5aaa-49df-a699-c43f2b808ed3","system_id":"levelo_inurba_marseille","lat":43.30094,"lon":5.39087,"is_reserved":false,"is_disabled":false,"rental_uris":{"android":"levelo://app?vid=53788122-5aaa-49df-a699-c43f2b808ed3","ios":"levelo://app?vid=53788122-5aaa-49df-a699-c43f2b808ed3"},"vehicle_type_id":"4","last_reported":1702946138,"current_range_meters":30800,"station_id":"ce4bh192rcd13ifvqdb0","pricing_plan_id":"free"},{"bike_id":"f962fa19-d9fe-4f81-bbce-17ef368e6843","system_id":"levelo_inurba_marseille","lat":43.298689,"lon":5.389103,"is_reserved":false,"is_disabled":false,"rental_uris":{"android":"levelo://app?vid=f962fa19-d9fe-4f81-bbce-17ef368e6843","ios":"levelo://app?vid=f962fa19-d9fe-4f81-bbce-17ef368e6843"},"vehicle_type_id":"4","last_reported":1702946138,"current_range_meters":0,"station_id":"","pricing_plan_id":"free"},{"bike_id":"00ee876a-08b6-4e00-9afd-1a9f313b4f55","system_id":"levelo_inurba_marseille","lat":43.291994,"lon":5.357886,"is_reserved":false,"is_disabled":false,"rental_uris":{"android":"levelo://app?vid=00ee876a-08b6-4e00-9afd-1a9f313b4f55","ios":"levelo://app?vid=00ee876a-08b6-4e00-9afd-1a9f313b4f55"},"vehicle_type_id":"4","last_reported":1702946138,"current_range_meters":13200,"station_id":"ce4bhb12rcd13ifvqel0","pricing_plan_id":"free"},{"bike_id":"26275ca4-8bbf-48e3-93cc-257e6f17a822","system_id":"levelo_inurba_marseille","lat":43.291994,"lon":5.357886,"is_reserved":false,"is_disabled":false,"rental_uris":{"android":"levelo://app?vid=26275ca4-8bbf-48e3-93cc-257e6f17a822","ios":"levelo://app?vid=26275ca4-8bbf-48e3-93cc-257e6f17a822"},"vehicle_type_id":"4","last_reported":1702946138,"current_range_meters":10800,"station_id":"ce4bhb12rcd13ifvqel0","pricing_plan_id":"free"},{"bike_id":"f01ea687-71a8-4b78-abcd-aa65ea39f700","system_id":"levelo_inurba_marseille","lat":43.291994,"lon":5.357886,"is_reserved":false,"is_disabled":false,"rental_uris":{"android":"levelo://app?vid=f01ea687-71a8-4b78-abcd-aa65ea39f700","ios":"levelo://app?vid=f01ea687-71a8-4b78-abcd-aa65ea39f700"},"vehicle_type_id":"4","last_reported":1702946138,"current_range_meters":18800,"station_id":"ce4bhb12rcd13ifvqel0","pricing_plan_id":"free"},{"bike_id":"961b34cd-8126-4c91-92ca-3725b7316673","system_id":"levelo_inurba_marseille","lat":43.29193,"lon":5.35804,"is_reserved":false,"is_disabled":false,"rental_uris":{"android":"levelo://app?vid=961b34cd-8126-4c91-92ca-3725b7316673","ios":"levelo://app?vid=961b34cd-8126-4c91-92ca-3725b7316673"},"vehicle_type_id":"4","last_reported":1702946138,"current_range_meters":29200,"station_id":"ce4bhb12rcd13ifvqel0","pricing_plan_id":"free"},{"bike_id":"68849c2f-1d7d-447f-a783-a32281cf2409","system_id":"levelo_inurba_marseille","lat":43.309038,"lon":5.396546,"is_reserved":false,"is_disabled":false,"rental_uris":{"android":"levelo://app?vid=68849c2f-1d7d-447f-a783-a32281cf2409","ios":"levelo://app?vid=68849c2f-1d7d-447f-a783-a32281cf2409"},"vehicle_type_id":"4","last_reported":1702946138,"current_range_meters":17600,"station_id":"ce4bh012rcd13ifvqcv0","pricing_plan_id":"free"},{"bike_id":"94203d3c-e9b5-4b65-87a9-d26886a88a03","system_id":"levelo_inurba_marseille","lat":43.309038,"lon":5.396546,"is_reserved":false,"is_disabled":false,"rental_uris":{"android":"levelo://app?vid=94203d3c-e9b5-4b65-87a9-d26886a88a03","ios":"levelo://app?vid=94203d3c-e9b5-4b65-87a9-d26886a88a03"},"vehicle_type_id":"4","last_reported":1702946138,"current_range_meters":11600,"station_id":"ce4bh012rcd13ifvqcv0","pricing_plan_id":"free"},{"bike_id":"75253405-6889-48cd-985a-cbc0ff756b36","system_id":"levelo_inurba_marseille","lat":43.309038,"lon":5.396546,"is_reserved":false,"is_disabled":false,"rental_uris":{"android":"levelo://app?vid=75253405-6889-48cd-985a-cbc0ff756b36","ios":"levelo://app?vid=75253405-6889-48cd-985a-cbc0ff756b36"},"vehicle_type_id":"4","last_reported":1702946138,"current_range_meters":12400,"station_id":"ce4bh012rcd13ifvqcv0","pricing_plan_id":"free"},{"bike_id":"1c073a34-7b59-4d8f-90d9-1d2b3a1762d0","system_id":"levelo_inurba_marseille","lat":43.309038,"lon":5.396546,"is_reserved":false,"is_disabled":false,"rental_uris":{"android":"levelo://app?vid=1c073a34-7b59-4d8f-90d9-1d2b3a1762d0","ios":"levelo://app?vid=1c073a34-7b59-4d8f-90d9-1d2b3a1762d0"},"vehicle_type_id":"4","last_reported":1702946138,"current_range_meters":23200,"station_id":"ce4bh012rcd13ifvqcv0","pricing_plan_id":"free"},{"bike_id":"fb1c149a-6792-40ea-b03d-219b09c88dcc","system_id":"levelo_inurba_marseille","lat":43.313291,"lon":5.396838,"is_reserved":false,"is_disabled":false,"rental_uris":{"android":"levelo://app?vid=fb1c149a-6792-40ea-b03d-219b09c88dcc","ios":"levelo://app?vid=fb1c149a-6792-40ea-b03d-219b09c88dcc"},"vehicle_type_id":"4","last_reported":1702946138,"current_range_meters":15600,"station_id":"ce4bgvp2rcd13ifvqcu0","pricing_plan_id":"free"},{"bike_id":"0a31ed2a-87c2-4e2f-8c31-84ef29d5cbe1","system_id":"levelo_inurba_marseille","lat":43.313291,"lon":5.396838,"is_reserved":false,"is_disabled":false,"rental_uris":{"android":"levelo://app?vid=0a31ed2a-87c2-4e2f-8c31-84ef29d5cbe1","ios":"levelo://app?vid=0a31ed2a-87c2-4e2f-8c31-84ef29d5cbe1"},"vehicle_type_id":"4","last_reported":1702946138,"current_range_meters":28400,"station_id":"ce4bgvp2rcd13ifvqcu0","pricing_plan_id":"free"},{"bike_id":"2dc42638-8d98-4b2e-bc8f-34e50ee0271c","system_id":"levelo_inurba_marseille","lat":43.309047,"lon":5.396551,"is_reserved":false,"is_disabled":false,"rental_uris":{"android":"levelo://app?vid=2dc42638-8d98-4b2e-bc8f-34e50ee0271c","ios":"levelo://app?vid=2dc42638-8d98-4b2e-bc8f-34e50ee0271c"},"vehicle_type_id":"4","last_reported":1702946138,"current_range_meters":20000,"station_id":"ce4bh012rcd13ifvqcv0","pricing_plan_id":"free"},{"bike_id":"3e1705c2-c377-4f28-9057-1f10f70aaada","system_id":"levelo_inurba_marseille","lat":43.309047,"lon":5.396551,"is_reserved":false,"is_disabled":false,"rental_uris":{"android":"levelo://app?vid=3e1705c2-c377-4f28-9057-1f10f70aaada","ios":"levelo://app?vid=3e1705c2-c377-4f28-9057-1f10f70aaada"},"vehicle_type_id":"4","last_reported":1702946138,"current_range_meters":31200,"station_id":"ce4bh012rcd13ifvqcv0","pricing_plan_id":"free"},{"bike_id":"c262cd5a-3208-43b8-a32c-ba64a9e0c1f0","system_id":"levelo_inurba_marseille","lat":43.313291,"lon":5.396838,"is_reserved":false,"is_disabled":false,"rental_uris":{"android":"levelo://app?vid=c262cd5a-3208-43b8-a32c-ba64a9e0c1f0","ios":"levelo://app?vid=c262cd5a-3208-43b8-a32c-ba64a9e0c1f0"},"vehicle_type_id":"4","last_reported":1702946138,"current_range_meters":12800,"station_id":"ce4bgvp2rcd13ifvqcu0","pricing_plan_id":"free"},{"bike_id":"241b1e6d-5e83-4075-922e-8e2eeb9bb922","system_id":"levelo_inurba_marseille","lat":43.313291,"lon":5.396838,"is_reserved":false,"is_disabled":false,"rental_uris":{"android":"levelo://app?vid=241b1e6d-5e83-4075-922e-8e2eeb9bb922","ios":"levelo://app?vid=241b1e6d-5e83-4075-922e-8e2eeb9bb922"},"vehicle_type_id":"4","last_reported":1702946138,"current_range_meters":30800,"station_id":"ce4bgvp2rcd13ifvqcu0","pricing_plan_id":"free"},{"bike_id":"3471c540-3e62-48be-8b92-7f4042482386","system_id":"levelo_inurba_marseille","lat":43.309047,"lon":5.396551,"is_reserved":false,"is_disabled":false,"rental_uris":{"android":"levelo://app?vid=3471c540-3e62-48be-8b92-7f4042482386","ios":"levelo://app?vid=3471c540-3e62-48be-8b92-7f4042482386"},"vehicle_type_id":"4","last_reported":1702946138,"current_range_meters":24000,"station_id":"ce4bh012rcd13ifvqcv0","pricing_plan_id":"free"},{"bike_id":"75fc995c-d6ad-4edb-84e7-a8381e11d2ac","system_id":"levelo_inurba_marseille","lat":43.309047,"lon":5.396551,"is_reserved":false,"is_disabled":false,"rental_uris":{"android":"levelo://app?vid=75fc995c-d6ad-4edb-84e7-a8381e11d2ac","ios":"levelo://app?vid=75fc995c-d6ad-4edb-84e7-a8381e11d2ac"},"vehicle_type_id":"4","last_reported":1702946138,"current_range_meters":5600,"station_id":"ce4bh012rcd13ifvqcv0","pricing_plan_id":"free"},{"bike_id":"4a0e26b0-0060-4f4e-9035-2c5f1d78c5ec","system_id":"levelo_inurba_marseille","lat":43.319179,"lon":5.407725,"is_reserved":false,"is_disabled":false,"rental_uris":{"android":"levelo://app?vid=4a0e26b0-0060-4f4e-9035-2c5f1d78c5ec","ios":"levelo://app?vid=4a0e26b0-0060-4f4e-9035-2c5f1d78c5ec"},"vehicle_type_id":"4","last_reported":1702946138,"current_range_meters":22800,"station_id":"ce4bhq12rcd13ifvqhig","pricing_plan_id":"free"},{"bike_id":"7dbfe391-a204-41f0-a9ff-31da0047d55a","system_id":"levelo_inurba_marseille","lat":43.313291,"lon":5.396838,"is_reserved":false,"is_disabled":false,"rental_uris":{"android":"levelo://app?vid=7dbfe391-a204-41f0-a9ff-31da0047d55a","ios":"levelo://app?vid=7dbfe391-a204-41f0-a9ff-31da0047d55a"},"vehicle_type_id":"4","last_reported":1702946138,"current_range_meters":22800,"station_id":"ce4bgvp2rcd13ifvqcu0","pricing_plan_id":"free"},{"bike_id":"ad40c9cd-ee26-448a-bf70-b24866ec9f46","system_id":"levelo_inurba_marseille","lat":43.309038,"lon":5.396546,"is_reserved":false,"is_disabled":false,"rental_uris":{"android":"levelo://app?vid=ad40c9cd-ee26-448a-bf70-b24866ec9f46","ios":"levelo://app?vid=ad40c9cd-ee26-448a-bf70-b24866ec9f46"},"vehicle_type_id":"4","last_reported":1702946138,"current_range_meters":28000,"station_id":"ce4bh012rcd13ifvqcv0","pricing_plan_id":"free"},{"bike_id":"a73810f6-fdca-4188-856e-b1fd99962948","system_id":"levelo_inurba_marseille","lat":43.29529,"lon":5.385581,"is_reserved":false,"is_disabled":false,"rental_uris":{"android":"levelo://app?vid=a73810f6-fdca-4188-856e-b1fd99962948","ios":"levelo://app?vid=a73810f6-fdca-4188-856e-b1fd99962948"},"vehicle_type_id":"4","last_reported":1702946138,"current_range_meters":31200,"station_id":"ce4bgih2rcd13ifvqba0","pricing_plan_id":"free"},{"bike_id":"9ee06e5d-7837-4c7f-b03b-bd709b3aebae","system_id":"levelo_inurba_marseille","lat":43.290779,"lon":5.371482,"is_reserved":false,"is_disabled":false,"rental_uris":{"android":"levelo://app?vid=9ee06e5d-7837-4c7f-b03b-bd709b3aebae","ios":"levelo://app?vid=9ee06e5d-7837-4c7f-b03b-bd709b3aebae"},"vehicle_type_id":"4","last_reported":1702946138,"current_range_meters":27600,"station_id":"ce4bh5p2rcd13ifvqe4g","pricing_plan_id":"free"},{"bike_id":"fe7de8bd-66cf-444c-8797-9f63d1fc89e8","system_id":"levelo_inurba_marseille","lat":43.290779,"lon":5.371482,"is_reserved":false,"is_disabled":false,"rental_uris":{"android":"levelo://app?vid=fe7de8bd-66cf-444c-8797-9f63d1fc89e8","ios":"levelo://app?vid=fe7de8bd-66cf-444c-8797-9f63d1fc89e8"},"vehicle_type_id":"4","last_reported":1702946138,"current_range_meters":29600,"station_id":"ce4bh5p2rcd13ifvqe4g","pricing_plan_id":"free"},{"bike_id":"0d7aa228-8e80-46a9-a143-fefab4b4d0e5","system_id":"levelo_inurba_marseille","lat":43.290624,"lon":5.359245,"is_reserved":false,"is_disabled":false,"rental_uris":{"android":"levelo://app?vid=0d7aa228-8e80-46a9-a143-fefab4b4d0e5","ios":"levelo://app?vid=0d7aa228-8e80-46a9-a143-fefab4b4d0e5"},"vehicle_type_id":"4","last_reported":1702946138,"current_range_meters":31200,"station_id":"ce4bha92rcd13ifvqeg0","pricing_plan_id":"free"},{"bike_id":"692829f7-7513-450f-bfaa-dc28808d2ad5","system_id":"levelo_inurba_marseille","lat":43.290624,"lon":5.359245,"is_reserved":false,"is_disabled":false,"rental_uris":{"android":"levelo://app?vid=692829f7-7513-450f-bfaa-dc28808d2ad5","ios":"levelo://app?vid=692829f7-7513-450f-bfaa-dc28808d2ad5"},"vehicle_type_id":"4","last_reported":1702946138,"current_range_meters":17600,"station_id":"ce4bha92rcd13ifvqeg0","pricing_plan_id":"free"},{"bike_id":"905eda3d-4a69-468b-bab2-9fb08a9c1611","system_id":"levelo_inurba_marseille","lat":43.290631,"lon":5.359244,"is_reserved":false,"is_disabled":false,"rental_uris":{"android":"levelo://app?vid=905eda3d-4a69-468b-bab2-9fb08a9c1611","ios":"levelo://app?vid=905eda3d-4a69-468b-bab2-9fb08a9c1611"},"vehicle_type_id":"4","last_reported":1702946138,"current_range_meters":15200,"station_id":"ce4bha92rcd13ifvqeg0","pricing_plan_id":"free"},{"bike_id":"8f2a3392-4653-472d-b96d-bfa5230ce791","system_id":"levelo_inurba_marseille","lat":43.290631,"lon":5.359244,"is_reserved":false,"is_disabled":false,"rental_uris":{"android":"levelo://app?vid=8f2a3392-4653-472d-b96d-bfa5230ce791","ios":"levelo://app?vid=8f2a3392-4653-472d-b96d-bfa5230ce791"},"vehicle_type_id":"4","last_reported":1702946138,"current_range_meters":27600,"station_id":"ce4bha92rcd13ifvqeg0","pricing_plan_id":"free"},{"bike_id":"d61671a1-3556-4008-aec8-6f8d22e5016d","system_id":"levelo_inurba_marseille","lat":43.290327,"lon":5.375711,"is_reserved":false,"is_disabled":false,"rental_uris":{"android":"levelo://app?vid=d61671a1-3556-4008-aec8-6f8d22e5016d","ios":"levelo://app?vid=d61671a1-3556-4008-aec8-6f8d22e5016d"},"vehicle_type_id":"4","last_reported":1702946138,"current_range_meters":27600,"station_id":"ce4bh692rcd13ifvqe90","pricing_plan_id":"free"},{"bike_id":"e117c80d-b045-4427-bf9a-1b1421eb7f1b","system_id":"levelo_inurba_marseille","lat":43.289184,"lon":5.366408,"is_reserved":false,"is_disabled":false,"rental_uris":{"android":"levelo://app?vid=e117c80d-b045-4427-bf9a-1b1421eb7f1b","ios":"levelo://app?vid=e117c80d-b045-4427-bf9a-1b1421eb7f1b"},"vehicle_type_id":"4","last_reported":1702946138,"current_range_meters":26000,"station_id":"ce4bhap2rcd13ifvqek0","pricing_plan_id":"free"},{"bike_id":"fd2923a5-378e-4c13-8bba-1af78e70a0f3","system_id":"levelo_inurba_marseille","lat":43.289468,"lon":5.363719,"is_reserved":false,"is_disabled":false,"rental_uris":{"android":"levelo://app?vid=fd2923a5-378e-4c13-8bba-1af78e70a0f3","ios":"levelo://app?vid=fd2923a5-378e-4c13-8bba-1af78e70a0f3"},"vehicle_type_id":"4","last_reported":1702946138,"current_range_meters":19600,"station_id":"ce4bhc92rcd13ifvqetg","pricing_plan_id":"free"},{"bike_id":"c852b530-6af4-4cce-a816-6a32aae60f39","system_id":"levelo_inurba_marseille","lat":43.289468,"lon":5.363719,"is_reserved":false,"is_disabled":false,"rental_uris":{"android":"levelo://app?vid=c852b530-6af4-4cce-a816-6a32aae60f39","ios":"levelo://app?vid=c852b530-6af4-4cce-a816-6a32aae60f39"},"vehicle_type_id":"4","last_reported":1702946138,"current_range_meters":31200,"station_id":"ce4bhc92rcd13ifvqetg","pricing_plan_id":"free"},{"bike_id":"8f5cb8e9-482d-4154-bfa8-069adf9e8b5d","system_id":"levelo_inurba_marseille","lat":43.304274,"lon":5.397513,"is_reserved":false,"is_disabled":false,"rental_uris":{"android":"levelo://app?vid=8f5cb8e9-482d-4154-bfa8-069adf9e8b5d","ios":"levelo://app?vid=8f5cb8e9-482d-4154-bfa8-069adf9e8b5d"},"vehicle_type_id":"4","last_reported":1702946138,"current_range_meters":22800,"station_id":"ce4bh092rcd13ifvqd20","pricing_plan_id":"free"},{"bike_id":"7f44e232-dd41-4037-8adc-57f975382d60","system_id":"levelo_inurba_marseille","lat":43.304274,"lon":5.397513,"is_reserved":false,"is_disabled":false,"rental_uris":{"android":"levelo://app?vid=7f44e232-dd41-4037-8adc-57f975382d60","ios":"levelo://app?vid=7f44e232-dd41-4037-8adc-57f975382d60"},"vehicle_type_id":"4","last_reported":1702946138,"current_range_meters":29600,"station_id":"ce4bh092rcd13ifvqd20","pricing_plan_id":"free"},{"bike_id":"25299760-3b30-4728-952d-8938f1c802c3","system_id":"levelo_inurba_marseille","lat":43.33042,"lon":5.38918,"is_reserved":false,"is_disabled":false,"rental_uris":{"android":"levelo://app?vid=25299760-3b30-4728-952d-8938f1c802c3","ios":"levelo://app?vid=25299760-3b30-4728-952d-8938f1c802c3"},"vehicle_type_id":"4","last_reported":1702946138,"current_range_meters":9200,"station_id":"ce4bhr92rcd13ifvqhrg","pricing_plan_id":"free"},{"bike_id":"bb4a18f7-dd2a-4ad5-8d6e-35c6c7f9f11b","system_id":"levelo_inurba_marseille","lat":43.330442,"lon":5.389148,"is_reserved":false,"is_disabled":false,"rental_uris":{"android":"levelo://app?vid=bb4a18f7-dd2a-4ad5-8d6e-35c6c7f9f11b","ios":"levelo://app?vid=bb4a18f7-dd2a-4ad5-8d6e-35c6c7f9f11b"},"vehicle_type_id":"4","last_reported":1702946138,"current_range_meters":19600,"station_id":"ce4bhr92rcd13ifvqhrg","pricing_plan_id":"free"},{"bike_id":"1c47ac22-7946-4ec5-aff8-d028d6b6dda7","system_id":"levelo_inurba_marseille","lat":43.290103,"lon":5.356114,"is_reserved":false,"is_disabled":false,"rental_uris":{"android":"levelo://app?vid=1c47ac22-7946-4ec5-aff8-d028d6b6dda7","ios":"levelo://app?vid=1c47ac22-7946-4ec5-aff8-d028d6b6dda7"},"vehicle_type_id":"4","last_reported":1702946138,"current_range_meters":25200,"station_id":"ce4bhb92rcd13ifvqen0","pricing_plan_id":"free"},{"bike_id":"0eb29cf8-6cad-4fbf-8127-a31ff2bbb89a","system_id":"levelo_inurba_marseille","lat":43.33043,"lon":5.38923,"is_reserved":false,"is_disabled":false,"rental_uris":{"android":"levelo://app?vid=0eb29cf8-6cad-4fbf-8127-a31ff2bbb89a","ios":"levelo://app?vid=0eb29cf8-6cad-4fbf-8127-a31ff2bbb89a"},"vehicle_type_id":"4","last_reported":1702946138,"current_range_meters":1200,"station_id":"ce4bhr92rcd13ifvqhrg","pricing_plan_id":"free"},{"bike_id":"d3196fdf-8737-473f-9719-62d4c0d9ff01","system_id":"levelo_inurba_marseille","lat":43.2951,"lon":5.39039,"is_reserved":false,"is_disabled":false,"rental_uris":{"android":"levelo://app?vid=d3196fdf-8737-473f-9719-62d4c0d9ff01","ios":"levelo://app?vid=d3196fdf-8737-473f-9719-62d4c0d9ff01"},"vehicle_type_id":"4","last_reported":1702946138,"current_range_meters":1600,"station_id":"ce4bh3p2rcd13ifvqdp0","pricing_plan_id":"free"},{"bike_id":"b041eeb3-f956-4887-8e62-7d404a9c525c","system_id":"levelo_inurba_marseille","lat":43.2901,"lon":5.381269,"is_reserved":false,"is_disabled":false,"rental_uris":{"android":"levelo://app?vid=b041eeb3-f956-4887-8e62-7d404a9c525c","ios":"levelo://app?vid=b041eeb3-f956-4887-8e62-7d404a9c525c"},"vehicle_type_id":"4","last_reported":1702946138,"current_range_meters":25200,"station_id":"ce4bh4p2rcd13ifvqe1g","pricing_plan_id":"free"},{"bike_id":"5ce40271-cc2b-4f65-8cdb-f3d3cadd98c4","system_id":"levelo_inurba_marseille","lat":43.2901,"lon":5.381269,"is_reserved":false,"is_disabled":false,"rental_uris":{"android":"levelo://app?vid=5ce40271-cc2b-4f65-8cdb-f3d3cadd98c4","ios":"levelo://app?vid=5ce40271-cc2b-4f65-8cdb-f3d3cadd98c4"},"vehicle_type_id":"4","last_reported":1702946138,"current_range_meters":12000,"station_id":"ce4bh4p2rcd13ifvqe1g","pricing_plan_id":"free"},{"bike_id":"24fb1dbc-7fad-48c3-81cf-8e086f27e028","system_id":"levelo_inurba_marseille","lat":43.337654,"lon":5.374292,"is_reserved":false,"is_disabled":false,"rental_uris":{"android":"levelo://app?vid=24fb1dbc-7fad-48c3-81cf-8e086f27e028","ios":"levelo://app?vid=24fb1dbc-7fad-48c3-81cf-8e086f27e028"},"vehicle_type_id":"4","last_reported":1702946138,"current_range_meters":11600,"station_id":"","pricing_plan_id":"free"},{"bike_id":"52555428-7738-4bc5-99ea-eb79b5202705","system_id":"levelo_inurba_marseille","lat":43.337623,"lon":5.374587,"is_reserved":false,"is_disabled":false,"rental_uris":{"android":"levelo://app?vid=52555428-7738-4bc5-99ea-eb79b5202705","ios":"levelo://app?vid=52555428-7738-4bc5-99ea-eb79b5202705"},"vehicle_type_id":"4","last_reported":1702946138,"current_range_meters":27200,"station_id":"","pricing_plan_id":"free"},{"bike_id":"92fa9fdb-e7fb-4200-9e21-5a3cdb311340","system_id":"levelo_inurba_marseille","lat":43.30642,"lon":5.401031,"is_reserved":false,"is_disabled":false,"rental_uris":{"android":"levelo://app?vid=92fa9fdb-e7fb-4200-9e21-5a3cdb311340","ios":"levelo://app?vid=92fa9fdb-e7fb-4200-9e21-5a3cdb311340"},"vehicle_type_id":"4","last_reported":1702946138,"current_range_meters":25600,"station_id":"ce4bh112rcd13ifvqda0","pricing_plan_id":"free"},{"bike_id":"f641b2e3-8376-41fb-b37b-1df7159e9b89","system_id":"levelo_inurba_marseille","lat":43.29041,"lon":5.399634,"is_reserved":false,"is_disabled":false,"rental_uris":{"android":"levelo://app?vid=f641b2e3-8376-41fb-b37b-1df7159e9b89","ios":"levelo://app?vid=f641b2e3-8376-41fb-b37b-1df7159e9b89"},"vehicle_type_id":"4","last_reported":1702946138,"current_range_meters":30000,"station_id":"ce4bh392rcd13ifvqdm0","pricing_plan_id":"free"},{"bike_id":"854b188b-b0df-4e79-af8b-1e0aa3224c91","system_id":"levelo_inurba_marseille","lat":43.306412,"lon":5.401035,"is_reserved":false,"is_disabled":false,"rental_uris":{"android":"levelo://app?vid=854b188b-b0df-4e79-af8b-1e0aa3224c91","ios":"levelo://app?vid=854b188b-b0df-4e79-af8b-1e0aa3224c91"},"vehicle_type_id":"4","last_reported":1702946138,"current_range_meters":29200,"station_id":"ce4bh112rcd13ifvqda0","pricing_plan_id":"free"},{"bike_id":"306b653d-29d2-4815-9710-9c451120149e","system_id":"levelo_inurba_marseille","lat":43.30128,"lon":5.398717,"is_reserved":false,"is_disabled":false,"rental_uris":{"android":"levelo://app?vid=306b653d-29d2-4815-9710-9c451120149e","ios":"levelo://app?vid=306b653d-29d2-4815-9710-9c451120149e"},"vehicle_type_id":"4","last_reported":1702946138,"current_range_meters":24000,"station_id":"ce4bh0h2rcd13ifvqd40","pricing_plan_id":"free"},{"bike_id":"8c943944-d3cd-46ca-a2f1-3e27be3d9a1f","system_id":"levelo_inurba_marseille","lat":43.28727,"lon":5.36078,"is_reserved":false,"is_disabled":false,"rental_uris":{"android":"levelo://app?vid=8c943944-d3cd-46ca-a2f1-3e27be3d9a1f","ios":"levelo://app?vid=8c943944-d3cd-46ca-a2f1-3e27be3d9a1f"},"vehicle_type_id":"4","last_reported":1702946138,"current_range_meters":30000,"station_id":"cki0cbj6b192h4jlfktg","pricing_plan_id":"free"},{"bike_id":"63d602d7-0141-407d-8a2b-bc3417e0c436","system_id":"levelo_inurba_marseille","lat":43.28727,"lon":5.36078,"is_reserved":false,"is_disabled":false,"rental_uris":{"android":"levelo://app?vid=63d602d7-0141-407d-8a2b-bc3417e0c436","ios":"levelo://app?vid=63d602d7-0141-407d-8a2b-bc3417e0c436"},"vehicle_type_id":"4","last_reported":1702946138,"current_range_meters":29200,"station_id":"cki0cbj6b192h4jlfktg","pricing_plan_id":"free"},{"bike_id":"630fd99b-f3f6-46af-8008-a278c6313617","system_id":"levelo_inurba_marseille","lat":43.28727,"lon":5.36078,"is_reserved":false,"is_disabled":false,"rental_uris":{"android":"levelo://app?vid=630fd99b-f3f6-46af-8008-a278c6313617","ios":"levelo://app?vid=630fd99b-f3f6-46af-8008-a278c6313617"},"vehicle_type_id":"4","last_reported":1702946138,"current_range_meters":31200,"station_id":"cki0cbj6b192h4jlfktg","pricing_plan_id":"free"},{"bike_id":"dfe0e63f-e657-4749-8691-a2708869d71d","system_id":"levelo_inurba_marseille","lat":43.28727,"lon":5.36078,"is_reserved":false,"is_disabled":false,"rental_uris":{"android":"levelo://app?vid=dfe0e63f-e657-4749-8691-a2708869d71d","ios":"levelo://app?vid=dfe0e63f-e657-4749-8691-a2708869d71d"},"vehicle_type_id":"4","last_reported":1702946138,"current_range_meters":31200,"station_id":"cki0cbj6b192h4jlfktg","pricing_plan_id":"free"},{"bike_id":"efaf1a33-0418-41bb-bb1b-3c38f1e9ce41","system_id":"levelo_inurba_marseille","lat":43.28727,"lon":5.36078,"is_reserved":false,"is_disabled":false,"rental_uris":{"android":"levelo://app?vid=efaf1a33-0418-41bb-bb1b-3c38f1e9ce41","ios":"levelo://app?vid=efaf1a33-0418-41bb-bb1b-3c38f1e9ce41"},"vehicle_type_id":"4","last_reported":1702946138,"current_range_meters":28800,"station_id":"cki0cbj6b192h4jlfktg","pricing_plan_id":"free"},{"bike_id":"2618ed52-aaab-4281-b032-c4cac9cbdffa","system_id":"levelo_inurba_marseille","lat":43.28727,"lon":5.36078,"is_reserved":false,"is_disabled":false,"rental_uris":{"android":"levelo://app?vid=2618ed52-aaab-4281-b032-c4cac9cbdffa","ios":"levelo://app?vid=2618ed52-aaab-4281-b032-c4cac9cbdffa"},"vehicle_type_id":"4","last_reported":1702946138,"current_range_meters":19600,"station_id":"cki0cbj6b192h4jlfktg","pricing_plan_id":"free"},{"bike_id":"57343f7a-b5a7-4c64-bde2-578dd3b7d51a","system_id":"levelo_inurba_marseille","lat":43.286961,"lon":5.373785,"is_reserved":false,"is_disabled":false,"rental_uris":{"android":"levelo://app?vid=57343f7a-b5a7-4c64-bde2-578dd3b7d51a","ios":"levelo://app?vid=57343f7a-b5a7-4c64-bde2-578dd3b7d51a"},"vehicle_type_id":"4","last_reported":1702946138,"current_range_meters":31200,"station_id":"ce4bh3p2rcd13ifvqdq0","pricing_plan_id":"free"},{"bike_id":"d4870390-4a1a-4573-b52c-b531074f3a4d","system_id":"levelo_inurba_marseille","lat":43.286593,"lon":5.363346,"is_reserved":false,"is_disabled":false,"rental_uris":{"android":"levelo://app?vid=d4870390-4a1a-4573-b52c-b531074f3a4d","ios":"levelo://app?vid=d4870390-4a1a-4573-b52c-b531074f3a4d"},"vehicle_type_id":"4","last_reported":1702946138,"current_range_meters":25200,"station_id":"ce4bhah2rcd13ifvqej0","pricing_plan_id":"free"},{"bike_id":"521285e8-3855-4b9b-8e19-feaa468eb000","system_id":"levelo_inurba_marseille","lat":43.286591,"lon":5.363346,"is_reserved":false,"is_disabled":false,"rental_uris":{"android":"levelo://app?vid=521285e8-3855-4b9b-8e19-feaa468eb000","ios":"levelo://app?vid=521285e8-3855-4b9b-8e19-feaa468eb000"},"vehicle_type_id":"4","last_reported":1702946138,"current_range_meters":22400,"station_id":"ce4bhah2rcd13ifvqej0","pricing_plan_id":"free"},{"bike_id":"dfb73974-63d4-4e7a-b53d-88c9dc54a2ff","system_id":"levelo_inurba_marseille","lat":43.28699,"lon":5.37389,"is_reserved":false,"is_disabled":false,"rental_uris":{"android":"levelo://app?vid=dfb73974-63d4-4e7a-b53d-88c9dc54a2ff","ios":"levelo://app?vid=dfb73974-63d4-4e7a-b53d-88c9dc54a2ff"},"vehicle_type_id":"4","last_reported":1702946138,"current_range_meters":4400,"station_id":"","pricing_plan_id":"free"},{"bike_id":"68bfb970-2c69-4fc7-804b-ac9577e74c2f","system_id":"levelo_inurba_marseille","lat":43.286591,"lon":5.363346,"is_reserved":false,"is_disabled":false,"rental_uris":{"android":"levelo://app?vid=68bfb970-2c69-4fc7-804b-ac9577e74c2f","ios":"levelo://app?vid=68bfb970-2c69-4fc7-804b-ac9577e74c2f"},"vehicle_type_id":"4","last_reported":1702946138,"current_range_meters":30000,"station_id":"ce4bhah2rcd13ifvqej0","pricing_plan_id":"free"},{"bike_id":"0363d981-df9c-4f77-b074-ca0db783c61b","system_id":"levelo_inurba_marseille","lat":43.302759,"lon":5.400793,"is_reserved":false,"is_disabled":false,"rental_uris":{"android":"levelo://app?vid=0363d981-df9c-4f77-b074-ca0db783c61b","ios":"levelo://app?vid=0363d981-df9c-4f77-b074-ca0db783c61b"},"vehicle_type_id":"4","last_reported":1702946138,"current_range_meters":28400,"station_id":"ce4bgvh2rcd13ifvqcs0","pricing_plan_id":"free"},{"bike_id":"e9ebd21d-2f09-4bd4-a7ea-a9182895e836","system_id":"levelo_inurba_marseille","lat":43.286039,"lon":5.370679,"is_reserved":false,"is_disabled":false,"rental_uris":{"android":"levelo://app?vid=e9ebd21d-2f09-4bd4-a7ea-a9182895e836","ios":"levelo://app?vid=e9ebd21d-2f09-4bd4-a7ea-a9182895e836"},"vehicle_type_id":"4","last_reported":1702946138,"current_range_meters":30000,"station_id":"ce4bht12rcd13ifvqi60","pricing_plan_id":"free"},{"bike_id":"04ce3566-187c-4390-b127-e0bde3fb4456","system_id":"levelo_inurba_marseille","lat":43.314034,"lon":5.403957,"is_reserved":false,"is_disabled":false,"rental_uris":{"android":"levelo://app?vid=04ce3566-187c-4390-b127-e0bde3fb4456","ios":"levelo://app?vid=04ce3566-187c-4390-b127-e0bde3fb4456"},"vehicle_type_id":"4","last_reported":1702946138,"current_range_meters":21200,"station_id":"","pricing_plan_id":"free"},{"bike_id":"2658a526-972e-4d0e-92e8-ce21438fe7e8","system_id":"levelo_inurba_marseille","lat":43.316828,"lon":5.404723,"is_reserved":false,"is_disabled":false,"rental_uris":{"android":"levelo://app?vid=2658a526-972e-4d0e-92e8-ce21438fe7e8","ios":"levelo://app?vid=2658a526-972e-4d0e-92e8-ce21438fe7e8"},"vehicle_type_id":"4","last_reported":1702946138,"current_range_meters":5200,"station_id":"ce4bh012rcd13ifvqd00","pricing_plan_id":"free"},{"bike_id":"d6b9d7a0-74c0-471b-b961-93ca99176db2","system_id":"levelo_inurba_marseille","lat":43.291994,"lon":5.392907,"is_reserved":false,"is_disabled":false,"rental_uris":{"android":"levelo://app?vid=d6b9d7a0-74c0-471b-b961-93ca99176db2","ios":"levelo://app?vid=d6b9d7a0-74c0-471b-b961-93ca99176db2"},"vehicle_type_id":"4","last_reported":1702946138,"current_range_meters":21200,"station_id":"ce4bh192rcd13ifvqdd0","pricing_plan_id":"free"},{"bike_id":"5e263bd3-4fca-4573-82ef-dffb96fe92d1","system_id":"levelo_inurba_marseille","lat":43.291994,"lon":5.392907,"is_reserved":false,"is_disabled":false,"rental_uris":{"android":"levelo://app?vid=5e263bd3-4fca-4573-82ef-dffb96fe92d1","ios":"levelo://app?vid=5e263bd3-4fca-4573-82ef-dffb96fe92d1"},"vehicle_type_id":"4","last_reported":1702946138,"current_range_meters":13600,"station_id":"ce4bh192rcd13ifvqdd0","pricing_plan_id":"free"},{"bike_id":"24d4422a-81c5-48f5-b5b1-96a084b48a13","system_id":"levelo_inurba_marseille","lat":43.291994,"lon":5.392907,"is_reserved":false,"is_disabled":false,"rental_uris":{"android":"levelo://app?vid=24d4422a-81c5-48f5-b5b1-96a084b48a13","ios":"levelo://app?vid=24d4422a-81c5-48f5-b5b1-96a084b48a13"},"vehicle_type_id":"4","last_reported":1702946138,"current_range_meters":27600,"station_id":"ce4bh192rcd13ifvqdd0","pricing_plan_id":"free"},{"bike_id":"07190b7a-889b-4ece-9de2-3e77370101a7","system_id":"levelo_inurba_marseille","lat":43.284647,"lon":5.358908,"is_reserved":false,"is_disabled":false,"rental_uris":{"android":"levelo://app?vid=07190b7a-889b-4ece-9de2-3e77370101a7","ios":"levelo://app?vid=07190b7a-889b-4ece-9de2-3e77370101a7"},"vehicle_type_id":"4","last_reported":1702946138,"current_range_meters":24400,"station_id":"ce4bhah2rcd13ifvqei0","pricing_plan_id":"free"},{"bike_id":"30904779-64fb-476a-b850-ba178f8b00ff","system_id":"levelo_inurba_marseille","lat":43.284538,"lon":5.358657,"is_reserved":false,"is_disabled":false,"rental_uris":{"android":"levelo://app?vid=30904779-64fb-476a-b850-ba178f8b00ff","ios":"levelo://app?vid=30904779-64fb-476a-b850-ba178f8b00ff"},"vehicle_type_id":"4","last_reported":1702946138,"current_range_meters":30000,"station_id":"ce4bhah2rcd13ifvqei0","pricing_plan_id":"free"},{"bike_id":"80e2b531-321a-4774-8446-d7e0f68d220c","system_id":"levelo_inurba_marseille","lat":43.284538,"lon":5.358657,"is_reserved":false,"is_disabled":false,"rental_uris":{"android":"levelo://app?vid=80e2b531-321a-4774-8446-d7e0f68d220c","ios":"levelo://app?vid=80e2b531-321a-4774-8446-d7e0f68d220c"},"vehicle_type_id":"4","last_reported":1702946138,"current_range_meters":21200,"station_id":"ce4bhah2rcd13ifvqei0","pricing_plan_id":"free"},{"bike_id":"072fab56-6636-4e31-98cc-47703655a518","system_id":"levelo_inurba_marseille","lat":43.284538,"lon":5.358657,"is_reserved":false,"is_disabled":false,"rental_uris":{"android":"levelo://app?vid=072fab56-6636-4e31-98cc-47703655a518","ios":"levelo://app?vid=072fab56-6636-4e31-98cc-47703655a518"},"vehicle_type_id":"4","last_reported":1702946138,"current_range_meters":22000,"station_id":"ce4bhah2rcd13ifvqei0","pricing_plan_id":"free"},{"bike_id":"a7d26807-2222-4ef6-a36f-8b7c10510ff5","system_id":"levelo_inurba_marseille","lat":43.284538,"lon":5.358657,"is_reserved":false,"is_disabled":false,"rental_uris":{"android":"levelo://app?vid=a7d26807-2222-4ef6-a36f-8b7c10510ff5","ios":"levelo://app?vid=a7d26807-2222-4ef6-a36f-8b7c10510ff5"},"vehicle_type_id":"4","last_reported":1702946138,"current_range_meters":30400,"station_id":"ce4bhah2rcd13ifvqei0","pricing_plan_id":"free"},{"bike_id":"b40a5144-5f1d-4bce-8f51-9a6bca163074","system_id":"levelo_inurba_marseille","lat":43.284538,"lon":5.358657,"is_reserved":false,"is_disabled":false,"rental_uris":{"android":"levelo://app?vid=b40a5144-5f1d-4bce-8f51-9a6bca163074","ios":"levelo://app?vid=b40a5144-5f1d-4bce-8f51-9a6bca163074"},"vehicle_type_id":"4","last_reported":1702946138,"current_range_meters":21200,"station_id":"ce4bhah2rcd13ifvqei0","pricing_plan_id":"free"},{"bike_id":"1158bbeb-4d5e-4653-8e4e-cb68f48ac1a2","system_id":"levelo_inurba_marseille","lat":43.284534,"lon":5.358662,"is_reserved":false,"is_disabled":false,"rental_uris":{"android":"levelo://app?vid=1158bbeb-4d5e-4653-8e4e-cb68f48ac1a2","ios":"levelo://app?vid=1158bbeb-4d5e-4653-8e4e-cb68f48ac1a2"},"vehicle_type_id":"4","last_reported":1702946138,"current_range_meters":24000,"station_id":"ce4bhah2rcd13ifvqei0","pricing_plan_id":"free"},{"bike_id":"8c22da29-f189-4442-a10e-a405b7dfb79c","system_id":"levelo_inurba_marseille","lat":43.284538,"lon":5.358657,"is_reserved":false,"is_disabled":false,"rental_uris":{"android":"levelo://app?vid=8c22da29-f189-4442-a10e-a405b7dfb79c","ios":"levelo://app?vid=8c22da29-f189-4442-a10e-a405b7dfb79c"},"vehicle_type_id":"4","last_reported":1702946138,"current_range_meters":31600,"station_id":"ce4bhah2rcd13ifvqei0","pricing_plan_id":"free"},{"bike_id":"bb5d5daa-16d4-4a21-afe7-fad6c53ef5f1","system_id":"levelo_inurba_marseille","lat":43.284534,"lon":5.358662,"is_reserved":false,"is_disabled":false,"rental_uris":{"android":"levelo://app?vid=bb5d5daa-16d4-4a21-afe7-fad6c53ef5f1","ios":"levelo://app?vid=bb5d5daa-16d4-4a21-afe7-fad6c53ef5f1"},"vehicle_type_id":"4","last_reported":1702946138,"current_range_meters":12800,"station_id":"ce4bhah2rcd13ifvqei0","pricing_plan_id":"free"},{"bike_id":"530569f6-d5d9-4010-9800-5edcc7c8d7eb","system_id":"levelo_inurba_marseille","lat":43.284534,"lon":5.358662,"is_reserved":false,"is_disabled":false,"rental_uris":{"android":"levelo://app?vid=530569f6-d5d9-4010-9800-5edcc7c8d7eb","ios":"levelo://app?vid=530569f6-d5d9-4010-9800-5edcc7c8d7eb"},"vehicle_type_id":"4","last_reported":1702946138,"current_range_meters":30400,"station_id":"ce4bhah2rcd13ifvqei0","pricing_plan_id":"free"},{"bike_id":"7e92cdd2-c209-44d9-ae8c-355788c3217b","system_id":"levelo_inurba_marseille","lat":43.284538,"lon":5.358657,"is_reserved":false,"is_disabled":false,"rental_uris":{"android":"levelo://app?vid=7e92cdd2-c209-44d9-ae8c-355788c3217b","ios":"levelo://app?vid=7e92cdd2-c209-44d9-ae8c-355788c3217b"},"vehicle_type_id":"4","last_reported":1702946138,"current_range_meters":15600,"station_id":"ce4bhah2rcd13ifvqei0","pricing_plan_id":"free"},{"bike_id":"dcec4479-2471-4129-b156-7e01bad3e2b8","system_id":"levelo_inurba_marseille","lat":43.28454,"lon":5.35896,"is_reserved":false,"is_disabled":false,"rental_uris":{"android":"levelo://app?vid=dcec4479-2471-4129-b156-7e01bad3e2b8","ios":"levelo://app?vid=dcec4479-2471-4129-b156-7e01bad3e2b8"},"vehicle_type_id":"4","last_reported":1702946138,"current_range_meters":30400,"station_id":"ce4bhah2rcd13ifvqei0","pricing_plan_id":"free"},{"bike_id":"ede12a09-c41d-4966-877a-3721b56c793d","system_id":"levelo_inurba_marseille","lat":43.284538,"lon":5.358657,"is_reserved":false,"is_disabled":false,"rental_uris":{"android":"levelo://app?vid=ede12a09-c41d-4966-877a-3721b56c793d","ios":"levelo://app?vid=ede12a09-c41d-4966-877a-3721b56c793d"},"vehicle_type_id":"4","last_reported":1702946138,"current_range_meters":31600,"station_id":"ce4bhah2rcd13ifvqei0","pricing_plan_id":"free"},{"bike_id":"dd127257-605b-4fa6-bce5-cdeb0e10a768","system_id":"levelo_inurba_marseille","lat":43.28617,"lon":5.351,"is_reserved":false,"is_disabled":false,"rental_uris":{"android":"levelo://app?vid=dd127257-605b-4fa6-bce5-cdeb0e10a768","ios":"levelo://app?vid=dd127257-605b-4fa6-bce5-cdeb0e10a768"},"vehicle_type_id":"4","last_reported":1702946138,"current_range_meters":30000,"station_id":"ce4bhch2rcd13ifvqeug","pricing_plan_id":"free"},{"bike_id":"e58ed123-3d61-478e-b72e-569f1c984170","system_id":"levelo_inurba_marseille","lat":43.28614,"lon":5.35106,"is_reserved":false,"is_disabled":false,"rental_uris":{"android":"levelo://app?vid=e58ed123-3d61-478e-b72e-569f1c984170","ios":"levelo://app?vid=e58ed123-3d61-478e-b72e-569f1c984170"},"vehicle_type_id":"4","last_reported":1702946138,"current_range_meters":6400,"station_id":"ce4bhch2rcd13ifvqeug","pricing_plan_id":"free"},{"bike_id":"584e9bca-5732-4df0-94c6-0bb479a1e3a3","system_id":"levelo_inurba_marseille","lat":43.283998,"lon":5.375062,"is_reserved":false,"is_disabled":false,"rental_uris":{"android":"levelo://app?vid=584e9bca-5732-4df0-94c6-0bb479a1e3a3","ios":"levelo://app?vid=584e9bca-5732-4df0-94c6-0bb479a1e3a3"},"vehicle_type_id":"4","last_reported":1702946138,"current_range_meters":31200,"station_id":"ce4bh412rcd13ifvqds0","pricing_plan_id":"free"},{"bike_id":"3495cc6a-f6e5-480c-97bf-11ba4418f59f","system_id":"levelo_inurba_marseille","lat":43.283998,"lon":5.375062,"is_reserved":false,"is_disabled":false,"rental_uris":{"android":"levelo://app?vid=3495cc6a-f6e5-480c-97bf-11ba4418f59f","ios":"levelo://app?vid=3495cc6a-f6e5-480c-97bf-11ba4418f59f"},"vehicle_type_id":"4","last_reported":1702946138,"current_range_meters":16400,"station_id":"ce4bh412rcd13ifvqds0","pricing_plan_id":"free"},{"bike_id":"2dfa5049-0e1b-4839-b5c3-156910a65dbd","system_id":"levelo_inurba_marseille","lat":43.33218,"lon":5.397067,"is_reserved":false,"is_disabled":false,"rental_uris":{"android":"levelo://app?vid=2dfa5049-0e1b-4839-b5c3-156910a65dbd","ios":"levelo://app?vid=2dfa5049-0e1b-4839-b5c3-156910a65dbd"},"vehicle_type_id":"4","last_reported":1702946138,"current_range_meters":3600,"station_id":"","pricing_plan_id":"free"},{"bike_id":"4fcdcafb-83fa-43dd-9d0f-05d4e9c24ccb","system_id":"levelo_inurba_marseille","lat":43.28399,"lon":5.37511,"is_reserved":false,"is_disabled":false,"rental_uris":{"android":"levelo://app?vid=4fcdcafb-83fa-43dd-9d0f-05d4e9c24ccb","ios":"levelo://app?vid=4fcdcafb-83fa-43dd-9d0f-05d4e9c24ccb"},"vehicle_type_id":"4","last_reported":1702946138,"current_range_meters":31200,"station_id":"ce4bh412rcd13ifvqds0","pricing_plan_id":"free"},{"bike_id":"8c128a76-b81a-48ba-878a-98035fb1909c","system_id":"levelo_inurba_marseille","lat":43.33722,"lon":5.39185,"is_reserved":false,"is_disabled":false,"rental_uris":{"android":"levelo://app?vid=8c128a76-b81a-48ba-878a-98035fb1909c","ios":"levelo://app?vid=8c128a76-b81a-48ba-878a-98035fb1909c"},"vehicle_type_id":"4","last_reported":1702946138,"current_range_meters":14800,"station_id":"ce4bhr92rcd13ifvqhsg","pricing_plan_id":"free"},{"bike_id":"37b2a7f5-afcc-4d29-a7ef-de7cdfd8b7b5","system_id":"levelo_inurba_marseille","lat":43.323464,"lon":5.406297,"is_reserved":false,"is_disabled":false,"rental_uris":{"android":"levelo://app?vid=37b2a7f5-afcc-4d29-a7ef-de7cdfd8b7b5","ios":"levelo://app?vid=37b2a7f5-afcc-4d29-a7ef-de7cdfd8b7b5"},"vehicle_type_id":"4","last_reported":1702946138,"current_range_meters":27600,"station_id":"ce4bhq92rcd13ifvqhjg","pricing_plan_id":"free"},{"bike_id":"6f032d8c-58eb-4279-a15c-3967ecd89213","system_id":"levelo_inurba_marseille","lat":43.323464,"lon":5.406297,"is_reserved":false,"is_disabled":false,"rental_uris":{"android":"levelo://app?vid=6f032d8c-58eb-4279-a15c-3967ecd89213","ios":"levelo://app?vid=6f032d8c-58eb-4279-a15c-3967ecd89213"},"vehicle_type_id":"4","last_reported":1702946138,"current_range_meters":10000,"station_id":"ce4bhq92rcd13ifvqhjg","pricing_plan_id":"free"},{"bike_id":"102f0cbd-e69b-4f59-b6c3-abd28d66ed46","system_id":"levelo_inurba_marseille","lat":43.323464,"lon":5.406297,"is_reserved":false,"is_disabled":false,"rental_uris":{"android":"levelo://app?vid=102f0cbd-e69b-4f59-b6c3-abd28d66ed46","ios":"levelo://app?vid=102f0cbd-e69b-4f59-b6c3-abd28d66ed46"},"vehicle_type_id":"4","last_reported":1702946138,"current_range_meters":31200,"station_id":"ce4bhq92rcd13ifvqhjg","pricing_plan_id":"free"},{"bike_id":"9dd59693-0983-4252-9b75-d9b98469925b","system_id":"levelo_inurba_marseille","lat":43.323464,"lon":5.406297,"is_reserved":false,"is_disabled":false,"rental_uris":{"android":"levelo://app?vid=9dd59693-0983-4252-9b75-d9b98469925b","ios":"levelo://app?vid=9dd59693-0983-4252-9b75-d9b98469925b"},"vehicle_type_id":"4","last_reported":1702946138,"current_range_meters":11200,"station_id":"ce4bhq92rcd13ifvqhjg","pricing_plan_id":"free"},{"bike_id":"dd5b92ed-5da6-403e-b09e-47c03d39c51d","system_id":"levelo_inurba_marseille","lat":43.29795,"lon":5.404086,"is_reserved":false,"is_disabled":false,"rental_uris":{"android":"levelo://app?vid=dd5b92ed-5da6-403e-b09e-47c03d39c51d","ios":"levelo://app?vid=dd5b92ed-5da6-403e-b09e-47c03d39c51d"},"vehicle_type_id":"4","last_reported":1702946138,"current_range_meters":28800,"station_id":"ce4bh112rcd13ifvqd90","pricing_plan_id":"free"},{"bike_id":"e193160a-6bd5-4841-a687-8160c936a272","system_id":"levelo_inurba_marseille","lat":43.298051,"lon":5.404098,"is_reserved":false,"is_disabled":false,"rental_uris":{"android":"levelo://app?vid=e193160a-6bd5-4841-a687-8160c936a272","ios":"levelo://app?vid=e193160a-6bd5-4841-a687-8160c936a272"},"vehicle_type_id":"4","last_reported":1702946138,"current_range_meters":3600,"station_id":"ce4bh112rcd13ifvqd90","pricing_plan_id":"free"},{"bike_id":"63937f00-79aa-4dea-877e-5d1eecd0759e","system_id":"levelo_inurba_marseille","lat":43.306412,"lon":5.401035,"is_reserved":false,"is_disabled":false,"rental_uris":{"android":"levelo://app?vid=63937f00-79aa-4dea-877e-5d1eecd0759e","ios":"levelo://app?vid=63937f00-79aa-4dea-877e-5d1eecd0759e"},"vehicle_type_id":"4","last_reported":1702946138,"current_range_meters":25200,"station_id":"ce4bh112rcd13ifvqda0","pricing_plan_id":"free"},{"bike_id":"2f6ea0d5-ec26-4e20-bbfd-31080063e237","system_id":"levelo_inurba_marseille","lat":43.292724,"lon":5.401131,"is_reserved":false,"is_disabled":false,"rental_uris":{"android":"levelo://app?vid=2f6ea0d5-ec26-4e20-bbfd-31080063e237","ios":"levelo://app?vid=2f6ea0d5-ec26-4e20-bbfd-31080063e237"},"vehicle_type_id":"4","last_reported":1702946138,"current_range_meters":4000,"station_id":"ce4bh312rcd13ifvqdk0","pricing_plan_id":"free"},{"bike_id":"abc44ce7-79dd-4a93-98b6-ca86a0f6ad2a","system_id":"levelo_inurba_marseille","lat":43.292724,"lon":5.401131,"is_reserved":false,"is_disabled":false,"rental_uris":{"android":"levelo://app?vid=abc44ce7-79dd-4a93-98b6-ca86a0f6ad2a","ios":"levelo://app?vid=abc44ce7-79dd-4a93-98b6-ca86a0f6ad2a"},"vehicle_type_id":"4","last_reported":1702946138,"current_range_meters":30800,"station_id":"ce4bh312rcd13ifvqdk0","pricing_plan_id":"free"},{"bike_id":"eeddfb47-9cf3-427c-80bb-70c31e23c3c1","system_id":"levelo_inurba_marseille","lat":43.292724,"lon":5.401131,"is_reserved":false,"is_disabled":false,"rental_uris":{"android":"levelo://app?vid=eeddfb47-9cf3-427c-80bb-70c31e23c3c1","ios":"levelo://app?vid=eeddfb47-9cf3-427c-80bb-70c31e23c3c1"},"vehicle_type_id":"4","last_reported":1702946138,"current_range_meters":31200,"station_id":"ce4bh312rcd13ifvqdk0","pricing_plan_id":"free"},{"bike_id":"c6a512cb-1793-48d0-aec8-b2aad0a97ba3","system_id":"levelo_inurba_marseille","lat":43.282754,"lon":5.350519,"is_reserved":false,"is_disabled":false,"rental_uris":{"android":"levelo://app?vid=c6a512cb-1793-48d0-aec8-b2aad0a97ba3","ios":"levelo://app?vid=c6a512cb-1793-48d0-aec8-b2aad0a97ba3"},"vehicle_type_id":"4","last_reported":1702946138,"current_range_meters":30000,"station_id":"ce4bhbp2rcd13ifvqerg","pricing_plan_id":"free"},{"bike_id":"ad110e7c-5d83-4411-a968-227182d86419","system_id":"levelo_inurba_marseille","lat":43.282754,"lon":5.350519,"is_reserved":false,"is_disabled":false,"rental_uris":{"android":"levelo://app?vid=ad110e7c-5d83-4411-a968-227182d86419","ios":"levelo://app?vid=ad110e7c-5d83-4411-a968-227182d86419"},"vehicle_type_id":"4","last_reported":1702946138,"current_range_meters":30800,"station_id":"ce4bhbp2rcd13ifvqerg","pricing_plan_id":"free"},{"bike_id":"06d227cf-ba21-4c27-92c8-72c3f03be2f9","system_id":"levelo_inurba_marseille","lat":43.280356,"lon":5.369456,"is_reserved":false,"is_disabled":false,"rental_uris":{"android":"levelo://app?vid=06d227cf-ba21-4c27-92c8-72c3f03be2f9","ios":"levelo://app?vid=06d227cf-ba21-4c27-92c8-72c3f03be2f9"},"vehicle_type_id":"4","last_reported":1702946138,"current_range_meters":31600,"station_id":"ce4bha12rcd13ifvqef0","pricing_plan_id":"free"},{"bike_id":"9650f641-6a27-44d6-8eb4-734879b4b659","system_id":"levelo_inurba_marseille","lat":43.280382,"lon":5.369291,"is_reserved":false,"is_disabled":false,"rental_uris":{"android":"levelo://app?vid=9650f641-6a27-44d6-8eb4-734879b4b659","ios":"levelo://app?vid=9650f641-6a27-44d6-8eb4-734879b4b659"},"vehicle_type_id":"4","last_reported":1702946138,"current_range_meters":27200,"station_id":"ce4bha12rcd13ifvqef0","pricing_plan_id":"free"},{"bike_id":"14e1b31b-c460-4fda-b8f3-d7d72b9acd89","system_id":"levelo_inurba_marseille","lat":43.281044,"lon":5.378308,"is_reserved":false,"is_disabled":false,"rental_uris":{"android":"levelo://app?vid=14e1b31b-c460-4fda-b8f3-d7d72b9acd89","ios":"levelo://app?vid=14e1b31b-c460-4fda-b8f3-d7d72b9acd89"},"vehicle_type_id":"4","last_reported":1702946138,"current_range_meters":31200,"station_id":"ce4bha12rcd13ifvqee0","pricing_plan_id":"free"},{"bike_id":"95867840-3d31-4770-b1d6-b17217d16dd8","system_id":"levelo_inurba_marseille","lat":43.281044,"lon":5.378308,"is_reserved":false,"is_disabled":false,"rental_uris":{"android":"levelo://app?vid=95867840-3d31-4770-b1d6-b17217d16dd8","ios":"levelo://app?vid=95867840-3d31-4770-b1d6-b17217d16dd8"},"vehicle_type_id":"4","last_reported":1702946138,"current_range_meters":31200,"station_id":"ce4bha12rcd13ifvqee0","pricing_plan_id":"free"},{"bike_id":"41a616d3-9671-47e6-a61a-79bc77bcedca","system_id":"levelo_inurba_marseille","lat":43.281044,"lon":5.378308,"is_reserved":false,"is_disabled":false,"rental_uris":{"android":"levelo://app?vid=41a616d3-9671-47e6-a61a-79bc77bcedca","ios":"levelo://app?vid=41a616d3-9671-47e6-a61a-79bc77bcedca"},"vehicle_type_id":"4","last_reported":1702946138,"current_range_meters":25200,"station_id":"ce4bha12rcd13ifvqee0","pricing_plan_id":"free"},{"bike_id":"2bbba5d2-76bd-49f3-a959-48acf3bfb674","system_id":"levelo_inurba_marseille","lat":43.281044,"lon":5.378308,"is_reserved":false,"is_disabled":false,"rental_uris":{"android":"levelo://app?vid=2bbba5d2-76bd-49f3-a959-48acf3bfb674","ios":"levelo://app?vid=2bbba5d2-76bd-49f3-a959-48acf3bfb674"},"vehicle_type_id":"4","last_reported":1702946138,"current_range_meters":31200,"station_id":"ce4bha12rcd13ifvqee0","pricing_plan_id":"free"},{"bike_id":"9feb3aef-d2a6-48d1-b246-cf93b10895ad","system_id":"levelo_inurba_marseille","lat":43.281044,"lon":5.378308,"is_reserved":false,"is_disabled":false,"rental_uris":{"android":"levelo://app?vid=9feb3aef-d2a6-48d1-b246-cf93b10895ad","ios":"levelo://app?vid=9feb3aef-d2a6-48d1-b246-cf93b10895ad"},"vehicle_type_id":"4","last_reported":1702946138,"current_range_meters":29600,"station_id":"ce4bha12rcd13ifvqee0","pricing_plan_id":"free"},{"bike_id":"9698e689-4b8e-4a73-8d7d-39bb6b2312fa","system_id":"levelo_inurba_marseille","lat":43.281044,"lon":5.378308,"is_reserved":false,"is_disabled":false,"rental_uris":{"android":"levelo://app?vid=9698e689-4b8e-4a73-8d7d-39bb6b2312fa","ios":"levelo://app?vid=9698e689-4b8e-4a73-8d7d-39bb6b2312fa"},"vehicle_type_id":"4","last_reported":1702946138,"current_range_meters":0,"station_id":"ce4bha12rcd13ifvqee0","pricing_plan_id":"free"},{"bike_id":"2e50529f-6a77-4cb5-b10f-9329295ccb6e","system_id":"levelo_inurba_marseille","lat":43.296263,"lon":5.40601,"is_reserved":false,"is_disabled":false,"rental_uris":{"android":"levelo://app?vid=2e50529f-6a77-4cb5-b10f-9329295ccb6e","ios":"levelo://app?vid=2e50529f-6a77-4cb5-b10f-9329295ccb6e"},"vehicle_type_id":"4","last_reported":1702946138,"current_range_meters":28000,"station_id":"ce4bh0h2rcd13ifvqd60","pricing_plan_id":"free"},{"bike_id":"db941e91-2ab0-49f9-ad25-0be6197f323f","system_id":"levelo_inurba_marseille","lat":43.296263,"lon":5.40601,"is_reserved":false,"is_disabled":false,"rental_uris":{"android":"levelo://app?vid=db941e91-2ab0-49f9-ad25-0be6197f323f","ios":"levelo://app?vid=db941e91-2ab0-49f9-ad25-0be6197f323f"},"vehicle_type_id":"4","last_reported":1702946138,"current_range_meters":15600,"station_id":"ce4bh0h2rcd13ifvqd60","pricing_plan_id":"free"},{"bike_id":"6d45343e-3021-4f65-88b1-307716d7b3d3","system_id":"levelo_inurba_marseille","lat":43.284462,"lon":5.392121,"is_reserved":false,"is_disabled":false,"rental_uris":{"android":"levelo://app?vid=6d45343e-3021-4f65-88b1-307716d7b3d3","ios":"levelo://app?vid=6d45343e-3021-4f65-88b1-307716d7b3d3"},"vehicle_type_id":"4","last_reported":1702946138,"current_range_meters":22400,"station_id":"ce4bhoh2rcd13ifvqh5g","pricing_plan_id":"free"},{"bike_id":"1991a3b4-10ec-4da5-9195-aa0f5d1ffb1c","system_id":"levelo_inurba_marseille","lat":43.285742,"lon":5.395004,"is_reserved":false,"is_disabled":false,"rental_uris":{"android":"levelo://app?vid=1991a3b4-10ec-4da5-9195-aa0f5d1ffb1c","ios":"levelo://app?vid=1991a3b4-10ec-4da5-9195-aa0f5d1ffb1c"},"vehicle_type_id":"4","last_reported":1702946138,"current_range_meters":8000,"station_id":"ce4bh292rcd13ifvqdg0","pricing_plan_id":"free"},{"bike_id":"7945c9bc-8705-4104-aacd-41e0e0a664d5","system_id":"levelo_inurba_marseille","lat":43.28573,"lon":5.394992,"is_reserved":false,"is_disabled":false,"rental_uris":{"android":"levelo://app?vid=7945c9bc-8705-4104-aacd-41e0e0a664d5","ios":"levelo://app?vid=7945c9bc-8705-4104-aacd-41e0e0a664d5"},"vehicle_type_id":"4","last_reported":1702946138,"current_range_meters":31200,"station_id":"ce4bh292rcd13ifvqdg0","pricing_plan_id":"free"},{"bike_id":"22c556e6-b7a3-4919-9d5d-ad3a0ec83137","system_id":"levelo_inurba_marseille","lat":43.326605,"lon":5.409903,"is_reserved":false,"is_disabled":false,"rental_uris":{"android":"levelo://app?vid=22c556e6-b7a3-4919-9d5d-ad3a0ec83137","ios":"levelo://app?vid=22c556e6-b7a3-4919-9d5d-ad3a0ec83137"},"vehicle_type_id":"4","last_reported":1702946138,"current_range_meters":16800,"station_id":"ce4bhpp2rcd13ifvqhgg","pricing_plan_id":"free"},{"bike_id":"873839ef-64b0-4ac8-9923-c1540cfeb4dc","system_id":"levelo_inurba_marseille","lat":43.304188,"lon":5.412904,"is_reserved":false,"is_disabled":false,"rental_uris":{"android":"levelo://app?vid=873839ef-64b0-4ac8-9923-c1540cfeb4dc","ios":"levelo://app?vid=873839ef-64b0-4ac8-9923-c1540cfeb4dc"},"vehicle_type_id":"4","last_reported":1702946138,"current_range_meters":27200,"station_id":"ce4bhop2rcd13ifvqh8g","pricing_plan_id":"free"},{"bike_id":"ebc382dc-bff4-4ed0-8fce-28d10fdc332a","system_id":"levelo_inurba_marseille","lat":43.304188,"lon":5.412904,"is_reserved":false,"is_disabled":false,"rental_uris":{"android":"levelo://app?vid=ebc382dc-bff4-4ed0-8fce-28d10fdc332a","ios":"levelo://app?vid=ebc382dc-bff4-4ed0-8fce-28d10fdc332a"},"vehicle_type_id":"4","last_reported":1702946138,"current_range_meters":31200,"station_id":"ce4bhop2rcd13ifvqh8g","pricing_plan_id":"free"},{"bike_id":"90f101fa-0725-441c-944e-c4581cefc596","system_id":"levelo_inurba_marseille","lat":43.287154,"lon":5.399979,"is_reserved":false,"is_disabled":false,"rental_uris":{"android":"levelo://app?vid=90f101fa-0725-441c-944e-c4581cefc596","ios":"levelo://app?vid=90f101fa-0725-441c-944e-c4581cefc596"},"vehicle_type_id":"4","last_reported":1702946138,"current_range_meters":31200,"station_id":"ce4bho92rcd13ifvqh3g","pricing_plan_id":"free"},{"bike_id":"37fcc7ec-bb55-4460-ab8d-17cf4aa45a53","system_id":"levelo_inurba_marseille","lat":43.299579,"lon":5.413255,"is_reserved":false,"is_disabled":false,"rental_uris":{"android":"levelo://app?vid=37fcc7ec-bb55-4460-ab8d-17cf4aa45a53","ios":"levelo://app?vid=37fcc7ec-bb55-4460-ab8d-17cf4aa45a53"},"vehicle_type_id":"4","last_reported":1702946138,"current_range_meters":26800,"station_id":"ce4bhp12rcd13ifvqh9g","pricing_plan_id":"free"},{"bike_id":"a1c54619-c7a7-4d70-85d7-af225610f8c7","system_id":"levelo_inurba_marseille","lat":43.299579,"lon":5.413255,"is_reserved":false,"is_disabled":false,"rental_uris":{"android":"levelo://app?vid=a1c54619-c7a7-4d70-85d7-af225610f8c7","ios":"levelo://app?vid=a1c54619-c7a7-4d70-85d7-af225610f8c7"},"vehicle_type_id":"4","last_reported":1702946138,"current_range_meters":31200,"station_id":"ce4bhp12rcd13ifvqh9g","pricing_plan_id":"free"},{"bike_id":"90106306-9dd7-4d34-a757-00177879933a","system_id":"levelo_inurba_marseille","lat":43.292569,"lon":5.409107,"is_reserved":false,"is_disabled":false,"rental_uris":{"android":"levelo://app?vid=90106306-9dd7-4d34-a757-00177879933a","ios":"levelo://app?vid=90106306-9dd7-4d34-a757-00177879933a"},"vehicle_type_id":"4","last_reported":1702946138,"current_range_meters":31200,"station_id":"ce4bh192rcd13ifvqdc0","pricing_plan_id":"free"},{"bike_id":"f9930c92-e1ae-487c-add0-fa6429120601","system_id":"levelo_inurba_marseille","lat":43.292569,"lon":5.409107,"is_reserved":false,"is_disabled":false,"rental_uris":{"android":"levelo://app?vid=f9930c92-e1ae-487c-add0-fa6429120601","ios":"levelo://app?vid=f9930c92-e1ae-487c-add0-fa6429120601"},"vehicle_type_id":"4","last_reported":1702946138,"current_range_meters":26000,"station_id":"ce4bh192rcd13ifvqdc0","pricing_plan_id":"free"},{"bike_id":"f304d06b-ff01-4fbf-ad04-ddb9f841c570","system_id":"levelo_inurba_marseille","lat":43.325233,"lon":5.414318,"is_reserved":false,"is_disabled":false,"rental_uris":{"android":"levelo://app?vid=f304d06b-ff01-4fbf-ad04-ddb9f841c570","ios":"levelo://app?vid=f304d06b-ff01-4fbf-ad04-ddb9f841c570"},"vehicle_type_id":"4","last_reported":1702946138,"current_range_meters":30000,"station_id":"ce4bhq12rcd13ifvqhhg","pricing_plan_id":"free"},{"bike_id":"06d6d0a7-5a4c-4ff6-a91a-ac2bb0e711e7","system_id":"levelo_inurba_marseille","lat":43.27618,"lon":5.361009,"is_reserved":false,"is_disabled":false,"rental_uris":{"android":"levelo://app?vid=06d6d0a7-5a4c-4ff6-a91a-ac2bb0e711e7","ios":"levelo://app?vid=06d6d0a7-5a4c-4ff6-a91a-ac2bb0e711e7"},"vehicle_type_id":"4","last_reported":1702946138,"current_range_meters":31200,"station_id":"ce4bgj92rcd13ifvqbe0","pricing_plan_id":"free"},{"bike_id":"c48ffc39-9a21-4d9f-a623-417d236c5627","system_id":"levelo_inurba_marseille","lat":43.28312,"lon":5.3999,"is_reserved":false,"is_disabled":false,"rental_uris":{"android":"levelo://app?vid=c48ffc39-9a21-4d9f-a623-417d236c5627","ios":"levelo://app?vid=c48ffc39-9a21-4d9f-a623-417d236c5627"},"vehicle_type_id":"4","last_reported":1702946138,"current_range_meters":6400,"station_id":"","pricing_plan_id":"free"},{"bike_id":"abce9a6c-3aeb-4133-883b-f887057d135d","system_id":"levelo_inurba_marseille","lat":43.280784,"lon":5.396622,"is_reserved":false,"is_disabled":false,"rental_uris":{"android":"levelo://app?vid=abce9a6c-3aeb-4133-883b-f887057d135d","ios":"levelo://app?vid=abce9a6c-3aeb-4133-883b-f887057d135d"},"vehicle_type_id":"4","last_reported":1702946138,"current_range_meters":30000,"station_id":"ce4bho12rcd13ifvqh2g","pricing_plan_id":"free"},{"bike_id":"4cee5c6a-7c96-4169-82b7-9b1c414dd242","system_id":"levelo_inurba_marseille","lat":43.280784,"lon":5.396622,"is_reserved":false,"is_disabled":false,"rental_uris":{"android":"levelo://app?vid=4cee5c6a-7c96-4169-82b7-9b1c414dd242","ios":"levelo://app?vid=4cee5c6a-7c96-4169-82b7-9b1c414dd242"},"vehicle_type_id":"4","last_reported":1702946138,"current_range_meters":26400,"station_id":"ce4bho12rcd13ifvqh2g","pricing_plan_id":"free"},{"bike_id":"0cd0c498-489f-47e8-83e7-6978e88bb13f","system_id":"levelo_inurba_marseille","lat":43.303837,"lon":5.418724,"is_reserved":false,"is_disabled":false,"rental_uris":{"android":"levelo://app?vid=0cd0c498-489f-47e8-83e7-6978e88bb13f","ios":"levelo://app?vid=0cd0c498-489f-47e8-83e7-6978e88bb13f"},"vehicle_type_id":"4","last_reported":1702946138,"current_range_meters":8400,"station_id":"ce4bhop2rcd13ifvqh7g","pricing_plan_id":"free"},{"bike_id":"d35b6065-9f3e-4e81-97be-90082f7feb03","system_id":"levelo_inurba_marseille","lat":43.278401,"lon":5.392152,"is_reserved":false,"is_disabled":false,"rental_uris":{"android":"levelo://app?vid=d35b6065-9f3e-4e81-97be-90082f7feb03","ios":"levelo://app?vid=d35b6065-9f3e-4e81-97be-90082f7feb03"},"vehicle_type_id":"4","last_reported":1702946138,"current_range_meters":25200,"station_id":"ce4bhjp2rcd13ifvqga0","pricing_plan_id":"free"},{"bike_id":"815c8245-20e5-49cb-9945-a90133926c2f","system_id":"levelo_inurba_marseille","lat":43.278401,"lon":5.392152,"is_reserved":false,"is_disabled":false,"rental_uris":{"android":"levelo://app?vid=815c8245-20e5-49cb-9945-a90133926c2f","ios":"levelo://app?vid=815c8245-20e5-49cb-9945-a90133926c2f"},"vehicle_type_id":"4","last_reported":1702946138,"current_range_meters":31200,"station_id":"ce4bhjp2rcd13ifvqga0","pricing_plan_id":"free"},{"bike_id":"8b2de994-a462-4a23-97e9-4f90e55a7441","system_id":"levelo_inurba_marseille","lat":43.275625,"lon":5.384392,"is_reserved":false,"is_disabled":false,"rental_uris":{"android":"levelo://app?vid=8b2de994-a462-4a23-97e9-4f90e55a7441","ios":"levelo://app?vid=8b2de994-a462-4a23-97e9-4f90e55a7441"},"vehicle_type_id":"4","last_reported":1702946138,"current_range_meters":1200,"station_id":"ce4bhh92rcd13ifvqfi0","pricing_plan_id":"free"},{"bike_id":"8b7163c8-747c-4e96-8584-c017d4b913c7","system_id":"levelo_inurba_marseille","lat":43.273613,"lon":5.362705,"is_reserved":false,"is_disabled":false,"rental_uris":{"android":"levelo://app?vid=8b7163c8-747c-4e96-8584-c017d4b913c7","ios":"levelo://app?vid=8b7163c8-747c-4e96-8584-c017d4b913c7"},"vehicle_type_id":"4","last_reported":1702946138,"current_range_meters":25200,"station_id":"ce4bhbh2rcd13ifvqeo0","pricing_plan_id":"free"},{"bike_id":"4d127045-12ef-407c-afdf-5ad668934932","system_id":"levelo_inurba_marseille","lat":43.275625,"lon":5.384392,"is_reserved":false,"is_disabled":false,"rental_uris":{"android":"levelo://app?vid=4d127045-12ef-407c-afdf-5ad668934932","ios":"levelo://app?vid=4d127045-12ef-407c-afdf-5ad668934932"},"vehicle_type_id":"4","last_reported":1702946138,"current_range_meters":28400,"station_id":"ce4bhh92rcd13ifvqfi0","pricing_plan_id":"free"},{"bike_id":"805bcb3a-fffe-4a96-973e-13d3762dc5be","system_id":"levelo_inurba_marseille","lat":43.275625,"lon":5.384392,"is_reserved":false,"is_disabled":false,"rental_uris":{"android":"levelo://app?vid=805bcb3a-fffe-4a96-973e-13d3762dc5be","ios":"levelo://app?vid=805bcb3a-fffe-4a96-973e-13d3762dc5be"},"vehicle_type_id":"4","last_reported":1702946138,"current_range_meters":26800,"station_id":"ce4bhh92rcd13ifvqfi0","pricing_plan_id":"free"},{"bike_id":"0b0b7cdf-f262-4435-a44c-2a21ee8b66b4","system_id":"levelo_inurba_marseille","lat":43.275625,"lon":5.384392,"is_reserved":false,"is_disabled":false,"rental_uris":{"android":"levelo://app?vid=0b0b7cdf-f262-4435-a44c-2a21ee8b66b4","ios":"levelo://app?vid=0b0b7cdf-f262-4435-a44c-2a21ee8b66b4"},"vehicle_type_id":"4","last_reported":1702946138,"current_range_meters":25200,"station_id":"ce4bhh92rcd13ifvqfi0","pricing_plan_id":"free"},{"bike_id":"0cf403f8-9992-471b-b83e-97c5b20efdb5","system_id":"levelo_inurba_marseille","lat":43.273609,"lon":5.362708,"is_reserved":false,"is_disabled":false,"rental_uris":{"android":"levelo://app?vid=0cf403f8-9992-471b-b83e-97c5b20efdb5","ios":"levelo://app?vid=0cf403f8-9992-471b-b83e-97c5b20efdb5"},"vehicle_type_id":"4","last_reported":1702946138,"current_range_meters":28000,"station_id":"ce4bhbh2rcd13ifvqeo0","pricing_plan_id":"free"},{"bike_id":"ba23a49f-f752-40f9-b881-d731ba920e07","system_id":"levelo_inurba_marseille","lat":43.32409,"lon":5.42,"is_reserved":false,"is_disabled":false,"rental_uris":{"android":"levelo://app?vid=ba23a49f-f752-40f9-b881-d731ba920e07","ios":"levelo://app?vid=ba23a49f-f752-40f9-b881-d731ba920e07"},"vehicle_type_id":"4","last_reported":1702946138,"current_range_meters":26400,"station_id":"","pricing_plan_id":"free"},{"bike_id":"3b8a3a16-a58a-4dd3-a368-557235b8f1ad","system_id":"levelo_inurba_marseille","lat":43.279952,"lon":5.400085,"is_reserved":false,"is_disabled":false,"rental_uris":{"android":"levelo://app?vid=3b8a3a16-a58a-4dd3-a368-557235b8f1ad","ios":"levelo://app?vid=3b8a3a16-a58a-4dd3-a368-557235b8f1ad"},"vehicle_type_id":"4","last_reported":1702946138,"current_range_meters":24000,"station_id":"ce4bho92rcd13ifvqh4g","pricing_plan_id":"free"},{"bike_id":"0bb97659-f4e9-4526-88b8-47fb345b8426","system_id":"levelo_inurba_marseille","lat":43.279952,"lon":5.400085,"is_reserved":false,"is_disabled":false,"rental_uris":{"android":"levelo://app?vid=0bb97659-f4e9-4526-88b8-47fb345b8426","ios":"levelo://app?vid=0bb97659-f4e9-4526-88b8-47fb345b8426"},"vehicle_type_id":"4","last_reported":1702946138,"current_range_meters":29200,"station_id":"ce4bho92rcd13ifvqh4g","pricing_plan_id":"free"},{"bike_id":"be08e213-19c5-4c60-b6df-6e646480eff1","system_id":"levelo_inurba_marseille","lat":43.317121,"lon":5.423936,"is_reserved":false,"is_disabled":false,"rental_uris":{"android":"levelo://app?vid=be08e213-19c5-4c60-b6df-6e646480eff1","ios":"levelo://app?vid=be08e213-19c5-4c60-b6df-6e646480eff1"},"vehicle_type_id":"4","last_reported":1702946138,"current_range_meters":15200,"station_id":"ce4bhp92rcd13ifvqhbg","pricing_plan_id":"free"},{"bike_id":"9cedd493-ffa3-4b25-9af8-b668baa13cd3","system_id":"levelo_inurba_marseille","lat":43.317121,"lon":5.423936,"is_reserved":false,"is_disabled":false,"rental_uris":{"android":"levelo://app?vid=9cedd493-ffa3-4b25-9af8-b668baa13cd3","ios":"levelo://app?vid=9cedd493-ffa3-4b25-9af8-b668baa13cd3"},"vehicle_type_id":"4","last_reported":1702946138,"current_range_meters":28400,"station_id":"ce4bhp92rcd13ifvqhbg","pricing_plan_id":"free"},{"bike_id":"a9afab92-0027-4746-afee-ddf66b28557f","system_id":"levelo_inurba_marseille","lat":43.317121,"lon":5.423936,"is_reserved":false,"is_disabled":false,"rental_uris":{"android":"levelo://app?vid=a9afab92-0027-4746-afee-ddf66b28557f","ios":"levelo://app?vid=a9afab92-0027-4746-afee-ddf66b28557f"},"vehicle_type_id":"4","last_reported":1702946138,"current_range_meters":28800,"station_id":"ce4bhp92rcd13ifvqhbg","pricing_plan_id":"free"},{"bike_id":"1c94075f-1520-42e4-b407-7493fed250da","system_id":"levelo_inurba_marseille","lat":43.340804,"lon":5.410219,"is_reserved":false,"is_disabled":false,"rental_uris":{"android":"levelo://app?vid=1c94075f-1520-42e4-b407-7493fed250da","ios":"levelo://app?vid=1c94075f-1520-42e4-b407-7493fed250da"},"vehicle_type_id":"4","last_reported":1702946138,"current_range_meters":27600,"station_id":"ce4bhqh2rcd13ifvqhlg","pricing_plan_id":"free"},{"bike_id":"3ca2c2d2-99b0-4aa6-a05d-e30f02e6a7fb","system_id":"levelo_inurba_marseille","lat":43.276092,"lon":5.395289,"is_reserved":false,"is_disabled":false,"rental_uris":{"android":"levelo://app?vid=3ca2c2d2-99b0-4aa6-a05d-e30f02e6a7fb","ios":"levelo://app?vid=3ca2c2d2-99b0-4aa6-a05d-e30f02e6a7fb"},"vehicle_type_id":"4","last_reported":1702946138,"current_range_meters":10800,"station_id":"","pricing_plan_id":"free"},{"bike_id":"a3e5644b-57bc-43f6-bbbd-3248fbd8b0e7","system_id":"levelo_inurba_marseille","lat":43.30414,"lon":5.4254,"is_reserved":false,"is_disabled":false,"rental_uris":{"android":"levelo://app?vid=a3e5644b-57bc-43f6-bbbd-3248fbd8b0e7","ios":"levelo://app?vid=a3e5644b-57bc-43f6-bbbd-3248fbd8b0e7"},"vehicle_type_id":"4","last_reported":1702946138,"current_range_meters":31200,"station_id":"ce4bhoh2rcd13ifvqh6g","pricing_plan_id":"free"},{"bike_id":"3edd518b-c3b1-4109-9aa5-d1f7a432c5a7","system_id":"levelo_inurba_marseille","lat":43.3041,"lon":5.42543,"is_reserved":false,"is_disabled":false,"rental_uris":{"android":"levelo://app?vid=3edd518b-c3b1-4109-9aa5-d1f7a432c5a7","ios":"levelo://app?vid=3edd518b-c3b1-4109-9aa5-d1f7a432c5a7"},"vehicle_type_id":"4","last_reported":1702946138,"current_range_meters":28800,"station_id":"ce4bhoh2rcd13ifvqh6g","pricing_plan_id":"free"},{"bike_id":"b0b9d567-0c3e-4900-8a87-9d8cf0e0364a","system_id":"levelo_inurba_marseille","lat":43.304157,"lon":5.425463,"is_reserved":false,"is_disabled":false,"rental_uris":{"android":"levelo://app?vid=b0b9d567-0c3e-4900-8a87-9d8cf0e0364a","ios":"levelo://app?vid=b0b9d567-0c3e-4900-8a87-9d8cf0e0364a"},"vehicle_type_id":"4","last_reported":1702946138,"current_range_meters":31200,"station_id":"ce4bhoh2rcd13ifvqh6g","pricing_plan_id":"free"},{"bike_id":"52ffbfe2-3dc9-4e53-97d1-3182ba2225bd","system_id":"levelo_inurba_marseille","lat":43.295511,"lon":5.422926,"is_reserved":false,"is_disabled":false,"rental_uris":{"android":"levelo://app?vid=52ffbfe2-3dc9-4e53-97d1-3182ba2225bd","ios":"levelo://app?vid=52ffbfe2-3dc9-4e53-97d1-3182ba2225bd"},"vehicle_type_id":"4","last_reported":1702946138,"current_range_meters":22000,"station_id":"ce4bhph2rcd13ifvqhdg","pricing_plan_id":"free"},{"bike_id":"628a1844-4de6-4ff8-b7b8-44bb12a39376","system_id":"levelo_inurba_marseille","lat":43.295511,"lon":5.422926,"is_reserved":false,"is_disabled":false,"rental_uris":{"android":"levelo://app?vid=628a1844-4de6-4ff8-b7b8-44bb12a39376","ios":"levelo://app?vid=628a1844-4de6-4ff8-b7b8-44bb12a39376"},"vehicle_type_id":"4","last_reported":1702946138,"current_range_meters":31200,"station_id":"ce4bhph2rcd13ifvqhdg","pricing_plan_id":"free"},{"bike_id":"1d583d68-8350-42de-af0a-dd3bb755495b","system_id":"levelo_inurba_marseille","lat":43.29542,"lon":5.42282,"is_reserved":false,"is_disabled":false,"rental_uris":{"android":"levelo://app?vid=1d583d68-8350-42de-af0a-dd3bb755495b","ios":"levelo://app?vid=1d583d68-8350-42de-af0a-dd3bb755495b"},"vehicle_type_id":"4","last_reported":1702946138,"current_range_meters":25600,"station_id":"ce4bhph2rcd13ifvqhdg","pricing_plan_id":"free"},{"bike_id":"35f4c7df-1dd1-49cd-b086-e9b64d14ba25","system_id":"levelo_inurba_marseille","lat":43.295511,"lon":5.422926,"is_reserved":false,"is_disabled":false,"rental_uris":{"android":"levelo://app?vid=35f4c7df-1dd1-49cd-b086-e9b64d14ba25","ios":"levelo://app?vid=35f4c7df-1dd1-49cd-b086-e9b64d14ba25"},"vehicle_type_id":"4","last_reported":1702946138,"current_range_meters":24400,"station_id":"ce4bhph2rcd13ifvqhdg","pricing_plan_id":"free"},{"bike_id":"a3cb3ee9-70f7-4b41-aecf-d088993fd804","system_id":"levelo_inurba_marseille","lat":43.29551,"lon":5.42289,"is_reserved":false,"is_disabled":false,"rental_uris":{"android":"levelo://app?vid=a3cb3ee9-70f7-4b41-aecf-d088993fd804","ios":"levelo://app?vid=a3cb3ee9-70f7-4b41-aecf-d088993fd804"},"vehicle_type_id":"4","last_reported":1702946138,"current_range_meters":21600,"station_id":"ce4bhph2rcd13ifvqhdg","pricing_plan_id":"free"},{"bike_id":"fc3f22f4-3d85-4b36-bd3d-60cd40afff37","system_id":"levelo_inurba_marseille","lat":43.295511,"lon":5.422926,"is_reserved":false,"is_disabled":false,"rental_uris":{"android":"levelo://app?vid=fc3f22f4-3d85-4b36-bd3d-60cd40afff37","ios":"levelo://app?vid=fc3f22f4-3d85-4b36-bd3d-60cd40afff37"},"vehicle_type_id":"4","last_reported":1702946138,"current_range_meters":30400,"station_id":"ce4bhph2rcd13ifvqhdg","pricing_plan_id":"free"},{"bike_id":"5ce1d5d6-c36a-47a6-a6a5-14a316a13c91","system_id":"levelo_inurba_marseille","lat":43.295523,"lon":5.422926,"is_reserved":false,"is_disabled":false,"rental_uris":{"android":"levelo://app?vid=5ce1d5d6-c36a-47a6-a6a5-14a316a13c91","ios":"levelo://app?vid=5ce1d5d6-c36a-47a6-a6a5-14a316a13c91"},"vehicle_type_id":"4","last_reported":1702946138,"current_range_meters":11600,"station_id":"ce4bhph2rcd13ifvqhdg","pricing_plan_id":"free"},{"bike_id":"c5b35ac6-c54a-42aa-aad2-e393e9d37ace","system_id":"levelo_inurba_marseille","lat":43.269467,"lon":5.386439,"is_reserved":false,"is_disabled":false,"rental_uris":{"android":"levelo://app?vid=c5b35ac6-c54a-42aa-aad2-e393e9d37ace","ios":"levelo://app?vid=c5b35ac6-c54a-42aa-aad2-e393e9d37ace"},"vehicle_type_id":"4","last_reported":1702946138,"current_range_meters":28400,"station_id":"ce4bhh92rcd13ifvqfh0","pricing_plan_id":"free"},{"bike_id":"fb0048d5-4206-462d-96de-9f3558e4be71","system_id":"levelo_inurba_marseille","lat":43.279465,"lon":5.410561,"is_reserved":false,"is_disabled":false,"rental_uris":{"android":"levelo://app?vid=fb0048d5-4206-462d-96de-9f3558e4be71","ios":"levelo://app?vid=fb0048d5-4206-462d-96de-9f3558e4be71"},"vehicle_type_id":"4","last_reported":1702946138,"current_range_meters":23600,"station_id":"ce4bhnp2rcd13ifvqh0g","pricing_plan_id":"free"},{"bike_id":"c0afa956-79ba-49d6-932b-c288cd7a3378","system_id":"levelo_inurba_marseille","lat":43.27941,"lon":5.41042,"is_reserved":false,"is_disabled":false,"rental_uris":{"android":"levelo://app?vid=c0afa956-79ba-49d6-932b-c288cd7a3378","ios":"levelo://app?vid=c0afa956-79ba-49d6-932b-c288cd7a3378"},"vehicle_type_id":"4","last_reported":1702946138,"current_range_meters":18400,"station_id":"ce4bhnp2rcd13ifvqh0g","pricing_plan_id":"free"},{"bike_id":"3360b676-3022-4014-80bc-08bc66977fcf","system_id":"levelo_inurba_marseille","lat":43.279465,"lon":5.410561,"is_reserved":false,"is_disabled":false,"rental_uris":{"android":"levelo://app?vid=3360b676-3022-4014-80bc-08bc66977fcf","ios":"levelo://app?vid=3360b676-3022-4014-80bc-08bc66977fcf"},"vehicle_type_id":"4","last_reported":1702946138,"current_range_meters":6000,"station_id":"ce4bhnp2rcd13ifvqh0g","pricing_plan_id":"free"},{"bike_id":"5c3290ae-d610-4a7c-be9a-f07317d70623","system_id":"levelo_inurba_marseille","lat":43.279465,"lon":5.410561,"is_reserved":false,"is_disabled":false,"rental_uris":{"android":"levelo://app?vid=5c3290ae-d610-4a7c-be9a-f07317d70623","ios":"levelo://app?vid=5c3290ae-d610-4a7c-be9a-f07317d70623"},"vehicle_type_id":"4","last_reported":1702946138,"current_range_meters":14400,"station_id":"ce4bhnp2rcd13ifvqh0g","pricing_plan_id":"free"},{"bike_id":"63599a10-8d2a-4464-bc8f-271e6d1ebbb3","system_id":"levelo_inurba_marseille","lat":43.27996,"lon":5.416624,"is_reserved":false,"is_disabled":false,"rental_uris":{"android":"levelo://app?vid=63599a10-8d2a-4464-bc8f-271e6d1ebbb3","ios":"levelo://app?vid=63599a10-8d2a-4464-bc8f-271e6d1ebbb3"},"vehicle_type_id":"4","last_reported":1702946138,"current_range_meters":28000,"station_id":"ce4bho12rcd13ifvqh1g","pricing_plan_id":"free"},{"bike_id":"02e66c93-ff21-4806-8728-ffb13ef6e3f3","system_id":"levelo_inurba_marseille","lat":43.279925,"lon":5.416603,"is_reserved":false,"is_disabled":false,"rental_uris":{"android":"levelo://app?vid=02e66c93-ff21-4806-8728-ffb13ef6e3f3","ios":"levelo://app?vid=02e66c93-ff21-4806-8728-ffb13ef6e3f3"},"vehicle_type_id":"4","last_reported":1702946138,"current_range_meters":25200,"station_id":"ce4bho12rcd13ifvqh1g","pricing_plan_id":"free"},{"bike_id":"cb97da20-e838-49a8-a07e-267048d14308","system_id":"levelo_inurba_marseille","lat":43.27996,"lon":5.416624,"is_reserved":false,"is_disabled":false,"rental_uris":{"android":"levelo://app?vid=cb97da20-e838-49a8-a07e-267048d14308","ios":"levelo://app?vid=cb97da20-e838-49a8-a07e-267048d14308"},"vehicle_type_id":"4","last_reported":1702946138,"current_range_meters":28800,"station_id":"ce4bho12rcd13ifvqh1g","pricing_plan_id":"free"},{"bike_id":"500cedef-851e-4bba-8c2e-e6f6c79d6194","system_id":"levelo_inurba_marseille","lat":43.308051,"lon":5.43527,"is_reserved":false,"is_disabled":false,"rental_uris":{"android":"levelo://app?vid=500cedef-851e-4bba-8c2e-e6f6c79d6194","ios":"levelo://app?vid=500cedef-851e-4bba-8c2e-e6f6c79d6194"},"vehicle_type_id":"4","last_reported":1702946138,"current_range_meters":28800,"station_id":"ce4bhph2rcd13ifvqheg","pricing_plan_id":"free"},{"bike_id":"50adc33a-5cec-46d7-ab61-ad25db1ee9ac","system_id":"levelo_inurba_marseille","lat":43.308048,"lon":5.435238,"is_reserved":false,"is_disabled":false,"rental_uris":{"android":"levelo://app?vid=50adc33a-5cec-46d7-ab61-ad25db1ee9ac","ios":"levelo://app?vid=50adc33a-5cec-46d7-ab61-ad25db1ee9ac"},"vehicle_type_id":"4","last_reported":1702946138,"current_range_meters":0,"station_id":"ce4bhph2rcd13ifvqheg","pricing_plan_id":"free"},{"bike_id":"dea6d4bf-6bd3-4e00-ab36-832382195e1c","system_id":"levelo_inurba_marseille","lat":43.308051,"lon":5.43527,"is_reserved":false,"is_disabled":false,"rental_uris":{"android":"levelo://app?vid=dea6d4bf-6bd3-4e00-ab36-832382195e1c","ios":"levelo://app?vid=dea6d4bf-6bd3-4e00-ab36-832382195e1c"},"vehicle_type_id":"4","last_reported":1702946138,"current_range_meters":29600,"station_id":"ce4bhph2rcd13ifvqheg","pricing_plan_id":"free"},{"bike_id":"b60fc5e1-89e5-42b6-95cd-2facc0075673","system_id":"levelo_inurba_marseille","lat":43.307964,"lon":5.43538,"is_reserved":false,"is_disabled":false,"rental_uris":{"android":"levelo://app?vid=b60fc5e1-89e5-42b6-95cd-2facc0075673","ios":"levelo://app?vid=b60fc5e1-89e5-42b6-95cd-2facc0075673"},"vehicle_type_id":"4","last_reported":1702946138,"current_range_meters":20400,"station_id":"ce4bhph2rcd13ifvqheg","pricing_plan_id":"free"},{"bike_id":"30f80ae5-d962-4a6d-97a5-4cf826b3d9ad","system_id":"levelo_inurba_marseille","lat":43.265569,"lon":5.390047,"is_reserved":false,"is_disabled":false,"rental_uris":{"android":"levelo://app?vid=30f80ae5-d962-4a6d-97a5-4cf826b3d9ad","ios":"levelo://app?vid=30f80ae5-d962-4a6d-97a5-4cf826b3d9ad"},"vehicle_type_id":"4","last_reported":1702946138,"current_range_meters":20400,"station_id":"ce4bhe12rcd13ifvqf30","pricing_plan_id":"free"},{"bike_id":"50dd6dff-c53f-4ac5-b9a0-4a136248695a","system_id":"levelo_inurba_marseille","lat":43.26947,"lon":5.40244,"is_reserved":false,"is_disabled":false,"rental_uris":{"android":"levelo://app?vid=50dd6dff-c53f-4ac5-b9a0-4a136248695a","ios":"levelo://app?vid=50dd6dff-c53f-4ac5-b9a0-4a136248695a"},"vehicle_type_id":"4","last_reported":1702946138,"current_range_meters":31200,"station_id":"cjm6bp8fraef2m0cb0m0","pricing_plan_id":"free"},{"bike_id":"498e1520-f488-4aa0-b91a-3451bf8d5292","system_id":"levelo_inurba_marseille","lat":43.26944,"lon":5.40242,"is_reserved":false,"is_disabled":false,"rental_uris":{"android":"levelo://app?vid=498e1520-f488-4aa0-b91a-3451bf8d5292","ios":"levelo://app?vid=498e1520-f488-4aa0-b91a-3451bf8d5292"},"vehicle_type_id":"4","last_reported":1702946138,"current_range_meters":30400,"station_id":"cjm6bp8fraef2m0cb0m0","pricing_plan_id":"free"},{"bike_id":"620529c1-3974-4edd-9a5b-e3e36019b5d6","system_id":"levelo_inurba_marseille","lat":43.26937,"lon":5.40249,"is_reserved":false,"is_disabled":false,"rental_uris":{"android":"levelo://app?vid=620529c1-3974-4edd-9a5b-e3e36019b5d6","ios":"levelo://app?vid=620529c1-3974-4edd-9a5b-e3e36019b5d6"},"vehicle_type_id":"4","last_reported":1702946138,"current_range_meters":31200,"station_id":"cjm6bp8fraef2m0cb0m0","pricing_plan_id":"free"},{"bike_id":"35b2ab36-4661-44b4-8df0-c964644984d0","system_id":"levelo_inurba_marseille","lat":43.26934,"lon":5.40249,"is_reserved":false,"is_disabled":false,"rental_uris":{"android":"levelo://app?vid=35b2ab36-4661-44b4-8df0-c964644984d0","ios":"levelo://app?vid=35b2ab36-4661-44b4-8df0-c964644984d0"},"vehicle_type_id":"4","last_reported":1702946138,"current_range_meters":30400,"station_id":"cjm6bp8fraef2m0cb0m0","pricing_plan_id":"free"},{"bike_id":"56835e10-7711-4f58-b3d2-b36c9aa14c0a","system_id":"levelo_inurba_marseille","lat":43.26929,"lon":5.40258,"is_reserved":false,"is_disabled":false,"rental_uris":{"android":"levelo://app?vid=56835e10-7711-4f58-b3d2-b36c9aa14c0a","ios":"levelo://app?vid=56835e10-7711-4f58-b3d2-b36c9aa14c0a"},"vehicle_type_id":"4","last_reported":1702946138,"current_range_meters":21200,"station_id":"cjm6bp8fraef2m0cb0m0","pricing_plan_id":"free"},{"bike_id":"0cff377c-c67f-4fb0-8750-1a3c4f7b1ffb","system_id":"levelo_inurba_marseille","lat":43.26194,"lon":5.37443,"is_reserved":false,"is_disabled":false,"rental_uris":{"android":"levelo://app?vid=0cff377c-c67f-4fb0-8750-1a3c4f7b1ffb","ios":"levelo://app?vid=0cff377c-c67f-4fb0-8750-1a3c4f7b1ffb"},"vehicle_type_id":"4","last_reported":1702946138,"current_range_meters":31200,"station_id":"ce4bhgp2rcd13ifvqfc0","pricing_plan_id":"free"},{"bike_id":"96f272ef-3baa-4fd1-ba50-19eafa57509c","system_id":"levelo_inurba_marseille","lat":43.2619,"lon":5.37441,"is_reserved":false,"is_disabled":false,"rental_uris":{"android":"levelo://app?vid=96f272ef-3baa-4fd1-ba50-19eafa57509c","ios":"levelo://app?vid=96f272ef-3baa-4fd1-ba50-19eafa57509c"},"vehicle_type_id":"4","last_reported":1702946138,"current_range_meters":31200,"station_id":"ce4bhgp2rcd13ifvqfc0","pricing_plan_id":"free"},{"bike_id":"ee1964dd-bd19-4163-8977-66dfe213996c","system_id":"levelo_inurba_marseille","lat":43.261782,"lon":5.374515,"is_reserved":false,"is_disabled":false,"rental_uris":{"android":"levelo://app?vid=ee1964dd-bd19-4163-8977-66dfe213996c","ios":"levelo://app?vid=ee1964dd-bd19-4163-8977-66dfe213996c"},"vehicle_type_id":"4","last_reported":1702946138,"current_range_meters":31200,"station_id":"ce4bhgp2rcd13ifvqfc0","pricing_plan_id":"free"},{"bike_id":"aed94823-987c-4f39-a8b9-00dab2638955","system_id":"levelo_inurba_marseille","lat":43.261782,"lon":5.374515,"is_reserved":false,"is_disabled":false,"rental_uris":{"android":"levelo://app?vid=aed94823-987c-4f39-a8b9-00dab2638955","ios":"levelo://app?vid=aed94823-987c-4f39-a8b9-00dab2638955"},"vehicle_type_id":"4","last_reported":1702946138,"current_range_meters":24800,"station_id":"ce4bhgp2rcd13ifvqfc0","pricing_plan_id":"free"},{"bike_id":"7316220c-bdb8-4c03-8675-bc5b2439eb9a","system_id":"levelo_inurba_marseille","lat":43.26187,"lon":5.37444,"is_reserved":false,"is_disabled":false,"rental_uris":{"android":"levelo://app?vid=7316220c-bdb8-4c03-8675-bc5b2439eb9a","ios":"levelo://app?vid=7316220c-bdb8-4c03-8675-bc5b2439eb9a"},"vehicle_type_id":"4","last_reported":1702946138,"current_range_meters":16400,"station_id":"ce4bhgp2rcd13ifvqfc0","pricing_plan_id":"free"},{"bike_id":"524ed846-4fbf-4d2f-8a66-ae44c466484e","system_id":"levelo_inurba_marseille","lat":43.261782,"lon":5.374515,"is_reserved":false,"is_disabled":false,"rental_uris":{"android":"levelo://app?vid=524ed846-4fbf-4d2f-8a66-ae44c466484e","ios":"levelo://app?vid=524ed846-4fbf-4d2f-8a66-ae44c466484e"},"vehicle_type_id":"4","last_reported":1702946138,"current_range_meters":24400,"station_id":"ce4bhgp2rcd13ifvqfc0","pricing_plan_id":"free"},{"bike_id":"b1838760-ccff-4746-80bf-229efc951a30","system_id":"levelo_inurba_marseille","lat":43.261782,"lon":5.374515,"is_reserved":false,"is_disabled":false,"rental_uris":{"android":"levelo://app?vid=b1838760-ccff-4746-80bf-229efc951a30","ios":"levelo://app?vid=b1838760-ccff-4746-80bf-229efc951a30"},"vehicle_type_id":"4","last_reported":1702946138,"current_range_meters":13600,"station_id":"ce4bhgp2rcd13ifvqfc0","pricing_plan_id":"free"},{"bike_id":"883f20e2-6def-4a2a-94c6-c5c2c4f893c0","system_id":"levelo_inurba_marseille","lat":43.261782,"lon":5.374515,"is_reserved":false,"is_disabled":false,"rental_uris":{"android":"levelo://app?vid=883f20e2-6def-4a2a-94c6-c5c2c4f893c0","ios":"levelo://app?vid=883f20e2-6def-4a2a-94c6-c5c2c4f893c0"},"vehicle_type_id":"4","last_reported":1702946138,"current_range_meters":30800,"station_id":"ce4bhgp2rcd13ifvqfc0","pricing_plan_id":"free"},{"bike_id":"47bd3dae-2016-409c-a21f-24033c548c01","system_id":"levelo_inurba_marseille","lat":43.261782,"lon":5.374515,"is_reserved":false,"is_disabled":false,"rental_uris":{"android":"levelo://app?vid=47bd3dae-2016-409c-a21f-24033c548c01","ios":"levelo://app?vid=47bd3dae-2016-409c-a21f-24033c548c01"},"vehicle_type_id":"4","last_reported":1702946138,"current_range_meters":31200,"station_id":"ce4bhgp2rcd13ifvqfc0","pricing_plan_id":"free"},