{"last_updated":1733987364,"ttl":60,"version":"2.2","data":{"bikes":[{"bike_id":"f273d2db-9d28-4c2f-99d9-9f030249d630","system_id":"levelo_inurba_marseille","lat":43.27656,"lon":5.36154,"is_reserved":false,"is_disabled":false,"rental_uris":{"android":"levelo://app?vid=f273d2db-9d28-4c2f-99d9-9f030249d630","ios":"levelo://app?vid=f273d2db-9d28-4c2f-99d9-9f030249d630"},"vehicle_type_id":"4","last_reported":1733987364,"current_range_meters":30000,"station_id":"ce4bhnp2rcd13ifvqgvg","pricing_plan_id":"cebpf4jnsgd1na2vs0mg"},{"bike_id":"3bd00181-eff3-47cd-ad77-975094d7d32e","system_id":"levelo_inurba_marseille","lat":43.30591,"lon":5.39357,"is_reserved":false,"is_disabled":false,"rental_uris":{"android":"levelo://app?vid=3bd00181-eff3-47cd-ad77-975094d7d32e","ios":"levelo://app?vid=3bd00181-eff3-47cd-ad77-975094d7d32e"},"vehicle_type_id":"4","last_reported":1733987364,"current_range_meters":28400,"station_id":"ce4bh0p2rcd13ifvqd80","pricing_plan_id":"cebpf4jnsgd1na2vs0mg"},{"bike_id":"5a1d5db3-014a-4e87-97d8-818e2656f060","system_id":"levelo_inurba_marseille","lat":43.25579,"lon":5.38241,"is_reserved":false,"is_disabled":false,"rental_uris":{"android":"levelo://app?vid=5a1d5db3-014a-4e87-97d8-818e2656f060","ios":"levelo://app?vid=5a1d5db3-014a-4e87-97d8-818e2656f060"},"vehicle_type_id":"4","last_reported":1733987364,"current_range_meters":38400,"station_id":"ce4bhih2rcd13ifvqfs0","pricing_plan_id":"cebpf4jnsgd1na2vs0mg"},{"bike_id":"60e9ed68-c2d5-4fcc-b1fe-df98992a2ea5","system_id":"levelo_inurba_marseille","lat":43.30764,"lon":5.36837,"is_reserved":false,"is_disabled":true,"rental_uris":{"android":"levelo://app?vid=60e9ed68-c2d5-4fcc-b1fe-df98992a2ea5","ios":"levelo://app?vid=60e9ed68-c2d5-4fcc-b1fe-df98992a2ea5"},"vehicle_type_id":"4","last_reported":1733987364,"current_range_meters":0,"station_id":"","pricing_plan_id":"cebpf4jnsgd1na2vs0mg"},{"bike_id":"b266efff-3a14-4d1a-a25a-c68ad062a1f4","system_id":"levelo_inurba_marseille","lat":43.24164,"lon":5.3641,"is_reserved":false,"is_disabled":false,"rental_uris":{"android":"levelo://app?vid=b266efff-3a14-4d1a-a25a-c68ad062a1f4","ios":"levelo://app?vid=b266efff-3a14-4d1a-a25a-c68ad062a1f4"},"vehicle_type_id":"4","last_reported":1733987364,"current_range_meters":6400,"station_id":"cpo36qri1sfpv3e86is0","pricing_plan_id":"cebpf4jnsgd1na2vs0mg"},{"bike_id":"f2676ae1-aa79-4ab9-8ade-6a25f90c5540","system_id":"levelo_inurba_marseille","lat":43.25936,"lon":5.409,"is_reserved":false,"is_disabled":false,"rental_uris":{"android":"levelo://app?vid=f2676ae1-aa79-4ab9-8ade-6a25f90c5540","ios":"levelo://app?vid=f2676ae1-aa79-4ab9-8ade-6a25f90c5540"},"vehicle_type_id":"4","last_reported":1733987364,"current_range_meters":29600,"station_id":"ce4bhm92rcd13ifvqglg","pricing_plan_id":"cebpf4jnsgd1na2vs0mg"},{"bike_id":"7ea4d232-e2a4-497c-83a9-c6bd7e71ef17","system_id":"levelo_inurba_marseille","lat":43.24075,"lon":5.37766,"is_reserved":false,"is_disabled":false,"rental_uris":{"android":"levelo://app?vid=7ea4d232-e2a4-497c-83a9-c6bd7e71ef17","ios":"levelo://app?vid=7ea4d232-e2a4-497c-83a9-c6bd7e71ef17"},"vehicle_type_id":"4","last_reported":1733987364,"current_range_meters":12800,"station_id":"ce4bhnp2rcd13ifvqgvg","pricing_plan_id":"cebpf4jnsgd1na2vs0mg"},{"bike_id":"7c00683e-9df1-4910-9424-c8b9a4419383","system_id":"levelo_inurba_marseille","lat":43.28935,"lon":5.36327,"is_reserved":false,"is_disabled":false,"rental_uris":{"android":"levelo://app?vid=7c00683e-9df1-4910-9424-c8b9a4419383","ios":"levelo://app?vid=7c00683e-9df1-4910-9424-c8b9a4419383"},"vehicle_type_id":"4","last_reported":1733987364,"current_range_meters":26000,"station_id":"ce4bhc92rcd13ifvqetg","pricing_plan_id":"cebpf4jnsgd1na2vs0mg"},{"bike_id":"8896d466-9a4c-499f-b34b-21fc00fbac43","system_id":"levelo_inurba_marseille","lat":43.244007,"lon":5.370557,"is_reserved":false,"is_disabled":false,"rental_uris":{"android":"levelo://app?vid=8896d466-9a4c-499f-b34b-21fc00fbac43","ios":"levelo://app?vid=8896d466-9a4c-499f-b34b-21fc00fbac43"},"vehicle_type_id":"4","last_reported":1733987364,"current_range_meters":24800,"station_id":"ce4bhhh2rcd13ifvqfk0","pricing_plan_id":"cebpf4jnsgd1na2vs0mg"},{"bike_id":"6afa122d-1ebf-4f06-820e-64a76df390ac","system_id":"levelo_inurba_marseille","lat":43.29028,"lon":5.35928,"is_reserved":false,"is_disabled":false,"rental_uris":{"android":"levelo://app?vid=6afa122d-1ebf-4f06-820e-64a76df390ac","ios":"levelo://app?vid=6afa122d-1ebf-4f06-820e-64a76df390ac"},"vehicle_type_id":"4","last_reported":1733987364,"current_range_meters":16800,"station_id":"ce4bha92rcd13ifvqeg0","pricing_plan_id":"cebpf4jnsgd1na2vs0mg"},{"bike_id":"980f96eb-32c9-4906-98f6-c44dbf4c84a1","system_id":"levelo_inurba_marseille","lat":43.27455,"lon":5.40073,"is_reserved":false,"is_disabled":true,"rental_uris":{"android":"levelo://app?vid=980f96eb-32c9-4906-98f6-c44dbf4c84a1","ios":"levelo://app?vid=980f96eb-32c9-4906-98f6-c44dbf4c84a1"},"vehicle_type_id":"4","last_reported":1733987364,"current_range_meters":0,"station_id":"","pricing_plan_id":"cebpf4jnsgd1na2vs0mg"},{"bike_id":"d5cc55ae-ad80-4db1-a1cd-fc4e6214f527","system_id":"levelo_inurba_marseille","lat":43.282678,"lon":5.350845,"is_reserved":false,"is_disabled":false,"rental_uris":{"android":"levelo://app?vid=d5cc55ae-ad80-4db1-a1cd-fc4e6214f527","ios":"levelo://app?vid=d5cc55ae-ad80-4db1-a1cd-fc4e6214f527"},"vehicle_type_id":"4","last_reported":1733987364,"current_range_meters":33600,"station_id":"ce4bhbp2rcd13ifvqerg","pricing_plan_id":"cebpf4jnsgd1na2vs0mg"},{"bike_id":"97148cec-36b7-44a7-809a-ca7907bb5002","system_id":"levelo_inurba_marseille","lat":43.28112,"lon":5.37848,"is_reserved":false,"is_disabled":false,"rental_uris":{"android":"levelo://app?vid=97148cec-36b7-44a7-809a-ca7907bb5002","ios":"levelo://app?vid=97148cec-36b7-44a7-809a-ca7907bb5002"},"vehicle_type_id":"4","last_reported":1733987364,"current_range_meters":36000,"station_id":"ce4bha12rcd13ifvqee0","pricing_plan_id":"cebpf4jnsgd1na2vs0mg"},{"bike_id":"e77c41ec-01fc-4fd5-a63a-7ada717e028a","system_id":"levelo_inurba_marseille","lat":43.26056,"lon":5.39391,"is_reserved":false,"is_disabled":false,"rental_uris":{"android":"levelo://app?vid=e77c41ec-01fc-4fd5-a63a-7ada717e028a","ios":"levelo://app?vid=e77c41ec-01fc-4fd5-a63a-7ada717e028a"},"vehicle_type_id":"4","last_reported":1733987364,"current_range_meters":39200,"station_id":"ce4bhh92rcd13ifvqfj0","pricing_plan_id":"cebpf4jnsgd1na2vs0mg"},{"bike_id":"0db5aa65-4491-4fa7-b3cd-837cf2eebdd8","system_id":"levelo_inurba_marseille","lat":43.24665,"lon":5.38914,"is_reserved":false,"is_disabled":false,"rental_uris":{"android":"levelo://app?vid=0db5aa65-4491-4fa7-b3cd-837cf2eebdd8","ios":"levelo://app?vid=0db5aa65-4491-4fa7-b3cd-837cf2eebdd8"},"vehicle_type_id":"4","last_reported":1733987364,"current_range_meters":16400,"station_id":"ce4bhg12rcd13ifvqf60","pricing_plan_id":"cebpf4jnsgd1na2vs0mg"},{"bike_id":"17e5feee-c30a-4d71-ad15-fbc03a0b3c3c","system_id":"levelo_inurba_marseille","lat":43.27998,"lon":5.41656,"is_reserved":false,"is_disabled":false,"rental_uris":{"android":"levelo://app?vid=17e5feee-c30a-4d71-ad15-fbc03a0b3c3c","ios":"levelo://app?vid=17e5feee-c30a-4d71-ad15-fbc03a0b3c3c"},"vehicle_type_id":"4","last_reported":1733987364,"current_range_meters":37600,"station_id":"ce4bho12rcd13ifvqh1g","pricing_plan_id":"cebpf4jnsgd1na2vs0mg"},{"bike_id":"eb005499-3c0e-4f41-9831-c070b319130e","system_id":"levelo_inurba_marseille","lat":43.28613,"lon":5.37066,"is_reserved":false,"is_disabled":false,"rental_uris":{"android":"levelo://app?vid=eb005499-3c0e-4f41-9831-c070b319130e","ios":"levelo://app?vid=eb005499-3c0e-4f41-9831-c070b319130e"},"vehicle_type_id":"4","last_reported":1733987364,"current_range_meters":38800,"station_id":"ce4bht12rcd13ifvqi60","pricing_plan_id":"cebpf4jnsgd1na2vs0mg"},{"bike_id":"c30e2927-d1ce-4add-bd99-3834be65c25a","system_id":"levelo_inurba_marseille","lat":43.28848,"lon":5.35852,"is_reserved":false,"is_disabled":false,"rental_uris":{"android":"levelo://app?vid=c30e2927-d1ce-4add-bd99-3834be65c25a","ios":"levelo://app?vid=c30e2927-d1ce-4add-bd99-3834be65c25a"},"vehicle_type_id":"4","last_reported":1733987364,"current_range_meters":36400,"station_id":"ce4bhb12rcd13ifvqem0","pricing_plan_id":"cebpf4jnsgd1na2vs0mg"},{"bike_id":"7068b4a8-ea4d-4a77-8a10-ade7ea67a6a9","system_id":"levelo_inurba_marseille","lat":43.27496,"lon":5.42452,"is_reserved":false,"is_disabled":false,"rental_uris":{"android":"levelo://app?vid=7068b4a8-ea4d-4a77-8a10-ade7ea67a6a9","ios":"levelo://app?vid=7068b4a8-ea4d-4a77-8a10-ade7ea67a6a9"},"vehicle_type_id":"4","last_reported":1733987364,"current_range_meters":17200,"station_id":"ce4bhn92rcd13ifvqgrg","pricing_plan_id":"cebpf4jnsgd1na2vs0mg"},{"bike_id":"1301c2fd-c7ff-4e18-9e0a-494e4e9bcdd5","system_id":"levelo_inurba_marseille","lat":43.30533,"lon":5.36527,"is_reserved":false,"is_disabled":false,"rental_uris":{"android":"levelo://app?vid=1301c2fd-c7ff-4e18-9e0a-494e4e9bcdd5","ios":"levelo://app?vid=1301c2fd-c7ff-4e18-9e0a-494e4e9bcdd5"},"vehicle_type_id":"4","last_reported":1733987364,"current_range_meters":38800,"station_id":"ce4bgs12rcd13ifvqcag","pricing_plan_id":"cebpf4jnsgd1na2vs0mg"},{"bike_id":"3bcff220-39c0-4c65-acbc-a74ad13b3af1","system_id":"levelo_inurba_marseille","lat":43.289446,"lon":5.363877,"is_reserved":false,"is_disabled":false,"rental_uris":{"android":"levelo://app?vid=3bcff220-39c0-4c65-acbc-a74ad13b3af1","ios":"levelo://app?vid=3bcff220-39c0-4c65-acbc-a74ad13b3af1"},"vehicle_type_id":"4","last_reported":1733987364,"current_range_meters":28000,"station_id":"ce4bhc92rcd13ifvqetg","pricing_plan_id":"cebpf4jnsgd1na2vs0mg"},{"bike_id":"ea7efa02-e04c-456d-bb9f-f7af6f405ec5","system_id":"levelo_inurba_marseille","lat":43.33738,"lon":5.37462,"is_reserved":false,"is_disabled":false,"rental_uris":{"android":"levelo://app?vid=ea7efa02-e04c-456d-bb9f-f7af6f405ec5","ios":"levelo://app?vid=ea7efa02-e04c-456d-bb9f-f7af6f405ec5"},"vehicle_type_id":"4","last_reported":1733987364,"current_range_meters":38800,"station_id":"","pricing_plan_id":"cebpf4jnsgd1na2vs0mg"},{"bike_id":"95c915fb-ef8e-49eb-8873-2f04c1046c28","system_id":"levelo_inurba_marseille","lat":43.31358,"lon":5.38505,"is_reserved":false,"is_disabled":false,"rental_uris":{"android":"levelo://app?vid=95c915fb-ef8e-49eb-8873-2f04c1046c28","ios":"levelo://app?vid=95c915fb-ef8e-49eb-8873-2f04c1046c28"},"vehicle_type_id":"4","last_reported":1733987364,"current_range_meters":6800,"station_id":"ce4bgt92rcd13ifvqcf0","pricing_plan_id":"cebpf4jnsgd1na2vs0mg"},{"bike_id":"c67601b6-bcad-4149-a980-a07b049bc54c","system_id":"levelo_inurba_marseille","lat":43.25866,"lon":5.39913,"is_reserved":false,"is_disabled":false,"rental_uris":{"android":"levelo://app?vid=c67601b6-bcad-4149-a980-a07b049bc54c","ios":"levelo://app?vid=c67601b6-bcad-4149-a980-a07b049bc54c"},"vehicle_type_id":"4","last_reported":1733987364,"current_range_meters":8000,"station_id":"ce4bhl92rcd13ifvqghg","pricing_plan_id":"cebpf4jnsgd1na2vs0mg"},{"bike_id":"36272bbc-2413-4d65-9f8d-f8eaf63041c0","system_id":"levelo_inurba_marseille","lat":43.270626,"lon":5.402629,"is_reserved":false,"is_disabled":true,"rental_uris":{"android":"levelo://app?vid=36272bbc-2413-4d65-9f8d-f8eaf63041c0","ios":"levelo://app?vid=36272bbc-2413-4d65-9f8d-f8eaf63041c0"},"vehicle_type_id":"4","last_reported":1733987364,"current_range_meters":24800,"station_id":"ce4bhk92rcd13ifvqgc0","pricing_plan_id":"cebpf4jnsgd1na2vs0mg"},{"bike_id":"fe4cab58-ba30-4c78-b62f-d4434eea7628","system_id":"levelo_inurba_marseille","lat":43.29448,"lon":5.39761,"is_reserved":false,"is_disabled":true,"rental_uris":{"android":"levelo://app?vid=fe4cab58-ba30-4c78-b62f-d4434eea7628","ios":"levelo://app?vid=fe4cab58-ba30-4c78-b62f-d4434eea7628"},"vehicle_type_id":"4","last_reported":1733987364,"current_range_meters":32800,"station_id":"ce4bh3h2rcd13ifvqdo0","pricing_plan_id":"cebpf4jnsgd1na2vs0mg"},{"bike_id":"3093cc6a-4dc7-42db-8355-04f1168da239","system_id":"levelo_inurba_marseille","lat":43.24082,"lon":5.37756,"is_reserved":false,"is_disabled":false,"rental_uris":{"android":"levelo://app?vid=3093cc6a-4dc7-42db-8355-04f1168da239","ios":"levelo://app?vid=3093cc6a-4dc7-42db-8355-04f1168da239"},"vehicle_type_id":"4","last_reported":1733987364,"current_range_meters":16400,"station_id":"ce4bhnp2rcd13ifvqgvg","pricing_plan_id":"cebpf4jnsgd1na2vs0mg"},{"bike_id":"b16bb57e-d0e0-4bcf-a5f5-501ead9f96b1","system_id":"levelo_inurba_marseille","lat":43.29176,"lon":5.37148,"is_reserved":false,"is_disabled":false,"rental_uris":{"android":"levelo://app?vid=b16bb57e-d0e0-4bcf-a5f5-501ead9f96b1","ios":"levelo://app?vid=b16bb57e-d0e0-4bcf-a5f5-501ead9f96b1"},"vehicle_type_id":"4","last_reported":1733987364,"current_range_meters":30400,"station_id":"ce4bha92rcd13ifvqeh0","pricing_plan_id":"cebpf4jnsgd1na2vs0mg"},{"bike_id":"737d1dde-fc3b-42d6-91f6-acffa231dba3","system_id":"levelo_inurba_marseille","lat":43.29869,"lon":5.39728,"is_reserved":false,"is_disabled":false,"rental_uris":{"android":"levelo://app?vid=737d1dde-fc3b-42d6-91f6-acffa231dba3","ios":"levelo://app?vid=737d1dde-fc3b-42d6-91f6-acffa231dba3"},"vehicle_type_id":"4","last_reported":1733987364,"current_range_meters":27600,"station_id":"ce4bh0h2rcd13ifvqd50","pricing_plan_id":"cebpf4jnsgd1na2vs0mg"},{"bike_id":"24795176-c85d-409d-819a-8060270557c3","system_id":"levelo_inurba_marseille","lat":43.2928,"lon":5.40157,"is_reserved":false,"is_disabled":true,"rental_uris":{"android":"levelo://app?vid=24795176-c85d-409d-819a-8060270557c3","ios":"levelo://app?vid=24795176-c85d-409d-819a-8060270557c3"},"vehicle_type_id":"4","last_reported":1733987364,"current_range_meters":0,"station_id":"ce4bh312rcd13ifvqdk0","pricing_plan_id":"cebpf4jnsgd1na2vs0mg"},{"bike_id":"35808104-2e52-4245-b12f-c8dafc5cce55","system_id":"levelo_inurba_marseille","lat":43.32477,"lon":5.36579,"is_reserved":false,"is_disabled":false,"rental_uris":{"android":"levelo://app?vid=35808104-2e52-4245-b12f-c8dafc5cce55","ios":"levelo://app?vid=35808104-2e52-4245-b12f-c8dafc5cce55"},"vehicle_type_id":"4","last_reported":1733987364,"current_range_meters":10000,"station_id":"ce4bhs12rcd13ifvqhvg","pricing_plan_id":"cebpf4jnsgd1na2vs0mg"},{"bike_id":"3a56946e-b571-4f0a-89c3-228266a44430","system_id":"levelo_inurba_marseille","lat":43.26597,"lon":5.38971,"is_reserved":false,"is_disabled":false,"rental_uris":{"android":"levelo://app?vid=3a56946e-b571-4f0a-89c3-228266a44430","ios":"levelo://app?vid=3a56946e-b571-4f0a-89c3-228266a44430"},"vehicle_type_id":"4","last_reported":1733987364,"current_range_meters":4400,"station_id":"","pricing_plan_id":"cebpf4jnsgd1na2vs0mg"},{"bike_id":"a7f580ed-51b4-4313-a41e-537f7413d4cc","system_id":"levelo_inurba_marseille","lat":43.27493,"lon":5.42451,"is_reserved":false,"is_disabled":false,"rental_uris":{"android":"levelo://app?vid=a7f580ed-51b4-4313-a41e-537f7413d4cc","ios":"levelo://app?vid=a7f580ed-51b4-4313-a41e-537f7413d4cc"},"vehicle_type_id":"4","last_reported":1733987364,"current_range_meters":36000,"station_id":"ce4bhn92rcd13ifvqgrg","pricing_plan_id":"cebpf4jnsgd1na2vs0mg"},{"bike_id":"1a57a953-7738-448c-9bad-8fe31e4d9112","system_id":"levelo_inurba_marseille","lat":43.31309,"lon":5.40206,"is_reserved":false,"is_disabled":false,"rental_uris":{"android":"levelo://app?vid=1a57a953-7738-448c-9bad-8fe31e4d9112","ios":"levelo://app?vid=1a57a953-7738-448c-9bad-8fe31e4d9112"},"vehicle_type_id":"4","last_reported":1733987364,"current_range_meters":6800,"station_id":"","pricing_plan_id":"cebpf4jnsgd1na2vs0mg"},{"bike_id":"83d86471-0b95-4477-9349-a015d55c6b4b","system_id":"levelo_inurba_marseille","lat":43.319994,"lon":5.381494,"is_reserved":false,"is_disabled":true,"rental_uris":{"android":"levelo://app?vid=83d86471-0b95-4477-9349-a015d55c6b4b","ios":"levelo://app?vid=83d86471-0b95-4477-9349-a015d55c6b4b"},"vehicle_type_id":"4","last_reported":1733987364,"current_range_meters":0,"station_id":"ce4bhr12rcd13ifvqhpg","pricing_plan_id":"cebpf4jnsgd1na2vs0mg"},{"bike_id":"538c5820-1da6-405b-97ad-542e7b6c44b3","system_id":"levelo_inurba_marseille","lat":43.23186,"lon":5.39995,"is_reserved":false,"is_disabled":false,"rental_uris":{"android":"levelo://app?vid=538c5820-1da6-405b-97ad-542e7b6c44b3","ios":"levelo://app?vid=538c5820-1da6-405b-97ad-542e7b6c44b3"},"vehicle_type_id":"4","last_reported":1733987364,"current_range_meters":19600,"station_id":"ce4bhn12rcd13ifvqgqg","pricing_plan_id":"cebpf4jnsgd1na2vs0mg"},{"bike_id":"2920ed43-f9a4-4714-9e06-032c62abe7d2","system_id":"levelo_inurba_marseille","lat":43.28349,"lon":5.38117,"is_reserved":false,"is_disabled":false,"rental_uris":{"android":"levelo://app?vid=2920ed43-f9a4-4714-9e06-032c62abe7d2","ios":"levelo://app?vid=2920ed43-f9a4-4714-9e06-032c62abe7d2"},"vehicle_type_id":"4","last_reported":1733987364,"current_range_meters":37600,"station_id":"ce4bh412rcd13ifvqdr0","pricing_plan_id":"cebpf4jnsgd1na2vs0mg"},{"bike_id":"9dcb06b3-4216-4216-a880-cb954ce2bbd4","system_id":"levelo_inurba_marseille","lat":43.3016,"lon":5.38078,"is_reserved":false,"is_disabled":false,"rental_uris":{"android":"levelo://app?vid=9dcb06b3-4216-4216-a880-cb954ce2bbd4","ios":"levelo://app?vid=9dcb06b3-4216-4216-a880-cb954ce2bbd4"},"vehicle_type_id":"4","last_reported":1733987364,"current_range_meters":29600,"station_id":"ce4bgjp2rcd13ifvqbh0","pricing_plan_id":"cebpf4jnsgd1na2vs0mg"},{"bike_id":"dc3e0ee7-ac7d-4751-9445-b495e8f2198d","system_id":"levelo_inurba_marseille","lat":43.30932,"lon":5.40147,"is_reserved":false,"is_disabled":false,"rental_uris":{"android":"levelo://app?vid=dc3e0ee7-ac7d-4751-9445-b495e8f2198d","ios":"levelo://app?vid=dc3e0ee7-ac7d-4751-9445-b495e8f2198d"},"vehicle_type_id":"4","last_reported":1733987364,"current_range_meters":32800,"station_id":"ce4bgvp2rcd13ifvqct0","pricing_plan_id":"cebpf4jnsgd1na2vs0mg"},{"bike_id":"19540275-97ed-496c-973c-fa488489cf12","system_id":"levelo_inurba_marseille","lat":43.29924,"lon":5.37472,"is_reserved":false,"is_disabled":false,"rental_uris":{"android":"levelo://app?vid=19540275-97ed-496c-973c-fa488489cf12","ios":"levelo://app?vid=19540275-97ed-496c-973c-fa488489cf12"},"vehicle_type_id":"4","last_reported":1733987364,"current_range_meters":29600,"station_id":"ce4bgjh2rcd13ifvqbg0","pricing_plan_id":"cebpf4jnsgd1na2vs0mg"},{"bike_id":"90324b92-2d52-4f43-bd59-91b2038c3497","system_id":"levelo_inurba_marseille","lat":43.289386,"lon":5.366277,"is_reserved":false,"is_disabled":true,"rental_uris":{"android":"levelo://app?vid=90324b92-2d52-4f43-bd59-91b2038c3497","ios":"levelo://app?vid=90324b92-2d52-4f43-bd59-91b2038c3497"},"vehicle_type_id":"4","last_reported":1733987364,"current_range_meters":27200,"station_id":"ce4bhap2rcd13ifvqek0","pricing_plan_id":"cebpf4jnsgd1na2vs0mg"},{"bike_id":"49e0fcfc-ac5d-412b-8bbe-bb26ef5821b0","system_id":"levelo_inurba_marseille","lat":43.30531,"lon":5.38431,"is_reserved":false,"is_disabled":false,"rental_uris":{"android":"levelo://app?vid=49e0fcfc-ac5d-412b-8bbe-bb26ef5821b0","ios":"levelo://app?vid=49e0fcfc-ac5d-412b-8bbe-bb26ef5821b0"},"vehicle_type_id":"4","last_reported":1733987364,"current_range_meters":38000,"station_id":"ce4bgg92rcd13ifvqb30","pricing_plan_id":"cebpf4jnsgd1na2vs0mg"},{"bike_id":"74a75224-0df6-49bd-b280-4adbb8dab8a9","system_id":"levelo_inurba_marseille","lat":43.30214,"lon":5.3947,"is_reserved":false,"is_disabled":false,"rental_uris":{"android":"levelo://app?vid=74a75224-0df6-49bd-b280-4adbb8dab8a9","ios":"levelo://app?vid=74a75224-0df6-49bd-b280-4adbb8dab8a9"},"vehicle_type_id":"4","last_reported":1733987364,"current_range_meters":38800,"station_id":"ce4bh0p2rcd13ifvqd70","pricing_plan_id":"cebpf4jnsgd1na2vs0mg"},{"bike_id":"11933e04-d81a-4d25-aa83-cc295172b3a1","system_id":"levelo_inurba_marseille","lat":43.25423,"lon":5.38254,"is_reserved":false,"is_disabled":true,"rental_uris":{"android":"levelo://app?vid=11933e04-d81a-4d25-aa83-cc295172b3a1","ios":"levelo://app?vid=11933e04-d81a-4d25-aa83-cc295172b3a1"},"vehicle_type_id":"4","last_reported":1733987364,"current_range_meters":31200,"station_id":"","pricing_plan_id":"cebpf4jnsgd1na2vs0mg"},{"bike_id":"eb6dfd80-6e3a-4c5a-b329-b4b580f057e4","system_id":"levelo_inurba_marseille","lat":43.27492,"lon":5.42455,"is_reserved":false,"is_disabled":false,"rental_uris":{"android":"levelo://app?vid=eb6dfd80-6e3a-4c5a-b329-b4b580f057e4","ios":"levelo://app?vid=eb6dfd80-6e3a-4c5a-b329-b4b580f057e4"},"vehicle_type_id":"4","last_reported":1733987364,"current_range_meters":24400,"station_id":"ce4bhn92rcd13ifvqgrg","pricing_plan_id":"cebpf4jnsgd1na2vs0mg"},{"bike_id":"6faa6ee7-a588-4286-8e0c-a7deeaae5bab","system_id":"levelo_inurba_marseille","lat":43.27391,"lon":5.36272,"is_reserved":false,"is_disabled":false,"rental_uris":{"android":"levelo://app?vid=6faa6ee7-a588-4286-8e0c-a7deeaae5bab","ios":"levelo://app?vid=6faa6ee7-a588-4286-8e0c-a7deeaae5bab"},"vehicle_type_id":"4","last_reported":1733987364,"current_range_meters":38800,"station_id":"ce4bhbh2rcd13ifvqeo0","pricing_plan_id":"cebpf4jnsgd1na2vs0mg"},{"bike_id":"a4a6bd16-9419-453d-b4f0-541c6cf414de","system_id":"levelo_inurba_marseille","lat":43.27499,"lon":5.42456,"is_reserved":false,"is_disabled":false,"rental_uris":{"android":"levelo://app?vid=a4a6bd16-9419-453d-b4f0-541c6cf414de","ios":"levelo://app?vid=a4a6bd16-9419-453d-b4f0-541c6cf414de"},"vehicle_type_id":"4","last_reported":1733987364,"current_range_meters":30400,"station_id":"ce4bhn92rcd13ifvqgrg","pricing_plan_id":"cebpf4jnsgd1na2vs0mg"},{"bike_id":"6f58b79b-1bf3-4f3a-ab85-1441441e8d3d","system_id":"levelo_inurba_marseille","lat":43.30428,"lon":5.41289,"is_reserved":false,"is_disabled":false,"rental_uris":{"android":"levelo://app?vid=6f58b79b-1bf3-4f3a-ab85-1441441e8d3d","ios":"levelo://app?vid=6f58b79b-1bf3-4f3a-ab85-1441441e8d3d"},"vehicle_type_id":"4","last_reported":1733987364,"current_range_meters":37600,"station_id":"ce4bhop2rcd13ifvqh8g","pricing_plan_id":"cebpf4jnsgd1na2vs0mg"},{"bike_id":"30b7f7b0-cffb-44e8-9e23-86428fe1183d","system_id":"levelo_inurba_marseille","lat":43.23068,"lon":5.35493,"is_reserved":false,"is_disabled":false,"rental_uris":{"android":"levelo://app?vid=30b7f7b0-cffb-44e8-9e23-86428fe1183d","ios":"levelo://app?vid=30b7f7b0-cffb-44e8-9e23-86428fe1183d"},"vehicle_type_id":"4","last_reported":1733987364,"current_range_meters":9200,"station_id":"cpo3342slgdg3j2ifvpg","pricing_plan_id":"cebpf4jnsgd1na2vs0mg"},{"bike_id":"6af13618-4365-4d73-921a-aee3b3e1b285","system_id":"levelo_inurba_marseille","lat":43.26686,"lon":5.38277,"is_reserved":false,"is_disabled":false,"rental_uris":{"android":"levelo://app?vid=6af13618-4365-4d73-921a-aee3b3e1b285","ios":"levelo://app?vid=6af13618-4365-4d73-921a-aee3b3e1b285"},"vehicle_type_id":"4","last_reported":1733987364,"current_range_meters":8000,"station_id":"ce4bhg92rcd13ifvqf90","pricing_plan_id":"cebpf4jnsgd1na2vs0mg"},{"bike_id":"33f06ed4-c8ad-43f5-b7ff-27c41657a24c","system_id":"levelo_inurba_marseille","lat":43.26205,"lon":5.37913,"is_reserved":false,"is_disabled":false,"rental_uris":{"android":"levelo://app?vid=33f06ed4-c8ad-43f5-b7ff-27c41657a24c","ios":"levelo://app?vid=33f06ed4-c8ad-43f5-b7ff-27c41657a24c"},"vehicle_type_id":"4","last_reported":1733987364,"current_range_meters":38400,"station_id":"ce4bhjp2rcd13ifvqg90","pricing_plan_id":"cebpf4jnsgd1na2vs0mg"},{"bike_id":"de97b613-0ba9-495e-88ca-5ec4dd312484","system_id":"levelo_inurba_marseille","lat":43.28036,"lon":5.36953,"is_reserved":false,"is_disabled":false,"rental_uris":{"android":"levelo://app?vid=de97b613-0ba9-495e-88ca-5ec4dd312484","ios":"levelo://app?vid=de97b613-0ba9-495e-88ca-5ec4dd312484"},"vehicle_type_id":"4","last_reported":1733987364,"current_range_meters":9200,"station_id":"ce4bha12rcd13ifvqef0","pricing_plan_id":"cebpf4jnsgd1na2vs0mg"},{"bike_id":"f8b49a8b-76af-4c34-a445-4719a4b98693","system_id":"levelo_inurba_marseille","lat":43.32285,"lon":5.38278,"is_reserved":false,"is_disabled":false,"rental_uris":{"android":"levelo://app?vid=f8b49a8b-76af-4c34-a445-4719a4b98693","ios":"levelo://app?vid=f8b49a8b-76af-4c34-a445-4719a4b98693"},"vehicle_type_id":"4","last_reported":1733987364,"current_range_meters":38400,"station_id":"ce4bhr12rcd13ifvqhqg","pricing_plan_id":"cebpf4jnsgd1na2vs0mg"},{"bike_id":"bc063d32-ae23-478e-aa50-5d9f2db557cc","system_id":"levelo_inurba_marseille","lat":43.25822,"lon":5.39437,"is_reserved":false,"is_disabled":false,"rental_uris":{"android":"levelo://app?vid=bc063d32-ae23-478e-aa50-5d9f2db557cc","ios":"levelo://app?vid=bc063d32-ae23-478e-aa50-5d9f2db557cc"},"vehicle_type_id":"4","last_reported":1733987364,"current_range_meters":23200,"station_id":"ce4bhip2rcd13ifvqft0","pricing_plan_id":"cebpf4jnsgd1na2vs0mg"},{"bike_id":"881662e6-48d1-48ee-b729-03fa3bfea284","system_id":"levelo_inurba_marseille","lat":43.29969,"lon":5.38494,"is_reserved":false,"is_disabled":false,"rental_uris":{"android":"levelo://app?vid=881662e6-48d1-48ee-b729-03fa3bfea284","ios":"levelo://app?vid=881662e6-48d1-48ee-b729-03fa3bfea284"},"vehicle_type_id":"4","last_reported":1733987364,"current_range_meters":8400,"station_id":"ce4bgj92rcd13ifvqbd0","pricing_plan_id":"cebpf4jnsgd1na2vs0mg"},{"bike_id":"1519a7ce-da0e-49d8-a157-2ac7aa57880a","system_id":"levelo_inurba_marseille","lat":43.23152,"lon":5.43723,"is_reserved":false,"is_disabled":false,"rental_uris":{"android":"levelo://app?vid=1519a7ce-da0e-49d8-a157-2ac7aa57880a","ios":"levelo://app?vid=1519a7ce-da0e-49d8-a157-2ac7aa57880a"},"vehicle_type_id":"4","last_reported":1733987364,"current_range_meters":3600,"station_id":"ce4bhmp2rcd13ifvqgog","pricing_plan_id":"cebpf4jnsgd1na2vs0mg"},{"bike_id":"66666746-8f2e-425a-a037-efeb6255e0db","system_id":"levelo_inurba_marseille","lat":43.30599,"lon":5.39366,"is_reserved":false,"is_disabled":false,"rental_uris":{"android":"levelo://app?vid=66666746-8f2e-425a-a037-efeb6255e0db","ios":"levelo://app?vid=66666746-8f2e-425a-a037-efeb6255e0db"},"vehicle_type_id":"4","last_reported":1733987364,"current_range_meters":30800,"station_id":"ce4bh0p2rcd13ifvqd80","pricing_plan_id":"cebpf4jnsgd1na2vs0mg"},{"bike_id":"0f17d2c4-bf96-42e6-978b-f52d4d5288cd","system_id":"levelo_inurba_marseille","lat":43.303184,"lon":5.404411,"is_reserved":false,"is_disabled":true,"rental_uris":{"android":"levelo://app?vid=0f17d2c4-bf96-42e6-978b-f52d4d5288cd","ios":"levelo://app?vid=0f17d2c4-bf96-42e6-978b-f52d4d5288cd"},"vehicle_type_id":"4","last_reported":1733987364,"current_range_meters":8000,"station_id":"ce4bh012rcd13ifvqd10","pricing_plan_id":"cebpf4jnsgd1na2vs0mg"},{"bike_id":"a4e095c2-8da5-44f2-9a97-d6d88322a6f7","system_id":"levelo_inurba_marseille","lat":43.30592,"lon":5.39352,"is_reserved":false,"is_disabled":false,"rental_uris":{"android":"levelo://app?vid=a4e095c2-8da5-44f2-9a97-d6d88322a6f7","ios":"levelo://app?vid=a4e095c2-8da5-44f2-9a97-d6d88322a6f7"},"vehicle_type_id":"4","last_reported":1733987364,"current_range_meters":32000,"station_id":"ce4bh0p2rcd13ifvqd80","pricing_plan_id":"cebpf4jnsgd1na2vs0mg"},{"bike_id":"6d2f0303-649f-4545-92f4-9fddd7a1267f","system_id":"levelo_inurba_marseille","lat":43.29644,"lon":5.38083,"is_reserved":false,"is_disabled":true,"rental_uris":{"android":"levelo://app?vid=6d2f0303-649f-4545-92f4-9fddd7a1267f","ios":"levelo://app?vid=6d2f0303-649f-4545-92f4-9fddd7a1267f"},"vehicle_type_id":"4","last_reported":1733987364,"current_range_meters":37600,"station_id":"","pricing_plan_id":"cebpf4jnsgd1na2vs0mg"},{"bike_id":"47ef26d5-25f5-43cd-9a35-bd5b3b5bc590","system_id":"levelo_inurba_marseille","lat":43.30935,"lon":5.40146,"is_reserved":false,"is_disabled":false,"rental_uris":{"android":"levelo://app?vid=47ef26d5-25f5-43cd-9a35-bd5b3b5bc590","ios":"levelo://app?vid=47ef26d5-25f5-43cd-9a35-bd5b3b5bc590"},"vehicle_type_id":"4","last_reported":1733987364,"current_range_meters":9600,"station_id":"ce4bgvp2rcd13ifvqct0","pricing_plan_id":"cebpf4jnsgd1na2vs0mg"},{"bike_id":"6b7da9da-7ed8-4376-8377-8274a75ba481","system_id":"levelo_inurba_marseille","lat":43.2658,"lon":5.40339,"is_reserved":false,"is_disabled":false,"rental_uris":{"android":"levelo://app?vid=6b7da9da-7ed8-4376-8377-8274a75ba481","ios":"levelo://app?vid=6b7da9da-7ed8-4376-8377-8274a75ba481"},"vehicle_type_id":"4","last_reported":1733987364,"current_range_meters":38000,"station_id":"","pricing_plan_id":"cebpf4jnsgd1na2vs0mg"},{"bike_id":"4f0c1ef8-f41d-45b8-b048-56d2ab124e5f","system_id":"levelo_inurba_marseille","lat":43.27632,"lon":5.36089,"is_reserved":false,"is_disabled":false,"rental_uris":{"android":"levelo://app?vid=4f0c1ef8-f41d-45b8-b048-56d2ab124e5f","ios":"levelo://app?vid=4f0c1ef8-f41d-45b8-b048-56d2ab124e5f"},"vehicle_type_id":"4","last_reported":1733987364,"current_range_meters":38800,"station_id":"ce4bgj92rcd13ifvqbe0","pricing_plan_id":"cebpf4jnsgd1na2vs0mg"},{"bike_id":"af67ac53-ba21-4ff0-8334-95679e9ff2cc","system_id":"levelo_inurba_marseille","lat":43.278805,"lon":5.388003,"is_reserved":false,"is_disabled":true,"rental_uris":{"android":"levelo://app?vid=af67ac53-ba21-4ff0-8334-95679e9ff2cc","ios":"levelo://app?vid=af67ac53-ba21-4ff0-8334-95679e9ff2cc"},"vehicle_type_id":"4","last_reported":1733987364,"current_range_meters":0,"station_id":"","pricing_plan_id":"cebpf4jnsgd1na2vs0mg"},{"bike_id":"ab6bb814-6be0-4a23-8be0-7c219c550454","system_id":"levelo_inurba_marseille","lat":43.2944,"lon":5.39763,"is_reserved":false,"is_disabled":true,"rental_uris":{"android":"levelo://app?vid=ab6bb814-6be0-4a23-8be0-7c219c550454","ios":"levelo://app?vid=ab6bb814-6be0-4a23-8be0-7c219c550454"},"vehicle_type_id":"4","last_reported":1733987364,"current_range_meters":0,"station_id":"ce4bh3h2rcd13ifvqdo0","pricing_plan_id":"cebpf4jnsgd1na2vs0mg"},{"bike_id":"4615db22-8e24-4c0e-bb14-71b2648a6ecf","system_id":"levelo_inurba_marseille","lat":43.24801,"lon":5.37451,"is_reserved":false,"is_disabled":false,"rental_uris":{"android":"levelo://app?vid=4615db22-8e24-4c0e-bb14-71b2648a6ecf","ios":"levelo://app?vid=4615db22-8e24-4c0e-bb14-71b2648a6ecf"},"vehicle_type_id":"4","last_reported":1733987364,"current_range_meters":38800,"station_id":"ce4bhgh2rcd13ifvqfb0","pricing_plan_id":"cebpf4jnsgd1na2vs0mg"},{"bike_id":"47d1ce41-a735-452d-86c1-d05bd6961be4","system_id":"levelo_inurba_marseille","lat":43.31481,"lon":5.37311,"is_reserved":false,"is_disabled":false,"rental_uris":{"android":"levelo://app?vid=47d1ce41-a735-452d-86c1-d05bd6961be4","ios":"levelo://app?vid=47d1ce41-a735-452d-86c1-d05bd6961be4"},"vehicle_type_id":"4","last_reported":1733987364,"current_range_meters":24000,"station_id":"ce4bgt12rcd13ifvqcd0","pricing_plan_id":"cebpf4jnsgd1na2vs0mg"},{"bike_id":"82c9545d-9d79-429e-b2af-bff9e5a6d0d9","system_id":"levelo_inurba_marseille","lat":43.2587,"lon":5.39905,"is_reserved":false,"is_disabled":false,"rental_uris":{"android":"levelo://app?vid=82c9545d-9d79-429e-b2af-bff9e5a6d0d9","ios":"levelo://app?vid=82c9545d-9d79-429e-b2af-bff9e5a6d0d9"},"vehicle_type_id":"4","last_reported":1733987364,"current_range_meters":34000,"station_id":"ce4bhl92rcd13ifvqghg","pricing_plan_id":"cebpf4jnsgd1na2vs0mg"},{"bike_id":"c3f87c2d-f647-4d71-89d3-fc010d8ba668","system_id":"levelo_inurba_marseille","lat":43.28487,"lon":5.38427,"is_reserved":false,"is_disabled":true,"rental_uris":{"android":"levelo://app?vid=c3f87c2d-f647-4d71-89d3-fc010d8ba668","ios":"levelo://app?vid=c3f87c2d-f647-4d71-89d3-fc010d8ba668"},"vehicle_type_id":"4","last_reported":1733987364,"current_range_meters":0,"station_id":"ce4bh512rcd13ifvqe3g","pricing_plan_id":"cebpf4jnsgd1na2vs0mg"},{"bike_id":"0fa2039c-5ee9-4ac8-bd2f-e5ab82259f0e","system_id":"levelo_inurba_marseille","lat":43.312,"lon":5.36772,"is_reserved":false,"is_disabled":true,"rental_uris":{"android":"levelo://app?vid=0fa2039c-5ee9-4ac8-bd2f-e5ab82259f0e","ios":"levelo://app?vid=0fa2039c-5ee9-4ac8-bd2f-e5ab82259f0e"},"vehicle_type_id":"4","last_reported":1733987364,"current_range_meters":0,"station_id":"","pricing_plan_id":"cebpf4jnsgd1na2vs0mg"},{"bike_id":"a8b08dda-ea61-47f1-9c9e-08e25bc9cc96","system_id":"levelo_inurba_marseille","lat":43.3046,"lon":5.37903,"is_reserved":false,"is_disabled":false,"rental_uris":{"android":"levelo://app?vid=a8b08dda-ea61-47f1-9c9e-08e25bc9cc96","ios":"levelo://app?vid=a8b08dda-ea61-47f1-9c9e-08e25bc9cc96"},"vehicle_type_id":"4","last_reported":1733987364,"current_range_meters":38800,"station_id":"ce4bgup2rcd13ifvqcn0","pricing_plan_id":"cebpf4jnsgd1na2vs0mg"},{"bike_id":"059df3f9-5720-4cb1-aaa5-bc3bdbc78631","system_id":"levelo_inurba_marseille","lat":43.27498,"lon":5.42448,"is_reserved":false,"is_disabled":false,"rental_uris":{"android":"levelo://app?vid=059df3f9-5720-4cb1-aaa5-bc3bdbc78631","ios":"levelo://app?vid=059df3f9-5720-4cb1-aaa5-bc3bdbc78631"},"vehicle_type_id":"4","last_reported":1733987364,"current_range_meters":19600,"station_id":"ce4bhn92rcd13ifvqgrg","pricing_plan_id":"cebpf4jnsgd1na2vs0mg"},{"bike_id":"be0b8c3f-0afb-42d7-82d2-88e533cc17ea","system_id":"levelo_inurba_marseille","lat":43.29102,"lon":5.37224,"is_reserved":false,"is_disabled":true,"rental_uris":{"android":"levelo://app?vid=be0b8c3f-0afb-42d7-82d2-88e533cc17ea","ios":"levelo://app?vid=be0b8c3f-0afb-42d7-82d2-88e533cc17ea"},"vehicle_type_id":"4","last_reported":1733987364,"current_range_meters":24000,"station_id":"","pricing_plan_id":"cebpf4jnsgd1na2vs0mg"},{"bike_id":"f6cd67c9-9d47-4a6f-a19a-661b419f05e0","system_id":"levelo_inurba_marseille","lat":43.31243,"lon":5.40146,"is_reserved":false,"is_disabled":false,"rental_uris":{"android":"levelo://app?vid=f6cd67c9-9d47-4a6f-a19a-661b419f05e0","ios":"levelo://app?vid=f6cd67c9-9d47-4a6f-a19a-661b419f05e0"},"vehicle_type_id":"4","last_reported":1733987364,"current_range_meters":38800,"station_id":"ce4bh092rcd13ifvqd30","pricing_plan_id":"cebpf4jnsgd1na2vs0mg"},{"bike_id":"b5fcaa86-c09e-4c69-8628-53e487fd6934","system_id":"levelo_inurba_marseille","lat":43.29384,"lon":5.37855,"is_reserved":false,"is_disabled":true,"rental_uris":{"android":"levelo://app?vid=b5fcaa86-c09e-4c69-8628-53e487fd6934","ios":"levelo://app?vid=b5fcaa86-c09e-4c69-8628-53e487fd6934"},"vehicle_type_id":"4","last_reported":1733987364,"current_range_meters":36800,"station_id":"ce4bgjh2rcd13ifvqbf0","pricing_plan_id":"cebpf4jnsgd1na2vs0mg"},{"bike_id":"870e6636-b21e-471c-863d-86dd369d4305","system_id":"levelo_inurba_marseille","lat":43.26938,"lon":5.40261,"is_reserved":false,"is_disabled":false,"rental_uris":{"android":"levelo://app?vid=870e6636-b21e-471c-863d-86dd369d4305","ios":"levelo://app?vid=870e6636-b21e-471c-863d-86dd369d4305"},"vehicle_type_id":"4","last_reported":1733987364,"current_range_meters":37600,"station_id":"cjm6bp8fraef2m0cb0m0","pricing_plan_id":"cebpf4jnsgd1na2vs0mg"},{"bike_id":"d743f47d-4dbb-4365-9aa1-d3ca17ab1483","system_id":"levelo_inurba_marseille","lat":43.27492,"lon":5.42454,"is_reserved":false,"is_disabled":false,"rental_uris":{"android":"levelo://app?vid=d743f47d-4dbb-4365-9aa1-d3ca17ab1483","ios":"levelo://app?vid=d743f47d-4dbb-4365-9aa1-d3ca17ab1483"},"vehicle_type_id":"4","last_reported":1733987364,"current_range_meters":4800,"station_id":"ce4bhn92rcd13ifvqgrg","pricing_plan_id":"cebpf4jnsgd1na2vs0mg"},{"bike_id":"cebd5362-7b70-47b1-bc49-530ef80e1944","system_id":"levelo_inurba_marseille","lat":43.31799,"lon":5.38115,"is_reserved":false,"is_disabled":true,"rental_uris":{"android":"levelo://app?vid=cebd5362-7b70-47b1-bc49-530ef80e1944","ios":"levelo://app?vid=cebd5362-7b70-47b1-bc49-530ef80e1944"},"vehicle_type_id":"4","last_reported":1733987364,"current_range_meters":0,"station_id":"","pricing_plan_id":"cebpf4jnsgd1na2vs0mg"},{"bike_id":"2a6d0539-b439-4436-a9dc-712f280b5e24","system_id":"levelo_inurba_marseille","lat":43.305284,"lon":5.384378,"is_reserved":false,"is_disabled":false,"rental_uris":{"android":"levelo://app?vid=2a6d0539-b439-4436-a9dc-712f280b5e24","ios":"levelo://app?vid=2a6d0539-b439-4436-a9dc-712f280b5e24"},"vehicle_type_id":"4","last_reported":1733987364,"current_range_meters":38000,"station_id":"ce4bgg92rcd13ifvqb30","pricing_plan_id":"cebpf4jnsgd1na2vs0mg"},{"bike_id":"0aaf9b22-f7e1-4e4f-a1a5-7a779d72a1d4","system_id":"levelo_inurba_marseille","lat":43.29824,"lon":5.37767,"is_reserved":false,"is_disabled":true,"rental_uris":{"android":"levelo://app?vid=0aaf9b22-f7e1-4e4f-a1a5-7a779d72a1d4","ios":"levelo://app?vid=0aaf9b22-f7e1-4e4f-a1a5-7a779d72a1d4"},"vehicle_type_id":"4","last_reported":1733987364,"current_range_meters":0,"station_id":"","pricing_plan_id":"cebpf4jnsgd1na2vs0mg"},{"bike_id":"1f1d5884-dd9d-42a3-a0fa-a0f01b409bf6","system_id":"levelo_inurba_marseille","lat":43.25122,"lon":5.40316,"is_reserved":false,"is_disabled":true,"rental_uris":{"android":"levelo://app?vid=1f1d5884-dd9d-42a3-a0fa-a0f01b409bf6","ios":"levelo://app?vid=1f1d5884-dd9d-42a3-a0fa-a0f01b409bf6"},"vehicle_type_id":"4","last_reported":1733987364,"current_range_meters":2000,"station_id":"ce4bhlh2rcd13ifvqgig","pricing_plan_id":"cebpf4jnsgd1na2vs0mg"},{"bike_id":"91c3f92e-5d61-470b-b958-c89d04138b23","system_id":"levelo_inurba_marseille","lat":43.29584,"lon":5.37497,"is_reserved":false,"is_disabled":true,"rental_uris":{"android":"levelo://app?vid=91c3f92e-5d61-470b-b958-c89d04138b23","ios":"levelo://app?vid=91c3f92e-5d61-470b-b958-c89d04138b23"},"vehicle_type_id":"4","last_reported":1733987364,"current_range_meters":2800,"station_id":"ce4bgh92rcd13ifvqb50","pricing_plan_id":"cebpf4jnsgd1na2vs0mg"},{"bike_id":"40cf5e41-3036-4360-a947-51703080c31d","system_id":"levelo_inurba_marseille","lat":43.29101,"lon":5.3813,"is_reserved":false,"is_disabled":false,"rental_uris":{"android":"levelo://app?vid=40cf5e41-3036-4360-a947-51703080c31d","ios":"levelo://app?vid=40cf5e41-3036-4360-a947-51703080c31d"},"vehicle_type_id":"4","last_reported":1733987364,"current_range_meters":9600,"station_id":"ce4bh512rcd13ifvqe2g","pricing_plan_id":"cebpf4jnsgd1na2vs0mg"},{"bike_id":"b8e3a311-f02b-4399-af7b-1bfb5506fa2a","system_id":"levelo_inurba_marseille","lat":43.24647,"lon":5.38891,"is_reserved":false,"is_disabled":false,"rental_uris":{"android":"levelo://app?vid=b8e3a311-f02b-4399-af7b-1bfb5506fa2a","ios":"levelo://app?vid=b8e3a311-f02b-4399-af7b-1bfb5506fa2a"},"vehicle_type_id":"4","last_reported":1733987364,"current_range_meters":25200,"station_id":"ce4bhg12rcd13ifvqf60","pricing_plan_id":"cebpf4jnsgd1na2vs0mg"},{"bike_id":"eb2a26dc-d895-4b2d-8eec-536a09e2de62","system_id":"levelo_inurba_marseille","lat":43.30926,"lon":5.40162,"is_reserved":false,"is_disabled":false,"rental_uris":{"android":"levelo://app?vid=eb2a26dc-d895-4b2d-8eec-536a09e2de62","ios":"levelo://app?vid=eb2a26dc-d895-4b2d-8eec-536a09e2de62"},"vehicle_type_id":"4","last_reported":1733987364,"current_range_meters":25600,"station_id":"ce4bgvp2rcd13ifvqct0","pricing_plan_id":"cebpf4jnsgd1na2vs0mg"},{"bike_id":"3644571c-283f-403b-ba64-32dee84c6164","system_id":"levelo_inurba_marseille","lat":43.27074,"lon":5.42275,"is_reserved":false,"is_disabled":false,"rental_uris":{"android":"levelo://app?vid=3644571c-283f-403b-ba64-32dee84c6164","ios":"levelo://app?vid=3644571c-283f-403b-ba64-32dee84c6164"},"vehicle_type_id":"4","last_reported":1733987364,"current_range_meters":10000,"station_id":"ce4bhk92rcd13ifvqgb0","pricing_plan_id":"cebpf4jnsgd1na2vs0mg"},{"bike_id":"903fc880-9114-4f5a-ab5e-510528b4f0ca","system_id":"levelo_inurba_marseille","lat":43.31333,"lon":5.36715,"is_reserved":false,"is_disabled":false,"rental_uris":{"android":"levelo://app?vid=903fc880-9114-4f5a-ab5e-510528b4f0ca","ios":"levelo://app?vid=903fc880-9114-4f5a-ab5e-510528b4f0ca"},"vehicle_type_id":"4","last_reported":1733987364,"current_range_meters":36800,"station_id":"ce4bgr92rcd13ifvqc6g","pricing_plan_id":"cebpf4jnsgd1na2vs0mg"},{"bike_id":"81431fbc-87f7-42e1-8dfa-59e2f6be05ec","system_id":"levelo_inurba_marseille","lat":43.28695,"lon":5.39984,"is_reserved":false,"is_disabled":false,"rental_uris":{"android":"levelo://app?vid=81431fbc-87f7-42e1-8dfa-59e2f6be05ec","ios":"levelo://app?vid=81431fbc-87f7-42e1-8dfa-59e2f6be05ec"},"vehicle_type_id":"4","last_reported":1733987364,"current_range_meters":39200,"station_id":"ce4bho92rcd13ifvqh3g","pricing_plan_id":"cebpf4jnsgd1na2vs0mg"},{"bike_id":"5746a913-59cb-4881-b851-217de753d5a3","system_id":"levelo_inurba_marseille","lat":43.25098,"lon":5.39536,"is_reserved":false,"is_disabled":false,"rental_uris":{"android":"levelo://app?vid=5746a913-59cb-4881-b851-217de753d5a3","ios":"levelo://app?vid=5746a913-59cb-4881-b851-217de753d5a3"},"vehicle_type_id":"4","last_reported":1733987364,"current_range_meters":26000,"station_id":"ce4bhm12rcd13ifvqgkg","pricing_plan_id":"cebpf4jnsgd1na2vs0mg"},{"bike_id":"2da50198-ac0d-41eb-8122-6ade18c02d34","system_id":"levelo_inurba_marseille","lat":43.28854,"lon":5.35835,"is_reserved":false,"is_disabled":false,"rental_uris":{"android":"levelo://app?vid=2da50198-ac0d-41eb-8122-6ade18c02d34","ios":"levelo://app?vid=2da50198-ac0d-41eb-8122-6ade18c02d34"},"vehicle_type_id":"4","last_reported":1733987364,"current_range_meters":27200,"station_id":"ce4bhb12rcd13ifvqem0","pricing_plan_id":"cebpf4jnsgd1na2vs0mg"},{"bike_id":"8ff42f71-430f-40d5-b880-4d7595032d49","system_id":"levelo_inurba_marseille","lat":43.27948,"lon":5.41055,"is_reserved":false,"is_disabled":false,"rental_uris":{"android":"levelo://app?vid=8ff42f71-430f-40d5-b880-4d7595032d49","ios":"levelo://app?vid=8ff42f71-430f-40d5-b880-4d7595032d49"},"vehicle_type_id":"4","last_reported":1733987364,"current_range_meters":32800,"station_id":"ce4bhnp2rcd13ifvqh0g","pricing_plan_id":"cebpf4jnsgd1na2vs0mg"},{"bike_id":"a367ec39-2267-4cfb-9a56-9d06947304f2","system_id":"levelo_inurba_marseille","lat":43.32365,"lon":5.38888,"is_reserved":false,"is_disabled":false,"rental_uris":{"android":"levelo://app?vid=a367ec39-2267-4cfb-9a56-9d06947304f2","ios":"levelo://app?vid=a367ec39-2267-4cfb-9a56-9d06947304f2"},"vehicle_type_id":"4","last_reported":1733987364,"current_range_meters":11200,"station_id":"ce4bhqp2rcd13ifvqhog","pricing_plan_id":"cebpf4jnsgd1na2vs0mg"},{"bike_id":"9f59f892-069b-4e04-9fca-167860a220e8","system_id":"levelo_inurba_marseille","lat":43.31507,"lon":5.38931,"is_reserved":false,"is_disabled":false,"rental_uris":{"android":"levelo://app?vid=9f59f892-069b-4e04-9fca-167860a220e8","ios":"levelo://app?vid=9f59f892-069b-4e04-9fca-167860a220e8"},"vehicle_type_id":"4","last_reported":1733987364,"current_range_meters":18800,"station_id":"","pricing_plan_id":"cebpf4jnsgd1na2vs0mg"},{"bike_id":"dce93e78-90d1-4f6a-82a4-36b2cfdb84f0","system_id":"levelo_inurba_marseille","lat":43.30269,"lon":5.3774,"is_reserved":false,"is_disabled":false,"rental_uris":{"android":"levelo://app?vid=dce93e78-90d1-4f6a-82a4-36b2cfdb84f0","ios":"levelo://app?vid=dce93e78-90d1-4f6a-82a4-36b2cfdb84f0"},"vehicle_type_id":"4","last_reported":1733987364,"current_range_meters":28800,"station_id":"ce4bguh2rcd13ifvqcj0","pricing_plan_id":"cebpf4jnsgd1na2vs0mg"},{"bike_id":"76f3328f-e574-457e-a081-a550f776ec21","system_id":"levelo_inurba_marseille","lat":43.24066,"lon":5.37765,"is_reserved":false,"is_disabled":false,"rental_uris":{"android":"levelo://app?vid=76f3328f-e574-457e-a081-a550f776ec21","ios":"levelo://app?vid=76f3328f-e574-457e-a081-a550f776ec21"},"vehicle_type_id":"4","last_reported":1733987364,"current_range_meters":27600,"station_id":"ce4bhnp2rcd13ifvqgvg","pricing_plan_id":"cebpf4jnsgd1na2vs0mg"},{"bike_id":"a0fe8656-1ac1-4d55-a384-edf23da0c321","system_id":"levelo_inurba_marseille","lat":43.33602,"lon":5.41033,"is_reserved":false,"is_disabled":false,"rental_uris":{"android":"levelo://app?vid=a0fe8656-1ac1-4d55-a384-edf23da0c321","ios":"levelo://app?vid=a0fe8656-1ac1-4d55-a384-edf23da0c321"},"vehicle_type_id":"4","last_reported":1733987364,"current_range_meters":28800,"station_id":"ce4bhqh2rcd13ifvqhmg","pricing_plan_id":"cebpf4jnsgd1na2vs0mg"},{"bike_id":"53e14b4a-061d-47e0-9d41-ff9b1a6d0a08","system_id":"levelo_inurba_marseille","lat":43.29842,"lon":5.36268,"is_reserved":false,"is_disabled":false,"rental_uris":{"android":"levelo://app?vid=53e14b4a-061d-47e0-9d41-ff9b1a6d0a08","ios":"levelo://app?vid=53e14b4a-061d-47e0-9d41-ff9b1a6d0a08"},"vehicle_type_id":"4","last_reported":1733987364,"current_range_meters":18800,"station_id":"ce4bgpp2rcd13ifvqc3g","pricing_plan_id":"cebpf4jnsgd1na2vs0mg"},{"bike_id":"440c0882-719b-4b38-aba1-872c74c75218","system_id":"levelo_inurba_marseille","lat":43.32295,"lon":5.3827,"is_reserved":false,"is_disabled":false,"rental_uris":{"android":"levelo://app?vid=440c0882-719b-4b38-aba1-872c74c75218","ios":"levelo://app?vid=440c0882-719b-4b38-aba1-872c74c75218"},"vehicle_type_id":"4","last_reported":1733987364,"current_range_meters":37600,"station_id":"ce4bhr12rcd13ifvqhqg","pricing_plan_id":"cebpf4jnsgd1na2vs0mg"},{"bike_id":"9f4ff309-16c5-4f67-9aac-83afe40d118a","system_id":"levelo_inurba_marseille","lat":43.23957,"lon":5.36639,"is_reserved":false,"is_disabled":false,"rental_uris":{"android":"levelo://app?vid=9f4ff309-16c5-4f67-9aac-83afe40d118a","ios":"levelo://app?vid=9f4ff309-16c5-4f67-9aac-83afe40d118a"},"vehicle_type_id":"4","last_reported":1733987364,"current_range_meters":38800,"station_id":"ce4bhi12rcd13ifvqfp0","pricing_plan_id":"cebpf4jnsgd1na2vs0mg"},{"bike_id":"b84a07c7-fe33-4e4e-a18f-7ded0b0c83d3","system_id":"levelo_inurba_marseille","lat":43.26194,"lon":5.37456,"is_reserved":false,"is_disabled":false,"rental_uris":{"android":"levelo://app?vid=b84a07c7-fe33-4e4e-a18f-7ded0b0c83d3","ios":"levelo://app?vid=b84a07c7-fe33-4e4e-a18f-7ded0b0c83d3"},"vehicle_type_id":"4","last_reported":1733987364,"current_range_meters":36000,"station_id":"ce4bhgp2rcd13ifvqfc0","pricing_plan_id":"cebpf4jnsgd1na2vs0mg"},{"bike_id":"accc15c2-75c8-4823-a61f-1d4d7e399167","system_id":"levelo_inurba_marseille","lat":43.29423,"lon":5.38608,"is_reserved":false,"is_disabled":true,"rental_uris":{"android":"levelo://app?vid=accc15c2-75c8-4823-a61f-1d4d7e399167","ios":"levelo://app?vid=accc15c2-75c8-4823-a61f-1d4d7e399167"},"vehicle_type_id":"4","last_reported":1733987364,"current_range_meters":8400,"station_id":"ce4bh2h2rcd13ifvqdh0","pricing_plan_id":"cebpf4jnsgd1na2vs0mg"},{"bike_id":"f768d0bf-8e8f-4e72-9d41-949d2e81dc16","system_id":"levelo_inurba_marseille","lat":43.27491,"lon":5.4245,"is_reserved":false,"is_disabled":false,"rental_uris":{"android":"levelo://app?vid=f768d0bf-8e8f-4e72-9d41-949d2e81dc16","ios":"levelo://app?vid=f768d0bf-8e8f-4e72-9d41-949d2e81dc16"},"vehicle_type_id":"4","last_reported":1733987364,"current_range_meters":26000,"station_id":"ce4bhn92rcd13ifvqgrg","pricing_plan_id":"cebpf4jnsgd1na2vs0mg"},{"bike_id":"20dec2c9-ca70-4520-b174-a81f4e369962","system_id":"levelo_inurba_marseille","lat":43.29553,"lon":5.42284,"is_reserved":false,"is_disabled":false,"rental_uris":{"android":"levelo://app?vid=20dec2c9-ca70-4520-b174-a81f4e369962","ios":"levelo://app?vid=20dec2c9-ca70-4520-b174-a81f4e369962"},"vehicle_type_id":"4","last_reported":1733987364,"current_range_meters":33200,"station_id":"ce4bhph2rcd13ifvqhdg","pricing_plan_id":"cebpf4jnsgd1na2vs0mg"},{"bike_id":"582f7d7e-d41d-4085-8809-4c51570abd78","system_id":"levelo_inurba_marseille","lat":43.30461,"lon":5.37904,"is_reserved":false,"is_disabled":false,"rental_uris":{"android":"levelo://app?vid=582f7d7e-d41d-4085-8809-4c51570abd78","ios":"levelo://app?vid=582f7d7e-d41d-4085-8809-4c51570abd78"},"vehicle_type_id":"4","last_reported":1733987364,"current_range_meters":28800,"station_id":"ce4bgup2rcd13ifvqcn0","pricing_plan_id":"cebpf4jnsgd1na2vs0mg"},{"bike_id":"2c014ae4-7d58-406f-a0f3-e7beffdd9a3b","system_id":"levelo_inurba_marseille","lat":43.301012,"lon":5.390863,"is_reserved":false,"is_disabled":true,"rental_uris":{"android":"levelo://app?vid=2c014ae4-7d58-406f-a0f3-e7beffdd9a3b","ios":"levelo://app?vid=2c014ae4-7d58-406f-a0f3-e7beffdd9a3b"},"vehicle_type_id":"4","last_reported":1733987364,"current_range_meters":28000,"station_id":"ce4bh192rcd13ifvqdb0","pricing_plan_id":"cebpf4jnsgd1na2vs0mg"},{"bike_id":"ed2fbb75-c3f5-4215-90ce-b1c95b4d299a","system_id":"levelo_inurba_marseille","lat":43.29306,"lon":5.37181,"is_reserved":false,"is_disabled":false,"rental_uris":{"android":"levelo://app?vid=ed2fbb75-c3f5-4215-90ce-b1c95b4d299a","ios":"levelo://app?vid=ed2fbb75-c3f5-4215-90ce-b1c95b4d299a"},"vehicle_type_id":"4","last_reported":1733987364,"current_range_meters":24800,"station_id":"ce4bgh92rcd13ifvqb40","pricing_plan_id":"cebpf4jnsgd1na2vs0mg"},{"bike_id":"e966d2c7-c9e1-4cb1-9a39-6325607b0be4","system_id":"levelo_inurba_marseille","lat":43.337444,"lon":5.374475,"is_reserved":false,"is_disabled":true,"rental_uris":{"android":"levelo://app?vid=e966d2c7-c9e1-4cb1-9a39-6325607b0be4","ios":"levelo://app?vid=e966d2c7-c9e1-4cb1-9a39-6325607b0be4"},"vehicle_type_id":"4","last_reported":1733987364,"current_range_meters":0,"station_id":"","pricing_plan_id":"cebpf4jnsgd1na2vs0mg"},{"bike_id":"ed52cfb2-2b88-49e2-9a50-e65dabdb9a6c","system_id":"levelo_inurba_marseille","lat":43.30952,"lon":5.39031,"is_reserved":false,"is_disabled":false,"rental_uris":{"android":"levelo://app?vid=ed52cfb2-2b88-49e2-9a50-e65dabdb9a6c","ios":"levelo://app?vid=ed52cfb2-2b88-49e2-9a50-e65dabdb9a6c"},"vehicle_type_id":"4","last_reported":1733987364,"current_range_meters":17600,"station_id":"ce4bgup2rcd13ifvqco0","pricing_plan_id":"cebpf4jnsgd1na2vs0mg"},{"bike_id":"08f6dfd2-5a55-4565-9eb0-3f7235020a27","system_id":"levelo_inurba_marseille","lat":43.24549,"lon":5.39526,"is_reserved":false,"is_disabled":false,"rental_uris":{"android":"levelo://app?vid=08f6dfd2-5a55-4565-9eb0-3f7235020a27","ios":"levelo://app?vid=08f6dfd2-5a55-4565-9eb0-3f7235020a27"},"vehicle_type_id":"4","last_reported":1733987364,"current_range_meters":28400,"station_id":"ce4bhlp2rcd13ifvqgjg","pricing_plan_id":"cebpf4jnsgd1na2vs0mg"},{"bike_id":"312bb54d-7981-48b2-bad1-cc0be49295b2","system_id":"levelo_inurba_marseille","lat":43.288384,"lon":5.358538,"is_reserved":false,"is_disabled":false,"rental_uris":{"android":"levelo://app?vid=312bb54d-7981-48b2-bad1-cc0be49295b2","ios":"levelo://app?vid=312bb54d-7981-48b2-bad1-cc0be49295b2"},"vehicle_type_id":"4","last_reported":1733987364,"current_range_meters":32400,"station_id":"ce4bhb12rcd13ifvqem0","pricing_plan_id":"cebpf4jnsgd1na2vs0mg"},{"bike_id":"f0a4f587-2333-4a7a-8819-09121e495e1b","system_id":"levelo_inurba_marseille","lat":43.22944,"lon":5.35382,"is_reserved":false,"is_disabled":false,"rental_uris":{"android":"levelo://app?vid=f0a4f587-2333-4a7a-8819-09121e495e1b","ios":"levelo://app?vid=f0a4f587-2333-4a7a-8819-09121e495e1b"},"vehicle_type_id":"4","last_reported":1733987364,"current_range_meters":9600,"station_id":"cpo3532slgdg3j2ikp40","pricing_plan_id":"cebpf4jnsgd1na2vs0mg"},{"bike_id":"ba6fe419-774c-4091-895e-a76421491481","system_id":"levelo_inurba_marseille","lat":43.23153,"lon":5.43723,"is_reserved":false,"is_disabled":false,"rental_uris":{"android":"levelo://app?vid=ba6fe419-774c-4091-895e-a76421491481","ios":"levelo://app?vid=ba6fe419-774c-4091-895e-a76421491481"},"vehicle_type_id":"4","last_reported":1733987364,"current_range_meters":17200,"station_id":"ce4bhmp2rcd13ifvqgog","pricing_plan_id":"cebpf4jnsgd1na2vs0mg"},{"bike_id":"3e785f90-65e1-4989-8401-b8a6867e03c6","system_id":"levelo_inurba_marseille","lat":43.27497,"lon":5.42455,"is_reserved":false,"is_disabled":false,"rental_uris":{"android":"levelo://app?vid=3e785f90-65e1-4989-8401-b8a6867e03c6","ios":"levelo://app?vid=3e785f90-65e1-4989-8401-b8a6867e03c6"},"vehicle_type_id":"4","last_reported":1733987364,"current_range_meters":26800,"station_id":"ce4bhn92rcd13ifvqgrg","pricing_plan_id":"cebpf4jnsgd1na2vs0mg"},{"bike_id":"777a4fd5-84ec-439f-b06c-c3583086b6b6","system_id":"levelo_inurba_marseille","lat":43.24076,"lon":5.37762,"is_reserved":false,"is_disabled":false,"rental_uris":{"android":"levelo://app?vid=777a4fd5-84ec-439f-b06c-c3583086b6b6","ios":"levelo://app?vid=777a4fd5-84ec-439f-b06c-c3583086b6b6"},"vehicle_type_id":"4","last_reported":1733987364,"current_range_meters":25600,"station_id":"ce4bhnp2rcd13ifvqgvg","pricing_plan_id":"cebpf4jnsgd1na2vs0mg"},{"bike_id":"e2b090ff-7c7f-4d4a-8f5b-c317e750043e","system_id":"levelo_inurba_marseille","lat":43.270685,"lon":5.422798,"is_reserved":false,"is_disabled":true,"rental_uris":{"android":"levelo://app?vid=e2b090ff-7c7f-4d4a-8f5b-c317e750043e","ios":"levelo://app?vid=e2b090ff-7c7f-4d4a-8f5b-c317e750043e"},"vehicle_type_id":"4","last_reported":1733987364,"current_range_meters":0,"station_id":"ce4bhk92rcd13ifvqgb0","pricing_plan_id":"cebpf4jnsgd1na2vs0mg"},{"bike_id":"1802c294-deb8-4890-b7ca-3e995fd26543","system_id":"levelo_inurba_marseille","lat":43.27074,"lon":5.42284,"is_reserved":false,"is_disabled":false,"rental_uris":{"android":"levelo://app?vid=1802c294-deb8-4890-b7ca-3e995fd26543","ios":"levelo://app?vid=1802c294-deb8-4890-b7ca-3e995fd26543"},"vehicle_type_id":"4","last_reported":1733987364,"current_range_meters":34800,"station_id":"ce4bhk92rcd13ifvqgb0","pricing_plan_id":"cebpf4jnsgd1na2vs0mg"},{"bike_id":"95ede738-38b3-4b7a-b217-ae02d3f4146c","system_id":"levelo_inurba_marseille","lat":43.2902,"lon":5.38136,"is_reserved":false,"is_disabled":false,"rental_uris":{"android":"levelo://app?vid=95ede738-38b3-4b7a-b217-ae02d3f4146c","ios":"levelo://app?vid=95ede738-38b3-4b7a-b217-ae02d3f4146c"},"vehicle_type_id":"4","last_reported":1733987364,"current_range_meters":20400,"station_id":"ce4bh4p2rcd13ifvqe1g","pricing_plan_id":"cebpf4jnsgd1na2vs0mg"},{"bike_id":"58cf3891-dd94-4bdf-8a77-a287a3f2609a","system_id":"levelo_inurba_marseille","lat":43.24399,"lon":5.37038,"is_reserved":false,"is_disabled":false,"rental_uris":{"android":"levelo://app?vid=58cf3891-dd94-4bdf-8a77-a287a3f2609a","ios":"levelo://app?vid=58cf3891-dd94-4bdf-8a77-a287a3f2609a"},"vehicle_type_id":"4","last_reported":1733987364,"current_range_meters":38800,"station_id":"ce4bhhh2rcd13ifvqfk0","pricing_plan_id":"cebpf4jnsgd1na2vs0mg"},{"bike_id":"fe4d47c1-dfb5-4e68-bfe4-126efd20c0c3","system_id":"levelo_inurba_marseille","lat":43.30785,"lon":5.37387,"is_reserved":false,"is_disabled":false,"rental_uris":{"android":"levelo://app?vid=fe4d47c1-dfb5-4e68-bfe4-126efd20c0c3","ios":"levelo://app?vid=fe4d47c1-dfb5-4e68-bfe4-126efd20c0c3"},"vehicle_type_id":"4","last_reported":1733987364,"current_range_meters":23200,"station_id":"","pricing_plan_id":"cebpf4jnsgd1na2vs0mg"},{"bike_id":"02cf900b-cd94-4a50-a5bc-06cd690506b9","system_id":"levelo_inurba_marseille","lat":43.30476,"lon":5.37898,"is_reserved":false,"is_disabled":false,"rental_uris":{"android":"levelo://app?vid=02cf900b-cd94-4a50-a5bc-06cd690506b9","ios":"levelo://app?vid=02cf900b-cd94-4a50-a5bc-06cd690506b9"},"vehicle_type_id":"4","last_reported":1733987364,"current_range_meters":38800,"station_id":"ce4bgup2rcd13ifvqcn0","pricing_plan_id":"cebpf4jnsgd1na2vs0mg"},{"bike_id":"8bce4d14-97e1-4732-8b97-92aecbbe2473","system_id":"levelo_inurba_marseille","lat":43.24084,"lon":5.37746,"is_reserved":false,"is_disabled":false,"rental_uris":{"android":"levelo://app?vid=8bce4d14-97e1-4732-8b97-92aecbbe2473","ios":"levelo://app?vid=8bce4d14-97e1-4732-8b97-92aecbbe2473"},"vehicle_type_id":"4","last_reported":1733987364,"current_range_meters":4400,"station_id":"ce4bhnp2rcd13ifvqgvg","pricing_plan_id":"cebpf4jnsgd1na2vs0mg"},{"bike_id":"097a41bf-6635-41a6-b7a7-1173cae29ada","system_id":"levelo_inurba_marseille","lat":43.22905,"lon":5.35402,"is_reserved":false,"is_disabled":false,"rental_uris":{"android":"levelo://app?vid=097a41bf-6635-41a6-b7a7-1173cae29ada","ios":"levelo://app?vid=097a41bf-6635-41a6-b7a7-1173cae29ada"},"vehicle_type_id":"4","last_reported":1733987364,"current_range_meters":39200,"station_id":"cpo3532slgdg3j2ikp40","pricing_plan_id":"cebpf4jnsgd1na2vs0mg"},{"bike_id":"a90ab59e-9775-4bc6-a3e9-285e464122de","system_id":"levelo_inurba_marseille","lat":43.2465,"lon":5.38892,"is_reserved":false,"is_disabled":false,"rental_uris":{"android":"levelo://app?vid=a90ab59e-9775-4bc6-a3e9-285e464122de","ios":"levelo://app?vid=a90ab59e-9775-4bc6-a3e9-285e464122de"},"vehicle_type_id":"4","last_reported":1733987364,"current_range_meters":36400,"station_id":"ce4bhg12rcd13ifvqf60","pricing_plan_id":"cebpf4jnsgd1na2vs0mg"},{"bike_id":"e08a3c45-9a07-474f-9717-a27fa81c4ce9","system_id":"levelo_inurba_marseille","lat":43.3077,"lon":5.38761,"is_reserved":false,"is_disabled":true,"rental_uris":{"android":"levelo://app?vid=e08a3c45-9a07-474f-9717-a27fa81c4ce9","ios":"levelo://app?vid=e08a3c45-9a07-474f-9717-a27fa81c4ce9"},"vehicle_type_id":"4","last_reported":1733987364,"current_range_meters":0,"station_id":"","pricing_plan_id":"cebpf4jnsgd1na2vs0mg"},{"bike_id":"c40dc439-d537-4bb0-931d-4f71ca7e56fb","system_id":"levelo_inurba_marseille","lat":43.29796,"lon":5.38086,"is_reserved":false,"is_disabled":false,"rental_uris":{"android":"levelo://app?vid=c40dc439-d537-4bb0-931d-4f71ca7e56fb","ios":"levelo://app?vid=c40dc439-d537-4bb0-931d-4f71ca7e56fb"},"vehicle_type_id":"4","last_reported":1733987364,"current_range_meters":16800,"station_id":"ce4bgip2rcd13ifvqbb0","pricing_plan_id":"cebpf4jnsgd1na2vs0mg"},{"bike_id":"68f9e684-75a7-4aeb-84c3-00e6eb73884d","system_id":"levelo_inurba_marseille","lat":43.281,"lon":5.3784,"is_reserved":false,"is_disabled":false,"rental_uris":{"android":"levelo://app?vid=68f9e684-75a7-4aeb-84c3-00e6eb73884d","ios":"levelo://app?vid=68f9e684-75a7-4aeb-84c3-00e6eb73884d"},"vehicle_type_id":"4","last_reported":1733987364,"current_range_meters":38000,"station_id":"ce4bha12rcd13ifvqee0","pricing_plan_id":"cebpf4jnsgd1na2vs0mg"},{"bike_id":"d8b953f2-f14c-4c14-b2ea-95ebb57b2730","system_id":"levelo_inurba_marseille","lat":43.28729,"lon":5.40001,"is_reserved":false,"is_disabled":false,"rental_uris":{"android":"levelo://app?vid=d8b953f2-f14c-4c14-b2ea-95ebb57b2730","ios":"levelo://app?vid=d8b953f2-f14c-4c14-b2ea-95ebb57b2730"},"vehicle_type_id":"4","last_reported":1733987364,"current_range_meters":23200,"station_id":"ce4bho92rcd13ifvqh3g","pricing_plan_id":"cebpf4jnsgd1na2vs0mg"},{"bike_id":"96bf4cb0-2c8e-4663-a88b-30b55c3084dc","system_id":"levelo_inurba_marseille","lat":43.25577,"lon":5.38235,"is_reserved":false,"is_disabled":false,"rental_uris":{"android":"levelo://app?vid=96bf4cb0-2c8e-4663-a88b-30b55c3084dc","ios":"levelo://app?vid=96bf4cb0-2c8e-4663-a88b-30b55c3084dc"},"vehicle_type_id":"4","last_reported":1733987364,"current_range_meters":35600,"station_id":"ce4bhih2rcd13ifvqfs0","pricing_plan_id":"cebpf4jnsgd1na2vs0mg"},{"bike_id":"89f24dc5-38fd-4c74-af12-df0de405d696","system_id":"levelo_inurba_marseille","lat":43.29585,"lon":5.37509,"is_reserved":false,"is_disabled":true,"rental_uris":{"android":"levelo://app?vid=89f24dc5-38fd-4c74-af12-df0de405d696","ios":"levelo://app?vid=89f24dc5-38fd-4c74-af12-df0de405d696"},"vehicle_type_id":"4","last_reported":1733987364,"current_range_meters":36400,"station_id":"ce4bgh92rcd13ifvqb50","pricing_plan_id":"cebpf4jnsgd1na2vs0mg"},{"bike_id":"31d5cd85-8dd9-4132-92c7-5034c74e0b72","system_id":"levelo_inurba_marseille","lat":43.30446,"lon":5.37904,"is_reserved":false,"is_disabled":false,"rental_uris":{"android":"levelo://app?vid=31d5cd85-8dd9-4132-92c7-5034c74e0b72","ios":"levelo://app?vid=31d5cd85-8dd9-4132-92c7-5034c74e0b72"},"vehicle_type_id":"4","last_reported":1733987364,"current_range_meters":32800,"station_id":"ce4bgup2rcd13ifvqcn0","pricing_plan_id":"cebpf4jnsgd1na2vs0mg"},{"bike_id":"120f70ca-47ad-4a9b-8d91-7f4f3d17ec3d","system_id":"levelo_inurba_marseille","lat":43.29799,"lon":5.38085,"is_reserved":false,"is_disabled":false,"rental_uris":{"android":"levelo://app?vid=120f70ca-47ad-4a9b-8d91-7f4f3d17ec3d","ios":"levelo://app?vid=120f70ca-47ad-4a9b-8d91-7f4f3d17ec3d"},"vehicle_type_id":"4","last_reported":1733987364,"current_range_meters":38800,"station_id":"ce4bgip2rcd13ifvqbb0","pricing_plan_id":"cebpf4jnsgd1na2vs0mg"},{"bike_id":"af77a2c4-4f01-4eac-8bd5-698508bacd7c","system_id":"levelo_inurba_marseille","lat":43.27191,"lon":5.40994,"is_reserved":false,"is_disabled":false,"rental_uris":{"android":"levelo://app?vid=af77a2c4-4f01-4eac-8bd5-698508bacd7c","ios":"levelo://app?vid=af77a2c4-4f01-4eac-8bd5-698508bacd7c"},"vehicle_type_id":"4","last_reported":1733987364,"current_range_meters":20000,"station_id":"ce4bhl12rcd13ifvqgf0","pricing_plan_id":"cebpf4jnsgd1na2vs0mg"},{"bike_id":"e2a77f5d-1d63-4243-bf72-8b9ec30686b1","system_id":"levelo_inurba_marseille","lat":43.2871,"lon":5.37943,"is_reserved":false,"is_disabled":true,"rental_uris":{"android":"levelo://app?vid=e2a77f5d-1d63-4243-bf72-8b9ec30686b1","ios":"levelo://app?vid=e2a77f5d-1d63-4243-bf72-8b9ec30686b1"},"vehicle_type_id":"4","last_reported":1733987364,"current_range_meters":30800,"station_id":"ce4bh9p2rcd13ifvqec0","pricing_plan_id":"cebpf4jnsgd1na2vs0mg"},{"bike_id":"c1867d20-08e9-4392-8aa4-b37ec540c6b9","system_id":"levelo_inurba_marseille","lat":43.26565,"lon":5.39016,"is_reserved":false,"is_disabled":false,"rental_uris":{"android":"levelo://app?vid=c1867d20-08e9-4392-8aa4-b37ec540c6b9","ios":"levelo://app?vid=c1867d20-08e9-4392-8aa4-b37ec540c6b9"},"vehicle_type_id":"4","last_reported":1733987364,"current_range_meters":34000,"station_id":"ce4bhe12rcd13ifvqf30","pricing_plan_id":"cebpf4jnsgd1na2vs0mg"},{"bike_id":"a57d4740-3421-4fe8-a560-aacf170b24e6","system_id":"levelo_inurba_marseille","lat":43.23151,"lon":5.43718,"is_reserved":false,"is_disabled":false,"rental_uris":{"android":"levelo://app?vid=a57d4740-3421-4fe8-a560-aacf170b24e6","ios":"levelo://app?vid=a57d4740-3421-4fe8-a560-aacf170b24e6"},"vehicle_type_id":"4","last_reported":1733987364,"current_range_meters":20400,"station_id":"ce4bhmp2rcd13ifvqgog","pricing_plan_id":"cebpf4jnsgd1na2vs0mg"},{"bike_id":"a1da9f56-725c-4b85-a12e-d43c54b79286","system_id":"levelo_inurba_marseille","lat":43.30597,"lon":5.3936,"is_reserved":false,"is_disabled":false,"rental_uris":{"android":"levelo://app?vid=a1da9f56-725c-4b85-a12e-d43c54b79286","ios":"levelo://app?vid=a1da9f56-725c-4b85-a12e-d43c54b79286"},"vehicle_type_id":"4","last_reported":1733987364,"current_range_meters":36400,"station_id":"ce4bh0p2rcd13ifvqd80","pricing_plan_id":"cebpf4jnsgd1na2vs0mg"},{"bike_id":"998fb05a-2a3b-4974-807b-b61a778b4ca7","system_id":"levelo_inurba_marseille","lat":43.304651,"lon":5.379079,"is_reserved":false,"is_disabled":false,"rental_uris":{"android":"levelo://app?vid=998fb05a-2a3b-4974-807b-b61a778b4ca7","ios":"levelo://app?vid=998fb05a-2a3b-4974-807b-b61a778b4ca7"},"vehicle_type_id":"4","last_reported":1733987364,"current_range_meters":19200,"station_id":"ce4bgup2rcd13ifvqcn0","pricing_plan_id":"cebpf4jnsgd1na2vs0mg"},{"bike_id":"719781ef-4cbd-4631-965b-6343c9720e99","system_id":"levelo_inurba_marseille","lat":43.3237,"lon":5.38885,"is_reserved":false,"is_disabled":false,"rental_uris":{"android":"levelo://app?vid=719781ef-4cbd-4631-965b-6343c9720e99","ios":"levelo://app?vid=719781ef-4cbd-4631-965b-6343c9720e99"},"vehicle_type_id":"4","last_reported":1733987364,"current_range_meters":38400,"station_id":"ce4bhqp2rcd13ifvqhog","pricing_plan_id":"cebpf4jnsgd1na2vs0mg"},{"bike_id":"479fd4a0-22f0-48b2-a232-dab81b92d831","system_id":"levelo_inurba_marseille","lat":43.26569,"lon":5.39009,"is_reserved":false,"is_disabled":false,"rental_uris":{"android":"levelo://app?vid=479fd4a0-22f0-48b2-a232-dab81b92d831","ios":"levelo://app?vid=479fd4a0-22f0-48b2-a232-dab81b92d831"},"vehicle_type_id":"4","last_reported":1733987364,"current_range_meters":25600,"station_id":"ce4bhe12rcd13ifvqf30","pricing_plan_id":"cebpf4jnsgd1na2vs0mg"},{"bike_id":"b4b002af-b566-4f7f-b733-4ec08c23fb23","system_id":"levelo_inurba_marseille","lat":43.313391,"lon":5.366969,"is_reserved":false,"is_disabled":false,"rental_uris":{"android":"levelo://app?vid=b4b002af-b566-4f7f-b733-4ec08c23fb23","ios":"levelo://app?vid=b4b002af-b566-4f7f-b733-4ec08c23fb23"},"vehicle_type_id":"4","last_reported":1733987364,"current_range_meters":28400,"station_id":"ce4bgr92rcd13ifvqc6g","pricing_plan_id":"cebpf4jnsgd1na2vs0mg"},{"bike_id":"a66c4b95-337e-4b9a-950c-e8c8d8e7a3a1","system_id":"levelo_inurba_marseille","lat":43.324799,"lon":5.365716,"is_reserved":false,"is_disabled":true,"rental_uris":{"android":"levelo://app?vid=a66c4b95-337e-4b9a-950c-e8c8d8e7a3a1","ios":"levelo://app?vid=a66c4b95-337e-4b9a-950c-e8c8d8e7a3a1"},"vehicle_type_id":"4","last_reported":1733987364,"current_range_meters":0,"station_id":"","pricing_plan_id":"cebpf4jnsgd1na2vs0mg"},{"bike_id":"28a418c2-ff0a-4e30-af57-61b58b29b061","system_id":"levelo_inurba_marseille","lat":43.33772,"lon":5.37433,"is_reserved":false,"is_disabled":false,"rental_uris":{"android":"levelo://app?vid=28a418c2-ff0a-4e30-af57-61b58b29b061","ios":"levelo://app?vid=28a418c2-ff0a-4e30-af57-61b58b29b061"},"vehicle_type_id":"4","last_reported":1733987364,"current_range_meters":20800,"station_id":"","pricing_plan_id":"cebpf4jnsgd1na2vs0mg"},{"bike_id":"fd68a44b-d7e7-4ac9-9f93-63b59e3318d2","system_id":"levelo_inurba_marseille","lat":43.33721,"lon":5.3918,"is_reserved":false,"is_disabled":false,"rental_uris":{"android":"levelo://app?vid=fd68a44b-d7e7-4ac9-9f93-63b59e3318d2","ios":"levelo://app?vid=fd68a44b-d7e7-4ac9-9f93-63b59e3318d2"},"vehicle_type_id":"4","last_reported":1733987364,"current_range_meters":38800,"station_id":"ce4bhr92rcd13ifvqhsg","pricing_plan_id":"cebpf4jnsgd1na2vs0mg"},{"bike_id":"321fd520-305a-4bff-ae40-2c4ccb7ccf74","system_id":"levelo_inurba_marseille","lat":43.29039,"lon":5.38163,"is_reserved":false,"is_disabled":true,"rental_uris":{"android":"levelo://app?vid=321fd520-305a-4bff-ae40-2c4ccb7ccf74","ios":"levelo://app?vid=321fd520-305a-4bff-ae40-2c4ccb7ccf74"},"vehicle_type_id":"4","last_reported":1733987364,"current_range_meters":39200,"station_id":"ce4bh4p2rcd13ifvqe1g","pricing_plan_id":"cebpf4jnsgd1na2vs0mg"},{"bike_id":"525d5075-66ff-4560-8562-bbe3b0a3f8b5","system_id":"levelo_inurba_marseille","lat":43.28359,"lon":5.381,"is_reserved":false,"is_disabled":false,"rental_uris":{"android":"levelo://app?vid=525d5075-66ff-4560-8562-bbe3b0a3f8b5","ios":"levelo://app?vid=525d5075-66ff-4560-8562-bbe3b0a3f8b5"},"vehicle_type_id":"4","last_reported":1733987364,"current_range_meters":24000,"station_id":"ce4bh412rcd13ifvqdr0","pricing_plan_id":"cebpf4jnsgd1na2vs0mg"},{"bike_id":"75bc53cd-099d-4532-9fce-83fc33d36897","system_id":"levelo_inurba_marseille","lat":43.24066,"lon":5.37758,"is_reserved":false,"is_disabled":false,"rental_uris":{"android":"levelo://app?vid=75bc53cd-099d-4532-9fce-83fc33d36897","ios":"levelo://app?vid=75bc53cd-099d-4532-9fce-83fc33d36897"},"vehicle_type_id":"4","last_reported":1733987364,"current_range_meters":14000,"station_id":"ce4bhnp2rcd13ifvqgvg","pricing_plan_id":"cebpf4jnsgd1na2vs0mg"},{"bike_id":"36c22a16-66d2-4f78-a6c0-ae41b756b49e","system_id":"levelo_inurba_marseille","lat":43.30955,"lon":5.39056,"is_reserved":false,"is_disabled":true,"rental_uris":{"android":"levelo://app?vid=36c22a16-66d2-4f78-a6c0-ae41b756b49e","ios":"levelo://app?vid=36c22a16-66d2-4f78-a6c0-ae41b756b49e"},"vehicle_type_id":"4","last_reported":1733987364,"current_range_meters":38800,"station_id":"ce4bgup2rcd13ifvqco0","pricing_plan_id":"cebpf4jnsgd1na2vs0mg"},{"bike_id":"a607fd84-3ef6-4d33-a3f4-7e19d6449a9a","system_id":"levelo_inurba_marseille","lat":43.30528,"lon":5.36704,"is_reserved":false,"is_disabled":false,"rental_uris":{"android":"levelo://app?vid=a607fd84-3ef6-4d33-a3f4-7e19d6449a9a","ios":"levelo://app?vid=a607fd84-3ef6-4d33-a3f4-7e19d6449a9a"},"vehicle_type_id":"4","last_reported":1733987364,"current_range_meters":29600,"station_id":"ce4bgrp2rcd13ifvqc9g","pricing_plan_id":"cebpf4jnsgd1na2vs0mg"},{"bike_id":"2175ae3c-739a-49a6-8b88-c695a996a497","system_id":"levelo_inurba_marseille","lat":43.24083,"lon":5.37746,"is_reserved":false,"is_disabled":true,"rental_uris":{"android":"levelo://app?vid=2175ae3c-739a-49a6-8b88-c695a996a497","ios":"levelo://app?vid=2175ae3c-739a-49a6-8b88-c695a996a497"},"vehicle_type_id":"4","last_reported":1733987364,"current_range_meters":32800,"station_id":"ce4bhnp2rcd13ifvqgvg","pricing_plan_id":"cebpf4jnsgd1na2vs0mg"},{"bike_id":"30b10b05-0727-4744-bd9d-dfe00d58e615","system_id":"levelo_inurba_marseille","lat":43.28723,"lon":5.3999,"is_reserved":false,"is_disabled":false,"rental_uris":{"android":"levelo://app?vid=30b10b05-0727-4744-bd9d-dfe00d58e615","ios":"levelo://app?vid=30b10b05-0727-4744-bd9d-dfe00d58e615"},"vehicle_type_id":"4","last_reported":1733987364,"current_range_meters":8000,"station_id":"ce4bho92rcd13ifvqh3g","pricing_plan_id":"cebpf4jnsgd1na2vs0mg"},{"bike_id":"b28364cf-3764-46be-9e34-df111405ff85","system_id":"levelo_inurba_marseille","lat":43.3266,"lon":5.40983,"is_reserved":false,"is_disabled":false,"rental_uris":{"android":"levelo://app?vid=b28364cf-3764-46be-9e34-df111405ff85","ios":"levelo://app?vid=b28364cf-3764-46be-9e34-df111405ff85"},"vehicle_type_id":"4","last_reported":1733987364,"current_range_meters":37600,"station_id":"ce4bhpp2rcd13ifvqhgg","pricing_plan_id":"cebpf4jnsgd1na2vs0mg"},{"bike_id":"bbcff5ca-4212-4f97-ad4e-cc9f02df715c","system_id":"levelo_inurba_marseille","lat":43.23189,"lon":5.39994,"is_reserved":false,"is_disabled":false,"rental_uris":{"android":"levelo://app?vid=bbcff5ca-4212-4f97-ad4e-cc9f02df715c","ios":"levelo://app?vid=bbcff5ca-4212-4f97-ad4e-cc9f02df715c"},"vehicle_type_id":"4","last_reported":1733987364,"current_range_meters":38000,"station_id":"ce4bhn12rcd13ifvqgqg","pricing_plan_id":"cebpf4jnsgd1na2vs0mg"},{"bike_id":"35b8c981-6017-437c-a656-9c184fa7cede","system_id":"levelo_inurba_marseille","lat":43.28933,"lon":5.39639,"is_reserved":false,"is_disabled":false,"rental_uris":{"android":"levelo://app?vid=35b8c981-6017-437c-a656-9c184fa7cede","ios":"levelo://app?vid=35b8c981-6017-437c-a656-9c184fa7cede"},"vehicle_type_id":"4","last_reported":1733987364,"current_range_meters":26800,"station_id":"ce4bh3h2rcd13ifvqdn0","pricing_plan_id":"cebpf4jnsgd1na2vs0mg"},{"bike_id":"94d24d12-981d-4c28-b9a7-c4bd686eb9f2","system_id":"levelo_inurba_marseille","lat":43.25725,"lon":5.41099,"is_reserved":false,"is_disabled":false,"rental_uris":{"android":"levelo://app?vid=94d24d12-981d-4c28-b9a7-c4bd686eb9f2","ios":"levelo://app?vid=94d24d12-981d-4c28-b9a7-c4bd686eb9f2"},"vehicle_type_id":"4","last_reported":1733987364,"current_range_meters":38800,"station_id":"ce4bhkp2rcd13ifvqgd0","pricing_plan_id":"cebpf4jnsgd1na2vs0mg"},{"bike_id":"cbbff6b4-11dd-4a22-bbf0-bd9f53ccbf1c","system_id":"levelo_inurba_marseille","lat":43.28345,"lon":5.38104,"is_reserved":false,"is_disabled":false,"rental_uris":{"android":"levelo://app?vid=cbbff6b4-11dd-4a22-bbf0-bd9f53ccbf1c","ios":"levelo://app?vid=cbbff6b4-11dd-4a22-bbf0-bd9f53ccbf1c"},"vehicle_type_id":"4","last_reported":1733987364,"current_range_meters":26800,"station_id":"ce4bh412rcd13ifvqdr0","pricing_plan_id":"cebpf4jnsgd1na2vs0mg"},{"bike_id":"b29f3572-8242-4e95-9b80-1ba5e655a43a","system_id":"levelo_inurba_marseille","lat":43.30546,"lon":5.36563,"is_reserved":false,"is_disabled":false,"rental_uris":{"android":"levelo://app?vid=b29f3572-8242-4e95-9b80-1ba5e655a43a","ios":"levelo://app?vid=b29f3572-8242-4e95-9b80-1ba5e655a43a"},"vehicle_type_id":"4","last_reported":1733987364,"current_range_meters":26000,"station_id":"ce4bgs12rcd13ifvqcag","pricing_plan_id":"cebpf4jnsgd1na2vs0mg"},{"bike_id":"01a9ccc3-a625-4eee-b6cd-9dc053cb5ca0","system_id":"levelo_inurba_marseille","lat":43.287226,"lon":5.399968,"is_reserved":false,"is_disabled":false,"rental_uris":{"android":"levelo://app?vid=01a9ccc3-a625-4eee-b6cd-9dc053cb5ca0","ios":"levelo://app?vid=01a9ccc3-a625-4eee-b6cd-9dc053cb5ca0"},"vehicle_type_id":"4","last_reported":1733987364,"current_range_meters":28400,"station_id":"ce4bho92rcd13ifvqh3g","pricing_plan_id":"cebpf4jnsgd1na2vs0mg"},{"bike_id":"ab1c6a12-19ac-4afb-af5f-776c48efacd2","system_id":"levelo_inurba_marseille","lat":43.23197,"lon":5.35535,"is_reserved":false,"is_disabled":false,"rental_uris":{"android":"levelo://app?vid=ab1c6a12-19ac-4afb-af5f-776c48efacd2","ios":"levelo://app?vid=ab1c6a12-19ac-4afb-af5f-776c48efacd2"},"vehicle_type_id":"4","last_reported":1733987364,"current_range_meters":15200,"station_id":"ce4bhu92rcd13ifvqi70","pricing_plan_id":"cebpf4jnsgd1na2vs0mg"},{"bike_id":"ac09602b-8f45-470a-ac00-2f9a5e15457c","system_id":"levelo_inurba_marseille","lat":43.34138,"lon":5.40904,"is_reserved":false,"is_disabled":false,"rental_uris":{"android":"levelo://app?vid=ac09602b-8f45-470a-ac00-2f9a5e15457c","ios":"levelo://app?vid=ac09602b-8f45-470a-ac00-2f9a5e15457c"},"vehicle_type_id":"4","last_reported":1733987364,"current_range_meters":38800,"station_id":"ce4bhqh2rcd13ifvqhlg","pricing_plan_id":"cebpf4jnsgd1na2vs0mg"},{"bike_id":"7675075a-043e-4f3e-bff9-a33a42fea2d8","system_id":"levelo_inurba_marseille","lat":43.24071,"lon":5.37764,"is_reserved":false,"is_disabled":false,"rental_uris":{"android":"levelo://app?vid=7675075a-043e-4f3e-bff9-a33a42fea2d8","ios":"levelo://app?vid=7675075a-043e-4f3e-bff9-a33a42fea2d8"},"vehicle_type_id":"4","last_reported":1733987364,"current_range_meters":12800,"station_id":"ce4bhnp2rcd13ifvqgvg","pricing_plan_id":"cebpf4jnsgd1na2vs0mg"},{"bike_id":"034afd89-7884-46aa-947a-c5f301e52728","system_id":"levelo_inurba_marseille","lat":43.30892,"lon":5.3964,"is_reserved":false,"is_disabled":true,"rental_uris":{"android":"levelo://app?vid=034afd89-7884-46aa-947a-c5f301e52728","ios":"levelo://app?vid=034afd89-7884-46aa-947a-c5f301e52728"},"vehicle_type_id":"4","last_reported":1733987364,"current_range_meters":18800,"station_id":"ce4bh012rcd13ifvqcv0","pricing_plan_id":"cebpf4jnsgd1na2vs0mg"},{"bike_id":"2834884c-f0f4-4ce3-a7e8-0cc515ed9af5","system_id":"levelo_inurba_marseille","lat":43.254915,"lon":5.376488,"is_reserved":false,"is_disabled":false,"rental_uris":{"android":"levelo://app?vid=2834884c-f0f4-4ce3-a7e8-0cc515ed9af5","ios":"levelo://app?vid=2834884c-f0f4-4ce3-a7e8-0cc515ed9af5"},"vehicle_type_id":"4","last_reported":1733987364,"current_range_meters":36800,"station_id":"ce4bhh12rcd13ifvqff0","pricing_plan_id":"cebpf4jnsgd1na2vs0mg"},{"bike_id":"f696da18-a905-434c-94a3-597966c8b662","system_id":"levelo_inurba_marseille","lat":43.287406,"lon":5.379327,"is_reserved":false,"is_disabled":false,"rental_uris":{"android":"levelo://app?vid=f696da18-a905-434c-94a3-597966c8b662","ios":"levelo://app?vid=f696da18-a905-434c-94a3-597966c8b662"},"vehicle_type_id":"4","last_reported":1733987364,"current_range_meters":38800,"station_id":"ce4bh9p2rcd13ifvqec0","pricing_plan_id":"cebpf4jnsgd1na2vs0mg"},{"bike_id":"63128977-3866-4d15-8716-1acea914ac16","system_id":"levelo_inurba_marseille","lat":43.33464,"lon":5.4101,"is_reserved":false,"is_disabled":false,"rental_uris":{"android":"levelo://app?vid=63128977-3866-4d15-8716-1acea914ac16","ios":"levelo://app?vid=63128977-3866-4d15-8716-1acea914ac16"},"vehicle_type_id":"4","last_reported":1733987364,"current_range_meters":7200,"station_id":"","pricing_plan_id":"cebpf4jnsgd1na2vs0mg"},{"bike_id":"65a0818e-f53b-45a8-9bbb-d1d33d1a10c3","system_id":"levelo_inurba_marseille","lat":43.28783,"lon":5.39066,"is_reserved":false,"is_disabled":false,"rental_uris":{"android":"levelo://app?vid=65a0818e-f53b-45a8-9bbb-d1d33d1a10c3","ios":"levelo://app?vid=65a0818e-f53b-45a8-9bbb-d1d33d1a10c3"},"vehicle_type_id":"4","last_reported":1733987364,"current_range_meters":32000,"station_id":"ce4bgvh2rcd13ifvqcs0","pricing_plan_id":"cebpf4jnsgd1na2vs0mg"},{"bike_id":"3125d0ae-884f-4a3e-823a-ed0e3cad176b","system_id":"levelo_inurba_marseille","lat":43.24389,"lon":5.37067,"is_reserved":false,"is_disabled":false,"rental_uris":{"android":"levelo://app?vid=3125d0ae-884f-4a3e-823a-ed0e3cad176b","ios":"levelo://app?vid=3125d0ae-884f-4a3e-823a-ed0e3cad176b"},"vehicle_type_id":"4","last_reported":1733987364,"current_range_meters":38000,"station_id":"ce4bhhh2rcd13ifvqfk0","pricing_plan_id":"cebpf4jnsgd1na2vs0mg"},{"bike_id":"71b814c3-a34b-4a69-8c8f-bf15bfb5a499","system_id":"levelo_inurba_marseille","lat":43.29038,"lon":5.37572,"is_reserved":false,"is_disabled":false,"rental_uris":{"android":"levelo://app?vid=71b814c3-a34b-4a69-8c8f-bf15bfb5a499","ios":"levelo://app?vid=71b814c3-a34b-4a69-8c8f-bf15bfb5a499"},"vehicle_type_id":"4","last_reported":1733987364,"current_range_meters":38000,"station_id":"ce4bh692rcd13ifvqe90","pricing_plan_id":"cebpf4jnsgd1na2vs0mg"},{"bike_id":"7b10137b-7f02-4882-944d-6f90bd72f335","system_id":"levelo_inurba_marseille","lat":43.25106,"lon":5.40324,"is_reserved":false,"is_disabled":false,"rental_uris":{"android":"levelo://app?vid=7b10137b-7f02-4882-944d-6f90bd72f335","ios":"levelo://app?vid=7b10137b-7f02-4882-944d-6f90bd72f335"},"vehicle_type_id":"4","last_reported":1733987364,"current_range_meters":3600,"station_id":"ce4bhlh2rcd13ifvqgig","pricing_plan_id":"cebpf4jnsgd1na2vs0mg"},{"bike_id":"42b48b61-4a9d-4265-8be1-d9fe600915fe","system_id":"levelo_inurba_marseille","lat":43.29601,"lon":5.38066,"is_reserved":false,"is_disabled":false,"rental_uris":{"android":"levelo://app?vid=42b48b61-4a9d-4265-8be1-d9fe600915fe","ios":"levelo://app?vid=42b48b61-4a9d-4265-8be1-d9fe600915fe"},"vehicle_type_id":"4","last_reported":1733987364,"current_range_meters":38000,"station_id":"ce4bgl12rcd13ifvqbo0","pricing_plan_id":"cebpf4jnsgd1na2vs0mg"},{"bike_id":"c524bdac-74c1-41c0-931b-075d8a2be5dd","system_id":"levelo_inurba_marseille","lat":43.28347,"lon":5.38102,"is_reserved":false,"is_disabled":false,"rental_uris":{"android":"levelo://app?vid=c524bdac-74c1-41c0-931b-075d8a2be5dd","ios":"levelo://app?vid=c524bdac-74c1-41c0-931b-075d8a2be5dd"},"vehicle_type_id":"4","last_reported":1733987364,"current_range_meters":14000,"station_id":"ce4bh412rcd13ifvqdr0","pricing_plan_id":"cebpf4jnsgd1na2vs0mg"},{"bike_id":"2ff19fd2-754f-42e3-8b21-dd27e338b16e","system_id":"levelo_inurba_marseille","lat":43.26062,"lon":5.39396,"is_reserved":false,"is_disabled":false,"rental_uris":{"android":"levelo://app?vid=2ff19fd2-754f-42e3-8b21-dd27e338b16e","ios":"levelo://app?vid=2ff19fd2-754f-42e3-8b21-dd27e338b16e"},"vehicle_type_id":"4","last_reported":1733987364,"current_range_meters":33200,"station_id":"ce4bhh92rcd13ifvqfj0","pricing_plan_id":"cebpf4jnsgd1na2vs0mg"},{"bike_id":"a5a05efc-32af-4ce3-9f12-a4d846479d19","system_id":"levelo_inurba_marseille","lat":43.28,"lon":5.41659,"is_reserved":false,"is_disabled":false,"rental_uris":{"android":"levelo://app?vid=a5a05efc-32af-4ce3-9f12-a4d846479d19","ios":"levelo://app?vid=a5a05efc-32af-4ce3-9f12-a4d846479d19"},"vehicle_type_id":"4","last_reported":1733987364,"current_range_meters":34800,"station_id":"ce4bho12rcd13ifvqh1g","pricing_plan_id":"cebpf4jnsgd1na2vs0mg"},{"bike_id":"7aca1016-d728-4a06-b7db-358ad8626264","system_id":"levelo_inurba_marseille","lat":43.30134,"lon":5.39887,"is_reserved":false,"is_disabled":false,"rental_uris":{"android":"levelo://app?vid=7aca1016-d728-4a06-b7db-358ad8626264","ios":"levelo://app?vid=7aca1016-d728-4a06-b7db-358ad8626264"},"vehicle_type_id":"4","last_reported":1733987364,"current_range_meters":37600,"station_id":"ce4bh0h2rcd13ifvqd40","pricing_plan_id":"cebpf4jnsgd1na2vs0mg"},{"bike_id":"05ee6a10-776e-4cc2-aca8-1e6b67fba24f","system_id":"levelo_inurba_marseille","lat":43.27253,"lon":5.38453,"is_reserved":false,"is_disabled":false,"rental_uris":{"android":"levelo://app?vid=05ee6a10-776e-4cc2-aca8-1e6b67fba24f","ios":"levelo://app?vid=05ee6a10-776e-4cc2-aca8-1e6b67fba24f"},"vehicle_type_id":"4","last_reported":1733987364,"current_range_meters":14000,"station_id":"ce4bhnp2rcd13ifvqgvg","pricing_plan_id":"cebpf4jnsgd1na2vs0mg"},{"bike_id":"1ac9278a-3e01-4769-b034-ba34b3377894","system_id":"levelo_inurba_marseille","lat":43.30924,"lon":5.40152,"is_reserved":false,"is_disabled":false,"rental_uris":{"android":"levelo://app?vid=1ac9278a-3e01-4769-b034-ba34b3377894","ios":"levelo://app?vid=1ac9278a-3e01-4769-b034-ba34b3377894"},"vehicle_type_id":"4","last_reported":1733987364,"current_range_meters":17600,"station_id":"ce4bgvp2rcd13ifvqct0","pricing_plan_id":"cebpf4jnsgd1na2vs0mg"},{"bike_id":"d5e07fae-4b02-4e86-af7a-89af47e535c5","system_id":"levelo_inurba_marseille","lat":43.29603,"lon":5.37719,"is_reserved":false,"is_disabled":true,"rental_uris":{"android":"levelo://app?vid=d5e07fae-4b02-4e86-af7a-89af47e535c5","ios":"levelo://app?vid=d5e07fae-4b02-4e86-af7a-89af47e535c5"},"vehicle_type_id":"4","last_reported":1733987364,"current_range_meters":7200,"station_id":"ce4bgi92rcd13ifvqb90","pricing_plan_id":"cebpf4jnsgd1na2vs0mg"},{"bike_id":"713823b4-c30b-4009-b498-f5ede3d91e75","system_id":"levelo_inurba_marseille","lat":43.2407,"lon":5.3776,"is_reserved":false,"is_disabled":false,"rental_uris":{"android":"levelo://app?vid=713823b4-c30b-4009-b498-f5ede3d91e75","ios":"levelo://app?vid=713823b4-c30b-4009-b498-f5ede3d91e75"},"vehicle_type_id":"4","last_reported":1733987364,"current_range_meters":9600,"station_id":"ce4bhnp2rcd13ifvqgvg","pricing_plan_id":"cebpf4jnsgd1na2vs0mg"},{"bike_id":"38c1f477-54b0-487d-9e9c-970db0f0bad4","system_id":"levelo_inurba_marseille","lat":43.25496,"lon":5.37654,"is_reserved":false,"is_disabled":true,"rental_uris":{"android":"levelo://app?vid=38c1f477-54b0-487d-9e9c-970db0f0bad4","ios":"levelo://app?vid=38c1f477-54b0-487d-9e9c-970db0f0bad4"},"vehicle_type_id":"4","last_reported":1733987364,"current_range_meters":0,"station_id":"ce4bhh12rcd13ifvqff0","pricing_plan_id":"cebpf4jnsgd1na2vs0mg"},{"bike_id":"aeee7448-02e6-45b0-b0ac-d55c99806503","system_id":"levelo_inurba_marseille","lat":43.25575,"lon":5.38233,"is_reserved":false,"is_disabled":true,"rental_uris":{"android":"levelo://app?vid=aeee7448-02e6-45b0-b0ac-d55c99806503","ios":"levelo://app?vid=aeee7448-02e6-45b0-b0ac-d55c99806503"},"vehicle_type_id":"4","last_reported":1733987364,"current_range_meters":4000,"station_id":"ce4bhih2rcd13ifvqfs0","pricing_plan_id":"cebpf4jnsgd1na2vs0mg"},{"bike_id":"f2df0fef-7ab3-42b0-99e0-a085dcf5c5be","system_id":"levelo_inurba_marseille","lat":43.24052,"lon":5.37792,"is_reserved":false,"is_disabled":false,"rental_uris":{"android":"levelo://app?vid=f2df0fef-7ab3-42b0-99e0-a085dcf5c5be","ios":"levelo://app?vid=f2df0fef-7ab3-42b0-99e0-a085dcf5c5be"},"vehicle_type_id":"4","last_reported":1733987364,"current_range_meters":38400,"station_id":"ce4bhnp2rcd13ifvqgvg","pricing_plan_id":"cebpf4jnsgd1na2vs0mg"},{"bike_id":"46fecdde-3e74-48e0-81ee-d673a9fe1872","system_id":"levelo_inurba_marseille","lat":43.28863,"lon":5.35863,"is_reserved":false,"is_disabled":false,"rental_uris":{"android":"levelo://app?vid=46fecdde-3e74-48e0-81ee-d673a9fe1872","ios":"levelo://app?vid=46fecdde-3e74-48e0-81ee-d673a9fe1872"},"vehicle_type_id":"4","last_reported":1733987364,"current_range_meters":30000,"station_id":"ce4bhb12rcd13ifvqem0","pricing_plan_id":"cebpf4jnsgd1na2vs0mg"},{"bike_id":"1285c173-f739-4a96-af62-807dec83e849","system_id":"levelo_inurba_marseille","lat":43.28722,"lon":5.3794,"is_reserved":false,"is_disabled":false,"rental_uris":{"android":"levelo://app?vid=1285c173-f739-4a96-af62-807dec83e849","ios":"levelo://app?vid=1285c173-f739-4a96-af62-807dec83e849"},"vehicle_type_id":"4","last_reported":1733987364,"current_range_meters":35200,"station_id":"ce4bh9p2rcd13ifvqec0","pricing_plan_id":"cebpf4jnsgd1na2vs0mg"},{"bike_id":"e352cf47-e722-43b1-a90d-8e401d53aa08","system_id":"levelo_inurba_marseille","lat":43.28363,"lon":5.38106,"is_reserved":false,"is_disabled":false,"rental_uris":{"android":"levelo://app?vid=e352cf47-e722-43b1-a90d-8e401d53aa08","ios":"levelo://app?vid=e352cf47-e722-43b1-a90d-8e401d53aa08"},"vehicle_type_id":"4","last_reported":1733987364,"current_range_meters":24000,"station_id":"ce4bh412rcd13ifvqdr0","pricing_plan_id":"cebpf4jnsgd1na2vs0mg"},{"bike_id":"e388ba2f-429d-47ea-a498-2bc8e6f2e4cb","system_id":"levelo_inurba_marseille","lat":43.27979,"lon":5.38729,"is_reserved":false,"is_disabled":false,"rental_uris":{"android":"levelo://app?vid=e388ba2f-429d-47ea-a498-2bc8e6f2e4cb","ios":"levelo://app?vid=e388ba2f-429d-47ea-a498-2bc8e6f2e4cb"},"vehicle_type_id":"4","last_reported":1733987364,"current_range_meters":30400,"station_id":"ce4bhg12rcd13ifvqf80","pricing_plan_id":"cebpf4jnsgd1na2vs0mg"},{"bike_id":"8ad5b9e0-8242-49be-a7f4-763cbd69c267","system_id":"levelo_inurba_marseille","lat":43.30528,"lon":5.36548,"is_reserved":false,"is_disabled":false,"rental_uris":{"android":"levelo://app?vid=8ad5b9e0-8242-49be-a7f4-763cbd69c267","ios":"levelo://app?vid=8ad5b9e0-8242-49be-a7f4-763cbd69c267"},"vehicle_type_id":"4","last_reported":1733987364,"current_range_meters":6400,"station_id":"ce4bgs12rcd13ifvqcag","pricing_plan_id":"cebpf4jnsgd1na2vs0mg"},{"bike_id":"8a939789-b594-464c-87bc-cdbd1182be3b","system_id":"levelo_inurba_marseille","lat":43.24546,"lon":5.39519,"is_reserved":false,"is_disabled":false,"rental_uris":{"android":"levelo://app?vid=8a939789-b594-464c-87bc-cdbd1182be3b","ios":"levelo://app?vid=8a939789-b594-464c-87bc-cdbd1182be3b"},"vehicle_type_id":"4","last_reported":1733987364,"current_range_meters":14800,"station_id":"ce4bhlp2rcd13ifvqgjg","pricing_plan_id":"cebpf4jnsgd1na2vs0mg"},{"bike_id":"20b6570c-093e-4008-92f3-61a850c673d0","system_id":"levelo_inurba_marseille","lat":43.24085,"lon":5.37748,"is_reserved":false,"is_disabled":false,"rental_uris":{"android":"levelo://app?vid=20b6570c-093e-4008-92f3-61a850c673d0","ios":"levelo://app?vid=20b6570c-093e-4008-92f3-61a850c673d0"},"vehicle_type_id":"4","last_reported":1733987364,"current_range_meters":36800,"station_id":"ce4bhnp2rcd13ifvqgvg","pricing_plan_id":"cebpf4jnsgd1na2vs0mg"},{"bike_id":"467a8ed9-8f9d-4f9c-a7a2-b2a4bc21bd4a","system_id":"levelo_inurba_marseille","lat":43.24646,"lon":5.38888,"is_reserved":false,"is_disabled":false,"rental_uris":{"android":"levelo://app?vid=467a8ed9-8f9d-4f9c-a7a2-b2a4bc21bd4a","ios":"levelo://app?vid=467a8ed9-8f9d-4f9c-a7a2-b2a4bc21bd4a"},"vehicle_type_id":"4","last_reported":1733987364,"current_range_meters":36400,"station_id":"ce4bhg12rcd13ifvqf60","pricing_plan_id":"cebpf4jnsgd1na2vs0mg"},{"bike_id":"33099d93-ce10-45ff-bd7c-95104a3498a9","system_id":"levelo_inurba_marseille","lat":43.279819,"lon":5.416676,"is_reserved":false,"is_disabled":false,"rental_uris":{"android":"levelo://app?vid=33099d93-ce10-45ff-bd7c-95104a3498a9","ios":"levelo://app?vid=33099d93-ce10-45ff-bd7c-95104a3498a9"},"vehicle_type_id":"4","last_reported":1733987364,"current_range_meters":36800,"station_id":"ce4bho12rcd13ifvqh1g","pricing_plan_id":"cebpf4jnsgd1na2vs0mg"},{"bike_id":"4d9975b2-8caf-4dfe-9202-9f11fbd0b727","system_id":"levelo_inurba_marseille","lat":43.29522,"lon":5.37501,"is_reserved":false,"is_disabled":true,"rental_uris":{"android":"levelo://app?vid=4d9975b2-8caf-4dfe-9202-9f11fbd0b727","ios":"levelo://app?vid=4d9975b2-8caf-4dfe-9202-9f11fbd0b727"},"vehicle_type_id":"4","last_reported":1733987364,"current_range_meters":18000,"station_id":"ce4bgkp2rcd13ifvqbmg","pricing_plan_id":"cebpf4jnsgd1na2vs0mg"},{"bike_id":"a5589391-a7e4-412b-9a87-f917b2322580","system_id":"levelo_inurba_marseille","lat":43.23062,"lon":5.355,"is_reserved":false,"is_disabled":false,"rental_uris":{"android":"levelo://app?vid=a5589391-a7e4-412b-9a87-f917b2322580","ios":"levelo://app?vid=a5589391-a7e4-412b-9a87-f917b2322580"},"vehicle_type_id":"4","last_reported":1733987364,"current_range_meters":16000,"station_id":"cpo3342slgdg3j2ifvpg","pricing_plan_id":"cebpf4jnsgd1na2vs0mg"},{"bike_id":"1ac25f57-d61f-4b3f-b565-480d33d7852d","system_id":"levelo_inurba_marseille","lat":43.29038,"lon":5.39971,"is_reserved":false,"is_disabled":true,"rental_uris":{"android":"levelo://app?vid=1ac25f57-d61f-4b3f-b565-480d33d7852d","ios":"levelo://app?vid=1ac25f57-d61f-4b3f-b565-480d33d7852d"},"vehicle_type_id":"4","last_reported":1733987364,"current_range_meters":0,"station_id":"ce4bh392rcd13ifvqdm0","pricing_plan_id":"cebpf4jnsgd1na2vs0mg"},{"bike_id":"9ec434bf-ed24-40e8-a1ba-464c29049ca6","system_id":"levelo_inurba_marseille","lat":43.31363,"lon":5.38506,"is_reserved":false,"is_disabled":false,"rental_uris":{"android":"levelo://app?vid=9ec434bf-ed24-40e8-a1ba-464c29049ca6","ios":"levelo://app?vid=9ec434bf-ed24-40e8-a1ba-464c29049ca6"},"vehicle_type_id":"4","last_reported":1733987364,"current_range_meters":30000,"station_id":"ce4bgt92rcd13ifvqcf0","pricing_plan_id":"cebpf4jnsgd1na2vs0mg"},{"bike_id":"5d45934d-d05c-4f24-8f37-3eea3f951ebe","system_id":"levelo_inurba_marseille","lat":43.30563,"lon":5.40472,"is_reserved":false,"is_disabled":false,"rental_uris":{"android":"levelo://app?vid=5d45934d-d05c-4f24-8f37-3eea3f951ebe","ios":"levelo://app?vid=5d45934d-d05c-4f24-8f37-3eea3f951ebe"},"vehicle_type_id":"4","last_reported":1733987364,"current_range_meters":28400,"station_id":"","pricing_plan_id":"cebpf4jnsgd1na2vs0mg"},{"bike_id":"146c18c0-2d54-4c53-8578-b97326fbb246","system_id":"levelo_inurba_marseille","lat":43.32475,"lon":5.36565,"is_reserved":false,"is_disabled":false,"rental_uris":{"android":"levelo://app?vid=146c18c0-2d54-4c53-8578-b97326fbb246","ios":"levelo://app?vid=146c18c0-2d54-4c53-8578-b97326fbb246"},"vehicle_type_id":"4","last_reported":1733987364,"current_range_meters":39200,"station_id":"ce4bhs12rcd13ifvqhvg","pricing_plan_id":"cebpf4jnsgd1na2vs0mg"},{"bike_id":"57361622-4b95-4048-9aaa-cf2816b748c0","system_id":"levelo_inurba_marseille","lat":43.29195,"lon":5.35803,"is_reserved":false,"is_disabled":false,"rental_uris":{"android":"levelo://app?vid=57361622-4b95-4048-9aaa-cf2816b748c0","ios":"levelo://app?vid=57361622-4b95-4048-9aaa-cf2816b748c0"},"vehicle_type_id":"4","last_reported":1733987364,"current_range_meters":38800,"station_id":"ce4bhb12rcd13ifvqel0","pricing_plan_id":"cebpf4jnsgd1na2vs0mg"},{"bike_id":"837ea001-3dca-43b1-bf44-3c63cdc8ec4f","system_id":"levelo_inurba_marseille","lat":43.24081,"lon":5.3776,"is_reserved":false,"is_disabled":false,"rental_uris":{"android":"levelo://app?vid=837ea001-3dca-43b1-bf44-3c63cdc8ec4f","ios":"levelo://app?vid=837ea001-3dca-43b1-bf44-3c63cdc8ec4f"},"vehicle_type_id":"4","last_reported":1733987364,"current_range_meters":38800,"station_id":"ce4bhnp2rcd13ifvqgvg","pricing_plan_id":"cebpf4jnsgd1na2vs0mg"},{"bike_id":"13dcb570-9d33-49d4-accf-6d833883e1b4","system_id":"levelo_inurba_marseille","lat":43.3135,"lon":5.38497,"is_reserved":false,"is_disabled":false,"rental_uris":{"android":"levelo://app?vid=13dcb570-9d33-49d4-accf-6d833883e1b4","ios":"levelo://app?vid=13dcb570-9d33-49d4-accf-6d833883e1b4"},"vehicle_type_id":"4","last_reported":1733987364,"current_range_meters":26000,"station_id":"ce4bgt92rcd13ifvqcf0","pricing_plan_id":"cebpf4jnsgd1na2vs0mg"},{"bike_id":"84b65fe6-be21-4d60-af42-50fed7a07ac0","system_id":"levelo_inurba_marseille","lat":43.29296,"lon":5.37449,"is_reserved":false,"is_disabled":false,"rental_uris":{"android":"levelo://app?vid=84b65fe6-be21-4d60-af42-50fed7a07ac0","ios":"levelo://app?vid=84b65fe6-be21-4d60-af42-50fed7a07ac0"},"vehicle_type_id":"4","last_reported":1733987364,"current_range_meters":17600,"station_id":"ce4bgi12rcd13ifvqb70","pricing_plan_id":"cebpf4jnsgd1na2vs0mg"},{"bike_id":"19c60c8b-c2ae-4e8e-bde8-11503928fd48","system_id":"levelo_inurba_marseille","lat":43.24394,"lon":5.3705,"is_reserved":false,"is_disabled":false,"rental_uris":{"android":"levelo://app?vid=19c60c8b-c2ae-4e8e-bde8-11503928fd48","ios":"levelo://app?vid=19c60c8b-c2ae-4e8e-bde8-11503928fd48"},"vehicle_type_id":"4","last_reported":1733987364,"current_range_meters":38400,"station_id":"ce4bhhh2rcd13ifvqfk0","pricing_plan_id":"cebpf4jnsgd1na2vs0mg"},{"bike_id":"61df4582-7c9f-489e-b7da-d6a0cfdcd7c7","system_id":"levelo_inurba_marseille","lat":43.28662,"lon":5.36349,"is_reserved":false,"is_disabled":true,"rental_uris":{"android":"levelo://app?vid=61df4582-7c9f-489e-b7da-d6a0cfdcd7c7","ios":"levelo://app?vid=61df4582-7c9f-489e-b7da-d6a0cfdcd7c7"},"vehicle_type_id":"4","last_reported":1733987364,"current_range_meters":0,"station_id":"ce4bhah2rcd13ifvqej0","pricing_plan_id":"cebpf4jnsgd1na2vs0mg"},{"bike_id":"c235fe65-5699-4b1b-ae79-8b6529e0e0c6","system_id":"levelo_inurba_marseille","lat":43.25716,"lon":5.41113,"is_reserved":false,"is_disabled":false,"rental_uris":{"android":"levelo://app?vid=c235fe65-5699-4b1b-ae79-8b6529e0e0c6","ios":"levelo://app?vid=c235fe65-5699-4b1b-ae79-8b6529e0e0c6"},"vehicle_type_id":"4","last_reported":1733987364,"current_range_meters":38800,"station_id":"ce4bhkp2rcd13ifvqgd0","pricing_plan_id":"cebpf4jnsgd1na2vs0mg"},{"bike_id":"e8412108-842b-4522-b8c9-76f6a7add12d","system_id":"levelo_inurba_marseille","lat":43.258263,"lon":5.394311,"is_reserved":false,"is_disabled":true,"rental_uris":{"android":"levelo://app?vid=e8412108-842b-4522-b8c9-76f6a7add12d","ios":"levelo://app?vid=e8412108-842b-4522-b8c9-76f6a7add12d"},"vehicle_type_id":"4","last_reported":1733987364,"current_range_meters":0,"station_id":"ce4bhip2rcd13ifvqft0","pricing_plan_id":"cebpf4jnsgd1na2vs0mg"},{"bike_id":"ca3bf6a0-806c-4046-b219-bbea4c2ba646","system_id":"levelo_inurba_marseille","lat":43.23195,"lon":5.35545,"is_reserved":false,"is_disabled":false,"rental_uris":{"android":"levelo://app?vid=ca3bf6a0-806c-4046-b219-bbea4c2ba646","ios":"levelo://app?vid=ca3bf6a0-806c-4046-b219-bbea4c2ba646"},"vehicle_type_id":"4","last_reported":1733987364,"current_range_meters":38800,"station_id":"ce4bhu92rcd13ifvqi70","pricing_plan_id":"cebpf4jnsgd1na2vs0mg"},{"bike_id":"8b7c1cdf-ed24-4aaf-afce-7e3ffef916d8","system_id":"levelo_inurba_marseille","lat":43.28261,"lon":5.35072,"is_reserved":false,"is_disabled":false,"rental_uris":{"android":"levelo://app?vid=8b7c1cdf-ed24-4aaf-afce-7e3ffef916d8","ios":"levelo://app?vid=8b7c1cdf-ed24-4aaf-afce-7e3ffef916d8"},"vehicle_type_id":"4","last_reported":1733987364,"current_range_meters":32800,"station_id":"ce4bhbp2rcd13ifvqerg","pricing_plan_id":"cebpf4jnsgd1na2vs0mg"},{"bike_id":"46b2fdec-0870-4ae2-84dc-b1f57512351e","system_id":"levelo_inurba_marseille","lat":43.337444,"lon":5.374475,"is_reserved":false,"is_disabled":true,"rental_uris":{"android":"levelo://app?vid=46b2fdec-0870-4ae2-84dc-b1f57512351e","ios":"levelo://app?vid=46b2fdec-0870-4ae2-84dc-b1f57512351e"},"vehicle_type_id":"4","last_reported":1733987364,"current_range_meters":0,"station_id":"","pricing_plan_id":"cebpf4jnsgd1na2vs0mg"},{"bike_id":"11470ea5-f36b-4e46-b9c5-8dab0a5fb3cb","system_id":"levelo_inurba_marseille","lat":43.30471,"lon":5.37908,"is_reserved":false,"is_disabled":false,"rental_uris":{"android":"levelo://app?vid=11470ea5-f36b-4e46-b9c5-8dab0a5fb3cb","ios":"levelo://app?vid=11470ea5-f36b-4e46-b9c5-8dab0a5fb3cb"},"vehicle_type_id":"4","last_reported":1733987364,"current_range_meters":13600,"station_id":"ce4bgup2rcd13ifvqcn0","pricing_plan_id":"cebpf4jnsgd1na2vs0mg"},{"bike_id":"99351dd2-2628-45e0-99d5-b6db5b978cac","system_id":"levelo_inurba_marseille","lat":43.26687,"lon":5.38262,"is_reserved":false,"is_disabled":false,"rental_uris":{"android":"levelo://app?vid=99351dd2-2628-45e0-99d5-b6db5b978cac","ios":"levelo://app?vid=99351dd2-2628-45e0-99d5-b6db5b978cac"},"vehicle_type_id":"4","last_reported":1733987364,"current_range_meters":38800,"station_id":"ce4bhg92rcd13ifvqf90","pricing_plan_id":"cebpf4jnsgd1na2vs0mg"},{"bike_id":"674625c7-316e-4c7f-8332-a4f9b369c08e","system_id":"levelo_inurba_marseille","lat":43.29606,"lon":5.38107,"is_reserved":false,"is_disabled":false,"rental_uris":{"android":"levelo://app?vid=674625c7-316e-4c7f-8332-a4f9b369c08e","ios":"levelo://app?vid=674625c7-316e-4c7f-8332-a4f9b369c08e"},"vehicle_type_id":"4","last_reported":1733987364,"current_range_meters":27200,"station_id":"ce4bgl12rcd13ifvqbo0","pricing_plan_id":"cebpf4jnsgd1na2vs0mg"},{"bike_id":"135524ba-3e2e-424e-8e46-8babd0017de2","system_id":"levelo_inurba_marseille","lat":43.29789,"lon":5.38111,"is_reserved":false,"is_disabled":false,"rental_uris":{"android":"levelo://app?vid=135524ba-3e2e-424e-8e46-8babd0017de2","ios":"levelo://app?vid=135524ba-3e2e-424e-8e46-8babd0017de2"},"vehicle_type_id":"4","last_reported":1733987364,"current_range_meters":32000,"station_id":"ce4bgip2rcd13ifvqbb0","pricing_plan_id":"cebpf4jnsgd1na2vs0mg"},{"bike_id":"304225f7-77a9-489b-96d5-5040b6d89816","system_id":"levelo_inurba_marseille","lat":43.27073,"lon":5.42281,"is_reserved":false,"is_disabled":false,"rental_uris":{"android":"levelo://app?vid=304225f7-77a9-489b-96d5-5040b6d89816","ios":"levelo://app?vid=304225f7-77a9-489b-96d5-5040b6d89816"},"vehicle_type_id":"4","last_reported":1733987364,"current_range_meters":6800,"station_id":"ce4bhk92rcd13ifvqgb0","pricing_plan_id":"cebpf4jnsgd1na2vs0mg"},{"bike_id":"4f19ef6c-f134-4044-a4a0-21e345818f81","system_id":"levelo_inurba_marseille","lat":43.248,"lon":5.37459,"is_reserved":false,"is_disabled":false,"rental_uris":{"android":"levelo://app?vid=4f19ef6c-f134-4044-a4a0-21e345818f81","ios":"levelo://app?vid=4f19ef6c-f134-4044-a4a0-21e345818f81"},"vehicle_type_id":"4","last_reported":1733987364,"current_range_meters":33600,"station_id":"ce4bhgh2rcd13ifvqfb0","pricing_plan_id":"cebpf4jnsgd1na2vs0mg"},{"bike_id":"948d6f9d-2160-4565-8067-fdb4b7d6023b","system_id":"levelo_inurba_marseille","lat":43.250879,"lon":5.395193,"is_reserved":false,"is_disabled":false,"rental_uris":{"android":"levelo://app?vid=948d6f9d-2160-4565-8067-fdb4b7d6023b","ios":"levelo://app?vid=948d6f9d-2160-4565-8067-fdb4b7d6023b"},"vehicle_type_id":"4","last_reported":1733987364,"current_range_meters":34000,"station_id":"ce4bhm12rcd13ifvqgkg","pricing_plan_id":"cebpf4jnsgd1na2vs0mg"},{"bike_id":"2ebd2fc6-13ac-4b60-8a2e-07cab16d51cc","system_id":"levelo_inurba_marseille","lat":43.24648,"lon":5.38893,"is_reserved":false,"is_disabled":false,"rental_uris":{"android":"levelo://app?vid=2ebd2fc6-13ac-4b60-8a2e-07cab16d51cc","ios":"levelo://app?vid=2ebd2fc6-13ac-4b60-8a2e-07cab16d51cc"},"vehicle_type_id":"4","last_reported":1733987364,"current_range_meters":18000,"station_id":"ce4bhg12rcd13ifvqf60","pricing_plan_id":"cebpf4jnsgd1na2vs0mg"},{"bike_id":"8d97e10b-c38e-45a0-ba26-1ab8fd01502c","system_id":"levelo_inurba_marseille","lat":43.27929,"lon":5.37981,"is_reserved":false,"is_disabled":false,"rental_uris":{"android":"levelo://app?vid=8d97e10b-c38e-45a0-ba26-1ab8fd01502c","ios":"levelo://app?vid=8d97e10b-c38e-45a0-ba26-1ab8fd01502c"},"vehicle_type_id":"4","last_reported":1733987364,"current_range_meters":19600,"station_id":"ce4bhf92rcd13ifvqf50","pricing_plan_id":"cebpf4jnsgd1na2vs0mg"},{"bike_id":"52aef9af-265c-424c-a151-fe3ea4a1c48f","system_id":"levelo_inurba_marseille","lat":43.30037,"lon":5.39667,"is_reserved":false,"is_disabled":false,"rental_uris":{"android":"levelo://app?vid=52aef9af-265c-424c-a151-fe3ea4a1c48f","ios":"levelo://app?vid=52aef9af-265c-424c-a151-fe3ea4a1c48f"},"vehicle_type_id":"4","last_reported":1733987364,"current_range_meters":19600,"station_id":"ce4bh312rcd13ifvqdj0","pricing_plan_id":"cebpf4jnsgd1na2vs0mg"},{"bike_id":"9763c34f-c931-449c-a245-dfe0c63b961a","system_id":"levelo_inurba_marseille","lat":43.296577,"lon":5.359908,"is_reserved":false,"is_disabled":false,"rental_uris":{"android":"levelo://app?vid=9763c34f-c931-449c-a245-dfe0c63b961a","ios":"levelo://app?vid=9763c34f-c931-449c-a245-dfe0c63b961a"},"vehicle_type_id":"4","last_reported":1733987364,"current_range_meters":26800,"station_id":"","pricing_plan_id":"cebpf4jnsgd1na2vs0mg"},{"bike_id":"34dfbec9-d89b-40fb-be3a-d23fa857157a","system_id":"levelo_inurba_marseille","lat":43.23203,"lon":5.35535,"is_reserved":false,"is_disabled":true,"rental_uris":{"android":"levelo://app?vid=34dfbec9-d89b-40fb-be3a-d23fa857157a","ios":"levelo://app?vid=34dfbec9-d89b-40fb-be3a-d23fa857157a"},"vehicle_type_id":"4","last_reported":1733987364,"current_range_meters":27600,"station_id":"ce4bhu92rcd13ifvqi70","pricing_plan_id":"cebpf4jnsgd1na2vs0mg"},{"bike_id":"cfeef1d2-86d9-4c1b-8076-adb2f0d09c18","system_id":"levelo_inurba_marseille","lat":43.2947,"lon":5.37699,"is_reserved":false,"is_disabled":true,"rental_uris":{"android":"levelo://app?vid=cfeef1d2-86d9-4c1b-8076-adb2f0d09c18","ios":"levelo://app?vid=cfeef1d2-86d9-4c1b-8076-adb2f0d09c18"},"vehicle_type_id":"4","last_reported":1733987364,"current_range_meters":0,"station_id":"","pricing_plan_id":"cebpf4jnsgd1na2vs0mg"},{"bike_id":"6d05f7ba-808a-4403-b1f3-f8483fec843c","system_id":"levelo_inurba_marseille","lat":43.23192,"lon":5.35546,"is_reserved":false,"is_disabled":false,"rental_uris":{"android":"levelo://app?vid=6d05f7ba-808a-4403-b1f3-f8483fec843c","ios":"levelo://app?vid=6d05f7ba-808a-4403-b1f3-f8483fec843c"},"vehicle_type_id":"4","last_reported":1733987364,"current_range_meters":33200,"station_id":"ce4bhu92rcd13ifvqi70","pricing_plan_id":"cebpf4jnsgd1na2vs0mg"},