{"last_updated":1745734376,"ttl":60,"version":"2.2","data":{"bikes":[{"bike_id":"40b6b781-3a93-4dd5-9313-bd380b91aeb6","system_id":"levelo_inurba_marseille","lat":43.2689,"lon":5.3818,"is_reserved":false,"is_disabled":false,"rental_uris":{"android":"levelo://app?vid=40b6b781-3a93-4dd5-9313-bd380b91aeb6","ios":"levelo://app?vid=40b6b781-3a93-4dd5-9313-bd380b91aeb6"},"vehicle_type_id":"4","last_reported":1745734376,"current_range_meters":2800,"station_id":"","pricing_plan_id":"cebpf4jnsgd1na2vs0mg"},{"bike_id":"1d10ce78-507c-4676-b08e-f0f5e4c411cb","system_id":"levelo_inurba_marseille","lat":43.31295,"lon":5.40198,"is_reserved":false,"is_disabled":false,"rental_uris":{"android":"levelo://app?vid=1d10ce78-507c-4676-b08e-f0f5e4c411cb","ios":"levelo://app?vid=1d10ce78-507c-4676-b08e-f0f5e4c411cb"},"vehicle_type_id":"4","last_reported":1745734376,"current_range_meters":2800,"station_id":"ce4bh092rcd13ifvqd30","pricing_plan_id":"cebpf4jnsgd1na2vs0mg"},{"bike_id":"eebed111-53f3-42cc-962e-8056498da25f","system_id":"levelo_inurba_marseille","lat":43.28029,"lon":5.35696,"is_reserved":false,"is_disabled":false,"rental_uris":{"android":"levelo://app?vid=eebed111-53f3-42cc-962e-8056498da25f","ios":"levelo://app?vid=eebed111-53f3-42cc-962e-8056498da25f"},"vehicle_type_id":"4","last_reported":1745734376,"current_range_meters":2800,"station_id":"","pricing_plan_id":"cebpf4jnsgd1na2vs0mg"},{"bike_id":"b729244b-57f7-4f6b-b6a8-0f094c841175","system_id":"levelo_inurba_marseille","lat":43.30611,"lon":5.37217,"is_reserved":false,"is_disabled":false,"rental_uris":{"android":"levelo://app?vid=b729244b-57f7-4f6b-b6a8-0f094c841175","ios":"levelo://app?vid=b729244b-57f7-4f6b-b6a8-0f094c841175"},"vehicle_type_id":"4","last_reported":1745734376,"current_range_meters":2800,"station_id":"ce4bgqh2rcd13ifvqc4g","pricing_plan_id":"cebpf4jnsgd1na2vs0mg"},{"bike_id":"74bf1832-a389-491d-9cf1-c0544e13bc20","system_id":"levelo_inurba_marseille","lat":43.27506,"lon":5.42476,"is_reserved":false,"is_disabled":false,"rental_uris":{"android":"levelo://app?vid=74bf1832-a389-491d-9cf1-c0544e13bc20","ios":"levelo://app?vid=74bf1832-a389-491d-9cf1-c0544e13bc20"},"vehicle_type_id":"4","last_reported":1745734376,"current_range_meters":2800,"station_id":"ce4bhn92rcd13ifvqgrg","pricing_plan_id":"cebpf4jnsgd1na2vs0mg"},{"bike_id":"5e03de95-19f8-4977-aa30-42647409354d","system_id":"levelo_inurba_marseille","lat":43.2396,"lon":5.36639,"is_reserved":false,"is_disabled":false,"rental_uris":{"android":"levelo://app?vid=5e03de95-19f8-4977-aa30-42647409354d","ios":"levelo://app?vid=5e03de95-19f8-4977-aa30-42647409354d"},"vehicle_type_id":"4","last_reported":1745734376,"current_range_meters":2800,"station_id":"ce4bhi12rcd13ifvqfp0","pricing_plan_id":"cebpf4jnsgd1na2vs0mg"},{"bike_id":"6d91a8dc-ba91-4e59-90e6-05e9199e8291","system_id":"levelo_inurba_marseille","lat":43.262293,"lon":5.404583,"is_reserved":false,"is_disabled":false,"rental_uris":{"android":"levelo://app?vid=6d91a8dc-ba91-4e59-90e6-05e9199e8291","ios":"levelo://app?vid=6d91a8dc-ba91-4e59-90e6-05e9199e8291"},"vehicle_type_id":"4","last_reported":1745734376,"current_range_meters":2800,"station_id":"ce4bhmh2rcd13ifvqgmg","pricing_plan_id":"cebpf4jnsgd1na2vs0mg"},{"bike_id":"cac296c6-ab12-4e18-98c5-4aef0e927b5d","system_id":"levelo_inurba_marseille","lat":43.31076,"lon":5.38353,"is_reserved":false,"is_disabled":false,"rental_uris":{"android":"levelo://app?vid=cac296c6-ab12-4e18-98c5-4aef0e927b5d","ios":"levelo://app?vid=cac296c6-ab12-4e18-98c5-4aef0e927b5d"},"vehicle_type_id":"4","last_reported":1745734376,"current_range_meters":3200,"station_id":"ce4bgv92rcd13ifvqcr0","pricing_plan_id":"cebpf4jnsgd1na2vs0mg"},{"bike_id":"38621931-896a-41b6-aa5d-d8b80173b2a1","system_id":"levelo_inurba_marseille","lat":43.28679,"lon":5.38656,"is_reserved":false,"is_disabled":false,"rental_uris":{"android":"levelo://app?vid=38621931-896a-41b6-aa5d-d8b80173b2a1","ios":"levelo://app?vid=38621931-896a-41b6-aa5d-d8b80173b2a1"},"vehicle_type_id":"4","last_reported":1745734376,"current_range_meters":3200,"station_id":"ce4bh492rcd13ifvqdug","pricing_plan_id":"cebpf4jnsgd1na2vs0mg"},{"bike_id":"337d6634-6137-491d-8e76-db4d07035df8","system_id":"levelo_inurba_marseille","lat":43.26948,"lon":5.38634,"is_reserved":false,"is_disabled":false,"rental_uris":{"android":"levelo://app?vid=337d6634-6137-491d-8e76-db4d07035df8","ios":"levelo://app?vid=337d6634-6137-491d-8e76-db4d07035df8"},"vehicle_type_id":"4","last_reported":1745734376,"current_range_meters":3600,"station_id":"ce4bhh92rcd13ifvqfh0","pricing_plan_id":"cebpf4jnsgd1na2vs0mg"},{"bike_id":"422b5989-c8b6-43aa-b2b9-3bfeb2e1ddc0","system_id":"levelo_inurba_marseille","lat":43.247207,"lon":5.411713,"is_reserved":false,"is_disabled":false,"rental_uris":{"android":"levelo://app?vid=422b5989-c8b6-43aa-b2b9-3bfeb2e1ddc0","ios":"levelo://app?vid=422b5989-c8b6-43aa-b2b9-3bfeb2e1ddc0"},"vehicle_type_id":"4","last_reported":1745734376,"current_range_meters":4000,"station_id":"","pricing_plan_id":"cebpf4jnsgd1na2vs0mg"},{"bike_id":"e99e6315-2751-4329-ad7b-f9d19f8ec3ef","system_id":"levelo_inurba_marseille","lat":43.28149,"lon":5.42651,"is_reserved":false,"is_disabled":false,"rental_uris":{"android":"levelo://app?vid=e99e6315-2751-4329-ad7b-f9d19f8ec3ef","ios":"levelo://app?vid=e99e6315-2751-4329-ad7b-f9d19f8ec3ef"},"vehicle_type_id":"4","last_reported":1745734376,"current_range_meters":4000,"station_id":"ce4bhnh2rcd13ifvqgug","pricing_plan_id":"cebpf4jnsgd1na2vs0mg"},{"bike_id":"bf5cf6b7-c538-4903-a90b-18b5b995616b","system_id":"levelo_inurba_marseille","lat":43.299224,"lon":5.37179,"is_reserved":false,"is_disabled":false,"rental_uris":{"android":"levelo://app?vid=bf5cf6b7-c538-4903-a90b-18b5b995616b","ios":"levelo://app?vid=bf5cf6b7-c538-4903-a90b-18b5b995616b"},"vehicle_type_id":"4","last_reported":1745734376,"current_range_meters":4000,"station_id":"","pricing_plan_id":"cebpf4jnsgd1na2vs0mg"},{"bike_id":"d1ff7e34-d25d-4063-9648-2bd4db47424f","system_id":"levelo_inurba_marseille","lat":43.32455,"lon":5.39145,"is_reserved":false,"is_disabled":true,"rental_uris":{"android":"levelo://app?vid=d1ff7e34-d25d-4063-9648-2bd4db47424f","ios":"levelo://app?vid=d1ff7e34-d25d-4063-9648-2bd4db47424f"},"vehicle_type_id":"4","last_reported":1745734376,"current_range_meters":4000,"station_id":"","pricing_plan_id":"cebpf4jnsgd1na2vs0mg"},{"bike_id":"05094179-e208-4767-94df-7d6832edefd1","system_id":"levelo_inurba_marseille","lat":43.281526,"lon":5.42648,"is_reserved":false,"is_disabled":false,"rental_uris":{"android":"levelo://app?vid=05094179-e208-4767-94df-7d6832edefd1","ios":"levelo://app?vid=05094179-e208-4767-94df-7d6832edefd1"},"vehicle_type_id":"4","last_reported":1745734376,"current_range_meters":4000,"station_id":"ce4bhnh2rcd13ifvqgug","pricing_plan_id":"cebpf4jnsgd1na2vs0mg"},{"bike_id":"f62a4552-ec40-438e-82bf-49608a81162e","system_id":"levelo_inurba_marseille","lat":43.239635,"lon":5.366281,"is_reserved":false,"is_disabled":false,"rental_uris":{"android":"levelo://app?vid=f62a4552-ec40-438e-82bf-49608a81162e","ios":"levelo://app?vid=f62a4552-ec40-438e-82bf-49608a81162e"},"vehicle_type_id":"4","last_reported":1745734376,"current_range_meters":4400,"station_id":"ce4bhi12rcd13ifvqfp0","pricing_plan_id":"cebpf4jnsgd1na2vs0mg"},{"bike_id":"ab3a4106-7e42-4508-9e77-1ef3e4fbbf45","system_id":"levelo_inurba_marseille","lat":43.29344,"lon":5.40198,"is_reserved":false,"is_disabled":false,"rental_uris":{"android":"levelo://app?vid=ab3a4106-7e42-4508-9e77-1ef3e4fbbf45","ios":"levelo://app?vid=ab3a4106-7e42-4508-9e77-1ef3e4fbbf45"},"vehicle_type_id":"4","last_reported":1745734376,"current_range_meters":4400,"station_id":"","pricing_plan_id":"cebpf4jnsgd1na2vs0mg"},{"bike_id":"af926de2-a12a-4832-8dd1-d3f70d728432","system_id":"levelo_inurba_marseille","lat":43.2798,"lon":5.41655,"is_reserved":false,"is_disabled":false,"rental_uris":{"android":"levelo://app?vid=af926de2-a12a-4832-8dd1-d3f70d728432","ios":"levelo://app?vid=af926de2-a12a-4832-8dd1-d3f70d728432"},"vehicle_type_id":"4","last_reported":1745734376,"current_range_meters":4400,"station_id":"ce4bho12rcd13ifvqh1g","pricing_plan_id":"cebpf4jnsgd1na2vs0mg"},{"bike_id":"5499d57d-503b-4c01-8be1-4a03952a4818","system_id":"levelo_inurba_marseille","lat":43.30386,"lon":5.42484,"is_reserved":false,"is_disabled":false,"rental_uris":{"android":"levelo://app?vid=5499d57d-503b-4c01-8be1-4a03952a4818","ios":"levelo://app?vid=5499d57d-503b-4c01-8be1-4a03952a4818"},"vehicle_type_id":"4","last_reported":1745734376,"current_range_meters":4400,"station_id":"ce4bhoh2rcd13ifvqh6g","pricing_plan_id":"cebpf4jnsgd1na2vs0mg"},{"bike_id":"3b6e3216-f666-4298-a310-acc5d51086df","system_id":"levelo_inurba_marseille","lat":43.241753,"lon":5.397396,"is_reserved":false,"is_disabled":false,"rental_uris":{"android":"levelo://app?vid=3b6e3216-f666-4298-a310-acc5d51086df","ios":"levelo://app?vid=3b6e3216-f666-4298-a310-acc5d51086df"},"vehicle_type_id":"4","last_reported":1745734376,"current_range_meters":4800,"station_id":"ce4bhn12rcd13ifvqgpg","pricing_plan_id":"cebpf4jnsgd1na2vs0mg"},{"bike_id":"11401a89-1aad-4932-8dc9-873ec02586b9","system_id":"levelo_inurba_marseille","lat":43.225006,"lon":5.34782,"is_reserved":false,"is_disabled":false,"rental_uris":{"android":"levelo://app?vid=11401a89-1aad-4932-8dc9-873ec02586b9","ios":"levelo://app?vid=11401a89-1aad-4932-8dc9-873ec02586b9"},"vehicle_type_id":"4","last_reported":1745734376,"current_range_meters":4800,"station_id":"ce4bgjp2rcd13ifvqbh0","pricing_plan_id":"cebpf4jnsgd1na2vs0mg"},{"bike_id":"554fe001-fd7c-4ce9-8b9f-fe24a3da343a","system_id":"levelo_inurba_marseille","lat":43.23202,"lon":5.35559,"is_reserved":false,"is_disabled":false,"rental_uris":{"android":"levelo://app?vid=554fe001-fd7c-4ce9-8b9f-fe24a3da343a","ios":"levelo://app?vid=554fe001-fd7c-4ce9-8b9f-fe24a3da343a"},"vehicle_type_id":"4","last_reported":1745734376,"current_range_meters":5600,"station_id":"ce4bhu92rcd13ifvqi70","pricing_plan_id":"cebpf4jnsgd1na2vs0mg"},{"bike_id":"443d6ddb-b230-4118-872e-9387df278ccd","system_id":"levelo_inurba_marseille","lat":43.24072,"lon":5.3778,"is_reserved":false,"is_disabled":false,"rental_uris":{"android":"levelo://app?vid=443d6ddb-b230-4118-872e-9387df278ccd","ios":"levelo://app?vid=443d6ddb-b230-4118-872e-9387df278ccd"},"vehicle_type_id":"4","last_reported":1745734376,"current_range_meters":5600,"station_id":"ce4bhnp2rcd13ifvqgvg","pricing_plan_id":"cebpf4jnsgd1na2vs0mg"},{"bike_id":"18ae1d78-8d9e-4697-bc48-a39d36035c1d","system_id":"levelo_inurba_marseille","lat":43.23968,"lon":5.366205,"is_reserved":false,"is_disabled":false,"rental_uris":{"android":"levelo://app?vid=18ae1d78-8d9e-4697-bc48-a39d36035c1d","ios":"levelo://app?vid=18ae1d78-8d9e-4697-bc48-a39d36035c1d"},"vehicle_type_id":"4","last_reported":1745734376,"current_range_meters":5600,"station_id":"ce4bhi12rcd13ifvqfp0","pricing_plan_id":"cebpf4jnsgd1na2vs0mg"},{"bike_id":"ebe3c46c-46c9-4817-98cf-384a623937c3","system_id":"levelo_inurba_marseille","lat":43.26226,"lon":5.37445,"is_reserved":false,"is_disabled":false,"rental_uris":{"android":"levelo://app?vid=ebe3c46c-46c9-4817-98cf-384a623937c3","ios":"levelo://app?vid=ebe3c46c-46c9-4817-98cf-384a623937c3"},"vehicle_type_id":"4","last_reported":1745734376,"current_range_meters":6000,"station_id":"ce4bhgp2rcd13ifvqfc0","pricing_plan_id":"cebpf4jnsgd1na2vs0mg"},{"bike_id":"8fc3936c-883b-4fe6-b9c7-42b990b6214a","system_id":"levelo_inurba_marseille","lat":43.28168,"lon":5.42644,"is_reserved":false,"is_disabled":false,"rental_uris":{"android":"levelo://app?vid=8fc3936c-883b-4fe6-b9c7-42b990b6214a","ios":"levelo://app?vid=8fc3936c-883b-4fe6-b9c7-42b990b6214a"},"vehicle_type_id":"4","last_reported":1745734376,"current_range_meters":6400,"station_id":"ce4bhnh2rcd13ifvqgug","pricing_plan_id":"cebpf4jnsgd1na2vs0mg"},{"bike_id":"51376682-930e-45ed-90e0-b53d931ddc33","system_id":"levelo_inurba_marseille","lat":43.27496,"lon":5.42451,"is_reserved":false,"is_disabled":false,"rental_uris":{"android":"levelo://app?vid=51376682-930e-45ed-90e0-b53d931ddc33","ios":"levelo://app?vid=51376682-930e-45ed-90e0-b53d931ddc33"},"vehicle_type_id":"4","last_reported":1745734376,"current_range_meters":6400,"station_id":"ce4bhn92rcd13ifvqgrg","pricing_plan_id":"cebpf4jnsgd1na2vs0mg"},{"bike_id":"62e1022a-c07d-490e-be99-4267ae20ba81","system_id":"levelo_inurba_marseille","lat":43.2927,"lon":5.40125,"is_reserved":false,"is_disabled":false,"rental_uris":{"android":"levelo://app?vid=62e1022a-c07d-490e-be99-4267ae20ba81","ios":"levelo://app?vid=62e1022a-c07d-490e-be99-4267ae20ba81"},"vehicle_type_id":"4","last_reported":1745734376,"current_range_meters":6400,"station_id":"ce4bh312rcd13ifvqdk0","pricing_plan_id":"cebpf4jnsgd1na2vs0mg"},{"bike_id":"1633ed64-e423-42e4-93c5-471c5c6b4f37","system_id":"levelo_inurba_marseille","lat":43.26067,"lon":5.39388,"is_reserved":false,"is_disabled":false,"rental_uris":{"android":"levelo://app?vid=1633ed64-e423-42e4-93c5-471c5c6b4f37","ios":"levelo://app?vid=1633ed64-e423-42e4-93c5-471c5c6b4f37"},"vehicle_type_id":"4","last_reported":1745734376,"current_range_meters":6400,"station_id":"ce4bhh92rcd13ifvqfj0","pricing_plan_id":"cebpf4jnsgd1na2vs0mg"},{"bike_id":"8a6fd588-85d3-4301-b7fc-ce76c956fcc4","system_id":"levelo_inurba_marseille","lat":43.31488,"lon":5.37287,"is_reserved":false,"is_disabled":false,"rental_uris":{"android":"levelo://app?vid=8a6fd588-85d3-4301-b7fc-ce76c956fcc4","ios":"levelo://app?vid=8a6fd588-85d3-4301-b7fc-ce76c956fcc4"},"vehicle_type_id":"4","last_reported":1745734376,"current_range_meters":6800,"station_id":"ce4bgt12rcd13ifvqcd0","pricing_plan_id":"cebpf4jnsgd1na2vs0mg"},{"bike_id":"b25d821f-85f0-4e36-bfe6-db46d00f9763","system_id":"levelo_inurba_marseille","lat":43.295587,"lon":5.422867,"is_reserved":false,"is_disabled":false,"rental_uris":{"android":"levelo://app?vid=b25d821f-85f0-4e36-bfe6-db46d00f9763","ios":"levelo://app?vid=b25d821f-85f0-4e36-bfe6-db46d00f9763"},"vehicle_type_id":"4","last_reported":1745734376,"current_range_meters":6800,"station_id":"ce4bhph2rcd13ifvqhdg","pricing_plan_id":"cebpf4jnsgd1na2vs0mg"},{"bike_id":"6104de1b-83a6-4912-bfa1-49d35364e6af","system_id":"levelo_inurba_marseille","lat":43.23958,"lon":5.36666,"is_reserved":false,"is_disabled":false,"rental_uris":{"android":"levelo://app?vid=6104de1b-83a6-4912-bfa1-49d35364e6af","ios":"levelo://app?vid=6104de1b-83a6-4912-bfa1-49d35364e6af"},"vehicle_type_id":"4","last_reported":1745734376,"current_range_meters":6800,"station_id":"ce4bhi12rcd13ifvqfp0","pricing_plan_id":"cebpf4jnsgd1na2vs0mg"},{"bike_id":"da43153d-0c82-4e6e-ab78-8fccd5cb1acc","system_id":"levelo_inurba_marseille","lat":43.23199,"lon":5.39978,"is_reserved":false,"is_disabled":false,"rental_uris":{"android":"levelo://app?vid=da43153d-0c82-4e6e-ab78-8fccd5cb1acc","ios":"levelo://app?vid=da43153d-0c82-4e6e-ab78-8fccd5cb1acc"},"vehicle_type_id":"4","last_reported":1745734376,"current_range_meters":6800,"station_id":"ce4bhn12rcd13ifvqgqg","pricing_plan_id":"cebpf4jnsgd1na2vs0mg"},{"bike_id":"cf267648-75b9-4998-852c-4269527482af","system_id":"levelo_inurba_marseille","lat":43.32078,"lon":5.41547,"is_reserved":false,"is_disabled":false,"rental_uris":{"android":"levelo://app?vid=cf267648-75b9-4998-852c-4269527482af","ios":"levelo://app?vid=cf267648-75b9-4998-852c-4269527482af"},"vehicle_type_id":"4","last_reported":1745734376,"current_range_meters":6800,"station_id":"ce4bhq92rcd13ifvqhkg","pricing_plan_id":"cebpf4jnsgd1na2vs0mg"},{"bike_id":"206d6220-b715-46fc-be54-9a6732301080","system_id":"levelo_inurba_marseille","lat":43.27825,"lon":5.40682,"is_reserved":false,"is_disabled":false,"rental_uris":{"android":"levelo://app?vid=206d6220-b715-46fc-be54-9a6732301080","ios":"levelo://app?vid=206d6220-b715-46fc-be54-9a6732301080"},"vehicle_type_id":"4","last_reported":1745734376,"current_range_meters":6800,"station_id":"ce4bhnh2rcd13ifvqgtg","pricing_plan_id":"cebpf4jnsgd1na2vs0mg"},{"bike_id":"3b576989-6583-41eb-90c4-d5036c5af5a9","system_id":"levelo_inurba_marseille","lat":43.28466,"lon":5.35873,"is_reserved":false,"is_disabled":false,"rental_uris":{"android":"levelo://app?vid=3b576989-6583-41eb-90c4-d5036c5af5a9","ios":"levelo://app?vid=3b576989-6583-41eb-90c4-d5036c5af5a9"},"vehicle_type_id":"4","last_reported":1745734376,"current_range_meters":7200,"station_id":"ce4bhah2rcd13ifvqei0","pricing_plan_id":"cebpf4jnsgd1na2vs0mg"},{"bike_id":"d945f531-4986-430c-9262-bca889a181c4","system_id":"levelo_inurba_marseille","lat":43.2407,"lon":5.37765,"is_reserved":false,"is_disabled":false,"rental_uris":{"android":"levelo://app?vid=d945f531-4986-430c-9262-bca889a181c4","ios":"levelo://app?vid=d945f531-4986-430c-9262-bca889a181c4"},"vehicle_type_id":"4","last_reported":1745734376,"current_range_meters":7200,"station_id":"ce4bhnp2rcd13ifvqgvg","pricing_plan_id":"cebpf4jnsgd1na2vs0mg"},{"bike_id":"316a7097-1e22-4f12-a17e-a81c0d10a3d1","system_id":"levelo_inurba_marseille","lat":43.279645,"lon":5.387048,"is_reserved":false,"is_disabled":false,"rental_uris":{"android":"levelo://app?vid=316a7097-1e22-4f12-a17e-a81c0d10a3d1","ios":"levelo://app?vid=316a7097-1e22-4f12-a17e-a81c0d10a3d1"},"vehicle_type_id":"4","last_reported":1745734376,"current_range_meters":7200,"station_id":"ce4bhg12rcd13ifvqf80","pricing_plan_id":"cebpf4jnsgd1na2vs0mg"},{"bike_id":"046462ca-8fd6-4982-94c7-3f4266b3a3be","system_id":"levelo_inurba_marseille","lat":43.279,"lon":5.38019,"is_reserved":false,"is_disabled":false,"rental_uris":{"android":"levelo://app?vid=046462ca-8fd6-4982-94c7-3f4266b3a3be","ios":"levelo://app?vid=046462ca-8fd6-4982-94c7-3f4266b3a3be"},"vehicle_type_id":"4","last_reported":1745734376,"current_range_meters":7200,"station_id":"ce4bhf92rcd13ifvqf50","pricing_plan_id":"cebpf4jnsgd1na2vs0mg"},{"bike_id":"b4b0266c-631d-4bc0-b722-43b22c86c85f","system_id":"levelo_inurba_marseille","lat":43.30985,"lon":5.41738,"is_reserved":false,"is_disabled":false,"rental_uris":{"android":"levelo://app?vid=b4b0266c-631d-4bc0-b722-43b22c86c85f","ios":"levelo://app?vid=b4b0266c-631d-4bc0-b722-43b22c86c85f"},"vehicle_type_id":"4","last_reported":1745734376,"current_range_meters":8000,"station_id":"","pricing_plan_id":"cebpf4jnsgd1na2vs0mg"},{"bike_id":"c886bc95-a9f4-4b08-af93-286cc6dbd1ea","system_id":"levelo_inurba_marseille","lat":43.24155,"lon":5.3642,"is_reserved":false,"is_disabled":false,"rental_uris":{"android":"levelo://app?vid=c886bc95-a9f4-4b08-af93-286cc6dbd1ea","ios":"levelo://app?vid=c886bc95-a9f4-4b08-af93-286cc6dbd1ea"},"vehicle_type_id":"4","last_reported":1745734376,"current_range_meters":8000,"station_id":"cpo36qri1sfpv3e86is0","pricing_plan_id":"cebpf4jnsgd1na2vs0mg"},{"bike_id":"b9d9721d-c534-4190-b885-afd25bc0dc94","system_id":"levelo_inurba_marseille","lat":43.292578,"lon":5.376208,"is_reserved":false,"is_disabled":false,"rental_uris":{"android":"levelo://app?vid=b9d9721d-c534-4190-b885-afd25bc0dc94","ios":"levelo://app?vid=b9d9721d-c534-4190-b885-afd25bc0dc94"},"vehicle_type_id":"4","last_reported":1745734376,"current_range_meters":8000,"station_id":"ce4bgi12rcd13ifvqb80","pricing_plan_id":"cebpf4jnsgd1na2vs0mg"},{"bike_id":"571880c0-0712-439e-9fee-1111267484d9","system_id":"levelo_inurba_marseille","lat":43.287107,"lon":5.379445,"is_reserved":false,"is_disabled":true,"rental_uris":{"android":"levelo://app?vid=571880c0-0712-439e-9fee-1111267484d9","ios":"levelo://app?vid=571880c0-0712-439e-9fee-1111267484d9"},"vehicle_type_id":"4","last_reported":1745734376,"current_range_meters":8400,"station_id":"ce4bh9p2rcd13ifvqec0","pricing_plan_id":"cebpf4jnsgd1na2vs0mg"},{"bike_id":"e768aa58-f78c-4d48-862b-93a92cf87bd8","system_id":"levelo_inurba_marseille","lat":43.321126,"lon":5.367754,"is_reserved":false,"is_disabled":false,"rental_uris":{"android":"levelo://app?vid=e768aa58-f78c-4d48-862b-93a92cf87bd8","ios":"levelo://app?vid=e768aa58-f78c-4d48-862b-93a92cf87bd8"},"vehicle_type_id":"4","last_reported":1745734376,"current_range_meters":8400,"station_id":"ce4bhrh2rcd13ifvqhug","pricing_plan_id":"cebpf4jnsgd1na2vs0mg"},{"bike_id":"042a36cf-a68c-4f02-8fbe-a3d4f36fa492","system_id":"levelo_inurba_marseille","lat":43.21211,"lon":5.3507,"is_reserved":false,"is_disabled":false,"rental_uris":{"android":"levelo://app?vid=042a36cf-a68c-4f02-8fbe-a3d4f36fa492","ios":"levelo://app?vid=042a36cf-a68c-4f02-8fbe-a3d4f36fa492"},"vehicle_type_id":"4","last_reported":1745734376,"current_range_meters":8400,"station_id":"st_cvj6sg6p6f1abm77japg","pricing_plan_id":"cebpf4jnsgd1na2vs0mg"},{"bike_id":"60d0d4f4-f24a-4173-850c-0d18243bf392","system_id":"levelo_inurba_marseille","lat":43.26939,"lon":5.40281,"is_reserved":false,"is_disabled":false,"rental_uris":{"android":"levelo://app?vid=60d0d4f4-f24a-4173-850c-0d18243bf392","ios":"levelo://app?vid=60d0d4f4-f24a-4173-850c-0d18243bf392"},"vehicle_type_id":"4","last_reported":1745734376,"current_range_meters":8400,"station_id":"cjm6bp8fraef2m0cb0m0","pricing_plan_id":"cebpf4jnsgd1na2vs0mg"},{"bike_id":"2fac31c9-ecd4-4c07-9ea5-ab959ac9f813","system_id":"levelo_inurba_marseille","lat":43.2468,"lon":5.38171,"is_reserved":false,"is_disabled":true,"rental_uris":{"android":"levelo://app?vid=2fac31c9-ecd4-4c07-9ea5-ab959ac9f813","ios":"levelo://app?vid=2fac31c9-ecd4-4c07-9ea5-ab959ac9f813"},"vehicle_type_id":"4","last_reported":1745734376,"current_range_meters":8400,"station_id":"ce4bhih2rcd13ifvqfr0","pricing_plan_id":"cebpf4jnsgd1na2vs0mg"},{"bike_id":"c1b1b433-bcb9-4a7d-8963-3218bcdcba1e","system_id":"levelo_inurba_marseille","lat":43.23368,"lon":5.3606,"is_reserved":false,"is_disabled":false,"rental_uris":{"android":"levelo://app?vid=c1b1b433-bcb9-4a7d-8963-3218bcdcba1e","ios":"levelo://app?vid=c1b1b433-bcb9-4a7d-8963-3218bcdcba1e"},"vehicle_type_id":"4","last_reported":1745734376,"current_range_meters":8400,"station_id":"","pricing_plan_id":"cebpf4jnsgd1na2vs0mg"},{"bike_id":"3f485f12-ccbf-4cc6-bfee-26b7c2709069","system_id":"levelo_inurba_marseille","lat":43.28183,"lon":5.49057,"is_reserved":false,"is_disabled":false,"rental_uris":{"android":"levelo://app?vid=3f485f12-ccbf-4cc6-bfee-26b7c2709069","ios":"levelo://app?vid=3f485f12-ccbf-4cc6-bfee-26b7c2709069"},"vehicle_type_id":"4","last_reported":1745734376,"current_range_meters":8400,"station_id":"","pricing_plan_id":"cebpf4jnsgd1na2vs0mg"},{"bike_id":"6d7cc870-ccfd-4f48-96fb-e8c1f82a64cc","system_id":"levelo_inurba_marseille","lat":43.2979,"lon":5.3709,"is_reserved":false,"is_disabled":true,"rental_uris":{"android":"levelo://app?vid=6d7cc870-ccfd-4f48-96fb-e8c1f82a64cc","ios":"levelo://app?vid=6d7cc870-ccfd-4f48-96fb-e8c1f82a64cc"},"vehicle_type_id":"4","last_reported":1745734376,"current_range_meters":8800,"station_id":"ce4bgop2rcd13ifvqc1g","pricing_plan_id":"cebpf4jnsgd1na2vs0mg"},{"bike_id":"aa7dd23a-c50c-4359-a4fa-3d29c4576751","system_id":"levelo_inurba_marseille","lat":43.24152,"lon":5.36431,"is_reserved":false,"is_disabled":false,"rental_uris":{"android":"levelo://app?vid=aa7dd23a-c50c-4359-a4fa-3d29c4576751","ios":"levelo://app?vid=aa7dd23a-c50c-4359-a4fa-3d29c4576751"},"vehicle_type_id":"4","last_reported":1745734376,"current_range_meters":8800,"station_id":"cpo36qri1sfpv3e86is0","pricing_plan_id":"cebpf4jnsgd1na2vs0mg"},{"bike_id":"9d24975d-5989-4c6e-bc54-bdc168e02c5f","system_id":"levelo_inurba_marseille","lat":43.24478,"lon":5.41164,"is_reserved":false,"is_disabled":false,"rental_uris":{"android":"levelo://app?vid=9d24975d-5989-4c6e-bc54-bdc168e02c5f","ios":"levelo://app?vid=9d24975d-5989-4c6e-bc54-bdc168e02c5f"},"vehicle_type_id":"4","last_reported":1745734376,"current_range_meters":8800,"station_id":"","pricing_plan_id":"cebpf4jnsgd1na2vs0mg"},{"bike_id":"190e2a44-d16f-4e6b-8e6a-22a9c30ba1bb","system_id":"levelo_inurba_marseille","lat":43.22502,"lon":5.34776,"is_reserved":false,"is_disabled":false,"rental_uris":{"android":"levelo://app?vid=190e2a44-d16f-4e6b-8e6a-22a9c30ba1bb","ios":"levelo://app?vid=190e2a44-d16f-4e6b-8e6a-22a9c30ba1bb"},"vehicle_type_id":"4","last_reported":1745734376,"current_range_meters":8800,"station_id":"st_cvj5dfep6f1abm77gieg","pricing_plan_id":"cebpf4jnsgd1na2vs0mg"},{"bike_id":"84f9693e-5ab9-4497-970b-c392fec5e36d","system_id":"levelo_inurba_marseille","lat":43.25861,"lon":5.39905,"is_reserved":false,"is_disabled":false,"rental_uris":{"android":"levelo://app?vid=84f9693e-5ab9-4497-970b-c392fec5e36d","ios":"levelo://app?vid=84f9693e-5ab9-4497-970b-c392fec5e36d"},"vehicle_type_id":"4","last_reported":1745734376,"current_range_meters":8800,"station_id":"ce4bhl92rcd13ifvqghg","pricing_plan_id":"cebpf4jnsgd1na2vs0mg"},{"bike_id":"0cce7ea2-3151-4739-8e52-340c11e5c4e0","system_id":"levelo_inurba_marseille","lat":43.24645,"lon":5.38179,"is_reserved":false,"is_disabled":false,"rental_uris":{"android":"levelo://app?vid=0cce7ea2-3151-4739-8e52-340c11e5c4e0","ios":"levelo://app?vid=0cce7ea2-3151-4739-8e52-340c11e5c4e0"},"vehicle_type_id":"4","last_reported":1745734376,"current_range_meters":9200,"station_id":"ce4bhih2rcd13ifvqfr0","pricing_plan_id":"cebpf4jnsgd1na2vs0mg"},{"bike_id":"2d4820d4-569a-4ec0-b000-e82a960dd30b","system_id":"levelo_inurba_marseille","lat":43.23111,"lon":5.35545,"is_reserved":false,"is_disabled":false,"rental_uris":{"android":"levelo://app?vid=2d4820d4-569a-4ec0-b000-e82a960dd30b","ios":"levelo://app?vid=2d4820d4-569a-4ec0-b000-e82a960dd30b"},"vehicle_type_id":"4","last_reported":1745734376,"current_range_meters":9200,"station_id":"","pricing_plan_id":"cebpf4jnsgd1na2vs0mg"},{"bike_id":"ac9de8e3-36ab-49a0-84b7-c5c7afc378d9","system_id":"levelo_inurba_marseille","lat":43.292786,"lon":5.401301,"is_reserved":false,"is_disabled":false,"rental_uris":{"android":"levelo://app?vid=ac9de8e3-36ab-49a0-84b7-c5c7afc378d9","ios":"levelo://app?vid=ac9de8e3-36ab-49a0-84b7-c5c7afc378d9"},"vehicle_type_id":"4","last_reported":1745734376,"current_range_meters":9200,"station_id":"ce4bh312rcd13ifvqdk0","pricing_plan_id":"cebpf4jnsgd1na2vs0mg"},{"bike_id":"b9527aa0-e123-40cc-9678-2b81cd662594","system_id":"levelo_inurba_marseille","lat":43.30945,"lon":5.40165,"is_reserved":false,"is_disabled":false,"rental_uris":{"android":"levelo://app?vid=b9527aa0-e123-40cc-9678-2b81cd662594","ios":"levelo://app?vid=b9527aa0-e123-40cc-9678-2b81cd662594"},"vehicle_type_id":"4","last_reported":1745734376,"current_range_meters":9200,"station_id":"ce4bgvp2rcd13ifvqct0","pricing_plan_id":"cebpf4jnsgd1na2vs0mg"},{"bike_id":"757a31c2-77e1-4627-a72e-6a5115a94e27","system_id":"levelo_inurba_marseille","lat":43.21708,"lon":5.3462,"is_reserved":false,"is_disabled":false,"rental_uris":{"android":"levelo://app?vid=757a31c2-77e1-4627-a72e-6a5115a94e27","ios":"levelo://app?vid=757a31c2-77e1-4627-a72e-6a5115a94e27"},"vehicle_type_id":"4","last_reported":1745734376,"current_range_meters":9200,"station_id":"st_cvj6r9ubvosntc0bgbag","pricing_plan_id":"cebpf4jnsgd1na2vs0mg"},{"bike_id":"ed537f9b-b1db-4f7f-87a1-1dbb18dd4577","system_id":"levelo_inurba_marseille","lat":43.33588,"lon":5.42816,"is_reserved":false,"is_disabled":false,"rental_uris":{"android":"levelo://app?vid=ed537f9b-b1db-4f7f-87a1-1dbb18dd4577","ios":"levelo://app?vid=ed537f9b-b1db-4f7f-87a1-1dbb18dd4577"},"vehicle_type_id":"4","last_reported":1745734376,"current_range_meters":9200,"station_id":"","pricing_plan_id":"cebpf4jnsgd1na2vs0mg"},{"bike_id":"303a0bc9-5235-4359-8967-fcaa7c875634","system_id":"levelo_inurba_marseille","lat":43.28421,"lon":5.37529,"is_reserved":false,"is_disabled":false,"rental_uris":{"android":"levelo://app?vid=303a0bc9-5235-4359-8967-fcaa7c875634","ios":"levelo://app?vid=303a0bc9-5235-4359-8967-fcaa7c875634"},"vehicle_type_id":"4","last_reported":1745734376,"current_range_meters":9600,"station_id":"ce4bh412rcd13ifvqds0","pricing_plan_id":"cebpf4jnsgd1na2vs0mg"},{"bike_id":"b2cc3c0b-f417-4257-9c42-1d57f4b85cfd","system_id":"levelo_inurba_marseille","lat":43.31994,"lon":5.3815,"is_reserved":false,"is_disabled":false,"rental_uris":{"android":"levelo://app?vid=b2cc3c0b-f417-4257-9c42-1d57f4b85cfd","ios":"levelo://app?vid=b2cc3c0b-f417-4257-9c42-1d57f4b85cfd"},"vehicle_type_id":"4","last_reported":1745734376,"current_range_meters":9600,"station_id":"ce4bhr12rcd13ifvqhpg","pricing_plan_id":"cebpf4jnsgd1na2vs0mg"},{"bike_id":"3f8e74df-4b8a-4fe8-9f20-4fbe47605119","system_id":"levelo_inurba_marseille","lat":43.29044,"lon":5.3756,"is_reserved":false,"is_disabled":true,"rental_uris":{"android":"levelo://app?vid=3f8e74df-4b8a-4fe8-9f20-4fbe47605119","ios":"levelo://app?vid=3f8e74df-4b8a-4fe8-9f20-4fbe47605119"},"vehicle_type_id":"4","last_reported":1745734376,"current_range_meters":9600,"station_id":"ce4bh692rcd13ifvqe90","pricing_plan_id":"cebpf4jnsgd1na2vs0mg"},{"bike_id":"ccb58822-4bf1-4cf8-9190-ef7aee64397d","system_id":"levelo_inurba_marseille","lat":43.31124,"lon":5.37768,"is_reserved":false,"is_disabled":false,"rental_uris":{"android":"levelo://app?vid=ccb58822-4bf1-4cf8-9190-ef7aee64397d","ios":"levelo://app?vid=ccb58822-4bf1-4cf8-9190-ef7aee64397d"},"vehicle_type_id":"4","last_reported":1745734376,"current_range_meters":9600,"station_id":"ce4bgt92rcd13ifvqcg0","pricing_plan_id":"cebpf4jnsgd1na2vs0mg"},{"bike_id":"50567301-7660-45e4-9314-78fdd7ddbf96","system_id":"levelo_inurba_marseille","lat":43.30783,"lon":5.40937,"is_reserved":false,"is_disabled":false,"rental_uris":{"android":"levelo://app?vid=50567301-7660-45e4-9314-78fdd7ddbf96","ios":"levelo://app?vid=50567301-7660-45e4-9314-78fdd7ddbf96"},"vehicle_type_id":"4","last_reported":1745734376,"current_range_meters":9600,"station_id":"","pricing_plan_id":"cebpf4jnsgd1na2vs0mg"},{"bike_id":"c94f832f-a67d-4600-b7d7-74c917a28353","system_id":"levelo_inurba_marseille","lat":43.25584,"lon":5.3827,"is_reserved":false,"is_disabled":false,"rental_uris":{"android":"levelo://app?vid=c94f832f-a67d-4600-b7d7-74c917a28353","ios":"levelo://app?vid=c94f832f-a67d-4600-b7d7-74c917a28353"},"vehicle_type_id":"4","last_reported":1745734376,"current_range_meters":9600,"station_id":"ce4bhih2rcd13ifvqfs0","pricing_plan_id":"cebpf4jnsgd1na2vs0mg"},{"bike_id":"8267a175-b5cb-45e0-8d32-cc806f617854","system_id":"levelo_inurba_marseille","lat":43.30537,"lon":5.3887,"is_reserved":false,"is_disabled":false,"rental_uris":{"android":"levelo://app?vid=8267a175-b5cb-45e0-8d32-cc806f617854","ios":"levelo://app?vid=8267a175-b5cb-45e0-8d32-cc806f617854"},"vehicle_type_id":"4","last_reported":1745734376,"current_range_meters":9600,"station_id":"","pricing_plan_id":"cebpf4jnsgd1na2vs0mg"},{"bike_id":"4e09e2f3-6329-4563-9a1f-79c5001029cb","system_id":"levelo_inurba_marseille","lat":43.32375,"lon":5.38884,"is_reserved":false,"is_disabled":false,"rental_uris":{"android":"levelo://app?vid=4e09e2f3-6329-4563-9a1f-79c5001029cb","ios":"levelo://app?vid=4e09e2f3-6329-4563-9a1f-79c5001029cb"},"vehicle_type_id":"4","last_reported":1745734376,"current_range_meters":9600,"station_id":"ce4bhqp2rcd13ifvqhog","pricing_plan_id":"cebpf4jnsgd1na2vs0mg"},{"bike_id":"5ddba1f1-1747-4179-b91f-b8778028cd60","system_id":"levelo_inurba_marseille","lat":43.256175,"lon":5.411988,"is_reserved":false,"is_disabled":false,"rental_uris":{"android":"levelo://app?vid=5ddba1f1-1747-4179-b91f-b8778028cd60","ios":"levelo://app?vid=5ddba1f1-1747-4179-b91f-b8778028cd60"},"vehicle_type_id":"4","last_reported":1745734376,"current_range_meters":9600,"station_id":"","pricing_plan_id":"cebpf4jnsgd1na2vs0mg"},{"bike_id":"df2cf5fe-ae71-4393-b101-92b911d9a985","system_id":"levelo_inurba_marseille","lat":43.2796,"lon":5.38712,"is_reserved":false,"is_disabled":false,"rental_uris":{"android":"levelo://app?vid=df2cf5fe-ae71-4393-b101-92b911d9a985","ios":"levelo://app?vid=df2cf5fe-ae71-4393-b101-92b911d9a985"},"vehicle_type_id":"4","last_reported":1745734376,"current_range_meters":9600,"station_id":"ce4bhg12rcd13ifvqf80","pricing_plan_id":"cebpf4jnsgd1na2vs0mg"},{"bike_id":"c596ab54-4f89-4649-a442-12778ac8adc4","system_id":"levelo_inurba_marseille","lat":43.31726,"lon":5.43696,"is_reserved":false,"is_disabled":true,"rental_uris":{"android":"levelo://app?vid=c596ab54-4f89-4649-a442-12778ac8adc4","ios":"levelo://app?vid=c596ab54-4f89-4649-a442-12778ac8adc4"},"vehicle_type_id":"4","last_reported":1745734376,"current_range_meters":10000,"station_id":"ce4bhp92rcd13ifvqhcg","pricing_plan_id":"cebpf4jnsgd1na2vs0mg"},{"bike_id":"95a8b0a9-edb5-4207-b0c3-5cd284f509e2","system_id":"levelo_inurba_marseille","lat":43.25575,"lon":5.38237,"is_reserved":false,"is_disabled":false,"rental_uris":{"android":"levelo://app?vid=95a8b0a9-edb5-4207-b0c3-5cd284f509e2","ios":"levelo://app?vid=95a8b0a9-edb5-4207-b0c3-5cd284f509e2"},"vehicle_type_id":"4","last_reported":1745734376,"current_range_meters":10000,"station_id":"ce4bhih2rcd13ifvqfs0","pricing_plan_id":"cebpf4jnsgd1na2vs0mg"},{"bike_id":"736ee7d5-708e-48bd-8281-35bb85d0bc7d","system_id":"levelo_inurba_marseille","lat":43.2902,"lon":5.35622,"is_reserved":false,"is_disabled":true,"rental_uris":{"android":"levelo://app?vid=736ee7d5-708e-48bd-8281-35bb85d0bc7d","ios":"levelo://app?vid=736ee7d5-708e-48bd-8281-35bb85d0bc7d"},"vehicle_type_id":"4","last_reported":1745734376,"current_range_meters":10000,"station_id":"ce4bhb92rcd13ifvqen0","pricing_plan_id":"cebpf4jnsgd1na2vs0mg"},{"bike_id":"6432cf12-7374-4597-9940-3d891d136fdc","system_id":"levelo_inurba_marseille","lat":43.30127,"lon":5.39873,"is_reserved":false,"is_disabled":false,"rental_uris":{"android":"levelo://app?vid=6432cf12-7374-4597-9940-3d891d136fdc","ios":"levelo://app?vid=6432cf12-7374-4597-9940-3d891d136fdc"},"vehicle_type_id":"4","last_reported":1745734376,"current_range_meters":10000,"station_id":"ce4bh0h2rcd13ifvqd40","pricing_plan_id":"cebpf4jnsgd1na2vs0mg"},{"bike_id":"d8ad6217-9763-42dc-b54f-610fb581eb45","system_id":"levelo_inurba_marseille","lat":43.29264,"lon":5.40888,"is_reserved":false,"is_disabled":false,"rental_uris":{"android":"levelo://app?vid=d8ad6217-9763-42dc-b54f-610fb581eb45","ios":"levelo://app?vid=d8ad6217-9763-42dc-b54f-610fb581eb45"},"vehicle_type_id":"4","last_reported":1745734376,"current_range_meters":10800,"station_id":"ce4bh192rcd13ifvqdc0","pricing_plan_id":"cebpf4jnsgd1na2vs0mg"},{"bike_id":"0a20c176-84ce-406c-b816-a20786a5492e","system_id":"levelo_inurba_marseille","lat":43.31706,"lon":5.37768,"is_reserved":false,"is_disabled":false,"rental_uris":{"android":"levelo://app?vid=0a20c176-84ce-406c-b816-a20786a5492e","ios":"levelo://app?vid=0a20c176-84ce-406c-b816-a20786a5492e"},"vehicle_type_id":"4","last_reported":1745734376,"current_range_meters":10800,"station_id":"ce4bgth2rcd13ifvqch0","pricing_plan_id":"cebpf4jnsgd1na2vs0mg"},{"bike_id":"3ca0e0b6-859b-407e-b779-010e38c1d06e","system_id":"levelo_inurba_marseille","lat":43.2843,"lon":5.37536,"is_reserved":false,"is_disabled":false,"rental_uris":{"android":"levelo://app?vid=3ca0e0b6-859b-407e-b779-010e38c1d06e","ios":"levelo://app?vid=3ca0e0b6-859b-407e-b779-010e38c1d06e"},"vehicle_type_id":"4","last_reported":1745734376,"current_range_meters":10800,"station_id":"ce4bh412rcd13ifvqds0","pricing_plan_id":"cebpf4jnsgd1na2vs0mg"},{"bike_id":"cecf372e-f99d-4092-9fb9-aba0fb187411","system_id":"levelo_inurba_marseille","lat":43.323631,"lon":5.388838,"is_reserved":false,"is_disabled":false,"rental_uris":{"android":"levelo://app?vid=cecf372e-f99d-4092-9fb9-aba0fb187411","ios":"levelo://app?vid=cecf372e-f99d-4092-9fb9-aba0fb187411"},"vehicle_type_id":"4","last_reported":1745734376,"current_range_meters":10800,"station_id":"ce4bhqp2rcd13ifvqhog","pricing_plan_id":"cebpf4jnsgd1na2vs0mg"},{"bike_id":"ac61834c-a10a-425e-9cdb-694af07bb25f","system_id":"levelo_inurba_marseille","lat":43.27958,"lon":5.38753,"is_reserved":false,"is_disabled":false,"rental_uris":{"android":"levelo://app?vid=ac61834c-a10a-425e-9cdb-694af07bb25f","ios":"levelo://app?vid=ac61834c-a10a-425e-9cdb-694af07bb25f"},"vehicle_type_id":"4","last_reported":1745734376,"current_range_meters":10800,"station_id":"ce4bhg12rcd13ifvqf80","pricing_plan_id":"cebpf4jnsgd1na2vs0mg"},{"bike_id":"a695ed80-c122-4ba0-b0ec-f2098e8ddb09","system_id":"levelo_inurba_marseille","lat":43.33602,"lon":5.41056,"is_reserved":false,"is_disabled":false,"rental_uris":{"android":"levelo://app?vid=a695ed80-c122-4ba0-b0ec-f2098e8ddb09","ios":"levelo://app?vid=a695ed80-c122-4ba0-b0ec-f2098e8ddb09"},"vehicle_type_id":"4","last_reported":1745734376,"current_range_meters":10800,"station_id":"ce4bhqh2rcd13ifvqhmg","pricing_plan_id":"cebpf4jnsgd1na2vs0mg"},{"bike_id":"a07c8234-ee61-4ef8-a011-258b70c0cdf3","system_id":"levelo_inurba_marseille","lat":43.336,"lon":5.40986,"is_reserved":false,"is_disabled":false,"rental_uris":{"android":"levelo://app?vid=a07c8234-ee61-4ef8-a011-258b70c0cdf3","ios":"levelo://app?vid=a07c8234-ee61-4ef8-a011-258b70c0cdf3"},"vehicle_type_id":"4","last_reported":1745734376,"current_range_meters":10800,"station_id":"ce4bhqh2rcd13ifvqhmg","pricing_plan_id":"cebpf4jnsgd1na2vs0mg"},{"bike_id":"765b1b0e-d96e-43ab-919b-2620323cea8d","system_id":"levelo_inurba_marseille","lat":43.29277,"lon":5.40129,"is_reserved":false,"is_disabled":false,"rental_uris":{"android":"levelo://app?vid=765b1b0e-d96e-43ab-919b-2620323cea8d","ios":"levelo://app?vid=765b1b0e-d96e-43ab-919b-2620323cea8d"},"vehicle_type_id":"4","last_reported":1745734376,"current_range_meters":11200,"station_id":"ce4bh312rcd13ifvqdk0","pricing_plan_id":"cebpf4jnsgd1na2vs0mg"},{"bike_id":"a5752412-2b3a-495a-b554-2a3e08204a69","system_id":"levelo_inurba_marseille","lat":43.32293,"lon":5.3832,"is_reserved":false,"is_disabled":false,"rental_uris":{"android":"levelo://app?vid=a5752412-2b3a-495a-b554-2a3e08204a69","ios":"levelo://app?vid=a5752412-2b3a-495a-b554-2a3e08204a69"},"vehicle_type_id":"4","last_reported":1745734376,"current_range_meters":11200,"station_id":"ce4bhr12rcd13ifvqhqg","pricing_plan_id":"cebpf4jnsgd1na2vs0mg"},{"bike_id":"6f9efa22-6701-48b6-9dac-71701c013e89","system_id":"levelo_inurba_marseille","lat":43.28002,"lon":5.40011,"is_reserved":false,"is_disabled":false,"rental_uris":{"android":"levelo://app?vid=6f9efa22-6701-48b6-9dac-71701c013e89","ios":"levelo://app?vid=6f9efa22-6701-48b6-9dac-71701c013e89"},"vehicle_type_id":"4","last_reported":1745734376,"current_range_meters":11200,"station_id":"ce4bho92rcd13ifvqh4g","pricing_plan_id":"cebpf4jnsgd1na2vs0mg"},{"bike_id":"10f1716c-0792-4c36-b001-2ec5369ab54e","system_id":"levelo_inurba_marseille","lat":43.28408,"lon":5.37529,"is_reserved":false,"is_disabled":false,"rental_uris":{"android":"levelo://app?vid=10f1716c-0792-4c36-b001-2ec5369ab54e","ios":"levelo://app?vid=10f1716c-0792-4c36-b001-2ec5369ab54e"},"vehicle_type_id":"4","last_reported":1745734376,"current_range_meters":11200,"station_id":"ce4bh412rcd13ifvqds0","pricing_plan_id":"cebpf4jnsgd1na2vs0mg"},{"bike_id":"6d0f1c4b-cbb6-4ecc-b9c2-164566a35010","system_id":"levelo_inurba_marseille","lat":43.24197,"lon":5.39741,"is_reserved":false,"is_disabled":false,"rental_uris":{"android":"levelo://app?vid=6d0f1c4b-cbb6-4ecc-b9c2-164566a35010","ios":"levelo://app?vid=6d0f1c4b-cbb6-4ecc-b9c2-164566a35010"},"vehicle_type_id":"4","last_reported":1745734376,"current_range_meters":11600,"station_id":"ce4bhn12rcd13ifvqgpg","pricing_plan_id":"cebpf4jnsgd1na2vs0mg"},{"bike_id":"c8a7bdc5-8f70-419a-b2dd-cd8b6d350aa0","system_id":"levelo_inurba_marseille","lat":43.31477,"lon":5.37287,"is_reserved":false,"is_disabled":false,"rental_uris":{"android":"levelo://app?vid=c8a7bdc5-8f70-419a-b2dd-cd8b6d350aa0","ios":"levelo://app?vid=c8a7bdc5-8f70-419a-b2dd-cd8b6d350aa0"},"vehicle_type_id":"4","last_reported":1745734376,"current_range_meters":11600,"station_id":"ce4bgt12rcd13ifvqcd0","pricing_plan_id":"cebpf4jnsgd1na2vs0mg"},{"bike_id":"dd3031e0-5272-497e-a41c-be7750e07327","system_id":"levelo_inurba_marseille","lat":43.30062,"lon":5.40226,"is_reserved":false,"is_disabled":false,"rental_uris":{"android":"levelo://app?vid=dd3031e0-5272-497e-a41c-be7750e07327","ios":"levelo://app?vid=dd3031e0-5272-497e-a41c-be7750e07327"},"vehicle_type_id":"4","last_reported":1745734376,"current_range_meters":11600,"station_id":"","pricing_plan_id":"cebpf4jnsgd1na2vs0mg"},{"bike_id":"adaa2ced-2559-4602-a617-3b8cf82e694b","system_id":"levelo_inurba_marseille","lat":43.286157,"lon":5.351034,"is_reserved":false,"is_disabled":false,"rental_uris":{"android":"levelo://app?vid=adaa2ced-2559-4602-a617-3b8cf82e694b","ios":"levelo://app?vid=adaa2ced-2559-4602-a617-3b8cf82e694b"},"vehicle_type_id":"4","last_reported":1745734376,"current_range_meters":11200,"station_id":"ce4bhu92rcd13ifvqi70","pricing_plan_id":"cebpf4jnsgd1na2vs0mg"},{"bike_id":"15773708-82d1-4093-a964-e4465d2f612a","system_id":"levelo_inurba_marseille","lat":43.2795,"lon":5.41036,"is_reserved":false,"is_disabled":false,"rental_uris":{"android":"levelo://app?vid=15773708-82d1-4093-a964-e4465d2f612a","ios":"levelo://app?vid=15773708-82d1-4093-a964-e4465d2f612a"},"vehicle_type_id":"4","last_reported":1745734376,"current_range_meters":11600,"station_id":"ce4bhnp2rcd13ifvqh0g","pricing_plan_id":"cebpf4jnsgd1na2vs0mg"},{"bike_id":"dea15188-c098-4794-90f6-0fc4b187f745","system_id":"levelo_inurba_marseille","lat":43.30812,"lon":5.43528,"is_reserved":false,"is_disabled":false,"rental_uris":{"android":"levelo://app?vid=dea15188-c098-4794-90f6-0fc4b187f745","ios":"levelo://app?vid=dea15188-c098-4794-90f6-0fc4b187f745"},"vehicle_type_id":"4","last_reported":1745734376,"current_range_meters":11600,"station_id":"ce4bhph2rcd13ifvqheg","pricing_plan_id":"cebpf4jnsgd1na2vs0mg"},{"bike_id":"fede8b9f-33cf-4581-b8f5-66ad259c5ca4","system_id":"levelo_inurba_marseille","lat":43.30187,"lon":5.36606,"is_reserved":false,"is_disabled":false,"rental_uris":{"android":"levelo://app?vid=fede8b9f-33cf-4581-b8f5-66ad259c5ca4","ios":"levelo://app?vid=fede8b9f-33cf-4581-b8f5-66ad259c5ca4"},"vehicle_type_id":"4","last_reported":1745734376,"current_range_meters":11600,"station_id":"ce4bgrh2rcd13ifvqc8g","pricing_plan_id":"cebpf4jnsgd1na2vs0mg"},{"bike_id":"07b1855e-ae8d-4c48-b57b-c872fa4955c3","system_id":"levelo_inurba_marseille","lat":43.28688,"lon":5.39991,"is_reserved":false,"is_disabled":false,"rental_uris":{"android":"levelo://app?vid=07b1855e-ae8d-4c48-b57b-c872fa4955c3","ios":"levelo://app?vid=07b1855e-ae8d-4c48-b57b-c872fa4955c3"},"vehicle_type_id":"4","last_reported":1745734376,"current_range_meters":12000,"station_id":"ce4bho92rcd13ifvqh3g","pricing_plan_id":"cebpf4jnsgd1na2vs0mg"},{"bike_id":"0053b840-de47-4900-98aa-cc8575176b05","system_id":"levelo_inurba_marseille","lat":43.24172,"lon":5.36393,"is_reserved":false,"is_disabled":true,"rental_uris":{"android":"levelo://app?vid=0053b840-de47-4900-98aa-cc8575176b05","ios":"levelo://app?vid=0053b840-de47-4900-98aa-cc8575176b05"},"vehicle_type_id":"4","last_reported":1745734376,"current_range_meters":12000,"station_id":"cpo36qri1sfpv3e86is0","pricing_plan_id":"cebpf4jnsgd1na2vs0mg"},{"bike_id":"ec74b155-1065-4a53-a181-10d9f61c4403","system_id":"levelo_inurba_marseille","lat":43.29281,"lon":5.4092,"is_reserved":false,"is_disabled":false,"rental_uris":{"android":"levelo://app?vid=ec74b155-1065-4a53-a181-10d9f61c4403","ios":"levelo://app?vid=ec74b155-1065-4a53-a181-10d9f61c4403"},"vehicle_type_id":"4","last_reported":1745734376,"current_range_meters":12000,"station_id":"ce4bh192rcd13ifvqdc0","pricing_plan_id":"cebpf4jnsgd1na2vs0mg"},{"bike_id":"41f345a9-75d9-4676-b56c-6e8ef96547ca","system_id":"levelo_inurba_marseille","lat":43.24066,"lon":5.37798,"is_reserved":false,"is_disabled":false,"rental_uris":{"android":"levelo://app?vid=41f345a9-75d9-4676-b56c-6e8ef96547ca","ios":"levelo://app?vid=41f345a9-75d9-4676-b56c-6e8ef96547ca"},"vehicle_type_id":"4","last_reported":1745734376,"current_range_meters":12400,"station_id":"ce4bhnp2rcd13ifvqgvg","pricing_plan_id":"cebpf4jnsgd1na2vs0mg"},{"bike_id":"1cc60baf-26d3-4851-8e66-1c4e88ed0be9","system_id":"levelo_inurba_marseille","lat":43.29457,"lon":5.39739,"is_reserved":false,"is_disabled":false,"rental_uris":{"android":"levelo://app?vid=1cc60baf-26d3-4851-8e66-1c4e88ed0be9","ios":"levelo://app?vid=1cc60baf-26d3-4851-8e66-1c4e88ed0be9"},"vehicle_type_id":"4","last_reported":1745734376,"current_range_meters":12000,"station_id":"ce4bh3h2rcd13ifvqdo0","pricing_plan_id":"cebpf4jnsgd1na2vs0mg"},{"bike_id":"401a860e-b17d-4f3c-b960-f90f02cab40f","system_id":"levelo_inurba_marseille","lat":43.2707,"lon":5.40264,"is_reserved":false,"is_disabled":false,"rental_uris":{"android":"levelo://app?vid=401a860e-b17d-4f3c-b960-f90f02cab40f","ios":"levelo://app?vid=401a860e-b17d-4f3c-b960-f90f02cab40f"},"vehicle_type_id":"4","last_reported":1745734376,"current_range_meters":12400,"station_id":"ce4bhk92rcd13ifvqgc0","pricing_plan_id":"cebpf4jnsgd1na2vs0mg"},{"bike_id":"2437b117-bcc1-4f0e-afd1-eadb7828182e","system_id":"levelo_inurba_marseille","lat":43.266798,"lon":5.382668,"is_reserved":false,"is_disabled":false,"rental_uris":{"android":"levelo://app?vid=2437b117-bcc1-4f0e-afd1-eadb7828182e","ios":"levelo://app?vid=2437b117-bcc1-4f0e-afd1-eadb7828182e"},"vehicle_type_id":"4","last_reported":1745734376,"current_range_meters":12400,"station_id":"ce4bhg92rcd13ifvqf90","pricing_plan_id":"cebpf4jnsgd1na2vs0mg"},{"bike_id":"91474842-32bf-45c2-856a-80fd91d22aa5","system_id":"levelo_inurba_marseille","lat":43.21192,"lon":5.3508,"is_reserved":false,"is_disabled":false,"rental_uris":{"android":"levelo://app?vid=91474842-32bf-45c2-856a-80fd91d22aa5","ios":"levelo://app?vid=91474842-32bf-45c2-856a-80fd91d22aa5"},"vehicle_type_id":"4","last_reported":1745734376,"current_range_meters":12400,"station_id":"st_cvj6sg6p6f1abm77japg","pricing_plan_id":"cebpf4jnsgd1na2vs0mg"},{"bike_id":"8840b7d1-badd-45b4-91db-50feaeb6b7ed","system_id":"levelo_inurba_marseille","lat":43.310434,"lon":5.367196,"is_reserved":false,"is_disabled":false,"rental_uris":{"android":"levelo://app?vid=8840b7d1-badd-45b4-91db-50feaeb6b7ed","ios":"levelo://app?vid=8840b7d1-badd-45b4-91db-50feaeb6b7ed"},"vehicle_type_id":"4","last_reported":1745734376,"current_range_meters":12400,"station_id":"","pricing_plan_id":"cebpf4jnsgd1na2vs0mg"},{"bike_id":"30288cb7-e849-4b02-8ab1-96deccfd974f","system_id":"levelo_inurba_marseille","lat":43.23951,"lon":5.36656,"is_reserved":false,"is_disabled":false,"rental_uris":{"android":"levelo://app?vid=30288cb7-e849-4b02-8ab1-96deccfd974f","ios":"levelo://app?vid=30288cb7-e849-4b02-8ab1-96deccfd974f"},"vehicle_type_id":"4","last_reported":1745734376,"current_range_meters":12800,"station_id":"ce4bhi12rcd13ifvqfp0","pricing_plan_id":"cebpf4jnsgd1na2vs0mg"},{"bike_id":"ae1d96a0-b0a2-41e1-be14-e78907f9338a","system_id":"levelo_inurba_marseille","lat":43.29523,"lon":5.39404,"is_reserved":false,"is_disabled":true,"rental_uris":{"android":"levelo://app?vid=ae1d96a0-b0a2-41e1-be14-e78907f9338a","ios":"levelo://app?vid=ae1d96a0-b0a2-41e1-be14-e78907f9338a"},"vehicle_type_id":"4","last_reported":1745734376,"current_range_meters":12800,"station_id":"ce4bh292rcd13ifvqdf0","pricing_plan_id":"cebpf4jnsgd1na2vs0mg"},{"bike_id":"af4a97e0-dded-4da0-9eba-7bcd01c44383","system_id":"levelo_inurba_marseille","lat":43.30329,"lon":5.39199,"is_reserved":false,"is_disabled":true,"rental_uris":{"android":"levelo://app?vid=af4a97e0-dded-4da0-9eba-7bcd01c44383","ios":"levelo://app?vid=af4a97e0-dded-4da0-9eba-7bcd01c44383"},"vehicle_type_id":"4","last_reported":1745734376,"current_range_meters":12800,"station_id":"ce4bgkh2rcd13ifvqbk0","pricing_plan_id":"cebpf4jnsgd1na2vs0mg"},{"bike_id":"21a5b78b-6652-49fa-a8ee-70531791ccf1","system_id":"levelo_inurba_marseille","lat":43.24875,"lon":5.42515,"is_reserved":false,"is_disabled":false,"rental_uris":{"android":"levelo://app?vid=21a5b78b-6652-49fa-a8ee-70531791ccf1","ios":"levelo://app?vid=21a5b78b-6652-49fa-a8ee-70531791ccf1"},"vehicle_type_id":"4","last_reported":1745734376,"current_range_meters":12800,"station_id":"","pricing_plan_id":"cebpf4jnsgd1na2vs0mg"},{"bike_id":"bc19f80b-40fb-44eb-a75a-c1aab4c2a4c8","system_id":"levelo_inurba_marseille","lat":43.26224,"lon":5.37441,"is_reserved":false,"is_disabled":false,"rental_uris":{"android":"levelo://app?vid=bc19f80b-40fb-44eb-a75a-c1aab4c2a4c8","ios":"levelo://app?vid=bc19f80b-40fb-44eb-a75a-c1aab4c2a4c8"},"vehicle_type_id":"4","last_reported":1745734376,"current_range_meters":12800,"station_id":"ce4bhgp2rcd13ifvqfc0","pricing_plan_id":"cebpf4jnsgd1na2vs0mg"},{"bike_id":"eef1e15c-ad62-483d-a88a-6602293efd51","system_id":"levelo_inurba_marseille","lat":43.29285,"lon":5.40148,"is_reserved":false,"is_disabled":false,"rental_uris":{"android":"levelo://app?vid=eef1e15c-ad62-483d-a88a-6602293efd51","ios":"levelo://app?vid=eef1e15c-ad62-483d-a88a-6602293efd51"},"vehicle_type_id":"4","last_reported":1745734376,"current_range_meters":13600,"station_id":"ce4bh312rcd13ifvqdk0","pricing_plan_id":"cebpf4jnsgd1na2vs0mg"},{"bike_id":"ed705789-0f0d-49d6-b81c-9868871746ab","system_id":"levelo_inurba_marseille","lat":43.21764,"lon":5.34609,"is_reserved":false,"is_disabled":true,"rental_uris":{"android":"levelo://app?vid=ed705789-0f0d-49d6-b81c-9868871746ab","ios":"levelo://app?vid=ed705789-0f0d-49d6-b81c-9868871746ab"},"vehicle_type_id":"4","last_reported":1745734376,"current_range_meters":13600,"station_id":"ce4bhbp2rcd13ifvqesg","pricing_plan_id":"cebpf4jnsgd1na2vs0mg"},{"bike_id":"49e0d52b-4e80-46ce-bdc2-e9d6da2fa326","system_id":"levelo_inurba_marseille","lat":43.22506,"lon":5.34805,"is_reserved":false,"is_disabled":false,"rental_uris":{"android":"levelo://app?vid=49e0d52b-4e80-46ce-bdc2-e9d6da2fa326","ios":"levelo://app?vid=49e0d52b-4e80-46ce-bdc2-e9d6da2fa326"},"vehicle_type_id":"4","last_reported":1745734376,"current_range_meters":13600,"station_id":"st_cvj5dfep6f1abm77gieg","pricing_plan_id":"cebpf4jnsgd1na2vs0mg"},{"bike_id":"3deeaf00-3852-4940-b764-733ed923641b","system_id":"levelo_inurba_marseille","lat":43.24165,"lon":5.39717,"is_reserved":false,"is_disabled":false,"rental_uris":{"android":"levelo://app?vid=3deeaf00-3852-4940-b764-733ed923641b","ios":"levelo://app?vid=3deeaf00-3852-4940-b764-733ed923641b"},"vehicle_type_id":"4","last_reported":1745734376,"current_range_meters":13600,"station_id":"ce4bhn12rcd13ifvqgpg","pricing_plan_id":"cebpf4jnsgd1na2vs0mg"},{"bike_id":"5a56484a-af7f-4d3a-9e57-b293feb70922","system_id":"levelo_inurba_marseille","lat":43.25865,"lon":5.39913,"is_reserved":false,"is_disabled":false,"rental_uris":{"android":"levelo://app?vid=5a56484a-af7f-4d3a-9e57-b293feb70922","ios":"levelo://app?vid=5a56484a-af7f-4d3a-9e57-b293feb70922"},"vehicle_type_id":"4","last_reported":1745734376,"current_range_meters":14000,"station_id":"ce4bhl92rcd13ifvqghg","pricing_plan_id":"cebpf4jnsgd1na2vs0mg"},{"bike_id":"a08e6535-7d97-4f82-b424-5e6daf2d2362","system_id":"levelo_inurba_marseille","lat":43.29533,"lon":5.39403,"is_reserved":false,"is_disabled":true,"rental_uris":{"android":"levelo://app?vid=a08e6535-7d97-4f82-b424-5e6daf2d2362","ios":"levelo://app?vid=a08e6535-7d97-4f82-b424-5e6daf2d2362"},"vehicle_type_id":"4","last_reported":1745734376,"current_range_meters":14000,"station_id":"ce4bh292rcd13ifvqdf0","pricing_plan_id":"cebpf4jnsgd1na2vs0mg"},{"bike_id":"051ec471-1557-4b56-8040-eaea0bb28aaa","system_id":"levelo_inurba_marseille","lat":43.30607,"lon":5.37224,"is_reserved":false,"is_disabled":false,"rental_uris":{"android":"levelo://app?vid=051ec471-1557-4b56-8040-eaea0bb28aaa","ios":"levelo://app?vid=051ec471-1557-4b56-8040-eaea0bb28aaa"},"vehicle_type_id":"4","last_reported":1745734376,"current_range_meters":14000,"station_id":"ce4bgqh2rcd13ifvqc4g","pricing_plan_id":"cebpf4jnsgd1na2vs0mg"},{"bike_id":"7d323184-31b0-414e-be5d-e0af500db3e5","system_id":"levelo_inurba_marseille","lat":43.25577,"lon":5.38228,"is_reserved":false,"is_disabled":false,"rental_uris":{"android":"levelo://app?vid=7d323184-31b0-414e-be5d-e0af500db3e5","ios":"levelo://app?vid=7d323184-31b0-414e-be5d-e0af500db3e5"},"vehicle_type_id":"4","last_reported":1745734376,"current_range_meters":14400,"station_id":"ce4bhih2rcd13ifvqfs0","pricing_plan_id":"cebpf4jnsgd1na2vs0mg"},{"bike_id":"560f12bb-1614-4d7c-b78e-ccf5bdec9ea6","system_id":"levelo_inurba_marseille","lat":43.28498,"lon":5.35884,"is_reserved":false,"is_disabled":true,"rental_uris":{"android":"levelo://app?vid=560f12bb-1614-4d7c-b78e-ccf5bdec9ea6","ios":"levelo://app?vid=560f12bb-1614-4d7c-b78e-ccf5bdec9ea6"},"vehicle_type_id":"4","last_reported":1745734376,"current_range_meters":14400,"station_id":"ce4bhah2rcd13ifvqei0","pricing_plan_id":"cebpf4jnsgd1na2vs0mg"},{"bike_id":"dca35924-9704-4de4-8acb-8ca8648e331f","system_id":"levelo_inurba_marseille","lat":43.28682,"lon":5.40001,"is_reserved":false,"is_disabled":false,"rental_uris":{"android":"levelo://app?vid=dca35924-9704-4de4-8acb-8ca8648e331f","ios":"levelo://app?vid=dca35924-9704-4de4-8acb-8ca8648e331f"},"vehicle_type_id":"4","last_reported":1745734376,"current_range_meters":14800,"station_id":"ce4bho92rcd13ifvqh3g","pricing_plan_id":"cebpf4jnsgd1na2vs0mg"},{"bike_id":"5fba67da-67b4-4811-aa42-2ba548abf90a","system_id":"levelo_inurba_marseille","lat":43.31353,"lon":5.39712,"is_reserved":false,"is_disabled":false,"rental_uris":{"android":"levelo://app?vid=5fba67da-67b4-4811-aa42-2ba548abf90a","ios":"levelo://app?vid=5fba67da-67b4-4811-aa42-2ba548abf90a"},"vehicle_type_id":"4","last_reported":1745734376,"current_range_meters":14800,"station_id":"ce4bgvp2rcd13ifvqcu0","pricing_plan_id":"cebpf4jnsgd1na2vs0mg"},{"bike_id":"404f4fcf-8e92-4a5e-b7ed-32fce94ff05c","system_id":"levelo_inurba_marseille","lat":43.30785,"lon":5.37642,"is_reserved":false,"is_disabled":false,"rental_uris":{"android":"levelo://app?vid=404f4fcf-8e92-4a5e-b7ed-32fce94ff05c","ios":"levelo://app?vid=404f4fcf-8e92-4a5e-b7ed-32fce94ff05c"},"vehicle_type_id":"4","last_reported":1745734376,"current_range_meters":14800,"station_id":"ce4bgv92rcd13ifvqcq0","pricing_plan_id":"cebpf4jnsgd1na2vs0mg"},{"bike_id":"3bbabe42-67f1-44b2-af11-983083db2908","system_id":"levelo_inurba_marseille","lat":43.27167,"lon":5.41001,"is_reserved":false,"is_disabled":false,"rental_uris":{"android":"levelo://app?vid=3bbabe42-67f1-44b2-af11-983083db2908","ios":"levelo://app?vid=3bbabe42-67f1-44b2-af11-983083db2908"},"vehicle_type_id":"4","last_reported":1745734376,"current_range_meters":14400,"station_id":"ce4bhl12rcd13ifvqgf0","pricing_plan_id":"cebpf4jnsgd1na2vs0mg"},{"bike_id":"356b76a1-af1a-4bef-951e-98e5b057a721","system_id":"levelo_inurba_marseille","lat":43.292583,"lon":5.384305,"is_reserved":false,"is_disabled":true,"rental_uris":{"android":"levelo://app?vid=356b76a1-af1a-4bef-951e-98e5b057a721","ios":"levelo://app?vid=356b76a1-af1a-4bef-951e-98e5b057a721"},"vehicle_type_id":"4","last_reported":1745734376,"current_range_meters":15200,"station_id":"ce4bh692rcd13ifvqea0","pricing_plan_id":"cebpf4jnsgd1na2vs0mg"},{"bike_id":"8962f977-d05b-4126-9dca-069ff6c38b83","system_id":"levelo_inurba_marseille","lat":43.284576,"lon":5.358904,"is_reserved":false,"is_disabled":false,"rental_uris":{"android":"levelo://app?vid=8962f977-d05b-4126-9dca-069ff6c38b83","ios":"levelo://app?vid=8962f977-d05b-4126-9dca-069ff6c38b83"},"vehicle_type_id":"4","last_reported":1745734376,"current_range_meters":15200,"station_id":"ce4bhah2rcd13ifvqei0","pricing_plan_id":"cebpf4jnsgd1na2vs0mg"},{"bike_id":"9111363c-e358-4cc0-9632-937d6be3578a","system_id":"levelo_inurba_marseille","lat":43.27995,"lon":5.40006,"is_reserved":false,"is_disabled":false,"rental_uris":{"android":"levelo://app?vid=9111363c-e358-4cc0-9632-937d6be3578a","ios":"levelo://app?vid=9111363c-e358-4cc0-9632-937d6be3578a"},"vehicle_type_id":"4","last_reported":1745734376,"current_range_meters":15200,"station_id":"ce4bho92rcd13ifvqh4g","pricing_plan_id":"cebpf4jnsgd1na2vs0mg"},{"bike_id":"ab4e547d-abb4-4c6a-9258-31195eb2ff87","system_id":"levelo_inurba_marseille","lat":43.309329,"lon":5.401592,"is_reserved":false,"is_disabled":false,"rental_uris":{"android":"levelo://app?vid=ab4e547d-abb4-4c6a-9258-31195eb2ff87","ios":"levelo://app?vid=ab4e547d-abb4-4c6a-9258-31195eb2ff87"},"vehicle_type_id":"4","last_reported":1745734376,"current_range_meters":15200,"station_id":"ce4bgvp2rcd13ifvqct0","pricing_plan_id":"cebpf4jnsgd1na2vs0mg"},{"bike_id":"a3cb0bcc-45ee-4fcb-b255-43e5e09b7dd7","system_id":"levelo_inurba_marseille","lat":43.278107,"lon":5.407034,"is_reserved":false,"is_disabled":false,"rental_uris":{"android":"levelo://app?vid=a3cb0bcc-45ee-4fcb-b255-43e5e09b7dd7","ios":"levelo://app?vid=a3cb0bcc-45ee-4fcb-b255-43e5e09b7dd7"},"vehicle_type_id":"4","last_reported":1745734376,"current_range_meters":16000,"station_id":"ce4bhnh2rcd13ifvqgtg","pricing_plan_id":"cebpf4jnsgd1na2vs0mg"},{"bike_id":"1259d0ac-3d61-4d30-b265-ca729a6366f6","system_id":"levelo_inurba_marseille","lat":43.28399,"lon":5.37521,"is_reserved":false,"is_disabled":false,"rental_uris":{"android":"levelo://app?vid=1259d0ac-3d61-4d30-b265-ca729a6366f6","ios":"levelo://app?vid=1259d0ac-3d61-4d30-b265-ca729a6366f6"},"vehicle_type_id":"4","last_reported":1745734376,"current_range_meters":16000,"station_id":"ce4bh412rcd13ifvqds0","pricing_plan_id":"cebpf4jnsgd1na2vs0mg"},{"bike_id":"cf0d47bd-81d3-4c57-82db-02956e138e59","system_id":"levelo_inurba_marseille","lat":43.32323,"lon":5.38895,"is_reserved":false,"is_disabled":false,"rental_uris":{"android":"levelo://app?vid=cf0d47bd-81d3-4c57-82db-02956e138e59","ios":"levelo://app?vid=cf0d47bd-81d3-4c57-82db-02956e138e59"},"vehicle_type_id":"4","last_reported":1745734376,"current_range_meters":16000,"station_id":"ce4bhqp2rcd13ifvqhog","pricing_plan_id":"cebpf4jnsgd1na2vs0mg"},{"bike_id":"65c86752-8cfb-4ebc-bdc8-3ddd8997a6d1","system_id":"levelo_inurba_marseille","lat":43.25047,"lon":5.40527,"is_reserved":false,"is_disabled":false,"rental_uris":{"android":"levelo://app?vid=65c86752-8cfb-4ebc-bdc8-3ddd8997a6d1","ios":"levelo://app?vid=65c86752-8cfb-4ebc-bdc8-3ddd8997a6d1"},"vehicle_type_id":"4","last_reported":1745734376,"current_range_meters":16000,"station_id":"","pricing_plan_id":"cebpf4jnsgd1na2vs0mg"},{"bike_id":"f546c8e4-de69-45ac-a662-7fcf89ae6709","system_id":"levelo_inurba_marseille","lat":43.311127,"lon":5.377647,"is_reserved":false,"is_disabled":false,"rental_uris":{"android":"levelo://app?vid=f546c8e4-de69-45ac-a662-7fcf89ae6709","ios":"levelo://app?vid=f546c8e4-de69-45ac-a662-7fcf89ae6709"},"vehicle_type_id":"4","last_reported":1745734376,"current_range_meters":16000,"station_id":"ce4bgt92rcd13ifvqcg0","pricing_plan_id":"cebpf4jnsgd1na2vs0mg"},{"bike_id":"57ebd52c-bbc8-4a4d-8d80-2da8f6250dbd","system_id":"levelo_inurba_marseille","lat":43.27822,"lon":5.40739,"is_reserved":false,"is_disabled":true,"rental_uris":{"android":"levelo://app?vid=57ebd52c-bbc8-4a4d-8d80-2da8f6250dbd","ios":"levelo://app?vid=57ebd52c-bbc8-4a4d-8d80-2da8f6250dbd"},"vehicle_type_id":"4","last_reported":1745734376,"current_range_meters":16000,"station_id":"ce4bhnh2rcd13ifvqgtg","pricing_plan_id":"cebpf4jnsgd1na2vs0mg"},{"bike_id":"e2ebe0b4-27e2-4f46-bdf4-e1916df46672","system_id":"levelo_inurba_marseille","lat":43.31802,"lon":5.40598,"is_reserved":false,"is_disabled":false,"rental_uris":{"android":"levelo://app?vid=e2ebe0b4-27e2-4f46-bdf4-e1916df46672","ios":"levelo://app?vid=e2ebe0b4-27e2-4f46-bdf4-e1916df46672"},"vehicle_type_id":"4","last_reported":1745734376,"current_range_meters":16000,"station_id":"","pricing_plan_id":"cebpf4jnsgd1na2vs0mg"},{"bike_id":"6a699c14-7c95-4e68-88a5-1a55ef87175b","system_id":"levelo_inurba_marseille","lat":43.30258,"lon":5.40072,"is_reserved":false,"is_disabled":false,"rental_uris":{"android":"levelo://app?vid=6a699c14-7c95-4e68-88a5-1a55ef87175b","ios":"levelo://app?vid=6a699c14-7c95-4e68-88a5-1a55ef87175b"},"vehicle_type_id":"4","last_reported":1745734376,"current_range_meters":16000,"station_id":"ce4bgvh2rcd13ifvqcs0","pricing_plan_id":"cebpf4jnsgd1na2vs0mg"},{"bike_id":"edb7787a-c68b-4c3c-a204-0dcc8d513b0d","system_id":"levelo_inurba_marseille","lat":43.24657,"lon":5.38166,"is_reserved":false,"is_disabled":false,"rental_uris":{"android":"levelo://app?vid=edb7787a-c68b-4c3c-a204-0dcc8d513b0d","ios":"levelo://app?vid=edb7787a-c68b-4c3c-a204-0dcc8d513b0d"},"vehicle_type_id":"4","last_reported":1745734376,"current_range_meters":16400,"station_id":"ce4bhih2rcd13ifvqfr0","pricing_plan_id":"cebpf4jnsgd1na2vs0mg"},{"bike_id":"a7198c19-fdc9-4a7a-95e0-a894ca54152c","system_id":"levelo_inurba_marseille","lat":43.30993,"lon":5.41713,"is_reserved":false,"is_disabled":false,"rental_uris":{"android":"levelo://app?vid=a7198c19-fdc9-4a7a-95e0-a894ca54152c","ios":"levelo://app?vid=a7198c19-fdc9-4a7a-95e0-a894ca54152c"},"vehicle_type_id":"4","last_reported":1745734376,"current_range_meters":16400,"station_id":"","pricing_plan_id":"cebpf4jnsgd1na2vs0mg"},{"bike_id":"268dd2c6-408f-4f64-b8d0-799d00701d15","system_id":"levelo_inurba_marseille","lat":43.308861,"lon":5.396425,"is_reserved":false,"is_disabled":false,"rental_uris":{"android":"levelo://app?vid=268dd2c6-408f-4f64-b8d0-799d00701d15","ios":"levelo://app?vid=268dd2c6-408f-4f64-b8d0-799d00701d15"},"vehicle_type_id":"4","last_reported":1745734376,"current_range_meters":16400,"station_id":"ce4bh012rcd13ifvqcv0","pricing_plan_id":"cebpf4jnsgd1na2vs0mg"},{"bike_id":"a3f1bad3-5904-4057-b6b9-fc62eeda1372","system_id":"levelo_inurba_marseille","lat":43.28662,"lon":5.36346,"is_reserved":false,"is_disabled":false,"rental_uris":{"android":"levelo://app?vid=a3f1bad3-5904-4057-b6b9-fc62eeda1372","ios":"levelo://app?vid=a3f1bad3-5904-4057-b6b9-fc62eeda1372"},"vehicle_type_id":"4","last_reported":1745734376,"current_range_meters":16400,"station_id":"ce4bhah2rcd13ifvqej0","pricing_plan_id":"cebpf4jnsgd1na2vs0mg"},{"bike_id":"b330c3b4-8203-49c9-a4bf-5485d09a1d2d","system_id":"levelo_inurba_marseille","lat":43.30214,"lon":5.39446,"is_reserved":false,"is_disabled":true,"rental_uris":{"android":"levelo://app?vid=b330c3b4-8203-49c9-a4bf-5485d09a1d2d","ios":"levelo://app?vid=b330c3b4-8203-49c9-a4bf-5485d09a1d2d"},"vehicle_type_id":"4","last_reported":1745734376,"current_range_meters":16400,"station_id":"ce4bh0p2rcd13ifvqd70","pricing_plan_id":"cebpf4jnsgd1na2vs0mg"},{"bike_id":"5c449a82-7dfe-47e8-8bac-0b7fcee87ac1","system_id":"levelo_inurba_marseille","lat":43.29273,"lon":5.40143,"is_reserved":false,"is_disabled":false,"rental_uris":{"android":"levelo://app?vid=5c449a82-7dfe-47e8-8bac-0b7fcee87ac1","ios":"levelo://app?vid=5c449a82-7dfe-47e8-8bac-0b7fcee87ac1"},"vehicle_type_id":"4","last_reported":1745734376,"current_range_meters":16800,"station_id":"ce4bh312rcd13ifvqdk0","pricing_plan_id":"cebpf4jnsgd1na2vs0mg"},{"bike_id":"b673c4dd-5bdb-48a9-9acf-4d4837707a29","system_id":"levelo_inurba_marseille","lat":43.31483,"lon":5.37315,"is_reserved":false,"is_disabled":false,"rental_uris":{"android":"levelo://app?vid=b673c4dd-5bdb-48a9-9acf-4d4837707a29","ios":"levelo://app?vid=b673c4dd-5bdb-48a9-9acf-4d4837707a29"},"vehicle_type_id":"4","last_reported":1745734376,"current_range_meters":16800,"station_id":"ce4bgt12rcd13ifvqcd0","pricing_plan_id":"cebpf4jnsgd1na2vs0mg"},{"bike_id":"0d777af5-4166-475a-a6b9-6a0197032592","system_id":"levelo_inurba_marseille","lat":43.23257,"lon":5.35228,"is_reserved":false,"is_disabled":false,"rental_uris":{"android":"levelo://app?vid=0d777af5-4166-475a-a6b9-6a0197032592","ios":"levelo://app?vid=0d777af5-4166-475a-a6b9-6a0197032592"},"vehicle_type_id":"4","last_reported":1745734376,"current_range_meters":16800,"station_id":"","pricing_plan_id":"cebpf4jnsgd1na2vs0mg"},{"bike_id":"2d419c17-3847-4945-8602-833976c2d402","system_id":"levelo_inurba_marseille","lat":43.25549,"lon":5.38274,"is_reserved":false,"is_disabled":false,"rental_uris":{"android":"levelo://app?vid=2d419c17-3847-4945-8602-833976c2d402","ios":"levelo://app?vid=2d419c17-3847-4945-8602-833976c2d402"},"vehicle_type_id":"4","last_reported":1745734376,"current_range_meters":16800,"station_id":"ce4bhih2rcd13ifvqfs0","pricing_plan_id":"cebpf4jnsgd1na2vs0mg"},{"bike_id":"3d934169-6946-46cc-87a4-ce5d03b77075","system_id":"levelo_inurba_marseille","lat":43.2174,"lon":5.34612,"is_reserved":false,"is_disabled":false,"rental_uris":{"android":"levelo://app?vid=3d934169-6946-46cc-87a4-ce5d03b77075","ios":"levelo://app?vid=3d934169-6946-46cc-87a4-ce5d03b77075"},"vehicle_type_id":"4","last_reported":1745734376,"current_range_meters":16800,"station_id":"st_cvj6r9ubvosntc0bgbag","pricing_plan_id":"cebpf4jnsgd1na2vs0mg"},{"bike_id":"389fa13e-9fb8-4551-94cc-3437e858ed36","system_id":"levelo_inurba_marseille","lat":43.241681,"lon":5.363991,"is_reserved":false,"is_disabled":false,"rental_uris":{"android":"levelo://app?vid=389fa13e-9fb8-4551-94cc-3437e858ed36","ios":"levelo://app?vid=389fa13e-9fb8-4551-94cc-3437e858ed36"},"vehicle_type_id":"4","last_reported":1745734376,"current_range_meters":16800,"station_id":"cpo36qri1sfpv3e86is0","pricing_plan_id":"cebpf4jnsgd1na2vs0mg"},{"bike_id":"c8c66532-2a3d-48eb-b64a-4db7feb05563","system_id":"levelo_inurba_marseille","lat":43.31333,"lon":5.39708,"is_reserved":false,"is_disabled":false,"rental_uris":{"android":"levelo://app?vid=c8c66532-2a3d-48eb-b64a-4db7feb05563","ios":"levelo://app?vid=c8c66532-2a3d-48eb-b64a-4db7feb05563"},"vehicle_type_id":"4","last_reported":1745734376,"current_range_meters":16800,"station_id":"ce4bgvp2rcd13ifvqcu0","pricing_plan_id":"cebpf4jnsgd1na2vs0mg"},{"bike_id":"a6ef5e73-9c2a-4c3a-b853-48e28d6dc161","system_id":"levelo_inurba_marseille","lat":43.31709,"lon":5.43709,"is_reserved":false,"is_disabled":true,"rental_uris":{"android":"levelo://app?vid=a6ef5e73-9c2a-4c3a-b853-48e28d6dc161","ios":"levelo://app?vid=a6ef5e73-9c2a-4c3a-b853-48e28d6dc161"},"vehicle_type_id":"4","last_reported":1745734376,"current_range_meters":16800,"station_id":"ce4bhp92rcd13ifvqhcg","pricing_plan_id":"cebpf4jnsgd1na2vs0mg"},{"bike_id":"1fe84233-d6e6-400c-ba7e-765c53207954","system_id":"levelo_inurba_marseille","lat":43.26063,"lon":5.39398,"is_reserved":false,"is_disabled":false,"rental_uris":{"android":"levelo://app?vid=1fe84233-d6e6-400c-ba7e-765c53207954","ios":"levelo://app?vid=1fe84233-d6e6-400c-ba7e-765c53207954"},"vehicle_type_id":"4","last_reported":1745734376,"current_range_meters":16800,"station_id":"ce4bhh92rcd13ifvqfj0","pricing_plan_id":"cebpf4jnsgd1na2vs0mg"},{"bike_id":"99be1414-58ff-4752-826b-d0dcc4401711","system_id":"levelo_inurba_marseille","lat":43.248036,"lon":5.374831,"is_reserved":false,"is_disabled":true,"rental_uris":{"android":"levelo://app?vid=99be1414-58ff-4752-826b-d0dcc4401711","ios":"levelo://app?vid=99be1414-58ff-4752-826b-d0dcc4401711"},"vehicle_type_id":"4","last_reported":1745734376,"current_range_meters":16800,"station_id":"ce4bhgh2rcd13ifvqfb0","pricing_plan_id":"cebpf4jnsgd1na2vs0mg"},{"bike_id":"1395a92c-16cc-43f6-88c3-2f1342e75423","system_id":"levelo_inurba_marseille","lat":43.26919,"lon":5.40248,"is_reserved":false,"is_disabled":false,"rental_uris":{"android":"levelo://app?vid=1395a92c-16cc-43f6-88c3-2f1342e75423","ios":"levelo://app?vid=1395a92c-16cc-43f6-88c3-2f1342e75423"},"vehicle_type_id":"4","last_reported":1745734376,"current_range_meters":17200,"station_id":"cjm6bp8fraef2m0cb0m0","pricing_plan_id":"cebpf4jnsgd1na2vs0mg"},{"bike_id":"54ef469b-623b-470e-a64d-656e0475c23d","system_id":"levelo_inurba_marseille","lat":43.30645,"lon":5.40054,"is_reserved":false,"is_disabled":false,"rental_uris":{"android":"levelo://app?vid=54ef469b-623b-470e-a64d-656e0475c23d","ios":"levelo://app?vid=54ef469b-623b-470e-a64d-656e0475c23d"},"vehicle_type_id":"4","last_reported":1745734376,"current_range_meters":17200,"station_id":"ce4bh112rcd13ifvqda0","pricing_plan_id":"cebpf4jnsgd1na2vs0mg"},{"bike_id":"36894e47-6a3e-44a3-a461-a4c4abe0aa7d","system_id":"levelo_inurba_marseille","lat":43.33747,"lon":5.39183,"is_reserved":false,"is_disabled":false,"rental_uris":{"android":"levelo://app?vid=36894e47-6a3e-44a3-a461-a4c4abe0aa7d","ios":"levelo://app?vid=36894e47-6a3e-44a3-a461-a4c4abe0aa7d"},"vehicle_type_id":"4","last_reported":1745734376,"current_range_meters":17200,"station_id":"ce4bhr92rcd13ifvqhsg","pricing_plan_id":"cebpf4jnsgd1na2vs0mg"},{"bike_id":"a95d8854-01ac-456e-90b1-05dcac86d2ec","system_id":"levelo_inurba_marseille","lat":43.298082,"lon":5.404048,"is_reserved":false,"is_disabled":false,"rental_uris":{"android":"levelo://app?vid=a95d8854-01ac-456e-90b1-05dcac86d2ec","ios":"levelo://app?vid=a95d8854-01ac-456e-90b1-05dcac86d2ec"},"vehicle_type_id":"4","last_reported":1745734376,"current_range_meters":17200,"station_id":"ce4bh112rcd13ifvqd90","pricing_plan_id":"cebpf4jnsgd1na2vs0mg"},{"bike_id":"e058646c-471e-4fb1-99db-64e8a04a4e7d","system_id":"levelo_inurba_marseille","lat":43.28562,"lon":5.39478,"is_reserved":false,"is_disabled":false,"rental_uris":{"android":"levelo://app?vid=e058646c-471e-4fb1-99db-64e8a04a4e7d","ios":"levelo://app?vid=e058646c-471e-4fb1-99db-64e8a04a4e7d"},"vehicle_type_id":"4","last_reported":1745734376,"current_range_meters":17200,"station_id":"ce4bh292rcd13ifvqdg0","pricing_plan_id":"cebpf4jnsgd1na2vs0mg"},{"bike_id":"d611f28a-88fc-4696-8f1a-350a4bd9ef77","system_id":"levelo_inurba_marseille","lat":43.30934,"lon":5.40172,"is_reserved":false,"is_disabled":false,"rental_uris":{"android":"levelo://app?vid=d611f28a-88fc-4696-8f1a-350a4bd9ef77","ios":"levelo://app?vid=d611f28a-88fc-4696-8f1a-350a4bd9ef77"},"vehicle_type_id":"4","last_reported":1745734376,"current_range_meters":17200,"station_id":"ce4bgvp2rcd13ifvqct0","pricing_plan_id":"cebpf4jnsgd1na2vs0mg"},{"bike_id":"b8b283a3-f0bb-4b6a-8588-f7b70d0c87cc","system_id":"levelo_inurba_marseille","lat":43.315,"lon":5.37278,"is_reserved":false,"is_disabled":false,"rental_uris":{"android":"levelo://app?vid=b8b283a3-f0bb-4b6a-8588-f7b70d0c87cc","ios":"levelo://app?vid=b8b283a3-f0bb-4b6a-8588-f7b70d0c87cc"},"vehicle_type_id":"4","last_reported":1745734376,"current_range_meters":17600,"station_id":"ce4bgt12rcd13ifvqcd0","pricing_plan_id":"cebpf4jnsgd1na2vs0mg"},{"bike_id":"a2157019-5dd6-4ed7-9538-28603ba5a141","system_id":"levelo_inurba_marseille","lat":43.30946,"lon":5.40168,"is_reserved":false,"is_disabled":false,"rental_uris":{"android":"levelo://app?vid=a2157019-5dd6-4ed7-9538-28603ba5a141","ios":"levelo://app?vid=a2157019-5dd6-4ed7-9538-28603ba5a141"},"vehicle_type_id":"4","last_reported":1745734376,"current_range_meters":17600,"station_id":"ce4bgvp2rcd13ifvqct0","pricing_plan_id":"cebpf4jnsgd1na2vs0mg"},{"bike_id":"39e60548-37a4-4fcf-a3ae-8e7ab84a9c0a","system_id":"levelo_inurba_marseille","lat":43.24668,"lon":5.38158,"is_reserved":false,"is_disabled":false,"rental_uris":{"android":"levelo://app?vid=39e60548-37a4-4fcf-a3ae-8e7ab84a9c0a","ios":"levelo://app?vid=39e60548-37a4-4fcf-a3ae-8e7ab84a9c0a"},"vehicle_type_id":"4","last_reported":1745734376,"current_range_meters":17600,"station_id":"ce4bhih2rcd13ifvqfr0","pricing_plan_id":"cebpf4jnsgd1na2vs0mg"},{"bike_id":"6bbd2eb5-fa3d-4f4a-97f6-fbe4ace325a7","system_id":"levelo_inurba_marseille","lat":43.26813,"lon":5.40273,"is_reserved":false,"is_disabled":false,"rental_uris":{"android":"levelo://app?vid=6bbd2eb5-fa3d-4f4a-97f6-fbe4ace325a7","ios":"levelo://app?vid=6bbd2eb5-fa3d-4f4a-97f6-fbe4ace325a7"},"vehicle_type_id":"4","last_reported":1745734376,"current_range_meters":17600,"station_id":"ce501612rcd8frsf0b60","pricing_plan_id":"cebpf4jnsgd1na2vs0mg"},{"bike_id":"4046a82f-66e8-4b55-bd0a-356edea772d8","system_id":"levelo_inurba_marseille","lat":43.30567,"lon":5.38153,"is_reserved":false,"is_disabled":false,"rental_uris":{"android":"levelo://app?vid=4046a82f-66e8-4b55-bd0a-356edea772d8","ios":"levelo://app?vid=4046a82f-66e8-4b55-bd0a-356edea772d8"},"vehicle_type_id":"4","last_reported":1745734376,"current_range_meters":18000,"station_id":"","pricing_plan_id":"cebpf4jnsgd1na2vs0mg"},{"bike_id":"6d593226-0a2e-46d4-8de3-9c8bd9d3e674","system_id":"levelo_inurba_marseille","lat":43.297756,"lon":5.381113,"is_reserved":false,"is_disabled":true,"rental_uris":{"android":"levelo://app?vid=6d593226-0a2e-46d4-8de3-9c8bd9d3e674","ios":"levelo://app?vid=6d593226-0a2e-46d4-8de3-9c8bd9d3e674"},"vehicle_type_id":"4","last_reported":1745734376,"current_range_meters":18000,"station_id":"ce4bgip2rcd13ifvqbb0","pricing_plan_id":"cebpf4jnsgd1na2vs0mg"},{"bike_id":"97f36b89-3f79-4d54-80b9-0001fe6da6bb","system_id":"levelo_inurba_marseille","lat":43.32445,"lon":5.39134,"is_reserved":false,"is_disabled":true,"rental_uris":{"android":"levelo://app?vid=97f36b89-3f79-4d54-80b9-0001fe6da6bb","ios":"levelo://app?vid=97f36b89-3f79-4d54-80b9-0001fe6da6bb"},"vehicle_type_id":"4","last_reported":1745734376,"current_range_meters":18000,"station_id":"","pricing_plan_id":"cebpf4jnsgd1na2vs0mg"},{"bike_id":"e492037e-60a9-4864-84d6-2fe9ea031f90","system_id":"levelo_inurba_marseille","lat":43.27981,"lon":5.38761,"is_reserved":false,"is_disabled":false,"rental_uris":{"android":"levelo://app?vid=e492037e-60a9-4864-84d6-2fe9ea031f90","ios":"levelo://app?vid=e492037e-60a9-4864-84d6-2fe9ea031f90"},"vehicle_type_id":"4","last_reported":1745734376,"current_range_meters":18800,"station_id":"ce4bhg12rcd13ifvqf80","pricing_plan_id":"cebpf4jnsgd1na2vs0mg"},{"bike_id":"78cb7f0e-bdd1-4934-9dc6-fe66b1ce023c","system_id":"levelo_inurba_marseille","lat":43.2621,"lon":5.404639,"is_reserved":false,"is_disabled":false,"rental_uris":{"android":"levelo://app?vid=78cb7f0e-bdd1-4934-9dc6-fe66b1ce023c","ios":"levelo://app?vid=78cb7f0e-bdd1-4934-9dc6-fe66b1ce023c"},"vehicle_type_id":"4","last_reported":1745734376,"current_range_meters":18800,"station_id":"ce4bhmh2rcd13ifvqgmg","pricing_plan_id":"cebpf4jnsgd1na2vs0mg"},{"bike_id":"97fd7a4c-36e8-401d-b12d-1b4015a01ebe","system_id":"levelo_inurba_marseille","lat":43.26557,"lon":5.42115,"is_reserved":false,"is_disabled":false,"rental_uris":{"android":"levelo://app?vid=97fd7a4c-36e8-401d-b12d-1b4015a01ebe","ios":"levelo://app?vid=97fd7a4c-36e8-401d-b12d-1b4015a01ebe"},"vehicle_type_id":"4","last_reported":1745734376,"current_range_meters":18800,"station_id":"","pricing_plan_id":"cebpf4jnsgd1na2vs0mg"},{"bike_id":"d8e186e0-8d9f-4c16-bb12-3c50f63fd666","system_id":"levelo_inurba_marseille","lat":43.27492,"lon":5.42465,"is_reserved":false,"is_disabled":false,"rental_uris":{"android":"levelo://app?vid=d8e186e0-8d9f-4c16-bb12-3c50f63fd666","ios":"levelo://app?vid=d8e186e0-8d9f-4c16-bb12-3c50f63fd666"},"vehicle_type_id":"4","last_reported":1745734376,"current_range_meters":18800,"station_id":"ce4bhn92rcd13ifvqgrg","pricing_plan_id":"cebpf4jnsgd1na2vs0mg"},{"bike_id":"a1300fa1-43f7-47bc-be68-1621591c429e","system_id":"levelo_inurba_marseille","lat":43.25,"lon":5.3892,"is_reserved":false,"is_disabled":true,"rental_uris":{"android":"levelo://app?vid=a1300fa1-43f7-47bc-be68-1621591c429e","ios":"levelo://app?vid=a1300fa1-43f7-47bc-be68-1621591c429e"},"vehicle_type_id":"4","last_reported":1745734376,"current_range_meters":18800,"station_id":"ce4bhgp2rcd13ifvqfd0","pricing_plan_id":"cebpf4jnsgd1na2vs0mg"},{"bike_id":"b532cbc6-d603-4b6c-8eb1-6da63ec873ab","system_id":"levelo_inurba_marseille","lat":43.2709,"lon":5.40333,"is_reserved":false,"is_disabled":false,"rental_uris":{"android":"levelo://app?vid=b532cbc6-d603-4b6c-8eb1-6da63ec873ab","ios":"levelo://app?vid=b532cbc6-d603-4b6c-8eb1-6da63ec873ab"},"vehicle_type_id":"4","last_reported":1745734376,"current_range_meters":18800,"station_id":"","pricing_plan_id":"cebpf4jnsgd1na2vs0mg"},{"bike_id":"b5374913-2d8e-4340-9ef3-bca67eedae7f","system_id":"levelo_inurba_marseille","lat":43.25938,"lon":5.4094,"is_reserved":false,"is_disabled":false,"rental_uris":{"android":"levelo://app?vid=b5374913-2d8e-4340-9ef3-bca67eedae7f","ios":"levelo://app?vid=b5374913-2d8e-4340-9ef3-bca67eedae7f"},"vehicle_type_id":"4","last_reported":1745734376,"current_range_meters":19200,"station_id":"ce4bhm92rcd13ifvqglg","pricing_plan_id":"cebpf4jnsgd1na2vs0mg"},{"bike_id":"89fa9ebf-c855-4df0-9b21-5c145a393657","system_id":"levelo_inurba_marseille","lat":43.311121,"lon":5.37773,"is_reserved":false,"is_disabled":false,"rental_uris":{"android":"levelo://app?vid=89fa9ebf-c855-4df0-9b21-5c145a393657","ios":"levelo://app?vid=89fa9ebf-c855-4df0-9b21-5c145a393657"},"vehicle_type_id":"4","last_reported":1745734376,"current_range_meters":19200,"station_id":"ce4bgt92rcd13ifvqcg0","pricing_plan_id":"cebpf4jnsgd1na2vs0mg"},{"bike_id":"4508fac8-20ad-40ae-8ce9-c4bc893ea97b","system_id":"levelo_inurba_marseille","lat":43.27058,"lon":5.42279,"is_reserved":false,"is_disabled":false,"rental_uris":{"android":"levelo://app?vid=4508fac8-20ad-40ae-8ce9-c4bc893ea97b","ios":"levelo://app?vid=4508fac8-20ad-40ae-8ce9-c4bc893ea97b"},"vehicle_type_id":"4","last_reported":1745734376,"current_range_meters":19200,"station_id":"ce4bhk92rcd13ifvqgb0","pricing_plan_id":"cebpf4jnsgd1na2vs0mg"},{"bike_id":"181ed326-b471-49b5-9f00-acd48cb5b299","system_id":"levelo_inurba_marseille","lat":43.28253,"lon":5.35141,"is_reserved":false,"is_disabled":true,"rental_uris":{"android":"levelo://app?vid=181ed326-b471-49b5-9f00-acd48cb5b299","ios":"levelo://app?vid=181ed326-b471-49b5-9f00-acd48cb5b299"},"vehicle_type_id":"4","last_reported":1745734376,"current_range_meters":19200,"station_id":"","pricing_plan_id":"cebpf4jnsgd1na2vs0mg"},{"bike_id":"6a0d76ed-a50b-40df-a903-31c41e5bb65c","system_id":"levelo_inurba_marseille","lat":43.31982,"lon":5.38183,"is_reserved":false,"is_disabled":false,"rental_uris":{"android":"levelo://app?vid=6a0d76ed-a50b-40df-a903-31c41e5bb65c","ios":"levelo://app?vid=6a0d76ed-a50b-40df-a903-31c41e5bb65c"},"vehicle_type_id":"4","last_reported":1745734376,"current_range_meters":19200,"station_id":"ce4bhr12rcd13ifvqhpg","pricing_plan_id":"cebpf4jnsgd1na2vs0mg"},{"bike_id":"2bd0f814-6d80-4a31-b310-ad829281cc90","system_id":"levelo_inurba_marseille","lat":43.22501,"lon":5.3477,"is_reserved":false,"is_disabled":false,"rental_uris":{"android":"levelo://app?vid=2bd0f814-6d80-4a31-b310-ad829281cc90","ios":"levelo://app?vid=2bd0f814-6d80-4a31-b310-ad829281cc90"},"vehicle_type_id":"4","last_reported":1745734376,"current_range_meters":19600,"station_id":"st_cvj5dfep6f1abm77gieg","pricing_plan_id":"cebpf4jnsgd1na2vs0mg"},{"bike_id":"586ad13c-53a6-4799-8583-2ba9ce1a1095","system_id":"levelo_inurba_marseille","lat":43.3103,"lon":5.41733,"is_reserved":false,"is_disabled":false,"rental_uris":{"android":"levelo://app?vid=586ad13c-53a6-4799-8583-2ba9ce1a1095","ios":"levelo://app?vid=586ad13c-53a6-4799-8583-2ba9ce1a1095"},"vehicle_type_id":"4","last_reported":1745734376,"current_range_meters":19600,"station_id":"","pricing_plan_id":"cebpf4jnsgd1na2vs0mg"},{"bike_id":"958aead2-341b-497f-b287-6fa68d17f30a","system_id":"levelo_inurba_marseille","lat":43.29271,"lon":5.40141,"is_reserved":false,"is_disabled":false,"rental_uris":{"android":"levelo://app?vid=958aead2-341b-497f-b287-6fa68d17f30a","ios":"levelo://app?vid=958aead2-341b-497f-b287-6fa68d17f30a"},"vehicle_type_id":"4","last_reported":1745734376,"current_range_meters":19600,"station_id":"ce4bh312rcd13ifvqdk0","pricing_plan_id":"cebpf4jnsgd1na2vs0mg"},{"bike_id":"6d9e6bcd-d12c-4436-9898-cbe3ca658211","system_id":"levelo_inurba_marseille","lat":43.22506,"lon":5.34783,"is_reserved":false,"is_disabled":false,"rental_uris":{"android":"levelo://app?vid=6d9e6bcd-d12c-4436-9898-cbe3ca658211","ios":"levelo://app?vid=6d9e6bcd-d12c-4436-9898-cbe3ca658211"},"vehicle_type_id":"4","last_reported":1745734376,"current_range_meters":19600,"station_id":"st_cvj5dfep6f1abm77gieg","pricing_plan_id":"cebpf4jnsgd1na2vs0mg"},{"bike_id":"5e29bb99-7a29-4bbf-a514-99195c8fa20f","system_id":"levelo_inurba_marseille","lat":43.29888,"lon":5.43637,"is_reserved":false,"is_disabled":false,"rental_uris":{"android":"levelo://app?vid=5e29bb99-7a29-4bbf-a514-99195c8fa20f","ios":"levelo://app?vid=5e29bb99-7a29-4bbf-a514-99195c8fa20f"},"vehicle_type_id":"4","last_reported":1745734376,"current_range_meters":19600,"station_id":"ce4bhpp2rcd13ifvqhfg","pricing_plan_id":"cebpf4jnsgd1na2vs0mg"},{"bike_id":"94c7b3ad-c424-427c-abb2-5981aea66c18","system_id":"levelo_inurba_marseille","lat":43.29253,"lon":5.40912,"is_reserved":false,"is_disabled":false,"rental_uris":{"android":"levelo://app?vid=94c7b3ad-c424-427c-abb2-5981aea66c18","ios":"levelo://app?vid=94c7b3ad-c424-427c-abb2-5981aea66c18"},"vehicle_type_id":"4","last_reported":1745734376,"current_range_meters":19600,"station_id":"ce4bh192rcd13ifvqdc0","pricing_plan_id":"cebpf4jnsgd1na2vs0mg"},{"bike_id":"c5251972-d279-4ec2-bcf1-956c2d9d91f3","system_id":"levelo_inurba_marseille","lat":43.22495,"lon":5.34789,"is_reserved":false,"is_disabled":false,"rental_uris":{"android":"levelo://app?vid=c5251972-d279-4ec2-bcf1-956c2d9d91f3","ios":"levelo://app?vid=c5251972-d279-4ec2-bcf1-956c2d9d91f3"},"vehicle_type_id":"4","last_reported":1745734376,"current_range_meters":19600,"station_id":"st_cvj5dfep6f1abm77gieg","pricing_plan_id":"cebpf4jnsgd1na2vs0mg"},{"bike_id":"c8097efb-13bc-42eb-af8d-71a384717fa6","system_id":"levelo_inurba_marseille","lat":43.26807,"lon":5.40256,"is_reserved":false,"is_disabled":false,"rental_uris":{"android":"levelo://app?vid=c8097efb-13bc-42eb-af8d-71a384717fa6","ios":"levelo://app?vid=c8097efb-13bc-42eb-af8d-71a384717fa6"},"vehicle_type_id":"4","last_reported":1745734376,"current_range_meters":19600,"station_id":"ce501612rcd8frsf0b60","pricing_plan_id":"cebpf4jnsgd1na2vs0mg"},{"bike_id":"18453f94-daca-4a77-9ae6-b4980884ba8b","system_id":"levelo_inurba_marseille","lat":43.30935,"lon":5.40145,"is_reserved":false,"is_disabled":false,"rental_uris":{"android":"levelo://app?vid=18453f94-daca-4a77-9ae6-b4980884ba8b","ios":"levelo://app?vid=18453f94-daca-4a77-9ae6-b4980884ba8b"},"vehicle_type_id":"4","last_reported":1745734376,"current_range_meters":19600,"station_id":"ce4bgvp2rcd13ifvqct0","pricing_plan_id":"cebpf4jnsgd1na2vs0mg"},{"bike_id":"188f96b2-7316-44a2-875d-4f24a3722e03","system_id":"levelo_inurba_marseille","lat":43.29773,"lon":5.37138,"is_reserved":false,"is_disabled":false,"rental_uris":{"android":"levelo://app?vid=188f96b2-7316-44a2-875d-4f24a3722e03","ios":"levelo://app?vid=188f96b2-7316-44a2-875d-4f24a3722e03"},"vehicle_type_id":"4","last_reported":1745734376,"current_range_meters":20000,"station_id":"ce4bgop2rcd13ifvqc1g","pricing_plan_id":"cebpf4jnsgd1na2vs0mg"},{"bike_id":"aca11bf5-435a-4651-8d0d-ff660d22c110","system_id":"levelo_inurba_marseille","lat":43.30546,"lon":5.38428,"is_reserved":false,"is_disabled":false,"rental_uris":{"android":"levelo://app?vid=aca11bf5-435a-4651-8d0d-ff660d22c110","ios":"levelo://app?vid=aca11bf5-435a-4651-8d0d-ff660d22c110"},"vehicle_type_id":"4","last_reported":1745734376,"current_range_meters":20400,"station_id":"ce4bgg92rcd13ifvqb30","pricing_plan_id":"cebpf4jnsgd1na2vs0mg"},{"bike_id":"c44eb229-a1f6-478f-a2aa-0e5b2510cf33","system_id":"levelo_inurba_marseille","lat":43.265651,"lon":5.390041,"is_reserved":false,"is_disabled":false,"rental_uris":{"android":"levelo://app?vid=c44eb229-a1f6-478f-a2aa-0e5b2510cf33","ios":"levelo://app?vid=c44eb229-a1f6-478f-a2aa-0e5b2510cf33"},"vehicle_type_id":"4","last_reported":1745734376,"current_range_meters":20000,"station_id":"ce4bhe12rcd13ifvqf30","pricing_plan_id":"cebpf4jnsgd1na2vs0mg"},{"bike_id":"5a29cffd-a421-4baa-a744-49b7cb8ec717","system_id":"levelo_inurba_marseille","lat":43.28265,"lon":5.35073,"is_reserved":false,"is_disabled":false,"rental_uris":{"android":"levelo://app?vid=5a29cffd-a421-4baa-a744-49b7cb8ec717","ios":"levelo://app?vid=5a29cffd-a421-4baa-a744-49b7cb8ec717"},"vehicle_type_id":"4","last_reported":1745734376,"current_range_meters":20000,"station_id":"ce4bhbp2rcd13ifvqerg","pricing_plan_id":"cebpf4jnsgd1na2vs0mg"},{"bike_id":"5ef04bbc-22dd-4338-9a50-0c7bbeda8541","system_id":"levelo_inurba_marseille","lat":43.21205,"lon":5.35083,"is_reserved":false,"is_disabled":false,"rental_uris":{"android":"levelo://app?vid=5ef04bbc-22dd-4338-9a50-0c7bbeda8541","ios":"levelo://app?vid=5ef04bbc-22dd-4338-9a50-0c7bbeda8541"},"vehicle_type_id":"4","last_reported":1745734376,"current_range_meters":20000,"station_id":"","pricing_plan_id":"cebpf4jnsgd1na2vs0mg"},{"bike_id":"1c378717-5783-4f85-8ce5-f86b9be4f1fe","system_id":"levelo_inurba_marseille","lat":43.2815,"lon":5.42668,"is_reserved":false,"is_disabled":false,"rental_uris":{"android":"levelo://app?vid=1c378717-5783-4f85-8ce5-f86b9be4f1fe","ios":"levelo://app?vid=1c378717-5783-4f85-8ce5-f86b9be4f1fe"},"vehicle_type_id":"4","last_reported":1745734376,"current_range_meters":20000,"station_id":"ce4bhnh2rcd13ifvqgug","pricing_plan_id":"cebpf4jnsgd1na2vs0mg"},{"bike_id":"988d3e51-0f81-4d05-9256-41d5bf2a54ae","system_id":"levelo_inurba_marseille","lat":43.29703,"lon":5.3661,"is_reserved":false,"is_disabled":true,"rental_uris":{"android":"levelo://app?vid=988d3e51-0f81-4d05-9256-41d5bf2a54ae","ios":"levelo://app?vid=988d3e51-0f81-4d05-9256-41d5bf2a54ae"},"vehicle_type_id":"4","last_reported":1745734376,"current_range_meters":20000,"station_id":"ce4bgn12rcd13ifvqbt0","pricing_plan_id":"cebpf4jnsgd1na2vs0mg"},{"bike_id":"0be3e0e7-687d-4857-9b13-2fe0c4be5ba3","system_id":"levelo_inurba_marseille","lat":43.28079,"lon":5.39694,"is_reserved":false,"is_disabled":false,"rental_uris":{"android":"levelo://app?vid=0be3e0e7-687d-4857-9b13-2fe0c4be5ba3","ios":"levelo://app?vid=0be3e0e7-687d-4857-9b13-2fe0c4be5ba3"},"vehicle_type_id":"4","last_reported":1745734376,"current_range_meters":20000,"station_id":"ce4bho12rcd13ifvqh2g","pricing_plan_id":"cebpf4jnsgd1na2vs0mg"},{"bike_id":"0fa0d35c-5f1d-4090-ac0b-83c1fb2bda03","system_id":"levelo_inurba_marseille","lat":43.29255,"lon":5.40919,"is_reserved":false,"is_disabled":false,"rental_uris":{"android":"levelo://app?vid=0fa0d35c-5f1d-4090-ac0b-83c1fb2bda03","ios":"levelo://app?vid=0fa0d35c-5f1d-4090-ac0b-83c1fb2bda03"},"vehicle_type_id":"4","last_reported":1745734376,"current_range_meters":20400,"station_id":"ce4bh192rcd13ifvqdc0","pricing_plan_id":"cebpf4jnsgd1na2vs0mg"},{"bike_id":"bec1e472-63aa-481e-bbc8-305365b19ca4","system_id":"levelo_inurba_marseille","lat":43.2795,"lon":5.387296,"is_reserved":false,"is_disabled":false,"rental_uris":{"android":"levelo://app?vid=bec1e472-63aa-481e-bbc8-305365b19ca4","ios":"levelo://app?vid=bec1e472-63aa-481e-bbc8-305365b19ca4"},"vehicle_type_id":"4","last_reported":1745734376,"current_range_meters":20400,"station_id":"ce4bhg12rcd13ifvqf80","pricing_plan_id":"cebpf4jnsgd1na2vs0mg"},{"bike_id":"929ede0a-bede-4f2c-98c5-5586d05b6a66","system_id":"levelo_inurba_marseille","lat":43.2176,"lon":5.34607,"is_reserved":false,"is_disabled":false,"rental_uris":{"android":"levelo://app?vid=929ede0a-bede-4f2c-98c5-5586d05b6a66","ios":"levelo://app?vid=929ede0a-bede-4f2c-98c5-5586d05b6a66"},"vehicle_type_id":"4","last_reported":1745734376,"current_range_meters":20400,"station_id":"st_cvj6r9ubvosntc0bgbag","pricing_plan_id":"cebpf4jnsgd1na2vs0mg"},{"bike_id":"9275afeb-620b-4a3c-83d1-31bc14709d93","system_id":"levelo_inurba_marseille","lat":43.2885,"lon":5.35886,"is_reserved":false,"is_disabled":true,"rental_uris":{"android":"levelo://app?vid=9275afeb-620b-4a3c-83d1-31bc14709d93","ios":"levelo://app?vid=9275afeb-620b-4a3c-83d1-31bc14709d93"},"vehicle_type_id":"4","last_reported":1745734376,"current_range_meters":20400,"station_id":"ce4bhb12rcd13ifvqem0","pricing_plan_id":"cebpf4jnsgd1na2vs0mg"},{"bike_id":"dfc90485-ddd0-40ac-9769-3d6b9ae753c1","system_id":"levelo_inurba_marseille","lat":43.32058,"lon":5.41547,"is_reserved":false,"is_disabled":false,"rental_uris":{"android":"levelo://app?vid=dfc90485-ddd0-40ac-9769-3d6b9ae753c1","ios":"levelo://app?vid=dfc90485-ddd0-40ac-9769-3d6b9ae753c1"},"vehicle_type_id":"4","last_reported":1745734376,"current_range_meters":20400,"station_id":"ce4bhq92rcd13ifvqhkg","pricing_plan_id":"cebpf4jnsgd1na2vs0mg"},{"bike_id":"09726f98-2857-4622-b5e9-85c84dadcf18","system_id":"levelo_inurba_marseille","lat":43.30281,"lon":5.40053,"is_reserved":false,"is_disabled":false,"rental_uris":{"android":"levelo://app?vid=09726f98-2857-4622-b5e9-85c84dadcf18","ios":"levelo://app?vid=09726f98-2857-4622-b5e9-85c84dadcf18"},"vehicle_type_id":"4","last_reported":1745734376,"current_range_meters":20400,"station_id":"ce4bgvh2rcd13ifvqcs0","pricing_plan_id":"cebpf4jnsgd1na2vs0mg"},{"bike_id":"3f594d7c-abb9-4381-87f9-e3bcb3849d6a","system_id":"levelo_inurba_marseille","lat":43.29255,"lon":5.40914,"is_reserved":false,"is_disabled":false,"rental_uris":{"android":"levelo://app?vid=3f594d7c-abb9-4381-87f9-e3bcb3849d6a","ios":"levelo://app?vid=3f594d7c-abb9-4381-87f9-e3bcb3849d6a"},"vehicle_type_id":"4","last_reported":1745734376,"current_range_meters":20800,"station_id":"ce4bh192rcd13ifvqdc0","pricing_plan_id":"cebpf4jnsgd1na2vs0mg"},{"bike_id":"b45721df-1911-4bd0-96bb-0c84adb69cfd","system_id":"levelo_inurba_marseille","lat":43.239613,"lon":5.366326,"is_reserved":false,"is_disabled":false,"rental_uris":{"android":"levelo://app?vid=b45721df-1911-4bd0-96bb-0c84adb69cfd","ios":"levelo://app?vid=b45721df-1911-4bd0-96bb-0c84adb69cfd"},"vehicle_type_id":"4","last_reported":1745734376,"current_range_meters":20800,"station_id":"ce4bhi12rcd13ifvqfp0","pricing_plan_id":"cebpf4jnsgd1na2vs0mg"},{"bike_id":"5f363fb2-65d6-4f54-a7e8-9f0969c18dcf","system_id":"levelo_inurba_marseille","lat":43.30555,"lon":5.36538,"is_reserved":false,"is_disabled":true,"rental_uris":{"android":"levelo://app?vid=5f363fb2-65d6-4f54-a7e8-9f0969c18dcf","ios":"levelo://app?vid=5f363fb2-65d6-4f54-a7e8-9f0969c18dcf"},"vehicle_type_id":"4","last_reported":1745734376,"current_range_meters":21600,"station_id":"ce4bgs12rcd13ifvqcag","pricing_plan_id":"cebpf4jnsgd1na2vs0mg"},{"bike_id":"0b6d029c-75e7-4035-b624-5a32cd045035","system_id":"levelo_inurba_marseille","lat":43.31114,"lon":5.37778,"is_reserved":false,"is_disabled":false,"rental_uris":{"android":"levelo://app?vid=0b6d029c-75e7-4035-b624-5a32cd045035","ios":"levelo://app?vid=0b6d029c-75e7-4035-b624-5a32cd045035"},"vehicle_type_id":"4","last_reported":1745734376,"current_range_meters":21600,"station_id":"ce4bgt92rcd13ifvqcg0","pricing_plan_id":"cebpf4jnsgd1na2vs0mg"},{"bike_id":"a1eef206-b196-4dbe-8444-1fdb32e851fe","system_id":"levelo_inurba_marseille","lat":43.250853,"lon":5.395172,"is_reserved":false,"is_disabled":false,"rental_uris":{"android":"levelo://app?vid=a1eef206-b196-4dbe-8444-1fdb32e851fe","ios":"levelo://app?vid=a1eef206-b196-4dbe-8444-1fdb32e851fe"},"vehicle_type_id":"4","last_reported":1745734376,"current_range_meters":21600,"station_id":"ce4bhm12rcd13ifvqgkg","pricing_plan_id":"cebpf4jnsgd1na2vs0mg"},{"bike_id":"96932114-e32e-4a96-a445-ccee0876653f","system_id":"levelo_inurba_marseille","lat":43.28735,"lon":5.39974,"is_reserved":false,"is_disabled":false,"rental_uris":{"android":"levelo://app?vid=96932114-e32e-4a96-a445-ccee0876653f","ios":"levelo://app?vid=96932114-e32e-4a96-a445-ccee0876653f"},"vehicle_type_id":"4","last_reported":1745734376,"current_range_meters":21600,"station_id":"ce4bho92rcd13ifvqh3g","pricing_plan_id":"cebpf4jnsgd1na2vs0mg"},{"bike_id":"6479956a-d9b1-44fc-b8a6-2a54b4859093","system_id":"levelo_inurba_marseille","lat":43.28137,"lon":5.42668,"is_reserved":false,"is_disabled":false,"rental_uris":{"android":"levelo://app?vid=6479956a-d9b1-44fc-b8a6-2a54b4859093","ios":"levelo://app?vid=6479956a-d9b1-44fc-b8a6-2a54b4859093"},"vehicle_type_id":"4","last_reported":1745734376,"current_range_meters":22000,"station_id":"ce4bhnh2rcd13ifvqgug","pricing_plan_id":"cebpf4jnsgd1na2vs0mg"},{"bike_id":"854b6f67-ca9a-45bb-a87f-9accf64bf40e","system_id":"levelo_inurba_marseille","lat":43.275831,"lon":5.384151,"is_reserved":false,"is_disabled":true,"rental_uris":{"android":"levelo://app?vid=854b6f67-ca9a-45bb-a87f-9accf64bf40e","ios":"levelo://app?vid=854b6f67-ca9a-45bb-a87f-9accf64bf40e"},"vehicle_type_id":"4","last_reported":1745734376,"current_range_meters":22000,"station_id":"ce4bhh92rcd13ifvqfi0","pricing_plan_id":"cebpf4jnsgd1na2vs0mg"},{"bike_id":"7c7dae8c-f706-49ba-a992-714a664efd83","system_id":"levelo_inurba_marseille","lat":43.22503,"lon":5.34778,"is_reserved":false,"is_disabled":false,"rental_uris":{"android":"levelo://app?vid=7c7dae8c-f706-49ba-a992-714a664efd83","ios":"levelo://app?vid=7c7dae8c-f706-49ba-a992-714a664efd83"},"vehicle_type_id":"4","last_reported":1745734376,"current_range_meters":22000,"station_id":"st_cvj5dfep6f1abm77gieg","pricing_plan_id":"cebpf4jnsgd1na2vs0mg"},{"bike_id":"790d9999-38bf-4b83-84e8-95612430b6c3","system_id":"levelo_inurba_marseille","lat":43.29621,"lon":5.37718,"is_reserved":false,"is_disabled":false,"rental_uris":{"android":"levelo://app?vid=790d9999-38bf-4b83-84e8-95612430b6c3","ios":"levelo://app?vid=790d9999-38bf-4b83-84e8-95612430b6c3"},"vehicle_type_id":"4","last_reported":1745734376,"current_range_meters":22000,"station_id":"ce4bgi92rcd13ifvqb90","pricing_plan_id":"cebpf4jnsgd1na2vs0mg"},{"bike_id":"eed4fda3-e631-478f-99ea-86b34d785dbd","system_id":"levelo_inurba_marseille","lat":43.28496,"lon":5.3855,"is_reserved":false,"is_disabled":false,"rental_uris":{"android":"levelo://app?vid=eed4fda3-e631-478f-99ea-86b34d785dbd","ios":"levelo://app?vid=eed4fda3-e631-478f-99ea-86b34d785dbd"},"vehicle_type_id":"4","last_reported":1745734376,"current_range_meters":22400,"station_id":"ce4bh8p2rcd13ifvqeb0","pricing_plan_id":"cebpf4jnsgd1na2vs0mg"},{"bike_id":"9842c33b-8b1a-4568-88b0-da78107763e2","system_id":"levelo_inurba_marseille","lat":43.27196,"lon":5.40981,"is_reserved":false,"is_disabled":false,"rental_uris":{"android":"levelo://app?vid=9842c33b-8b1a-4568-88b0-da78107763e2","ios":"levelo://app?vid=9842c33b-8b1a-4568-88b0-da78107763e2"},"vehicle_type_id":"4","last_reported":1745734376,"current_range_meters":22400,"station_id":"ce4bhl12rcd13ifvqgf0","pricing_plan_id":"cebpf4jnsgd1na2vs0mg"},{"bike_id":"b79a1c88-6b63-4c9b-a391-47a491dfc727","system_id":"levelo_inurba_marseille","lat":43.30133,"lon":5.38086,"is_reserved":false,"is_disabled":false,"rental_uris":{"android":"levelo://app?vid=b79a1c88-6b63-4c9b-a391-47a491dfc727","ios":"levelo://app?vid=b79a1c88-6b63-4c9b-a391-47a491dfc727"},"vehicle_type_id":"4","last_reported":1745734376,"current_range_meters":22400,"station_id":"ce4bgjp2rcd13ifvqbh0","pricing_plan_id":"cebpf4jnsgd1na2vs0mg"},{"bike_id":"c36f7ec0-ab1c-4b44-9e66-09303be35d0e","system_id":"levelo_inurba_marseille","lat":43.29789,"lon":5.40429,"is_reserved":false,"is_disabled":false,"rental_uris":{"android":"levelo://app?vid=c36f7ec0-ab1c-4b44-9e66-09303be35d0e","ios":"levelo://app?vid=c36f7ec0-ab1c-4b44-9e66-09303be35d0e"},"vehicle_type_id":"4","last_reported":1745734376,"current_range_meters":22800,"station_id":"ce4bh112rcd13ifvqd90","pricing_plan_id":"cebpf4jnsgd1na2vs0mg"},{"bike_id":"4d82b9ef-8681-4cf0-9b5e-d8f04120e103","system_id":"levelo_inurba_marseille","lat":43.26059,"lon":5.39399,"is_reserved":false,"is_disabled":false,"rental_uris":{"android":"levelo://app?vid=4d82b9ef-8681-4cf0-9b5e-d8f04120e103","ios":"levelo://app?vid=4d82b9ef-8681-4cf0-9b5e-d8f04120e103"},"vehicle_type_id":"4","last_reported":1745734376,"current_range_meters":22800,"station_id":"ce4bhh92rcd13ifvqfj0","pricing_plan_id":"cebpf4jnsgd1na2vs0mg"},{"bike_id":"11612fe3-cbef-439e-8d71-bc344978946f","system_id":"levelo_inurba_marseille","lat":43.30791,"lon":5.43531,"is_reserved":false,"is_disabled":false,"rental_uris":{"android":"levelo://app?vid=11612fe3-cbef-439e-8d71-bc344978946f","ios":"levelo://app?vid=11612fe3-cbef-439e-8d71-bc344978946f"},"vehicle_type_id":"4","last_reported":1745734376,"current_range_meters":22800,"station_id":"ce4bhph2rcd13ifvqheg","pricing_plan_id":"cebpf4jnsgd1na2vs0mg"},{"bike_id":"26e2563a-5614-46af-9839-4e09e7d33768","system_id":"levelo_inurba_marseille","lat":43.33609,"lon":5.41009,"is_reserved":false,"is_disabled":false,"rental_uris":{"android":"levelo://app?vid=26e2563a-5614-46af-9839-4e09e7d33768","ios":"levelo://app?vid=26e2563a-5614-46af-9839-4e09e7d33768"},"vehicle_type_id":"4","last_reported":1745734376,"current_range_meters":22800,"station_id":"ce4bhqh2rcd13ifvqhmg","pricing_plan_id":"cebpf4jnsgd1na2vs0mg"},{"bike_id":"1d8ec524-e06f-4771-9785-1c3ee9049a73","system_id":"levelo_inurba_marseille","lat":43.31538,"lon":5.3802,"is_reserved":false,"is_disabled":false,"rental_uris":{"android":"levelo://app?vid=1d8ec524-e06f-4771-9785-1c3ee9049a73","ios":"levelo://app?vid=1d8ec524-e06f-4771-9785-1c3ee9049a73"},"vehicle_type_id":"4","last_reported":1745734376,"current_range_meters":22800,"station_id":"ce4bhsp2rcd13ifvqi50","pricing_plan_id":"cebpf4jnsgd1na2vs0mg"},{"bike_id":"50e7671c-3203-4a60-9517-2465cb035052","system_id":"levelo_inurba_marseille","lat":43.28162,"lon":5.42629,"is_reserved":false,"is_disabled":false,"rental_uris":{"android":"levelo://app?vid=50e7671c-3203-4a60-9517-2465cb035052","ios":"levelo://app?vid=50e7671c-3203-4a60-9517-2465cb035052"},"vehicle_type_id":"4","last_reported":1745734376,"current_range_meters":22800,"station_id":"ce4bhnh2rcd13ifvqgug","pricing_plan_id":"cebpf4jnsgd1na2vs0mg"},{"bike_id":"2927c78c-0541-4679-8cbb-57ff15cf607c","system_id":"levelo_inurba_marseille","lat":43.32329,"lon":5.40622,"is_reserved":false,"is_disabled":false,"rental_uris":{"android":"levelo://app?vid=2927c78c-0541-4679-8cbb-57ff15cf607c","ios":"levelo://app?vid=2927c78c-0541-4679-8cbb-57ff15cf607c"},"vehicle_type_id":"4","last_reported":1745734376,"current_range_meters":22800,"station_id":"ce4bhq92rcd13ifvqhjg","pricing_plan_id":"cebpf4jnsgd1na2vs0mg"},{"bike_id":"d36c5311-a540-494c-9ffa-281f8cfcd72e","system_id":"levelo_inurba_marseille","lat":43.29231,"lon":5.40148,"is_reserved":false,"is_disabled":false,"rental_uris":{"android":"levelo://app?vid=d36c5311-a540-494c-9ffa-281f8cfcd72e","ios":"levelo://app?vid=d36c5311-a540-494c-9ffa-281f8cfcd72e"},"vehicle_type_id":"4","last_reported":1745734376,"current_range_meters":22800,"station_id":"ce4bh312rcd13ifvqdk0","pricing_plan_id":"cebpf4jnsgd1na2vs0mg"},{"bike_id":"9b268a13-af7c-48c3-98ca-29bc1956bc1f","system_id":"levelo_inurba_marseille","lat":43.3133,"lon":5.39745,"is_reserved":false,"is_disabled":false,"rental_uris":{"android":"levelo://app?vid=9b268a13-af7c-48c3-98ca-29bc1956bc1f","ios":"levelo://app?vid=9b268a13-af7c-48c3-98ca-29bc1956bc1f"},"vehicle_type_id":"4","last_reported":1745734376,"current_range_meters":22800,"station_id":"ce4bgvp2rcd13ifvqcu0","pricing_plan_id":"cebpf4jnsgd1na2vs0mg"},{"bike_id":"faaa9e78-abe6-4483-8978-27e0b3ff88b7","system_id":"levelo_inurba_marseille","lat":43.3064,"lon":5.40083,"is_reserved":false,"is_disabled":false,"rental_uris":{"android":"levelo://app?vid=faaa9e78-abe6-4483-8978-27e0b3ff88b7","ios":"levelo://app?vid=faaa9e78-abe6-4483-8978-27e0b3ff88b7"},"vehicle_type_id":"4","last_reported":1745734376,"current_range_meters":22800,"station_id":"ce4bh112rcd13ifvqda0","pricing_plan_id":"cebpf4jnsgd1na2vs0mg"},{"bike_id":"9dd63bc2-4374-4129-b0b8-af93776b7f7c","system_id":"levelo_inurba_marseille","lat":43.322868,"lon":5.382706,"is_reserved":false,"is_disabled":false,"rental_uris":{"android":"levelo://app?vid=9dd63bc2-4374-4129-b0b8-af93776b7f7c","ios":"levelo://app?vid=9dd63bc2-4374-4129-b0b8-af93776b7f7c"},"vehicle_type_id":"4","last_reported":1745734376,"current_range_meters":23200,"station_id":"ce4bhr12rcd13ifvqhqg","pricing_plan_id":"cebpf4jnsgd1na2vs0mg"},{"bike_id":"595f6646-078f-45b9-a310-3cc1b99420e9","system_id":"levelo_inurba_marseille","lat":43.30123,"lon":5.39871,"is_reserved":false,"is_disabled":false,"rental_uris":{"android":"levelo://app?vid=595f6646-078f-45b9-a310-3cc1b99420e9","ios":"levelo://app?vid=595f6646-078f-45b9-a310-3cc1b99420e9"},"vehicle_type_id":"4","last_reported":1745734376,"current_range_meters":22800,"station_id":"ce4bh0h2rcd13ifvqd40","pricing_plan_id":"cebpf4jnsgd1na2vs0mg"},{"bike_id":"c29541ec-797f-42d2-a49a-05a43b38a103","system_id":"levelo_inurba_marseille","lat":43.292447,"lon":5.409036,"is_reserved":false,"is_disabled":false,"rental_uris":{"android":"levelo://app?vid=c29541ec-797f-42d2-a49a-05a43b38a103","ios":"levelo://app?vid=c29541ec-797f-42d2-a49a-05a43b38a103"},"vehicle_type_id":"4","last_reported":1745734376,"current_range_meters":23200,"station_id":"ce4bh192rcd13ifvqdc0","pricing_plan_id":"cebpf4jnsgd1na2vs0mg"},{"bike_id":"5b5279c4-e4ef-4116-bd16-593bc28de371","system_id":"levelo_inurba_marseille","lat":43.2361,"lon":5.40351,"is_reserved":false,"is_disabled":false,"rental_uris":{"android":"levelo://app?vid=5b5279c4-e4ef-4116-bd16-593bc28de371","ios":"levelo://app?vid=5b5279c4-e4ef-4116-bd16-593bc28de371"},"vehicle_type_id":"4","last_reported":1745734376,"current_range_meters":23200,"station_id":"","pricing_plan_id":"cebpf4jnsgd1na2vs0mg"},