{"last_updated":1729340171,"ttl":60,"version":"2.2","data":{"bikes":[{"bike_id":"5b538d16-628f-4899-b771-ad0233538888","system_id":"levelo_inurba_marseille","lat":43.30551,"lon":5.36548,"is_reserved":false,"is_disabled":false,"rental_uris":{"android":"levelo://app?vid=5b538d16-628f-4899-b771-ad0233538888","ios":"levelo://app?vid=5b538d16-628f-4899-b771-ad0233538888"},"vehicle_type_id":"4","last_reported":1729340171,"current_range_meters":30400,"station_id":"ce4bgs12rcd13ifvqcag","pricing_plan_id":"cebpf4jnsgd1na2vs0mg"},{"bike_id":"026d9343-559e-4511-a6a6-efb8ebad05ba","system_id":"levelo_inurba_marseille","lat":43.29286,"lon":5.4012,"is_reserved":false,"is_disabled":false,"rental_uris":{"android":"levelo://app?vid=026d9343-559e-4511-a6a6-efb8ebad05ba","ios":"levelo://app?vid=026d9343-559e-4511-a6a6-efb8ebad05ba"},"vehicle_type_id":"4","last_reported":1729340171,"current_range_meters":31200,"station_id":"ce4bh312rcd13ifvqdk0","pricing_plan_id":"cebpf4jnsgd1na2vs0mg"},{"bike_id":"ef47d04a-d623-4923-9ac4-d8403fc9a216","system_id":"levelo_inurba_marseille","lat":43.33728,"lon":5.39179,"is_reserved":false,"is_disabled":false,"rental_uris":{"android":"levelo://app?vid=ef47d04a-d623-4923-9ac4-d8403fc9a216","ios":"levelo://app?vid=ef47d04a-d623-4923-9ac4-d8403fc9a216"},"vehicle_type_id":"4","last_reported":1729340171,"current_range_meters":38800,"station_id":"ce4bhr92rcd13ifvqhsg","pricing_plan_id":"cebpf4jnsgd1na2vs0mg"},{"bike_id":"10a9ece6-ff34-482d-8185-60ac6265c523","system_id":"levelo_inurba_marseille","lat":43.32682,"lon":5.36317,"is_reserved":false,"is_disabled":false,"rental_uris":{"android":"levelo://app?vid=10a9ece6-ff34-482d-8185-60ac6265c523","ios":"levelo://app?vid=10a9ece6-ff34-482d-8185-60ac6265c523"},"vehicle_type_id":"4","last_reported":1729340171,"current_range_meters":20800,"station_id":"","pricing_plan_id":"cebpf4jnsgd1na2vs0mg"},{"bike_id":"afdeea0a-a56e-4979-b223-aa0bb4ff3e94","system_id":"levelo_inurba_marseille","lat":43.26553,"lon":5.3729,"is_reserved":false,"is_disabled":false,"rental_uris":{"android":"levelo://app?vid=afdeea0a-a56e-4979-b223-aa0bb4ff3e94","ios":"levelo://app?vid=afdeea0a-a56e-4979-b223-aa0bb4ff3e94"},"vehicle_type_id":"4","last_reported":1729340171,"current_range_meters":22800,"station_id":"ce4bhg12rcd13ifvqf70","pricing_plan_id":"cebpf4jnsgd1na2vs0mg"},{"bike_id":"a191078d-3b42-4798-a68c-6fcf9e88572d","system_id":"levelo_inurba_marseille","lat":43.31714,"lon":5.4371,"is_reserved":false,"is_disabled":false,"rental_uris":{"android":"levelo://app?vid=a191078d-3b42-4798-a68c-6fcf9e88572d","ios":"levelo://app?vid=a191078d-3b42-4798-a68c-6fcf9e88572d"},"vehicle_type_id":"4","last_reported":1729340171,"current_range_meters":32400,"station_id":"ce4bhp92rcd13ifvqhcg","pricing_plan_id":"cebpf4jnsgd1na2vs0mg"},{"bike_id":"7695e951-fe49-466c-b1f2-4e44e5b9e14c","system_id":"levelo_inurba_marseille","lat":43.30794,"lon":5.43535,"is_reserved":false,"is_disabled":false,"rental_uris":{"android":"levelo://app?vid=7695e951-fe49-466c-b1f2-4e44e5b9e14c","ios":"levelo://app?vid=7695e951-fe49-466c-b1f2-4e44e5b9e14c"},"vehicle_type_id":"4","last_reported":1729340171,"current_range_meters":38000,"station_id":"ce4bhph2rcd13ifvqheg","pricing_plan_id":"cebpf4jnsgd1na2vs0mg"},{"bike_id":"3073e18c-2fb2-49b5-94cd-27d3acb18637","system_id":"levelo_inurba_marseille","lat":43.30281,"lon":5.37716,"is_reserved":false,"is_disabled":false,"rental_uris":{"android":"levelo://app?vid=3073e18c-2fb2-49b5-94cd-27d3acb18637","ios":"levelo://app?vid=3073e18c-2fb2-49b5-94cd-27d3acb18637"},"vehicle_type_id":"4","last_reported":1729340171,"current_range_meters":34000,"station_id":"ce4bguh2rcd13ifvqcj0","pricing_plan_id":"cebpf4jnsgd1na2vs0mg"},{"bike_id":"bdac7045-6822-4f98-8d23-075c35d4893f","system_id":"levelo_inurba_marseille","lat":43.29354,"lon":5.42845,"is_reserved":false,"is_disabled":false,"rental_uris":{"android":"levelo://app?vid=bdac7045-6822-4f98-8d23-075c35d4893f","ios":"levelo://app?vid=bdac7045-6822-4f98-8d23-075c35d4893f"},"vehicle_type_id":"4","last_reported":1729340171,"current_range_meters":6000,"station_id":"","pricing_plan_id":"cebpf4jnsgd1na2vs0mg"},{"bike_id":"4dd78387-69b0-4f40-93ee-8c3fb82439f9","system_id":"levelo_inurba_marseille","lat":43.29588,"lon":5.36748,"is_reserved":false,"is_disabled":false,"rental_uris":{"android":"levelo://app?vid=4dd78387-69b0-4f40-93ee-8c3fb82439f9","ios":"levelo://app?vid=4dd78387-69b0-4f40-93ee-8c3fb82439f9"},"vehicle_type_id":"4","last_reported":1729340171,"current_range_meters":11600,"station_id":"ce4bgph2rcd13ifvqc2g","pricing_plan_id":"cebpf4jnsgd1na2vs0mg"},{"bike_id":"55f68d7e-5b43-4542-90ab-78c8635c8ad8","system_id":"levelo_inurba_marseille","lat":43.2781,"lon":5.40719,"is_reserved":false,"is_disabled":false,"rental_uris":{"android":"levelo://app?vid=55f68d7e-5b43-4542-90ab-78c8635c8ad8","ios":"levelo://app?vid=55f68d7e-5b43-4542-90ab-78c8635c8ad8"},"vehicle_type_id":"4","last_reported":1729340171,"current_range_meters":25200,"station_id":"ce4bhnh2rcd13ifvqgtg","pricing_plan_id":"cebpf4jnsgd1na2vs0mg"},{"bike_id":"e0879c3f-10eb-4d3b-8053-605cb1c6310c","system_id":"levelo_inurba_marseille","lat":43.26068,"lon":5.39395,"is_reserved":false,"is_disabled":false,"rental_uris":{"android":"levelo://app?vid=e0879c3f-10eb-4d3b-8053-605cb1c6310c","ios":"levelo://app?vid=e0879c3f-10eb-4d3b-8053-605cb1c6310c"},"vehicle_type_id":"4","last_reported":1729340171,"current_range_meters":26800,"station_id":"ce4bhh92rcd13ifvqfj0","pricing_plan_id":"cebpf4jnsgd1na2vs0mg"},{"bike_id":"56b17b2e-9250-4113-ab68-4f747e37f5e8","system_id":"levelo_inurba_marseille","lat":43.3091,"lon":5.36847,"is_reserved":false,"is_disabled":false,"rental_uris":{"android":"levelo://app?vid=56b17b2e-9250-4113-ab68-4f747e37f5e8","ios":"levelo://app?vid=56b17b2e-9250-4113-ab68-4f747e37f5e8"},"vehicle_type_id":"4","last_reported":1729340171,"current_range_meters":16000,"station_id":"ce4bgn92rcd13ifvqbvg","pricing_plan_id":"cebpf4jnsgd1na2vs0mg"},{"bike_id":"da7c6891-56ab-4989-93d6-b5fbc13bba27","system_id":"levelo_inurba_marseille","lat":43.31066,"lon":5.38351,"is_reserved":false,"is_disabled":false,"rental_uris":{"android":"levelo://app?vid=da7c6891-56ab-4989-93d6-b5fbc13bba27","ios":"levelo://app?vid=da7c6891-56ab-4989-93d6-b5fbc13bba27"},"vehicle_type_id":"4","last_reported":1729340171,"current_range_meters":34800,"station_id":"ce4bgv92rcd13ifvqcr0","pricing_plan_id":"cebpf4jnsgd1na2vs0mg"},{"bike_id":"71c3d905-196d-41d1-8a1e-4075ff212bf7","system_id":"levelo_inurba_marseille","lat":43.30154,"lon":5.38095,"is_reserved":false,"is_disabled":false,"rental_uris":{"android":"levelo://app?vid=71c3d905-196d-41d1-8a1e-4075ff212bf7","ios":"levelo://app?vid=71c3d905-196d-41d1-8a1e-4075ff212bf7"},"vehicle_type_id":"4","last_reported":1729340171,"current_range_meters":24400,"station_id":"ce4bgjp2rcd13ifvqbh0","pricing_plan_id":"cebpf4jnsgd1na2vs0mg"},{"bike_id":"b39581d4-e42c-4a04-8914-974fd750b7c8","system_id":"levelo_inurba_marseille","lat":43.29628,"lon":5.37173,"is_reserved":false,"is_disabled":false,"rental_uris":{"android":"levelo://app?vid=b39581d4-e42c-4a04-8914-974fd750b7c8","ios":"levelo://app?vid=b39581d4-e42c-4a04-8914-974fd750b7c8"},"vehicle_type_id":"4","last_reported":1729340171,"current_range_meters":9200,"station_id":"ce4bgnh2rcd13ifvqc0g","pricing_plan_id":"cebpf4jnsgd1na2vs0mg"},{"bike_id":"7b622fb2-ac11-42dd-ac75-27f37365c3d8","system_id":"levelo_inurba_marseille","lat":43.29935,"lon":5.36542,"is_reserved":false,"is_disabled":false,"rental_uris":{"android":"levelo://app?vid=7b622fb2-ac11-42dd-ac75-27f37365c3d8","ios":"levelo://app?vid=7b622fb2-ac11-42dd-ac75-27f37365c3d8"},"vehicle_type_id":"4","last_reported":1729340171,"current_range_meters":35200,"station_id":"ce4bgm92rcd13ifvqbr0","pricing_plan_id":"cebpf4jnsgd1na2vs0mg"},{"bike_id":"006ddbf4-82cb-41c3-a643-0f3a1c8bb945","system_id":"levelo_inurba_marseille","lat":43.27069,"lon":5.42275,"is_reserved":false,"is_disabled":false,"rental_uris":{"android":"levelo://app?vid=006ddbf4-82cb-41c3-a643-0f3a1c8bb945","ios":"levelo://app?vid=006ddbf4-82cb-41c3-a643-0f3a1c8bb945"},"vehicle_type_id":"4","last_reported":1729340171,"current_range_meters":39200,"station_id":"ce4bhk92rcd13ifvqgb0","pricing_plan_id":"cebpf4jnsgd1na2vs0mg"},{"bike_id":"317d7818-96ed-4b00-a33f-364ecbb090a9","system_id":"levelo_inurba_marseille","lat":43.29847,"lon":5.36267,"is_reserved":false,"is_disabled":false,"rental_uris":{"android":"levelo://app?vid=317d7818-96ed-4b00-a33f-364ecbb090a9","ios":"levelo://app?vid=317d7818-96ed-4b00-a33f-364ecbb090a9"},"vehicle_type_id":"4","last_reported":1729340171,"current_range_meters":36000,"station_id":"ce4bgpp2rcd13ifvqc3g","pricing_plan_id":"cebpf4jnsgd1na2vs0mg"},{"bike_id":"3cd0557c-34f4-49d3-8659-932883d62b53","system_id":"levelo_inurba_marseille","lat":43.29853,"lon":5.36291,"is_reserved":false,"is_disabled":false,"rental_uris":{"android":"levelo://app?vid=3cd0557c-34f4-49d3-8659-932883d62b53","ios":"levelo://app?vid=3cd0557c-34f4-49d3-8659-932883d62b53"},"vehicle_type_id":"4","last_reported":1729340171,"current_range_meters":38800,"station_id":"ce4bgpp2rcd13ifvqc3g","pricing_plan_id":"cebpf4jnsgd1na2vs0mg"},{"bike_id":"7d0031a1-cab7-4a2c-902c-87350f474e4f","system_id":"levelo_inurba_marseille","lat":43.29579,"lon":5.37512,"is_reserved":false,"is_disabled":false,"rental_uris":{"android":"levelo://app?vid=7d0031a1-cab7-4a2c-902c-87350f474e4f","ios":"levelo://app?vid=7d0031a1-cab7-4a2c-902c-87350f474e4f"},"vehicle_type_id":"4","last_reported":1729340171,"current_range_meters":24800,"station_id":"ce4bgh92rcd13ifvqb50","pricing_plan_id":"cebpf4jnsgd1na2vs0mg"},{"bike_id":"9e833968-4b5b-4a32-a96b-8431979de98c","system_id":"levelo_inurba_marseille","lat":43.25725,"lon":5.41109,"is_reserved":false,"is_disabled":false,"rental_uris":{"android":"levelo://app?vid=9e833968-4b5b-4a32-a96b-8431979de98c","ios":"levelo://app?vid=9e833968-4b5b-4a32-a96b-8431979de98c"},"vehicle_type_id":"4","last_reported":1729340171,"current_range_meters":27200,"station_id":"ce4bhkp2rcd13ifvqgd0","pricing_plan_id":"cebpf4jnsgd1na2vs0mg"},{"bike_id":"60bdae86-6faa-43f4-ae5c-ad8ce19c9d34","system_id":"levelo_inurba_marseille","lat":43.29626,"lon":5.37153,"is_reserved":false,"is_disabled":false,"rental_uris":{"android":"levelo://app?vid=60bdae86-6faa-43f4-ae5c-ad8ce19c9d34","ios":"levelo://app?vid=60bdae86-6faa-43f4-ae5c-ad8ce19c9d34"},"vehicle_type_id":"4","last_reported":1729340171,"current_range_meters":38400,"station_id":"ce4bgnh2rcd13ifvqc0g","pricing_plan_id":"cebpf4jnsgd1na2vs0mg"},{"bike_id":"4971fcd4-2a43-499a-909b-8ce0b63b9329","system_id":"levelo_inurba_marseille","lat":43.31762,"lon":5.39013,"is_reserved":false,"is_disabled":false,"rental_uris":{"android":"levelo://app?vid=4971fcd4-2a43-499a-909b-8ce0b63b9329","ios":"levelo://app?vid=4971fcd4-2a43-499a-909b-8ce0b63b9329"},"vehicle_type_id":"4","last_reported":1729340171,"current_range_meters":6800,"station_id":"ce4bhr92rcd13ifvqhsg","pricing_plan_id":"cebpf4jnsgd1na2vs0mg"},{"bike_id":"3ea1c621-5e28-4f03-89b0-4942a2e7b54b","system_id":"levelo_inurba_marseille","lat":43.27622,"lon":5.36106,"is_reserved":false,"is_disabled":false,"rental_uris":{"android":"levelo://app?vid=3ea1c621-5e28-4f03-89b0-4942a2e7b54b","ios":"levelo://app?vid=3ea1c621-5e28-4f03-89b0-4942a2e7b54b"},"vehicle_type_id":"4","last_reported":1729340171,"current_range_meters":3600,"station_id":"ce4bgj92rcd13ifvqbe0","pricing_plan_id":"cebpf4jnsgd1na2vs0mg"},{"bike_id":"874dbab0-2f32-4e5c-a3d5-6bdf980d941d","system_id":"levelo_inurba_marseille","lat":43.28417,"lon":5.35001,"is_reserved":false,"is_disabled":false,"rental_uris":{"android":"levelo://app?vid=874dbab0-2f32-4e5c-a3d5-6bdf980d941d","ios":"levelo://app?vid=874dbab0-2f32-4e5c-a3d5-6bdf980d941d"},"vehicle_type_id":"4","last_reported":1729340171,"current_range_meters":38400,"station_id":"ce4bhbh2rcd13ifvqepg","pricing_plan_id":"cebpf4jnsgd1na2vs0mg"},{"bike_id":"61a04cb9-be4f-4cf5-b789-0758f7c54444","system_id":"levelo_inurba_marseille","lat":43.232,"lon":5.3556,"is_reserved":false,"is_disabled":false,"rental_uris":{"android":"levelo://app?vid=61a04cb9-be4f-4cf5-b789-0758f7c54444","ios":"levelo://app?vid=61a04cb9-be4f-4cf5-b789-0758f7c54444"},"vehicle_type_id":"4","last_reported":1729340171,"current_range_meters":19200,"station_id":"ce4bhu92rcd13ifvqi70","pricing_plan_id":"cebpf4jnsgd1na2vs0mg"},{"bike_id":"9077fa10-e480-415a-958a-2e7d689248ed","system_id":"levelo_inurba_marseille","lat":43.2428,"lon":5.37971,"is_reserved":false,"is_disabled":false,"rental_uris":{"android":"levelo://app?vid=9077fa10-e480-415a-958a-2e7d689248ed","ios":"levelo://app?vid=9077fa10-e480-415a-958a-2e7d689248ed"},"vehicle_type_id":"4","last_reported":1729340171,"current_range_meters":9600,"station_id":"","pricing_plan_id":"cebpf4jnsgd1na2vs0mg"},{"bike_id":"d010bf09-451b-44ba-8c78-34493d6c85f0","system_id":"levelo_inurba_marseille","lat":43.29861,"lon":5.36303,"is_reserved":false,"is_disabled":false,"rental_uris":{"android":"levelo://app?vid=d010bf09-451b-44ba-8c78-34493d6c85f0","ios":"levelo://app?vid=d010bf09-451b-44ba-8c78-34493d6c85f0"},"vehicle_type_id":"4","last_reported":1729340171,"current_range_meters":38800,"station_id":"ce4bgpp2rcd13ifvqc3g","pricing_plan_id":"cebpf4jnsgd1na2vs0mg"},{"bike_id":"ac0e8923-1675-4a0a-be10-3d027dc097cb","system_id":"levelo_inurba_marseille","lat":43.24428,"lon":5.37933,"is_reserved":false,"is_disabled":false,"rental_uris":{"android":"levelo://app?vid=ac0e8923-1675-4a0a-be10-3d027dc097cb","ios":"levelo://app?vid=ac0e8923-1675-4a0a-be10-3d027dc097cb"},"vehicle_type_id":"4","last_reported":1729340171,"current_range_meters":30000,"station_id":"","pricing_plan_id":"cebpf4jnsgd1na2vs0mg"},{"bike_id":"c746da30-0175-4c63-8cc4-f4d0284e8127","system_id":"levelo_inurba_marseille","lat":43.23979,"lon":5.36629,"is_reserved":false,"is_disabled":false,"rental_uris":{"android":"levelo://app?vid=c746da30-0175-4c63-8cc4-f4d0284e8127","ios":"levelo://app?vid=c746da30-0175-4c63-8cc4-f4d0284e8127"},"vehicle_type_id":"4","last_reported":1729340171,"current_range_meters":16400,"station_id":"ce4bhi12rcd13ifvqfp0","pricing_plan_id":"cebpf4jnsgd1na2vs0mg"},{"bike_id":"0e577dc1-2021-4542-81dd-08e4eb64fe7e","system_id":"levelo_inurba_marseille","lat":43.23965,"lon":5.36629,"is_reserved":false,"is_disabled":false,"rental_uris":{"android":"levelo://app?vid=0e577dc1-2021-4542-81dd-08e4eb64fe7e","ios":"levelo://app?vid=0e577dc1-2021-4542-81dd-08e4eb64fe7e"},"vehicle_type_id":"4","last_reported":1729340171,"current_range_meters":38800,"station_id":"ce4bhi12rcd13ifvqfp0","pricing_plan_id":"cebpf4jnsgd1na2vs0mg"},{"bike_id":"52173c56-8d8e-4b63-ae72-54a0a4451f2c","system_id":"levelo_inurba_marseille","lat":43.27501,"lon":5.42452,"is_reserved":false,"is_disabled":false,"rental_uris":{"android":"levelo://app?vid=52173c56-8d8e-4b63-ae72-54a0a4451f2c","ios":"levelo://app?vid=52173c56-8d8e-4b63-ae72-54a0a4451f2c"},"vehicle_type_id":"4","last_reported":1729340171,"current_range_meters":29600,"station_id":"ce4bhn92rcd13ifvqgrg","pricing_plan_id":"cebpf4jnsgd1na2vs0mg"},{"bike_id":"d0572c30-13bf-4746-a29b-111549056bfa","system_id":"levelo_inurba_marseille","lat":43.25939,"lon":5.40908,"is_reserved":false,"is_disabled":false,"rental_uris":{"android":"levelo://app?vid=d0572c30-13bf-4746-a29b-111549056bfa","ios":"levelo://app?vid=d0572c30-13bf-4746-a29b-111549056bfa"},"vehicle_type_id":"4","last_reported":1729340171,"current_range_meters":12800,"station_id":"ce4bhm92rcd13ifvqglg","pricing_plan_id":"cebpf4jnsgd1na2vs0mg"},{"bike_id":"fc6e513b-da81-4d34-a427-493e42edd768","system_id":"levelo_inurba_marseille","lat":43.29535,"lon":5.39235,"is_reserved":false,"is_disabled":false,"rental_uris":{"android":"levelo://app?vid=fc6e513b-da81-4d34-a427-493e42edd768","ios":"levelo://app?vid=fc6e513b-da81-4d34-a427-493e42edd768"},"vehicle_type_id":"4","last_reported":1729340171,"current_range_meters":22000,"station_id":"","pricing_plan_id":"cebpf4jnsgd1na2vs0mg"},{"bike_id":"ac231a2e-1def-435c-8990-198f2e08ac8d","system_id":"levelo_inurba_marseille","lat":43.23061,"lon":5.35488,"is_reserved":false,"is_disabled":false,"rental_uris":{"android":"levelo://app?vid=ac231a2e-1def-435c-8990-198f2e08ac8d","ios":"levelo://app?vid=ac231a2e-1def-435c-8990-198f2e08ac8d"},"vehicle_type_id":"4","last_reported":1729340171,"current_range_meters":14800,"station_id":"cpo3342slgdg3j2ifvpg","pricing_plan_id":"cebpf4jnsgd1na2vs0mg"},{"bike_id":"0e8c68c7-e8ad-4043-a296-5d6ca0dd4a57","system_id":"levelo_inurba_marseille","lat":43.30849,"lon":5.40277,"is_reserved":false,"is_disabled":false,"rental_uris":{"android":"levelo://app?vid=0e8c68c7-e8ad-4043-a296-5d6ca0dd4a57","ios":"levelo://app?vid=0e8c68c7-e8ad-4043-a296-5d6ca0dd4a57"},"vehicle_type_id":"4","last_reported":1729340171,"current_range_meters":35200,"station_id":"","pricing_plan_id":"cebpf4jnsgd1na2vs0mg"},{"bike_id":"a91a86e9-f509-41a2-bc0c-703b9812a87c","system_id":"levelo_inurba_marseille","lat":43.29309,"lon":5.37175,"is_reserved":false,"is_disabled":false,"rental_uris":{"android":"levelo://app?vid=a91a86e9-f509-41a2-bc0c-703b9812a87c","ios":"levelo://app?vid=a91a86e9-f509-41a2-bc0c-703b9812a87c"},"vehicle_type_id":"4","last_reported":1729340171,"current_range_meters":38400,"station_id":"ce4bgh92rcd13ifvqb40","pricing_plan_id":"cebpf4jnsgd1na2vs0mg"},{"bike_id":"7942b4d2-ec2e-45b4-a706-96b5d3064043","system_id":"levelo_inurba_marseille","lat":43.30204,"lon":5.36617,"is_reserved":false,"is_disabled":false,"rental_uris":{"android":"levelo://app?vid=7942b4d2-ec2e-45b4-a706-96b5d3064043","ios":"levelo://app?vid=7942b4d2-ec2e-45b4-a706-96b5d3064043"},"vehicle_type_id":"4","last_reported":1729340171,"current_range_meters":38800,"station_id":"ce4bgrh2rcd13ifvqc8g","pricing_plan_id":"cebpf4jnsgd1na2vs0mg"},{"bike_id":"87451c2d-e00a-45f5-9faf-d7e8248b457d","system_id":"levelo_inurba_marseille","lat":43.25867,"lon":5.39895,"is_reserved":false,"is_disabled":false,"rental_uris":{"android":"levelo://app?vid=87451c2d-e00a-45f5-9faf-d7e8248b457d","ios":"levelo://app?vid=87451c2d-e00a-45f5-9faf-d7e8248b457d"},"vehicle_type_id":"4","last_reported":1729340171,"current_range_meters":28800,"station_id":"ce4bhl92rcd13ifvqghg","pricing_plan_id":"cebpf4jnsgd1na2vs0mg"},{"bike_id":"f30e5bb2-e070-4b31-8b6f-805306d443a1","system_id":"levelo_inurba_marseille","lat":43.24073,"lon":5.3775,"is_reserved":false,"is_disabled":false,"rental_uris":{"android":"levelo://app?vid=f30e5bb2-e070-4b31-8b6f-805306d443a1","ios":"levelo://app?vid=f30e5bb2-e070-4b31-8b6f-805306d443a1"},"vehicle_type_id":"4","last_reported":1729340171,"current_range_meters":38800,"station_id":"ce4bhnp2rcd13ifvqgvg","pricing_plan_id":"cebpf4jnsgd1na2vs0mg"},{"bike_id":"57dd0012-e7c2-43e3-90a1-087125ac63fa","system_id":"levelo_inurba_marseille","lat":43.337646,"lon":5.374677,"is_reserved":false,"is_disabled":false,"rental_uris":{"android":"levelo://app?vid=57dd0012-e7c2-43e3-90a1-087125ac63fa","ios":"levelo://app?vid=57dd0012-e7c2-43e3-90a1-087125ac63fa"},"vehicle_type_id":"4","last_reported":1729340171,"current_range_meters":38000,"station_id":"","pricing_plan_id":"cebpf4jnsgd1na2vs0mg"},{"bike_id":"a1e3449d-0a34-4e17-994d-10cd0e8c4c27","system_id":"levelo_inurba_marseille","lat":43.25111,"lon":5.40336,"is_reserved":false,"is_disabled":false,"rental_uris":{"android":"levelo://app?vid=a1e3449d-0a34-4e17-994d-10cd0e8c4c27","ios":"levelo://app?vid=a1e3449d-0a34-4e17-994d-10cd0e8c4c27"},"vehicle_type_id":"4","last_reported":1729340171,"current_range_meters":38400,"station_id":"ce4bhlh2rcd13ifvqgig","pricing_plan_id":"cebpf4jnsgd1na2vs0mg"},{"bike_id":"84946098-3ef8-4be3-a290-52111f08fccd","system_id":"levelo_inurba_marseille","lat":43.24391,"lon":5.37065,"is_reserved":false,"is_disabled":false,"rental_uris":{"android":"levelo://app?vid=84946098-3ef8-4be3-a290-52111f08fccd","ios":"levelo://app?vid=84946098-3ef8-4be3-a290-52111f08fccd"},"vehicle_type_id":"4","last_reported":1729340171,"current_range_meters":7200,"station_id":"ce4bhhh2rcd13ifvqfk0","pricing_plan_id":"cebpf4jnsgd1na2vs0mg"},{"bike_id":"9755f4e0-8354-4cd2-a672-0e5c29ec1e3f","system_id":"levelo_inurba_marseille","lat":43.22935,"lon":5.35384,"is_reserved":false,"is_disabled":false,"rental_uris":{"android":"levelo://app?vid=9755f4e0-8354-4cd2-a672-0e5c29ec1e3f","ios":"levelo://app?vid=9755f4e0-8354-4cd2-a672-0e5c29ec1e3f"},"vehicle_type_id":"4","last_reported":1729340171,"current_range_meters":36800,"station_id":"cpo3532slgdg3j2ikp40","pricing_plan_id":"cebpf4jnsgd1na2vs0mg"},{"bike_id":"e9cac722-cb5a-4d38-9492-8cf828e387a3","system_id":"levelo_inurba_marseille","lat":43.23195,"lon":5.39993,"is_reserved":false,"is_disabled":false,"rental_uris":{"android":"levelo://app?vid=e9cac722-cb5a-4d38-9492-8cf828e387a3","ios":"levelo://app?vid=e9cac722-cb5a-4d38-9492-8cf828e387a3"},"vehicle_type_id":"4","last_reported":1729340171,"current_range_meters":4000,"station_id":"ce4bhn12rcd13ifvqgqg","pricing_plan_id":"cebpf4jnsgd1na2vs0mg"},{"bike_id":"9110453f-2158-4679-a34f-75f7477688d5","system_id":"levelo_inurba_marseille","lat":43.30952,"lon":5.39038,"is_reserved":false,"is_disabled":false,"rental_uris":{"android":"levelo://app?vid=9110453f-2158-4679-a34f-75f7477688d5","ios":"levelo://app?vid=9110453f-2158-4679-a34f-75f7477688d5"},"vehicle_type_id":"4","last_reported":1729340171,"current_range_meters":17200,"station_id":"ce4bgup2rcd13ifvqco0","pricing_plan_id":"cebpf4jnsgd1na2vs0mg"},{"bike_id":"3d7546d0-4dba-4212-88c9-dfe9a2032237","system_id":"levelo_inurba_marseille","lat":43.24174,"lon":5.36389,"is_reserved":false,"is_disabled":false,"rental_uris":{"android":"levelo://app?vid=3d7546d0-4dba-4212-88c9-dfe9a2032237","ios":"levelo://app?vid=3d7546d0-4dba-4212-88c9-dfe9a2032237"},"vehicle_type_id":"4","last_reported":1729340171,"current_range_meters":33600,"station_id":"cpo36qri1sfpv3e86is0","pricing_plan_id":"cebpf4jnsgd1na2vs0mg"},{"bike_id":"e71bcc8f-768c-4802-acc8-c5232ca35004","system_id":"levelo_inurba_marseille","lat":43.29579,"lon":5.37505,"is_reserved":false,"is_disabled":false,"rental_uris":{"android":"levelo://app?vid=e71bcc8f-768c-4802-acc8-c5232ca35004","ios":"levelo://app?vid=e71bcc8f-768c-4802-acc8-c5232ca35004"},"vehicle_type_id":"4","last_reported":1729340171,"current_range_meters":16800,"station_id":"ce4bgh92rcd13ifvqb50","pricing_plan_id":"cebpf4jnsgd1na2vs0mg"},{"bike_id":"2439395e-f2ca-424e-b5ac-db5b18eb4392","system_id":"levelo_inurba_marseille","lat":43.27314,"lon":5.390749,"is_reserved":false,"is_disabled":false,"rental_uris":{"android":"levelo://app?vid=2439395e-f2ca-424e-b5ac-db5b18eb4392","ios":"levelo://app?vid=2439395e-f2ca-424e-b5ac-db5b18eb4392"},"vehicle_type_id":"4","last_reported":1729340171,"current_range_meters":14000,"station_id":"ce4bhh92rcd13ifvqfh0","pricing_plan_id":"cebpf4jnsgd1na2vs0mg"},{"bike_id":"8b10c252-b32b-40ef-b8da-9d1c9158f577","system_id":"levelo_inurba_marseille","lat":43.26033,"lon":5.37549,"is_reserved":false,"is_disabled":false,"rental_uris":{"android":"levelo://app?vid=8b10c252-b32b-40ef-b8da-9d1c9158f577","ios":"levelo://app?vid=8b10c252-b32b-40ef-b8da-9d1c9158f577"},"vehicle_type_id":"4","last_reported":1729340171,"current_range_meters":38800,"station_id":"ce4bhgh2rcd13ifvqfa0","pricing_plan_id":"cebpf4jnsgd1na2vs0mg"},{"bike_id":"f5491ce4-a4a3-42a7-bd1a-2fb92f1d8a2c","system_id":"levelo_inurba_marseille","lat":43.28507,"lon":5.3738,"is_reserved":false,"is_disabled":false,"rental_uris":{"android":"levelo://app?vid=f5491ce4-a4a3-42a7-bd1a-2fb92f1d8a2c","ios":"levelo://app?vid=f5491ce4-a4a3-42a7-bd1a-2fb92f1d8a2c"},"vehicle_type_id":"4","last_reported":1729340171,"current_range_meters":24800,"station_id":"","pricing_plan_id":"cebpf4jnsgd1na2vs0mg"},{"bike_id":"4dedda45-d6ff-4465-ae54-71a2d8073682","system_id":"levelo_inurba_marseille","lat":43.31271,"lon":5.40172,"is_reserved":false,"is_disabled":false,"rental_uris":{"android":"levelo://app?vid=4dedda45-d6ff-4465-ae54-71a2d8073682","ios":"levelo://app?vid=4dedda45-d6ff-4465-ae54-71a2d8073682"},"vehicle_type_id":"4","last_reported":1729340171,"current_range_meters":26800,"station_id":"ce4bh092rcd13ifvqd30","pricing_plan_id":"cebpf4jnsgd1na2vs0mg"},{"bike_id":"32ce68a3-3fc7-4257-974f-ab657619c295","system_id":"levelo_inurba_marseille","lat":43.33748,"lon":5.37459,"is_reserved":false,"is_disabled":false,"rental_uris":{"android":"levelo://app?vid=32ce68a3-3fc7-4257-974f-ab657619c295","ios":"levelo://app?vid=32ce68a3-3fc7-4257-974f-ab657619c295"},"vehicle_type_id":"4","last_reported":1729340171,"current_range_meters":6400,"station_id":"","pricing_plan_id":"cebpf4jnsgd1na2vs0mg"},{"bike_id":"e5dab1ea-a810-41a0-a6cd-403085d8bf13","system_id":"levelo_inurba_marseille","lat":43.27368,"lon":5.36259,"is_reserved":false,"is_disabled":false,"rental_uris":{"android":"levelo://app?vid=e5dab1ea-a810-41a0-a6cd-403085d8bf13","ios":"levelo://app?vid=e5dab1ea-a810-41a0-a6cd-403085d8bf13"},"vehicle_type_id":"4","last_reported":1729340171,"current_range_meters":38800,"station_id":"ce4bhbh2rcd13ifvqeo0","pricing_plan_id":"cebpf4jnsgd1na2vs0mg"},{"bike_id":"6d86fe87-34ba-4641-bea4-5288af8743c4","system_id":"levelo_inurba_marseille","lat":43.27996,"lon":5.4166,"is_reserved":false,"is_disabled":false,"rental_uris":{"android":"levelo://app?vid=6d86fe87-34ba-4641-bea4-5288af8743c4","ios":"levelo://app?vid=6d86fe87-34ba-4641-bea4-5288af8743c4"},"vehicle_type_id":"4","last_reported":1729340171,"current_range_meters":6800,"station_id":"ce4bho12rcd13ifvqh1g","pricing_plan_id":"cebpf4jnsgd1na2vs0mg"},{"bike_id":"380b90fb-a0dd-4d0d-8528-1e633900418e","system_id":"levelo_inurba_marseille","lat":43.27502,"lon":5.42447,"is_reserved":false,"is_disabled":false,"rental_uris":{"android":"levelo://app?vid=380b90fb-a0dd-4d0d-8528-1e633900418e","ios":"levelo://app?vid=380b90fb-a0dd-4d0d-8528-1e633900418e"},"vehicle_type_id":"4","last_reported":1729340171,"current_range_meters":16800,"station_id":"ce4bhn92rcd13ifvqgrg","pricing_plan_id":"cebpf4jnsgd1na2vs0mg"},{"bike_id":"435ba907-0db0-43bb-8243-1b8f2b00095c","system_id":"levelo_inurba_marseille","lat":43.24546,"lon":5.39523,"is_reserved":false,"is_disabled":false,"rental_uris":{"android":"levelo://app?vid=435ba907-0db0-43bb-8243-1b8f2b00095c","ios":"levelo://app?vid=435ba907-0db0-43bb-8243-1b8f2b00095c"},"vehicle_type_id":"4","last_reported":1729340171,"current_range_meters":20000,"station_id":"ce4bhlp2rcd13ifvqgjg","pricing_plan_id":"cebpf4jnsgd1na2vs0mg"},{"bike_id":"d29367f2-3c1e-4f82-9f73-41efd247acf6","system_id":"levelo_inurba_marseille","lat":43.23159,"lon":5.43707,"is_reserved":false,"is_disabled":false,"rental_uris":{"android":"levelo://app?vid=d29367f2-3c1e-4f82-9f73-41efd247acf6","ios":"levelo://app?vid=d29367f2-3c1e-4f82-9f73-41efd247acf6"},"vehicle_type_id":"4","last_reported":1729340171,"current_range_meters":11200,"station_id":"ce4bhmp2rcd13ifvqgog","pricing_plan_id":"cebpf4jnsgd1na2vs0mg"},{"bike_id":"319e285c-82b5-439b-a7b4-0550bf15a6bf","system_id":"levelo_inurba_marseille","lat":43.25005,"lon":5.38934,"is_reserved":false,"is_disabled":false,"rental_uris":{"android":"levelo://app?vid=319e285c-82b5-439b-a7b4-0550bf15a6bf","ios":"levelo://app?vid=319e285c-82b5-439b-a7b4-0550bf15a6bf"},"vehicle_type_id":"4","last_reported":1729340171,"current_range_meters":27200,"station_id":"ce4bhgp2rcd13ifvqfd0","pricing_plan_id":"cebpf4jnsgd1na2vs0mg"},{"bike_id":"2b7e53e0-d15f-4b12-8c67-08178f85d596","system_id":"levelo_inurba_marseille","lat":43.25876,"lon":5.39904,"is_reserved":false,"is_disabled":false,"rental_uris":{"android":"levelo://app?vid=2b7e53e0-d15f-4b12-8c67-08178f85d596","ios":"levelo://app?vid=2b7e53e0-d15f-4b12-8c67-08178f85d596"},"vehicle_type_id":"4","last_reported":1729340171,"current_range_meters":20800,"station_id":"ce4bhl92rcd13ifvqghg","pricing_plan_id":"cebpf4jnsgd1na2vs0mg"},{"bike_id":"09cf23ae-6e82-4f20-823a-0bf75a603000","system_id":"levelo_inurba_marseille","lat":43.27506,"lon":5.42452,"is_reserved":false,"is_disabled":false,"rental_uris":{"android":"levelo://app?vid=09cf23ae-6e82-4f20-823a-0bf75a603000","ios":"levelo://app?vid=09cf23ae-6e82-4f20-823a-0bf75a603000"},"vehicle_type_id":"4","last_reported":1729340171,"current_range_meters":38800,"station_id":"ce4bhn92rcd13ifvqgrg","pricing_plan_id":"cebpf4jnsgd1na2vs0mg"},{"bike_id":"25cf5fb6-dc9f-4017-8dab-667b8569d060","system_id":"levelo_inurba_marseille","lat":43.26206,"lon":5.37921,"is_reserved":false,"is_disabled":false,"rental_uris":{"android":"levelo://app?vid=25cf5fb6-dc9f-4017-8dab-667b8569d060","ios":"levelo://app?vid=25cf5fb6-dc9f-4017-8dab-667b8569d060"},"vehicle_type_id":"4","last_reported":1729340171,"current_range_meters":30000,"station_id":"ce4bhjp2rcd13ifvqg90","pricing_plan_id":"cebpf4jnsgd1na2vs0mg"},{"bike_id":"9e8bce22-3bc5-463a-9a89-57ed7c0b4b48","system_id":"levelo_inurba_marseille","lat":43.25003,"lon":5.38928,"is_reserved":false,"is_disabled":false,"rental_uris":{"android":"levelo://app?vid=9e8bce22-3bc5-463a-9a89-57ed7c0b4b48","ios":"levelo://app?vid=9e8bce22-3bc5-463a-9a89-57ed7c0b4b48"},"vehicle_type_id":"4","last_reported":1729340171,"current_range_meters":38800,"station_id":"ce4bhgp2rcd13ifvqfd0","pricing_plan_id":"cebpf4jnsgd1na2vs0mg"},{"bike_id":"128db61a-e139-40c3-a677-ca8b752c937d","system_id":"levelo_inurba_marseille","lat":43.29932,"lon":5.36547,"is_reserved":false,"is_disabled":false,"rental_uris":{"android":"levelo://app?vid=128db61a-e139-40c3-a677-ca8b752c937d","ios":"levelo://app?vid=128db61a-e139-40c3-a677-ca8b752c937d"},"vehicle_type_id":"4","last_reported":1729340171,"current_range_meters":23200,"station_id":"ce4bgm92rcd13ifvqbr0","pricing_plan_id":"cebpf4jnsgd1na2vs0mg"},{"bike_id":"de533415-0cf7-412a-984e-fd917d737264","system_id":"levelo_inurba_marseille","lat":43.25091,"lon":5.39513,"is_reserved":false,"is_disabled":false,"rental_uris":{"android":"levelo://app?vid=de533415-0cf7-412a-984e-fd917d737264","ios":"levelo://app?vid=de533415-0cf7-412a-984e-fd917d737264"},"vehicle_type_id":"4","last_reported":1729340171,"current_range_meters":39200,"station_id":"ce4bhm12rcd13ifvqgkg","pricing_plan_id":"cebpf4jnsgd1na2vs0mg"},{"bike_id":"9d2b1387-0b01-4c4e-9334-70b920bc01ae","system_id":"levelo_inurba_marseille","lat":43.29846,"lon":5.36282,"is_reserved":false,"is_disabled":false,"rental_uris":{"android":"levelo://app?vid=9d2b1387-0b01-4c4e-9334-70b920bc01ae","ios":"levelo://app?vid=9d2b1387-0b01-4c4e-9334-70b920bc01ae"},"vehicle_type_id":"4","last_reported":1729340171,"current_range_meters":34800,"station_id":"ce4bgpp2rcd13ifvqc3g","pricing_plan_id":"cebpf4jnsgd1na2vs0mg"},{"bike_id":"8f65e401-cf3e-4acd-b32f-9d83baf3e170","system_id":"levelo_inurba_marseille","lat":43.25584,"lon":5.38229,"is_reserved":false,"is_disabled":false,"rental_uris":{"android":"levelo://app?vid=8f65e401-cf3e-4acd-b32f-9d83baf3e170","ios":"levelo://app?vid=8f65e401-cf3e-4acd-b32f-9d83baf3e170"},"vehicle_type_id":"4","last_reported":1729340171,"current_range_meters":11600,"station_id":"ce4bhih2rcd13ifvqfs0","pricing_plan_id":"cebpf4jnsgd1na2vs0mg"},{"bike_id":"638ece7f-b170-4c18-afbb-22041616ab90","system_id":"levelo_inurba_marseille","lat":43.3055,"lon":5.3655,"is_reserved":false,"is_disabled":false,"rental_uris":{"android":"levelo://app?vid=638ece7f-b170-4c18-afbb-22041616ab90","ios":"levelo://app?vid=638ece7f-b170-4c18-afbb-22041616ab90"},"vehicle_type_id":"4","last_reported":1729340171,"current_range_meters":27200,"station_id":"ce4bgs12rcd13ifvqcag","pricing_plan_id":"cebpf4jnsgd1na2vs0mg"},{"bike_id":"56a5afb8-444a-4786-9b49-523fbfaf6d8b","system_id":"levelo_inurba_marseille","lat":43.23191,"lon":5.39983,"is_reserved":false,"is_disabled":false,"rental_uris":{"android":"levelo://app?vid=56a5afb8-444a-4786-9b49-523fbfaf6d8b","ios":"levelo://app?vid=56a5afb8-444a-4786-9b49-523fbfaf6d8b"},"vehicle_type_id":"4","last_reported":1729340171,"current_range_meters":3200,"station_id":"ce4bhn12rcd13ifvqgqg","pricing_plan_id":"cebpf4jnsgd1na2vs0mg"},{"bike_id":"18361c49-bdac-4926-a222-92101c5ffc08","system_id":"levelo_inurba_marseille","lat":43.32495,"lon":5.36571,"is_reserved":false,"is_disabled":false,"rental_uris":{"android":"levelo://app?vid=18361c49-bdac-4926-a222-92101c5ffc08","ios":"levelo://app?vid=18361c49-bdac-4926-a222-92101c5ffc08"},"vehicle_type_id":"4","last_reported":1729340171,"current_range_meters":32000,"station_id":"ce4bhs12rcd13ifvqhvg","pricing_plan_id":"cebpf4jnsgd1na2vs0mg"},{"bike_id":"cfe78fd2-5ebc-40fb-858b-89aa9fc29771","system_id":"levelo_inurba_marseille","lat":43.29405,"lon":5.37799,"is_reserved":false,"is_disabled":false,"rental_uris":{"android":"levelo://app?vid=cfe78fd2-5ebc-40fb-858b-89aa9fc29771","ios":"levelo://app?vid=cfe78fd2-5ebc-40fb-858b-89aa9fc29771"},"vehicle_type_id":"4","last_reported":1729340171,"current_range_meters":20000,"station_id":"","pricing_plan_id":"cebpf4jnsgd1na2vs0mg"},{"bike_id":"4dd2fe68-a1ec-43b8-9b45-8d717e77b01b","system_id":"levelo_inurba_marseille","lat":43.27812,"lon":5.40726,"is_reserved":false,"is_disabled":false,"rental_uris":{"android":"levelo://app?vid=4dd2fe68-a1ec-43b8-9b45-8d717e77b01b","ios":"levelo://app?vid=4dd2fe68-a1ec-43b8-9b45-8d717e77b01b"},"vehicle_type_id":"4","last_reported":1729340171,"current_range_meters":34000,"station_id":"ce4bhnh2rcd13ifvqgtg","pricing_plan_id":"cebpf4jnsgd1na2vs0mg"},{"bike_id":"cc200779-b0ab-472e-8e4c-a492949d5888","system_id":"levelo_inurba_marseille","lat":43.28152,"lon":5.42647,"is_reserved":false,"is_disabled":false,"rental_uris":{"android":"levelo://app?vid=cc200779-b0ab-472e-8e4c-a492949d5888","ios":"levelo://app?vid=cc200779-b0ab-472e-8e4c-a492949d5888"},"vehicle_type_id":"4","last_reported":1729340171,"current_range_meters":16400,"station_id":"ce4bhnh2rcd13ifvqgug","pricing_plan_id":"cebpf4jnsgd1na2vs0mg"},{"bike_id":"85638a3d-3bc0-4ba5-a0c2-fd5a1454fee6","system_id":"levelo_inurba_marseille","lat":43.22931,"lon":5.35378,"is_reserved":false,"is_disabled":false,"rental_uris":{"android":"levelo://app?vid=85638a3d-3bc0-4ba5-a0c2-fd5a1454fee6","ios":"levelo://app?vid=85638a3d-3bc0-4ba5-a0c2-fd5a1454fee6"},"vehicle_type_id":"4","last_reported":1729340171,"current_range_meters":19600,"station_id":"cpo3532slgdg3j2ikp40","pricing_plan_id":"cebpf4jnsgd1na2vs0mg"},{"bike_id":"95f1e246-49e5-46e5-a1b7-4abb3963bd38","system_id":"levelo_inurba_marseille","lat":43.29847,"lon":5.36279,"is_reserved":false,"is_disabled":false,"rental_uris":{"android":"levelo://app?vid=95f1e246-49e5-46e5-a1b7-4abb3963bd38","ios":"levelo://app?vid=95f1e246-49e5-46e5-a1b7-4abb3963bd38"},"vehicle_type_id":"4","last_reported":1729340171,"current_range_meters":24800,"station_id":"ce4bgpp2rcd13ifvqc3g","pricing_plan_id":"cebpf4jnsgd1na2vs0mg"},{"bike_id":"22d4bb12-d9cb-4524-8b56-432c4e684dc2","system_id":"levelo_inurba_marseille","lat":43.24225,"lon":5.37971,"is_reserved":false,"is_disabled":false,"rental_uris":{"android":"levelo://app?vid=22d4bb12-d9cb-4524-8b56-432c4e684dc2","ios":"levelo://app?vid=22d4bb12-d9cb-4524-8b56-432c4e684dc2"},"vehicle_type_id":"4","last_reported":1729340171,"current_range_meters":26800,"station_id":"","pricing_plan_id":"cebpf4jnsgd1na2vs0mg"},{"bike_id":"1a67ce97-6b82-4851-b9ca-86c8d004fb37","system_id":"levelo_inurba_marseille","lat":43.28719,"lon":5.37939,"is_reserved":false,"is_disabled":false,"rental_uris":{"android":"levelo://app?vid=1a67ce97-6b82-4851-b9ca-86c8d004fb37","ios":"levelo://app?vid=1a67ce97-6b82-4851-b9ca-86c8d004fb37"},"vehicle_type_id":"4","last_reported":1729340171,"current_range_meters":33600,"station_id":"ce4bh9p2rcd13ifvqec0","pricing_plan_id":"cebpf4jnsgd1na2vs0mg"},{"bike_id":"49cfb941-c6fb-4e7c-87dc-b6c03b64d827","system_id":"levelo_inurba_marseille","lat":43.32343,"lon":5.40623,"is_reserved":false,"is_disabled":false,"rental_uris":{"android":"levelo://app?vid=49cfb941-c6fb-4e7c-87dc-b6c03b64d827","ios":"levelo://app?vid=49cfb941-c6fb-4e7c-87dc-b6c03b64d827"},"vehicle_type_id":"4","last_reported":1729340171,"current_range_meters":38800,"station_id":"ce4bhq92rcd13ifvqhjg","pricing_plan_id":"cebpf4jnsgd1na2vs0mg"},{"bike_id":"d53c30f1-2742-4aeb-84ce-861c9ec13c74","system_id":"levelo_inurba_marseille","lat":43.27076,"lon":5.42279,"is_reserved":false,"is_disabled":false,"rental_uris":{"android":"levelo://app?vid=d53c30f1-2742-4aeb-84ce-861c9ec13c74","ios":"levelo://app?vid=d53c30f1-2742-4aeb-84ce-861c9ec13c74"},"vehicle_type_id":"4","last_reported":1729340171,"current_range_meters":10800,"station_id":"ce4bhk92rcd13ifvqgb0","pricing_plan_id":"cebpf4jnsgd1na2vs0mg"},{"bike_id":"b8aad1f1-cd6d-43fa-9fea-c98f609f5f77","system_id":"levelo_inurba_marseille","lat":43.33774,"lon":5.37432,"is_reserved":false,"is_disabled":false,"rental_uris":{"android":"levelo://app?vid=b8aad1f1-cd6d-43fa-9fea-c98f609f5f77","ios":"levelo://app?vid=b8aad1f1-cd6d-43fa-9fea-c98f609f5f77"},"vehicle_type_id":"4","last_reported":1729340171,"current_range_meters":36800,"station_id":"","pricing_plan_id":"cebpf4jnsgd1na2vs0mg"},{"bike_id":"ae0dc45f-3a03-4f2d-8af6-336b8c36473d","system_id":"levelo_inurba_marseille","lat":43.33763,"lon":5.37443,"is_reserved":false,"is_disabled":false,"rental_uris":{"android":"levelo://app?vid=ae0dc45f-3a03-4f2d-8af6-336b8c36473d","ios":"levelo://app?vid=ae0dc45f-3a03-4f2d-8af6-336b8c36473d"},"vehicle_type_id":"4","last_reported":1729340171,"current_range_meters":38400,"station_id":"","pricing_plan_id":"cebpf4jnsgd1na2vs0mg"},{"bike_id":"19f4c8bd-9374-42c0-b27b-7228ffdf8e80","system_id":"levelo_inurba_marseille","lat":43.28423,"lon":5.34994,"is_reserved":false,"is_disabled":false,"rental_uris":{"android":"levelo://app?vid=19f4c8bd-9374-42c0-b27b-7228ffdf8e80","ios":"levelo://app?vid=19f4c8bd-9374-42c0-b27b-7228ffdf8e80"},"vehicle_type_id":"4","last_reported":1729340171,"current_range_meters":36000,"station_id":"ce4bhbh2rcd13ifvqepg","pricing_plan_id":"cebpf4jnsgd1na2vs0mg"},{"bike_id":"c7b388ec-03ce-4a29-8a15-d11db7439d34","system_id":"levelo_inurba_marseille","lat":43.25007,"lon":5.3894,"is_reserved":false,"is_disabled":false,"rental_uris":{"android":"levelo://app?vid=c7b388ec-03ce-4a29-8a15-d11db7439d34","ios":"levelo://app?vid=c7b388ec-03ce-4a29-8a15-d11db7439d34"},"vehicle_type_id":"4","last_reported":1729340171,"current_range_meters":25200,"station_id":"ce4bhgp2rcd13ifvqfd0","pricing_plan_id":"cebpf4jnsgd1na2vs0mg"},{"bike_id":"0994d7f0-fa2e-480f-b967-2b1e1b476b78","system_id":"levelo_inurba_marseille","lat":43.23192,"lon":5.3555,"is_reserved":false,"is_disabled":false,"rental_uris":{"android":"levelo://app?vid=0994d7f0-fa2e-480f-b967-2b1e1b476b78","ios":"levelo://app?vid=0994d7f0-fa2e-480f-b967-2b1e1b476b78"},"vehicle_type_id":"4","last_reported":1729340171,"current_range_meters":2800,"station_id":"ce4bhu92rcd13ifvqi70","pricing_plan_id":"cebpf4jnsgd1na2vs0mg"},{"bike_id":"e6789174-ca29-4f3e-b4c1-26a6f6f7478b","system_id":"levelo_inurba_marseille","lat":43.2572,"lon":5.41114,"is_reserved":false,"is_disabled":false,"rental_uris":{"android":"levelo://app?vid=e6789174-ca29-4f3e-b4c1-26a6f6f7478b","ios":"levelo://app?vid=e6789174-ca29-4f3e-b4c1-26a6f6f7478b"},"vehicle_type_id":"4","last_reported":1729340171,"current_range_meters":38800,"station_id":"ce4bhkp2rcd13ifvqgd0","pricing_plan_id":"cebpf4jnsgd1na2vs0mg"},{"bike_id":"b5f01190-7b79-4f99-a601-4669dfb05d9c","system_id":"levelo_inurba_marseille","lat":43.28423,"lon":5.35001,"is_reserved":false,"is_disabled":false,"rental_uris":{"android":"levelo://app?vid=b5f01190-7b79-4f99-a601-4669dfb05d9c","ios":"levelo://app?vid=b5f01190-7b79-4f99-a601-4669dfb05d9c"},"vehicle_type_id":"4","last_reported":1729340171,"current_range_meters":18800,"station_id":"ce4bhbh2rcd13ifvqepg","pricing_plan_id":"cebpf4jnsgd1na2vs0mg"},{"bike_id":"47b0677d-f1ea-44b9-ad27-95f55e4f3816","system_id":"levelo_inurba_marseille","lat":43.23968,"lon":5.36633,"is_reserved":false,"is_disabled":false,"rental_uris":{"android":"levelo://app?vid=47b0677d-f1ea-44b9-ad27-95f55e4f3816","ios":"levelo://app?vid=47b0677d-f1ea-44b9-ad27-95f55e4f3816"},"vehicle_type_id":"4","last_reported":1729340171,"current_range_meters":38800,"station_id":"ce4bhi12rcd13ifvqfp0","pricing_plan_id":"cebpf4jnsgd1na2vs0mg"},{"bike_id":"93e95b30-179c-42bb-a675-447793141c66","system_id":"levelo_inurba_marseille","lat":43.29639,"lon":5.406,"is_reserved":false,"is_disabled":false,"rental_uris":{"android":"levelo://app?vid=93e95b30-179c-42bb-a675-447793141c66","ios":"levelo://app?vid=93e95b30-179c-42bb-a675-447793141c66"},"vehicle_type_id":"4","last_reported":1729340171,"current_range_meters":14000,"station_id":"ce4bh0h2rcd13ifvqd60","pricing_plan_id":"cebpf4jnsgd1na2vs0mg"},{"bike_id":"546e0b5c-a5b9-4224-935b-0e8128192d95","system_id":"levelo_inurba_marseille","lat":43.2962,"lon":5.37723,"is_reserved":false,"is_disabled":false,"rental_uris":{"android":"levelo://app?vid=546e0b5c-a5b9-4224-935b-0e8128192d95","ios":"levelo://app?vid=546e0b5c-a5b9-4224-935b-0e8128192d95"},"vehicle_type_id":"4","last_reported":1729340171,"current_range_meters":36800,"station_id":"ce4bgi92rcd13ifvqb90","pricing_plan_id":"cebpf4jnsgd1na2vs0mg"},{"bike_id":"8e51a74e-fd45-4aab-80de-8a95db523984","system_id":"levelo_inurba_marseille","lat":43.24507,"lon":5.37641,"is_reserved":false,"is_disabled":false,"rental_uris":{"android":"levelo://app?vid=8e51a74e-fd45-4aab-80de-8a95db523984","ios":"levelo://app?vid=8e51a74e-fd45-4aab-80de-8a95db523984"},"vehicle_type_id":"4","last_reported":1729340171,"current_range_meters":32000,"station_id":"","pricing_plan_id":"cebpf4jnsgd1na2vs0mg"},{"bike_id":"9ece7319-f410-4a1c-869b-c313ba0a907f","system_id":"levelo_inurba_marseille","lat":43.33607,"lon":5.41015,"is_reserved":false,"is_disabled":false,"rental_uris":{"android":"levelo://app?vid=9ece7319-f410-4a1c-869b-c313ba0a907f","ios":"levelo://app?vid=9ece7319-f410-4a1c-869b-c313ba0a907f"},"vehicle_type_id":"4","last_reported":1729340171,"current_range_meters":39200,"station_id":"ce4bhqh2rcd13ifvqhmg","pricing_plan_id":"cebpf4jnsgd1na2vs0mg"},{"bike_id":"907d90e2-7e08-4846-bbc2-01977b54a9bd","system_id":"levelo_inurba_marseille","lat":43.24173,"lon":5.36389,"is_reserved":false,"is_disabled":false,"rental_uris":{"android":"levelo://app?vid=907d90e2-7e08-4846-bbc2-01977b54a9bd","ios":"levelo://app?vid=907d90e2-7e08-4846-bbc2-01977b54a9bd"},"vehicle_type_id":"4","last_reported":1729340171,"current_range_meters":13600,"station_id":"cpo36qri1sfpv3e86is0","pricing_plan_id":"cebpf4jnsgd1na2vs0mg"},{"bike_id":"3fbadb2c-c27c-4d63-9f1b-03d0745e1227","system_id":"levelo_inurba_marseille","lat":43.29846,"lon":5.36288,"is_reserved":false,"is_disabled":false,"rental_uris":{"android":"levelo://app?vid=3fbadb2c-c27c-4d63-9f1b-03d0745e1227","ios":"levelo://app?vid=3fbadb2c-c27c-4d63-9f1b-03d0745e1227"},"vehicle_type_id":"4","last_reported":1729340171,"current_range_meters":38800,"station_id":"ce4bgpp2rcd13ifvqc3g","pricing_plan_id":"cebpf4jnsgd1na2vs0mg"},{"bike_id":"6ea0efd9-9506-4cd5-a278-7bb1813f4bd9","system_id":"levelo_inurba_marseille","lat":43.30142,"lon":5.37423,"is_reserved":false,"is_disabled":false,"rental_uris":{"android":"levelo://app?vid=6ea0efd9-9506-4cd5-a278-7bb1813f4bd9","ios":"levelo://app?vid=6ea0efd9-9506-4cd5-a278-7bb1813f4bd9"},"vehicle_type_id":"4","last_reported":1729340171,"current_range_meters":32800,"station_id":"ce4bgs92rcd13ifvqcc0","pricing_plan_id":"cebpf4jnsgd1na2vs0mg"},{"bike_id":"3e46c327-c230-4df5-b2fc-852a8e558d9d","system_id":"levelo_inurba_marseille","lat":43.2293,"lon":5.35385,"is_reserved":false,"is_disabled":false,"rental_uris":{"android":"levelo://app?vid=3e46c327-c230-4df5-b2fc-852a8e558d9d","ios":"levelo://app?vid=3e46c327-c230-4df5-b2fc-852a8e558d9d"},"vehicle_type_id":"4","last_reported":1729340171,"current_range_meters":26800,"station_id":"cpo3532slgdg3j2ikp40","pricing_plan_id":"cebpf4jnsgd1na2vs0mg"},{"bike_id":"54ac56ba-302a-4d28-904d-b9986326af31","system_id":"levelo_inurba_marseille","lat":43.25731,"lon":5.41104,"is_reserved":false,"is_disabled":false,"rental_uris":{"android":"levelo://app?vid=54ac56ba-302a-4d28-904d-b9986326af31","ios":"levelo://app?vid=54ac56ba-302a-4d28-904d-b9986326af31"},"vehicle_type_id":"4","last_reported":1729340171,"current_range_meters":5600,"station_id":"ce4bhkp2rcd13ifvqgd0","pricing_plan_id":"cebpf4jnsgd1na2vs0mg"},{"bike_id":"85f057e4-b3eb-40b5-a9aa-5a75d16d0070","system_id":"levelo_inurba_marseille","lat":43.23202,"lon":5.35555,"is_reserved":false,"is_disabled":false,"rental_uris":{"android":"levelo://app?vid=85f057e4-b3eb-40b5-a9aa-5a75d16d0070","ios":"levelo://app?vid=85f057e4-b3eb-40b5-a9aa-5a75d16d0070"},"vehicle_type_id":"4","last_reported":1729340171,"current_range_meters":25200,"station_id":"ce4bhu92rcd13ifvqi70","pricing_plan_id":"cebpf4jnsgd1na2vs0mg"},{"bike_id":"9ed66892-1d5d-44f2-a0fb-41e18ceaf1f8","system_id":"levelo_inurba_marseille","lat":43.22938,"lon":5.35381,"is_reserved":false,"is_disabled":false,"rental_uris":{"android":"levelo://app?vid=9ed66892-1d5d-44f2-a0fb-41e18ceaf1f8","ios":"levelo://app?vid=9ed66892-1d5d-44f2-a0fb-41e18ceaf1f8"},"vehicle_type_id":"4","last_reported":1729340171,"current_range_meters":38400,"station_id":"cpo3532slgdg3j2ikp40","pricing_plan_id":"cebpf4jnsgd1na2vs0mg"},{"bike_id":"3150ab3d-0617-406f-97b8-6e420d817006","system_id":"levelo_inurba_marseille","lat":43.31761,"lon":5.39015,"is_reserved":false,"is_disabled":false,"rental_uris":{"android":"levelo://app?vid=3150ab3d-0617-406f-97b8-6e420d817006","ios":"levelo://app?vid=3150ab3d-0617-406f-97b8-6e420d817006"},"vehicle_type_id":"4","last_reported":1729340171,"current_range_meters":38800,"station_id":"ce4bhqp2rcd13ifvqhng","pricing_plan_id":"cebpf4jnsgd1na2vs0mg"},{"bike_id":"f7d0761c-1cd4-454b-85fb-ec7282447251","system_id":"levelo_inurba_marseille","lat":43.22936,"lon":5.35381,"is_reserved":false,"is_disabled":false,"rental_uris":{"android":"levelo://app?vid=f7d0761c-1cd4-454b-85fb-ec7282447251","ios":"levelo://app?vid=f7d0761c-1cd4-454b-85fb-ec7282447251"},"vehicle_type_id":"4","last_reported":1729340171,"current_range_meters":6400,"station_id":"cpo3532slgdg3j2ikp40","pricing_plan_id":"cebpf4jnsgd1na2vs0mg"},{"bike_id":"c1a1a335-46e9-478d-9cfb-90e689de6f3f","system_id":"levelo_inurba_marseille","lat":43.23967,"lon":5.36636,"is_reserved":false,"is_disabled":false,"rental_uris":{"android":"levelo://app?vid=c1a1a335-46e9-478d-9cfb-90e689de6f3f","ios":"levelo://app?vid=c1a1a335-46e9-478d-9cfb-90e689de6f3f"},"vehicle_type_id":"4","last_reported":1729340171,"current_range_meters":20400,"station_id":"ce4bhi12rcd13ifvqfp0","pricing_plan_id":"cebpf4jnsgd1na2vs0mg"},{"bike_id":"eb0db082-17d3-4fa0-ae11-12f2d8711784","system_id":"levelo_inurba_marseille","lat":43.28931,"lon":5.384,"is_reserved":false,"is_disabled":false,"rental_uris":{"android":"levelo://app?vid=eb0db082-17d3-4fa0-ae11-12f2d8711784","ios":"levelo://app?vid=eb0db082-17d3-4fa0-ae11-12f2d8711784"},"vehicle_type_id":"4","last_reported":1729340171,"current_range_meters":28000,"station_id":"ce4bh612rcd13ifvqe6g","pricing_plan_id":"cebpf4jnsgd1na2vs0mg"},{"bike_id":"a19bbf99-57ee-4fe3-9c12-f13d9eb440e3","system_id":"levelo_inurba_marseille","lat":43.29833,"lon":5.36272,"is_reserved":false,"is_disabled":false,"rental_uris":{"android":"levelo://app?vid=a19bbf99-57ee-4fe3-9c12-f13d9eb440e3","ios":"levelo://app?vid=a19bbf99-57ee-4fe3-9c12-f13d9eb440e3"},"vehicle_type_id":"4","last_reported":1729340171,"current_range_meters":38800,"station_id":"ce4bgpp2rcd13ifvqc3g","pricing_plan_id":"cebpf4jnsgd1na2vs0mg"},{"bike_id":"dd9307fb-a903-4696-857c-e556a5e3b34e","system_id":"levelo_inurba_marseille","lat":43.24545,"lon":5.39523,"is_reserved":false,"is_disabled":false,"rental_uris":{"android":"levelo://app?vid=dd9307fb-a903-4696-857c-e556a5e3b34e","ios":"levelo://app?vid=dd9307fb-a903-4696-857c-e556a5e3b34e"},"vehicle_type_id":"4","last_reported":1729340171,"current_range_meters":37600,"station_id":"ce4bhlp2rcd13ifvqgjg","pricing_plan_id":"cebpf4jnsgd1na2vs0mg"},{"bike_id":"2140b6a3-5118-4150-823e-9225aeb56201","system_id":"levelo_inurba_marseille","lat":43.23195,"lon":5.355476,"is_reserved":false,"is_disabled":false,"rental_uris":{"android":"levelo://app?vid=2140b6a3-5118-4150-823e-9225aeb56201","ios":"levelo://app?vid=2140b6a3-5118-4150-823e-9225aeb56201"},"vehicle_type_id":"4","last_reported":1729340171,"current_range_meters":27600,"station_id":"ce4bhu92rcd13ifvqi70","pricing_plan_id":"cebpf4jnsgd1na2vs0mg"},{"bike_id":"b34e5cf4-5662-4407-92a8-7e12464422fe","system_id":"levelo_inurba_marseille","lat":43.23153,"lon":5.43721,"is_reserved":false,"is_disabled":false,"rental_uris":{"android":"levelo://app?vid=b34e5cf4-5662-4407-92a8-7e12464422fe","ios":"levelo://app?vid=b34e5cf4-5662-4407-92a8-7e12464422fe"},"vehicle_type_id":"4","last_reported":1729340171,"current_range_meters":16000,"station_id":"ce4bhmp2rcd13ifvqgog","pricing_plan_id":"cebpf4jnsgd1na2vs0mg"},{"bike_id":"c544977c-8b57-44a0-ab76-f9f60a80a73d","system_id":"levelo_inurba_marseille","lat":43.3237,"lon":5.38884,"is_reserved":false,"is_disabled":false,"rental_uris":{"android":"levelo://app?vid=c544977c-8b57-44a0-ab76-f9f60a80a73d","ios":"levelo://app?vid=c544977c-8b57-44a0-ab76-f9f60a80a73d"},"vehicle_type_id":"4","last_reported":1729340171,"current_range_meters":24000,"station_id":"ce4bhqp2rcd13ifvqhog","pricing_plan_id":"cebpf4jnsgd1na2vs0mg"},{"bike_id":"3add85b9-20c4-46b3-9d95-451931a13951","system_id":"levelo_inurba_marseille","lat":43.22934,"lon":5.35379,"is_reserved":false,"is_disabled":false,"rental_uris":{"android":"levelo://app?vid=3add85b9-20c4-46b3-9d95-451931a13951","ios":"levelo://app?vid=3add85b9-20c4-46b3-9d95-451931a13951"},"vehicle_type_id":"4","last_reported":1729340171,"current_range_meters":35200,"station_id":"cpo3532slgdg3j2ikp40","pricing_plan_id":"cebpf4jnsgd1na2vs0mg"},{"bike_id":"d116ab63-54e5-422b-8ef9-2c8c31901cde","system_id":"levelo_inurba_marseille","lat":43.26037,"lon":5.37553,"is_reserved":false,"is_disabled":false,"rental_uris":{"android":"levelo://app?vid=d116ab63-54e5-422b-8ef9-2c8c31901cde","ios":"levelo://app?vid=d116ab63-54e5-422b-8ef9-2c8c31901cde"},"vehicle_type_id":"4","last_reported":1729340171,"current_range_meters":38800,"station_id":"ce4bhgh2rcd13ifvqfa0","pricing_plan_id":"cebpf4jnsgd1na2vs0mg"},{"bike_id":"d8cbaa91-355e-41be-833b-8dcca84815d3","system_id":"levelo_inurba_marseille","lat":43.2958,"lon":5.36751,"is_reserved":false,"is_disabled":false,"rental_uris":{"android":"levelo://app?vid=d8cbaa91-355e-41be-833b-8dcca84815d3","ios":"levelo://app?vid=d8cbaa91-355e-41be-833b-8dcca84815d3"},"vehicle_type_id":"4","last_reported":1729340171,"current_range_meters":12000,"station_id":"ce4bgph2rcd13ifvqc2g","pricing_plan_id":"cebpf4jnsgd1na2vs0mg"},{"bike_id":"6e706dcb-6e41-41b6-a172-73765c66fdaa","system_id":"levelo_inurba_marseille","lat":43.26248,"lon":5.37591,"is_reserved":false,"is_disabled":false,"rental_uris":{"android":"levelo://app?vid=6e706dcb-6e41-41b6-a172-73765c66fdaa","ios":"levelo://app?vid=6e706dcb-6e41-41b6-a172-73765c66fdaa"},"vehicle_type_id":"4","last_reported":1729340171,"current_range_meters":38000,"station_id":"ce4bhhp2rcd13ifvqfm0","pricing_plan_id":"cebpf4jnsgd1na2vs0mg"},{"bike_id":"6cb7a3ce-6d5f-4dc0-ab7f-5cafce2cff2e","system_id":"levelo_inurba_marseille","lat":43.29584,"lon":5.36739,"is_reserved":false,"is_disabled":false,"rental_uris":{"android":"levelo://app?vid=6cb7a3ce-6d5f-4dc0-ab7f-5cafce2cff2e","ios":"levelo://app?vid=6cb7a3ce-6d5f-4dc0-ab7f-5cafce2cff2e"},"vehicle_type_id":"4","last_reported":1729340171,"current_range_meters":32000,"station_id":"ce4bgph2rcd13ifvqc2g","pricing_plan_id":"cebpf4jnsgd1na2vs0mg"},{"bike_id":"35cd31d0-e834-4434-a949-35cf2fbd1d2c","system_id":"levelo_inurba_marseille","lat":43.22937,"lon":5.35381,"is_reserved":false,"is_disabled":false,"rental_uris":{"android":"levelo://app?vid=35cd31d0-e834-4434-a949-35cf2fbd1d2c","ios":"levelo://app?vid=35cd31d0-e834-4434-a949-35cf2fbd1d2c"},"vehicle_type_id":"4","last_reported":1729340171,"current_range_meters":16800,"station_id":"cpo3532slgdg3j2ikp40","pricing_plan_id":"cebpf4jnsgd1na2vs0mg"},{"bike_id":"49043c40-c1c2-4550-a5d2-c8ca785a8e4a","system_id":"levelo_inurba_marseille","lat":43.30193,"lon":5.36618,"is_reserved":false,"is_disabled":false,"rental_uris":{"android":"levelo://app?vid=49043c40-c1c2-4550-a5d2-c8ca785a8e4a","ios":"levelo://app?vid=49043c40-c1c2-4550-a5d2-c8ca785a8e4a"},"vehicle_type_id":"4","last_reported":1729340171,"current_range_meters":39200,"station_id":"ce4bgrh2rcd13ifvqc8g","pricing_plan_id":"cebpf4jnsgd1na2vs0mg"},{"bike_id":"22ed4cfd-9df3-4446-847a-0c86b558bb8a","system_id":"levelo_inurba_marseille","lat":43.26035,"lon":5.37546,"is_reserved":false,"is_disabled":false,"rental_uris":{"android":"levelo://app?vid=22ed4cfd-9df3-4446-847a-0c86b558bb8a","ios":"levelo://app?vid=22ed4cfd-9df3-4446-847a-0c86b558bb8a"},"vehicle_type_id":"4","last_reported":1729340171,"current_range_meters":30000,"station_id":"ce4bhgh2rcd13ifvqfa0","pricing_plan_id":"cebpf4jnsgd1na2vs0mg"},{"bike_id":"7772d39f-5e28-445c-af91-069b0cf63793","system_id":"levelo_inurba_marseille","lat":43.33765,"lon":5.37438,"is_reserved":false,"is_disabled":false,"rental_uris":{"android":"levelo://app?vid=7772d39f-5e28-445c-af91-069b0cf63793","ios":"levelo://app?vid=7772d39f-5e28-445c-af91-069b0cf63793"},"vehicle_type_id":"4","last_reported":1729340171,"current_range_meters":9200,"station_id":"","pricing_plan_id":"cebpf4jnsgd1na2vs0mg"},{"bike_id":"c4efa82e-6b51-4a08-9257-369f0e693674","system_id":"levelo_inurba_marseille","lat":43.25001,"lon":5.38935,"is_reserved":false,"is_disabled":false,"rental_uris":{"android":"levelo://app?vid=c4efa82e-6b51-4a08-9257-369f0e693674","ios":"levelo://app?vid=c4efa82e-6b51-4a08-9257-369f0e693674"},"vehicle_type_id":"4","last_reported":1729340171,"current_range_meters":11600,"station_id":"ce4bhgp2rcd13ifvqfd0","pricing_plan_id":"cebpf4jnsgd1na2vs0mg"},{"bike_id":"48376d10-fe56-48b9-8a68-84925bdf0a7c","system_id":"levelo_inurba_marseille","lat":43.32495,"lon":5.36567,"is_reserved":false,"is_disabled":false,"rental_uris":{"android":"levelo://app?vid=48376d10-fe56-48b9-8a68-84925bdf0a7c","ios":"levelo://app?vid=48376d10-fe56-48b9-8a68-84925bdf0a7c"},"vehicle_type_id":"4","last_reported":1729340171,"current_range_meters":34000,"station_id":"ce4bhs12rcd13ifvqhvg","pricing_plan_id":"cebpf4jnsgd1na2vs0mg"},{"bike_id":"3213665e-989c-4d22-9f5a-31c8522597dd","system_id":"levelo_inurba_marseille","lat":43.296,"lon":5.36142,"is_reserved":false,"is_disabled":false,"rental_uris":{"android":"levelo://app?vid=3213665e-989c-4d22-9f5a-31c8522597dd","ios":"levelo://app?vid=3213665e-989c-4d22-9f5a-31c8522597dd"},"vehicle_type_id":"4","last_reported":1729340171,"current_range_meters":19600,"station_id":"","pricing_plan_id":"cebpf4jnsgd1na2vs0mg"},{"bike_id":"e0e16af8-9ed2-426f-b721-fe32ea114c33","system_id":"levelo_inurba_marseille","lat":43.30162,"lon":5.38094,"is_reserved":false,"is_disabled":false,"rental_uris":{"android":"levelo://app?vid=e0e16af8-9ed2-426f-b721-fe32ea114c33","ios":"levelo://app?vid=e0e16af8-9ed2-426f-b721-fe32ea114c33"},"vehicle_type_id":"4","last_reported":1729340171,"current_range_meters":15200,"station_id":"ce4bgjp2rcd13ifvqbh0","pricing_plan_id":"cebpf4jnsgd1na2vs0mg"},{"bike_id":"57b209a6-076f-4fe9-9e50-8d35d1d4533f","system_id":"levelo_inurba_marseille","lat":43.28153,"lon":5.42646,"is_reserved":false,"is_disabled":false,"rental_uris":{"android":"levelo://app?vid=57b209a6-076f-4fe9-9e50-8d35d1d4533f","ios":"levelo://app?vid=57b209a6-076f-4fe9-9e50-8d35d1d4533f"},"vehicle_type_id":"4","last_reported":1729340171,"current_range_meters":28000,"station_id":"ce4bhnh2rcd13ifvqgug","pricing_plan_id":"cebpf4jnsgd1na2vs0mg"},{"bike_id":"e250add9-31cd-486a-b7e1-e2b7da71c662","system_id":"levelo_inurba_marseille","lat":43.286252,"lon":5.361192,"is_reserved":false,"is_disabled":false,"rental_uris":{"android":"levelo://app?vid=e250add9-31cd-486a-b7e1-e2b7da71c662","ios":"levelo://app?vid=e250add9-31cd-486a-b7e1-e2b7da71c662"},"vehicle_type_id":"4","last_reported":1729340171,"current_range_meters":30800,"station_id":"ce4bhbp2rcd13ifvqerg","pricing_plan_id":"cebpf4jnsgd1na2vs0mg"},{"bike_id":"85978b2d-96a1-4496-a15d-3917a97b0613","system_id":"levelo_inurba_marseille","lat":43.32377,"lon":5.38883,"is_reserved":false,"is_disabled":false,"rental_uris":{"android":"levelo://app?vid=85978b2d-96a1-4496-a15d-3917a97b0613","ios":"levelo://app?vid=85978b2d-96a1-4496-a15d-3917a97b0613"},"vehicle_type_id":"4","last_reported":1729340171,"current_range_meters":37600,"station_id":"ce4bhqp2rcd13ifvqhog","pricing_plan_id":"cebpf4jnsgd1na2vs0mg"},{"bike_id":"1ae4935b-90b5-4a38-ab8a-a86d4e05a742","system_id":"levelo_inurba_marseille","lat":43.26212,"lon":5.37447,"is_reserved":false,"is_disabled":false,"rental_uris":{"android":"levelo://app?vid=1ae4935b-90b5-4a38-ab8a-a86d4e05a742","ios":"levelo://app?vid=1ae4935b-90b5-4a38-ab8a-a86d4e05a742"},"vehicle_type_id":"4","last_reported":1729340171,"current_range_meters":18000,"station_id":"ce4bhgp2rcd13ifvqfc0","pricing_plan_id":"cebpf4jnsgd1na2vs0mg"},{"bike_id":"a1afb5cd-63bc-4e69-9198-36566da5ac89","system_id":"levelo_inurba_marseille","lat":43.31177,"lon":5.38714,"is_reserved":false,"is_disabled":false,"rental_uris":{"android":"levelo://app?vid=a1afb5cd-63bc-4e69-9198-36566da5ac89","ios":"levelo://app?vid=a1afb5cd-63bc-4e69-9198-36566da5ac89"},"vehicle_type_id":"4","last_reported":1729340171,"current_range_meters":32400,"station_id":"ce4bgv12rcd13ifvqcp0","pricing_plan_id":"cebpf4jnsgd1na2vs0mg"},{"bike_id":"07c3e953-f2c5-46b4-86a4-1590ee10a9b2","system_id":"levelo_inurba_marseille","lat":43.30144,"lon":5.37418,"is_reserved":false,"is_disabled":false,"rental_uris":{"android":"levelo://app?vid=07c3e953-f2c5-46b4-86a4-1590ee10a9b2","ios":"levelo://app?vid=07c3e953-f2c5-46b4-86a4-1590ee10a9b2"},"vehicle_type_id":"4","last_reported":1729340171,"current_range_meters":8000,"station_id":"ce4bgs92rcd13ifvqcc0","pricing_plan_id":"cebpf4jnsgd1na2vs0mg"},{"bike_id":"0cb2ff1d-75b8-48e9-8163-d51e41677760","system_id":"levelo_inurba_marseille","lat":43.23068,"lon":5.35493,"is_reserved":false,"is_disabled":false,"rental_uris":{"android":"levelo://app?vid=0cb2ff1d-75b8-48e9-8163-d51e41677760","ios":"levelo://app?vid=0cb2ff1d-75b8-48e9-8163-d51e41677760"},"vehicle_type_id":"4","last_reported":1729340171,"current_range_meters":11200,"station_id":"cpo3342slgdg3j2ifvpg","pricing_plan_id":"cebpf4jnsgd1na2vs0mg"},{"bike_id":"6a1e31b6-d029-4b53-901f-4bdc7b2141ad","system_id":"levelo_inurba_marseille","lat":43.33026,"lon":5.39036,"is_reserved":false,"is_disabled":false,"rental_uris":{"android":"levelo://app?vid=6a1e31b6-d029-4b53-901f-4bdc7b2141ad","ios":"levelo://app?vid=6a1e31b6-d029-4b53-901f-4bdc7b2141ad"},"vehicle_type_id":"4","last_reported":1729340171,"current_range_meters":24800,"station_id":"ce4bhr92rcd13ifvqhrg","pricing_plan_id":"cebpf4jnsgd1na2vs0mg"},{"bike_id":"60e5d882-0396-4567-9dd1-7257b842a7e3","system_id":"levelo_inurba_marseille","lat":43.29851,"lon":5.36282,"is_reserved":false,"is_disabled":false,"rental_uris":{"android":"levelo://app?vid=60e5d882-0396-4567-9dd1-7257b842a7e3","ios":"levelo://app?vid=60e5d882-0396-4567-9dd1-7257b842a7e3"},"vehicle_type_id":"4","last_reported":1729340171,"current_range_meters":39200,"station_id":"ce4bgpp2rcd13ifvqc3g","pricing_plan_id":"cebpf4jnsgd1na2vs0mg"},{"bike_id":"279375d9-48ca-4dd5-9b3e-5aa801948ca2","system_id":"levelo_inurba_marseille","lat":43.30417,"lon":5.39746,"is_reserved":false,"is_disabled":false,"rental_uris":{"android":"levelo://app?vid=279375d9-48ca-4dd5-9b3e-5aa801948ca2","ios":"levelo://app?vid=279375d9-48ca-4dd5-9b3e-5aa801948ca2"},"vehicle_type_id":"4","last_reported":1729340171,"current_range_meters":39200,"station_id":"ce4bh092rcd13ifvqd20","pricing_plan_id":"cebpf4jnsgd1na2vs0mg"},{"bike_id":"62679cc5-0d2d-4ace-abc4-366c100478ff","system_id":"levelo_inurba_marseille","lat":43.31713,"lon":5.43717,"is_reserved":false,"is_disabled":false,"rental_uris":{"android":"levelo://app?vid=62679cc5-0d2d-4ace-abc4-366c100478ff","ios":"levelo://app?vid=62679cc5-0d2d-4ace-abc4-366c100478ff"},"vehicle_type_id":"4","last_reported":1729340171,"current_range_meters":33600,"station_id":"ce4bhp92rcd13ifvqhcg","pricing_plan_id":"cebpf4jnsgd1na2vs0mg"},{"bike_id":"1a033abb-16f6-452d-8850-1323583b7cab","system_id":"levelo_inurba_marseille","lat":43.28159,"lon":5.42641,"is_reserved":false,"is_disabled":false,"rental_uris":{"android":"levelo://app?vid=1a033abb-16f6-452d-8850-1323583b7cab","ios":"levelo://app?vid=1a033abb-16f6-452d-8850-1323583b7cab"},"vehicle_type_id":"4","last_reported":1729340171,"current_range_meters":12000,"station_id":"ce4bhnh2rcd13ifvqgug","pricing_plan_id":"cebpf4jnsgd1na2vs0mg"},{"bike_id":"aa8ee93c-9a92-44d9-b191-78c51d06c65b","system_id":"levelo_inurba_marseille","lat":43.29297,"lon":5.3745,"is_reserved":false,"is_disabled":false,"rental_uris":{"android":"levelo://app?vid=aa8ee93c-9a92-44d9-b191-78c51d06c65b","ios":"levelo://app?vid=aa8ee93c-9a92-44d9-b191-78c51d06c65b"},"vehicle_type_id":"4","last_reported":1729340171,"current_range_meters":38800,"station_id":"ce4bgi12rcd13ifvqb70","pricing_plan_id":"cebpf4jnsgd1na2vs0mg"},{"bike_id":"2f42f790-2116-4e97-804b-72c4bca43bc9","system_id":"levelo_inurba_marseille","lat":43.26788,"lon":5.39413,"is_reserved":false,"is_disabled":false,"rental_uris":{"android":"levelo://app?vid=2f42f790-2116-4e97-804b-72c4bca43bc9","ios":"levelo://app?vid=2f42f790-2116-4e97-804b-72c4bca43bc9"},"vehicle_type_id":"4","last_reported":1729340171,"current_range_meters":38000,"station_id":"ce4bhh12rcd13ifvqfg0","pricing_plan_id":"cebpf4jnsgd1na2vs0mg"},{"bike_id":"f7a24b2f-5943-4824-83d0-3767d391605f","system_id":"levelo_inurba_marseille","lat":43.29846,"lon":5.36272,"is_reserved":false,"is_disabled":false,"rental_uris":{"android":"levelo://app?vid=f7a24b2f-5943-4824-83d0-3767d391605f","ios":"levelo://app?vid=f7a24b2f-5943-4824-83d0-3767d391605f"},"vehicle_type_id":"4","last_reported":1729340171,"current_range_meters":32000,"station_id":"ce4bgpp2rcd13ifvqc3g","pricing_plan_id":"cebpf4jnsgd1na2vs0mg"},{"bike_id":"96245bea-6c5a-4097-8c71-a5adf642dae7","system_id":"levelo_inurba_marseille","lat":43.29722,"lon":5.37692,"is_reserved":false,"is_disabled":false,"rental_uris":{"android":"levelo://app?vid=96245bea-6c5a-4097-8c71-a5adf642dae7","ios":"levelo://app?vid=96245bea-6c5a-4097-8c71-a5adf642dae7"},"vehicle_type_id":"4","last_reported":1729340171,"current_range_meters":38800,"station_id":"ce4bgkh2rcd13ifvqbl0","pricing_plan_id":"cebpf4jnsgd1na2vs0mg"},{"bike_id":"375f02ef-4905-4da0-aa98-04d9c6c8f603","system_id":"levelo_inurba_marseille","lat":43.23068,"lon":5.35496,"is_reserved":false,"is_disabled":false,"rental_uris":{"android":"levelo://app?vid=375f02ef-4905-4da0-aa98-04d9c6c8f603","ios":"levelo://app?vid=375f02ef-4905-4da0-aa98-04d9c6c8f603"},"vehicle_type_id":"4","last_reported":1729340171,"current_range_meters":10800,"station_id":"cpo3342slgdg3j2ifvpg","pricing_plan_id":"cebpf4jnsgd1na2vs0mg"},{"bike_id":"70199388-fcff-42e7-b1ec-9c179ae2180d","system_id":"levelo_inurba_marseille","lat":43.25006,"lon":5.38929,"is_reserved":false,"is_disabled":false,"rental_uris":{"android":"levelo://app?vid=70199388-fcff-42e7-b1ec-9c179ae2180d","ios":"levelo://app?vid=70199388-fcff-42e7-b1ec-9c179ae2180d"},"vehicle_type_id":"4","last_reported":1729340171,"current_range_meters":26000,"station_id":"ce4bhgp2rcd13ifvqfd0","pricing_plan_id":"cebpf4jnsgd1na2vs0mg"},{"bike_id":"067193b3-5c80-4bd0-bba0-f83eb46c9371","system_id":"levelo_inurba_marseille","lat":43.23195,"lon":5.35556,"is_reserved":false,"is_disabled":false,"rental_uris":{"android":"levelo://app?vid=067193b3-5c80-4bd0-bba0-f83eb46c9371","ios":"levelo://app?vid=067193b3-5c80-4bd0-bba0-f83eb46c9371"},"vehicle_type_id":"4","last_reported":1729340171,"current_range_meters":32400,"station_id":"ce4bhu92rcd13ifvqi70","pricing_plan_id":"cebpf4jnsgd1na2vs0mg"},{"bike_id":"ea57ffff-f769-4532-add4-4d3a7b1bffe8","system_id":"levelo_inurba_marseille","lat":43.29852,"lon":5.36276,"is_reserved":false,"is_disabled":false,"rental_uris":{"android":"levelo://app?vid=ea57ffff-f769-4532-add4-4d3a7b1bffe8","ios":"levelo://app?vid=ea57ffff-f769-4532-add4-4d3a7b1bffe8"},"vehicle_type_id":"4","last_reported":1729340171,"current_range_meters":26000,"station_id":"ce4bgpp2rcd13ifvqc3g","pricing_plan_id":"cebpf4jnsgd1na2vs0mg"},{"bike_id":"767eb891-d12d-4c8d-a636-5e57c77e09ea","system_id":"levelo_inurba_marseille","lat":43.24392,"lon":5.37071,"is_reserved":false,"is_disabled":false,"rental_uris":{"android":"levelo://app?vid=767eb891-d12d-4c8d-a636-5e57c77e09ea","ios":"levelo://app?vid=767eb891-d12d-4c8d-a636-5e57c77e09ea"},"vehicle_type_id":"4","last_reported":1729340171,"current_range_meters":16000,"station_id":"ce4bhhh2rcd13ifvqfk0","pricing_plan_id":"cebpf4jnsgd1na2vs0mg"},{"bike_id":"0082f742-6444-40c0-8abd-b00e2aa60cc7","system_id":"levelo_inurba_marseille","lat":43.2958,"lon":5.36741,"is_reserved":false,"is_disabled":false,"rental_uris":{"android":"levelo://app?vid=0082f742-6444-40c0-8abd-b00e2aa60cc7","ios":"levelo://app?vid=0082f742-6444-40c0-8abd-b00e2aa60cc7"},"vehicle_type_id":"4","last_reported":1729340171,"current_range_meters":24400,"station_id":"ce4bgph2rcd13ifvqc2g","pricing_plan_id":"cebpf4jnsgd1na2vs0mg"},{"bike_id":"a4af220e-34d6-4598-8db6-c194a4e5676e","system_id":"levelo_inurba_marseille","lat":43.33029,"lon":5.3905,"is_reserved":false,"is_disabled":false,"rental_uris":{"android":"levelo://app?vid=a4af220e-34d6-4598-8db6-c194a4e5676e","ios":"levelo://app?vid=a4af220e-34d6-4598-8db6-c194a4e5676e"},"vehicle_type_id":"4","last_reported":1729340171,"current_range_meters":19600,"station_id":"ce4bhr92rcd13ifvqhrg","pricing_plan_id":"cebpf4jnsgd1na2vs0mg"},{"bike_id":"8e65aeb0-4132-4682-8af8-d8cd648c9e87","system_id":"levelo_inurba_marseille","lat":43.29026,"lon":5.38134,"is_reserved":false,"is_disabled":false,"rental_uris":{"android":"levelo://app?vid=8e65aeb0-4132-4682-8af8-d8cd648c9e87","ios":"levelo://app?vid=8e65aeb0-4132-4682-8af8-d8cd648c9e87"},"vehicle_type_id":"4","last_reported":1729340171,"current_range_meters":38800,"station_id":"ce4bh4p2rcd13ifvqe1g","pricing_plan_id":"cebpf4jnsgd1na2vs0mg"},{"bike_id":"006bbfd0-294d-4716-b026-030ad88cf679","system_id":"levelo_inurba_marseille","lat":43.24392,"lon":5.37056,"is_reserved":false,"is_disabled":false,"rental_uris":{"android":"levelo://app?vid=006bbfd0-294d-4716-b026-030ad88cf679","ios":"levelo://app?vid=006bbfd0-294d-4716-b026-030ad88cf679"},"vehicle_type_id":"4","last_reported":1729340171,"current_range_meters":38800,"station_id":"ce4bhhh2rcd13ifvqfk0","pricing_plan_id":"cebpf4jnsgd1na2vs0mg"},{"bike_id":"be6378b2-b735-4bc2-a504-2fba0e74ed92","system_id":"levelo_inurba_marseille","lat":43.27817,"lon":5.4072,"is_reserved":false,"is_disabled":false,"rental_uris":{"android":"levelo://app?vid=be6378b2-b735-4bc2-a504-2fba0e74ed92","ios":"levelo://app?vid=be6378b2-b735-4bc2-a504-2fba0e74ed92"},"vehicle_type_id":"4","last_reported":1729340171,"current_range_meters":38400,"station_id":"ce4bhnh2rcd13ifvqgtg","pricing_plan_id":"cebpf4jnsgd1na2vs0mg"},{"bike_id":"5a046862-8708-4d6b-bcd5-cf56de2cabe6","system_id":"levelo_inurba_marseille","lat":43.29553,"lon":5.42295,"is_reserved":false,"is_disabled":false,"rental_uris":{"android":"levelo://app?vid=5a046862-8708-4d6b-bcd5-cf56de2cabe6","ios":"levelo://app?vid=5a046862-8708-4d6b-bcd5-cf56de2cabe6"},"vehicle_type_id":"4","last_reported":1729340171,"current_range_meters":15200,"station_id":"ce4bhph2rcd13ifvqhdg","pricing_plan_id":"cebpf4jnsgd1na2vs0mg"},{"bike_id":"7b5164b4-90cc-41bc-a797-681402c746de","system_id":"levelo_inurba_marseille","lat":43.25002,"lon":5.38932,"is_reserved":false,"is_disabled":false,"rental_uris":{"android":"levelo://app?vid=7b5164b4-90cc-41bc-a797-681402c746de","ios":"levelo://app?vid=7b5164b4-90cc-41bc-a797-681402c746de"},"vehicle_type_id":"4","last_reported":1729340171,"current_range_meters":38800,"station_id":"ce4bhgp2rcd13ifvqfd0","pricing_plan_id":"cebpf4jnsgd1na2vs0mg"},{"bike_id":"dac8cba7-5de1-474c-a699-b3a18991abf2","system_id":"levelo_inurba_marseille","lat":43.27619,"lon":5.3611,"is_reserved":false,"is_disabled":false,"rental_uris":{"android":"levelo://app?vid=dac8cba7-5de1-474c-a699-b3a18991abf2","ios":"levelo://app?vid=dac8cba7-5de1-474c-a699-b3a18991abf2"},"vehicle_type_id":"4","last_reported":1729340171,"current_range_meters":19600,"station_id":"ce4bgj92rcd13ifvqbe0","pricing_plan_id":"cebpf4jnsgd1na2vs0mg"},{"bike_id":"d77de414-ca1a-409e-b7a6-47916177fca8","system_id":"levelo_inurba_marseille","lat":43.25009,"lon":5.38938,"is_reserved":false,"is_disabled":false,"rental_uris":{"android":"levelo://app?vid=d77de414-ca1a-409e-b7a6-47916177fca8","ios":"levelo://app?vid=d77de414-ca1a-409e-b7a6-47916177fca8"},"vehicle_type_id":"4","last_reported":1729340171,"current_range_meters":28000,"station_id":"ce4bhgp2rcd13ifvqfd0","pricing_plan_id":"cebpf4jnsgd1na2vs0mg"},{"bike_id":"a6f3d13d-1998-4404-b5ee-cd4078520ae0","system_id":"levelo_inurba_marseille","lat":43.290436,"lon":5.37558,"is_reserved":false,"is_disabled":false,"rental_uris":{"android":"levelo://app?vid=a6f3d13d-1998-4404-b5ee-cd4078520ae0","ios":"levelo://app?vid=a6f3d13d-1998-4404-b5ee-cd4078520ae0"},"vehicle_type_id":"4","last_reported":1729340171,"current_range_meters":35600,"station_id":"ce4bhgh2rcd13ifvqfb0","pricing_plan_id":"cebpf4jnsgd1na2vs0mg"},{"bike_id":"c4fbd914-896e-4644-8e56-a91c7ef7902e","system_id":"levelo_inurba_marseille","lat":43.27328,"lon":5.39099,"is_reserved":false,"is_disabled":false,"rental_uris":{"android":"levelo://app?vid=c4fbd914-896e-4644-8e56-a91c7ef7902e","ios":"levelo://app?vid=c4fbd914-896e-4644-8e56-a91c7ef7902e"},"vehicle_type_id":"4","last_reported":1729340171,"current_range_meters":16400,"station_id":"ce4bhgp2rcd13ifvqfe0","pricing_plan_id":"cebpf4jnsgd1na2vs0mg"},{"bike_id":"dd36401a-83be-4ce2-851c-12296c074af5","system_id":"levelo_inurba_marseille","lat":43.25506,"lon":5.37654,"is_reserved":false,"is_disabled":false,"rental_uris":{"android":"levelo://app?vid=dd36401a-83be-4ce2-851c-12296c074af5","ios":"levelo://app?vid=dd36401a-83be-4ce2-851c-12296c074af5"},"vehicle_type_id":"4","last_reported":1729340171,"current_range_meters":22000,"station_id":"ce4bhh12rcd13ifvqff0","pricing_plan_id":"cebpf4jnsgd1na2vs0mg"},{"bike_id":"bf77211a-00c6-4f53-b1c0-9d015e52475e","system_id":"levelo_inurba_marseille","lat":43.298,"lon":5.37107,"is_reserved":false,"is_disabled":false,"rental_uris":{"android":"levelo://app?vid=bf77211a-00c6-4f53-b1c0-9d015e52475e","ios":"levelo://app?vid=bf77211a-00c6-4f53-b1c0-9d015e52475e"},"vehicle_type_id":"4","last_reported":1729340171,"current_range_meters":12800,"station_id":"ce4bgop2rcd13ifvqc1g","pricing_plan_id":"cebpf4jnsgd1na2vs0mg"},{"bike_id":"a7c0a69b-6800-4cb4-a381-f56fd1d8d67b","system_id":"levelo_inurba_marseille","lat":43.30546,"lon":5.36538,"is_reserved":false,"is_disabled":false,"rental_uris":{"android":"levelo://app?vid=a7c0a69b-6800-4cb4-a381-f56fd1d8d67b","ios":"levelo://app?vid=a7c0a69b-6800-4cb4-a381-f56fd1d8d67b"},"vehicle_type_id":"4","last_reported":1729340171,"current_range_meters":37600,"station_id":"ce4bgs12rcd13ifvqcag","pricing_plan_id":"cebpf4jnsgd1na2vs0mg"},{"bike_id":"723e6171-f0c2-4d86-9524-4220ac9fcc01","system_id":"levelo_inurba_marseille","lat":43.25586,"lon":5.38234,"is_reserved":false,"is_disabled":false,"rental_uris":{"android":"levelo://app?vid=723e6171-f0c2-4d86-9524-4220ac9fcc01","ios":"levelo://app?vid=723e6171-f0c2-4d86-9524-4220ac9fcc01"},"vehicle_type_id":"4","last_reported":1729340171,"current_range_meters":24800,"station_id":"ce4bhih2rcd13ifvqfs0","pricing_plan_id":"cebpf4jnsgd1na2vs0mg"},{"bike_id":"28e49236-44e7-4e90-b493-7aa54871f440","system_id":"levelo_inurba_marseille","lat":43.29624,"lon":5.37157,"is_reserved":false,"is_disabled":false,"rental_uris":{"android":"levelo://app?vid=28e49236-44e7-4e90-b493-7aa54871f440","ios":"levelo://app?vid=28e49236-44e7-4e90-b493-7aa54871f440"},"vehicle_type_id":"4","last_reported":1729340171,"current_range_meters":38000,"station_id":"ce4bgnh2rcd13ifvqc0g","pricing_plan_id":"cebpf4jnsgd1na2vs0mg"},{"bike_id":"97282f93-164b-4bf8-ac29-26342bab03dc","system_id":"levelo_inurba_marseille","lat":43.26497,"lon":5.39545,"is_reserved":false,"is_disabled":false,"rental_uris":{"android":"levelo://app?vid=97282f93-164b-4bf8-ac29-26342bab03dc","ios":"levelo://app?vid=97282f93-164b-4bf8-ac29-26342bab03dc"},"vehicle_type_id":"4","last_reported":1729340171,"current_range_meters":38000,"station_id":"ce4bhi12rcd13ifvqfq0","pricing_plan_id":"cebpf4jnsgd1na2vs0mg"},{"bike_id":"4e75b40e-a7bf-4b9a-887d-11ce9440a48e","system_id":"levelo_inurba_marseille","lat":43.24082,"lon":5.37747,"is_reserved":false,"is_disabled":false,"rental_uris":{"android":"levelo://app?vid=4e75b40e-a7bf-4b9a-887d-11ce9440a48e","ios":"levelo://app?vid=4e75b40e-a7bf-4b9a-887d-11ce9440a48e"},"vehicle_type_id":"4","last_reported":1729340171,"current_range_meters":36000,"station_id":"ce4bhnp2rcd13ifvqgvg","pricing_plan_id":"cebpf4jnsgd1na2vs0mg"},{"bike_id":"24dc319b-a1bb-4608-a5d6-9e7c1cfa7699","system_id":"levelo_inurba_marseille","lat":43.24353,"lon":5.38005,"is_reserved":false,"is_disabled":false,"rental_uris":{"android":"levelo://app?vid=24dc319b-a1bb-4608-a5d6-9e7c1cfa7699","ios":"levelo://app?vid=24dc319b-a1bb-4608-a5d6-9e7c1cfa7699"},"vehicle_type_id":"4","last_reported":1729340171,"current_range_meters":9600,"station_id":"","pricing_plan_id":"cebpf4jnsgd1na2vs0mg"},{"bike_id":"be2bbaa1-f672-4dc8-a1c0-85466066b76d","system_id":"levelo_inurba_marseille","lat":43.232,"lon":5.35547,"is_reserved":false,"is_disabled":false,"rental_uris":{"android":"levelo://app?vid=be2bbaa1-f672-4dc8-a1c0-85466066b76d","ios":"levelo://app?vid=be2bbaa1-f672-4dc8-a1c0-85466066b76d"},"vehicle_type_id":"4","last_reported":1729340171,"current_range_meters":24000,"station_id":"ce4bhu92rcd13ifvqi70","pricing_plan_id":"cebpf4jnsgd1na2vs0mg"},{"bike_id":"0bc81d4f-4110-460d-9953-c8f71f6114ae","system_id":"levelo_inurba_marseille","lat":43.26954,"lon":5.38637,"is_reserved":false,"is_disabled":false,"rental_uris":{"android":"levelo://app?vid=0bc81d4f-4110-460d-9953-c8f71f6114ae","ios":"levelo://app?vid=0bc81d4f-4110-460d-9953-c8f71f6114ae"},"vehicle_type_id":"4","last_reported":1729340171,"current_range_meters":12400,"station_id":"ce4bhh92rcd13ifvqfh0","pricing_plan_id":"cebpf4jnsgd1na2vs0mg"},{"bike_id":"f8ce9e9c-c474-4cba-a5b2-c672b89bf800","system_id":"levelo_inurba_marseille","lat":43.2972,"lon":5.3662,"is_reserved":false,"is_disabled":false,"rental_uris":{"android":"levelo://app?vid=f8ce9e9c-c474-4cba-a5b2-c672b89bf800","ios":"levelo://app?vid=f8ce9e9c-c474-4cba-a5b2-c672b89bf800"},"vehicle_type_id":"4","last_reported":1729340171,"current_range_meters":4400,"station_id":"ce4bgn12rcd13ifvqbt0","pricing_plan_id":"cebpf4jnsgd1na2vs0mg"},{"bike_id":"5715e832-098d-4c62-8619-ea0204aa01d5","system_id":"levelo_inurba_marseille","lat":43.27069,"lon":5.42271,"is_reserved":false,"is_disabled":false,"rental_uris":{"android":"levelo://app?vid=5715e832-098d-4c62-8619-ea0204aa01d5","ios":"levelo://app?vid=5715e832-098d-4c62-8619-ea0204aa01d5"},"vehicle_type_id":"4","last_reported":1729340171,"current_range_meters":30400,"station_id":"ce4bhk92rcd13ifvqgb0","pricing_plan_id":"cebpf4jnsgd1na2vs0mg"},{"bike_id":"617515d4-7b39-4e1a-a2c5-b9b56ebdab5f","system_id":"levelo_inurba_marseille","lat":43.30308,"lon":5.36907,"is_reserved":false,"is_disabled":false,"rental_uris":{"android":"levelo://app?vid=617515d4-7b39-4e1a-a2c5-b9b56ebdab5f","ios":"levelo://app?vid=617515d4-7b39-4e1a-a2c5-b9b56ebdab5f"},"vehicle_type_id":"4","last_reported":1729340171,"current_range_meters":18800,"station_id":"ce4bgqh2rcd13ifvqc5g","pricing_plan_id":"cebpf4jnsgd1na2vs0mg"},{"bike_id":"1ba3c57d-fe8a-4cbb-b7ac-5af8e752d070","system_id":"levelo_inurba_marseille","lat":43.29845,"lon":5.36265,"is_reserved":false,"is_disabled":false,"rental_uris":{"android":"levelo://app?vid=1ba3c57d-fe8a-4cbb-b7ac-5af8e752d070","ios":"levelo://app?vid=1ba3c57d-fe8a-4cbb-b7ac-5af8e752d070"},"vehicle_type_id":"4","last_reported":1729340171,"current_range_meters":39200,"station_id":"ce4bgpp2rcd13ifvqc3g","pricing_plan_id":"cebpf4jnsgd1na2vs0mg"},{"bike_id":"b03e381e-584c-47a9-92b0-32542b434de6","system_id":"levelo_inurba_marseille","lat":43.27075,"lon":5.42283,"is_reserved":false,"is_disabled":false,"rental_uris":{"android":"levelo://app?vid=b03e381e-584c-47a9-92b0-32542b434de6","ios":"levelo://app?vid=b03e381e-584c-47a9-92b0-32542b434de6"},"vehicle_type_id":"4","last_reported":1729340171,"current_range_meters":24000,"station_id":"ce4bhk92rcd13ifvqgb0","pricing_plan_id":"cebpf4jnsgd1na2vs0mg"},{"bike_id":"1fe63f8c-f9bb-4196-856a-ca8328f62f74","system_id":"levelo_inurba_marseille","lat":43.31078,"lon":5.38355,"is_reserved":false,"is_disabled":false,"rental_uris":{"android":"levelo://app?vid=1fe63f8c-f9bb-4196-856a-ca8328f62f74","ios":"levelo://app?vid=1fe63f8c-f9bb-4196-856a-ca8328f62f74"},"vehicle_type_id":"4","last_reported":1729340171,"current_range_meters":23200,"station_id":"ce4bgv92rcd13ifvqcr0","pricing_plan_id":"cebpf4jnsgd1na2vs0mg"},{"bike_id":"606a45e3-7cbc-4b58-93ef-27ed788846e5","system_id":"levelo_inurba_marseille","lat":43.26931,"lon":5.3893,"is_reserved":false,"is_disabled":false,"rental_uris":{"android":"levelo://app?vid=606a45e3-7cbc-4b58-93ef-27ed788846e5","ios":"levelo://app?vid=606a45e3-7cbc-4b58-93ef-27ed788846e5"},"vehicle_type_id":"4","last_reported":1729340171,"current_range_meters":39200,"station_id":"ce4bhhh2rcd13ifvqfl0","pricing_plan_id":"cebpf4jnsgd1na2vs0mg"},{"bike_id":"db5b87d2-542f-42a5-b1f6-083d0b8f3dbb","system_id":"levelo_inurba_marseille","lat":43.287109,"lon":5.399987,"is_reserved":false,"is_disabled":false,"rental_uris":{"android":"levelo://app?vid=db5b87d2-542f-42a5-b1f6-083d0b8f3dbb","ios":"levelo://app?vid=db5b87d2-542f-42a5-b1f6-083d0b8f3dbb"},"vehicle_type_id":"4","last_reported":1729340171,"current_range_meters":32000,"station_id":"ce4bho92rcd13ifvqh3g","pricing_plan_id":"cebpf4jnsgd1na2vs0mg"},{"bike_id":"d132410d-74e9-4e0d-9759-b467e0a2d6ad","system_id":"levelo_inurba_marseille","lat":43.2306,"lon":5.35493,"is_reserved":false,"is_disabled":false,"rental_uris":{"android":"levelo://app?vid=d132410d-74e9-4e0d-9759-b467e0a2d6ad","ios":"levelo://app?vid=d132410d-74e9-4e0d-9759-b467e0a2d6ad"},"vehicle_type_id":"4","last_reported":1729340171,"current_range_meters":6800,"station_id":"cpo3342slgdg3j2ifvpg","pricing_plan_id":"cebpf4jnsgd1na2vs0mg"},{"bike_id":"f169cce4-1107-4ef9-adea-636158bb76d6","system_id":"levelo_inurba_marseille","lat":43.304353,"lon":5.397465,"is_reserved":false,"is_disabled":false,"rental_uris":{"android":"levelo://app?vid=f169cce4-1107-4ef9-adea-636158bb76d6","ios":"levelo://app?vid=f169cce4-1107-4ef9-adea-636158bb76d6"},"vehicle_type_id":"4","last_reported":1729340171,"current_range_meters":38800,"station_id":"ce4bh092rcd13ifvqd20","pricing_plan_id":"cebpf4jnsgd1na2vs0mg"},{"bike_id":"a9d80141-cb04-4f88-bcc5-9763572e3517","system_id":"levelo_inurba_marseille","lat":43.232,"lon":5.35546,"is_reserved":false,"is_disabled":false,"rental_uris":{"android":"levelo://app?vid=a9d80141-cb04-4f88-bcc5-9763572e3517","ios":"levelo://app?vid=a9d80141-cb04-4f88-bcc5-9763572e3517"},"vehicle_type_id":"4","last_reported":1729340171,"current_range_meters":24400,"station_id":"ce4bhu92rcd13ifvqi70","pricing_plan_id":"cebpf4jnsgd1na2vs0mg"},{"bike_id":"6bb6eaea-6464-4250-8b65-6f9c52c53a3f","system_id":"levelo_inurba_marseille","lat":43.31728,"lon":5.42395,"is_reserved":false,"is_disabled":false,"rental_uris":{"android":"levelo://app?vid=6bb6eaea-6464-4250-8b65-6f9c52c53a3f","ios":"levelo://app?vid=6bb6eaea-6464-4250-8b65-6f9c52c53a3f"},"vehicle_type_id":"4","last_reported":1729340171,"current_range_meters":37600,"station_id":"ce4bhp92rcd13ifvqhbg","pricing_plan_id":"cebpf4jnsgd1na2vs0mg"},{"bike_id":"36a0cdb0-c033-4f9e-9fd4-1910a5064b1c","system_id":"levelo_inurba_marseille","lat":43.28275,"lon":5.35066,"is_reserved":false,"is_disabled":false,"rental_uris":{"android":"levelo://app?vid=36a0cdb0-c033-4f9e-9fd4-1910a5064b1c","ios":"levelo://app?vid=36a0cdb0-c033-4f9e-9fd4-1910a5064b1c"},"vehicle_type_id":"4","last_reported":1729340171,"current_range_meters":27600,"station_id":"ce4bhbp2rcd13ifvqerg","pricing_plan_id":"cebpf4jnsgd1na2vs0mg"},{"bike_id":"d5c5bb04-9861-4889-a1c5-d9a67bbb438b","system_id":"levelo_inurba_marseille","lat":43.30281,"lon":5.37706,"is_reserved":false,"is_disabled":false,"rental_uris":{"android":"levelo://app?vid=d5c5bb04-9861-4889-a1c5-d9a67bbb438b","ios":"levelo://app?vid=d5c5bb04-9861-4889-a1c5-d9a67bbb438b"},"vehicle_type_id":"4","last_reported":1729340171,"current_range_meters":16400,"station_id":"ce4bguh2rcd13ifvqcj0","pricing_plan_id":"cebpf4jnsgd1na2vs0mg"},{"bike_id":"c9bf36b3-0190-480f-9d47-ca55ed1ea5cb","system_id":"levelo_inurba_marseille","lat":43.32142,"lon":5.3701,"is_reserved":false,"is_disabled":false,"rental_uris":{"android":"levelo://app?vid=c9bf36b3-0190-480f-9d47-ca55ed1ea5cb","ios":"levelo://app?vid=c9bf36b3-0190-480f-9d47-ca55ed1ea5cb"},"vehicle_type_id":"4","last_reported":1729340171,"current_range_meters":24400,"station_id":"","pricing_plan_id":"cebpf4jnsgd1na2vs0mg"},{"bike_id":"7077cfe1-99d7-40fb-8023-64600da656cb","system_id":"levelo_inurba_marseille","lat":43.27071,"lon":5.42277,"is_reserved":false,"is_disabled":false,"rental_uris":{"android":"levelo://app?vid=7077cfe1-99d7-40fb-8023-64600da656cb","ios":"levelo://app?vid=7077cfe1-99d7-40fb-8023-64600da656cb"},"vehicle_type_id":"4","last_reported":1729340171,"current_range_meters":22800,"station_id":"ce4bhk92rcd13ifvqgb0","pricing_plan_id":"cebpf4jnsgd1na2vs0mg"},{"bike_id":"67f3a430-a435-476c-9f14-03933430901e","system_id":"levelo_inurba_marseille","lat":43.23077,"lon":5.35491,"is_reserved":false,"is_disabled":false,"rental_uris":{"android":"levelo://app?vid=67f3a430-a435-476c-9f14-03933430901e","ios":"levelo://app?vid=67f3a430-a435-476c-9f14-03933430901e"},"vehicle_type_id":"4","last_reported":1729340171,"current_range_meters":30400,"station_id":"cpo3342slgdg3j2ifvpg","pricing_plan_id":"cebpf4jnsgd1na2vs0mg"},{"bike_id":"24a52c4b-a021-4307-a92e-769a596a3a13","system_id":"levelo_inurba_marseille","lat":43.26202,"lon":5.37935,"is_reserved":false,"is_disabled":false,"rental_uris":{"android":"levelo://app?vid=24a52c4b-a021-4307-a92e-769a596a3a13","ios":"levelo://app?vid=24a52c4b-a021-4307-a92e-769a596a3a13"},"vehicle_type_id":"4","last_reported":1729340171,"current_range_meters":17600,"station_id":"ce4bhjp2rcd13ifvqg90","pricing_plan_id":"cebpf4jnsgd1na2vs0mg"},{"bike_id":"2099320c-6ef0-4a30-bfc8-947809ce04a0","system_id":"levelo_inurba_marseille","lat":43.25866,"lon":5.39899,"is_reserved":false,"is_disabled":false,"rental_uris":{"android":"levelo://app?vid=2099320c-6ef0-4a30-bfc8-947809ce04a0","ios":"levelo://app?vid=2099320c-6ef0-4a30-bfc8-947809ce04a0"},"vehicle_type_id":"4","last_reported":1729340171,"current_range_meters":16800,"station_id":"ce4bhl92rcd13ifvqghg","pricing_plan_id":"cebpf4jnsgd1na2vs0mg"},{"bike_id":"74712c9d-ce7b-483f-b961-b97d561cfccb","system_id":"levelo_inurba_marseille","lat":43.31167,"lon":5.38719,"is_reserved":false,"is_disabled":false,"rental_uris":{"android":"levelo://app?vid=74712c9d-ce7b-483f-b961-b97d561cfccb","ios":"levelo://app?vid=74712c9d-ce7b-483f-b961-b97d561cfccb"},"vehicle_type_id":"4","last_reported":1729340171,"current_range_meters":18000,"station_id":"ce4bgv12rcd13ifvqcp0","pricing_plan_id":"cebpf4jnsgd1na2vs0mg"},{"bike_id":"1bb83af2-2df1-4792-aa34-1a9604d2291a","system_id":"levelo_inurba_marseille","lat":43.31084,"lon":5.42432,"is_reserved":false,"is_disabled":false,"rental_uris":{"android":"levelo://app?vid=1bb83af2-2df1-4792-aa34-1a9604d2291a","ios":"levelo://app?vid=1bb83af2-2df1-4792-aa34-1a9604d2291a"},"vehicle_type_id":"4","last_reported":1729340171,"current_range_meters":36800,"station_id":"ce4bhp92rcd13ifvqhag","pricing_plan_id":"cebpf4jnsgd1na2vs0mg"},{"bike_id":"1911eb50-1ad6-4637-895a-26469d2b20ee","system_id":"levelo_inurba_marseille","lat":43.30143,"lon":5.3808,"is_reserved":false,"is_disabled":false,"rental_uris":{"android":"levelo://app?vid=1911eb50-1ad6-4637-895a-26469d2b20ee","ios":"levelo://app?vid=1911eb50-1ad6-4637-895a-26469d2b20ee"},"vehicle_type_id":"4","last_reported":1729340171,"current_range_meters":8000,"station_id":"ce4bgjp2rcd13ifvqbh0","pricing_plan_id":"cebpf4jnsgd1na2vs0mg"},{"bike_id":"f3a96a4d-bc6d-460f-a415-db98973047b8","system_id":"levelo_inurba_marseille","lat":43.29891,"lon":5.43668,"is_reserved":false,"is_disabled":false,"rental_uris":{"android":"levelo://app?vid=f3a96a4d-bc6d-460f-a415-db98973047b8","ios":"levelo://app?vid=f3a96a4d-bc6d-460f-a415-db98973047b8"},"vehicle_type_id":"4","last_reported":1729340171,"current_range_meters":39200,"station_id":"ce4bhpp2rcd13ifvqhfg","pricing_plan_id":"cebpf4jnsgd1na2vs0mg"},{"bike_id":"9fe8db15-0111-408d-8e77-5936a9d06147","system_id":"levelo_inurba_marseille","lat":43.23974,"lon":5.36624,"is_reserved":false,"is_disabled":false,"rental_uris":{"android":"levelo://app?vid=9fe8db15-0111-408d-8e77-5936a9d06147","ios":"levelo://app?vid=9fe8db15-0111-408d-8e77-5936a9d06147"},"vehicle_type_id":"4","last_reported":1729340171,"current_range_meters":32000,"station_id":"ce4bhi12rcd13ifvqfp0","pricing_plan_id":"cebpf4jnsgd1na2vs0mg"},{"bike_id":"1346ea84-ccfa-4dca-85a7-8858d05dcb2f","system_id":"levelo_inurba_marseille","lat":43.23192,"lon":5.39989,"is_reserved":false,"is_disabled":false,"rental_uris":{"android":"levelo://app?vid=1346ea84-ccfa-4dca-85a7-8858d05dcb2f","ios":"levelo://app?vid=1346ea84-ccfa-4dca-85a7-8858d05dcb2f"},"vehicle_type_id":"4","last_reported":1729340171,"current_range_meters":36400,"station_id":"ce4bhn12rcd13ifvqgqg","pricing_plan_id":"cebpf4jnsgd1na2vs0mg"},{"bike_id":"e19f4d08-358c-4775-86b2-73fe5b8a4414","system_id":"levelo_inurba_marseille","lat":43.27174,"lon":5.40998,"is_reserved":false,"is_disabled":false,"rental_uris":{"android":"levelo://app?vid=e19f4d08-358c-4775-86b2-73fe5b8a4414","ios":"levelo://app?vid=e19f4d08-358c-4775-86b2-73fe5b8a4414"},"vehicle_type_id":"4","last_reported":1729340171,"current_range_meters":28400,"station_id":"ce4bhl12rcd13ifvqgf0","pricing_plan_id":"cebpf4jnsgd1na2vs0mg"},{"bike_id":"3377df9c-2a74-47ce-aa0a-0655bfa33b29","system_id":"levelo_inurba_marseille","lat":43.30182,"lon":5.36624,"is_reserved":false,"is_disabled":false,"rental_uris":{"android":"levelo://app?vid=3377df9c-2a74-47ce-aa0a-0655bfa33b29","ios":"levelo://app?vid=3377df9c-2a74-47ce-aa0a-0655bfa33b29"},"vehicle_type_id":"4","last_reported":1729340171,"current_range_meters":38800,"station_id":"ce4bgrh2rcd13ifvqc8g","pricing_plan_id":"cebpf4jnsgd1na2vs0mg"},{"bike_id":"22649aac-4770-4c5a-845b-29621b68f8b7","system_id":"levelo_inurba_marseille","lat":43.3056,"lon":5.36576,"is_reserved":false,"is_disabled":false,"rental_uris":{"android":"levelo://app?vid=22649aac-4770-4c5a-845b-29621b68f8b7","ios":"levelo://app?vid=22649aac-4770-4c5a-845b-29621b68f8b7"},"vehicle_type_id":"4","last_reported":1729340171,"current_range_meters":38800,"station_id":"ce4bgs12rcd13ifvqcag","pricing_plan_id":"cebpf4jnsgd1na2vs0mg"},{"bike_id":"a417ea90-2677-4128-ad80-9d6526661d0d","system_id":"levelo_inurba_marseille","lat":43.23967,"lon":5.36623,"is_reserved":false,"is_disabled":false,"rental_uris":{"android":"levelo://app?vid=a417ea90-2677-4128-ad80-9d6526661d0d","ios":"levelo://app?vid=a417ea90-2677-4128-ad80-9d6526661d0d"},"vehicle_type_id":"4","last_reported":1729340171,"current_range_meters":16400,"station_id":"ce4bhi12rcd13ifvqfp0","pricing_plan_id":"cebpf4jnsgd1na2vs0mg"},{"bike_id":"4411742c-e4a0-464d-9251-cb80401b2850","system_id":"levelo_inurba_marseille","lat":43.27075,"lon":5.42283,"is_reserved":false,"is_disabled":false,"rental_uris":{"android":"levelo://app?vid=4411742c-e4a0-464d-9251-cb80401b2850","ios":"levelo://app?vid=4411742c-e4a0-464d-9251-cb80401b2850"},"vehicle_type_id":"4","last_reported":1729340171,"current_range_meters":12800,"station_id":"ce4bhk92rcd13ifvqgb0","pricing_plan_id":"cebpf4jnsgd1na2vs0mg"},{"bike_id":"117ee8b3-b5e2-4e87-a5f7-420c68bf7509","system_id":"levelo_inurba_marseille","lat":43.25862,"lon":5.39909,"is_reserved":false,"is_disabled":false,"rental_uris":{"android":"levelo://app?vid=117ee8b3-b5e2-4e87-a5f7-420c68bf7509","ios":"levelo://app?vid=117ee8b3-b5e2-4e87-a5f7-420c68bf7509"},"vehicle_type_id":"4","last_reported":1729340171,"current_range_meters":36800,"station_id":"ce4bhl92rcd13ifvqghg","pricing_plan_id":"cebpf4jnsgd1na2vs0mg"},{"bike_id":"bae7be4e-1e95-4a02-bb97-d31ee5e5a3ef","system_id":"levelo_inurba_marseille","lat":43.26787,"lon":5.39421,"is_reserved":false,"is_disabled":false,"rental_uris":{"android":"levelo://app?vid=bae7be4e-1e95-4a02-bb97-d31ee5e5a3ef","ios":"levelo://app?vid=bae7be4e-1e95-4a02-bb97-d31ee5e5a3ef"},"vehicle_type_id":"4","last_reported":1729340171,"current_range_meters":17200,"station_id":"ce4bhh12rcd13ifvqfg0","pricing_plan_id":"cebpf4jnsgd1na2vs0mg"},{"bike_id":"b655f0e5-9f54-4337-9f8f-e40c329da075","system_id":"levelo_inurba_marseille","lat":43.29329,"lon":5.37509,"is_reserved":false,"is_disabled":false,"rental_uris":{"android":"levelo://app?vid=b655f0e5-9f54-4337-9f8f-e40c329da075","ios":"levelo://app?vid=b655f0e5-9f54-4337-9f8f-e40c329da075"},"vehicle_type_id":"4","last_reported":1729340171,"current_range_meters":7200,"station_id":"ce4bgi12rcd13ifvqb70","pricing_plan_id":"cebpf4jnsgd1na2vs0mg"},{"bike_id":"7acb9047-f26a-4ec2-8117-080be1c67067","system_id":"levelo_inurba_marseille","lat":43.26205,"lon":5.37928,"is_reserved":false,"is_disabled":false,"rental_uris":{"android":"levelo://app?vid=7acb9047-f26a-4ec2-8117-080be1c67067","ios":"levelo://app?vid=7acb9047-f26a-4ec2-8117-080be1c67067"},"vehicle_type_id":"4","last_reported":1729340171,"current_range_meters":38800,"station_id":"ce4bhjp2rcd13ifvqg90","pricing_plan_id":"cebpf4jnsgd1na2vs0mg"},{"bike_id":"5cc7e9b9-85de-46d0-81b3-f6bf8d219e67","system_id":"levelo_inurba_marseille","lat":43.24564,"lon":5.37519,"is_reserved":false,"is_disabled":false,"rental_uris":{"android":"levelo://app?vid=5cc7e9b9-85de-46d0-81b3-f6bf8d219e67","ios":"levelo://app?vid=5cc7e9b9-85de-46d0-81b3-f6bf8d219e67"},"vehicle_type_id":"4","last_reported":1729340171,"current_range_meters":38800,"station_id":"","pricing_plan_id":"cebpf4jnsgd1na2vs0mg"},{"bike_id":"22b37876-70ac-4ba0-9001-79de88a5c4f9","system_id":"levelo_inurba_marseille","lat":43.33763,"lon":5.37451,"is_reserved":false,"is_disabled":false,"rental_uris":{"android":"levelo://app?vid=22b37876-70ac-4ba0-9001-79de88a5c4f9","ios":"levelo://app?vid=22b37876-70ac-4ba0-9001-79de88a5c4f9"},"vehicle_type_id":"4","last_reported":1729340171,"current_range_meters":18800,"station_id":"","pricing_plan_id":"cebpf4jnsgd1na2vs0mg"},{"bike_id":"8614d508-f076-4109-ae37-1397ea78bfed","system_id":"levelo_inurba_marseille","lat":43.30954,"lon":5.39031,"is_reserved":false,"is_disabled":false,"rental_uris":{"android":"levelo://app?vid=8614d508-f076-4109-ae37-1397ea78bfed","ios":"levelo://app?vid=8614d508-f076-4109-ae37-1397ea78bfed"},"vehicle_type_id":"4","last_reported":1729340171,"current_range_meters":9200,"station_id":"ce4bgup2rcd13ifvqco0","pricing_plan_id":"cebpf4jnsgd1na2vs0mg"},{"bike_id":"00a34eda-b741-4733-8382-2090a49c6bc3","system_id":"levelo_inurba_marseille","lat":43.26032,"lon":5.37557,"is_reserved":false,"is_disabled":false,"rental_uris":{"android":"levelo://app?vid=00a34eda-b741-4733-8382-2090a49c6bc3","ios":"levelo://app?vid=00a34eda-b741-4733-8382-2090a49c6bc3"},"vehicle_type_id":"4","last_reported":1729340171,"current_range_meters":38400,"station_id":"ce4bhgh2rcd13ifvqfa0","pricing_plan_id":"cebpf4jnsgd1na2vs0mg"},{"bike_id":"9b78167b-ae5a-47c9-9d1b-58b45505fd1c","system_id":"levelo_inurba_marseille","lat":43.24178,"lon":5.36397,"is_reserved":false,"is_disabled":false,"rental_uris":{"android":"levelo://app?vid=9b78167b-ae5a-47c9-9d1b-58b45505fd1c","ios":"levelo://app?vid=9b78167b-ae5a-47c9-9d1b-58b45505fd1c"},"vehicle_type_id":"4","last_reported":1729340171,"current_range_meters":36000,"station_id":"cpo36qri1sfpv3e86is0","pricing_plan_id":"cebpf4jnsgd1na2vs0mg"},{"bike_id":"589736d7-d7a2-4baa-9463-0a77084b962d","system_id":"levelo_inurba_marseille","lat":43.30429,"lon":5.39752,"is_reserved":false,"is_disabled":false,"rental_uris":{"android":"levelo://app?vid=589736d7-d7a2-4baa-9463-0a77084b962d","ios":"levelo://app?vid=589736d7-d7a2-4baa-9463-0a77084b962d"},"vehicle_type_id":"4","last_reported":1729340171,"current_range_meters":38800,"station_id":"ce4bh092rcd13ifvqd20","pricing_plan_id":"cebpf4jnsgd1na2vs0mg"},{"bike_id":"15dd3ef0-8d6f-4e1b-b24e-920ada6eaf79","system_id":"levelo_inurba_marseille","lat":43.29625,"lon":5.37159,"is_reserved":false,"is_disabled":false,"rental_uris":{"android":"levelo://app?vid=15dd3ef0-8d6f-4e1b-b24e-920ada6eaf79","ios":"levelo://app?vid=15dd3ef0-8d6f-4e1b-b24e-920ada6eaf79"},"vehicle_type_id":"4","last_reported":1729340171,"current_range_meters":38800,"station_id":"ce4bgnh2rcd13ifvqc0g","pricing_plan_id":"cebpf4jnsgd1na2vs0mg"},{"bike_id":"e26ba063-c3e8-4946-8496-4868d116874d","system_id":"levelo_inurba_marseille","lat":43.27071,"lon":5.40263,"is_reserved":false,"is_disabled":false,"rental_uris":{"android":"levelo://app?vid=e26ba063-c3e8-4946-8496-4868d116874d","ios":"levelo://app?vid=e26ba063-c3e8-4946-8496-4868d116874d"},"vehicle_type_id":"4","last_reported":1729340171,"current_range_meters":33200,"station_id":"ce4bhk92rcd13ifvqgc0","pricing_plan_id":"cebpf4jnsgd1na2vs0mg"},{"bike_id":"4abd684e-2272-4a73-b8da-11dc8d30d8d5","system_id":"levelo_inurba_marseille","lat":43.25581,"lon":5.38232,"is_reserved":false,"is_disabled":false,"rental_uris":{"android":"levelo://app?vid=4abd684e-2272-4a73-b8da-11dc8d30d8d5","ios":"levelo://app?vid=4abd684e-2272-4a73-b8da-11dc8d30d8d5"},"vehicle_type_id":"4","last_reported":1729340171,"current_range_meters":36800,"station_id":"ce4bhih2rcd13ifvqfs0","pricing_plan_id":"cebpf4jnsgd1na2vs0mg"},{"bike_id":"c8fa6f39-e07d-463d-8d01-7ccf9e86f944","system_id":"levelo_inurba_marseille","lat":43.23196,"lon":5.35544,"is_reserved":false,"is_disabled":false,"rental_uris":{"android":"levelo://app?vid=c8fa6f39-e07d-463d-8d01-7ccf9e86f944","ios":"levelo://app?vid=c8fa6f39-e07d-463d-8d01-7ccf9e86f944"},"vehicle_type_id":"4","last_reported":1729340171,"current_range_meters":17600,"station_id":"ce4bhu92rcd13ifvqi70","pricing_plan_id":"cebpf4jnsgd1na2vs0mg"},{"bike_id":"6e099ce7-6b7d-45fb-9ad5-e5f3d80e03f1","system_id":"levelo_inurba_marseille","lat":43.23967,"lon":5.36639,"is_reserved":false,"is_disabled":false,"rental_uris":{"android":"levelo://app?vid=6e099ce7-6b7d-45fb-9ad5-e5f3d80e03f1","ios":"levelo://app?vid=6e099ce7-6b7d-45fb-9ad5-e5f3d80e03f1"},"vehicle_type_id":"4","last_reported":1729340171,"current_range_meters":18000,"station_id":"ce4bhi12rcd13ifvqfp0","pricing_plan_id":"cebpf4jnsgd1na2vs0mg"},{"bike_id":"e3c7990c-b1b9-48f2-b75b-b000808b508a","system_id":"levelo_inurba_marseille","lat":43.23066,"lon":5.35493,"is_reserved":false,"is_disabled":false,"rental_uris":{"android":"levelo://app?vid=e3c7990c-b1b9-48f2-b75b-b000808b508a","ios":"levelo://app?vid=e3c7990c-b1b9-48f2-b75b-b000808b508a"},"vehicle_type_id":"4","last_reported":1729340171,"current_range_meters":9200,"station_id":"cpo3342slgdg3j2ifvpg","pricing_plan_id":"cebpf4jnsgd1na2vs0mg"},{"bike_id":"d7b40986-aa28-4ff5-be88-55e0c45f4894","system_id":"levelo_inurba_marseille","lat":43.26568,"lon":5.39015,"is_reserved":false,"is_disabled":false,"rental_uris":{"android":"levelo://app?vid=d7b40986-aa28-4ff5-be88-55e0c45f4894","ios":"levelo://app?vid=d7b40986-aa28-4ff5-be88-55e0c45f4894"},"vehicle_type_id":"4","last_reported":1729340171,"current_range_meters":20400,"station_id":"ce4bhe12rcd13ifvqf30","pricing_plan_id":"cebpf4jnsgd1na2vs0mg"},{"bike_id":"55da0be4-477c-412d-8cc0-7664c7a8f564","system_id":"levelo_inurba_marseille","lat":43.29564,"lon":5.37513,"is_reserved":false,"is_disabled":false,"rental_uris":{"android":"levelo://app?vid=55da0be4-477c-412d-8cc0-7664c7a8f564","ios":"levelo://app?vid=55da0be4-477c-412d-8cc0-7664c7a8f564"},"vehicle_type_id":"4","last_reported":1729340171,"current_range_meters":38800,"station_id":"ce4bgh92rcd13ifvqb50","pricing_plan_id":"cebpf4jnsgd1na2vs0mg"},{"bike_id":"58e168b1-fded-400b-a274-ded80cf69f5e","system_id":"levelo_inurba_marseille","lat":43.25007,"lon":5.3894,"is_reserved":false,"is_disabled":false,"rental_uris":{"android":"levelo://app?vid=58e168b1-fded-400b-a274-ded80cf69f5e","ios":"levelo://app?vid=58e168b1-fded-400b-a274-ded80cf69f5e"},"vehicle_type_id":"4","last_reported":1729340171,"current_range_meters":28000,"station_id":"ce4bhgp2rcd13ifvqfd0","pricing_plan_id":"cebpf4jnsgd1na2vs0mg"},{"bike_id":"181dc10c-732d-4fba-a8dc-058f32ea4f92","system_id":"levelo_inurba_marseille","lat":43.295774,"lon":5.375439,"is_reserved":false,"is_disabled":false,"rental_uris":{"android":"levelo://app?vid=181dc10c-732d-4fba-a8dc-058f32ea4f92","ios":"levelo://app?vid=181dc10c-732d-4fba-a8dc-058f32ea4f92"},"vehicle_type_id":"4","last_reported":1729340171,"current_range_meters":12800,"station_id":"ce4bgh92rcd13ifvqb50","pricing_plan_id":"cebpf4jnsgd1na2vs0mg"},{"bike_id":"681ed7e2-7c90-4e4a-892a-67adc5d5a6bf","system_id":"levelo_inurba_marseille","lat":43.2397,"lon":5.36632,"is_reserved":false,"is_disabled":false,"rental_uris":{"android":"levelo://app?vid=681ed7e2-7c90-4e4a-892a-67adc5d5a6bf","ios":"levelo://app?vid=681ed7e2-7c90-4e4a-892a-67adc5d5a6bf"},"vehicle_type_id":"4","last_reported":1729340171,"current_range_meters":35600,"station_id":"ce4bhi12rcd13ifvqfp0","pricing_plan_id":"cebpf4jnsgd1na2vs0mg"},{"bike_id":"cfacd117-3021-4950-b1b1-2aed9cc3872e","system_id":"levelo_inurba_marseille","lat":43.31076,"lon":5.40092,"is_reserved":false,"is_disabled":false,"rental_uris":{"android":"levelo://app?vid=cfacd117-3021-4950-b1b1-2aed9cc3872e","ios":"levelo://app?vid=cfacd117-3021-4950-b1b1-2aed9cc3872e"},"vehicle_type_id":"4","last_reported":1729340171,"current_range_meters":38800,"station_id":"ce4bgt12rcd13ifvqcd0","pricing_plan_id":"cebpf4jnsgd1na2vs0mg"},{"bike_id":"bb201a76-5e4c-406e-9718-135eabf9a243","system_id":"levelo_inurba_marseille","lat":43.25717,"lon":5.41113,"is_reserved":false,"is_disabled":false,"rental_uris":{"android":"levelo://app?vid=bb201a76-5e4c-406e-9718-135eabf9a243","ios":"levelo://app?vid=bb201a76-5e4c-406e-9718-135eabf9a243"},"vehicle_type_id":"4","last_reported":1729340171,"current_range_meters":38800,"station_id":"ce4bhkp2rcd13ifvqgd0","pricing_plan_id":"cebpf4jnsgd1na2vs0mg"},{"bike_id":"261badcb-0fa4-4fd9-bc78-8f27c90b9d21","system_id":"levelo_inurba_marseille","lat":43.29299,"lon":5.37454,"is_reserved":false,"is_disabled":false,"rental_uris":{"android":"levelo://app?vid=261badcb-0fa4-4fd9-bc78-8f27c90b9d21","ios":"levelo://app?vid=261badcb-0fa4-4fd9-bc78-8f27c90b9d21"},"vehicle_type_id":"4","last_reported":1729340171,"current_range_meters":32000,"station_id":"ce4bgi12rcd13ifvqb70","pricing_plan_id":"cebpf4jnsgd1na2vs0mg"},{"bike_id":"ec3d8e44-be89-410c-9b26-8a5094cefeb5","system_id":"levelo_inurba_marseille","lat":43.28415,"lon":5.34992,"is_reserved":false,"is_disabled":false,"rental_uris":{"android":"levelo://app?vid=ec3d8e44-be89-410c-9b26-8a5094cefeb5","ios":"levelo://app?vid=ec3d8e44-be89-410c-9b26-8a5094cefeb5"},"vehicle_type_id":"4","last_reported":1729340171,"current_range_meters":27600,"station_id":"ce4bhbh2rcd13ifvqepg","pricing_plan_id":"cebpf4jnsgd1na2vs0mg"},{"bike_id":"e2d60292-1064-4746-8bbf-a121c51733d5","system_id":"levelo_inurba_marseille","lat":43.3054,"lon":5.36535,"is_reserved":false,"is_disabled":false,"rental_uris":{"android":"levelo://app?vid=e2d60292-1064-4746-8bbf-a121c51733d5","ios":"levelo://app?vid=e2d60292-1064-4746-8bbf-a121c51733d5"},"vehicle_type_id":"4","last_reported":1729340171,"current_range_meters":36000,"station_id":"ce4bgs12rcd13ifvqcag","pricing_plan_id":"cebpf4jnsgd1na2vs0mg"},{"bike_id":"9d58dbd8-6654-4faa-8b9a-f1ce593ba85e","system_id":"levelo_inurba_marseille","lat":43.22934,"lon":5.35377,"is_reserved":false,"is_disabled":false,"rental_uris":{"android":"levelo://app?vid=9d58dbd8-6654-4faa-8b9a-f1ce593ba85e","ios":"levelo://app?vid=9d58dbd8-6654-4faa-8b9a-f1ce593ba85e"},