{"last_updated":1746717075,"ttl":60,"version":"2.2","data":{"bikes":[{"bike_id":"adaa0e7e-58ae-4105-ba0c-3484481cf2e0","system_id":"levelo_inurba_marseille","lat":43.25498,"lon":5.37647,"is_reserved":false,"is_disabled":false,"rental_uris":{"android":"levelo://app?vid=adaa0e7e-58ae-4105-ba0c-3484481cf2e0","ios":"levelo://app?vid=adaa0e7e-58ae-4105-ba0c-3484481cf2e0"},"vehicle_type_id":"4","last_reported":1746717075,"current_range_meters":2800,"station_id":"ce4bhh12rcd13ifvqff0","pricing_plan_id":"cebpf4jnsgd1na2vs0mg"},{"bike_id":"2dccd135-2ae4-4cf5-b05d-7be33dca489a","system_id":"levelo_inurba_marseille","lat":43.3122,"lon":5.36865,"is_reserved":false,"is_disabled":false,"rental_uris":{"android":"levelo://app?vid=2dccd135-2ae4-4cf5-b05d-7be33dca489a","ios":"levelo://app?vid=2dccd135-2ae4-4cf5-b05d-7be33dca489a"},"vehicle_type_id":"4","last_reported":1746717075,"current_range_meters":2800,"station_id":"ce4bgl92rcd13ifvqbq0","pricing_plan_id":"cebpf4jnsgd1na2vs0mg"},{"bike_id":"738529e1-bc3e-4a8a-83d6-9d578d031368","system_id":"levelo_inurba_marseille","lat":43.31076,"lon":5.38358,"is_reserved":false,"is_disabled":false,"rental_uris":{"android":"levelo://app?vid=738529e1-bc3e-4a8a-83d6-9d578d031368","ios":"levelo://app?vid=738529e1-bc3e-4a8a-83d6-9d578d031368"},"vehicle_type_id":"4","last_reported":1746717075,"current_range_meters":2800,"station_id":"ce4bgv92rcd13ifvqcr0","pricing_plan_id":"cebpf4jnsgd1na2vs0mg"},{"bike_id":"58b138fa-bed4-457e-b174-932a8f54aa88","system_id":"levelo_inurba_marseille","lat":43.30884,"lon":5.39649,"is_reserved":false,"is_disabled":false,"rental_uris":{"android":"levelo://app?vid=58b138fa-bed4-457e-b174-932a8f54aa88","ios":"levelo://app?vid=58b138fa-bed4-457e-b174-932a8f54aa88"},"vehicle_type_id":"4","last_reported":1746717075,"current_range_meters":2800,"station_id":"ce4bh012rcd13ifvqcv0","pricing_plan_id":"cebpf4jnsgd1na2vs0mg"},{"bike_id":"d8b93ad3-8f99-449d-94e2-94190a23da0f","system_id":"levelo_inurba_marseille","lat":43.26544,"lon":5.37265,"is_reserved":false,"is_disabled":false,"rental_uris":{"android":"levelo://app?vid=d8b93ad3-8f99-449d-94e2-94190a23da0f","ios":"levelo://app?vid=d8b93ad3-8f99-449d-94e2-94190a23da0f"},"vehicle_type_id":"4","last_reported":1746717075,"current_range_meters":2800,"station_id":"ce4bhg12rcd13ifvqf70","pricing_plan_id":"cebpf4jnsgd1na2vs0mg"},{"bike_id":"99d8786b-0736-4ab7-9641-8af44010695b","system_id":"levelo_inurba_marseille","lat":43.22511,"lon":5.34797,"is_reserved":false,"is_disabled":false,"rental_uris":{"android":"levelo://app?vid=99d8786b-0736-4ab7-9641-8af44010695b","ios":"levelo://app?vid=99d8786b-0736-4ab7-9641-8af44010695b"},"vehicle_type_id":"4","last_reported":1746717075,"current_range_meters":3200,"station_id":"st_cvj5dfep6f1abm77gieg","pricing_plan_id":"cebpf4jnsgd1na2vs0mg"},{"bike_id":"8ec5f109-f4c2-4e39-91c4-605ef54f8d90","system_id":"levelo_inurba_marseille","lat":43.27213,"lon":5.39182,"is_reserved":false,"is_disabled":false,"rental_uris":{"android":"levelo://app?vid=8ec5f109-f4c2-4e39-91c4-605ef54f8d90","ios":"levelo://app?vid=8ec5f109-f4c2-4e39-91c4-605ef54f8d90"},"vehicle_type_id":"4","last_reported":1746717075,"current_range_meters":3200,"station_id":"ce4bhhp2rcd13ifvqfm0","pricing_plan_id":"cebpf4jnsgd1na2vs0mg"},{"bike_id":"970decbc-5866-47ed-837a-610ac3e56094","system_id":"levelo_inurba_marseille","lat":43.23965,"lon":5.36634,"is_reserved":false,"is_disabled":false,"rental_uris":{"android":"levelo://app?vid=970decbc-5866-47ed-837a-610ac3e56094","ios":"levelo://app?vid=970decbc-5866-47ed-837a-610ac3e56094"},"vehicle_type_id":"4","last_reported":1746717075,"current_range_meters":3200,"station_id":"ce4bhi12rcd13ifvqfp0","pricing_plan_id":"cebpf4jnsgd1na2vs0mg"},{"bike_id":"9e0c05f6-d785-4f0b-bed3-7fbf18cfa918","system_id":"levelo_inurba_marseille","lat":43.2306,"lon":5.35495,"is_reserved":false,"is_disabled":false,"rental_uris":{"android":"levelo://app?vid=9e0c05f6-d785-4f0b-bed3-7fbf18cfa918","ios":"levelo://app?vid=9e0c05f6-d785-4f0b-bed3-7fbf18cfa918"},"vehicle_type_id":"4","last_reported":1746717075,"current_range_meters":3600,"station_id":"cpo3342slgdg3j2ifvpg","pricing_plan_id":"cebpf4jnsgd1na2vs0mg"},{"bike_id":"4e65a77f-ff20-40c0-afbc-76ff46dd7c2e","system_id":"levelo_inurba_marseille","lat":43.30551,"lon":5.367191,"is_reserved":false,"is_disabled":false,"rental_uris":{"android":"levelo://app?vid=4e65a77f-ff20-40c0-afbc-76ff46dd7c2e","ios":"levelo://app?vid=4e65a77f-ff20-40c0-afbc-76ff46dd7c2e"},"vehicle_type_id":"4","last_reported":1746717075,"current_range_meters":3600,"station_id":"ce4bgrp2rcd13ifvqc9g","pricing_plan_id":"cebpf4jnsgd1na2vs0mg"},{"bike_id":"079c99a4-7418-4cb1-afbb-08dcaf06cce4","system_id":"levelo_inurba_marseille","lat":43.31073,"lon":5.3836,"is_reserved":false,"is_disabled":false,"rental_uris":{"android":"levelo://app?vid=079c99a4-7418-4cb1-afbb-08dcaf06cce4","ios":"levelo://app?vid=079c99a4-7418-4cb1-afbb-08dcaf06cce4"},"vehicle_type_id":"4","last_reported":1746717075,"current_range_meters":3600,"station_id":"ce4bgv92rcd13ifvqcr0","pricing_plan_id":"cebpf4jnsgd1na2vs0mg"},{"bike_id":"7682a6da-f9cc-4636-9610-377926e01dae","system_id":"levelo_inurba_marseille","lat":43.24387,"lon":5.37053,"is_reserved":false,"is_disabled":false,"rental_uris":{"android":"levelo://app?vid=7682a6da-f9cc-4636-9610-377926e01dae","ios":"levelo://app?vid=7682a6da-f9cc-4636-9610-377926e01dae"},"vehicle_type_id":"4","last_reported":1746717075,"current_range_meters":3600,"station_id":"ce4bhhh2rcd13ifvqfk0","pricing_plan_id":"cebpf4jnsgd1na2vs0mg"},{"bike_id":"98f16fac-05e5-493b-adfa-d0beec6d06f3","system_id":"levelo_inurba_marseille","lat":43.27052,"lon":5.4026,"is_reserved":false,"is_disabled":false,"rental_uris":{"android":"levelo://app?vid=98f16fac-05e5-493b-adfa-d0beec6d06f3","ios":"levelo://app?vid=98f16fac-05e5-493b-adfa-d0beec6d06f3"},"vehicle_type_id":"4","last_reported":1746717075,"current_range_meters":3600,"station_id":"ce4bhk92rcd13ifvqgc0","pricing_plan_id":"cebpf4jnsgd1na2vs0mg"},{"bike_id":"6c6ce8f5-d982-4bb4-94e9-70f69f5d684c","system_id":"levelo_inurba_marseille","lat":43.25505,"lon":5.37649,"is_reserved":false,"is_disabled":false,"rental_uris":{"android":"levelo://app?vid=6c6ce8f5-d982-4bb4-94e9-70f69f5d684c","ios":"levelo://app?vid=6c6ce8f5-d982-4bb4-94e9-70f69f5d684c"},"vehicle_type_id":"4","last_reported":1746717075,"current_range_meters":4000,"station_id":"ce4bhh12rcd13ifvqff0","pricing_plan_id":"cebpf4jnsgd1na2vs0mg"},{"bike_id":"340ffa76-4c68-4c6d-8bfe-286cd95963f8","system_id":"levelo_inurba_marseille","lat":43.30789,"lon":5.37634,"is_reserved":false,"is_disabled":false,"rental_uris":{"android":"levelo://app?vid=340ffa76-4c68-4c6d-8bfe-286cd95963f8","ios":"levelo://app?vid=340ffa76-4c68-4c6d-8bfe-286cd95963f8"},"vehicle_type_id":"4","last_reported":1746717075,"current_range_meters":4000,"station_id":"ce4bgv92rcd13ifvqcq0","pricing_plan_id":"cebpf4jnsgd1na2vs0mg"},{"bike_id":"33e4696d-947f-446b-a9db-57142eb12aaf","system_id":"levelo_inurba_marseille","lat":43.24392,"lon":5.37053,"is_reserved":false,"is_disabled":false,"rental_uris":{"android":"levelo://app?vid=33e4696d-947f-446b-a9db-57142eb12aaf","ios":"levelo://app?vid=33e4696d-947f-446b-a9db-57142eb12aaf"},"vehicle_type_id":"4","last_reported":1746717075,"current_range_meters":4000,"station_id":"ce4bhhh2rcd13ifvqfk0","pricing_plan_id":"cebpf4jnsgd1na2vs0mg"},{"bike_id":"ab4b5ef9-36cd-4aa2-a6d1-5871bcc19196","system_id":"levelo_inurba_marseille","lat":43.23195,"lon":5.35545,"is_reserved":false,"is_disabled":false,"rental_uris":{"android":"levelo://app?vid=ab4b5ef9-36cd-4aa2-a6d1-5871bcc19196","ios":"levelo://app?vid=ab4b5ef9-36cd-4aa2-a6d1-5871bcc19196"},"vehicle_type_id":"4","last_reported":1746717075,"current_range_meters":4000,"station_id":"ce4bhu92rcd13ifvqi70","pricing_plan_id":"cebpf4jnsgd1na2vs0mg"},{"bike_id":"d5ededb1-63c7-4d09-90ef-5cd6b8d6194b","system_id":"levelo_inurba_marseille","lat":43.289734,"lon":5.378336,"is_reserved":false,"is_disabled":false,"rental_uris":{"android":"levelo://app?vid=d5ededb1-63c7-4d09-90ef-5cd6b8d6194b","ios":"levelo://app?vid=d5ededb1-63c7-4d09-90ef-5cd6b8d6194b"},"vehicle_type_id":"4","last_reported":1746717075,"current_range_meters":4400,"station_id":"ce4bh9p2rcd13ifvqed0","pricing_plan_id":"cebpf4jnsgd1na2vs0mg"},{"bike_id":"6479441d-df06-4e6c-90dd-8f68e22f9914","system_id":"levelo_inurba_marseille","lat":43.308,"lon":5.3816,"is_reserved":false,"is_disabled":false,"rental_uris":{"android":"levelo://app?vid=6479441d-df06-4e6c-90dd-8f68e22f9914","ios":"levelo://app?vid=6479441d-df06-4e6c-90dd-8f68e22f9914"},"vehicle_type_id":"4","last_reported":1746717075,"current_range_meters":4400,"station_id":"ce4bgt12rcd13ifvqce0","pricing_plan_id":"cebpf4jnsgd1na2vs0mg"},{"bike_id":"7dbc02cb-7a87-4ab3-8570-1796f6c41377","system_id":"levelo_inurba_marseille","lat":43.32341,"lon":5.406187,"is_reserved":false,"is_disabled":false,"rental_uris":{"android":"levelo://app?vid=7dbc02cb-7a87-4ab3-8570-1796f6c41377","ios":"levelo://app?vid=7dbc02cb-7a87-4ab3-8570-1796f6c41377"},"vehicle_type_id":"4","last_reported":1746717075,"current_range_meters":4400,"station_id":"ce4bhq92rcd13ifvqhjg","pricing_plan_id":"cebpf4jnsgd1na2vs0mg"},{"bike_id":"32738374-33ee-4725-b4e6-0521acc4b463","system_id":"levelo_inurba_marseille","lat":43.31688,"lon":5.404728,"is_reserved":false,"is_disabled":false,"rental_uris":{"android":"levelo://app?vid=32738374-33ee-4725-b4e6-0521acc4b463","ios":"levelo://app?vid=32738374-33ee-4725-b4e6-0521acc4b463"},"vehicle_type_id":"4","last_reported":1746717075,"current_range_meters":4400,"station_id":"ce4bh012rcd13ifvqd00","pricing_plan_id":"cebpf4jnsgd1na2vs0mg"},{"bike_id":"3d5111ea-b74a-4169-8c4b-7cc0805c74f4","system_id":"levelo_inurba_marseille","lat":43.25861,"lon":5.39915,"is_reserved":false,"is_disabled":false,"rental_uris":{"android":"levelo://app?vid=3d5111ea-b74a-4169-8c4b-7cc0805c74f4","ios":"levelo://app?vid=3d5111ea-b74a-4169-8c4b-7cc0805c74f4"},"vehicle_type_id":"4","last_reported":1746717075,"current_range_meters":4800,"station_id":"ce4bhl92rcd13ifvqghg","pricing_plan_id":"cebpf4jnsgd1na2vs0mg"},{"bike_id":"75bdf197-3553-4b11-8d30-3b8335b8da47","system_id":"levelo_inurba_marseille","lat":43.278067,"lon":5.407257,"is_reserved":false,"is_disabled":false,"rental_uris":{"android":"levelo://app?vid=75bdf197-3553-4b11-8d30-3b8335b8da47","ios":"levelo://app?vid=75bdf197-3553-4b11-8d30-3b8335b8da47"},"vehicle_type_id":"4","last_reported":1746717075,"current_range_meters":4800,"station_id":"ce4bhnh2rcd13ifvqgtg","pricing_plan_id":"cebpf4jnsgd1na2vs0mg"},{"bike_id":"066ea5c2-63c5-4b8f-89b8-4c0dc9ccfa09","system_id":"levelo_inurba_marseille","lat":43.25121,"lon":5.40317,"is_reserved":false,"is_disabled":false,"rental_uris":{"android":"levelo://app?vid=066ea5c2-63c5-4b8f-89b8-4c0dc9ccfa09","ios":"levelo://app?vid=066ea5c2-63c5-4b8f-89b8-4c0dc9ccfa09"},"vehicle_type_id":"4","last_reported":1746717075,"current_range_meters":4800,"station_id":"ce4bhlh2rcd13ifvqgig","pricing_plan_id":"cebpf4jnsgd1na2vs0mg"},{"bike_id":"df0748bb-640f-4347-93eb-1e786799da7b","system_id":"levelo_inurba_marseille","lat":43.29169,"lon":5.37166,"is_reserved":false,"is_disabled":false,"rental_uris":{"android":"levelo://app?vid=df0748bb-640f-4347-93eb-1e786799da7b","ios":"levelo://app?vid=df0748bb-640f-4347-93eb-1e786799da7b"},"vehicle_type_id":"4","last_reported":1746717075,"current_range_meters":4800,"station_id":"ce4bha92rcd13ifvqeh0","pricing_plan_id":"cebpf4jnsgd1na2vs0mg"},{"bike_id":"1e1f2e9c-4ebb-4291-83e1-d52c159a5eed","system_id":"levelo_inurba_marseille","lat":43.25498,"lon":5.37655,"is_reserved":false,"is_disabled":false,"rental_uris":{"android":"levelo://app?vid=1e1f2e9c-4ebb-4291-83e1-d52c159a5eed","ios":"levelo://app?vid=1e1f2e9c-4ebb-4291-83e1-d52c159a5eed"},"vehicle_type_id":"4","last_reported":1746717075,"current_range_meters":4800,"station_id":"ce4bhh12rcd13ifvqff0","pricing_plan_id":"cebpf4jnsgd1na2vs0mg"},{"bike_id":"562c1d6d-490a-4dc0-88e8-4f30c42e8dc5","system_id":"levelo_inurba_marseille","lat":43.30148,"lon":5.38055,"is_reserved":false,"is_disabled":false,"rental_uris":{"android":"levelo://app?vid=562c1d6d-490a-4dc0-88e8-4f30c42e8dc5","ios":"levelo://app?vid=562c1d6d-490a-4dc0-88e8-4f30c42e8dc5"},"vehicle_type_id":"4","last_reported":1746717075,"current_range_meters":5600,"station_id":"ce4bgjp2rcd13ifvqbh0","pricing_plan_id":"cebpf4jnsgd1na2vs0mg"},{"bike_id":"713a6ffb-1a76-4509-8a1a-4d05c0ccdde7","system_id":"levelo_inurba_marseille","lat":43.29884,"lon":5.38897,"is_reserved":false,"is_disabled":false,"rental_uris":{"android":"levelo://app?vid=713a6ffb-1a76-4509-8a1a-4d05c0ccdde7","ios":"levelo://app?vid=713a6ffb-1a76-4509-8a1a-4d05c0ccdde7"},"vehicle_type_id":"4","last_reported":1746717075,"current_range_meters":4800,"station_id":"ce4bh392rcd13ifvqdl0","pricing_plan_id":"cebpf4jnsgd1na2vs0mg"},{"bike_id":"4543d321-ae29-4bfa-af91-d536eafb064b","system_id":"levelo_inurba_marseille","lat":43.24807,"lon":5.37453,"is_reserved":false,"is_disabled":false,"rental_uris":{"android":"levelo://app?vid=4543d321-ae29-4bfa-af91-d536eafb064b","ios":"levelo://app?vid=4543d321-ae29-4bfa-af91-d536eafb064b"},"vehicle_type_id":"4","last_reported":1746717075,"current_range_meters":5600,"station_id":"ce4bhgh2rcd13ifvqfb0","pricing_plan_id":"cebpf4jnsgd1na2vs0mg"},{"bike_id":"2a9843a2-1e68-457f-a2ba-3baa7a23fd7e","system_id":"levelo_inurba_marseille","lat":43.294032,"lon":5.38618,"is_reserved":false,"is_disabled":false,"rental_uris":{"android":"levelo://app?vid=2a9843a2-1e68-457f-a2ba-3baa7a23fd7e","ios":"levelo://app?vid=2a9843a2-1e68-457f-a2ba-3baa7a23fd7e"},"vehicle_type_id":"4","last_reported":1746717075,"current_range_meters":6000,"station_id":"ce4bh2h2rcd13ifvqdh0","pricing_plan_id":"cebpf4jnsgd1na2vs0mg"},{"bike_id":"3bad184a-1567-45eb-bc31-e7ea1f0e01fc","system_id":"levelo_inurba_marseille","lat":43.2293,"lon":5.35382,"is_reserved":false,"is_disabled":false,"rental_uris":{"android":"levelo://app?vid=3bad184a-1567-45eb-bc31-e7ea1f0e01fc","ios":"levelo://app?vid=3bad184a-1567-45eb-bc31-e7ea1f0e01fc"},"vehicle_type_id":"4","last_reported":1746717075,"current_range_meters":6000,"station_id":"cpo3532slgdg3j2ikp40","pricing_plan_id":"cebpf4jnsgd1na2vs0mg"},{"bike_id":"ac0a125e-16ab-429b-9fc9-a4c2920d8694","system_id":"levelo_inurba_marseille","lat":43.24171,"lon":5.364,"is_reserved":false,"is_disabled":false,"rental_uris":{"android":"levelo://app?vid=ac0a125e-16ab-429b-9fc9-a4c2920d8694","ios":"levelo://app?vid=ac0a125e-16ab-429b-9fc9-a4c2920d8694"},"vehicle_type_id":"4","last_reported":1746717075,"current_range_meters":6000,"station_id":"cpo36qri1sfpv3e86is0","pricing_plan_id":"cebpf4jnsgd1na2vs0mg"},{"bike_id":"728e0f5e-306f-4c8b-bcc9-92d729ba1ec7","system_id":"levelo_inurba_marseille","lat":43.305298,"lon":5.365453,"is_reserved":false,"is_disabled":false,"rental_uris":{"android":"levelo://app?vid=728e0f5e-306f-4c8b-bcc9-92d729ba1ec7","ios":"levelo://app?vid=728e0f5e-306f-4c8b-bcc9-92d729ba1ec7"},"vehicle_type_id":"4","last_reported":1746717075,"current_range_meters":6000,"station_id":"ce4bgs12rcd13ifvqcag","pricing_plan_id":"cebpf4jnsgd1na2vs0mg"},{"bike_id":"d9de9e8b-0a86-4f76-9c92-027ebf2f7abc","system_id":"levelo_inurba_marseille","lat":43.26207,"lon":5.37449,"is_reserved":false,"is_disabled":false,"rental_uris":{"android":"levelo://app?vid=d9de9e8b-0a86-4f76-9c92-027ebf2f7abc","ios":"levelo://app?vid=d9de9e8b-0a86-4f76-9c92-027ebf2f7abc"},"vehicle_type_id":"4","last_reported":1746717075,"current_range_meters":6000,"station_id":"ce4bhgp2rcd13ifvqfc0","pricing_plan_id":"cebpf4jnsgd1na2vs0mg"},{"bike_id":"0205c6c8-588c-44b5-9154-26e8c2a479b8","system_id":"levelo_inurba_marseille","lat":43.32357,"lon":5.3891,"is_reserved":false,"is_disabled":false,"rental_uris":{"android":"levelo://app?vid=0205c6c8-588c-44b5-9154-26e8c2a479b8","ios":"levelo://app?vid=0205c6c8-588c-44b5-9154-26e8c2a479b8"},"vehicle_type_id":"4","last_reported":1746717075,"current_range_meters":6400,"station_id":"ce4bhqp2rcd13ifvqhog","pricing_plan_id":"cebpf4jnsgd1na2vs0mg"},{"bike_id":"5d97afa3-75c8-4720-9690-7157f6b19de8","system_id":"levelo_inurba_marseille","lat":43.336088,"lon":5.410126,"is_reserved":false,"is_disabled":false,"rental_uris":{"android":"levelo://app?vid=5d97afa3-75c8-4720-9690-7157f6b19de8","ios":"levelo://app?vid=5d97afa3-75c8-4720-9690-7157f6b19de8"},"vehicle_type_id":"4","last_reported":1746717075,"current_range_meters":6400,"station_id":"ce4bhqh2rcd13ifvqhmg","pricing_plan_id":"cebpf4jnsgd1na2vs0mg"},{"bike_id":"1971c632-e561-4210-8df4-82612d469944","system_id":"levelo_inurba_marseille","lat":43.30326,"lon":5.36898,"is_reserved":false,"is_disabled":false,"rental_uris":{"android":"levelo://app?vid=1971c632-e561-4210-8df4-82612d469944","ios":"levelo://app?vid=1971c632-e561-4210-8df4-82612d469944"},"vehicle_type_id":"4","last_reported":1746717075,"current_range_meters":6400,"station_id":"ce4bgqh2rcd13ifvqc5g","pricing_plan_id":"cebpf4jnsgd1na2vs0mg"},{"bike_id":"f4b79634-b31a-4232-a4c0-5a5d5b4af11b","system_id":"levelo_inurba_marseille","lat":43.28461,"lon":5.35883,"is_reserved":false,"is_disabled":false,"rental_uris":{"android":"levelo://app?vid=f4b79634-b31a-4232-a4c0-5a5d5b4af11b","ios":"levelo://app?vid=f4b79634-b31a-4232-a4c0-5a5d5b4af11b"},"vehicle_type_id":"4","last_reported":1746717075,"current_range_meters":6400,"station_id":"ce4bhah2rcd13ifvqei0","pricing_plan_id":"cebpf4jnsgd1na2vs0mg"},{"bike_id":"684de07d-eea9-4c15-8fef-f047cef2d4ad","system_id":"levelo_inurba_marseille","lat":43.302484,"lon":5.400634,"is_reserved":false,"is_disabled":false,"rental_uris":{"android":"levelo://app?vid=684de07d-eea9-4c15-8fef-f047cef2d4ad","ios":"levelo://app?vid=684de07d-eea9-4c15-8fef-f047cef2d4ad"},"vehicle_type_id":"4","last_reported":1746717075,"current_range_meters":6400,"station_id":"ce4bgvh2rcd13ifvqcs0","pricing_plan_id":"cebpf4jnsgd1na2vs0mg"},{"bike_id":"53e80a07-8554-4f3b-bdb4-877fee873667","system_id":"levelo_inurba_marseille","lat":43.26554,"lon":5.37283,"is_reserved":false,"is_disabled":false,"rental_uris":{"android":"levelo://app?vid=53e80a07-8554-4f3b-bdb4-877fee873667","ios":"levelo://app?vid=53e80a07-8554-4f3b-bdb4-877fee873667"},"vehicle_type_id":"4","last_reported":1746717075,"current_range_meters":6400,"station_id":"ce4bhg12rcd13ifvqf70","pricing_plan_id":"cebpf4jnsgd1na2vs0mg"},{"bike_id":"45290445-0b65-4095-96e3-fbe8839b3550","system_id":"levelo_inurba_marseille","lat":43.26029,"lon":5.37558,"is_reserved":false,"is_disabled":false,"rental_uris":{"android":"levelo://app?vid=45290445-0b65-4095-96e3-fbe8839b3550","ios":"levelo://app?vid=45290445-0b65-4095-96e3-fbe8839b3550"},"vehicle_type_id":"4","last_reported":1746717075,"current_range_meters":6400,"station_id":"ce4bhgh2rcd13ifvqfa0","pricing_plan_id":"cebpf4jnsgd1na2vs0mg"},{"bike_id":"be6e53a2-b67b-4166-9087-31483004ffa7","system_id":"levelo_inurba_marseille","lat":43.2175,"lon":5.34611,"is_reserved":false,"is_disabled":false,"rental_uris":{"android":"levelo://app?vid=be6e53a2-b67b-4166-9087-31483004ffa7","ios":"levelo://app?vid=be6e53a2-b67b-4166-9087-31483004ffa7"},"vehicle_type_id":"4","last_reported":1746717075,"current_range_meters":6400,"station_id":"st_cvj6r9ubvosntc0bgbag","pricing_plan_id":"cebpf4jnsgd1na2vs0mg"},{"bike_id":"4e8ae6fe-d8f8-45e9-8083-3fd579025ba4","system_id":"levelo_inurba_marseille","lat":43.25587,"lon":5.3823,"is_reserved":false,"is_disabled":false,"rental_uris":{"android":"levelo://app?vid=4e8ae6fe-d8f8-45e9-8083-3fd579025ba4","ios":"levelo://app?vid=4e8ae6fe-d8f8-45e9-8083-3fd579025ba4"},"vehicle_type_id":"4","last_reported":1746717075,"current_range_meters":6800,"station_id":"ce4bhih2rcd13ifvqfs0","pricing_plan_id":"cebpf4jnsgd1na2vs0mg"},{"bike_id":"7a008132-5454-4d42-a1a2-d6d563501b6d","system_id":"levelo_inurba_marseille","lat":43.30427,"lon":5.38885,"is_reserved":false,"is_disabled":false,"rental_uris":{"android":"levelo://app?vid=7a008132-5454-4d42-a1a2-d6d563501b6d","ios":"levelo://app?vid=7a008132-5454-4d42-a1a2-d6d563501b6d"},"vehicle_type_id":"4","last_reported":1746717075,"current_range_meters":6800,"station_id":"ce4bgk12rcd13ifvqbi0","pricing_plan_id":"cebpf4jnsgd1na2vs0mg"},{"bike_id":"4089fe9f-378f-4cbd-8ec6-572a5515a37c","system_id":"levelo_inurba_marseille","lat":43.27662,"lon":5.38898,"is_reserved":false,"is_disabled":false,"rental_uris":{"android":"levelo://app?vid=4089fe9f-378f-4cbd-8ec6-572a5515a37c","ios":"levelo://app?vid=4089fe9f-378f-4cbd-8ec6-572a5515a37c"},"vehicle_type_id":"4","last_reported":1746717075,"current_range_meters":6800,"station_id":"ce4bhi12rcd13ifvqfo0","pricing_plan_id":"cebpf4jnsgd1na2vs0mg"},{"bike_id":"899e16d4-1958-4aa4-8699-a2304f841afc","system_id":"levelo_inurba_marseille","lat":43.26569,"lon":5.39013,"is_reserved":false,"is_disabled":false,"rental_uris":{"android":"levelo://app?vid=899e16d4-1958-4aa4-8699-a2304f841afc","ios":"levelo://app?vid=899e16d4-1958-4aa4-8699-a2304f841afc"},"vehicle_type_id":"4","last_reported":1746717075,"current_range_meters":6800,"station_id":"ce4bhe12rcd13ifvqf30","pricing_plan_id":"cebpf4jnsgd1na2vs0mg"},{"bike_id":"a297e50c-bb28-4d8d-97f5-57738833cd8f","system_id":"levelo_inurba_marseille","lat":43.225,"lon":5.34786,"is_reserved":false,"is_disabled":false,"rental_uris":{"android":"levelo://app?vid=a297e50c-bb28-4d8d-97f5-57738833cd8f","ios":"levelo://app?vid=a297e50c-bb28-4d8d-97f5-57738833cd8f"},"vehicle_type_id":"4","last_reported":1746717075,"current_range_meters":6800,"station_id":"st_cvj5dfep6f1abm77gieg","pricing_plan_id":"cebpf4jnsgd1na2vs0mg"},{"bike_id":"b7bdbe3a-b7ec-4256-908f-dfa71835a5d1","system_id":"levelo_inurba_marseille","lat":43.29167,"lon":5.38105,"is_reserved":false,"is_disabled":false,"rental_uris":{"android":"levelo://app?vid=b7bdbe3a-b7ec-4256-908f-dfa71835a5d1","ios":"levelo://app?vid=b7bdbe3a-b7ec-4256-908f-dfa71835a5d1"},"vehicle_type_id":"4","last_reported":1746717075,"current_range_meters":6800,"station_id":"","pricing_plan_id":"cebpf4jnsgd1na2vs0mg"},{"bike_id":"be3a2ed9-e107-46dc-8066-89cfcff50847","system_id":"levelo_inurba_marseille","lat":43.292324,"lon":5.371213,"is_reserved":false,"is_disabled":false,"rental_uris":{"android":"levelo://app?vid=be3a2ed9-e107-46dc-8066-89cfcff50847","ios":"levelo://app?vid=be3a2ed9-e107-46dc-8066-89cfcff50847"},"vehicle_type_id":"4","last_reported":1746717075,"current_range_meters":7200,"station_id":"","pricing_plan_id":"cebpf4jnsgd1na2vs0mg"},{"bike_id":"17f17364-db18-4d21-8946-99187d5ee34e","system_id":"levelo_inurba_marseille","lat":43.32367,"lon":5.38888,"is_reserved":false,"is_disabled":false,"rental_uris":{"android":"levelo://app?vid=17f17364-db18-4d21-8946-99187d5ee34e","ios":"levelo://app?vid=17f17364-db18-4d21-8946-99187d5ee34e"},"vehicle_type_id":"4","last_reported":1746717075,"current_range_meters":7200,"station_id":"ce4bhqp2rcd13ifvqhog","pricing_plan_id":"cebpf4jnsgd1na2vs0mg"},{"bike_id":"b4a9ca2f-3ddd-4e05-822a-9eeddc068c28","system_id":"levelo_inurba_marseille","lat":43.26219,"lon":5.37442,"is_reserved":false,"is_disabled":false,"rental_uris":{"android":"levelo://app?vid=b4a9ca2f-3ddd-4e05-822a-9eeddc068c28","ios":"levelo://app?vid=b4a9ca2f-3ddd-4e05-822a-9eeddc068c28"},"vehicle_type_id":"4","last_reported":1746717075,"current_range_meters":7200,"station_id":"ce4bhgp2rcd13ifvqfc0","pricing_plan_id":"cebpf4jnsgd1na2vs0mg"},{"bike_id":"ffaf7abf-4cb1-4866-ac3c-102e314cafc8","system_id":"levelo_inurba_marseille","lat":43.24232,"lon":5.39702,"is_reserved":false,"is_disabled":false,"rental_uris":{"android":"levelo://app?vid=ffaf7abf-4cb1-4866-ac3c-102e314cafc8","ios":"levelo://app?vid=ffaf7abf-4cb1-4866-ac3c-102e314cafc8"},"vehicle_type_id":"4","last_reported":1746717075,"current_range_meters":7200,"station_id":"ce4bhn12rcd13ifvqgpg","pricing_plan_id":"cebpf4jnsgd1na2vs0mg"},{"bike_id":"7f529777-5e2c-49fa-beb7-5051edacc316","system_id":"levelo_inurba_marseille","lat":43.25508,"lon":5.37646,"is_reserved":false,"is_disabled":false,"rental_uris":{"android":"levelo://app?vid=7f529777-5e2c-49fa-beb7-5051edacc316","ios":"levelo://app?vid=7f529777-5e2c-49fa-beb7-5051edacc316"},"vehicle_type_id":"4","last_reported":1746717075,"current_range_meters":7200,"station_id":"ce4bhh12rcd13ifvqff0","pricing_plan_id":"cebpf4jnsgd1na2vs0mg"},{"bike_id":"5d4a344a-71c5-411e-ad16-d7f6bd0232b3","system_id":"levelo_inurba_marseille","lat":43.30149,"lon":5.38061,"is_reserved":false,"is_disabled":false,"rental_uris":{"android":"levelo://app?vid=5d4a344a-71c5-411e-ad16-d7f6bd0232b3","ios":"levelo://app?vid=5d4a344a-71c5-411e-ad16-d7f6bd0232b3"},"vehicle_type_id":"4","last_reported":1746717075,"current_range_meters":7200,"station_id":"ce4bgjp2rcd13ifvqbh0","pricing_plan_id":"cebpf4jnsgd1na2vs0mg"},{"bike_id":"37af0b7c-1bcf-440e-8b2e-0b807267dc69","system_id":"levelo_inurba_marseille","lat":43.3021,"lon":5.39462,"is_reserved":false,"is_disabled":false,"rental_uris":{"android":"levelo://app?vid=37af0b7c-1bcf-440e-8b2e-0b807267dc69","ios":"levelo://app?vid=37af0b7c-1bcf-440e-8b2e-0b807267dc69"},"vehicle_type_id":"4","last_reported":1746717075,"current_range_meters":8000,"station_id":"ce4bh0p2rcd13ifvqd70","pricing_plan_id":"cebpf4jnsgd1na2vs0mg"},{"bike_id":"896d3462-4257-48d2-a1bc-723f0dd22e77","system_id":"levelo_inurba_marseille","lat":43.24454,"lon":5.37089,"is_reserved":false,"is_disabled":false,"rental_uris":{"android":"levelo://app?vid=896d3462-4257-48d2-a1bc-723f0dd22e77","ios":"levelo://app?vid=896d3462-4257-48d2-a1bc-723f0dd22e77"},"vehicle_type_id":"4","last_reported":1746717075,"current_range_meters":8000,"station_id":"ce4bhhh2rcd13ifvqfk0","pricing_plan_id":"cebpf4jnsgd1na2vs0mg"},{"bike_id":"5498d4de-ebb7-467b-b540-4f8e4167a171","system_id":"levelo_inurba_marseille","lat":43.27973,"lon":5.38755,"is_reserved":false,"is_disabled":false,"rental_uris":{"android":"levelo://app?vid=5498d4de-ebb7-467b-b540-4f8e4167a171","ios":"levelo://app?vid=5498d4de-ebb7-467b-b540-4f8e4167a171"},"vehicle_type_id":"4","last_reported":1746717075,"current_range_meters":8000,"station_id":"ce4bhg12rcd13ifvqf80","pricing_plan_id":"cebpf4jnsgd1na2vs0mg"},{"bike_id":"4ae7a83c-4508-4420-bdfc-fc011c19b67a","system_id":"levelo_inurba_marseille","lat":43.337699,"lon":5.374899,"is_reserved":false,"is_disabled":false,"rental_uris":{"android":"levelo://app?vid=4ae7a83c-4508-4420-bdfc-fc011c19b67a","ios":"levelo://app?vid=4ae7a83c-4508-4420-bdfc-fc011c19b67a"},"vehicle_type_id":"4","last_reported":1746717075,"current_range_meters":8000,"station_id":"","pricing_plan_id":"cebpf4jnsgd1na2vs0mg"},{"bike_id":"b6949c3b-07ea-4cc2-a89a-10877333494b","system_id":"levelo_inurba_marseille","lat":43.24173,"lon":5.3972,"is_reserved":false,"is_disabled":false,"rental_uris":{"android":"levelo://app?vid=b6949c3b-07ea-4cc2-a89a-10877333494b","ios":"levelo://app?vid=b6949c3b-07ea-4cc2-a89a-10877333494b"},"vehicle_type_id":"4","last_reported":1746717075,"current_range_meters":8000,"station_id":"ce4bhn12rcd13ifvqgpg","pricing_plan_id":"cebpf4jnsgd1na2vs0mg"},{"bike_id":"a3253472-aa8c-49f2-8a6e-e3ac874bc347","system_id":"levelo_inurba_marseille","lat":43.2622,"lon":5.37469,"is_reserved":false,"is_disabled":false,"rental_uris":{"android":"levelo://app?vid=a3253472-aa8c-49f2-8a6e-e3ac874bc347","ios":"levelo://app?vid=a3253472-aa8c-49f2-8a6e-e3ac874bc347"},"vehicle_type_id":"4","last_reported":1746717075,"current_range_meters":8000,"station_id":"ce4bhgp2rcd13ifvqfc0","pricing_plan_id":"cebpf4jnsgd1na2vs0mg"},{"bike_id":"c91b378d-26a5-4ed8-99d4-6b3ec43dd75e","system_id":"levelo_inurba_marseille","lat":43.24085,"lon":5.3775,"is_reserved":false,"is_disabled":false,"rental_uris":{"android":"levelo://app?vid=c91b378d-26a5-4ed8-99d4-6b3ec43dd75e","ios":"levelo://app?vid=c91b378d-26a5-4ed8-99d4-6b3ec43dd75e"},"vehicle_type_id":"4","last_reported":1746717075,"current_range_meters":8400,"station_id":"ce4bhnp2rcd13ifvqgvg","pricing_plan_id":"cebpf4jnsgd1na2vs0mg"},{"bike_id":"80fb3476-eda5-4d1c-bbdb-0797f2ba1fde","system_id":"levelo_inurba_marseille","lat":43.23193,"lon":5.35561,"is_reserved":false,"is_disabled":false,"rental_uris":{"android":"levelo://app?vid=80fb3476-eda5-4d1c-bbdb-0797f2ba1fde","ios":"levelo://app?vid=80fb3476-eda5-4d1c-bbdb-0797f2ba1fde"},"vehicle_type_id":"4","last_reported":1746717075,"current_range_meters":8400,"station_id":"ce4bhu92rcd13ifvqi70","pricing_plan_id":"cebpf4jnsgd1na2vs0mg"},{"bike_id":"2ee4131b-edec-46f9-8ab9-a74cadde7129","system_id":"levelo_inurba_marseille","lat":43.28619,"lon":5.35104,"is_reserved":false,"is_disabled":false,"rental_uris":{"android":"levelo://app?vid=2ee4131b-edec-46f9-8ab9-a74cadde7129","ios":"levelo://app?vid=2ee4131b-edec-46f9-8ab9-a74cadde7129"},"vehicle_type_id":"4","last_reported":1746717075,"current_range_meters":8400,"station_id":"ce4bhch2rcd13ifvqeug","pricing_plan_id":"cebpf4jnsgd1na2vs0mg"},{"bike_id":"e8210ff2-e981-43f1-9be4-9b9887ce43ec","system_id":"levelo_inurba_marseille","lat":43.2318,"lon":5.39983,"is_reserved":false,"is_disabled":false,"rental_uris":{"android":"levelo://app?vid=e8210ff2-e981-43f1-9be4-9b9887ce43ec","ios":"levelo://app?vid=e8210ff2-e981-43f1-9be4-9b9887ce43ec"},"vehicle_type_id":"4","last_reported":1746717075,"current_range_meters":8400,"station_id":"ce4bhn12rcd13ifvqgqg","pricing_plan_id":"cebpf4jnsgd1na2vs0mg"},{"bike_id":"6d4731a4-3ee4-40ca-9214-2054ade18fad","system_id":"levelo_inurba_marseille","lat":43.23154,"lon":5.4371,"is_reserved":false,"is_disabled":false,"rental_uris":{"android":"levelo://app?vid=6d4731a4-3ee4-40ca-9214-2054ade18fad","ios":"levelo://app?vid=6d4731a4-3ee4-40ca-9214-2054ade18fad"},"vehicle_type_id":"4","last_reported":1746717075,"current_range_meters":8000,"station_id":"ce4bhmp2rcd13ifvqgog","pricing_plan_id":"cebpf4jnsgd1na2vs0mg"},{"bike_id":"e2415b0b-0897-4baf-b85b-c7243cc158c2","system_id":"levelo_inurba_marseille","lat":43.23199,"lon":5.35555,"is_reserved":false,"is_disabled":false,"rental_uris":{"android":"levelo://app?vid=e2415b0b-0897-4baf-b85b-c7243cc158c2","ios":"levelo://app?vid=e2415b0b-0897-4baf-b85b-c7243cc158c2"},"vehicle_type_id":"4","last_reported":1746717075,"current_range_meters":8400,"station_id":"ce4bhu92rcd13ifvqi70","pricing_plan_id":"cebpf4jnsgd1na2vs0mg"},{"bike_id":"a67c00d2-a554-466c-b52e-2b15a5298d5a","system_id":"levelo_inurba_marseille","lat":43.27051,"lon":5.40273,"is_reserved":false,"is_disabled":false,"rental_uris":{"android":"levelo://app?vid=a67c00d2-a554-466c-b52e-2b15a5298d5a","ios":"levelo://app?vid=a67c00d2-a554-466c-b52e-2b15a5298d5a"},"vehicle_type_id":"4","last_reported":1746717075,"current_range_meters":8400,"station_id":"ce4bhk92rcd13ifvqgc0","pricing_plan_id":"cebpf4jnsgd1na2vs0mg"},{"bike_id":"f88dc960-0280-4bbc-9fff-0b39ab98601d","system_id":"levelo_inurba_marseille","lat":43.21754,"lon":5.34602,"is_reserved":false,"is_disabled":false,"rental_uris":{"android":"levelo://app?vid=f88dc960-0280-4bbc-9fff-0b39ab98601d","ios":"levelo://app?vid=f88dc960-0280-4bbc-9fff-0b39ab98601d"},"vehicle_type_id":"4","last_reported":1746717075,"current_range_meters":8400,"station_id":"st_cvj6r9ubvosntc0bgbag","pricing_plan_id":"cebpf4jnsgd1na2vs0mg"},{"bike_id":"ac9382c7-2654-44fa-9d47-4a716e36c0a7","system_id":"levelo_inurba_marseille","lat":43.25501,"lon":5.37649,"is_reserved":false,"is_disabled":false,"rental_uris":{"android":"levelo://app?vid=ac9382c7-2654-44fa-9d47-4a716e36c0a7","ios":"levelo://app?vid=ac9382c7-2654-44fa-9d47-4a716e36c0a7"},"vehicle_type_id":"4","last_reported":1746717075,"current_range_meters":8400,"station_id":"ce4bhh12rcd13ifvqff0","pricing_plan_id":"cebpf4jnsgd1na2vs0mg"},{"bike_id":"532fcb99-9b66-4e12-869e-4ed1234a0354","system_id":"levelo_inurba_marseille","lat":43.26217,"lon":5.37439,"is_reserved":false,"is_disabled":false,"rental_uris":{"android":"levelo://app?vid=532fcb99-9b66-4e12-869e-4ed1234a0354","ios":"levelo://app?vid=532fcb99-9b66-4e12-869e-4ed1234a0354"},"vehicle_type_id":"4","last_reported":1746717075,"current_range_meters":8400,"station_id":"ce4bhgp2rcd13ifvqfc0","pricing_plan_id":"cebpf4jnsgd1na2vs0mg"},{"bike_id":"ab7947bc-0393-4a38-89f7-a1bfa4e1156b","system_id":"levelo_inurba_marseille","lat":43.28003,"lon":5.41664,"is_reserved":false,"is_disabled":false,"rental_uris":{"android":"levelo://app?vid=ab7947bc-0393-4a38-89f7-a1bfa4e1156b","ios":"levelo://app?vid=ab7947bc-0393-4a38-89f7-a1bfa4e1156b"},"vehicle_type_id":"4","last_reported":1746717075,"current_range_meters":8400,"station_id":"ce4bho12rcd13ifvqh1g","pricing_plan_id":"cebpf4jnsgd1na2vs0mg"},{"bike_id":"f9a18cc8-84cc-40d0-a893-f64e3b92541a","system_id":"levelo_inurba_marseille","lat":43.27498,"lon":5.42446,"is_reserved":false,"is_disabled":false,"rental_uris":{"android":"levelo://app?vid=f9a18cc8-84cc-40d0-a893-f64e3b92541a","ios":"levelo://app?vid=f9a18cc8-84cc-40d0-a893-f64e3b92541a"},"vehicle_type_id":"4","last_reported":1746717075,"current_range_meters":8400,"station_id":"ce4bhn92rcd13ifvqgrg","pricing_plan_id":"cebpf4jnsgd1na2vs0mg"},{"bike_id":"481c477f-5285-4df6-bf62-57efd836465f","system_id":"levelo_inurba_marseille","lat":43.26208,"lon":5.37437,"is_reserved":false,"is_disabled":false,"rental_uris":{"android":"levelo://app?vid=481c477f-5285-4df6-bf62-57efd836465f","ios":"levelo://app?vid=481c477f-5285-4df6-bf62-57efd836465f"},"vehicle_type_id":"4","last_reported":1746717075,"current_range_meters":8800,"station_id":"ce4bhgp2rcd13ifvqfc0","pricing_plan_id":"cebpf4jnsgd1na2vs0mg"},{"bike_id":"b15fe93b-1059-4d75-abd3-040e349ce402","system_id":"levelo_inurba_marseille","lat":43.301069,"lon":5.370024,"is_reserved":false,"is_disabled":false,"rental_uris":{"android":"levelo://app?vid=b15fe93b-1059-4d75-abd3-040e349ce402","ios":"levelo://app?vid=b15fe93b-1059-4d75-abd3-040e349ce402"},"vehicle_type_id":"4","last_reported":1746717075,"current_range_meters":8800,"station_id":"","pricing_plan_id":"cebpf4jnsgd1na2vs0mg"},{"bike_id":"49aeed96-b4c0-4de1-bdaf-528bae097161","system_id":"levelo_inurba_marseille","lat":43.30152,"lon":5.38091,"is_reserved":false,"is_disabled":false,"rental_uris":{"android":"levelo://app?vid=49aeed96-b4c0-4de1-bdaf-528bae097161","ios":"levelo://app?vid=49aeed96-b4c0-4de1-bdaf-528bae097161"},"vehicle_type_id":"4","last_reported":1746717075,"current_range_meters":8800,"station_id":"ce4bgjp2rcd13ifvqbh0","pricing_plan_id":"cebpf4jnsgd1na2vs0mg"},{"bike_id":"be3162ee-fe78-4201-aa49-ff9b4d8dd847","system_id":"levelo_inurba_marseille","lat":43.289376,"lon":5.36634,"is_reserved":false,"is_disabled":false,"rental_uris":{"android":"levelo://app?vid=be3162ee-fe78-4201-aa49-ff9b4d8dd847","ios":"levelo://app?vid=be3162ee-fe78-4201-aa49-ff9b4d8dd847"},"vehicle_type_id":"4","last_reported":1746717075,"current_range_meters":8800,"station_id":"ce4bhap2rcd13ifvqek0","pricing_plan_id":"cebpf4jnsgd1na2vs0mg"},{"bike_id":"3c9e0277-4a5e-4786-b059-2a23499fe974","system_id":"levelo_inurba_marseille","lat":43.27664,"lon":5.38895,"is_reserved":false,"is_disabled":false,"rental_uris":{"android":"levelo://app?vid=3c9e0277-4a5e-4786-b059-2a23499fe974","ios":"levelo://app?vid=3c9e0277-4a5e-4786-b059-2a23499fe974"},"vehicle_type_id":"4","last_reported":1746717075,"current_range_meters":9200,"station_id":"ce4bhi12rcd13ifvqfo0","pricing_plan_id":"cebpf4jnsgd1na2vs0mg"},{"bike_id":"1b34466f-a118-46f6-a5f5-227f007ae3a7","system_id":"levelo_inurba_marseille","lat":43.23196,"lon":5.35547,"is_reserved":false,"is_disabled":false,"rental_uris":{"android":"levelo://app?vid=1b34466f-a118-46f6-a5f5-227f007ae3a7","ios":"levelo://app?vid=1b34466f-a118-46f6-a5f5-227f007ae3a7"},"vehicle_type_id":"4","last_reported":1746717075,"current_range_meters":9200,"station_id":"ce4bhu92rcd13ifvqi70","pricing_plan_id":"cebpf4jnsgd1na2vs0mg"},{"bike_id":"aecc2400-6f65-4a59-ae54-f262d7ba9f6c","system_id":"levelo_inurba_marseille","lat":43.2558,"lon":5.38248,"is_reserved":false,"is_disabled":false,"rental_uris":{"android":"levelo://app?vid=aecc2400-6f65-4a59-ae54-f262d7ba9f6c","ios":"levelo://app?vid=aecc2400-6f65-4a59-ae54-f262d7ba9f6c"},"vehicle_type_id":"4","last_reported":1746717075,"current_range_meters":9200,"station_id":"ce4bhih2rcd13ifvqfs0","pricing_plan_id":"cebpf4jnsgd1na2vs0mg"},{"bike_id":"570450de-6567-42e5-b64c-4e705e1f7676","system_id":"levelo_inurba_marseille","lat":43.25578,"lon":5.38249,"is_reserved":false,"is_disabled":false,"rental_uris":{"android":"levelo://app?vid=570450de-6567-42e5-b64c-4e705e1f7676","ios":"levelo://app?vid=570450de-6567-42e5-b64c-4e705e1f7676"},"vehicle_type_id":"4","last_reported":1746717075,"current_range_meters":9200,"station_id":"ce4bhih2rcd13ifvqfs0","pricing_plan_id":"cebpf4jnsgd1na2vs0mg"},{"bike_id":"1ee05219-9f0a-4ead-b504-15dda5b1d660","system_id":"levelo_inurba_marseille","lat":43.24643,"lon":5.38916,"is_reserved":false,"is_disabled":false,"rental_uris":{"android":"levelo://app?vid=1ee05219-9f0a-4ead-b504-15dda5b1d660","ios":"levelo://app?vid=1ee05219-9f0a-4ead-b504-15dda5b1d660"},"vehicle_type_id":"4","last_reported":1746717075,"current_range_meters":9200,"station_id":"ce4bhg12rcd13ifvqf60","pricing_plan_id":"cebpf4jnsgd1na2vs0mg"},{"bike_id":"6ff203b3-a063-4640-927b-d7fc0bce4622","system_id":"levelo_inurba_marseille","lat":43.30306,"lon":5.36897,"is_reserved":false,"is_disabled":false,"rental_uris":{"android":"levelo://app?vid=6ff203b3-a063-4640-927b-d7fc0bce4622","ios":"levelo://app?vid=6ff203b3-a063-4640-927b-d7fc0bce4622"},"vehicle_type_id":"4","last_reported":1746717075,"current_range_meters":9200,"station_id":"ce4bgqh2rcd13ifvqc5g","pricing_plan_id":"cebpf4jnsgd1na2vs0mg"},{"bike_id":"18d4e7d3-3d7d-4957-873f-b0ebdedec3d2","system_id":"levelo_inurba_marseille","lat":43.29254,"lon":5.40911,"is_reserved":false,"is_disabled":false,"rental_uris":{"android":"levelo://app?vid=18d4e7d3-3d7d-4957-873f-b0ebdedec3d2","ios":"levelo://app?vid=18d4e7d3-3d7d-4957-873f-b0ebdedec3d2"},"vehicle_type_id":"4","last_reported":1746717075,"current_range_meters":9200,"station_id":"ce4bh192rcd13ifvqdc0","pricing_plan_id":"cebpf4jnsgd1na2vs0mg"},{"bike_id":"c908759f-edbe-4c07-bb2b-50b5cd8a6a88","system_id":"levelo_inurba_marseille","lat":43.22942,"lon":5.35366,"is_reserved":false,"is_disabled":false,"rental_uris":{"android":"levelo://app?vid=c908759f-edbe-4c07-bb2b-50b5cd8a6a88","ios":"levelo://app?vid=c908759f-edbe-4c07-bb2b-50b5cd8a6a88"},"vehicle_type_id":"4","last_reported":1746717075,"current_range_meters":9600,"station_id":"cpo3532slgdg3j2ikp40","pricing_plan_id":"cebpf4jnsgd1na2vs0mg"},{"bike_id":"c204b5bc-ad65-442c-baa2-c3408fdd6b09","system_id":"levelo_inurba_marseille","lat":43.2985,"lon":5.36286,"is_reserved":false,"is_disabled":false,"rental_uris":{"android":"levelo://app?vid=c204b5bc-ad65-442c-baa2-c3408fdd6b09","ios":"levelo://app?vid=c204b5bc-ad65-442c-baa2-c3408fdd6b09"},"vehicle_type_id":"4","last_reported":1746717075,"current_range_meters":9600,"station_id":"ce4bgpp2rcd13ifvqc3g","pricing_plan_id":"cebpf4jnsgd1na2vs0mg"},{"bike_id":"1ab5f547-7d97-4ac1-b183-ec494c8c27be","system_id":"levelo_inurba_marseille","lat":43.261987,"lon":5.374447,"is_reserved":false,"is_disabled":false,"rental_uris":{"android":"levelo://app?vid=1ab5f547-7d97-4ac1-b183-ec494c8c27be","ios":"levelo://app?vid=1ab5f547-7d97-4ac1-b183-ec494c8c27be"},"vehicle_type_id":"4","last_reported":1746717075,"current_range_meters":9600,"station_id":"ce4bhgp2rcd13ifvqfc0","pricing_plan_id":"cebpf4jnsgd1na2vs0mg"},{"bike_id":"a0e908f4-c115-47b2-a144-71158c8a1595","system_id":"levelo_inurba_marseille","lat":43.29204,"lon":5.39319,"is_reserved":false,"is_disabled":false,"rental_uris":{"android":"levelo://app?vid=a0e908f4-c115-47b2-a144-71158c8a1595","ios":"levelo://app?vid=a0e908f4-c115-47b2-a144-71158c8a1595"},"vehicle_type_id":"4","last_reported":1746717075,"current_range_meters":9600,"station_id":"ce4bh192rcd13ifvqdd0","pricing_plan_id":"cebpf4jnsgd1na2vs0mg"},{"bike_id":"84e7f3a2-aec7-4966-b486-a481551cd986","system_id":"levelo_inurba_marseille","lat":43.26033,"lon":5.375605,"is_reserved":false,"is_disabled":false,"rental_uris":{"android":"levelo://app?vid=84e7f3a2-aec7-4966-b486-a481551cd986","ios":"levelo://app?vid=84e7f3a2-aec7-4966-b486-a481551cd986"},"vehicle_type_id":"4","last_reported":1746717075,"current_range_meters":9600,"station_id":"ce4bhgh2rcd13ifvqfa0","pricing_plan_id":"cebpf4jnsgd1na2vs0mg"},{"bike_id":"15db2739-4c1b-475d-85ff-787f38877ecb","system_id":"levelo_inurba_marseille","lat":43.292605,"lon":5.384436,"is_reserved":false,"is_disabled":false,"rental_uris":{"android":"levelo://app?vid=15db2739-4c1b-475d-85ff-787f38877ecb","ios":"levelo://app?vid=15db2739-4c1b-475d-85ff-787f38877ecb"},"vehicle_type_id":"4","last_reported":1746717075,"current_range_meters":9600,"station_id":"ce4bhe12rcd13ifvqf30","pricing_plan_id":"cebpf4jnsgd1na2vs0mg"},{"bike_id":"56f6c96d-8015-47c6-91fc-9c46aac8ffb9","system_id":"levelo_inurba_marseille","lat":43.274858,"lon":5.424592,"is_reserved":false,"is_disabled":false,"rental_uris":{"android":"levelo://app?vid=56f6c96d-8015-47c6-91fc-9c46aac8ffb9","ios":"levelo://app?vid=56f6c96d-8015-47c6-91fc-9c46aac8ffb9"},"vehicle_type_id":"4","last_reported":1746717075,"current_range_meters":10000,"station_id":"ce4bhn92rcd13ifvqgrg","pricing_plan_id":"cebpf4jnsgd1na2vs0mg"},{"bike_id":"71440146-749b-45aa-879b-6e9b7c581612","system_id":"levelo_inurba_marseille","lat":43.31361,"lon":5.38493,"is_reserved":false,"is_disabled":false,"rental_uris":{"android":"levelo://app?vid=71440146-749b-45aa-879b-6e9b7c581612","ios":"levelo://app?vid=71440146-749b-45aa-879b-6e9b7c581612"},"vehicle_type_id":"4","last_reported":1746717075,"current_range_meters":10000,"station_id":"ce4bgt92rcd13ifvqcf0","pricing_plan_id":"cebpf4jnsgd1na2vs0mg"},{"bike_id":"fa47acfa-9927-45fa-b592-38454388907b","system_id":"levelo_inurba_marseille","lat":43.2306,"lon":5.35489,"is_reserved":false,"is_disabled":false,"rental_uris":{"android":"levelo://app?vid=fa47acfa-9927-45fa-b592-38454388907b","ios":"levelo://app?vid=fa47acfa-9927-45fa-b592-38454388907b"},"vehicle_type_id":"4","last_reported":1746717075,"current_range_meters":10000,"station_id":"cpo3342slgdg3j2ifvpg","pricing_plan_id":"cebpf4jnsgd1na2vs0mg"},{"bike_id":"97b3074e-3b94-4ff8-b9ad-ebbbe0d09d2d","system_id":"levelo_inurba_marseille","lat":43.25499,"lon":5.37658,"is_reserved":false,"is_disabled":false,"rental_uris":{"android":"levelo://app?vid=97b3074e-3b94-4ff8-b9ad-ebbbe0d09d2d","ios":"levelo://app?vid=97b3074e-3b94-4ff8-b9ad-ebbbe0d09d2d"},"vehicle_type_id":"4","last_reported":1746717075,"current_range_meters":10000,"station_id":"ce4bhh12rcd13ifvqff0","pricing_plan_id":"cebpf4jnsgd1na2vs0mg"},{"bike_id":"cf4a8c84-2720-4f9f-a32e-4364ee183de0","system_id":"levelo_inurba_marseille","lat":43.28417,"lon":5.34977,"is_reserved":false,"is_disabled":false,"rental_uris":{"android":"levelo://app?vid=cf4a8c84-2720-4f9f-a32e-4364ee183de0","ios":"levelo://app?vid=cf4a8c84-2720-4f9f-a32e-4364ee183de0"},"vehicle_type_id":"4","last_reported":1746717075,"current_range_meters":10800,"station_id":"ce4bhbh2rcd13ifvqepg","pricing_plan_id":"cebpf4jnsgd1na2vs0mg"},{"bike_id":"d589250f-9b68-409e-9aca-1c92c3993155","system_id":"levelo_inurba_marseille","lat":43.24071,"lon":5.37753,"is_reserved":false,"is_disabled":false,"rental_uris":{"android":"levelo://app?vid=d589250f-9b68-409e-9aca-1c92c3993155","ios":"levelo://app?vid=d589250f-9b68-409e-9aca-1c92c3993155"},"vehicle_type_id":"4","last_reported":1746717075,"current_range_meters":10800,"station_id":"ce4bhnp2rcd13ifvqgvg","pricing_plan_id":"cebpf4jnsgd1na2vs0mg"},{"bike_id":"31f79961-ef7d-43a7-836f-5186f737d09b","system_id":"levelo_inurba_marseille","lat":43.28269,"lon":5.35093,"is_reserved":false,"is_disabled":false,"rental_uris":{"android":"levelo://app?vid=31f79961-ef7d-43a7-836f-5186f737d09b","ios":"levelo://app?vid=31f79961-ef7d-43a7-836f-5186f737d09b"},"vehicle_type_id":"4","last_reported":1746717075,"current_range_meters":10800,"station_id":"ce4bhbp2rcd13ifvqerg","pricing_plan_id":"cebpf4jnsgd1na2vs0mg"},{"bike_id":"d6cf14d0-8800-445b-923b-789d35cbb2a4","system_id":"levelo_inurba_marseille","lat":43.31281,"lon":5.40174,"is_reserved":false,"is_disabled":false,"rental_uris":{"android":"levelo://app?vid=d6cf14d0-8800-445b-923b-789d35cbb2a4","ios":"levelo://app?vid=d6cf14d0-8800-445b-923b-789d35cbb2a4"},"vehicle_type_id":"4","last_reported":1746717075,"current_range_meters":10000,"station_id":"ce4bh092rcd13ifvqd30","pricing_plan_id":"cebpf4jnsgd1na2vs0mg"},{"bike_id":"b993bfc3-7b06-4f3c-acf1-d5ff0d7234ba","system_id":"levelo_inurba_marseille","lat":43.21751,"lon":5.34617,"is_reserved":false,"is_disabled":false,"rental_uris":{"android":"levelo://app?vid=b993bfc3-7b06-4f3c-acf1-d5ff0d7234ba","ios":"levelo://app?vid=b993bfc3-7b06-4f3c-acf1-d5ff0d7234ba"},"vehicle_type_id":"4","last_reported":1746717075,"current_range_meters":11200,"station_id":"st_cvj6r9ubvosntc0bgbag","pricing_plan_id":"cebpf4jnsgd1na2vs0mg"},{"bike_id":"3f2a7bbc-7eba-4322-887b-52f423dda887","system_id":"levelo_inurba_marseille","lat":43.268052,"lon":5.402673,"is_reserved":false,"is_disabled":false,"rental_uris":{"android":"levelo://app?vid=3f2a7bbc-7eba-4322-887b-52f423dda887","ios":"levelo://app?vid=3f2a7bbc-7eba-4322-887b-52f423dda887"},"vehicle_type_id":"4","last_reported":1746717075,"current_range_meters":11600,"station_id":"ce501612rcd8frsf0b60","pricing_plan_id":"cebpf4jnsgd1na2vs0mg"},{"bike_id":"0cc4c5b6-30ce-4cee-9a91-39e4ac7c5115","system_id":"levelo_inurba_marseille","lat":43.2826,"lon":5.35061,"is_reserved":false,"is_disabled":false,"rental_uris":{"android":"levelo://app?vid=0cc4c5b6-30ce-4cee-9a91-39e4ac7c5115","ios":"levelo://app?vid=0cc4c5b6-30ce-4cee-9a91-39e4ac7c5115"},"vehicle_type_id":"4","last_reported":1746717075,"current_range_meters":11600,"station_id":"ce4bhbp2rcd13ifvqerg","pricing_plan_id":"cebpf4jnsgd1na2vs0mg"},{"bike_id":"809c8673-c032-46b9-aa07-62c38e26d44e","system_id":"levelo_inurba_marseille","lat":43.25075,"lon":5.38794,"is_reserved":false,"is_disabled":false,"rental_uris":{"android":"levelo://app?vid=809c8673-c032-46b9-aa07-62c38e26d44e","ios":"levelo://app?vid=809c8673-c032-46b9-aa07-62c38e26d44e"},"vehicle_type_id":"4","last_reported":1746717075,"current_range_meters":12000,"station_id":"","pricing_plan_id":"cebpf4jnsgd1na2vs0mg"},{"bike_id":"9131a33b-22f0-491f-87b4-5ae9b863d98a","system_id":"levelo_inurba_marseille","lat":43.28719,"lon":5.3793,"is_reserved":false,"is_disabled":false,"rental_uris":{"android":"levelo://app?vid=9131a33b-22f0-491f-87b4-5ae9b863d98a","ios":"levelo://app?vid=9131a33b-22f0-491f-87b4-5ae9b863d98a"},"vehicle_type_id":"4","last_reported":1746717075,"current_range_meters":12000,"station_id":"ce4bh9p2rcd13ifvqec0","pricing_plan_id":"cebpf4jnsgd1na2vs0mg"},{"bike_id":"d3cb0d8b-b80a-4ee7-aedc-68f3d0d60064","system_id":"levelo_inurba_marseille","lat":43.29264,"lon":5.37641,"is_reserved":false,"is_disabled":false,"rental_uris":{"android":"levelo://app?vid=d3cb0d8b-b80a-4ee7-aedc-68f3d0d60064","ios":"levelo://app?vid=d3cb0d8b-b80a-4ee7-aedc-68f3d0d60064"},"vehicle_type_id":"4","last_reported":1746717075,"current_range_meters":12400,"station_id":"ce4bgi12rcd13ifvqb80","pricing_plan_id":"cebpf4jnsgd1na2vs0mg"},{"bike_id":"e8e6db53-ddaf-46e4-bfa7-876afadf284e","system_id":"levelo_inurba_marseille","lat":43.29966,"lon":5.41322,"is_reserved":false,"is_disabled":false,"rental_uris":{"android":"levelo://app?vid=e8e6db53-ddaf-46e4-bfa7-876afadf284e","ios":"levelo://app?vid=e8e6db53-ddaf-46e4-bfa7-876afadf284e"},"vehicle_type_id":"4","last_reported":1746717075,"current_range_meters":12400,"station_id":"ce4bhp12rcd13ifvqh9g","pricing_plan_id":"cebpf4jnsgd1na2vs0mg"},{"bike_id":"613cf487-190d-4d6b-bd73-408df5911b92","system_id":"levelo_inurba_marseille","lat":43.32383,"lon":5.36759,"is_reserved":false,"is_disabled":false,"rental_uris":{"android":"levelo://app?vid=613cf487-190d-4d6b-bd73-408df5911b92","ios":"levelo://app?vid=613cf487-190d-4d6b-bd73-408df5911b92"},"vehicle_type_id":"4","last_reported":1746717075,"current_range_meters":12400,"station_id":"ce4bhsh2rcd13ifvqi2g","pricing_plan_id":"cebpf4jnsgd1na2vs0mg"},{"bike_id":"046f9246-9f8e-46fa-a42f-62b86b55802f","system_id":"levelo_inurba_marseille","lat":43.24811,"lon":5.37457,"is_reserved":false,"is_disabled":false,"rental_uris":{"android":"levelo://app?vid=046f9246-9f8e-46fa-a42f-62b86b55802f","ios":"levelo://app?vid=046f9246-9f8e-46fa-a42f-62b86b55802f"},"vehicle_type_id":"4","last_reported":1746717075,"current_range_meters":12400,"station_id":"ce4bhgh2rcd13ifvqfb0","pricing_plan_id":"cebpf4jnsgd1na2vs0mg"},{"bike_id":"a9768435-b1ad-4bc8-b98b-50672f05146d","system_id":"levelo_inurba_marseille","lat":43.26925,"lon":5.36819,"is_reserved":false,"is_disabled":false,"rental_uris":{"android":"levelo://app?vid=a9768435-b1ad-4bc8-b98b-50672f05146d","ios":"levelo://app?vid=a9768435-b1ad-4bc8-b98b-50672f05146d"},"vehicle_type_id":"4","last_reported":1746717075,"current_range_meters":12400,"station_id":"ce4bhg12rcd13ifvqf70","pricing_plan_id":"cebpf4jnsgd1na2vs0mg"},{"bike_id":"6971f759-8594-489e-a8f6-9153c9a9c438","system_id":"levelo_inurba_marseille","lat":43.27684,"lon":5.41968,"is_reserved":false,"is_disabled":false,"rental_uris":{"android":"levelo://app?vid=6971f759-8594-489e-a8f6-9153c9a9c438","ios":"levelo://app?vid=6971f759-8594-489e-a8f6-9153c9a9c438"},"vehicle_type_id":"4","last_reported":1746717075,"current_range_meters":12400,"station_id":"","pricing_plan_id":"cebpf4jnsgd1na2vs0mg"},{"bike_id":"837579b6-74cb-44f5-ba4f-7f504eb5b2c2","system_id":"levelo_inurba_marseille","lat":43.33025,"lon":5.39038,"is_reserved":false,"is_disabled":false,"rental_uris":{"android":"levelo://app?vid=837579b6-74cb-44f5-ba4f-7f504eb5b2c2","ios":"levelo://app?vid=837579b6-74cb-44f5-ba4f-7f504eb5b2c2"},"vehicle_type_id":"4","last_reported":1746717075,"current_range_meters":12400,"station_id":"ce4bhr92rcd13ifvqhrg","pricing_plan_id":"cebpf4jnsgd1na2vs0mg"},{"bike_id":"b40f163c-d2fe-4853-a407-b4cef074d8fc","system_id":"levelo_inurba_marseille","lat":43.32052,"lon":5.41529,"is_reserved":false,"is_disabled":false,"rental_uris":{"android":"levelo://app?vid=b40f163c-d2fe-4853-a407-b4cef074d8fc","ios":"levelo://app?vid=b40f163c-d2fe-4853-a407-b4cef074d8fc"},"vehicle_type_id":"4","last_reported":1746717075,"current_range_meters":12800,"station_id":"ce4bhq92rcd13ifvqhkg","pricing_plan_id":"cebpf4jnsgd1na2vs0mg"},{"bike_id":"45e601c7-6bbe-4f66-bf6d-40e5c693b333","system_id":"levelo_inurba_marseille","lat":43.26213,"lon":5.37449,"is_reserved":false,"is_disabled":false,"rental_uris":{"android":"levelo://app?vid=45e601c7-6bbe-4f66-bf6d-40e5c693b333","ios":"levelo://app?vid=45e601c7-6bbe-4f66-bf6d-40e5c693b333"},"vehicle_type_id":"4","last_reported":1746717075,"current_range_meters":12800,"station_id":"ce4bhgp2rcd13ifvqfc0","pricing_plan_id":"cebpf4jnsgd1na2vs0mg"},{"bike_id":"92d56761-c86f-405c-9545-59e2f56ed36b","system_id":"levelo_inurba_marseille","lat":43.27966,"lon":5.38742,"is_reserved":false,"is_disabled":false,"rental_uris":{"android":"levelo://app?vid=92d56761-c86f-405c-9545-59e2f56ed36b","ios":"levelo://app?vid=92d56761-c86f-405c-9545-59e2f56ed36b"},"vehicle_type_id":"4","last_reported":1746717075,"current_range_meters":12800,"station_id":"ce4bhg12rcd13ifvqf80","pricing_plan_id":"cebpf4jnsgd1na2vs0mg"},{"bike_id":"652b13a0-be42-46ae-b067-07fbedc88d49","system_id":"levelo_inurba_marseille","lat":43.31071,"lon":5.38349,"is_reserved":false,"is_disabled":false,"rental_uris":{"android":"levelo://app?vid=652b13a0-be42-46ae-b067-07fbedc88d49","ios":"levelo://app?vid=652b13a0-be42-46ae-b067-07fbedc88d49"},"vehicle_type_id":"4","last_reported":1746717075,"current_range_meters":12800,"station_id":"ce4bgv92rcd13ifvqcr0","pricing_plan_id":"cebpf4jnsgd1na2vs0mg"},{"bike_id":"5e507869-6493-468e-8508-ab1ed99c058f","system_id":"levelo_inurba_marseille","lat":43.31076,"lon":5.42433,"is_reserved":false,"is_disabled":false,"rental_uris":{"android":"levelo://app?vid=5e507869-6493-468e-8508-ab1ed99c058f","ios":"levelo://app?vid=5e507869-6493-468e-8508-ab1ed99c058f"},"vehicle_type_id":"4","last_reported":1746717075,"current_range_meters":12800,"station_id":"ce4bhp92rcd13ifvqhag","pricing_plan_id":"cebpf4jnsgd1na2vs0mg"},{"bike_id":"caccb556-2ad0-45b8-84b8-819024dd44e6","system_id":"levelo_inurba_marseille","lat":43.29792,"lon":5.3685,"is_reserved":false,"is_disabled":false,"rental_uris":{"android":"levelo://app?vid=caccb556-2ad0-45b8-84b8-819024dd44e6","ios":"levelo://app?vid=caccb556-2ad0-45b8-84b8-819024dd44e6"},"vehicle_type_id":"4","last_reported":1746717075,"current_range_meters":13600,"station_id":"","pricing_plan_id":"cebpf4jnsgd1na2vs0mg"},{"bike_id":"61aea461-9b80-43af-bf66-6eb4e1cfd6df","system_id":"levelo_inurba_marseille","lat":43.25107,"lon":5.40324,"is_reserved":false,"is_disabled":false,"rental_uris":{"android":"levelo://app?vid=61aea461-9b80-43af-bf66-6eb4e1cfd6df","ios":"levelo://app?vid=61aea461-9b80-43af-bf66-6eb4e1cfd6df"},"vehicle_type_id":"4","last_reported":1746717075,"current_range_meters":13600,"station_id":"ce4bhlh2rcd13ifvqgig","pricing_plan_id":"cebpf4jnsgd1na2vs0mg"},{"bike_id":"f8b7e2f3-439c-46af-81b7-485d680e7767","system_id":"levelo_inurba_marseille","lat":43.28459,"lon":5.35896,"is_reserved":false,"is_disabled":false,"rental_uris":{"android":"levelo://app?vid=f8b7e2f3-439c-46af-81b7-485d680e7767","ios":"levelo://app?vid=f8b7e2f3-439c-46af-81b7-485d680e7767"},"vehicle_type_id":"4","last_reported":1746717075,"current_range_meters":13600,"station_id":"ce4bhah2rcd13ifvqei0","pricing_plan_id":"cebpf4jnsgd1na2vs0mg"},{"bike_id":"9246e782-d881-4f71-8d9f-cd1b47ccacd2","system_id":"levelo_inurba_marseille","lat":43.25502,"lon":5.37649,"is_reserved":false,"is_disabled":false,"rental_uris":{"android":"levelo://app?vid=9246e782-d881-4f71-8d9f-cd1b47ccacd2","ios":"levelo://app?vid=9246e782-d881-4f71-8d9f-cd1b47ccacd2"},"vehicle_type_id":"4","last_reported":1746717075,"current_range_meters":13600,"station_id":"ce4bhh12rcd13ifvqff0","pricing_plan_id":"cebpf4jnsgd1na2vs0mg"},{"bike_id":"ff869d47-2f00-48c8-ae15-717d41bccdbf","system_id":"levelo_inurba_marseille","lat":43.24171,"lon":5.36397,"is_reserved":false,"is_disabled":false,"rental_uris":{"android":"levelo://app?vid=ff869d47-2f00-48c8-ae15-717d41bccdbf","ios":"levelo://app?vid=ff869d47-2f00-48c8-ae15-717d41bccdbf"},"vehicle_type_id":"4","last_reported":1746717075,"current_range_meters":13600,"station_id":"cpo36qri1sfpv3e86is0","pricing_plan_id":"cebpf4jnsgd1na2vs0mg"},{"bike_id":"20f18f0a-ae9b-4ead-a858-536c34df728c","system_id":"levelo_inurba_marseille","lat":43.30151,"lon":5.38055,"is_reserved":false,"is_disabled":false,"rental_uris":{"android":"levelo://app?vid=20f18f0a-ae9b-4ead-a858-536c34df728c","ios":"levelo://app?vid=20f18f0a-ae9b-4ead-a858-536c34df728c"},"vehicle_type_id":"4","last_reported":1746717075,"current_range_meters":14000,"station_id":"ce4bgjp2rcd13ifvqbh0","pricing_plan_id":"cebpf4jnsgd1na2vs0mg"},{"bike_id":"f05b8c28-2949-42ee-a5e5-28dd4c27608f","system_id":"levelo_inurba_marseille","lat":43.28626,"lon":5.35099,"is_reserved":false,"is_disabled":false,"rental_uris":{"android":"levelo://app?vid=f05b8c28-2949-42ee-a5e5-28dd4c27608f","ios":"levelo://app?vid=f05b8c28-2949-42ee-a5e5-28dd4c27608f"},"vehicle_type_id":"4","last_reported":1746717075,"current_range_meters":14000,"station_id":"ce4bhch2rcd13ifvqeug","pricing_plan_id":"cebpf4jnsgd1na2vs0mg"},{"bike_id":"5582291c-2535-497c-accd-820fb5649a27","system_id":"levelo_inurba_marseille","lat":43.23058,"lon":5.35492,"is_reserved":false,"is_disabled":false,"rental_uris":{"android":"levelo://app?vid=5582291c-2535-497c-accd-820fb5649a27","ios":"levelo://app?vid=5582291c-2535-497c-accd-820fb5649a27"},"vehicle_type_id":"4","last_reported":1746717075,"current_range_meters":14000,"station_id":"cpo3342slgdg3j2ifvpg","pricing_plan_id":"cebpf4jnsgd1na2vs0mg"},{"bike_id":"a2309e80-b2ba-42c9-9c60-147f0babf9f9","system_id":"levelo_inurba_marseille","lat":43.30871,"lon":5.37042,"is_reserved":false,"is_disabled":false,"rental_uris":{"android":"levelo://app?vid=a2309e80-b2ba-42c9-9c60-147f0babf9f9","ios":"levelo://app?vid=a2309e80-b2ba-42c9-9c60-147f0babf9f9"},"vehicle_type_id":"4","last_reported":1746717075,"current_range_meters":14400,"station_id":"","pricing_plan_id":"cebpf4jnsgd1na2vs0mg"},{"bike_id":"db6955f4-fcfa-455e-8141-5530e0d14007","system_id":"levelo_inurba_marseille","lat":43.27378,"lon":5.36258,"is_reserved":false,"is_disabled":false,"rental_uris":{"android":"levelo://app?vid=db6955f4-fcfa-455e-8141-5530e0d14007","ios":"levelo://app?vid=db6955f4-fcfa-455e-8141-5530e0d14007"},"vehicle_type_id":"4","last_reported":1746717075,"current_range_meters":14000,"station_id":"ce4bhbh2rcd13ifvqeo0","pricing_plan_id":"cebpf4jnsgd1na2vs0mg"},{"bike_id":"89f953df-2061-408d-8f0d-6a2938e5443a","system_id":"levelo_inurba_marseille","lat":43.23658,"lon":5.40349,"is_reserved":false,"is_disabled":false,"rental_uris":{"android":"levelo://app?vid=89f953df-2061-408d-8f0d-6a2938e5443a","ios":"levelo://app?vid=89f953df-2061-408d-8f0d-6a2938e5443a"},"vehicle_type_id":"4","last_reported":1746717075,"current_range_meters":14400,"station_id":"","pricing_plan_id":"cebpf4jnsgd1na2vs0mg"},{"bike_id":"e6282093-23fb-41a9-859d-c0d9ad966535","system_id":"levelo_inurba_marseille","lat":43.316845,"lon":5.378035,"is_reserved":false,"is_disabled":false,"rental_uris":{"android":"levelo://app?vid=e6282093-23fb-41a9-859d-c0d9ad966535","ios":"levelo://app?vid=e6282093-23fb-41a9-859d-c0d9ad966535"},"vehicle_type_id":"4","last_reported":1746717075,"current_range_meters":14400,"station_id":"","pricing_plan_id":"cebpf4jnsgd1na2vs0mg"},{"bike_id":"22d1f17c-ac80-4ec2-a4f8-cbc0680016c4","system_id":"levelo_inurba_marseille","lat":43.21746,"lon":5.34594,"is_reserved":false,"is_disabled":false,"rental_uris":{"android":"levelo://app?vid=22d1f17c-ac80-4ec2-a4f8-cbc0680016c4","ios":"levelo://app?vid=22d1f17c-ac80-4ec2-a4f8-cbc0680016c4"},"vehicle_type_id":"4","last_reported":1746717075,"current_range_meters":14400,"station_id":"st_cvj6r9ubvosntc0bgbag","pricing_plan_id":"cebpf4jnsgd1na2vs0mg"},{"bike_id":"579169cd-fd04-4495-a109-f2f1a71bf9a4","system_id":"levelo_inurba_marseille","lat":43.2176,"lon":5.34647,"is_reserved":false,"is_disabled":false,"rental_uris":{"android":"levelo://app?vid=579169cd-fd04-4495-a109-f2f1a71bf9a4","ios":"levelo://app?vid=579169cd-fd04-4495-a109-f2f1a71bf9a4"},"vehicle_type_id":"4","last_reported":1746717075,"current_range_meters":14400,"station_id":"st_cvj6r9ubvosntc0bgbag","pricing_plan_id":"cebpf4jnsgd1na2vs0mg"},{"bike_id":"9ff2991b-bc3d-4eaf-b136-5d42750ec1c6","system_id":"levelo_inurba_marseille","lat":43.25733,"lon":5.41102,"is_reserved":false,"is_disabled":false,"rental_uris":{"android":"levelo://app?vid=9ff2991b-bc3d-4eaf-b136-5d42750ec1c6","ios":"levelo://app?vid=9ff2991b-bc3d-4eaf-b136-5d42750ec1c6"},"vehicle_type_id":"4","last_reported":1746717075,"current_range_meters":14400,"station_id":"ce4bhkp2rcd13ifvqgd0","pricing_plan_id":"cebpf4jnsgd1na2vs0mg"},{"bike_id":"1232ce19-5131-4166-aba4-847515d1de08","system_id":"levelo_inurba_marseille","lat":43.30151,"lon":5.38088,"is_reserved":false,"is_disabled":false,"rental_uris":{"android":"levelo://app?vid=1232ce19-5131-4166-aba4-847515d1de08","ios":"levelo://app?vid=1232ce19-5131-4166-aba4-847515d1de08"},"vehicle_type_id":"4","last_reported":1746717075,"current_range_meters":14400,"station_id":"ce4bgjp2rcd13ifvqbh0","pricing_plan_id":"cebpf4jnsgd1na2vs0mg"},{"bike_id":"36db290d-c842-4572-9b53-94e083c09079","system_id":"levelo_inurba_marseille","lat":43.21753,"lon":5.34605,"is_reserved":false,"is_disabled":false,"rental_uris":{"android":"levelo://app?vid=36db290d-c842-4572-9b53-94e083c09079","ios":"levelo://app?vid=36db290d-c842-4572-9b53-94e083c09079"},"vehicle_type_id":"4","last_reported":1746717075,"current_range_meters":14800,"station_id":"st_cvj6r9ubvosntc0bgbag","pricing_plan_id":"cebpf4jnsgd1na2vs0mg"},{"bike_id":"0cb542d0-661d-4a86-904d-249f6866850a","system_id":"levelo_inurba_marseille","lat":43.25722,"lon":5.41111,"is_reserved":false,"is_disabled":false,"rental_uris":{"android":"levelo://app?vid=0cb542d0-661d-4a86-904d-249f6866850a","ios":"levelo://app?vid=0cb542d0-661d-4a86-904d-249f6866850a"},"vehicle_type_id":"4","last_reported":1746717075,"current_range_meters":14800,"station_id":"ce4bhkp2rcd13ifvqgd0","pricing_plan_id":"cebpf4jnsgd1na2vs0mg"},{"bike_id":"3895cb9d-38b9-4699-ad99-e9c14abbec52","system_id":"levelo_inurba_marseille","lat":43.25578,"lon":5.382275,"is_reserved":false,"is_disabled":false,"rental_uris":{"android":"levelo://app?vid=3895cb9d-38b9-4699-ad99-e9c14abbec52","ios":"levelo://app?vid=3895cb9d-38b9-4699-ad99-e9c14abbec52"},"vehicle_type_id":"4","last_reported":1746717075,"current_range_meters":14800,"station_id":"ce4bhih2rcd13ifvqfs0","pricing_plan_id":"cebpf4jnsgd1na2vs0mg"},{"bike_id":"a805cd6e-dff5-49cf-867e-8ee2faeacd96","system_id":"levelo_inurba_marseille","lat":43.270521,"lon":5.402401,"is_reserved":false,"is_disabled":false,"rental_uris":{"android":"levelo://app?vid=a805cd6e-dff5-49cf-867e-8ee2faeacd96","ios":"levelo://app?vid=a805cd6e-dff5-49cf-867e-8ee2faeacd96"},"vehicle_type_id":"4","last_reported":1746717075,"current_range_meters":14800,"station_id":"ce4bhk92rcd13ifvqgc0","pricing_plan_id":"cebpf4jnsgd1na2vs0mg"},{"bike_id":"326c670b-780d-46cc-a170-dde31598811a","system_id":"levelo_inurba_marseille","lat":43.25501,"lon":5.37648,"is_reserved":false,"is_disabled":false,"rental_uris":{"android":"levelo://app?vid=326c670b-780d-46cc-a170-dde31598811a","ios":"levelo://app?vid=326c670b-780d-46cc-a170-dde31598811a"},"vehicle_type_id":"4","last_reported":1746717075,"current_range_meters":14800,"station_id":"ce4bhh12rcd13ifvqff0","pricing_plan_id":"cebpf4jnsgd1na2vs0mg"},{"bike_id":"61dc49b4-0073-4b2e-85ff-3a5af469affb","system_id":"levelo_inurba_marseille","lat":43.225083,"lon":5.347863,"is_reserved":false,"is_disabled":false,"rental_uris":{"android":"levelo://app?vid=61dc49b4-0073-4b2e-85ff-3a5af469affb","ios":"levelo://app?vid=61dc49b4-0073-4b2e-85ff-3a5af469affb"},"vehicle_type_id":"4","last_reported":1746717075,"current_range_meters":14800,"station_id":"st_cvj5dfep6f1abm77gieg","pricing_plan_id":"cebpf4jnsgd1na2vs0mg"},{"bike_id":"203bc953-c8c8-4b19-840f-19147e51ab5a","system_id":"levelo_inurba_marseille","lat":43.28162,"lon":5.42645,"is_reserved":false,"is_disabled":false,"rental_uris":{"android":"levelo://app?vid=203bc953-c8c8-4b19-840f-19147e51ab5a","ios":"levelo://app?vid=203bc953-c8c8-4b19-840f-19147e51ab5a"},"vehicle_type_id":"4","last_reported":1746717075,"current_range_meters":14800,"station_id":"ce4bhnh2rcd13ifvqgug","pricing_plan_id":"cebpf4jnsgd1na2vs0mg"},{"bike_id":"870aa36f-11fc-4e3b-800d-c8203deae0c0","system_id":"levelo_inurba_marseille","lat":43.30553,"lon":5.36529,"is_reserved":false,"is_disabled":false,"rental_uris":{"android":"levelo://app?vid=870aa36f-11fc-4e3b-800d-c8203deae0c0","ios":"levelo://app?vid=870aa36f-11fc-4e3b-800d-c8203deae0c0"},"vehicle_type_id":"4","last_reported":1746717075,"current_range_meters":15200,"station_id":"ce4bgs12rcd13ifvqcag","pricing_plan_id":"cebpf4jnsgd1na2vs0mg"},{"bike_id":"6e327167-da0f-47f5-a849-4f768c55c9c2","system_id":"levelo_inurba_marseille","lat":43.26216,"lon":5.37439,"is_reserved":false,"is_disabled":false,"rental_uris":{"android":"levelo://app?vid=6e327167-da0f-47f5-a849-4f768c55c9c2","ios":"levelo://app?vid=6e327167-da0f-47f5-a849-4f768c55c9c2"},"vehicle_type_id":"4","last_reported":1746717075,"current_range_meters":15200,"station_id":"ce4bhgp2rcd13ifvqfc0","pricing_plan_id":"cebpf4jnsgd1na2vs0mg"},{"bike_id":"07f8f0a5-9f22-4e1d-82e2-7209fd46201c","system_id":"levelo_inurba_marseille","lat":43.31892,"lon":5.40738,"is_reserved":false,"is_disabled":false,"rental_uris":{"android":"levelo://app?vid=07f8f0a5-9f22-4e1d-82e2-7209fd46201c","ios":"levelo://app?vid=07f8f0a5-9f22-4e1d-82e2-7209fd46201c"},"vehicle_type_id":"4","last_reported":1746717075,"current_range_meters":15200,"station_id":"ce4bhq12rcd13ifvqhig","pricing_plan_id":"cebpf4jnsgd1na2vs0mg"},{"bike_id":"bc577af5-4285-4d0c-bc96-2094c406741a","system_id":"levelo_inurba_marseille","lat":43.26193,"lon":5.3745,"is_reserved":false,"is_disabled":false,"rental_uris":{"android":"levelo://app?vid=bc577af5-4285-4d0c-bc96-2094c406741a","ios":"levelo://app?vid=bc577af5-4285-4d0c-bc96-2094c406741a"},"vehicle_type_id":"4","last_reported":1746717075,"current_range_meters":16000,"station_id":"ce4bhgp2rcd13ifvqfc0","pricing_plan_id":"cebpf4jnsgd1na2vs0mg"},{"bike_id":"4ac1038d-905c-4995-87e3-2124352f9be3","system_id":"levelo_inurba_marseille","lat":43.225029,"lon":5.348086,"is_reserved":false,"is_disabled":false,"rental_uris":{"android":"levelo://app?vid=4ac1038d-905c-4995-87e3-2124352f9be3","ios":"levelo://app?vid=4ac1038d-905c-4995-87e3-2124352f9be3"},"vehicle_type_id":"4","last_reported":1746717075,"current_range_meters":16000,"station_id":"st_cvj5dfep6f1abm77gieg","pricing_plan_id":"cebpf4jnsgd1na2vs0mg"},{"bike_id":"d268af14-3f43-4f16-bb18-eb92ea3075ca","system_id":"levelo_inurba_marseille","lat":43.3079,"lon":5.37353,"is_reserved":false,"is_disabled":false,"rental_uris":{"android":"levelo://app?vid=d268af14-3f43-4f16-bb18-eb92ea3075ca","ios":"levelo://app?vid=d268af14-3f43-4f16-bb18-eb92ea3075ca"},"vehicle_type_id":"4","last_reported":1746717075,"current_range_meters":16000,"station_id":"","pricing_plan_id":"cebpf4jnsgd1na2vs0mg"},{"bike_id":"b1199efd-1094-4994-a099-0800ce67719f","system_id":"levelo_inurba_marseille","lat":43.23194,"lon":5.35557,"is_reserved":false,"is_disabled":false,"rental_uris":{"android":"levelo://app?vid=b1199efd-1094-4994-a099-0800ce67719f","ios":"levelo://app?vid=b1199efd-1094-4994-a099-0800ce67719f"},"vehicle_type_id":"4","last_reported":1746717075,"current_range_meters":16000,"station_id":"ce4bhu92rcd13ifvqi70","pricing_plan_id":"cebpf4jnsgd1na2vs0mg"},{"bike_id":"45c3c546-5120-427a-ad2c-ff61fbe98fc3","system_id":"levelo_inurba_marseille","lat":43.30532,"lon":5.36705,"is_reserved":false,"is_disabled":false,"rental_uris":{"android":"levelo://app?vid=45c3c546-5120-427a-ad2c-ff61fbe98fc3","ios":"levelo://app?vid=45c3c546-5120-427a-ad2c-ff61fbe98fc3"},"vehicle_type_id":"4","last_reported":1746717075,"current_range_meters":16400,"station_id":"ce4bgrp2rcd13ifvqc9g","pricing_plan_id":"cebpf4jnsgd1na2vs0mg"},{"bike_id":"a2d69adc-5ddc-4020-b23f-448adc984551","system_id":"levelo_inurba_marseille","lat":43.32661,"lon":5.40995,"is_reserved":false,"is_disabled":false,"rental_uris":{"android":"levelo://app?vid=a2d69adc-5ddc-4020-b23f-448adc984551","ios":"levelo://app?vid=a2d69adc-5ddc-4020-b23f-448adc984551"},"vehicle_type_id":"4","last_reported":1746717075,"current_range_meters":16400,"station_id":"ce4bhpp2rcd13ifvqhgg","pricing_plan_id":"cebpf4jnsgd1na2vs0mg"},{"bike_id":"0a26564a-e183-4c46-be13-3b95302924ac","system_id":"levelo_inurba_marseille","lat":43.26564,"lon":5.39012,"is_reserved":false,"is_disabled":false,"rental_uris":{"android":"levelo://app?vid=0a26564a-e183-4c46-be13-3b95302924ac","ios":"levelo://app?vid=0a26564a-e183-4c46-be13-3b95302924ac"},"vehicle_type_id":"4","last_reported":1746717075,"current_range_meters":16400,"station_id":"ce4bhe12rcd13ifvqf30","pricing_plan_id":"cebpf4jnsgd1na2vs0mg"},{"bike_id":"8484a3c1-d10e-4af3-bd94-9208b0b3dac8","system_id":"levelo_inurba_marseille","lat":43.24168,"lon":5.3641,"is_reserved":false,"is_disabled":false,"rental_uris":{"android":"levelo://app?vid=8484a3c1-d10e-4af3-bd94-9208b0b3dac8","ios":"levelo://app?vid=8484a3c1-d10e-4af3-bd94-9208b0b3dac8"},"vehicle_type_id":"4","last_reported":1746717075,"current_range_meters":16800,"station_id":"cpo36qri1sfpv3e86is0","pricing_plan_id":"cebpf4jnsgd1na2vs0mg"},{"bike_id":"0eb0417d-6e9c-4cbb-b050-ea7946a1052d","system_id":"levelo_inurba_marseille","lat":43.2763,"lon":5.36115,"is_reserved":false,"is_disabled":false,"rental_uris":{"android":"levelo://app?vid=0eb0417d-6e9c-4cbb-b050-ea7946a1052d","ios":"levelo://app?vid=0eb0417d-6e9c-4cbb-b050-ea7946a1052d"},"vehicle_type_id":"4","last_reported":1746717075,"current_range_meters":17200,"station_id":"ce4bgj92rcd13ifvqbe0","pricing_plan_id":"cebpf4jnsgd1na2vs0mg"},{"bike_id":"5569900f-6ccc-4cc4-b7ca-4dc393c20abd","system_id":"levelo_inurba_marseille","lat":43.255,"lon":5.37648,"is_reserved":false,"is_disabled":false,"rental_uris":{"android":"levelo://app?vid=5569900f-6ccc-4cc4-b7ca-4dc393c20abd","ios":"levelo://app?vid=5569900f-6ccc-4cc4-b7ca-4dc393c20abd"},"vehicle_type_id":"4","last_reported":1746717075,"current_range_meters":17200,"station_id":"ce4bhh12rcd13ifvqff0","pricing_plan_id":"cebpf4jnsgd1na2vs0mg"},{"bike_id":"b533542a-475a-4f67-94c5-71ec82012be9","system_id":"levelo_inurba_marseille","lat":43.28405,"lon":5.37514,"is_reserved":false,"is_disabled":false,"rental_uris":{"android":"levelo://app?vid=b533542a-475a-4f67-94c5-71ec82012be9","ios":"levelo://app?vid=b533542a-475a-4f67-94c5-71ec82012be9"},"vehicle_type_id":"4","last_reported":1746717075,"current_range_meters":17200,"station_id":"ce4bh412rcd13ifvqds0","pricing_plan_id":"cebpf4jnsgd1na2vs0mg"},{"bike_id":"d53f71b4-3d98-49dd-9669-b16d566d02b6","system_id":"levelo_inurba_marseille","lat":43.29539,"lon":5.3654,"is_reserved":false,"is_disabled":false,"rental_uris":{"android":"levelo://app?vid=d53f71b4-3d98-49dd-9669-b16d566d02b6","ios":"levelo://app?vid=d53f71b4-3d98-49dd-9669-b16d566d02b6"},"vehicle_type_id":"4","last_reported":1746717075,"current_range_meters":17200,"station_id":"","pricing_plan_id":"cebpf4jnsgd1na2vs0mg"},{"bike_id":"b9091330-fe07-4527-b7fb-d087e91dcfae","system_id":"levelo_inurba_marseille","lat":43.225075,"lon":5.34775,"is_reserved":false,"is_disabled":false,"rental_uris":{"android":"levelo://app?vid=b9091330-fe07-4527-b7fb-d087e91dcfae","ios":"levelo://app?vid=b9091330-fe07-4527-b7fb-d087e91dcfae"},"vehicle_type_id":"4","last_reported":1746717075,"current_range_meters":17200,"station_id":"st_cvj5dfep6f1abm77gieg","pricing_plan_id":"cebpf4jnsgd1na2vs0mg"},{"bike_id":"cb5561fb-3ed2-49bf-bd58-7c8862116c78","system_id":"levelo_inurba_marseille","lat":43.21201,"lon":5.35072,"is_reserved":false,"is_disabled":false,"rental_uris":{"android":"levelo://app?vid=cb5561fb-3ed2-49bf-bd58-7c8862116c78","ios":"levelo://app?vid=cb5561fb-3ed2-49bf-bd58-7c8862116c78"},"vehicle_type_id":"4","last_reported":1746717075,"current_range_meters":17200,"station_id":"st_cvj6sg6p6f1abm77japg","pricing_plan_id":"cebpf4jnsgd1na2vs0mg"},{"bike_id":"95407fdd-6b53-4c42-85f7-ee3e66f21b13","system_id":"levelo_inurba_marseille","lat":43.24331,"lon":5.38005,"is_reserved":false,"is_disabled":false,"rental_uris":{"android":"levelo://app?vid=95407fdd-6b53-4c42-85f7-ee3e66f21b13","ios":"levelo://app?vid=95407fdd-6b53-4c42-85f7-ee3e66f21b13"},"vehicle_type_id":"4","last_reported":1746717075,"current_range_meters":17600,"station_id":"","pricing_plan_id":"cebpf4jnsgd1na2vs0mg"},{"bike_id":"004fcace-123c-4ff2-a5b1-2e66ab31148d","system_id":"levelo_inurba_marseille","lat":43.27609,"lon":5.36137,"is_reserved":false,"is_disabled":false,"rental_uris":{"android":"levelo://app?vid=004fcace-123c-4ff2-a5b1-2e66ab31148d","ios":"levelo://app?vid=004fcace-123c-4ff2-a5b1-2e66ab31148d"},"vehicle_type_id":"4","last_reported":1746717075,"current_range_meters":17600,"station_id":"ce4bgj92rcd13ifvqbe0","pricing_plan_id":"cebpf4jnsgd1na2vs0mg"},{"bike_id":"f769cba8-0b0e-4717-a5ed-e6a9dd0c4938","system_id":"levelo_inurba_marseille","lat":43.30559,"lon":5.36562,"is_reserved":false,"is_disabled":false,"rental_uris":{"android":"levelo://app?vid=f769cba8-0b0e-4717-a5ed-e6a9dd0c4938","ios":"levelo://app?vid=f769cba8-0b0e-4717-a5ed-e6a9dd0c4938"},"vehicle_type_id":"4","last_reported":1746717075,"current_range_meters":17200,"station_id":"ce4bgs12rcd13ifvqcag","pricing_plan_id":"cebpf4jnsgd1na2vs0mg"},{"bike_id":"1dd622ec-7717-4e16-9b33-5fae65b6d06d","system_id":"levelo_inurba_marseille","lat":43.25127,"lon":5.39539,"is_reserved":false,"is_disabled":false,"rental_uris":{"android":"levelo://app?vid=1dd622ec-7717-4e16-9b33-5fae65b6d06d","ios":"levelo://app?vid=1dd622ec-7717-4e16-9b33-5fae65b6d06d"},"vehicle_type_id":"4","last_reported":1746717075,"current_range_meters":18000,"station_id":"ce4bhm12rcd13ifvqgkg","pricing_plan_id":"cebpf4jnsgd1na2vs0mg"},{"bike_id":"833343d3-5390-46c5-9880-8d89789210eb","system_id":"levelo_inurba_marseille","lat":43.29281,"lon":5.36946,"is_reserved":false,"is_disabled":false,"rental_uris":{"android":"levelo://app?vid=833343d3-5390-46c5-9880-8d89789210eb","ios":"levelo://app?vid=833343d3-5390-46c5-9880-8d89789210eb"},"vehicle_type_id":"4","last_reported":1746717075,"current_range_meters":18000,"station_id":"","pricing_plan_id":"cebpf4jnsgd1na2vs0mg"},{"bike_id":"4ba7d0c2-df21-4ee3-91ca-f25ca7dc4530","system_id":"levelo_inurba_marseille","lat":43.291633,"lon":5.371502,"is_reserved":false,"is_disabled":false,"rental_uris":{"android":"levelo://app?vid=4ba7d0c2-df21-4ee3-91ca-f25ca7dc4530","ios":"levelo://app?vid=4ba7d0c2-df21-4ee3-91ca-f25ca7dc4530"},"vehicle_type_id":"4","last_reported":1746717075,"current_range_meters":18000,"station_id":"ce4bha92rcd13ifvqeh0","pricing_plan_id":"cebpf4jnsgd1na2vs0mg"},{"bike_id":"568ade89-84eb-46d8-b9a2-cf4e4d6171d9","system_id":"levelo_inurba_marseille","lat":43.22507,"lon":5.34782,"is_reserved":false,"is_disabled":false,"rental_uris":{"android":"levelo://app?vid=568ade89-84eb-46d8-b9a2-cf4e4d6171d9","ios":"levelo://app?vid=568ade89-84eb-46d8-b9a2-cf4e4d6171d9"},"vehicle_type_id":"4","last_reported":1746717075,"current_range_meters":18000,"station_id":"st_cvj5dfep6f1abm77gieg","pricing_plan_id":"cebpf4jnsgd1na2vs0mg"},{"bike_id":"5a4fc0af-88b3-4efd-9173-a8855afb3b30","system_id":"levelo_inurba_marseille","lat":43.30067,"lon":5.36555,"is_reserved":false,"is_disabled":false,"rental_uris":{"android":"levelo://app?vid=5a4fc0af-88b3-4efd-9173-a8855afb3b30","ios":"levelo://app?vid=5a4fc0af-88b3-4efd-9173-a8855afb3b30"},"vehicle_type_id":"4","last_reported":1746717075,"current_range_meters":18000,"station_id":"","pricing_plan_id":"cebpf4jnsgd1na2vs0mg"},{"bike_id":"a5e93638-fd65-4041-acd2-1fa408a23755","system_id":"levelo_inurba_marseille","lat":43.30626,"lon":5.37216,"is_reserved":false,"is_disabled":false,"rental_uris":{"android":"levelo://app?vid=a5e93638-fd65-4041-acd2-1fa408a23755","ios":"levelo://app?vid=a5e93638-fd65-4041-acd2-1fa408a23755"},"vehicle_type_id":"4","last_reported":1746717075,"current_range_meters":18000,"station_id":"ce4bgqh2rcd13ifvqc4g","pricing_plan_id":"cebpf4jnsgd1na2vs0mg"},{"bike_id":"59c9eee2-2711-40e5-ad57-f78d6a66b9e3","system_id":"levelo_inurba_marseille","lat":43.25938,"lon":5.40914,"is_reserved":false,"is_disabled":false,"rental_uris":{"android":"levelo://app?vid=59c9eee2-2711-40e5-ad57-f78d6a66b9e3","ios":"levelo://app?vid=59c9eee2-2711-40e5-ad57-f78d6a66b9e3"},"vehicle_type_id":"4","last_reported":1746717075,"current_range_meters":18800,"station_id":"ce4bhm92rcd13ifvqglg","pricing_plan_id":"cebpf4jnsgd1na2vs0mg"},{"bike_id":"72c714fe-a0de-42e3-a30e-f198dc7536fd","system_id":"levelo_inurba_marseille","lat":43.21751,"lon":5.34606,"is_reserved":false,"is_disabled":false,"rental_uris":{"android":"levelo://app?vid=72c714fe-a0de-42e3-a30e-f198dc7536fd","ios":"levelo://app?vid=72c714fe-a0de-42e3-a30e-f198dc7536fd"},"vehicle_type_id":"4","last_reported":1746717075,"current_range_meters":18800,"station_id":"st_cvj6r9ubvosntc0bgbag","pricing_plan_id":"cebpf4jnsgd1na2vs0mg"},{"bike_id":"13799010-9dae-45e7-ab03-c53794b66406","system_id":"levelo_inurba_marseille","lat":43.32662,"lon":5.36347,"is_reserved":false,"is_disabled":false,"rental_uris":{"android":"levelo://app?vid=13799010-9dae-45e7-ab03-c53794b66406","ios":"levelo://app?vid=13799010-9dae-45e7-ab03-c53794b66406"},"vehicle_type_id":"4","last_reported":1746717075,"current_range_meters":18800,"station_id":"","pricing_plan_id":"cebpf4jnsgd1na2vs0mg"},{"bike_id":"1564fa03-f10d-4caf-a658-914c82c5748a","system_id":"levelo_inurba_marseille","lat":43.28573,"lon":5.39499,"is_reserved":false,"is_disabled":false,"rental_uris":{"android":"levelo://app?vid=1564fa03-f10d-4caf-a658-914c82c5748a","ios":"levelo://app?vid=1564fa03-f10d-4caf-a658-914c82c5748a"},"vehicle_type_id":"4","last_reported":1746717075,"current_range_meters":19200,"station_id":"ce4bh292rcd13ifvqdg0","pricing_plan_id":"cebpf4jnsgd1na2vs0mg"},{"bike_id":"8b698a34-fbf5-484e-9ecb-26e22393bc90","system_id":"levelo_inurba_marseille","lat":43.331035,"lon":5.382344,"is_reserved":false,"is_disabled":false,"rental_uris":{"android":"levelo://app?vid=8b698a34-fbf5-484e-9ecb-26e22393bc90","ios":"levelo://app?vid=8b698a34-fbf5-484e-9ecb-26e22393bc90"},"vehicle_type_id":"4","last_reported":1746717075,"current_range_meters":19200,"station_id":"","pricing_plan_id":"cebpf4jnsgd1na2vs0mg"},{"bike_id":"5ed18b6b-f0db-4f69-a428-8608a651fb52","system_id":"levelo_inurba_marseille","lat":43.30829,"lon":5.3698,"is_reserved":false,"is_disabled":false,"rental_uris":{"android":"levelo://app?vid=5ed18b6b-f0db-4f69-a428-8608a651fb52","ios":"levelo://app?vid=5ed18b6b-f0db-4f69-a428-8608a651fb52"},"vehicle_type_id":"4","last_reported":1746717075,"current_range_meters":19200,"station_id":"","pricing_plan_id":"cebpf4jnsgd1na2vs0mg"},{"bike_id":"8909d45b-5ec6-4b31-bbb7-55e12301d5eb","system_id":"levelo_inurba_marseille","lat":43.21196,"lon":5.35075,"is_reserved":false,"is_disabled":false,"rental_uris":{"android":"levelo://app?vid=8909d45b-5ec6-4b31-bbb7-55e12301d5eb","ios":"levelo://app?vid=8909d45b-5ec6-4b31-bbb7-55e12301d5eb"},"vehicle_type_id":"4","last_reported":1746717075,"current_range_meters":19200,"station_id":"st_cvj6sg6p6f1abm77japg","pricing_plan_id":"cebpf4jnsgd1na2vs0mg"},{"bike_id":"2306782a-d272-4eff-8aa6-4c2c0227e78d","system_id":"levelo_inurba_marseille","lat":43.230643,"lon":5.354902,"is_reserved":false,"is_disabled":false,"rental_uris":{"android":"levelo://app?vid=2306782a-d272-4eff-8aa6-4c2c0227e78d","ios":"levelo://app?vid=2306782a-d272-4eff-8aa6-4c2c0227e78d"},"vehicle_type_id":"4","last_reported":1746717075,"current_range_meters":19200,"station_id":"cpo3342slgdg3j2ifvpg","pricing_plan_id":"cebpf4jnsgd1na2vs0mg"},{"bike_id":"21256369-af2b-45a7-9765-66a83173cbb9","system_id":"levelo_inurba_marseille","lat":43.23057,"lon":5.35504,"is_reserved":false,"is_disabled":false,"rental_uris":{"android":"levelo://app?vid=21256369-af2b-45a7-9765-66a83173cbb9","ios":"levelo://app?vid=21256369-af2b-45a7-9765-66a83173cbb9"},"vehicle_type_id":"4","last_reported":1746717075,"current_range_meters":19600,"station_id":"cpo3342slgdg3j2ifvpg","pricing_plan_id":"cebpf4jnsgd1na2vs0mg"},{"bike_id":"f1057baa-3dbf-4450-93e3-3dfda2728da3","system_id":"levelo_inurba_marseille","lat":43.31686,"lon":5.40474,"is_reserved":false,"is_disabled":false,"rental_uris":{"android":"levelo://app?vid=f1057baa-3dbf-4450-93e3-3dfda2728da3","ios":"levelo://app?vid=f1057baa-3dbf-4450-93e3-3dfda2728da3"},"vehicle_type_id":"4","last_reported":1746717075,"current_range_meters":19600,"station_id":"ce4bh012rcd13ifvqd00","pricing_plan_id":"cebpf4jnsgd1na2vs0mg"},{"bike_id":"f1dd7bf4-aed1-47a1-a798-92e38ddd2af5","system_id":"levelo_inurba_marseille","lat":43.26559,"lon":5.37288,"is_reserved":false,"is_disabled":false,"rental_uris":{"android":"levelo://app?vid=f1dd7bf4-aed1-47a1-a798-92e38ddd2af5","ios":"levelo://app?vid=f1dd7bf4-aed1-47a1-a798-92e38ddd2af5"},"vehicle_type_id":"4","last_reported":1746717075,"current_range_meters":19600,"station_id":"ce4bhg12rcd13ifvqf70","pricing_plan_id":"cebpf4jnsgd1na2vs0mg"},{"bike_id":"a5059118-9c90-42fd-97ee-8b10d36dc2b4","system_id":"levelo_inurba_marseille","lat":43.29914,"lon":5.37481,"is_reserved":false,"is_disabled":false,"rental_uris":{"android":"levelo://app?vid=a5059118-9c90-42fd-97ee-8b10d36dc2b4","ios":"levelo://app?vid=a5059118-9c90-42fd-97ee-8b10d36dc2b4"},"vehicle_type_id":"4","last_reported":1746717075,"current_range_meters":19600,"station_id":"ce4bgjh2rcd13ifvqbg0","pricing_plan_id":"cebpf4jnsgd1na2vs0mg"},{"bike_id":"df269cf4-f020-4799-86e1-77a4be9664d7","system_id":"levelo_inurba_marseille","lat":43.28163,"lon":5.3512,"is_reserved":false,"is_disabled":false,"rental_uris":{"android":"levelo://app?vid=df269cf4-f020-4799-86e1-77a4be9664d7","ios":"levelo://app?vid=df269cf4-f020-4799-86e1-77a4be9664d7"},"vehicle_type_id":"4","last_reported":1746717075,"current_range_meters":19600,"station_id":"","pricing_plan_id":"cebpf4jnsgd1na2vs0mg"},{"bike_id":"975d9cfd-a0aa-41aa-b25c-401216df5fae","system_id":"levelo_inurba_marseille","lat":43.26222,"lon":5.37459,"is_reserved":false,"is_disabled":false,"rental_uris":{"android":"levelo://app?vid=975d9cfd-a0aa-41aa-b25c-401216df5fae","ios":"levelo://app?vid=975d9cfd-a0aa-41aa-b25c-401216df5fae"},"vehicle_type_id":"4","last_reported":1746717075,"current_range_meters":19600,"station_id":"ce4bhgp2rcd13ifvqfc0","pricing_plan_id":"cebpf4jnsgd1na2vs0mg"},{"bike_id":"e5d220bf-f94d-4606-9aab-8b2e43f07277","system_id":"levelo_inurba_marseille","lat":43.26218,"lon":5.37436,"is_reserved":false,"is_disabled":false,"rental_uris":{"android":"levelo://app?vid=e5d220bf-f94d-4606-9aab-8b2e43f07277","ios":"levelo://app?vid=e5d220bf-f94d-4606-9aab-8b2e43f07277"},"vehicle_type_id":"4","last_reported":1746717075,"current_range_meters":19600,"station_id":"ce4bhgp2rcd13ifvqfc0","pricing_plan_id":"cebpf4jnsgd1na2vs0mg"},{"bike_id":"ac1ddd42-b2b2-4d2b-bee2-a5f648559394","system_id":"levelo_inurba_marseille","lat":43.23197,"lon":5.35552,"is_reserved":false,"is_disabled":false,"rental_uris":{"android":"levelo://app?vid=ac1ddd42-b2b2-4d2b-bee2-a5f648559394","ios":"levelo://app?vid=ac1ddd42-b2b2-4d2b-bee2-a5f648559394"},"vehicle_type_id":"4","last_reported":1746717075,"current_range_meters":19600,"station_id":"ce4bhu92rcd13ifvqi70","pricing_plan_id":"cebpf4jnsgd1na2vs0mg"},{"bike_id":"8e1f30d9-bb21-4482-9811-ac1d7d71c326","system_id":"levelo_inurba_marseille","lat":43.217612,"lon":5.346033,"is_reserved":false,"is_disabled":false,"rental_uris":{"android":"levelo://app?vid=8e1f30d9-bb21-4482-9811-ac1d7d71c326","ios":"levelo://app?vid=8e1f30d9-bb21-4482-9811-ac1d7d71c326"},"vehicle_type_id":"4","last_reported":1746717075,"current_range_meters":20000,"station_id":"st_cvj6r9ubvosntc0bgbag","pricing_plan_id":"cebpf4jnsgd1na2vs0mg"},{"bike_id":"be037950-501b-4cab-89bb-e2e737a2965d","system_id":"levelo_inurba_marseille","lat":43.34135,"lon":5.40914,"is_reserved":false,"is_disabled":false,"rental_uris":{"android":"levelo://app?vid=be037950-501b-4cab-89bb-e2e737a2965d","ios":"levelo://app?vid=be037950-501b-4cab-89bb-e2e737a2965d"},"vehicle_type_id":"4","last_reported":1746717075,"current_range_meters":20400,"station_id":"ce4bhqh2rcd13ifvqhlg","pricing_plan_id":"cebpf4jnsgd1na2vs0mg"},{"bike_id":"4057c94e-3384-425c-974e-d5a1504c85ce","system_id":"levelo_inurba_marseille","lat":43.22504,"lon":5.34778,"is_reserved":false,"is_disabled":false,"rental_uris":{"android":"levelo://app?vid=4057c94e-3384-425c-974e-d5a1504c85ce","ios":"levelo://app?vid=4057c94e-3384-425c-974e-d5a1504c85ce"},"vehicle_type_id":"4","last_reported":1746717075,"current_range_meters":20400,"station_id":"st_cvj5dfep6f1abm77gieg","pricing_plan_id":"cebpf4jnsgd1na2vs0mg"},{"bike_id":"27afb622-ad36-4517-83d3-3aad0a01aaf9","system_id":"levelo_inurba_marseille","lat":43.23199,"lon":5.35548,"is_reserved":false,"is_disabled":false,"rental_uris":{"android":"levelo://app?vid=27afb622-ad36-4517-83d3-3aad0a01aaf9","ios":"levelo://app?vid=27afb622-ad36-4517-83d3-3aad0a01aaf9"},"vehicle_type_id":"4","last_reported":1746717075,"current_range_meters":20400,"station_id":"ce4bhu92rcd13ifvqi70","pricing_plan_id":"cebpf4jnsgd1na2vs0mg"},{"bike_id":"978c4b27-b6a3-4ebc-8135-9bb57c7c51bc","system_id":"levelo_inurba_marseille","lat":43.3015,"lon":5.38081,"is_reserved":false,"is_disabled":false,"rental_uris":{"android":"levelo://app?vid=978c4b27-b6a3-4ebc-8135-9bb57c7c51bc","ios":"levelo://app?vid=978c4b27-b6a3-4ebc-8135-9bb57c7c51bc"},"vehicle_type_id":"4","last_reported":1746717075,"current_range_meters":20800,"station_id":"ce4bgjp2rcd13ifvqbh0","pricing_plan_id":"cebpf4jnsgd1na2vs0mg"},{"bike_id":"d1107ecd-be4f-458d-a1cd-17553b1323a8","system_id":"levelo_inurba_marseille","lat":43.21485,"lon":5.34813,"is_reserved":false,"is_disabled":false,"rental_uris":{"android":"levelo://app?vid=d1107ecd-be4f-458d-a1cd-17553b1323a8","ios":"levelo://app?vid=d1107ecd-be4f-458d-a1cd-17553b1323a8"},"vehicle_type_id":"4","last_reported":1746717075,"current_range_meters":20800,"station_id":"","pricing_plan_id":"cebpf4jnsgd1na2vs0mg"},{"bike_id":"dab8d0df-50d7-4cf7-9927-307028f9ec55","system_id":"levelo_inurba_marseille","lat":43.30308,"lon":5.39209,"is_reserved":false,"is_disabled":false,"rental_uris":{"android":"levelo://app?vid=dab8d0df-50d7-4cf7-9927-307028f9ec55","ios":"levelo://app?vid=dab8d0df-50d7-4cf7-9927-307028f9ec55"},"vehicle_type_id":"4","last_reported":1746717075,"current_range_meters":20800,"station_id":"ce4bgkh2rcd13ifvqbk0","pricing_plan_id":"cebpf4jnsgd1na2vs0mg"},{"bike_id":"d5d6df6c-f56d-4da5-8871-f21e1e185c68","system_id":"levelo_inurba_marseille","lat":43.29278,"lon":5.36848,"is_reserved":false,"is_disabled":false,"rental_uris":{"android":"levelo://app?vid=d5d6df6c-f56d-4da5-8871-f21e1e185c68","ios":"levelo://app?vid=d5d6df6c-f56d-4da5-8871-f21e1e185c68"},"vehicle_type_id":"4","last_reported":1746717075,"current_range_meters":20800,"station_id":"ce4bhbp2rcd13ifvqesg","pricing_plan_id":"cebpf4jnsgd1na2vs0mg"},{"bike_id":"12b15ac5-3848-4a37-a57c-9fb898e80524","system_id":"levelo_inurba_marseille","lat":43.30801,"lon":5.38152,"is_reserved":false,"is_disabled":false,"rental_uris":{"android":"levelo://app?vid=12b15ac5-3848-4a37-a57c-9fb898e80524","ios":"levelo://app?vid=12b15ac5-3848-4a37-a57c-9fb898e80524"},"vehicle_type_id":"4","last_reported":1746717075,"current_range_meters":20800,"station_id":"ce4bgt12rcd13ifvqce0","pricing_plan_id":"cebpf4jnsgd1na2vs0mg"},{"bike_id":"8c44eecc-ece9-468c-8c61-04f6edd6273d","system_id":"levelo_inurba_marseille","lat":43.28407,"lon":5.3498,"is_reserved":false,"is_disabled":false,"rental_uris":{"android":"levelo://app?vid=8c44eecc-ece9-468c-8c61-04f6edd6273d","ios":"levelo://app?vid=8c44eecc-ece9-468c-8c61-04f6edd6273d"},"vehicle_type_id":"4","last_reported":1746717075,"current_range_meters":20800,"station_id":"ce4bhbh2rcd13ifvqepg","pricing_plan_id":"cebpf4jnsgd1na2vs0mg"},{"bike_id":"cc7d8576-b765-4214-9de8-4bc0340f3bfa","system_id":"levelo_inurba_marseille","lat":43.2621,"lon":5.374453,"is_reserved":false,"is_disabled":false,"rental_uris":{"android":"levelo://app?vid=cc7d8576-b765-4214-9de8-4bc0340f3bfa","ios":"levelo://app?vid=cc7d8576-b765-4214-9de8-4bc0340f3bfa"},"vehicle_type_id":"4","last_reported":1746717075,"current_range_meters":20800,"station_id":"ce4bhgp2rcd13ifvqfc0","pricing_plan_id":"cebpf4jnsgd1na2vs0mg"},{"bike_id":"f53c1870-76a5-4732-a8c3-df2a4c19a78f","system_id":"levelo_inurba_marseille","lat":43.29911,"lon":5.37484,"is_reserved":false,"is_disabled":false,"rental_uris":{"android":"levelo://app?vid=f53c1870-76a5-4732-a8c3-df2a4c19a78f","ios":"levelo://app?vid=f53c1870-76a5-4732-a8c3-df2a4c19a78f"},"vehicle_type_id":"4","last_reported":1746717075,"current_range_meters":20800,"station_id":"ce4bgjh2rcd13ifvqbg0","pricing_plan_id":"cebpf4jnsgd1na2vs0mg"},{"bike_id":"c1041c9f-2085-470a-b13c-f88fd8323115","system_id":"levelo_inurba_marseille","lat":43.27711,"lon":5.38651,"is_reserved":false,"is_disabled":false,"rental_uris":{"android":"levelo://app?vid=c1041c9f-2085-470a-b13c-f88fd8323115","ios":"levelo://app?vid=c1041c9f-2085-470a-b13c-f88fd8323115"},"vehicle_type_id":"4","last_reported":1746717075,"current_range_meters":21600,"station_id":"","pricing_plan_id":"cebpf4jnsgd1na2vs0mg"},{"bike_id":"57258500-3b29-4282-b82c-615af557cfaf","system_id":"levelo_inurba_marseille","lat":43.31723,"lon":5.42434,"is_reserved":false,"is_disabled":false,"rental_uris":{"android":"levelo://app?vid=57258500-3b29-4282-b82c-615af557cfaf","ios":"levelo://app?vid=57258500-3b29-4282-b82c-615af557cfaf"},"vehicle_type_id":"4","last_reported":1746717075,"current_range_meters":21600,"station_id":"ce4bhp92rcd13ifvqhbg","pricing_plan_id":"cebpf4jnsgd1na2vs0mg"},{"bike_id":"96d1c8e5-5966-43d3-a3a1-08321b46b935","system_id":"levelo_inurba_marseille","lat":43.2656,"lon":5.39007,"is_reserved":false,"is_disabled":false,"rental_uris":{"android":"levelo://app?vid=96d1c8e5-5966-43d3-a3a1-08321b46b935","ios":"levelo://app?vid=96d1c8e5-5966-43d3-a3a1-08321b46b935"},"vehicle_type_id":"4","last_reported":1746717075,"current_range_meters":22000,"station_id":"ce4bhe12rcd13ifvqf30","pricing_plan_id":"cebpf4jnsgd1na2vs0mg"},{"bike_id":"a7a01b3d-278d-4454-8af1-dd8b26489ce6","system_id":"levelo_inurba_marseille","lat":43.29704,"lon":5.36588,"is_reserved":false,"is_disabled":false,"rental_uris":{"android":"levelo://app?vid=a7a01b3d-278d-4454-8af1-dd8b26489ce6","ios":"levelo://app?vid=a7a01b3d-278d-4454-8af1-dd8b26489ce6"},"vehicle_type_id":"4","last_reported":1746717075,"current_range_meters":22000,"station_id":"ce4bgn12rcd13ifvqbt0","pricing_plan_id":"cebpf4jnsgd1na2vs0mg"},{"bike_id":"e20796c6-fb69-495f-8806-cb4abe497320","system_id":"levelo_inurba_marseille","lat":43.26558,"lon":5.37298,"is_reserved":false,"is_disabled":false,"rental_uris":{"android":"levelo://app?vid=e20796c6-fb69-495f-8806-cb4abe497320","ios":"levelo://app?vid=e20796c6-fb69-495f-8806-cb4abe497320"},"vehicle_type_id":"4","last_reported":1746717075,"current_range_meters":22000,"station_id":"ce4bhg12rcd13ifvqf70","pricing_plan_id":"cebpf4jnsgd1na2vs0mg"},{"bike_id":"1e182b52-22bd-4b5c-a971-58e89a47721d","system_id":"levelo_inurba_marseille","lat":43.31227,"lon":5.36848,"is_reserved":false,"is_disabled":false,"rental_uris":{"android":"levelo://app?vid=1e182b52-22bd-4b5c-a971-58e89a47721d","ios":"levelo://app?vid=1e182b52-22bd-4b5c-a971-58e89a47721d"},"vehicle_type_id":"4","last_reported":1746717075,"current_range_meters":22000,"station_id":"ce4bgl92rcd13ifvqbq0","pricing_plan_id":"cebpf4jnsgd1na2vs0mg"},{"bike_id":"21754c23-72a4-4765-a5f9-f651955e98ef","system_id":"levelo_inurba_marseille","lat":43.27501,"lon":5.42458,"is_reserved":false,"is_disabled":false,"rental_uris":{"android":"levelo://app?vid=21754c23-72a4-4765-a5f9-f651955e98ef","ios":"levelo://app?vid=21754c23-72a4-4765-a5f9-f651955e98ef"},"vehicle_type_id":"4","last_reported":1746717075,"current_range_meters":22000,"station_id":"ce4bhn92rcd13ifvqgrg","pricing_plan_id":"cebpf4jnsgd1na2vs0mg"},{"bike_id":"4cd3a911-b468-4766-83d0-21b4a755ba9b","system_id":"levelo_inurba_marseille","lat":43.29963,"lon":5.38534,"is_reserved":false,"is_disabled":false,"rental_uris":{"android":"levelo://app?vid=4cd3a911-b468-4766-83d0-21b4a755ba9b","ios":"levelo://app?vid=4cd3a911-b468-4766-83d0-21b4a755ba9b"},"vehicle_type_id":"4","last_reported":1746717075,"current_range_meters":22400,"station_id":"","pricing_plan_id":"cebpf4jnsgd1na2vs0mg"},{"bike_id":"6536c960-9b00-47e1-808b-74ae9b1a983b","system_id":"levelo_inurba_marseille","lat":43.2952,"lon":5.37508,"is_reserved":false,"is_disabled":false,"rental_uris":{"android":"levelo://app?vid=6536c960-9b00-47e1-808b-74ae9b1a983b","ios":"levelo://app?vid=6536c960-9b00-47e1-808b-74ae9b1a983b"},"vehicle_type_id":"4","last_reported":1746717075,"current_range_meters":22400,"station_id":"ce4bgkp2rcd13ifvqbmg","pricing_plan_id":"cebpf4jnsgd1na2vs0mg"},{"bike_id":"679502ea-e209-4ef7-803c-369dd3d971bf","system_id":"levelo_inurba_marseille","lat":43.231953,"lon":5.355761,"is_reserved":false,"is_disabled":false,"rental_uris":{"android":"levelo://app?vid=679502ea-e209-4ef7-803c-369dd3d971bf","ios":"levelo://app?vid=679502ea-e209-4ef7-803c-369dd3d971bf"},"vehicle_type_id":"4","last_reported":1746717075,"current_range_meters":22400,"station_id":"ce4bhu92rcd13ifvqi70","pricing_plan_id":"cebpf4jnsgd1na2vs0mg"},{"bike_id":"5e0b5bac-5dd4-43af-a9ec-a57f36fa5948","system_id":"levelo_inurba_marseille","lat":43.321081,"lon":5.367664,"is_reserved":false,"is_disabled":false,"rental_uris":{"android":"levelo://app?vid=5e0b5bac-5dd4-43af-a9ec-a57f36fa5948","ios":"levelo://app?vid=5e0b5bac-5dd4-43af-a9ec-a57f36fa5948"},"vehicle_type_id":"4","last_reported":1746717075,"current_range_meters":22400,"station_id":"ce4bhrh2rcd13ifvqhug","pricing_plan_id":"cebpf4jnsgd1na2vs0mg"},{"bike_id":"f50332de-93c8-4bb7-a016-03fe2d0d3bbb","system_id":"levelo_inurba_marseille","lat":43.305664,"lon":5.381922,"is_reserved":false,"is_disabled":false,"rental_uris":{"android":"levelo://app?vid=f50332de-93c8-4bb7-a016-03fe2d0d3bbb","ios":"levelo://app?vid=f50332de-93c8-4bb7-a016-03fe2d0d3bbb"},"vehicle_type_id":"4","last_reported":1746717075,"current_range_meters":22400,"station_id":"ce4bgt92rcd13ifvqcf0","pricing_plan_id":"cebpf4jnsgd1na2vs0mg"},{"bike_id":"af07f2ba-567d-41f6-80a1-9b5cec286faf","system_id":"levelo_inurba_marseille","lat":43.22925,"lon":5.35376,"is_reserved":false,"is_disabled":true,"rental_uris":{"android":"levelo://app?vid=af07f2ba-567d-41f6-80a1-9b5cec286faf","ios":"levelo://app?vid=af07f2ba-567d-41f6-80a1-9b5cec286faf"},"vehicle_type_id":"4","last_reported":1746717075,"current_range_meters":22400,"station_id":"cpo3532slgdg3j2ikp40","pricing_plan_id":"cebpf4jnsgd1na2vs0mg"},{"bike_id":"da5c49e8-962e-470a-865c-6b965c4564d1","system_id":"levelo_inurba_marseille","lat":43.22515,"lon":5.34781,"is_reserved":false,"is_disabled":false,"rental_uris":{"android":"levelo://app?vid=da5c49e8-962e-470a-865c-6b965c4564d1","ios":"levelo://app?vid=da5c49e8-962e-470a-865c-6b965c4564d1"},"vehicle_type_id":"4","last_reported":1746717075,"current_range_meters":22800,"station_id":"st_cvj5dfep6f1abm77gieg","pricing_plan_id":"cebpf4jnsgd1na2vs0mg"},{"bike_id":"fc10424c-8722-424e-bb0c-d43cc93a6e89","system_id":"levelo_inurba_marseille","lat":43.28716,"lon":5.37938,"is_reserved":false,"is_disabled":false,"rental_uris":{"android":"levelo://app?vid=fc10424c-8722-424e-bb0c-d43cc93a6e89","ios":"levelo://app?vid=fc10424c-8722-424e-bb0c-d43cc93a6e89"},"vehicle_type_id":"4","last_reported":1746717075,"current_range_meters":22800,"station_id":"ce4bh9p2rcd13ifvqec0","pricing_plan_id":"cebpf4jnsgd1na2vs0mg"},{"bike_id":"7f014188-f4fc-4d57-a429-78abc4439fff","system_id":"levelo_inurba_marseille","lat":43.2656,"lon":5.37287,"is_reserved":false,"is_disabled":false,"rental_uris":{"android":"levelo://app?vid=7f014188-f4fc-4d57-a429-78abc4439fff","ios":"levelo://app?vid=7f014188-f4fc-4d57-a429-78abc4439fff"},"vehicle_type_id":"4","last_reported":1746717075,"current_range_meters":22800,"station_id":"ce4bhg12rcd13ifvqf70","pricing_plan_id":"cebpf4jnsgd1na2vs0mg"},{"bike_id":"e99b0612-577d-40d7-8e1f-eaff050fe5a0","system_id":"levelo_inurba_marseille","lat":43.25824,"lon":5.394291,"is_reserved":false,"is_disabled":false,"rental_uris":{"android":"levelo://app?vid=e99b0612-577d-40d7-8e1f-eaff050fe5a0","ios":"levelo://app?vid=e99b0612-577d-40d7-8e1f-eaff050fe5a0"},"vehicle_type_id":"4","last_reported":1746717075,"current_range_meters":22800,"station_id":"ce4bhip2rcd13ifvqft0","pricing_plan_id":"cebpf4jnsgd1na2vs0mg"},{"bike_id":"2eb8dc8a-5422-4a49-9e5b-7b1ea59dd4ea","system_id":"levelo_inurba_marseille","lat":43.21764,"lon":5.34629,"is_reserved":false,"is_disabled":false,"rental_uris":{"android":"levelo://app?vid=2eb8dc8a-5422-4a49-9e5b-7b1ea59dd4ea","ios":"levelo://app?vid=2eb8dc8a-5422-4a49-9e5b-7b1ea59dd4ea"},"vehicle_type_id":"4","last_reported":1746717075,"current_range_meters":22800,"station_id":"st_cvj6r9ubvosntc0bgbag","pricing_plan_id":"cebpf4jnsgd1na2vs0mg"},{"bike_id":"845a5e64-463c-4a96-b4d1-95fffd959596","system_id":"levelo_inurba_marseille","lat":43.31117,"lon":5.37773,"is_reserved":false,"is_disabled":false,"rental_uris":{"android":"levelo://app?vid=845a5e64-463c-4a96-b4d1-95fffd959596","ios":"levelo://app?vid=845a5e64-463c-4a96-b4d1-95fffd959596"},"vehicle_type_id":"4","last_reported":1746717075,"current_range_meters":22400,"station_id":"ce4bgt92rcd13ifvqcg0","pricing_plan_id":"cebpf4jnsgd1na2vs0mg"},{"bike_id":"a3220723-4386-4e7a-8680-13c9435277c8","system_id":"levelo_inurba_marseille","lat":43.308212,"lon":5.373598,"is_reserved":false,"is_disabled":false,"rental_uris":{"android":"levelo://app?vid=a3220723-4386-4e7a-8680-13c9435277c8","ios":"levelo://app?vid=a3220723-4386-4e7a-8680-13c9435277c8"},"vehicle_type_id":"4","last_reported":1746717075,"current_range_meters":22800,"station_id":"","pricing_plan_id":"cebpf4jnsgd1na2vs0mg"},{"bike_id":"fc2577e7-1497-425b-9d4f-ab8d7dc843c6","system_id":"levelo_inurba_marseille","lat":43.33771,"lon":5.37485,"is_reserved":false,"is_disabled":false,"rental_uris":{"android":"levelo://app?vid=fc2577e7-1497-425b-9d4f-ab8d7dc843c6","ios":"levelo://app?vid=fc2577e7-1497-425b-9d4f-ab8d7dc843c6"},"vehicle_type_id":"4","last_reported":1746717075,"current_range_meters":23200,"station_id":"","pricing_plan_id":"cebpf4jnsgd1na2vs0mg"},{"bike_id":"d9b964b5-ee41-4768-80c2-39b90b2c8516","system_id":"levelo_inurba_marseille","lat":43.30143,"lon":5.38053,"is_reserved":false,"is_disabled":false,"rental_uris":{"android":"levelo://app?vid=d9b964b5-ee41-4768-80c2-39b90b2c8516","ios":"levelo://app?vid=d9b964b5-ee41-4768-80c2-39b90b2c8516"},"vehicle_type_id":"4","last_reported":1746717075,"current_range_meters":23200,"station_id":"ce4bgjp2rcd13ifvqbh0","pricing_plan_id":"cebpf4jnsgd1na2vs0mg"},{"bike_id":"a68b7353-e08e-4666-9405-5cea58c495c4","system_id":"levelo_inurba_marseille","lat":43.217543,"lon":5.346005,"is_reserved":false,"is_disabled":false,"rental_uris":{"android":"levelo://app?vid=a68b7353-e08e-4666-9405-5cea58c495c4","ios":"levelo://app?vid=a68b7353-e08e-4666-9405-5cea58c495c4"},"vehicle_type_id":"4","last_reported":1746717075,"current_range_meters":23200,"station_id":"st_cvj6r9ubvosntc0bgbag","pricing_plan_id":"cebpf4jnsgd1na2vs0mg"},{"bike_id":"12f59c06-06af-4522-b54c-76e77353c401","system_id":"levelo_inurba_marseille","lat":43.32662,"lon":5.40986,"is_reserved":false,"is_disabled":false,"rental_uris":{"android":"levelo://app?vid=12f59c06-06af-4522-b54c-76e77353c401","ios":"levelo://app?vid=12f59c06-06af-4522-b54c-76e77353c401"},"vehicle_type_id":"4","last_reported":1746717075,"current_range_meters":23200,"station_id":"ce4bhpp2rcd13ifvqhgg","pricing_plan_id":"cebpf4jnsgd1na2vs0mg"},{"bike_id":"545e5687-b7df-4883-81be-75a8925d5f91","system_id":"levelo_inurba_marseille","lat":43.337444,"lon":5.374475,"is_reserved":false,"is_disabled":false,"rental_uris":{"android":"levelo://app?vid=545e5687-b7df-4883-81be-75a8925d5f91","ios":"levelo://app?vid=545e5687-b7df-4883-81be-75a8925d5f91"},"vehicle_type_id":"4","last_reported":1746717075,"current_range_meters":23200,"station_id":"","pricing_plan_id":"cebpf4jnsgd1na2vs0mg"},{"bike_id":"71dabb1a-3d6f-4f66-997d-9704d1d4b126","system_id":"levelo_inurba_marseille","lat":43.30601,"lon":5.3723,"is_reserved":false,"is_disabled":false,"rental_uris":{"android":"levelo://app?vid=71dabb1a-3d6f-4f66-997d-9704d1d4b126","ios":"levelo://app?vid=71dabb1a-3d6f-4f66-997d-9704d1d4b126"},"vehicle_type_id":"4","last_reported":1746717075,"current_range_meters":23200,"station_id":"ce4bgqh2rcd13ifvqc4g","pricing_plan_id":"cebpf4jnsgd1na2vs0mg"},{"bike_id":"696d97d1-8367-41ce-b0de-5b19a16cfb1b","system_id":"levelo_inurba_marseille","lat":43.30147,"lon":5.37417,"is_reserved":false,"is_disabled":false,"rental_uris":{"android":"levelo://app?vid=696d97d1-8367-41ce-b0de-5b19a16cfb1b","ios":"levelo://app?vid=696d97d1-8367-41ce-b0de-5b19a16cfb1b"},"vehicle_type_id":"4","last_reported":1746717075,"current_range_meters":23200,"station_id":"ce4bgs92rcd13ifvqcc0","pricing_plan_id":"cebpf4jnsgd1na2vs0mg"},{"bike_id":"97befefa-5a57-41c3-b05f-992b5ed1c603","system_id":"levelo_inurba_marseille","lat":43.24071,"lon":5.37757,"is_reserved":false,"is_disabled":false,"rental_uris":{"android":"levelo://app?vid=97befefa-5a57-41c3-b05f-992b5ed1c603","ios":"levelo://app?vid=97befefa-5a57-41c3-b05f-992b5ed1c603"},"vehicle_type_id":"4","last_reported":1746717075,"current_range_meters":23200,"station_id":"ce4bhnp2rcd13ifvqgvg","pricing_plan_id":"cebpf4jnsgd1na2vs0mg"},{"bike_id":"1b880a91-b2ee-44a6-a809-5f911b5942bf","system_id":"levelo_inurba_marseille","lat":43.29632,"lon":5.4059,"is_reserved":false,"is_disabled":false,"rental_uris":{"android":"levelo://app?vid=1b880a91-b2ee-44a6-a809-5f911b5942bf","ios":"levelo://app?vid=1b880a91-b2ee-44a6-a809-5f911b5942bf"},