{"last_updated":1706566005,"ttl":30,"version":"2.2","data":{"bikes":[{"bike_id":"d3a84426-ac46-4a9f-84c4-9b74da5c35ec","system_id":"levelo_inurba_marseille","lat":43.312239,"lon":5.368562,"is_reserved":false,"is_disabled":false,"rental_uris":{"android":"levelo://app?vid=d3a84426-ac46-4a9f-84c4-9b74da5c35ec","ios":"levelo://app?vid=d3a84426-ac46-4a9f-84c4-9b74da5c35ec"},"vehicle_type_id":"4","last_reported":1706566005,"current_range_meters":13200,"station_id":"ce4bgl92rcd13ifvqbq0","pricing_plan_id":"free"},{"bike_id":"f510f691-0739-4ef3-9588-c4bd79a340ab","system_id":"levelo_inurba_marseille","lat":43.312239,"lon":5.368562,"is_reserved":false,"is_disabled":false,"rental_uris":{"android":"levelo://app?vid=f510f691-0739-4ef3-9588-c4bd79a340ab","ios":"levelo://app?vid=f510f691-0739-4ef3-9588-c4bd79a340ab"},"vehicle_type_id":"4","last_reported":1706566005,"current_range_meters":13200,"station_id":"ce4bgl92rcd13ifvqbq0","pricing_plan_id":"free"},{"bike_id":"c1bda3ae-fbd3-4604-9da6-15403ac2caf7","system_id":"levelo_inurba_marseille","lat":43.31487,"lon":5.37304,"is_reserved":false,"is_disabled":false,"rental_uris":{"android":"levelo://app?vid=c1bda3ae-fbd3-4604-9da6-15403ac2caf7","ios":"levelo://app?vid=c1bda3ae-fbd3-4604-9da6-15403ac2caf7"},"vehicle_type_id":"4","last_reported":1706566005,"current_range_meters":0,"station_id":"ce4bgt12rcd13ifvqcd0","pricing_plan_id":"free"},{"bike_id":"8ae8698b-d730-4392-a686-8d078966890f","system_id":"levelo_inurba_marseille","lat":43.30638,"lon":5.36759,"is_reserved":false,"is_disabled":false,"rental_uris":{"android":"levelo://app?vid=8ae8698b-d730-4392-a686-8d078966890f","ios":"levelo://app?vid=8ae8698b-d730-4392-a686-8d078966890f"},"vehicle_type_id":"4","last_reported":1706566005,"current_range_meters":28400,"station_id":"","pricing_plan_id":"free"},{"bike_id":"917a0197-d7ec-4ed7-985f-ac00a7528599","system_id":"levelo_inurba_marseille","lat":43.305368,"lon":5.367343,"is_reserved":false,"is_disabled":false,"rental_uris":{"android":"levelo://app?vid=917a0197-d7ec-4ed7-985f-ac00a7528599","ios":"levelo://app?vid=917a0197-d7ec-4ed7-985f-ac00a7528599"},"vehicle_type_id":"4","last_reported":1706566005,"current_range_meters":0,"station_id":"ce4bgrp2rcd13ifvqc9g","pricing_plan_id":"free"},{"bike_id":"c887bc17-d8a7-4f0a-8308-346c32e757de","system_id":"levelo_inurba_marseille","lat":43.30543,"lon":5.36697,"is_reserved":false,"is_disabled":false,"rental_uris":{"android":"levelo://app?vid=c887bc17-d8a7-4f0a-8308-346c32e757de","ios":"levelo://app?vid=c887bc17-d8a7-4f0a-8308-346c32e757de"},"vehicle_type_id":"4","last_reported":1706566005,"current_range_meters":21200,"station_id":"ce4bgrp2rcd13ifvqc9g","pricing_plan_id":"free"},{"bike_id":"02da4e10-15d5-4aac-b37d-d7200c112f76","system_id":"levelo_inurba_marseille","lat":43.305989,"lon":5.37225,"is_reserved":false,"is_disabled":false,"rental_uris":{"android":"levelo://app?vid=02da4e10-15d5-4aac-b37d-d7200c112f76","ios":"levelo://app?vid=02da4e10-15d5-4aac-b37d-d7200c112f76"},"vehicle_type_id":"4","last_reported":1706566005,"current_range_meters":24800,"station_id":"ce4bgqh2rcd13ifvqc4g","pricing_plan_id":"free"},{"bike_id":"059a753f-b3c9-42bf-a588-94b662b79497","system_id":"levelo_inurba_marseille","lat":43.30598,"lon":5.37211,"is_reserved":false,"is_disabled":false,"rental_uris":{"android":"levelo://app?vid=059a753f-b3c9-42bf-a588-94b662b79497","ios":"levelo://app?vid=059a753f-b3c9-42bf-a588-94b662b79497"},"vehicle_type_id":"4","last_reported":1706566005,"current_range_meters":0,"station_id":"ce4bgqh2rcd13ifvqc4g","pricing_plan_id":"free"},{"bike_id":"53a271d5-7292-41d7-9be7-a743b06d8b54","system_id":"levelo_inurba_marseille","lat":43.31109,"lon":5.37753,"is_reserved":false,"is_disabled":false,"rental_uris":{"android":"levelo://app?vid=53a271d5-7292-41d7-9be7-a743b06d8b54","ios":"levelo://app?vid=53a271d5-7292-41d7-9be7-a743b06d8b54"},"vehicle_type_id":"4","last_reported":1706566005,"current_range_meters":6400,"station_id":"ce4bgt92rcd13ifvqcg0","pricing_plan_id":"free"},{"bike_id":"3e7143e6-9bb8-48ee-a4d3-ecd334eb6c36","system_id":"levelo_inurba_marseille","lat":43.31129,"lon":5.37759,"is_reserved":false,"is_disabled":false,"rental_uris":{"android":"levelo://app?vid=3e7143e6-9bb8-48ee-a4d3-ecd334eb6c36","ios":"levelo://app?vid=3e7143e6-9bb8-48ee-a4d3-ecd334eb6c36"},"vehicle_type_id":"4","last_reported":1706566005,"current_range_meters":0,"station_id":"ce4bgt92rcd13ifvqcg0","pricing_plan_id":"free"},{"bike_id":"c87996ca-3a64-4150-a06c-1a97638223d7","system_id":"levelo_inurba_marseille","lat":43.307945,"lon":5.376487,"is_reserved":false,"is_disabled":false,"rental_uris":{"android":"levelo://app?vid=c87996ca-3a64-4150-a06c-1a97638223d7","ios":"levelo://app?vid=c87996ca-3a64-4150-a06c-1a97638223d7"},"vehicle_type_id":"4","last_reported":1706566005,"current_range_meters":16800,"station_id":"ce4bgv92rcd13ifvqcq0","pricing_plan_id":"free"},{"bike_id":"7a84117f-72a2-4511-bfe9-4c68bd765df9","system_id":"levelo_inurba_marseille","lat":43.307945,"lon":5.376487,"is_reserved":false,"is_disabled":false,"rental_uris":{"android":"levelo://app?vid=7a84117f-72a2-4511-bfe9-4c68bd765df9","ios":"levelo://app?vid=7a84117f-72a2-4511-bfe9-4c68bd765df9"},"vehicle_type_id":"4","last_reported":1706566005,"current_range_meters":14800,"station_id":"ce4bgv92rcd13ifvqcq0","pricing_plan_id":"free"},{"bike_id":"81a9d333-4d36-4dd6-aae2-2ae799ddadba","system_id":"levelo_inurba_marseille","lat":43.30304,"lon":5.368987,"is_reserved":false,"is_disabled":false,"rental_uris":{"android":"levelo://app?vid=81a9d333-4d36-4dd6-aae2-2ae799ddadba","ios":"levelo://app?vid=81a9d333-4d36-4dd6-aae2-2ae799ddadba"},"vehicle_type_id":"4","last_reported":1706566005,"current_range_meters":11200,"station_id":"ce4bgqh2rcd13ifvqc5g","pricing_plan_id":"free"},{"bike_id":"21f50ad6-5d41-42c7-a19c-f234cdf83216","system_id":"levelo_inurba_marseille","lat":43.303046,"lon":5.368981,"is_reserved":false,"is_disabled":false,"rental_uris":{"android":"levelo://app?vid=21f50ad6-5d41-42c7-a19c-f234cdf83216","ios":"levelo://app?vid=21f50ad6-5d41-42c7-a19c-f234cdf83216"},"vehicle_type_id":"4","last_reported":1706566005,"current_range_meters":30800,"station_id":"ce4bgqh2rcd13ifvqc5g","pricing_plan_id":"free"},{"bike_id":"b83daeb9-a39c-4884-86e2-16a37c651f7f","system_id":"levelo_inurba_marseille","lat":43.319973,"lon":5.376167,"is_reserved":false,"is_disabled":false,"rental_uris":{"android":"levelo://app?vid=b83daeb9-a39c-4884-86e2-16a37c651f7f","ios":"levelo://app?vid=b83daeb9-a39c-4884-86e2-16a37c651f7f"},"vehicle_type_id":"4","last_reported":1706566005,"current_range_meters":0,"station_id":"","pricing_plan_id":"free"},{"bike_id":"78331664-9b25-472a-85e9-f61051304054","system_id":"levelo_inurba_marseille","lat":43.315293,"lon":5.380349,"is_reserved":false,"is_disabled":false,"rental_uris":{"android":"levelo://app?vid=78331664-9b25-472a-85e9-f61051304054","ios":"levelo://app?vid=78331664-9b25-472a-85e9-f61051304054"},"vehicle_type_id":"4","last_reported":1706566005,"current_range_meters":4400,"station_id":"ce4bhsp2rcd13ifvqi50","pricing_plan_id":"free"},{"bike_id":"dd11690c-1bdc-496d-8c2b-becd0f85a4b6","system_id":"levelo_inurba_marseille","lat":43.315293,"lon":5.380349,"is_reserved":false,"is_disabled":false,"rental_uris":{"android":"levelo://app?vid=dd11690c-1bdc-496d-8c2b-becd0f85a4b6","ios":"levelo://app?vid=dd11690c-1bdc-496d-8c2b-becd0f85a4b6"},"vehicle_type_id":"4","last_reported":1706566005,"current_range_meters":12400,"station_id":"ce4bhsp2rcd13ifvqi50","pricing_plan_id":"free"},{"bike_id":"e5581879-d74e-4edb-8cd6-14ee9da8816c","system_id":"levelo_inurba_marseille","lat":43.308012,"lon":5.381511,"is_reserved":false,"is_disabled":false,"rental_uris":{"android":"levelo://app?vid=e5581879-d74e-4edb-8cd6-14ee9da8816c","ios":"levelo://app?vid=e5581879-d74e-4edb-8cd6-14ee9da8816c"},"vehicle_type_id":"4","last_reported":1706566005,"current_range_meters":15600,"station_id":"ce4bgt12rcd13ifvqce0","pricing_plan_id":"free"},{"bike_id":"2b2ad1c2-18df-4aeb-b508-13d4c61a191d","system_id":"levelo_inurba_marseille","lat":43.308012,"lon":5.381511,"is_reserved":false,"is_disabled":false,"rental_uris":{"android":"levelo://app?vid=2b2ad1c2-18df-4aeb-b508-13d4c61a191d","ios":"levelo://app?vid=2b2ad1c2-18df-4aeb-b508-13d4c61a191d"},"vehicle_type_id":"4","last_reported":1706566005,"current_range_meters":20400,"station_id":"ce4bgt12rcd13ifvqce0","pricing_plan_id":"free"},{"bike_id":"fefe6ff0-2e29-41ff-a4a4-8ff2b150322a","system_id":"levelo_inurba_marseille","lat":43.308012,"lon":5.381511,"is_reserved":false,"is_disabled":false,"rental_uris":{"android":"levelo://app?vid=fefe6ff0-2e29-41ff-a4a4-8ff2b150322a","ios":"levelo://app?vid=fefe6ff0-2e29-41ff-a4a4-8ff2b150322a"},"vehicle_type_id":"4","last_reported":1706566005,"current_range_meters":15600,"station_id":"ce4bgt12rcd13ifvqce0","pricing_plan_id":"free"},{"bike_id":"996b049f-569b-4c36-b239-4f51a804fac7","system_id":"levelo_inurba_marseille","lat":43.308012,"lon":5.381511,"is_reserved":false,"is_disabled":false,"rental_uris":{"android":"levelo://app?vid=996b049f-569b-4c36-b239-4f51a804fac7","ios":"levelo://app?vid=996b049f-569b-4c36-b239-4f51a804fac7"},"vehicle_type_id":"4","last_reported":1706566005,"current_range_meters":8800,"station_id":"ce4bgt12rcd13ifvqce0","pricing_plan_id":"free"},{"bike_id":"04d299c0-b119-40b8-a992-8d5415ef1bc6","system_id":"levelo_inurba_marseille","lat":43.308012,"lon":5.381511,"is_reserved":false,"is_disabled":false,"rental_uris":{"android":"levelo://app?vid=04d299c0-b119-40b8-a992-8d5415ef1bc6","ios":"levelo://app?vid=04d299c0-b119-40b8-a992-8d5415ef1bc6"},"vehicle_type_id":"4","last_reported":1706566005,"current_range_meters":400,"station_id":"ce4bgt12rcd13ifvqce0","pricing_plan_id":"free"},{"bike_id":"2d40c143-6cb5-4df6-a200-396289dcd0f5","system_id":"levelo_inurba_marseille","lat":43.324771,"lon":5.36557,"is_reserved":false,"is_disabled":false,"rental_uris":{"android":"levelo://app?vid=2d40c143-6cb5-4df6-a200-396289dcd0f5","ios":"levelo://app?vid=2d40c143-6cb5-4df6-a200-396289dcd0f5"},"vehicle_type_id":"4","last_reported":1706566005,"current_range_meters":2000,"station_id":"ce4bhs12rcd13ifvqhvg","pricing_plan_id":"free"},{"bike_id":"dc00bdf8-dc57-4b02-8d44-8ea4906debe3","system_id":"levelo_inurba_marseille","lat":43.324771,"lon":5.36557,"is_reserved":false,"is_disabled":false,"rental_uris":{"android":"levelo://app?vid=dc00bdf8-dc57-4b02-8d44-8ea4906debe3","ios":"levelo://app?vid=dc00bdf8-dc57-4b02-8d44-8ea4906debe3"},"vehicle_type_id":"4","last_reported":1706566005,"current_range_meters":11600,"station_id":"ce4bhs12rcd13ifvqhvg","pricing_plan_id":"free"},{"bike_id":"13bd44b9-8ecb-46da-981f-fe222ffce708","system_id":"levelo_inurba_marseille","lat":43.324771,"lon":5.36557,"is_reserved":false,"is_disabled":false,"rental_uris":{"android":"levelo://app?vid=13bd44b9-8ecb-46da-981f-fe222ffce708","ios":"levelo://app?vid=13bd44b9-8ecb-46da-981f-fe222ffce708"},"vehicle_type_id":"4","last_reported":1706566005,"current_range_meters":12400,"station_id":"ce4bhs12rcd13ifvqhvg","pricing_plan_id":"free"},{"bike_id":"96bada0b-1fa9-4706-87e9-8f67e261e440","system_id":"levelo_inurba_marseille","lat":43.324771,"lon":5.36557,"is_reserved":false,"is_disabled":false,"rental_uris":{"android":"levelo://app?vid=96bada0b-1fa9-4706-87e9-8f67e261e440","ios":"levelo://app?vid=96bada0b-1fa9-4706-87e9-8f67e261e440"},"vehicle_type_id":"4","last_reported":1706566005,"current_range_meters":23200,"station_id":"ce4bhs12rcd13ifvqhvg","pricing_plan_id":"free"},{"bike_id":"11c30585-a193-4157-8eb9-d99a32e94516","system_id":"levelo_inurba_marseille","lat":43.324771,"lon":5.36557,"is_reserved":false,"is_disabled":false,"rental_uris":{"android":"levelo://app?vid=11c30585-a193-4157-8eb9-d99a32e94516","ios":"levelo://app?vid=11c30585-a193-4157-8eb9-d99a32e94516"},"vehicle_type_id":"4","last_reported":1706566005,"current_range_meters":19200,"station_id":"ce4bhs12rcd13ifvqhvg","pricing_plan_id":"free"},{"bike_id":"4c1d912b-8425-4b28-bcd4-0691a1724560","system_id":"levelo_inurba_marseille","lat":43.324856,"lon":5.365758,"is_reserved":false,"is_disabled":false,"rental_uris":{"android":"levelo://app?vid=4c1d912b-8425-4b28-bcd4-0691a1724560","ios":"levelo://app?vid=4c1d912b-8425-4b28-bcd4-0691a1724560"},"vehicle_type_id":"4","last_reported":1706566005,"current_range_meters":27200,"station_id":"ce4bhs12rcd13ifvqhvg","pricing_plan_id":"free"},{"bike_id":"239ee371-bbc7-4a37-b9ca-502133e1a4cd","system_id":"levelo_inurba_marseille","lat":43.324771,"lon":5.36557,"is_reserved":false,"is_disabled":false,"rental_uris":{"android":"levelo://app?vid=239ee371-bbc7-4a37-b9ca-502133e1a4cd","ios":"levelo://app?vid=239ee371-bbc7-4a37-b9ca-502133e1a4cd"},"vehicle_type_id":"4","last_reported":1706566005,"current_range_meters":28000,"station_id":"ce4bhs12rcd13ifvqhvg","pricing_plan_id":"free"},{"bike_id":"dd6b7008-c30f-4316-8921-b5028f9d3f38","system_id":"levelo_inurba_marseille","lat":43.319935,"lon":5.381699,"is_reserved":false,"is_disabled":false,"rental_uris":{"android":"levelo://app?vid=dd6b7008-c30f-4316-8921-b5028f9d3f38","ios":"levelo://app?vid=dd6b7008-c30f-4316-8921-b5028f9d3f38"},"vehicle_type_id":"4","last_reported":1706566005,"current_range_meters":20400,"station_id":"ce4bhr12rcd13ifvqhpg","pricing_plan_id":"free"},{"bike_id":"0ca84510-6630-47d1-867a-145dbc99d2a1","system_id":"levelo_inurba_marseille","lat":43.319935,"lon":5.381699,"is_reserved":false,"is_disabled":false,"rental_uris":{"android":"levelo://app?vid=0ca84510-6630-47d1-867a-145dbc99d2a1","ios":"levelo://app?vid=0ca84510-6630-47d1-867a-145dbc99d2a1"},"vehicle_type_id":"4","last_reported":1706566005,"current_range_meters":20400,"station_id":"ce4bhr12rcd13ifvqhpg","pricing_plan_id":"free"},{"bike_id":"bb929bd9-481f-47ef-b3a2-06363540c0cc","system_id":"levelo_inurba_marseille","lat":43.319935,"lon":5.381699,"is_reserved":false,"is_disabled":false,"rental_uris":{"android":"levelo://app?vid=bb929bd9-481f-47ef-b3a2-06363540c0cc","ios":"levelo://app?vid=bb929bd9-481f-47ef-b3a2-06363540c0cc"},"vehicle_type_id":"4","last_reported":1706566005,"current_range_meters":4800,"station_id":"ce4bhr12rcd13ifvqhpg","pricing_plan_id":"free"},{"bike_id":"a6345780-30db-47f2-acfb-6adc1facc2d6","system_id":"levelo_inurba_marseille","lat":43.319935,"lon":5.381699,"is_reserved":false,"is_disabled":false,"rental_uris":{"android":"levelo://app?vid=a6345780-30db-47f2-acfb-6adc1facc2d6","ios":"levelo://app?vid=a6345780-30db-47f2-acfb-6adc1facc2d6"},"vehicle_type_id":"4","last_reported":1706566005,"current_range_meters":1200,"station_id":"ce4bhr12rcd13ifvqhpg","pricing_plan_id":"free"},{"bike_id":"e163d0f3-cac3-48a6-9514-1f57ae24562b","system_id":"levelo_inurba_marseille","lat":43.319935,"lon":5.381699,"is_reserved":false,"is_disabled":false,"rental_uris":{"android":"levelo://app?vid=e163d0f3-cac3-48a6-9514-1f57ae24562b","ios":"levelo://app?vid=e163d0f3-cac3-48a6-9514-1f57ae24562b"},"vehicle_type_id":"4","last_reported":1706566005,"current_range_meters":19200,"station_id":"ce4bhr12rcd13ifvqhpg","pricing_plan_id":"free"},{"bike_id":"db221131-c386-47ca-b2fd-68cdd3449415","system_id":"levelo_inurba_marseille","lat":43.319935,"lon":5.381699,"is_reserved":false,"is_disabled":false,"rental_uris":{"android":"levelo://app?vid=db221131-c386-47ca-b2fd-68cdd3449415","ios":"levelo://app?vid=db221131-c386-47ca-b2fd-68cdd3449415"},"vehicle_type_id":"4","last_reported":1706566005,"current_range_meters":5600,"station_id":"ce4bhr12rcd13ifvqhpg","pricing_plan_id":"free"},{"bike_id":"62359dd4-e5a2-43d3-8c03-a9073c8bb30e","system_id":"levelo_inurba_marseille","lat":43.314811,"lon":5.373103,"is_reserved":false,"is_disabled":false,"rental_uris":{"android":"levelo://app?vid=62359dd4-e5a2-43d3-8c03-a9073c8bb30e","ios":"levelo://app?vid=62359dd4-e5a2-43d3-8c03-a9073c8bb30e"},"vehicle_type_id":"4","last_reported":1706566005,"current_range_meters":16800,"station_id":"ce4bgt12rcd13ifvqcd0","pricing_plan_id":"free"},{"bike_id":"62b3d88b-bfdd-4ba1-b662-a690f433c870","system_id":"levelo_inurba_marseille","lat":43.313571,"lon":5.384829,"is_reserved":false,"is_disabled":false,"rental_uris":{"android":"levelo://app?vid=62b3d88b-bfdd-4ba1-b662-a690f433c870","ios":"levelo://app?vid=62b3d88b-bfdd-4ba1-b662-a690f433c870"},"vehicle_type_id":"4","last_reported":1706566005,"current_range_meters":24000,"station_id":"ce4bgt92rcd13ifvqcf0","pricing_plan_id":"free"},{"bike_id":"89c84ddc-d0f7-4fa9-b5fb-cf3c79c1de46","system_id":"levelo_inurba_marseille","lat":43.313571,"lon":5.384829,"is_reserved":false,"is_disabled":false,"rental_uris":{"android":"levelo://app?vid=89c84ddc-d0f7-4fa9-b5fb-cf3c79c1de46","ios":"levelo://app?vid=89c84ddc-d0f7-4fa9-b5fb-cf3c79c1de46"},"vehicle_type_id":"4","last_reported":1706566005,"current_range_meters":0,"station_id":"ce4bgt92rcd13ifvqcf0","pricing_plan_id":"free"},{"bike_id":"74306f40-ca0e-4ccc-b79c-130072e75201","system_id":"levelo_inurba_marseille","lat":43.313571,"lon":5.384829,"is_reserved":false,"is_disabled":false,"rental_uris":{"android":"levelo://app?vid=74306f40-ca0e-4ccc-b79c-130072e75201","ios":"levelo://app?vid=74306f40-ca0e-4ccc-b79c-130072e75201"},"vehicle_type_id":"4","last_reported":1706566005,"current_range_meters":20800,"station_id":"ce4bgt92rcd13ifvqcf0","pricing_plan_id":"free"},{"bike_id":"1c544787-426b-4a93-9b4d-21bbbdad11cb","system_id":"levelo_inurba_marseille","lat":43.313571,"lon":5.384829,"is_reserved":false,"is_disabled":false,"rental_uris":{"android":"levelo://app?vid=1c544787-426b-4a93-9b4d-21bbbdad11cb","ios":"levelo://app?vid=1c544787-426b-4a93-9b4d-21bbbdad11cb"},"vehicle_type_id":"4","last_reported":1706566005,"current_range_meters":21200,"station_id":"ce4bgt92rcd13ifvqcf0","pricing_plan_id":"free"},{"bike_id":"d2e36d01-c0a4-487d-8c98-6bcd2161b928","system_id":"levelo_inurba_marseille","lat":43.299222,"lon":5.365554,"is_reserved":false,"is_disabled":false,"rental_uris":{"android":"levelo://app?vid=d2e36d01-c0a4-487d-8c98-6bcd2161b928","ios":"levelo://app?vid=d2e36d01-c0a4-487d-8c98-6bcd2161b928"},"vehicle_type_id":"4","last_reported":1706566005,"current_range_meters":8000,"station_id":"ce4bgm92rcd13ifvqbr0","pricing_plan_id":"free"},{"bike_id":"54f14b72-7316-4675-b530-07bfba60ee63","system_id":"levelo_inurba_marseille","lat":43.299222,"lon":5.365554,"is_reserved":false,"is_disabled":false,"rental_uris":{"android":"levelo://app?vid=54f14b72-7316-4675-b530-07bfba60ee63","ios":"levelo://app?vid=54f14b72-7316-4675-b530-07bfba60ee63"},"vehicle_type_id":"4","last_reported":1706566005,"current_range_meters":3600,"station_id":"ce4bgm92rcd13ifvqbr0","pricing_plan_id":"free"},{"bike_id":"a913d053-372c-4a4e-a0c3-ba513a7d66f2","system_id":"levelo_inurba_marseille","lat":43.305364,"lon":5.384119,"is_reserved":false,"is_disabled":false,"rental_uris":{"android":"levelo://app?vid=a913d053-372c-4a4e-a0c3-ba513a7d66f2","ios":"levelo://app?vid=a913d053-372c-4a4e-a0c3-ba513a7d66f2"},"vehicle_type_id":"4","last_reported":1706566005,"current_range_meters":5200,"station_id":"ce4bgg92rcd13ifvqb30","pricing_plan_id":"free"},{"bike_id":"0a4fe8a6-2a06-4cab-b638-e0937ae317a8","system_id":"levelo_inurba_marseille","lat":43.31174,"lon":5.38707,"is_reserved":false,"is_disabled":false,"rental_uris":{"android":"levelo://app?vid=0a4fe8a6-2a06-4cab-b638-e0937ae317a8","ios":"levelo://app?vid=0a4fe8a6-2a06-4cab-b638-e0937ae317a8"},"vehicle_type_id":"4","last_reported":1706566005,"current_range_meters":2000,"station_id":"ce4bgv12rcd13ifvqcp0","pricing_plan_id":"free"},{"bike_id":"7a3928fa-6b7a-4170-bb54-1e67555b930f","system_id":"levelo_inurba_marseille","lat":43.311722,"lon":5.387247,"is_reserved":false,"is_disabled":false,"rental_uris":{"android":"levelo://app?vid=7a3928fa-6b7a-4170-bb54-1e67555b930f","ios":"levelo://app?vid=7a3928fa-6b7a-4170-bb54-1e67555b930f"},"vehicle_type_id":"4","last_reported":1706566005,"current_range_meters":14000,"station_id":"ce4bgv12rcd13ifvqcp0","pricing_plan_id":"free"},{"bike_id":"52c0ddbb-c50b-44be-820a-25591618067a","system_id":"levelo_inurba_marseille","lat":43.31172,"lon":5.38714,"is_reserved":false,"is_disabled":false,"rental_uris":{"android":"levelo://app?vid=52c0ddbb-c50b-44be-820a-25591618067a","ios":"levelo://app?vid=52c0ddbb-c50b-44be-820a-25591618067a"},"vehicle_type_id":"4","last_reported":1706566005,"current_range_meters":0,"station_id":"ce4bgv12rcd13ifvqcp0","pricing_plan_id":"free"},{"bike_id":"284b9475-c25a-42a1-a880-056f23495685","system_id":"levelo_inurba_marseille","lat":43.3117,"lon":5.38714,"is_reserved":false,"is_disabled":false,"rental_uris":{"android":"levelo://app?vid=284b9475-c25a-42a1-a880-056f23495685","ios":"levelo://app?vid=284b9475-c25a-42a1-a880-056f23495685"},"vehicle_type_id":"4","last_reported":1706566005,"current_range_meters":11600,"station_id":"ce4bgv12rcd13ifvqcp0","pricing_plan_id":"free"},{"bike_id":"bbfd2fe8-5ab8-4046-a597-96677d792067","system_id":"levelo_inurba_marseille","lat":43.311696,"lon":5.387168,"is_reserved":false,"is_disabled":false,"rental_uris":{"android":"levelo://app?vid=bbfd2fe8-5ab8-4046-a597-96677d792067","ios":"levelo://app?vid=bbfd2fe8-5ab8-4046-a597-96677d792067"},"vehicle_type_id":"4","last_reported":1706566005,"current_range_meters":30400,"station_id":"ce4bgv12rcd13ifvqcp0","pricing_plan_id":"free"},{"bike_id":"bf6d7d92-c6fb-483b-962e-c72bfff71072","system_id":"levelo_inurba_marseille","lat":43.3117,"lon":5.38717,"is_reserved":false,"is_disabled":false,"rental_uris":{"android":"levelo://app?vid=bf6d7d92-c6fb-483b-962e-c72bfff71072","ios":"levelo://app?vid=bf6d7d92-c6fb-483b-962e-c72bfff71072"},"vehicle_type_id":"4","last_reported":1706566005,"current_range_meters":16400,"station_id":"ce4bgv12rcd13ifvqcp0","pricing_plan_id":"free"},{"bike_id":"11276585-f17b-4b0c-9778-7880d29226f1","system_id":"levelo_inurba_marseille","lat":43.3117,"lon":5.38722,"is_reserved":false,"is_disabled":false,"rental_uris":{"android":"levelo://app?vid=11276585-f17b-4b0c-9778-7880d29226f1","ios":"levelo://app?vid=11276585-f17b-4b0c-9778-7880d29226f1"},"vehicle_type_id":"4","last_reported":1706566005,"current_range_meters":24000,"station_id":"ce4bgv12rcd13ifvqcp0","pricing_plan_id":"free"},{"bike_id":"ecc16a4e-aa68-43b2-a249-41326e74d1fd","system_id":"levelo_inurba_marseille","lat":43.311722,"lon":5.387247,"is_reserved":false,"is_disabled":false,"rental_uris":{"android":"levelo://app?vid=ecc16a4e-aa68-43b2-a249-41326e74d1fd","ios":"levelo://app?vid=ecc16a4e-aa68-43b2-a249-41326e74d1fd"},"vehicle_type_id":"4","last_reported":1706566005,"current_range_meters":28800,"station_id":"ce4bgv12rcd13ifvqcp0","pricing_plan_id":"free"},{"bike_id":"b1f20554-a69e-4b47-8cbd-a32dbe8662f3","system_id":"levelo_inurba_marseille","lat":43.311722,"lon":5.387247,"is_reserved":false,"is_disabled":false,"rental_uris":{"android":"levelo://app?vid=b1f20554-a69e-4b47-8cbd-a32dbe8662f3","ios":"levelo://app?vid=b1f20554-a69e-4b47-8cbd-a32dbe8662f3"},"vehicle_type_id":"4","last_reported":1706566005,"current_range_meters":3600,"station_id":"ce4bgv12rcd13ifvqcp0","pricing_plan_id":"free"},{"bike_id":"e1539f0d-02e3-46ca-8fd2-b115fd55a782","system_id":"levelo_inurba_marseille","lat":43.3229,"lon":5.382619,"is_reserved":false,"is_disabled":false,"rental_uris":{"android":"levelo://app?vid=e1539f0d-02e3-46ca-8fd2-b115fd55a782","ios":"levelo://app?vid=e1539f0d-02e3-46ca-8fd2-b115fd55a782"},"vehicle_type_id":"4","last_reported":1706566005,"current_range_meters":18800,"station_id":"ce4bhr12rcd13ifvqhqg","pricing_plan_id":"free"},{"bike_id":"792c74ed-b81a-4b41-8359-1eefda119ec3","system_id":"levelo_inurba_marseille","lat":43.322872,"lon":5.382756,"is_reserved":false,"is_disabled":false,"rental_uris":{"android":"levelo://app?vid=792c74ed-b81a-4b41-8359-1eefda119ec3","ios":"levelo://app?vid=792c74ed-b81a-4b41-8359-1eefda119ec3"},"vehicle_type_id":"4","last_reported":1706566005,"current_range_meters":27200,"station_id":"ce4bhr12rcd13ifvqhqg","pricing_plan_id":"free"},{"bike_id":"4c76a369-40e2-427c-bdd2-4ff8a4634e1e","system_id":"levelo_inurba_marseille","lat":43.322872,"lon":5.382756,"is_reserved":false,"is_disabled":false,"rental_uris":{"android":"levelo://app?vid=4c76a369-40e2-427c-bdd2-4ff8a4634e1e","ios":"levelo://app?vid=4c76a369-40e2-427c-bdd2-4ff8a4634e1e"},"vehicle_type_id":"4","last_reported":1706566005,"current_range_meters":28000,"station_id":"ce4bhr12rcd13ifvqhqg","pricing_plan_id":"free"},{"bike_id":"b393d938-03e9-4493-bb59-0ad2df777920","system_id":"levelo_inurba_marseille","lat":43.322872,"lon":5.382756,"is_reserved":false,"is_disabled":false,"rental_uris":{"android":"levelo://app?vid=b393d938-03e9-4493-bb59-0ad2df777920","ios":"levelo://app?vid=b393d938-03e9-4493-bb59-0ad2df777920"},"vehicle_type_id":"4","last_reported":1706566005,"current_range_meters":24400,"station_id":"ce4bhr12rcd13ifvqhqg","pricing_plan_id":"free"},{"bike_id":"09ec5261-6dc4-4f45-a640-bac2ae33bdc0","system_id":"levelo_inurba_marseille","lat":43.322872,"lon":5.382756,"is_reserved":false,"is_disabled":false,"rental_uris":{"android":"levelo://app?vid=09ec5261-6dc4-4f45-a640-bac2ae33bdc0","ios":"levelo://app?vid=09ec5261-6dc4-4f45-a640-bac2ae33bdc0"},"vehicle_type_id":"4","last_reported":1706566005,"current_range_meters":23600,"station_id":"ce4bhr12rcd13ifvqhqg","pricing_plan_id":"free"},{"bike_id":"889580a8-390b-425d-ba86-1d259400af7d","system_id":"levelo_inurba_marseille","lat":43.322872,"lon":5.382756,"is_reserved":false,"is_disabled":false,"rental_uris":{"android":"levelo://app?vid=889580a8-390b-425d-ba86-1d259400af7d","ios":"levelo://app?vid=889580a8-390b-425d-ba86-1d259400af7d"},"vehicle_type_id":"4","last_reported":1706566005,"current_range_meters":30400,"station_id":"ce4bhr12rcd13ifvqhqg","pricing_plan_id":"free"},{"bike_id":"1c9d37d0-9c22-419e-afa7-1697cb75aab3","system_id":"levelo_inurba_marseille","lat":43.32825,"lon":5.36687,"is_reserved":false,"is_disabled":false,"rental_uris":{"android":"levelo://app?vid=1c9d37d0-9c22-419e-afa7-1697cb75aab3","ios":"levelo://app?vid=1c9d37d0-9c22-419e-afa7-1697cb75aab3"},"vehicle_type_id":"4","last_reported":1706566005,"current_range_meters":16800,"station_id":"ce4bhs92rcd13ifvqi0g","pricing_plan_id":"free"},{"bike_id":"12d7300c-7281-4d65-b928-1f4a31310a0c","system_id":"levelo_inurba_marseille","lat":43.32832,"lon":5.36685,"is_reserved":false,"is_disabled":false,"rental_uris":{"android":"levelo://app?vid=12d7300c-7281-4d65-b928-1f4a31310a0c","ios":"levelo://app?vid=12d7300c-7281-4d65-b928-1f4a31310a0c"},"vehicle_type_id":"4","last_reported":1706566005,"current_range_meters":19200,"station_id":"ce4bhs92rcd13ifvqi0g","pricing_plan_id":"free"},{"bike_id":"3ddafaef-f083-46a3-8528-1f76016f83b7","system_id":"levelo_inurba_marseille","lat":43.29717,"lon":5.36613,"is_reserved":false,"is_disabled":false,"rental_uris":{"android":"levelo://app?vid=3ddafaef-f083-46a3-8528-1f76016f83b7","ios":"levelo://app?vid=3ddafaef-f083-46a3-8528-1f76016f83b7"},"vehicle_type_id":"4","last_reported":1706566005,"current_range_meters":400,"station_id":"ce4bgn12rcd13ifvqbt0","pricing_plan_id":"free"},{"bike_id":"9cc30769-75e2-40a7-b116-b561ec6b360f","system_id":"levelo_inurba_marseille","lat":43.32837,"lon":5.36683,"is_reserved":false,"is_disabled":false,"rental_uris":{"android":"levelo://app?vid=9cc30769-75e2-40a7-b116-b561ec6b360f","ios":"levelo://app?vid=9cc30769-75e2-40a7-b116-b561ec6b360f"},"vehicle_type_id":"4","last_reported":1706566005,"current_range_meters":1600,"station_id":"ce4bhs92rcd13ifvqi0g","pricing_plan_id":"free"},{"bike_id":"8b120c8b-1ecf-47eb-bfec-8c5b904aeb13","system_id":"levelo_inurba_marseille","lat":43.297094,"lon":5.366104,"is_reserved":false,"is_disabled":false,"rental_uris":{"android":"levelo://app?vid=8b120c8b-1ecf-47eb-bfec-8c5b904aeb13","ios":"levelo://app?vid=8b120c8b-1ecf-47eb-bfec-8c5b904aeb13"},"vehicle_type_id":"4","last_reported":1706566005,"current_range_meters":19600,"station_id":"","pricing_plan_id":"free"},{"bike_id":"48881964-140d-44f7-924b-b1de481d78ae","system_id":"levelo_inurba_marseille","lat":43.309589,"lon":5.390258,"is_reserved":false,"is_disabled":false,"rental_uris":{"android":"levelo://app?vid=48881964-140d-44f7-924b-b1de481d78ae","ios":"levelo://app?vid=48881964-140d-44f7-924b-b1de481d78ae"},"vehicle_type_id":"4","last_reported":1706566005,"current_range_meters":27200,"station_id":"ce4bgup2rcd13ifvqco0","pricing_plan_id":"free"},{"bike_id":"46a4288a-3071-4906-8b3c-77a9dc91c3b2","system_id":"levelo_inurba_marseille","lat":43.309589,"lon":5.390258,"is_reserved":false,"is_disabled":false,"rental_uris":{"android":"levelo://app?vid=46a4288a-3071-4906-8b3c-77a9dc91c3b2","ios":"levelo://app?vid=46a4288a-3071-4906-8b3c-77a9dc91c3b2"},"vehicle_type_id":"4","last_reported":1706566005,"current_range_meters":3600,"station_id":"ce4bgup2rcd13ifvqco0","pricing_plan_id":"free"},{"bike_id":"792ca53d-a85b-4708-a86b-198a6178534c","system_id":"levelo_inurba_marseille","lat":43.317557,"lon":5.390173,"is_reserved":false,"is_disabled":false,"rental_uris":{"android":"levelo://app?vid=792ca53d-a85b-4708-a86b-198a6178534c","ios":"levelo://app?vid=792ca53d-a85b-4708-a86b-198a6178534c"},"vehicle_type_id":"4","last_reported":1706566005,"current_range_meters":27600,"station_id":"ce4bhqp2rcd13ifvqhng","pricing_plan_id":"free"},{"bike_id":"104a16f7-3307-462d-827f-871fab70bf85","system_id":"levelo_inurba_marseille","lat":43.295748,"lon":5.37522,"is_reserved":false,"is_disabled":false,"rental_uris":{"android":"levelo://app?vid=104a16f7-3307-462d-827f-871fab70bf85","ios":"levelo://app?vid=104a16f7-3307-462d-827f-871fab70bf85"},"vehicle_type_id":"4","last_reported":1706566005,"current_range_meters":8800,"station_id":"ce4bgh92rcd13ifvqb50","pricing_plan_id":"free"},{"bike_id":"8d502c28-f470-4cdd-8fc1-7ded06bd4aeb","system_id":"levelo_inurba_marseille","lat":43.299013,"lon":5.382883,"is_reserved":false,"is_disabled":false,"rental_uris":{"android":"levelo://app?vid=8d502c28-f470-4cdd-8fc1-7ded06bd4aeb","ios":"levelo://app?vid=8d502c28-f470-4cdd-8fc1-7ded06bd4aeb"},"vehicle_type_id":"4","last_reported":1706566005,"current_range_meters":0,"station_id":"","pricing_plan_id":"free"},{"bike_id":"3ac72f90-9fc9-4746-814f-98972aec6efb","system_id":"levelo_inurba_marseille","lat":43.304278,"lon":5.388868,"is_reserved":false,"is_disabled":false,"rental_uris":{"android":"levelo://app?vid=3ac72f90-9fc9-4746-814f-98972aec6efb","ios":"levelo://app?vid=3ac72f90-9fc9-4746-814f-98972aec6efb"},"vehicle_type_id":"4","last_reported":1706566005,"current_range_meters":26800,"station_id":"ce4bgk12rcd13ifvqbi0","pricing_plan_id":"free"},{"bike_id":"b1f7d5d5-5ad6-4441-8daa-3671473b99c1","system_id":"levelo_inurba_marseille","lat":43.304278,"lon":5.388868,"is_reserved":false,"is_disabled":false,"rental_uris":{"android":"levelo://app?vid=b1f7d5d5-5ad6-4441-8daa-3671473b99c1","ios":"levelo://app?vid=b1f7d5d5-5ad6-4441-8daa-3671473b99c1"},"vehicle_type_id":"4","last_reported":1706566005,"current_range_meters":2800,"station_id":"ce4bgk12rcd13ifvqbi0","pricing_plan_id":"free"},{"bike_id":"9661906f-f63c-4709-807c-091fdf7cc9b6","system_id":"levelo_inurba_marseille","lat":43.304274,"lon":5.388873,"is_reserved":false,"is_disabled":false,"rental_uris":{"android":"levelo://app?vid=9661906f-f63c-4709-807c-091fdf7cc9b6","ios":"levelo://app?vid=9661906f-f63c-4709-807c-091fdf7cc9b6"},"vehicle_type_id":"4","last_reported":1706566005,"current_range_meters":11200,"station_id":"ce4bgk12rcd13ifvqbi0","pricing_plan_id":"free"},{"bike_id":"de25d637-84ec-4203-b892-3e1c2d7c4ddb","system_id":"levelo_inurba_marseille","lat":43.33174,"lon":5.36449,"is_reserved":false,"is_disabled":false,"rental_uris":{"android":"levelo://app?vid=de25d637-84ec-4203-b892-3e1c2d7c4ddb","ios":"levelo://app?vid=de25d637-84ec-4203-b892-3e1c2d7c4ddb"},"vehicle_type_id":"4","last_reported":1706566005,"current_range_meters":15200,"station_id":"","pricing_plan_id":"free"},{"bike_id":"5e24362a-9442-421e-8be6-bf257b82cf68","system_id":"levelo_inurba_marseille","lat":43.32367,"lon":5.388836,"is_reserved":false,"is_disabled":false,"rental_uris":{"android":"levelo://app?vid=5e24362a-9442-421e-8be6-bf257b82cf68","ios":"levelo://app?vid=5e24362a-9442-421e-8be6-bf257b82cf68"},"vehicle_type_id":"4","last_reported":1706566005,"current_range_meters":27600,"station_id":"ce4bhqp2rcd13ifvqhog","pricing_plan_id":"free"},{"bike_id":"47d90bf9-c566-4da0-b978-4e662f0528ea","system_id":"levelo_inurba_marseille","lat":43.32367,"lon":5.388836,"is_reserved":false,"is_disabled":false,"rental_uris":{"android":"levelo://app?vid=47d90bf9-c566-4da0-b978-4e662f0528ea","ios":"levelo://app?vid=47d90bf9-c566-4da0-b978-4e662f0528ea"},"vehicle_type_id":"4","last_reported":1706566005,"current_range_meters":4400,"station_id":"ce4bhqp2rcd13ifvqhog","pricing_plan_id":"free"},{"bike_id":"5dcfc48e-c7ca-4f3a-99c7-e91e73f3d130","system_id":"levelo_inurba_marseille","lat":43.3237,"lon":5.38884,"is_reserved":false,"is_disabled":false,"rental_uris":{"android":"levelo://app?vid=5dcfc48e-c7ca-4f3a-99c7-e91e73f3d130","ios":"levelo://app?vid=5dcfc48e-c7ca-4f3a-99c7-e91e73f3d130"},"vehicle_type_id":"4","last_reported":1706566005,"current_range_meters":8800,"station_id":"ce4bhqp2rcd13ifvqhog","pricing_plan_id":"free"},{"bike_id":"ef0c3525-d748-4a23-96a0-dd428b0f4b26","system_id":"levelo_inurba_marseille","lat":43.293259,"lon":5.371586,"is_reserved":false,"is_disabled":false,"rental_uris":{"android":"levelo://app?vid=ef0c3525-d748-4a23-96a0-dd428b0f4b26","ios":"levelo://app?vid=ef0c3525-d748-4a23-96a0-dd428b0f4b26"},"vehicle_type_id":"4","last_reported":1706566005,"current_range_meters":25600,"station_id":"ce4bgh92rcd13ifvqb40","pricing_plan_id":"free"},{"bike_id":"1a274319-ac36-4b48-90df-5711cd4c304c","system_id":"levelo_inurba_marseille","lat":43.292749,"lon":5.368402,"is_reserved":false,"is_disabled":false,"rental_uris":{"android":"levelo://app?vid=1a274319-ac36-4b48-90df-5711cd4c304c","ios":"levelo://app?vid=1a274319-ac36-4b48-90df-5711cd4c304c"},"vehicle_type_id":"4","last_reported":1706566005,"current_range_meters":21600,"station_id":"ce4bhbp2rcd13ifvqesg","pricing_plan_id":"free"},{"bike_id":"dfce5c6d-be26-4117-8118-edfbf015652c","system_id":"levelo_inurba_marseille","lat":43.30305,"lon":5.39198,"is_reserved":false,"is_disabled":false,"rental_uris":{"android":"levelo://app?vid=dfce5c6d-be26-4117-8118-edfbf015652c","ios":"levelo://app?vid=dfce5c6d-be26-4117-8118-edfbf015652c"},"vehicle_type_id":"4","last_reported":1706566005,"current_range_meters":0,"station_id":"ce4bgkh2rcd13ifvqbk0","pricing_plan_id":"free"},{"bike_id":"3fb901d0-84a7-437c-8fb3-1179b65644b5","system_id":"levelo_inurba_marseille","lat":43.302992,"lon":5.392136,"is_reserved":false,"is_disabled":false,"rental_uris":{"android":"levelo://app?vid=3fb901d0-84a7-437c-8fb3-1179b65644b5","ios":"levelo://app?vid=3fb901d0-84a7-437c-8fb3-1179b65644b5"},"vehicle_type_id":"4","last_reported":1706566005,"current_range_meters":26400,"station_id":"ce4bgkh2rcd13ifvqbk0","pricing_plan_id":"free"},{"bike_id":"5f689650-6960-4832-a83d-b4ec9a2e1bb9","system_id":"levelo_inurba_marseille","lat":43.30297,"lon":5.39205,"is_reserved":false,"is_disabled":false,"rental_uris":{"android":"levelo://app?vid=5f689650-6960-4832-a83d-b4ec9a2e1bb9","ios":"levelo://app?vid=5f689650-6960-4832-a83d-b4ec9a2e1bb9"},"vehicle_type_id":"4","last_reported":1706566005,"current_range_meters":20400,"station_id":"","pricing_plan_id":"free"},{"bike_id":"348b7a68-7f0c-4081-a49c-108a85f47166","system_id":"levelo_inurba_marseille","lat":43.302992,"lon":5.392136,"is_reserved":false,"is_disabled":false,"rental_uris":{"android":"levelo://app?vid=348b7a68-7f0c-4081-a49c-108a85f47166","ios":"levelo://app?vid=348b7a68-7f0c-4081-a49c-108a85f47166"},"vehicle_type_id":"4","last_reported":1706566005,"current_range_meters":14400,"station_id":"ce4bgkh2rcd13ifvqbk0","pricing_plan_id":"free"},{"bike_id":"3764c221-dc5a-4c4c-a456-07c28cea824f","system_id":"levelo_inurba_marseille","lat":43.300852,"lon":5.390859,"is_reserved":false,"is_disabled":false,"rental_uris":{"android":"levelo://app?vid=3764c221-dc5a-4c4c-a456-07c28cea824f","ios":"levelo://app?vid=3764c221-dc5a-4c4c-a456-07c28cea824f"},"vehicle_type_id":"4","last_reported":1706566005,"current_range_meters":26000,"station_id":"ce4bh192rcd13ifvqdb0","pricing_plan_id":"free"},{"bike_id":"d7aeea54-9bc9-4610-b71a-13bcd461159d","system_id":"levelo_inurba_marseille","lat":43.300852,"lon":5.390859,"is_reserved":false,"is_disabled":false,"rental_uris":{"android":"levelo://app?vid=d7aeea54-9bc9-4610-b71a-13bcd461159d","ios":"levelo://app?vid=d7aeea54-9bc9-4610-b71a-13bcd461159d"},"vehicle_type_id":"4","last_reported":1706566005,"current_range_meters":26800,"station_id":"ce4bh192rcd13ifvqdb0","pricing_plan_id":"free"},{"bike_id":"45aba4b7-edf6-4f55-83fa-9caa1c4a5129","system_id":"levelo_inurba_marseille","lat":43.30085,"lon":5.390856,"is_reserved":false,"is_disabled":false,"rental_uris":{"android":"levelo://app?vid=45aba4b7-edf6-4f55-83fa-9caa1c4a5129","ios":"levelo://app?vid=45aba4b7-edf6-4f55-83fa-9caa1c4a5129"},"vehicle_type_id":"4","last_reported":1706566005,"current_range_meters":25200,"station_id":"ce4bh192rcd13ifvqdb0","pricing_plan_id":"free"},{"bike_id":"5dfbf44e-ba97-49ad-80d2-5f722230bf99","system_id":"levelo_inurba_marseille","lat":43.29529,"lon":5.385581,"is_reserved":false,"is_disabled":false,"rental_uris":{"android":"levelo://app?vid=5dfbf44e-ba97-49ad-80d2-5f722230bf99","ios":"levelo://app?vid=5dfbf44e-ba97-49ad-80d2-5f722230bf99"},"vehicle_type_id":"4","last_reported":1706566005,"current_range_meters":17600,"station_id":"ce4bgih2rcd13ifvqba0","pricing_plan_id":"free"},{"bike_id":"15e03da3-5982-40da-8c5e-5e4b5f590042","system_id":"levelo_inurba_marseille","lat":43.298764,"lon":5.388973,"is_reserved":false,"is_disabled":false,"rental_uris":{"android":"levelo://app?vid=15e03da3-5982-40da-8c5e-5e4b5f590042","ios":"levelo://app?vid=15e03da3-5982-40da-8c5e-5e4b5f590042"},"vehicle_type_id":"4","last_reported":1706566005,"current_range_meters":19600,"station_id":"ce4bh392rcd13ifvqdl0","pricing_plan_id":"free"},{"bike_id":"4300ea46-dbf4-4781-89a1-149cc340c8bd","system_id":"levelo_inurba_marseille","lat":43.298764,"lon":5.388973,"is_reserved":false,"is_disabled":false,"rental_uris":{"android":"levelo://app?vid=4300ea46-dbf4-4781-89a1-149cc340c8bd","ios":"levelo://app?vid=4300ea46-dbf4-4781-89a1-149cc340c8bd"},"vehicle_type_id":"4","last_reported":1706566005,"current_range_meters":6000,"station_id":"ce4bh392rcd13ifvqdl0","pricing_plan_id":"free"},{"bike_id":"42752d60-ce5a-4aba-bb4d-6befb053704d","system_id":"levelo_inurba_marseille","lat":43.298791,"lon":5.3891,"is_reserved":false,"is_disabled":false,"rental_uris":{"android":"levelo://app?vid=42752d60-ce5a-4aba-bb4d-6befb053704d","ios":"levelo://app?vid=42752d60-ce5a-4aba-bb4d-6befb053704d"},"vehicle_type_id":"4","last_reported":1706566005,"current_range_meters":31600,"station_id":"","pricing_plan_id":"free"},{"bike_id":"5062f127-2d69-4f2c-a3c1-a510d1beb215","system_id":"levelo_inurba_marseille","lat":43.291675,"lon":5.371583,"is_reserved":false,"is_disabled":false,"rental_uris":{"android":"levelo://app?vid=5062f127-2d69-4f2c-a3c1-a510d1beb215","ios":"levelo://app?vid=5062f127-2d69-4f2c-a3c1-a510d1beb215"},"vehicle_type_id":"4","last_reported":1706566005,"current_range_meters":16400,"station_id":"ce4bha92rcd13ifvqeh0","pricing_plan_id":"free"},{"bike_id":"ec9a78d0-16e7-4a34-94ab-cdccdde920c8","system_id":"levelo_inurba_marseille","lat":43.309038,"lon":5.396546,"is_reserved":false,"is_disabled":false,"rental_uris":{"android":"levelo://app?vid=ec9a78d0-16e7-4a34-94ab-cdccdde920c8","ios":"levelo://app?vid=ec9a78d0-16e7-4a34-94ab-cdccdde920c8"},"vehicle_type_id":"4","last_reported":1706566005,"current_range_meters":14000,"station_id":"ce4bh012rcd13ifvqcv0","pricing_plan_id":"free"},{"bike_id":"c1e1a74c-7564-415a-8abc-0fcbeb7ef317","system_id":"levelo_inurba_marseille","lat":43.30889,"lon":5.39633,"is_reserved":false,"is_disabled":false,"rental_uris":{"android":"levelo://app?vid=c1e1a74c-7564-415a-8abc-0fcbeb7ef317","ios":"levelo://app?vid=c1e1a74c-7564-415a-8abc-0fcbeb7ef317"},"vehicle_type_id":"4","last_reported":1706566005,"current_range_meters":22000,"station_id":"ce4bh012rcd13ifvqcv0","pricing_plan_id":"free"},{"bike_id":"f48ae292-23a2-4e41-bfa5-847a89ffd6e5","system_id":"levelo_inurba_marseille","lat":43.291994,"lon":5.357886,"is_reserved":false,"is_disabled":false,"rental_uris":{"android":"levelo://app?vid=f48ae292-23a2-4e41-bfa5-847a89ffd6e5","ios":"levelo://app?vid=f48ae292-23a2-4e41-bfa5-847a89ffd6e5"},"vehicle_type_id":"4","last_reported":1706566005,"current_range_meters":7200,"station_id":"ce4bhb12rcd13ifvqel0","pricing_plan_id":"free"},{"bike_id":"afa168ee-e828-4eee-a74e-6270da90788d","system_id":"levelo_inurba_marseille","lat":43.30886,"lon":5.39633,"is_reserved":false,"is_disabled":false,"rental_uris":{"android":"levelo://app?vid=afa168ee-e828-4eee-a74e-6270da90788d","ios":"levelo://app?vid=afa168ee-e828-4eee-a74e-6270da90788d"},"vehicle_type_id":"4","last_reported":1706566005,"current_range_meters":6400,"station_id":"ce4bh012rcd13ifvqcv0","pricing_plan_id":"free"},{"bike_id":"b61e3b4c-03e1-4dd4-9173-aded730ff6f2","system_id":"levelo_inurba_marseille","lat":43.30887,"lon":5.39634,"is_reserved":false,"is_disabled":false,"rental_uris":{"android":"levelo://app?vid=b61e3b4c-03e1-4dd4-9173-aded730ff6f2","ios":"levelo://app?vid=b61e3b4c-03e1-4dd4-9173-aded730ff6f2"},"vehicle_type_id":"4","last_reported":1706566005,"current_range_meters":14000,"station_id":"ce4bh012rcd13ifvqcv0","pricing_plan_id":"free"},{"bike_id":"5382f71c-eeec-4197-8c9c-904f2333c755","system_id":"levelo_inurba_marseille","lat":43.3133,"lon":5.39689,"is_reserved":false,"is_disabled":false,"rental_uris":{"android":"levelo://app?vid=5382f71c-eeec-4197-8c9c-904f2333c755","ios":"levelo://app?vid=5382f71c-eeec-4197-8c9c-904f2333c755"},"vehicle_type_id":"4","last_reported":1706566005,"current_range_meters":5600,"station_id":"ce4bgvp2rcd13ifvqcu0","pricing_plan_id":"free"},{"bike_id":"c07daf04-e21b-4f24-a83e-49b9ec655b9c","system_id":"levelo_inurba_marseille","lat":43.309038,"lon":5.396546,"is_reserved":false,"is_disabled":false,"rental_uris":{"android":"levelo://app?vid=c07daf04-e21b-4f24-a83e-49b9ec655b9c","ios":"levelo://app?vid=c07daf04-e21b-4f24-a83e-49b9ec655b9c"},"vehicle_type_id":"4","last_reported":1706566005,"current_range_meters":31200,"station_id":"ce4bh012rcd13ifvqcv0","pricing_plan_id":"free"},{"bike_id":"c158d75a-efe0-4ff4-8c01-a3bab86b73f2","system_id":"levelo_inurba_marseille","lat":43.309038,"lon":5.396546,"is_reserved":false,"is_disabled":false,"rental_uris":{"android":"levelo://app?vid=c158d75a-efe0-4ff4-8c01-a3bab86b73f2","ios":"levelo://app?vid=c158d75a-efe0-4ff4-8c01-a3bab86b73f2"},"vehicle_type_id":"4","last_reported":1706566005,"current_range_meters":16000,"station_id":"ce4bh012rcd13ifvqcv0","pricing_plan_id":"free"},{"bike_id":"50610dd5-80b5-45c8-88ad-2b7dce06de7e","system_id":"levelo_inurba_marseille","lat":43.31326,"lon":5.39691,"is_reserved":false,"is_disabled":false,"rental_uris":{"android":"levelo://app?vid=50610dd5-80b5-45c8-88ad-2b7dce06de7e","ios":"levelo://app?vid=50610dd5-80b5-45c8-88ad-2b7dce06de7e"},"vehicle_type_id":"4","last_reported":1706566005,"current_range_meters":800,"station_id":"ce4bgvp2rcd13ifvqcu0","pricing_plan_id":"free"},{"bike_id":"29aed456-496f-4d11-a3bb-755a210f3eba","system_id":"levelo_inurba_marseille","lat":43.31329,"lon":5.39691,"is_reserved":false,"is_disabled":false,"rental_uris":{"android":"levelo://app?vid=29aed456-496f-4d11-a3bb-755a210f3eba","ios":"levelo://app?vid=29aed456-496f-4d11-a3bb-755a210f3eba"},"vehicle_type_id":"4","last_reported":1706566005,"current_range_meters":0,"station_id":"ce4bgvp2rcd13ifvqcu0","pricing_plan_id":"free"},{"bike_id":"92e84b73-e47c-4621-bdf8-c017630d7642","system_id":"levelo_inurba_marseille","lat":43.309038,"lon":5.396546,"is_reserved":false,"is_disabled":false,"rental_uris":{"android":"levelo://app?vid=92e84b73-e47c-4621-bdf8-c017630d7642","ios":"levelo://app?vid=92e84b73-e47c-4621-bdf8-c017630d7642"},"vehicle_type_id":"4","last_reported":1706566005,"current_range_meters":12400,"station_id":"ce4bh012rcd13ifvqcv0","pricing_plan_id":"free"},{"bike_id":"f5e7ae9a-d3e2-40d7-b6a6-13962af8917f","system_id":"levelo_inurba_marseille","lat":43.31329,"lon":5.39694,"is_reserved":false,"is_disabled":false,"rental_uris":{"android":"levelo://app?vid=f5e7ae9a-d3e2-40d7-b6a6-13962af8917f","ios":"levelo://app?vid=f5e7ae9a-d3e2-40d7-b6a6-13962af8917f"},"vehicle_type_id":"4","last_reported":1706566005,"current_range_meters":26800,"station_id":"ce4bgvp2rcd13ifvqcu0","pricing_plan_id":"free"},{"bike_id":"ea8ae95c-4655-4202-ab1c-dc5ad19c7faf","system_id":"levelo_inurba_marseille","lat":43.308895,"lon":5.396487,"is_reserved":false,"is_disabled":false,"rental_uris":{"android":"levelo://app?vid=ea8ae95c-4655-4202-ab1c-dc5ad19c7faf","ios":"levelo://app?vid=ea8ae95c-4655-4202-ab1c-dc5ad19c7faf"},"vehicle_type_id":"4","last_reported":1706566005,"current_range_meters":4400,"station_id":"","pricing_plan_id":"free"},{"bike_id":"94694735-b0a7-4a13-b8d0-373bbc9655a0","system_id":"levelo_inurba_marseille","lat":43.313291,"lon":5.396838,"is_reserved":false,"is_disabled":false,"rental_uris":{"android":"levelo://app?vid=94694735-b0a7-4a13-b8d0-373bbc9655a0","ios":"levelo://app?vid=94694735-b0a7-4a13-b8d0-373bbc9655a0"},"vehicle_type_id":"4","last_reported":1706566005,"current_range_meters":13200,"station_id":"ce4bgvp2rcd13ifvqcu0","pricing_plan_id":"free"},{"bike_id":"067a3f54-cdb1-4351-888c-7235aaac275f","system_id":"levelo_inurba_marseille","lat":43.313291,"lon":5.396838,"is_reserved":false,"is_disabled":false,"rental_uris":{"android":"levelo://app?vid=067a3f54-cdb1-4351-888c-7235aaac275f","ios":"levelo://app?vid=067a3f54-cdb1-4351-888c-7235aaac275f"},"vehicle_type_id":"4","last_reported":1706566005,"current_range_meters":10000,"station_id":"ce4bgvp2rcd13ifvqcu0","pricing_plan_id":"free"},{"bike_id":"4b35d7e7-56c0-4104-8559-b43c8174454c","system_id":"levelo_inurba_marseille","lat":43.309038,"lon":5.396546,"is_reserved":false,"is_disabled":false,"rental_uris":{"android":"levelo://app?vid=4b35d7e7-56c0-4104-8559-b43c8174454c","ios":"levelo://app?vid=4b35d7e7-56c0-4104-8559-b43c8174454c"},"vehicle_type_id":"4","last_reported":1706566005,"current_range_meters":4400,"station_id":"ce4bh012rcd13ifvqcv0","pricing_plan_id":"free"},{"bike_id":"aa5f2382-8921-4a1f-a1de-1ef8869aed4d","system_id":"levelo_inurba_marseille","lat":43.313291,"lon":5.396838,"is_reserved":false,"is_disabled":false,"rental_uris":{"android":"levelo://app?vid=aa5f2382-8921-4a1f-a1de-1ef8869aed4d","ios":"levelo://app?vid=aa5f2382-8921-4a1f-a1de-1ef8869aed4d"},"vehicle_type_id":"4","last_reported":1706566005,"current_range_meters":16000,"station_id":"ce4bgvp2rcd13ifvqcu0","pricing_plan_id":"free"},{"bike_id":"82d14565-9ce5-48c6-889c-ad4a6e64384d","system_id":"levelo_inurba_marseille","lat":43.309038,"lon":5.396546,"is_reserved":false,"is_disabled":false,"rental_uris":{"android":"levelo://app?vid=82d14565-9ce5-48c6-889c-ad4a6e64384d","ios":"levelo://app?vid=82d14565-9ce5-48c6-889c-ad4a6e64384d"},"vehicle_type_id":"4","last_reported":1706566005,"current_range_meters":10400,"station_id":"ce4bh012rcd13ifvqcv0","pricing_plan_id":"free"},{"bike_id":"08fa3527-b6ef-4eee-9930-e2ddab3838aa","system_id":"levelo_inurba_marseille","lat":43.309038,"lon":5.396546,"is_reserved":false,"is_disabled":false,"rental_uris":{"android":"levelo://app?vid=08fa3527-b6ef-4eee-9930-e2ddab3838aa","ios":"levelo://app?vid=08fa3527-b6ef-4eee-9930-e2ddab3838aa"},"vehicle_type_id":"4","last_reported":1706566005,"current_range_meters":1600,"station_id":"ce4bh012rcd13ifvqcv0","pricing_plan_id":"free"},{"bike_id":"3e98e9f1-4454-4610-b890-6e982804de0a","system_id":"levelo_inurba_marseille","lat":43.309038,"lon":5.396546,"is_reserved":false,"is_disabled":false,"rental_uris":{"android":"levelo://app?vid=3e98e9f1-4454-4610-b890-6e982804de0a","ios":"levelo://app?vid=3e98e9f1-4454-4610-b890-6e982804de0a"},"vehicle_type_id":"4","last_reported":1706566005,"current_range_meters":24000,"station_id":"ce4bh012rcd13ifvqcv0","pricing_plan_id":"free"},{"bike_id":"b36fd92c-f2dc-4b9f-b79f-68b10cd4ccd8","system_id":"levelo_inurba_marseille","lat":43.31332,"lon":5.397,"is_reserved":false,"is_disabled":false,"rental_uris":{"android":"levelo://app?vid=b36fd92c-f2dc-4b9f-b79f-68b10cd4ccd8","ios":"levelo://app?vid=b36fd92c-f2dc-4b9f-b79f-68b10cd4ccd8"},"vehicle_type_id":"4","last_reported":1706566005,"current_range_meters":14400,"station_id":"ce4bgvp2rcd13ifvqcu0","pricing_plan_id":"free"},{"bike_id":"6e9cf4c7-3d24-498c-a9a1-1081e91d920c","system_id":"levelo_inurba_marseille","lat":43.308833,"lon":5.396529,"is_reserved":false,"is_disabled":false,"rental_uris":{"android":"levelo://app?vid=6e9cf4c7-3d24-498c-a9a1-1081e91d920c","ios":"levelo://app?vid=6e9cf4c7-3d24-498c-a9a1-1081e91d920c"},"vehicle_type_id":"4","last_reported":1706566005,"current_range_meters":17200,"station_id":"ce4bh012rcd13ifvqcv0","pricing_plan_id":"free"},{"bike_id":"60d917f5-4d65-481e-ba20-ebcaf446e790","system_id":"levelo_inurba_marseille","lat":43.309038,"lon":5.396546,"is_reserved":false,"is_disabled":false,"rental_uris":{"android":"levelo://app?vid=60d917f5-4d65-481e-ba20-ebcaf446e790","ios":"levelo://app?vid=60d917f5-4d65-481e-ba20-ebcaf446e790"},"vehicle_type_id":"4","last_reported":1706566005,"current_range_meters":31200,"station_id":"ce4bh012rcd13ifvqcv0","pricing_plan_id":"free"},{"bike_id":"f260b229-70d5-4ef1-8f76-f6eda2173d52","system_id":"levelo_inurba_marseille","lat":43.3089,"lon":5.39655,"is_reserved":false,"is_disabled":false,"rental_uris":{"android":"levelo://app?vid=f260b229-70d5-4ef1-8f76-f6eda2173d52","ios":"levelo://app?vid=f260b229-70d5-4ef1-8f76-f6eda2173d52"},"vehicle_type_id":"4","last_reported":1706566005,"current_range_meters":27200,"station_id":"ce4bh012rcd13ifvqcv0","pricing_plan_id":"free"},{"bike_id":"f53485f9-f98f-46e0-b0ca-bab93f000b79","system_id":"levelo_inurba_marseille","lat":43.3133,"lon":5.39702,"is_reserved":false,"is_disabled":false,"rental_uris":{"android":"levelo://app?vid=f53485f9-f98f-46e0-b0ca-bab93f000b79","ios":"levelo://app?vid=f53485f9-f98f-46e0-b0ca-bab93f000b79"},"vehicle_type_id":"4","last_reported":1706566005,"current_range_meters":19600,"station_id":"ce4bgvp2rcd13ifvqcu0","pricing_plan_id":"free"},{"bike_id":"9cc64000-3a94-41f0-90da-6df354fad165","system_id":"levelo_inurba_marseille","lat":43.29529,"lon":5.385581,"is_reserved":false,"is_disabled":false,"rental_uris":{"android":"levelo://app?vid=9cc64000-3a94-41f0-90da-6df354fad165","ios":"levelo://app?vid=9cc64000-3a94-41f0-90da-6df354fad165"},"vehicle_type_id":"4","last_reported":1706566005,"current_range_meters":9200,"station_id":"ce4bgih2rcd13ifvqba0","pricing_plan_id":"free"},{"bike_id":"dce63813-d7c1-43b1-ac62-0c7c07c5c15c","system_id":"levelo_inurba_marseille","lat":43.29529,"lon":5.385581,"is_reserved":false,"is_disabled":false,"rental_uris":{"android":"levelo://app?vid=dce63813-d7c1-43b1-ac62-0c7c07c5c15c","ios":"levelo://app?vid=dce63813-d7c1-43b1-ac62-0c7c07c5c15c"},"vehicle_type_id":"4","last_reported":1706566005,"current_range_meters":14400,"station_id":"ce4bgih2rcd13ifvqba0","pricing_plan_id":"free"},{"bike_id":"3cbb31ed-3822-4085-a4ef-bbbd315fc6b4","system_id":"levelo_inurba_marseille","lat":43.29529,"lon":5.385581,"is_reserved":false,"is_disabled":false,"rental_uris":{"android":"levelo://app?vid=3cbb31ed-3822-4085-a4ef-bbbd315fc6b4","ios":"levelo://app?vid=3cbb31ed-3822-4085-a4ef-bbbd315fc6b4"},"vehicle_type_id":"4","last_reported":1706566005,"current_range_meters":19200,"station_id":"ce4bgih2rcd13ifvqba0","pricing_plan_id":"free"},{"bike_id":"562eaa91-9a04-49df-bb49-2a84abd4b30e","system_id":"levelo_inurba_marseille","lat":43.294964,"lon":5.385937,"is_reserved":false,"is_disabled":false,"rental_uris":{"android":"levelo://app?vid=562eaa91-9a04-49df-bb49-2a84abd4b30e","ios":"levelo://app?vid=562eaa91-9a04-49df-bb49-2a84abd4b30e"},"vehicle_type_id":"4","last_reported":1706566005,"current_range_meters":0,"station_id":"ce4bgih2rcd13ifvqba0","pricing_plan_id":"free"},{"bike_id":"2c1e47ad-3478-424c-8c66-23a600b1f0dc","system_id":"levelo_inurba_marseille","lat":43.290441,"lon":5.359123,"is_reserved":false,"is_disabled":false,"rental_uris":{"android":"levelo://app?vid=2c1e47ad-3478-424c-8c66-23a600b1f0dc","ios":"levelo://app?vid=2c1e47ad-3478-424c-8c66-23a600b1f0dc"},"vehicle_type_id":"4","last_reported":1706566005,"current_range_meters":20400,"station_id":"","pricing_plan_id":"free"},{"bike_id":"f454b6ee-7b00-46e8-9190-972000ad44cf","system_id":"levelo_inurba_marseille","lat":43.290631,"lon":5.359244,"is_reserved":false,"is_disabled":false,"rental_uris":{"android":"levelo://app?vid=f454b6ee-7b00-46e8-9190-972000ad44cf","ios":"levelo://app?vid=f454b6ee-7b00-46e8-9190-972000ad44cf"},"vehicle_type_id":"4","last_reported":1706566005,"current_range_meters":20000,"station_id":"ce4bha92rcd13ifvqeg0","pricing_plan_id":"free"},{"bike_id":"3232283e-e3ef-4ec2-92e0-a15a247a09ae","system_id":"levelo_inurba_marseille","lat":43.294153,"lon":5.386305,"is_reserved":false,"is_disabled":false,"rental_uris":{"android":"levelo://app?vid=3232283e-e3ef-4ec2-92e0-a15a247a09ae","ios":"levelo://app?vid=3232283e-e3ef-4ec2-92e0-a15a247a09ae"},"vehicle_type_id":"4","last_reported":1706566005,"current_range_meters":26000,"station_id":"ce4bh2h2rcd13ifvqdh0","pricing_plan_id":"free"},{"bike_id":"4d10671b-0feb-4feb-ba60-cceda73a4a14","system_id":"levelo_inurba_marseille","lat":43.294153,"lon":5.386305,"is_reserved":false,"is_disabled":false,"rental_uris":{"android":"levelo://app?vid=4d10671b-0feb-4feb-ba60-cceda73a4a14","ios":"levelo://app?vid=4d10671b-0feb-4feb-ba60-cceda73a4a14"},"vehicle_type_id":"4","last_reported":1706566005,"current_range_meters":30000,"station_id":"ce4bh2h2rcd13ifvqdh0","pricing_plan_id":"free"},{"bike_id":"fbd8e25e-aff8-4758-b0f9-4448f12361ea","system_id":"levelo_inurba_marseille","lat":43.28943,"lon":5.36623,"is_reserved":false,"is_disabled":false,"rental_uris":{"android":"levelo://app?vid=fbd8e25e-aff8-4758-b0f9-4448f12361ea","ios":"levelo://app?vid=fbd8e25e-aff8-4758-b0f9-4448f12361ea"},"vehicle_type_id":"4","last_reported":1706566005,"current_range_meters":7200,"station_id":"ce4bhap2rcd13ifvqek0","pricing_plan_id":"free"},{"bike_id":"177c6148-7087-4a37-b934-4f8182d8990c","system_id":"levelo_inurba_marseille","lat":43.289184,"lon":5.366408,"is_reserved":false,"is_disabled":false,"rental_uris":{"android":"levelo://app?vid=177c6148-7087-4a37-b934-4f8182d8990c","ios":"levelo://app?vid=177c6148-7087-4a37-b934-4f8182d8990c"},"vehicle_type_id":"4","last_reported":1706566005,"current_range_meters":12400,"station_id":"ce4bhap2rcd13ifvqek0","pricing_plan_id":"free"},{"bike_id":"1b865d7c-e8db-4e76-b301-a6ee3e1f0f46","system_id":"levelo_inurba_marseille","lat":43.289184,"lon":5.366408,"is_reserved":false,"is_disabled":false,"rental_uris":{"android":"levelo://app?vid=1b865d7c-e8db-4e76-b301-a6ee3e1f0f46","ios":"levelo://app?vid=1b865d7c-e8db-4e76-b301-a6ee3e1f0f46"},"vehicle_type_id":"4","last_reported":1706566005,"current_range_meters":11200,"station_id":"ce4bhap2rcd13ifvqek0","pricing_plan_id":"free"},{"bike_id":"fbb33163-4eda-46c1-b5ee-6042cb7e3646","system_id":"levelo_inurba_marseille","lat":43.289468,"lon":5.363719,"is_reserved":false,"is_disabled":false,"rental_uris":{"android":"levelo://app?vid=fbb33163-4eda-46c1-b5ee-6042cb7e3646","ios":"levelo://app?vid=fbb33163-4eda-46c1-b5ee-6042cb7e3646"},"vehicle_type_id":"4","last_reported":1706566005,"current_range_meters":23200,"station_id":"ce4bhc92rcd13ifvqetg","pricing_plan_id":"free"},{"bike_id":"e727dfd3-6e41-4d83-ac06-8a9c97e4cb0f","system_id":"levelo_inurba_marseille","lat":43.289184,"lon":5.366408,"is_reserved":false,"is_disabled":false,"rental_uris":{"android":"levelo://app?vid=e727dfd3-6e41-4d83-ac06-8a9c97e4cb0f","ios":"levelo://app?vid=e727dfd3-6e41-4d83-ac06-8a9c97e4cb0f"},"vehicle_type_id":"4","last_reported":1706566005,"current_range_meters":18800,"station_id":"ce4bhap2rcd13ifvqek0","pricing_plan_id":"free"},{"bike_id":"2bccb6e7-0d6b-4977-8fe0-e8b85c06f0e3","system_id":"levelo_inurba_marseille","lat":43.289184,"lon":5.366408,"is_reserved":false,"is_disabled":false,"rental_uris":{"android":"levelo://app?vid=2bccb6e7-0d6b-4977-8fe0-e8b85c06f0e3","ios":"levelo://app?vid=2bccb6e7-0d6b-4977-8fe0-e8b85c06f0e3"},"vehicle_type_id":"4","last_reported":1706566005,"current_range_meters":23600,"station_id":"ce4bhap2rcd13ifvqek0","pricing_plan_id":"free"},{"bike_id":"947059b3-9f18-4094-95ea-9e84b5f296f6","system_id":"levelo_inurba_marseille","lat":43.289468,"lon":5.363719,"is_reserved":false,"is_disabled":false,"rental_uris":{"android":"levelo://app?vid=947059b3-9f18-4094-95ea-9e84b5f296f6","ios":"levelo://app?vid=947059b3-9f18-4094-95ea-9e84b5f296f6"},"vehicle_type_id":"4","last_reported":1706566005,"current_range_meters":0,"station_id":"ce4bhc92rcd13ifvqetg","pricing_plan_id":"free"},{"bike_id":"20b0dc59-29f1-411b-a905-93feddc9676b","system_id":"levelo_inurba_marseille","lat":43.289184,"lon":5.366408,"is_reserved":false,"is_disabled":false,"rental_uris":{"android":"levelo://app?vid=20b0dc59-29f1-411b-a905-93feddc9676b","ios":"levelo://app?vid=20b0dc59-29f1-411b-a905-93feddc9676b"},"vehicle_type_id":"4","last_reported":1706566005,"current_range_meters":6800,"station_id":"ce4bhap2rcd13ifvqek0","pricing_plan_id":"free"},{"bike_id":"d26f5bdf-3c12-49a2-b03b-eb4fca799f15","system_id":"levelo_inurba_marseille","lat":43.289468,"lon":5.363719,"is_reserved":false,"is_disabled":false,"rental_uris":{"android":"levelo://app?vid=d26f5bdf-3c12-49a2-b03b-eb4fca799f15","ios":"levelo://app?vid=d26f5bdf-3c12-49a2-b03b-eb4fca799f15"},"vehicle_type_id":"4","last_reported":1706566005,"current_range_meters":28800,"station_id":"ce4bhc92rcd13ifvqetg","pricing_plan_id":"free"},{"bike_id":"2857e10e-86c6-4147-8bf1-2b8777925806","system_id":"levelo_inurba_marseille","lat":43.292644,"lon":5.384257,"is_reserved":false,"is_disabled":false,"rental_uris":{"android":"levelo://app?vid=2857e10e-86c6-4147-8bf1-2b8777925806","ios":"levelo://app?vid=2857e10e-86c6-4147-8bf1-2b8777925806"},"vehicle_type_id":"4","last_reported":1706566005,"current_range_meters":0,"station_id":"ce4bh692rcd13ifvqea0","pricing_plan_id":"free"},{"bike_id":"e4057383-cea3-4287-b405-5eb4bbcab8ef","system_id":"levelo_inurba_marseille","lat":43.292644,"lon":5.384257,"is_reserved":false,"is_disabled":false,"rental_uris":{"android":"levelo://app?vid=e4057383-cea3-4287-b405-5eb4bbcab8ef","ios":"levelo://app?vid=e4057383-cea3-4287-b405-5eb4bbcab8ef"},"vehicle_type_id":"4","last_reported":1706566005,"current_range_meters":1600,"station_id":"ce4bh692rcd13ifvqea0","pricing_plan_id":"free"},{"bike_id":"e04c2bb2-2535-428e-936b-d4bbe5f856a0","system_id":"levelo_inurba_marseille","lat":43.290104,"lon":5.356111,"is_reserved":false,"is_disabled":false,"rental_uris":{"android":"levelo://app?vid=e04c2bb2-2535-428e-936b-d4bbe5f856a0","ios":"levelo://app?vid=e04c2bb2-2535-428e-936b-d4bbe5f856a0"},"vehicle_type_id":"4","last_reported":1706566005,"current_range_meters":2000,"station_id":"ce4bhb92rcd13ifvqen0","pricing_plan_id":"free"},{"bike_id":"5939e54a-96f4-4bb1-a4df-14106d929914","system_id":"levelo_inurba_marseille","lat":43.28874,"lon":5.36332,"is_reserved":false,"is_disabled":false,"rental_uris":{"android":"levelo://app?vid=5939e54a-96f4-4bb1-a4df-14106d929914","ios":"levelo://app?vid=5939e54a-96f4-4bb1-a4df-14106d929914"},"vehicle_type_id":"4","last_reported":1706566005,"current_range_meters":18800,"station_id":"ce4bhah2rcd13ifvqej0","pricing_plan_id":"free"},{"bike_id":"e3773d17-b3ff-4c6d-a9e3-b9f663b101b1","system_id":"levelo_inurba_marseille","lat":43.29795,"lon":5.39341,"is_reserved":false,"is_disabled":false,"rental_uris":{"android":"levelo://app?vid=e3773d17-b3ff-4c6d-a9e3-b9f663b101b1","ios":"levelo://app?vid=e3773d17-b3ff-4c6d-a9e3-b9f663b101b1"},"vehicle_type_id":"4","last_reported":1706566005,"current_range_meters":11600,"station_id":"chh1huq6cuj3fo74tm60","pricing_plan_id":"free"},{"bike_id":"91a9beca-76bc-4f85-a0a9-d9935a02f7a2","system_id":"levelo_inurba_marseille","lat":43.29794,"lon":5.3934,"is_reserved":false,"is_disabled":false,"rental_uris":{"android":"levelo://app?vid=91a9beca-76bc-4f85-a0a9-d9935a02f7a2","ios":"levelo://app?vid=91a9beca-76bc-4f85-a0a9-d9935a02f7a2"},"vehicle_type_id":"4","last_reported":1706566005,"current_range_meters":30000,"station_id":"chh1huq6cuj3fo74tm60","pricing_plan_id":"free"},{"bike_id":"d51b1970-66e9-4745-a2d3-9782ad9b9410","system_id":"levelo_inurba_marseille","lat":43.297815,"lon":5.393548,"is_reserved":false,"is_disabled":false,"rental_uris":{"android":"levelo://app?vid=d51b1970-66e9-4745-a2d3-9782ad9b9410","ios":"levelo://app?vid=d51b1970-66e9-4745-a2d3-9782ad9b9410"},"vehicle_type_id":"4","last_reported":1706566005,"current_range_meters":31200,"station_id":"chh1huq6cuj3fo74tm60","pricing_plan_id":"free"},{"bike_id":"536d2704-3927-4957-837a-b2b86a24d827","system_id":"levelo_inurba_marseille","lat":43.330442,"lon":5.389148,"is_reserved":false,"is_disabled":false,"rental_uris":{"android":"levelo://app?vid=536d2704-3927-4957-837a-b2b86a24d827","ios":"levelo://app?vid=536d2704-3927-4957-837a-b2b86a24d827"},"vehicle_type_id":"4","last_reported":1706566005,"current_range_meters":17200,"station_id":"ce4bhr92rcd13ifvqhrg","pricing_plan_id":"free"},{"bike_id":"560df544-b0a0-46e5-bc31-37959c9ad887","system_id":"levelo_inurba_marseille","lat":43.297815,"lon":5.393548,"is_reserved":false,"is_disabled":false,"rental_uris":{"android":"levelo://app?vid=560df544-b0a0-46e5-bc31-37959c9ad887","ios":"levelo://app?vid=560df544-b0a0-46e5-bc31-37959c9ad887"},"vehicle_type_id":"4","last_reported":1706566005,"current_range_meters":31200,"station_id":"chh1huq6cuj3fo74tm60","pricing_plan_id":"free"},{"bike_id":"8f7e4864-ee4d-4fc3-9d7d-1dd6b4489e99","system_id":"levelo_inurba_marseille","lat":43.29524,"lon":5.39034,"is_reserved":false,"is_disabled":false,"rental_uris":{"android":"levelo://app?vid=8f7e4864-ee4d-4fc3-9d7d-1dd6b4489e99","ios":"levelo://app?vid=8f7e4864-ee4d-4fc3-9d7d-1dd6b4489e99"},"vehicle_type_id":"4","last_reported":1706566005,"current_range_meters":15200,"station_id":"ce4bh3p2rcd13ifvqdp0","pricing_plan_id":"free"},{"bike_id":"2c35eee9-0a73-4a36-80a9-96c0004dabf1","system_id":"levelo_inurba_marseille","lat":43.330442,"lon":5.389148,"is_reserved":false,"is_disabled":false,"rental_uris":{"android":"levelo://app?vid=2c35eee9-0a73-4a36-80a9-96c0004dabf1","ios":"levelo://app?vid=2c35eee9-0a73-4a36-80a9-96c0004dabf1"},"vehicle_type_id":"4","last_reported":1706566005,"current_range_meters":29600,"station_id":"ce4bhr92rcd13ifvqhrg","pricing_plan_id":"free"},{"bike_id":"ca0d8e53-0e04-4cb7-a2a9-e398803487ef","system_id":"levelo_inurba_marseille","lat":43.330442,"lon":5.389148,"is_reserved":false,"is_disabled":false,"rental_uris":{"android":"levelo://app?vid=ca0d8e53-0e04-4cb7-a2a9-e398803487ef","ios":"levelo://app?vid=ca0d8e53-0e04-4cb7-a2a9-e398803487ef"},"vehicle_type_id":"4","last_reported":1706566005,"current_range_meters":30000,"station_id":"ce4bhr92rcd13ifvqhrg","pricing_plan_id":"free"},{"bike_id":"b7e9febd-67eb-4972-9aa9-ea8a8f06e051","system_id":"levelo_inurba_marseille","lat":43.330442,"lon":5.389148,"is_reserved":false,"is_disabled":false,"rental_uris":{"android":"levelo://app?vid=b7e9febd-67eb-4972-9aa9-ea8a8f06e051","ios":"levelo://app?vid=b7e9febd-67eb-4972-9aa9-ea8a8f06e051"},"vehicle_type_id":"4","last_reported":1706566005,"current_range_meters":16000,"station_id":"ce4bhr92rcd13ifvqhrg","pricing_plan_id":"free"},{"bike_id":"92790bee-1a57-4a46-98fa-f166e37c2ee2","system_id":"levelo_inurba_marseille","lat":43.29519,"lon":5.39036,"is_reserved":false,"is_disabled":false,"rental_uris":{"android":"levelo://app?vid=92790bee-1a57-4a46-98fa-f166e37c2ee2","ios":"levelo://app?vid=92790bee-1a57-4a46-98fa-f166e37c2ee2"},"vehicle_type_id":"4","last_reported":1706566005,"current_range_meters":16400,"station_id":"ce4bh3p2rcd13ifvqdp0","pricing_plan_id":"free"},{"bike_id":"c2a5b50e-a73f-4643-a70b-14fbe9da9b8c","system_id":"levelo_inurba_marseille","lat":43.29519,"lon":5.390373,"is_reserved":false,"is_disabled":false,"rental_uris":{"android":"levelo://app?vid=c2a5b50e-a73f-4643-a70b-14fbe9da9b8c","ios":"levelo://app?vid=c2a5b50e-a73f-4643-a70b-14fbe9da9b8c"},"vehicle_type_id":"4","last_reported":1706566005,"current_range_meters":4000,"station_id":"ce4bh3p2rcd13ifvqdp0","pricing_plan_id":"free"},{"bike_id":"bc8cb214-3a94-4f40-adc5-e2ded44dbc8f","system_id":"levelo_inurba_marseille","lat":43.287184,"lon":5.37937,"is_reserved":false,"is_disabled":false,"rental_uris":{"android":"levelo://app?vid=bc8cb214-3a94-4f40-adc5-e2ded44dbc8f","ios":"levelo://app?vid=bc8cb214-3a94-4f40-adc5-e2ded44dbc8f"},"vehicle_type_id":"4","last_reported":1706566005,"current_range_meters":17600,"station_id":"ce4bh9p2rcd13ifvqec0","pricing_plan_id":"free"},{"bike_id":"bcb4a93d-67d3-41e9-bff5-adfd3537a796","system_id":"levelo_inurba_marseille","lat":43.28856,"lon":5.358371,"is_reserved":false,"is_disabled":false,"rental_uris":{"android":"levelo://app?vid=bcb4a93d-67d3-41e9-bff5-adfd3537a796","ios":"levelo://app?vid=bcb4a93d-67d3-41e9-bff5-adfd3537a796"},"vehicle_type_id":"4","last_reported":1706566005,"current_range_meters":24400,"station_id":"ce4bhb12rcd13ifvqem0","pricing_plan_id":"free"},{"bike_id":"e67ad8e5-85aa-4d7a-90f4-b82221c09c32","system_id":"levelo_inurba_marseille","lat":43.28856,"lon":5.358371,"is_reserved":false,"is_disabled":false,"rental_uris":{"android":"levelo://app?vid=e67ad8e5-85aa-4d7a-90f4-b82221c09c32","ios":"levelo://app?vid=e67ad8e5-85aa-4d7a-90f4-b82221c09c32"},"vehicle_type_id":"4","last_reported":1706566005,"current_range_meters":800,"station_id":"ce4bhb12rcd13ifvqem0","pricing_plan_id":"free"},{"bike_id":"1390820a-21ee-4be8-9142-26d4fe7aab03","system_id":"levelo_inurba_marseille","lat":43.2901,"lon":5.381269,"is_reserved":false,"is_disabled":false,"rental_uris":{"android":"levelo://app?vid=1390820a-21ee-4be8-9142-26d4fe7aab03","ios":"levelo://app?vid=1390820a-21ee-4be8-9142-26d4fe7aab03"},"vehicle_type_id":"4","last_reported":1706566005,"current_range_meters":0,"station_id":"ce4bh4p2rcd13ifvqe1g","pricing_plan_id":"free"},{"bike_id":"d745797d-d48b-41a2-a87a-e95b1ea7a4eb","system_id":"levelo_inurba_marseille","lat":43.28856,"lon":5.358371,"is_reserved":false,"is_disabled":false,"rental_uris":{"android":"levelo://app?vid=d745797d-d48b-41a2-a87a-e95b1ea7a4eb","ios":"levelo://app?vid=d745797d-d48b-41a2-a87a-e95b1ea7a4eb"},"vehicle_type_id":"4","last_reported":1706566005,"current_range_meters":20400,"station_id":"ce4bhb12rcd13ifvqem0","pricing_plan_id":"free"},{"bike_id":"4729c0d4-9a73-419c-919f-11172d77f3d4","system_id":"levelo_inurba_marseille","lat":43.28856,"lon":5.358371,"is_reserved":false,"is_disabled":false,"rental_uris":{"android":"levelo://app?vid=4729c0d4-9a73-419c-919f-11172d77f3d4","ios":"levelo://app?vid=4729c0d4-9a73-419c-919f-11172d77f3d4"},"vehicle_type_id":"4","last_reported":1706566005,"current_range_meters":4400,"station_id":"ce4bhb12rcd13ifvqem0","pricing_plan_id":"free"},{"bike_id":"dc0cb5b0-1098-450d-af84-8fb9ff29bf5f","system_id":"levelo_inurba_marseille","lat":43.28856,"lon":5.358371,"is_reserved":false,"is_disabled":false,"rental_uris":{"android":"levelo://app?vid=dc0cb5b0-1098-450d-af84-8fb9ff29bf5f","ios":"levelo://app?vid=dc0cb5b0-1098-450d-af84-8fb9ff29bf5f"},"vehicle_type_id":"4","last_reported":1706566005,"current_range_meters":16800,"station_id":"ce4bhb12rcd13ifvqem0","pricing_plan_id":"free"},{"bike_id":"f200673f-42bb-40c2-9d47-eb33ce2d10f8","system_id":"levelo_inurba_marseille","lat":43.28856,"lon":5.358371,"is_reserved":false,"is_disabled":false,"rental_uris":{"android":"levelo://app?vid=f200673f-42bb-40c2-9d47-eb33ce2d10f8","ios":"levelo://app?vid=f200673f-42bb-40c2-9d47-eb33ce2d10f8"},"vehicle_type_id":"4","last_reported":1706566005,"current_range_meters":4000,"station_id":"ce4bhb12rcd13ifvqem0","pricing_plan_id":"free"},{"bike_id":"1cf894b2-e7d5-4b26-b98d-66ab34703764","system_id":"levelo_inurba_marseille","lat":43.28856,"lon":5.358371,"is_reserved":false,"is_disabled":false,"rental_uris":{"android":"levelo://app?vid=1cf894b2-e7d5-4b26-b98d-66ab34703764","ios":"levelo://app?vid=1cf894b2-e7d5-4b26-b98d-66ab34703764"},"vehicle_type_id":"4","last_reported":1706566005,"current_range_meters":3600,"station_id":"ce4bhb12rcd13ifvqem0","pricing_plan_id":"free"},{"bike_id":"12061fc2-a3c1-4ba0-a8e0-f4d3e3001fa5","system_id":"levelo_inurba_marseille","lat":43.28856,"lon":5.358371,"is_reserved":false,"is_disabled":false,"rental_uris":{"android":"levelo://app?vid=12061fc2-a3c1-4ba0-a8e0-f4d3e3001fa5","ios":"levelo://app?vid=12061fc2-a3c1-4ba0-a8e0-f4d3e3001fa5"},"vehicle_type_id":"4","last_reported":1706566005,"current_range_meters":16800,"station_id":"ce4bhb12rcd13ifvqem0","pricing_plan_id":"free"},{"bike_id":"aa7aa871-37b1-4ba0-9e45-abce3106479d","system_id":"levelo_inurba_marseille","lat":43.28856,"lon":5.358371,"is_reserved":false,"is_disabled":false,"rental_uris":{"android":"levelo://app?vid=aa7aa871-37b1-4ba0-9e45-abce3106479d","ios":"levelo://app?vid=aa7aa871-37b1-4ba0-9e45-abce3106479d"},"vehicle_type_id":"4","last_reported":1706566005,"current_range_meters":4000,"station_id":"ce4bhb12rcd13ifvqem0","pricing_plan_id":"free"},{"bike_id":"50a3ee12-bdf6-45b5-a244-0bb9da6965f7","system_id":"levelo_inurba_marseille","lat":43.28856,"lon":5.358371,"is_reserved":false,"is_disabled":false,"rental_uris":{"android":"levelo://app?vid=50a3ee12-bdf6-45b5-a244-0bb9da6965f7","ios":"levelo://app?vid=50a3ee12-bdf6-45b5-a244-0bb9da6965f7"},"vehicle_type_id":"4","last_reported":1706566005,"current_range_meters":24800,"station_id":"ce4bhb12rcd13ifvqem0","pricing_plan_id":"free"},{"bike_id":"996874ac-4858-428d-9bcb-6194a257f641","system_id":"levelo_inurba_marseille","lat":43.28856,"lon":5.358371,"is_reserved":false,"is_disabled":false,"rental_uris":{"android":"levelo://app?vid=996874ac-4858-428d-9bcb-6194a257f641","ios":"levelo://app?vid=996874ac-4858-428d-9bcb-6194a257f641"},"vehicle_type_id":"4","last_reported":1706566005,"current_range_meters":8800,"station_id":"ce4bhb12rcd13ifvqem0","pricing_plan_id":"free"},{"bike_id":"2934fafb-ee84-435c-9b26-1170a0a2546c","system_id":"levelo_inurba_marseille","lat":43.28856,"lon":5.358371,"is_reserved":false,"is_disabled":false,"rental_uris":{"android":"levelo://app?vid=2934fafb-ee84-435c-9b26-1170a0a2546c","ios":"levelo://app?vid=2934fafb-ee84-435c-9b26-1170a0a2546c"},"vehicle_type_id":"4","last_reported":1706566005,"current_range_meters":19200,"station_id":"ce4bhb12rcd13ifvqem0","pricing_plan_id":"free"},{"bike_id":"d09c1d21-a58f-43ac-b40e-5e7c7921070e","system_id":"levelo_inurba_marseille","lat":43.31276,"lon":5.40169,"is_reserved":false,"is_disabled":false,"rental_uris":{"android":"levelo://app?vid=d09c1d21-a58f-43ac-b40e-5e7c7921070e","ios":"levelo://app?vid=d09c1d21-a58f-43ac-b40e-5e7c7921070e"},"vehicle_type_id":"4","last_reported":1706566005,"current_range_meters":0,"station_id":"ce4bh092rcd13ifvqd30","pricing_plan_id":"free"},{"bike_id":"7eac3962-a690-4207-8c72-c5ed1bdc896e","system_id":"levelo_inurba_marseille","lat":43.30651,"lon":5.4007,"is_reserved":false,"is_disabled":false,"rental_uris":{"android":"levelo://app?vid=7eac3962-a690-4207-8c72-c5ed1bdc896e","ios":"levelo://app?vid=7eac3962-a690-4207-8c72-c5ed1bdc896e"},"vehicle_type_id":"4","last_reported":1706566005,"current_range_meters":4800,"station_id":"ce4bh112rcd13ifvqda0","pricing_plan_id":"free"},{"bike_id":"a563cdbf-78b8-441c-8dce-8da1c3325b92","system_id":"levelo_inurba_marseille","lat":43.337502,"lon":5.374518,"is_reserved":false,"is_disabled":false,"rental_uris":{"android":"levelo://app?vid=a563cdbf-78b8-441c-8dce-8da1c3325b92","ios":"levelo://app?vid=a563cdbf-78b8-441c-8dce-8da1c3325b92"},"vehicle_type_id":"4","last_reported":1706566005,"current_range_meters":19200,"station_id":"","pricing_plan_id":"free"},{"bike_id":"48c909f2-6537-449f-988c-e08eb535f069","system_id":"levelo_inurba_marseille","lat":43.30924,"lon":5.40148,"is_reserved":false,"is_disabled":false,"rental_uris":{"android":"levelo://app?vid=48c909f2-6537-449f-988c-e08eb535f069","ios":"levelo://app?vid=48c909f2-6537-449f-988c-e08eb535f069"},"vehicle_type_id":"4","last_reported":1706566005,"current_range_meters":0,"station_id":"ce4bgvp2rcd13ifvqct0","pricing_plan_id":"free"},{"bike_id":"b7f12eab-e0a6-499e-87ec-2b4381c4602a","system_id":"levelo_inurba_marseille","lat":43.337544,"lon":5.374554,"is_reserved":false,"is_disabled":false,"rental_uris":{"android":"levelo://app?vid=b7f12eab-e0a6-499e-87ec-2b4381c4602a","ios":"levelo://app?vid=b7f12eab-e0a6-499e-87ec-2b4381c4602a"},"vehicle_type_id":"4","last_reported":1706566005,"current_range_meters":20800,"station_id":"","pricing_plan_id":"free"},{"bike_id":"c1c4dfc9-3cf4-429c-be22-684de8bbbe80","system_id":"levelo_inurba_marseille","lat":43.30642,"lon":5.401031,"is_reserved":false,"is_disabled":false,"rental_uris":{"android":"levelo://app?vid=c1c4dfc9-3cf4-429c-be22-684de8bbbe80","ios":"levelo://app?vid=c1c4dfc9-3cf4-429c-be22-684de8bbbe80"},"vehicle_type_id":"4","last_reported":1706566005,"current_range_meters":17200,"station_id":"ce4bh112rcd13ifvqda0","pricing_plan_id":"free"},{"bike_id":"663b4048-76fd-43f1-8346-64e09c2c7288","system_id":"levelo_inurba_marseille","lat":43.337579,"lon":5.374576,"is_reserved":false,"is_disabled":false,"rental_uris":{"android":"levelo://app?vid=663b4048-76fd-43f1-8346-64e09c2c7288","ios":"levelo://app?vid=663b4048-76fd-43f1-8346-64e09c2c7288"},"vehicle_type_id":"4","last_reported":1706566005,"current_range_meters":17200,"station_id":"","pricing_plan_id":"free"},{"bike_id":"91b6ff85-6ee5-4dda-afcf-7e77437e0e9c","system_id":"levelo_inurba_marseille","lat":43.337614,"lon":5.374371,"is_reserved":false,"is_disabled":false,"rental_uris":{"android":"levelo://app?vid=91b6ff85-6ee5-4dda-afcf-7e77437e0e9c","ios":"levelo://app?vid=91b6ff85-6ee5-4dda-afcf-7e77437e0e9c"},"vehicle_type_id":"4","last_reported":1706566005,"current_range_meters":21600,"station_id":"","pricing_plan_id":"free"},{"bike_id":"22f2ddad-3b54-4c31-8db7-750ed6b09aaa","system_id":"levelo_inurba_marseille","lat":43.29951,"lon":5.39685,"is_reserved":false,"is_disabled":false,"rental_uris":{"android":"levelo://app?vid=22f2ddad-3b54-4c31-8db7-750ed6b09aaa","ios":"levelo://app?vid=22f2ddad-3b54-4c31-8db7-750ed6b09aaa"},"vehicle_type_id":"4","last_reported":1706566005,"current_range_meters":13600,"station_id":"","pricing_plan_id":"free"},{"bike_id":"b7d3b81d-d85a-44b5-a0c7-8f9c9f74639e","system_id":"levelo_inurba_marseille","lat":43.337652,"lon":5.374317,"is_reserved":false,"is_disabled":false,"rental_uris":{"android":"levelo://app?vid=b7d3b81d-d85a-44b5-a0c7-8f9c9f74639e","ios":"levelo://app?vid=b7d3b81d-d85a-44b5-a0c7-8f9c9f74639e"},"vehicle_type_id":"4","last_reported":1706566005,"current_range_meters":24800,"station_id":"","pricing_plan_id":"free"},{"bike_id":"1facbbf3-baac-42f8-85eb-cb1e36f3e4b9","system_id":"levelo_inurba_marseille","lat":43.337575,"lon":5.374947,"is_reserved":false,"is_disabled":false,"rental_uris":{"android":"levelo://app?vid=1facbbf3-baac-42f8-85eb-cb1e36f3e4b9","ios":"levelo://app?vid=1facbbf3-baac-42f8-85eb-cb1e36f3e4b9"},"vehicle_type_id":"4","last_reported":1706566005,"current_range_meters":7200,"station_id":"","pricing_plan_id":"free"},{"bike_id":"2fe24097-b1c2-4583-ba1f-cf8501171a4c","system_id":"levelo_inurba_marseille","lat":43.337581,"lon":5.374929,"is_reserved":false,"is_disabled":false,"rental_uris":{"android":"levelo://app?vid=2fe24097-b1c2-4583-ba1f-cf8501171a4c","ios":"levelo://app?vid=2fe24097-b1c2-4583-ba1f-cf8501171a4c"},"vehicle_type_id":"4","last_reported":1706566005,"current_range_meters":5200,"station_id":"","pricing_plan_id":"free"},{"bike_id":"12568932-a9a7-4d52-8b2c-668683b75358","system_id":"levelo_inurba_marseille","lat":43.337643,"lon":5.374912,"is_reserved":false,"is_disabled":false,"rental_uris":{"android":"levelo://app?vid=12568932-a9a7-4d52-8b2c-668683b75358","ios":"levelo://app?vid=12568932-a9a7-4d52-8b2c-668683b75358"},"vehicle_type_id":"4","last_reported":1706566005,"current_range_meters":17600,"station_id":"","pricing_plan_id":"free"},{"bike_id":"c77238a3-22c2-4cc0-978c-c10c0a714161","system_id":"levelo_inurba_marseille","lat":43.28727,"lon":5.36078,"is_reserved":false,"is_disabled":false,"rental_uris":{"android":"levelo://app?vid=c77238a3-22c2-4cc0-978c-c10c0a714161","ios":"levelo://app?vid=c77238a3-22c2-4cc0-978c-c10c0a714161"},"vehicle_type_id":"4","last_reported":1706566005,"current_range_meters":5200,"station_id":"cki0cbj6b192h4jlfktg","pricing_plan_id":"free"},{"bike_id":"3c082ef8-998e-4b68-a29d-6b97c12f9805","system_id":"levelo_inurba_marseille","lat":43.304687,"lon":5.400653,"is_reserved":false,"is_disabled":false,"rental_uris":{"android":"levelo://app?vid=3c082ef8-998e-4b68-a29d-6b97c12f9805","ios":"levelo://app?vid=3c082ef8-998e-4b68-a29d-6b97c12f9805"},"vehicle_type_id":"4","last_reported":1706566005,"current_range_meters":24400,"station_id":"","pricing_plan_id":"free"},{"bike_id":"917f423e-d6b9-44e5-aad6-e9a19dfe6294","system_id":"levelo_inurba_marseille","lat":43.28727,"lon":5.36078,"is_reserved":false,"is_disabled":false,"rental_uris":{"android":"levelo://app?vid=917f423e-d6b9-44e5-aad6-e9a19dfe6294","ios":"levelo://app?vid=917f423e-d6b9-44e5-aad6-e9a19dfe6294"},"vehicle_type_id":"4","last_reported":1706566005,"current_range_meters":2400,"station_id":"cki0cbj6b192h4jlfktg","pricing_plan_id":"free"},{"bike_id":"ac4fa579-edec-4e5c-bd47-d17552f58267","system_id":"levelo_inurba_marseille","lat":43.287242,"lon":5.360906,"is_reserved":false,"is_disabled":false,"rental_uris":{"android":"levelo://app?vid=ac4fa579-edec-4e5c-bd47-d17552f58267","ios":"levelo://app?vid=ac4fa579-edec-4e5c-bd47-d17552f58267"},"vehicle_type_id":"4","last_reported":1706566005,"current_range_meters":21200,"station_id":"cki0cbj6b192h4jlfktg","pricing_plan_id":"free"},{"bike_id":"888fe018-6135-4210-94ff-19cc4fe60be8","system_id":"levelo_inurba_marseille","lat":43.28725,"lon":5.36083,"is_reserved":false,"is_disabled":false,"rental_uris":{"android":"levelo://app?vid=888fe018-6135-4210-94ff-19cc4fe60be8","ios":"levelo://app?vid=888fe018-6135-4210-94ff-19cc4fe60be8"},"vehicle_type_id":"4","last_reported":1706566005,"current_range_meters":2000,"station_id":"cki0cbj6b192h4jlfktg","pricing_plan_id":"free"},{"bike_id":"ffbd46a0-79ca-4f42-80a5-632df65f6e88","system_id":"levelo_inurba_marseille","lat":43.286961,"lon":5.373785,"is_reserved":false,"is_disabled":false,"rental_uris":{"android":"levelo://app?vid=ffbd46a0-79ca-4f42-80a5-632df65f6e88","ios":"levelo://app?vid=ffbd46a0-79ca-4f42-80a5-632df65f6e88"},"vehicle_type_id":"4","last_reported":1706566005,"current_range_meters":6800,"station_id":"ce4bh3p2rcd13ifvqdq0","pricing_plan_id":"free"},{"bike_id":"0c1e6420-981b-4038-9f31-257c0eed4e7d","system_id":"levelo_inurba_marseille","lat":43.287107,"lon":5.373853,"is_reserved":false,"is_disabled":false,"rental_uris":{"android":"levelo://app?vid=0c1e6420-981b-4038-9f31-257c0eed4e7d","ios":"levelo://app?vid=0c1e6420-981b-4038-9f31-257c0eed4e7d"},"vehicle_type_id":"4","last_reported":1706566005,"current_range_meters":0,"station_id":"ce4bh3p2rcd13ifvqdq0","pricing_plan_id":"free"},{"bike_id":"b898dc94-5a6a-4129-ba14-91bee8c2c76b","system_id":"levelo_inurba_marseille","lat":43.28673,"lon":5.36352,"is_reserved":false,"is_disabled":false,"rental_uris":{"android":"levelo://app?vid=b898dc94-5a6a-4129-ba14-91bee8c2c76b","ios":"levelo://app?vid=b898dc94-5a6a-4129-ba14-91bee8c2c76b"},"vehicle_type_id":"4","last_reported":1706566005,"current_range_meters":4400,"station_id":"ce4bhah2rcd13ifvqej0","pricing_plan_id":"free"},{"bike_id":"ceed7712-7f74-49b9-98f5-0c410889e5e3","system_id":"levelo_inurba_marseille","lat":43.286961,"lon":5.373785,"is_reserved":false,"is_disabled":false,"rental_uris":{"android":"levelo://app?vid=ceed7712-7f74-49b9-98f5-0c410889e5e3","ios":"levelo://app?vid=ceed7712-7f74-49b9-98f5-0c410889e5e3"},"vehicle_type_id":"4","last_reported":1706566005,"current_range_meters":10000,"station_id":"ce4bh3p2rcd13ifvqdq0","pricing_plan_id":"free"},{"bike_id":"fccd36d9-d6c4-400e-958b-9dcab1fe1fd6","system_id":"levelo_inurba_marseille","lat":43.286961,"lon":5.373785,"is_reserved":false,"is_disabled":false,"rental_uris":{"android":"levelo://app?vid=fccd36d9-d6c4-400e-958b-9dcab1fe1fd6","ios":"levelo://app?vid=fccd36d9-d6c4-400e-958b-9dcab1fe1fd6"},"vehicle_type_id":"4","last_reported":1706566005,"current_range_meters":21600,"station_id":"ce4bh3p2rcd13ifvqdq0","pricing_plan_id":"free"},{"bike_id":"1315efbe-3740-4310-8e1d-e36c26deef6d","system_id":"levelo_inurba_marseille","lat":43.286961,"lon":5.373785,"is_reserved":false,"is_disabled":false,"rental_uris":{"android":"levelo://app?vid=1315efbe-3740-4310-8e1d-e36c26deef6d","ios":"levelo://app?vid=1315efbe-3740-4310-8e1d-e36c26deef6d"},"vehicle_type_id":"4","last_reported":1706566005,"current_range_meters":26000,"station_id":"ce4bh3p2rcd13ifvqdq0","pricing_plan_id":"free"},{"bike_id":"6159cc09-4c68-4f17-8639-e57b6b5b655e","system_id":"levelo_inurba_marseille","lat":43.28671,"lon":5.36351,"is_reserved":false,"is_disabled":false,"rental_uris":{"android":"levelo://app?vid=6159cc09-4c68-4f17-8639-e57b6b5b655e","ios":"levelo://app?vid=6159cc09-4c68-4f17-8639-e57b6b5b655e"},"vehicle_type_id":"4","last_reported":1706566005,"current_range_meters":8800,"station_id":"ce4bhah2rcd13ifvqej0","pricing_plan_id":"free"},{"bike_id":"e4cbab0e-4db6-4022-9a92-4a942701f9b7","system_id":"levelo_inurba_marseille","lat":43.286961,"lon":5.373785,"is_reserved":false,"is_disabled":false,"rental_uris":{"android":"levelo://app?vid=e4cbab0e-4db6-4022-9a92-4a942701f9b7","ios":"levelo://app?vid=e4cbab0e-4db6-4022-9a92-4a942701f9b7"},"vehicle_type_id":"4","last_reported":1706566005,"current_range_meters":13200,"station_id":"ce4bh3p2rcd13ifvqdq0","pricing_plan_id":"free"},{"bike_id":"9dc00ff7-ba5d-4354-9486-56278cd0763b","system_id":"levelo_inurba_marseille","lat":43.298815,"lon":5.397372,"is_reserved":false,"is_disabled":false,"rental_uris":{"android":"levelo://app?vid=9dc00ff7-ba5d-4354-9486-56278cd0763b","ios":"levelo://app?vid=9dc00ff7-ba5d-4354-9486-56278cd0763b"},"vehicle_type_id":"4","last_reported":1706566005,"current_range_meters":0,"station_id":"ce4bh0h2rcd13ifvqd50","pricing_plan_id":"free"},{"bike_id":"847f360b-67db-4bde-8ce1-4a399094222c","system_id":"levelo_inurba_marseille","lat":43.286961,"lon":5.373785,"is_reserved":false,"is_disabled":false,"rental_uris":{"android":"levelo://app?vid=847f360b-67db-4bde-8ce1-4a399094222c","ios":"levelo://app?vid=847f360b-67db-4bde-8ce1-4a399094222c"},"vehicle_type_id":"4","last_reported":1706566005,"current_range_meters":14800,"station_id":"ce4bh3p2rcd13ifvqdq0","pricing_plan_id":"free"},{"bike_id":"54c7e8bc-34b9-4735-9532-d5fc6184a089","system_id":"levelo_inurba_marseille","lat":43.286663,"lon":5.363462,"is_reserved":false,"is_disabled":false,"rental_uris":{"android":"levelo://app?vid=54c7e8bc-34b9-4735-9532-d5fc6184a089","ios":"levelo://app?vid=54c7e8bc-34b9-4735-9532-d5fc6184a089"},"vehicle_type_id":"4","last_reported":1706566005,"current_range_meters":15200,"station_id":"","pricing_plan_id":"free"},{"bike_id":"1b1fb395-0bd7-4d4a-8dc5-30cc98791e6f","system_id":"levelo_inurba_marseille","lat":43.298681,"lon":5.397225,"is_reserved":false,"is_disabled":false,"rental_uris":{"android":"levelo://app?vid=1b1fb395-0bd7-4d4a-8dc5-30cc98791e6f","ios":"levelo://app?vid=1b1fb395-0bd7-4d4a-8dc5-30cc98791e6f"},"vehicle_type_id":"4","last_reported":1706566005,"current_range_meters":31600,"station_id":"ce4bh0h2rcd13ifvqd50","pricing_plan_id":"free"},{"bike_id":"035e8b1d-38ee-4a2a-9c48-56623716c567","system_id":"levelo_inurba_marseille","lat":43.298681,"lon":5.397225,"is_reserved":false,"is_disabled":false,"rental_uris":{"android":"levelo://app?vid=035e8b1d-38ee-4a2a-9c48-56623716c567","ios":"levelo://app?vid=035e8b1d-38ee-4a2a-9c48-56623716c567"},"vehicle_type_id":"4","last_reported":1706566005,"current_range_meters":18800,"station_id":"ce4bh0h2rcd13ifvqd50","pricing_plan_id":"free"},{"bike_id":"2f05243e-7104-4610-b155-12e5c5453ac9","system_id":"levelo_inurba_marseille","lat":43.298681,"lon":5.397225,"is_reserved":false,"is_disabled":false,"rental_uris":{"android":"levelo://app?vid=2f05243e-7104-4610-b155-12e5c5453ac9","ios":"levelo://app?vid=2f05243e-7104-4610-b155-12e5c5453ac9"},"vehicle_type_id":"4","last_reported":1706566005,"current_range_meters":27600,"station_id":"ce4bh0h2rcd13ifvqd50","pricing_plan_id":"free"},{"bike_id":"bf7ee3d7-60c7-495d-8389-848bce99b53b","system_id":"levelo_inurba_marseille","lat":43.286559,"lon":5.363584,"is_reserved":false,"is_disabled":false,"rental_uris":{"android":"levelo://app?vid=bf7ee3d7-60c7-495d-8389-848bce99b53b","ios":"levelo://app?vid=bf7ee3d7-60c7-495d-8389-848bce99b53b"},"vehicle_type_id":"4","last_reported":1706566005,"current_range_meters":24800,"station_id":"ce4bhah2rcd13ifvqej0","pricing_plan_id":"free"},{"bike_id":"8048f061-361d-46aa-b6c7-1a07e6561be1","system_id":"levelo_inurba_marseille","lat":43.298681,"lon":5.397225,"is_reserved":false,"is_disabled":false,"rental_uris":{"android":"levelo://app?vid=8048f061-361d-46aa-b6c7-1a07e6561be1","ios":"levelo://app?vid=8048f061-361d-46aa-b6c7-1a07e6561be1"},"vehicle_type_id":"4","last_reported":1706566005,"current_range_meters":23200,"station_id":"ce4bh0h2rcd13ifvqd50","pricing_plan_id":"free"},{"bike_id":"1fd652c2-e937-4b11-92c8-116e7dab50c5","system_id":"levelo_inurba_marseille","lat":43.298681,"lon":5.397225,"is_reserved":false,"is_disabled":false,"rental_uris":{"android":"levelo://app?vid=1fd652c2-e937-4b11-92c8-116e7dab50c5","ios":"levelo://app?vid=1fd652c2-e937-4b11-92c8-116e7dab50c5"},"vehicle_type_id":"4","last_reported":1706566005,"current_range_meters":10000,"station_id":"ce4bh0h2rcd13ifvqd50","pricing_plan_id":"free"},{"bike_id":"668c6fc6-4393-485a-9608-3bd3385e92a4","system_id":"levelo_inurba_marseille","lat":43.290336,"lon":5.386425,"is_reserved":false,"is_disabled":false,"rental_uris":{"android":"levelo://app?vid=668c6fc6-4393-485a-9608-3bd3385e92a4","ios":"levelo://app?vid=668c6fc6-4393-485a-9608-3bd3385e92a4"},"vehicle_type_id":"4","last_reported":1706566005,"current_range_meters":400,"station_id":"ce4bh4p2rcd13ifvqe0g","pricing_plan_id":"free"},{"bike_id":"22d63103-7c75-44ed-b455-c84de0a0c5a9","system_id":"levelo_inurba_marseille","lat":43.30246,"lon":5.40057,"is_reserved":false,"is_disabled":false,"rental_uris":{"android":"levelo://app?vid=22d63103-7c75-44ed-b455-c84de0a0c5a9","ios":"levelo://app?vid=22d63103-7c75-44ed-b455-c84de0a0c5a9"},"vehicle_type_id":"4","last_reported":1706566005,"current_range_meters":4800,"station_id":"","pricing_plan_id":"free"},{"bike_id":"18e26d70-496b-4383-b832-d51300f634b8","system_id":"levelo_inurba_marseille","lat":43.30248,"lon":5.40076,"is_reserved":false,"is_disabled":false,"rental_uris":{"android":"levelo://app?vid=18e26d70-496b-4383-b832-d51300f634b8","ios":"levelo://app?vid=18e26d70-496b-4383-b832-d51300f634b8"},"vehicle_type_id":"4","last_reported":1706566005,"current_range_meters":10400,"station_id":"ce4bgvh2rcd13ifvqcs0","pricing_plan_id":"free"},{"bike_id":"6b64c911-421e-4e62-b9d9-ef908fcdb5bb","system_id":"levelo_inurba_marseille","lat":43.3025,"lon":5.40081,"is_reserved":false,"is_disabled":false,"rental_uris":{"android":"levelo://app?vid=6b64c911-421e-4e62-b9d9-ef908fcdb5bb","ios":"levelo://app?vid=6b64c911-421e-4e62-b9d9-ef908fcdb5bb"},"vehicle_type_id":"4","last_reported":1706566005,"current_range_meters":7600,"station_id":"ce4bgvh2rcd13ifvqcs0","pricing_plan_id":"free"},{"bike_id":"1e9eca30-5695-40d5-b125-11a59af1e70b","system_id":"levelo_inurba_marseille","lat":43.3025,"lon":5.40082,"is_reserved":false,"is_disabled":false,"rental_uris":{"android":"levelo://app?vid=1e9eca30-5695-40d5-b125-11a59af1e70b","ios":"levelo://app?vid=1e9eca30-5695-40d5-b125-11a59af1e70b"},"vehicle_type_id":"4","last_reported":1706566005,"current_range_meters":0,"station_id":"ce4bgvh2rcd13ifvqcs0","pricing_plan_id":"free"},{"bike_id":"807665df-a4a0-4d1f-93e9-1a9c1f652134","system_id":"levelo_inurba_marseille","lat":43.286105,"lon":5.37065,"is_reserved":false,"is_disabled":false,"rental_uris":{"android":"levelo://app?vid=807665df-a4a0-4d1f-93e9-1a9c1f652134","ios":"levelo://app?vid=807665df-a4a0-4d1f-93e9-1a9c1f652134"},"vehicle_type_id":"4","last_reported":1706566005,"current_range_meters":2000,"station_id":"ce4bht12rcd13ifvqi60","pricing_plan_id":"free"},{"bike_id":"b0a81108-6938-414d-abd4-0220f16756ca","system_id":"levelo_inurba_marseille","lat":43.28604,"lon":5.37069,"is_reserved":false,"is_disabled":false,"rental_uris":{"android":"levelo://app?vid=b0a81108-6938-414d-abd4-0220f16756ca","ios":"levelo://app?vid=b0a81108-6938-414d-abd4-0220f16756ca"},"vehicle_type_id":"4","last_reported":1706566005,"current_range_meters":4800,"station_id":"ce4bht12rcd13ifvqi60","pricing_plan_id":"free"},{"bike_id":"0c5fef2e-eb56-4852-b6f9-7c726985c388","system_id":"levelo_inurba_marseille","lat":43.287254,"lon":5.37941,"is_reserved":false,"is_disabled":false,"rental_uris":{"android":"levelo://app?vid=0c5fef2e-eb56-4852-b6f9-7c726985c388","ios":"levelo://app?vid=0c5fef2e-eb56-4852-b6f9-7c726985c388"},"vehicle_type_id":"4","last_reported":1706566005,"current_range_meters":10400,"station_id":"ce4bh9p2rcd13ifvqec0","pricing_plan_id":"free"},{"bike_id":"da8b6da7-2b6b-467e-ad10-aac19eb54f41","system_id":"levelo_inurba_marseille","lat":43.28715,"lon":5.37922,"is_reserved":false,"is_disabled":false,"rental_uris":{"android":"levelo://app?vid=da8b6da7-2b6b-467e-ad10-aac19eb54f41","ios":"levelo://app?vid=da8b6da7-2b6b-467e-ad10-aac19eb54f41"},"vehicle_type_id":"4","last_reported":1706566005,"current_range_meters":20400,"station_id":"ce4bh9p2rcd13ifvqec0","pricing_plan_id":"free"},{"bike_id":"67952daa-9e2d-4d76-90ea-c3fb8b06acae","system_id":"levelo_inurba_marseille","lat":43.287184,"lon":5.37937,"is_reserved":false,"is_disabled":false,"rental_uris":{"android":"levelo://app?vid=67952daa-9e2d-4d76-90ea-c3fb8b06acae","ios":"levelo://app?vid=67952daa-9e2d-4d76-90ea-c3fb8b06acae"},"vehicle_type_id":"4","last_reported":1706566005,"current_range_meters":13200,"station_id":"ce4bh9p2rcd13ifvqec0","pricing_plan_id":"free"},{"bike_id":"4e4f6581-0877-4bf9-a5d6-3e09359cb613","system_id":"levelo_inurba_marseille","lat":43.287143,"lon":5.379407,"is_reserved":false,"is_disabled":false,"rental_uris":{"android":"levelo://app?vid=4e4f6581-0877-4bf9-a5d6-3e09359cb613","ios":"levelo://app?vid=4e4f6581-0877-4bf9-a5d6-3e09359cb613"},"vehicle_type_id":"4","last_reported":1706566005,"current_range_meters":29200,"station_id":"ce4bh9p2rcd13ifvqec0","pricing_plan_id":"free"},{"bike_id":"750ab4c2-da78-4a52-afc4-1849840dc1e2","system_id":"levelo_inurba_marseille","lat":43.287185,"lon":5.379373,"is_reserved":false,"is_disabled":false,"rental_uris":{"android":"levelo://app?vid=750ab4c2-da78-4a52-afc4-1849840dc1e2","ios":"levelo://app?vid=750ab4c2-da78-4a52-afc4-1849840dc1e2"},"vehicle_type_id":"4","last_reported":1706566005,"current_range_meters":0,"station_id":"ce4bh9p2rcd13ifvqec0","pricing_plan_id":"free"},{"bike_id":"f994ab1b-aa31-4ad8-aed7-c7cc9eb047f1","system_id":"levelo_inurba_marseille","lat":43.287185,"lon":5.379373,"is_reserved":false,"is_disabled":false,"rental_uris":{"android":"levelo://app?vid=f994ab1b-aa31-4ad8-aed7-c7cc9eb047f1","ios":"levelo://app?vid=f994ab1b-aa31-4ad8-aed7-c7cc9eb047f1"},"vehicle_type_id":"4","last_reported":1706566005,"current_range_meters":8800,"station_id":"ce4bh9p2rcd13ifvqec0","pricing_plan_id":"free"},{"bike_id":"97b0bde0-bd3d-4e18-b61d-44a138bde320","system_id":"levelo_inurba_marseille","lat":43.29995,"lon":5.40057,"is_reserved":false,"is_disabled":false,"rental_uris":{"android":"levelo://app?vid=97b0bde0-bd3d-4e18-b61d-44a138bde320","ios":"levelo://app?vid=97b0bde0-bd3d-4e18-b61d-44a138bde320"},"vehicle_type_id":"4","last_reported":1706566005,"current_range_meters":27200,"station_id":"","pricing_plan_id":"free"},{"bike_id":"0c2dd0be-f006-486a-b462-4cb345a5b8c7","system_id":"levelo_inurba_marseille","lat":43.284534,"lon":5.358662,"is_reserved":false,"is_disabled":false,"rental_uris":{"android":"levelo://app?vid=0c2dd0be-f006-486a-b462-4cb345a5b8c7","ios":"levelo://app?vid=0c2dd0be-f006-486a-b462-4cb345a5b8c7"},"vehicle_type_id":"4","last_reported":1706566005,"current_range_meters":4000,"station_id":"ce4bhah2rcd13ifvqei0","pricing_plan_id":"free"},{"bike_id":"d71de3d4-52d7-4f65-b42e-9ab0e577bff8","system_id":"levelo_inurba_marseille","lat":43.284538,"lon":5.358657,"is_reserved":false,"is_disabled":false,"rental_uris":{"android":"levelo://app?vid=d71de3d4-52d7-4f65-b42e-9ab0e577bff8","ios":"levelo://app?vid=d71de3d4-52d7-4f65-b42e-9ab0e577bff8"},"vehicle_type_id":"4","last_reported":1706566005,"current_range_meters":0,"station_id":"ce4bhah2rcd13ifvqei0","pricing_plan_id":"free"},{"bike_id":"26c15faa-4a5a-4232-86e8-5df28ea22d99","system_id":"levelo_inurba_marseille","lat":43.28465,"lon":5.35891,"is_reserved":false,"is_disabled":false,"rental_uris":{"android":"levelo://app?vid=26c15faa-4a5a-4232-86e8-5df28ea22d99","ios":"levelo://app?vid=26c15faa-4a5a-4232-86e8-5df28ea22d99"},"vehicle_type_id":"4","last_reported":1706566005,"current_range_meters":8400,"station_id":"ce4bhah2rcd13ifvqei0","pricing_plan_id":"free"},{"bike_id":"db91daf4-e3dc-4510-b95a-d21e58876d88","system_id":"levelo_inurba_marseille","lat":43.284538,"lon":5.358657,"is_reserved":false,"is_disabled":false,"rental_uris":{"android":"levelo://app?vid=db91daf4-e3dc-4510-b95a-d21e58876d88","ios":"levelo://app?vid=db91daf4-e3dc-4510-b95a-d21e58876d88"},"vehicle_type_id":"4","last_reported":1706566005,"current_range_meters":11200,"station_id":"ce4bhah2rcd13ifvqei0","pricing_plan_id":"free"},{"bike_id":"670d3f03-f039-4647-9c43-2b41d5c1d9e4","system_id":"levelo_inurba_marseille","lat":43.284538,"lon":5.358657,"is_reserved":false,"is_disabled":false,"rental_uris":{"android":"levelo://app?vid=670d3f03-f039-4647-9c43-2b41d5c1d9e4","ios":"levelo://app?vid=670d3f03-f039-4647-9c43-2b41d5c1d9e4"},"vehicle_type_id":"4","last_reported":1706566005,"current_range_meters":27200,"station_id":"ce4bhah2rcd13ifvqei0","pricing_plan_id":"free"},{"bike_id":"90bad0dc-75f5-47cb-8c02-7ea878e1e40b","system_id":"levelo_inurba_marseille","lat":43.284538,"lon":5.358657,"is_reserved":false,"is_disabled":false,"rental_uris":{"android":"levelo://app?vid=90bad0dc-75f5-47cb-8c02-7ea878e1e40b","ios":"levelo://app?vid=90bad0dc-75f5-47cb-8c02-7ea878e1e40b"},"vehicle_type_id":"4","last_reported":1706566005,"current_range_meters":4400,"station_id":"ce4bhah2rcd13ifvqei0","pricing_plan_id":"free"},{"bike_id":"6756e5b8-3bb3-4289-ac16-530fe67ea5a6","system_id":"levelo_inurba_marseille","lat":43.284632,"lon":5.3589,"is_reserved":false,"is_disabled":false,"rental_uris":{"android":"levelo://app?vid=6756e5b8-3bb3-4289-ac16-530fe67ea5a6","ios":"levelo://app?vid=6756e5b8-3bb3-4289-ac16-530fe67ea5a6"},"vehicle_type_id":"4","last_reported":1706566005,"current_range_meters":10400,"station_id":"ce4bhah2rcd13ifvqei0","pricing_plan_id":"free"},{"bike_id":"01cdd17b-bb84-4739-bbec-cbe170e8a0b1","system_id":"levelo_inurba_marseille","lat":43.284538,"lon":5.358657,"is_reserved":false,"is_disabled":false,"rental_uris":{"android":"levelo://app?vid=01cdd17b-bb84-4739-bbec-cbe170e8a0b1","ios":"levelo://app?vid=01cdd17b-bb84-4739-bbec-cbe170e8a0b1"},"vehicle_type_id":"4","last_reported":1706566005,"current_range_meters":3600,"station_id":"ce4bhah2rcd13ifvqei0","pricing_plan_id":"free"},{"bike_id":"bc91c011-abc2-41e8-9897-474512d94743","system_id":"levelo_inurba_marseille","lat":43.284538,"lon":5.358657,"is_reserved":false,"is_disabled":false,"rental_uris":{"android":"levelo://app?vid=bc91c011-abc2-41e8-9897-474512d94743","ios":"levelo://app?vid=bc91c011-abc2-41e8-9897-474512d94743"},"vehicle_type_id":"4","last_reported":1706566005,"current_range_meters":12400,"station_id":"ce4bhah2rcd13ifvqei0","pricing_plan_id":"free"},{"bike_id":"5ce84c2c-78f5-4859-803d-0663ff81e027","system_id":"levelo_inurba_marseille","lat":43.284534,"lon":5.358662,"is_reserved":false,"is_disabled":false,"rental_uris":{"android":"levelo://app?vid=5ce84c2c-78f5-4859-803d-0663ff81e027","ios":"levelo://app?vid=5ce84c2c-78f5-4859-803d-0663ff81e027"},"vehicle_type_id":"4","last_reported":1706566005,"current_range_meters":0,"station_id":"ce4bhah2rcd13ifvqei0","pricing_plan_id":"free"},{"bike_id":"a4f06d5a-2463-41f7-a104-3fa3cddef5aa","system_id":"levelo_inurba_marseille","lat":43.284534,"lon":5.358662,"is_reserved":false,"is_disabled":false,"rental_uris":{"android":"levelo://app?vid=a4f06d5a-2463-41f7-a104-3fa3cddef5aa","ios":"levelo://app?vid=a4f06d5a-2463-41f7-a104-3fa3cddef5aa"},"vehicle_type_id":"4","last_reported":1706566005,"current_range_meters":16800,"station_id":"ce4bhah2rcd13ifvqei0","pricing_plan_id":"free"},{"bike_id":"a6a1115c-2c31-48d4-b834-69318b36c18e","system_id":"levelo_inurba_marseille","lat":43.284534,"lon":5.358662,"is_reserved":false,"is_disabled":false,"rental_uris":{"android":"levelo://app?vid=a6a1115c-2c31-48d4-b834-69318b36c18e","ios":"levelo://app?vid=a6a1115c-2c31-48d4-b834-69318b36c18e"},"vehicle_type_id":"4","last_reported":1706566005,"current_range_meters":7600,"station_id":"ce4bhah2rcd13ifvqei0","pricing_plan_id":"free"},{"bike_id":"46829637-2870-448c-bd15-9e6f70822902","system_id":"levelo_inurba_marseille","lat":43.284534,"lon":5.358662,"is_reserved":false,"is_disabled":false,"rental_uris":{"android":"levelo://app?vid=46829637-2870-448c-bd15-9e6f70822902","ios":"levelo://app?vid=46829637-2870-448c-bd15-9e6f70822902"},"vehicle_type_id":"4","last_reported":1706566005,"current_range_meters":1200,"station_id":"ce4bhah2rcd13ifvqei0","pricing_plan_id":"free"},{"bike_id":"6c27bc08-7e45-4ec7-aa5f-f144547defe0","system_id":"levelo_inurba_marseille","lat":43.284538,"lon":5.358657,"is_reserved":false,"is_disabled":false,"rental_uris":{"android":"levelo://app?vid=6c27bc08-7e45-4ec7-aa5f-f144547defe0","ios":"levelo://app?vid=6c27bc08-7e45-4ec7-aa5f-f144547defe0"},"vehicle_type_id":"4","last_reported":1706566005,"current_range_meters":18000,"station_id":"ce4bhah2rcd13ifvqei0","pricing_plan_id":"free"},{"bike_id":"c465d2b2-2efb-456e-bf3e-0b62c79969ab","system_id":"levelo_inurba_marseille","lat":43.284538,"lon":5.358657,"is_reserved":false,"is_disabled":false,"rental_uris":{"android":"levelo://app?vid=c465d2b2-2efb-456e-bf3e-0b62c79969ab","ios":"levelo://app?vid=c465d2b2-2efb-456e-bf3e-0b62c79969ab"},"vehicle_type_id":"4","last_reported":1706566005,"current_range_meters":29200,"station_id":"ce4bhah2rcd13ifvqei0","pricing_plan_id":"free"},{"bike_id":"4516d222-bbbe-4261-89ae-a40dfd4560fc","system_id":"levelo_inurba_marseille","lat":43.284534,"lon":5.358662,"is_reserved":false,"is_disabled":false,"rental_uris":{"android":"levelo://app?vid=4516d222-bbbe-4261-89ae-a40dfd4560fc","ios":"levelo://app?vid=4516d222-bbbe-4261-89ae-a40dfd4560fc"},"vehicle_type_id":"4","last_reported":1706566005,"current_range_meters":2400,"station_id":"ce4bhah2rcd13ifvqei0","pricing_plan_id":"free"},{"bike_id":"a766216c-72bb-4c75-b7e7-f5b251fd7168","system_id":"levelo_inurba_marseille","lat":43.284534,"lon":5.358662,"is_reserved":false,"is_disabled":false,"rental_uris":{"android":"levelo://app?vid=a766216c-72bb-4c75-b7e7-f5b251fd7168","ios":"levelo://app?vid=a766216c-72bb-4c75-b7e7-f5b251fd7168"},"vehicle_type_id":"4","last_reported":1706566005,"current_range_meters":19200,"station_id":"ce4bhah2rcd13ifvqei0","pricing_plan_id":"free"},{"bike_id":"b3be4beb-10d7-46c6-b20e-cb9a4a685f0d","system_id":"levelo_inurba_marseille","lat":43.285856,"lon":5.350771,"is_reserved":false,"is_disabled":false,"rental_uris":{"android":"levelo://app?vid=b3be4beb-10d7-46c6-b20e-cb9a4a685f0d","ios":"levelo://app?vid=b3be4beb-10d7-46c6-b20e-cb9a4a685f0d"},"vehicle_type_id":"4","last_reported":1706566005,"current_range_meters":18400,"station_id":"ce4bhch2rcd13ifvqeug","pricing_plan_id":"free"},