{"last_updated":1762682956,"ttl":60,"version":"2.2","data":{"bikes":[{"bike_id":"7c392732-2900-41fd-8c6d-e5b49cdf67b5","system_id":"levelo_inurba_marseille","lat":43.29696,"lon":5.38239,"is_reserved":false,"is_disabled":false,"rental_uris":{"android":"levelo://app?vid=7c392732-2900-41fd-8c6d-e5b49cdf67b5","ios":"levelo://app?vid=7c392732-2900-41fd-8c6d-e5b49cdf67b5"},"vehicle_type_id":"4","last_reported":1762682956,"current_range_meters":2800,"station_id":"","pricing_plan_id":"cebpf4jnsgd1na2vs0mg"},{"bike_id":"1e505215-6a3b-4a2e-8c33-06585b3a43a9","system_id":"levelo_inurba_marseille","lat":43.245972,"lon":5.394541,"is_reserved":false,"is_disabled":false,"rental_uris":{"android":"levelo://app?vid=1e505215-6a3b-4a2e-8c33-06585b3a43a9","ios":"levelo://app?vid=1e505215-6a3b-4a2e-8c33-06585b3a43a9"},"vehicle_type_id":"4","last_reported":1762682956,"current_range_meters":2800,"station_id":"ce4bhlp2rcd13ifvqgjg","pricing_plan_id":"cebpf4jnsgd1na2vs0mg"},{"bike_id":"6580beb2-f281-473f-9ef4-7b331653ef2e","system_id":"levelo_inurba_marseille","lat":43.29127,"lon":5.40809,"is_reserved":false,"is_disabled":false,"rental_uris":{"android":"levelo://app?vid=6580beb2-f281-473f-9ef4-7b331653ef2e","ios":"levelo://app?vid=6580beb2-f281-473f-9ef4-7b331653ef2e"},"vehicle_type_id":"4","last_reported":1762682956,"current_range_meters":2800,"station_id":"","pricing_plan_id":"cebpf4jnsgd1na2vs0mg"},{"bike_id":"33c55ef3-f133-4ad9-8902-78ba36612b34","system_id":"levelo_inurba_marseille","lat":43.28853,"lon":5.35843,"is_reserved":false,"is_disabled":true,"rental_uris":{"android":"levelo://app?vid=33c55ef3-f133-4ad9-8902-78ba36612b34","ios":"levelo://app?vid=33c55ef3-f133-4ad9-8902-78ba36612b34"},"vehicle_type_id":"4","last_reported":1762682956,"current_range_meters":2800,"station_id":"ce4bhb12rcd13ifvqem0","pricing_plan_id":"cebpf4jnsgd1na2vs0mg"},{"bike_id":"cc3d642d-c1e8-47c1-af66-d9349a9641ac","system_id":"levelo_inurba_marseille","lat":43.22554,"lon":5.41626,"is_reserved":false,"is_disabled":false,"rental_uris":{"android":"levelo://app?vid=cc3d642d-c1e8-47c1-af66-d9349a9641ac","ios":"levelo://app?vid=cc3d642d-c1e8-47c1-af66-d9349a9641ac"},"vehicle_type_id":"4","last_reported":1762682956,"current_range_meters":3200,"station_id":"st_d2o4gvlbi1j2169b742g","pricing_plan_id":"cebpf4jnsgd1na2vs0mg"},{"bike_id":"5d63f2aa-8446-4f1d-92da-1e2d5b4a6cc8","system_id":"levelo_inurba_marseille","lat":43.29665,"lon":5.37754,"is_reserved":false,"is_disabled":false,"rental_uris":{"android":"levelo://app?vid=5d63f2aa-8446-4f1d-92da-1e2d5b4a6cc8","ios":"levelo://app?vid=5d63f2aa-8446-4f1d-92da-1e2d5b4a6cc8"},"vehicle_type_id":"4","last_reported":1762682956,"current_range_meters":3200,"station_id":"","pricing_plan_id":"cebpf4jnsgd1na2vs0mg"},{"bike_id":"c3c86825-336c-4b16-ae42-e6f6e539afbe","system_id":"levelo_inurba_marseille","lat":43.257235,"lon":5.383016,"is_reserved":false,"is_disabled":false,"rental_uris":{"android":"levelo://app?vid=c3c86825-336c-4b16-ae42-e6f6e539afbe","ios":"levelo://app?vid=c3c86825-336c-4b16-ae42-e6f6e539afbe"},"vehicle_type_id":"4","last_reported":1762682956,"current_range_meters":3600,"station_id":"ce4bhih2rcd13ifvqfs0","pricing_plan_id":"cebpf4jnsgd1na2vs0mg"},{"bike_id":"dcd3a741-2ecd-4fd6-a569-b054c978eb8c","system_id":"levelo_inurba_marseille","lat":43.241623,"lon":5.364073,"is_reserved":false,"is_disabled":false,"rental_uris":{"android":"levelo://app?vid=dcd3a741-2ecd-4fd6-a569-b054c978eb8c","ios":"levelo://app?vid=dcd3a741-2ecd-4fd6-a569-b054c978eb8c"},"vehicle_type_id":"4","last_reported":1762682956,"current_range_meters":3600,"station_id":"cpo36qri1sfpv3e86is0","pricing_plan_id":"cebpf4jnsgd1na2vs0mg"},{"bike_id":"348bf609-07f6-4ffc-add0-6df7615d023f","system_id":"levelo_inurba_marseille","lat":43.337669,"lon":5.37438,"is_reserved":false,"is_disabled":false,"rental_uris":{"android":"levelo://app?vid=348bf609-07f6-4ffc-add0-6df7615d023f","ios":"levelo://app?vid=348bf609-07f6-4ffc-add0-6df7615d023f"},"vehicle_type_id":"4","last_reported":1762682956,"current_range_meters":3600,"station_id":"","pricing_plan_id":"cebpf4jnsgd1na2vs0mg"},{"bike_id":"f574257e-86f4-44dc-86c8-2d15b1b69c92","system_id":"levelo_inurba_marseille","lat":43.28937,"lon":5.36636,"is_reserved":false,"is_disabled":false,"rental_uris":{"android":"levelo://app?vid=f574257e-86f4-44dc-86c8-2d15b1b69c92","ios":"levelo://app?vid=f574257e-86f4-44dc-86c8-2d15b1b69c92"},"vehicle_type_id":"4","last_reported":1762682956,"current_range_meters":3600,"station_id":"ce4bhap2rcd13ifvqek0","pricing_plan_id":"cebpf4jnsgd1na2vs0mg"},{"bike_id":"c03bd52b-534b-4ae1-bb73-924e391fe2f5","system_id":"levelo_inurba_marseille","lat":43.25514,"lon":5.37658,"is_reserved":false,"is_disabled":true,"rental_uris":{"android":"levelo://app?vid=c03bd52b-534b-4ae1-bb73-924e391fe2f5","ios":"levelo://app?vid=c03bd52b-534b-4ae1-bb73-924e391fe2f5"},"vehicle_type_id":"4","last_reported":1762682956,"current_range_meters":4000,"station_id":"ce4bhh12rcd13ifvqff0","pricing_plan_id":"cebpf4jnsgd1na2vs0mg"},{"bike_id":"bf1c463c-1cab-4042-ae0c-d309c3868c5d","system_id":"levelo_inurba_marseille","lat":43.28564,"lon":5.39499,"is_reserved":false,"is_disabled":false,"rental_uris":{"android":"levelo://app?vid=bf1c463c-1cab-4042-ae0c-d309c3868c5d","ios":"levelo://app?vid=bf1c463c-1cab-4042-ae0c-d309c3868c5d"},"vehicle_type_id":"4","last_reported":1762682956,"current_range_meters":4000,"station_id":"ce4bh292rcd13ifvqdg0","pricing_plan_id":"cebpf4jnsgd1na2vs0mg"},{"bike_id":"34c14480-831b-41a9-b30b-a1e8f994a110","system_id":"levelo_inurba_marseille","lat":43.30824,"lon":5.37176,"is_reserved":false,"is_disabled":false,"rental_uris":{"android":"levelo://app?vid=34c14480-831b-41a9-b30b-a1e8f994a110","ios":"levelo://app?vid=34c14480-831b-41a9-b30b-a1e8f994a110"},"vehicle_type_id":"4","last_reported":1762682956,"current_range_meters":4000,"station_id":"","pricing_plan_id":"cebpf4jnsgd1na2vs0mg"},{"bike_id":"4fa93e58-ad51-41bb-b7cd-c71dad4e22b9","system_id":"levelo_inurba_marseille","lat":43.21191,"lon":5.35077,"is_reserved":false,"is_disabled":true,"rental_uris":{"android":"levelo://app?vid=4fa93e58-ad51-41bb-b7cd-c71dad4e22b9","ios":"levelo://app?vid=4fa93e58-ad51-41bb-b7cd-c71dad4e22b9"},"vehicle_type_id":"4","last_reported":1762682956,"current_range_meters":4000,"station_id":"st_cvj6sg6p6f1abm77japg","pricing_plan_id":"cebpf4jnsgd1na2vs0mg"},{"bike_id":"184b8f0a-d117-4117-b29c-c7d23a4f53df","system_id":"levelo_inurba_marseille","lat":43.32839,"lon":5.37502,"is_reserved":false,"is_disabled":false,"rental_uris":{"android":"levelo://app?vid=184b8f0a-d117-4117-b29c-c7d23a4f53df","ios":"levelo://app?vid=184b8f0a-d117-4117-b29c-c7d23a4f53df"},"vehicle_type_id":"4","last_reported":1762682956,"current_range_meters":4000,"station_id":"","pricing_plan_id":"cebpf4jnsgd1na2vs0mg"},{"bike_id":"b244e63f-2736-4592-bd42-3ed07c477bf1","system_id":"levelo_inurba_marseille","lat":43.30299,"lon":5.36924,"is_reserved":false,"is_disabled":false,"rental_uris":{"android":"levelo://app?vid=b244e63f-2736-4592-bd42-3ed07c477bf1","ios":"levelo://app?vid=b244e63f-2736-4592-bd42-3ed07c477bf1"},"vehicle_type_id":"4","last_reported":1762682956,"current_range_meters":4000,"station_id":"ce4bgqh2rcd13ifvqc5g","pricing_plan_id":"cebpf4jnsgd1na2vs0mg"},{"bike_id":"5bee8f0f-57fe-4257-a72a-04a4967570b5","system_id":"levelo_inurba_marseille","lat":43.300372,"lon":5.377245,"is_reserved":false,"is_disabled":false,"rental_uris":{"android":"levelo://app?vid=5bee8f0f-57fe-4257-a72a-04a4967570b5","ios":"levelo://app?vid=5bee8f0f-57fe-4257-a72a-04a4967570b5"},"vehicle_type_id":"4","last_reported":1762682956,"current_range_meters":4000,"station_id":"","pricing_plan_id":"cebpf4jnsgd1na2vs0mg"},{"bike_id":"9fce9131-42f8-45fc-a2c2-0a1ee21d85f6","system_id":"levelo_inurba_marseille","lat":43.30297,"lon":5.392164,"is_reserved":false,"is_disabled":false,"rental_uris":{"android":"levelo://app?vid=9fce9131-42f8-45fc-a2c2-0a1ee21d85f6","ios":"levelo://app?vid=9fce9131-42f8-45fc-a2c2-0a1ee21d85f6"},"vehicle_type_id":"4","last_reported":1762682956,"current_range_meters":4400,"station_id":"ce4bgkh2rcd13ifvqbk0","pricing_plan_id":"cebpf4jnsgd1na2vs0mg"},{"bike_id":"2bda9569-8855-4749-9a29-a9c55ba153ed","system_id":"levelo_inurba_marseille","lat":43.22554,"lon":5.4163,"is_reserved":false,"is_disabled":false,"rental_uris":{"android":"levelo://app?vid=2bda9569-8855-4749-9a29-a9c55ba153ed","ios":"levelo://app?vid=2bda9569-8855-4749-9a29-a9c55ba153ed"},"vehicle_type_id":"4","last_reported":1762682956,"current_range_meters":4800,"station_id":"st_d2o4gvlbi1j2169b742g","pricing_plan_id":"cebpf4jnsgd1na2vs0mg"},{"bike_id":"a0ea519d-554f-42a0-93a3-d4c181552c78","system_id":"levelo_inurba_marseille","lat":43.31279,"lon":5.37752,"is_reserved":false,"is_disabled":false,"rental_uris":{"android":"levelo://app?vid=a0ea519d-554f-42a0-93a3-d4c181552c78","ios":"levelo://app?vid=a0ea519d-554f-42a0-93a3-d4c181552c78"},"vehicle_type_id":"4","last_reported":1762682956,"current_range_meters":5600,"station_id":"","pricing_plan_id":"cebpf4jnsgd1na2vs0mg"},{"bike_id":"49a8d451-e923-4adb-8833-463c7dcd03f5","system_id":"levelo_inurba_marseille","lat":43.29532,"lon":5.37496,"is_reserved":false,"is_disabled":false,"rental_uris":{"android":"levelo://app?vid=49a8d451-e923-4adb-8833-463c7dcd03f5","ios":"levelo://app?vid=49a8d451-e923-4adb-8833-463c7dcd03f5"},"vehicle_type_id":"4","last_reported":1762682956,"current_range_meters":5600,"station_id":"ce4bgkp2rcd13ifvqbmg","pricing_plan_id":"cebpf4jnsgd1na2vs0mg"},{"bike_id":"432e622f-f036-4a06-be51-daa9d6d37a6f","system_id":"levelo_inurba_marseille","lat":43.27064,"lon":5.40252,"is_reserved":false,"is_disabled":false,"rental_uris":{"android":"levelo://app?vid=432e622f-f036-4a06-be51-daa9d6d37a6f","ios":"levelo://app?vid=432e622f-f036-4a06-be51-daa9d6d37a6f"},"vehicle_type_id":"4","last_reported":1762682956,"current_range_meters":5600,"station_id":"ce4bhk92rcd13ifvqgc0","pricing_plan_id":"cebpf4jnsgd1na2vs0mg"},{"bike_id":"5c17ed12-8897-4f84-bbfc-85419a7f8038","system_id":"levelo_inurba_marseille","lat":43.27108,"lon":5.39403,"is_reserved":false,"is_disabled":false,"rental_uris":{"android":"levelo://app?vid=5c17ed12-8897-4f84-bbfc-85419a7f8038","ios":"levelo://app?vid=5c17ed12-8897-4f84-bbfc-85419a7f8038"},"vehicle_type_id":"4","last_reported":1762682956,"current_range_meters":6000,"station_id":"","pricing_plan_id":"cebpf4jnsgd1na2vs0mg"},{"bike_id":"f114550f-0e97-467f-a15f-491fe7ea5021","system_id":"levelo_inurba_marseille","lat":43.29276,"lon":5.37076,"is_reserved":false,"is_disabled":true,"rental_uris":{"android":"levelo://app?vid=f114550f-0e97-467f-a15f-491fe7ea5021","ios":"levelo://app?vid=f114550f-0e97-467f-a15f-491fe7ea5021"},"vehicle_type_id":"4","last_reported":1762682956,"current_range_meters":6000,"station_id":"","pricing_plan_id":"cebpf4jnsgd1na2vs0mg"},{"bike_id":"af528d03-4bc7-462a-9b37-199d62180e7b","system_id":"levelo_inurba_marseille","lat":43.28614,"lon":5.35104,"is_reserved":false,"is_disabled":false,"rental_uris":{"android":"levelo://app?vid=af528d03-4bc7-462a-9b37-199d62180e7b","ios":"levelo://app?vid=af528d03-4bc7-462a-9b37-199d62180e7b"},"vehicle_type_id":"4","last_reported":1762682956,"current_range_meters":6000,"station_id":"ce4bhch2rcd13ifvqeug","pricing_plan_id":"cebpf4jnsgd1na2vs0mg"},{"bike_id":"16eb3153-7306-4b7e-8220-b057420255c5","system_id":"levelo_inurba_marseille","lat":43.29198,"lon":5.35811,"is_reserved":false,"is_disabled":false,"rental_uris":{"android":"levelo://app?vid=16eb3153-7306-4b7e-8220-b057420255c5","ios":"levelo://app?vid=16eb3153-7306-4b7e-8220-b057420255c5"},"vehicle_type_id":"4","last_reported":1762682956,"current_range_meters":6400,"station_id":"ce4bhb12rcd13ifvqel0","pricing_plan_id":"cebpf4jnsgd1na2vs0mg"},{"bike_id":"bad93078-b484-4873-a1ce-359b2e630abc","system_id":"levelo_inurba_marseille","lat":43.293686,"lon":5.384458,"is_reserved":false,"is_disabled":false,"rental_uris":{"android":"levelo://app?vid=bad93078-b484-4873-a1ce-359b2e630abc","ios":"levelo://app?vid=bad93078-b484-4873-a1ce-359b2e630abc"},"vehicle_type_id":"4","last_reported":1762682956,"current_range_meters":6400,"station_id":"","pricing_plan_id":"cebpf4jnsgd1na2vs0mg"},{"bike_id":"6d48edf1-3774-4d82-a80c-f526cacd3cb2","system_id":"levelo_inurba_marseille","lat":43.23145,"lon":5.43703,"is_reserved":false,"is_disabled":false,"rental_uris":{"android":"levelo://app?vid=6d48edf1-3774-4d82-a80c-f526cacd3cb2","ios":"levelo://app?vid=6d48edf1-3774-4d82-a80c-f526cacd3cb2"},"vehicle_type_id":"4","last_reported":1762682956,"current_range_meters":6400,"station_id":"ce4bhmp2rcd13ifvqgog","pricing_plan_id":"cebpf4jnsgd1na2vs0mg"},{"bike_id":"b05048b6-3636-4628-97b9-678771374061","system_id":"levelo_inurba_marseille","lat":43.31054,"lon":5.37597,"is_reserved":false,"is_disabled":true,"rental_uris":{"android":"levelo://app?vid=b05048b6-3636-4628-97b9-678771374061","ios":"levelo://app?vid=b05048b6-3636-4628-97b9-678771374061"},"vehicle_type_id":"4","last_reported":1762682956,"current_range_meters":6400,"station_id":"","pricing_plan_id":"cebpf4jnsgd1na2vs0mg"},{"bike_id":"c1b86ae8-b253-438b-9bbf-af25272fe008","system_id":"levelo_inurba_marseille","lat":43.23139,"lon":5.43717,"is_reserved":false,"is_disabled":false,"rental_uris":{"android":"levelo://app?vid=c1b86ae8-b253-438b-9bbf-af25272fe008","ios":"levelo://app?vid=c1b86ae8-b253-438b-9bbf-af25272fe008"},"vehicle_type_id":"4","last_reported":1762682956,"current_range_meters":6400,"station_id":"ce4bhmp2rcd13ifvqgog","pricing_plan_id":"cebpf4jnsgd1na2vs0mg"},{"bike_id":"d13f7aac-3326-47eb-8c83-0485dd333747","system_id":"levelo_inurba_marseille","lat":43.30485,"lon":5.392561,"is_reserved":false,"is_disabled":false,"rental_uris":{"android":"levelo://app?vid=d13f7aac-3326-47eb-8c83-0485dd333747","ios":"levelo://app?vid=d13f7aac-3326-47eb-8c83-0485dd333747"},"vehicle_type_id":"4","last_reported":1762682956,"current_range_meters":6400,"station_id":"","pricing_plan_id":"cebpf4jnsgd1na2vs0mg"},{"bike_id":"26aad628-bd01-4664-890e-ba85447bad9f","system_id":"levelo_inurba_marseille","lat":43.303332,"lon":5.40429,"is_reserved":false,"is_disabled":true,"rental_uris":{"android":"levelo://app?vid=26aad628-bd01-4664-890e-ba85447bad9f","ios":"levelo://app?vid=26aad628-bd01-4664-890e-ba85447bad9f"},"vehicle_type_id":"4","last_reported":1762682956,"current_range_meters":6800,"station_id":"ce4bh012rcd13ifvqd10","pricing_plan_id":"cebpf4jnsgd1na2vs0mg"},{"bike_id":"0b20e13b-78b5-469f-b483-c7a18e26a3e1","system_id":"levelo_inurba_marseille","lat":43.28607,"lon":5.35106,"is_reserved":false,"is_disabled":false,"rental_uris":{"android":"levelo://app?vid=0b20e13b-78b5-469f-b483-c7a18e26a3e1","ios":"levelo://app?vid=0b20e13b-78b5-469f-b483-c7a18e26a3e1"},"vehicle_type_id":"4","last_reported":1762682956,"current_range_meters":7200,"station_id":"ce4bhch2rcd13ifvqeug","pricing_plan_id":"cebpf4jnsgd1na2vs0mg"},{"bike_id":"9a959a9d-3741-405c-a6ee-fd06ae076c40","system_id":"levelo_inurba_marseille","lat":43.2175,"lon":5.34614,"is_reserved":false,"is_disabled":false,"rental_uris":{"android":"levelo://app?vid=9a959a9d-3741-405c-a6ee-fd06ae076c40","ios":"levelo://app?vid=9a959a9d-3741-405c-a6ee-fd06ae076c40"},"vehicle_type_id":"4","last_reported":1762682956,"current_range_meters":7200,"station_id":"st_cvj6r9ubvosntc0bgbag","pricing_plan_id":"cebpf4jnsgd1na2vs0mg"},{"bike_id":"dc58dc2a-4288-4904-a946-5351816ff20d","system_id":"levelo_inurba_marseille","lat":43.239521,"lon":5.366283,"is_reserved":false,"is_disabled":false,"rental_uris":{"android":"levelo://app?vid=dc58dc2a-4288-4904-a946-5351816ff20d","ios":"levelo://app?vid=dc58dc2a-4288-4904-a946-5351816ff20d"},"vehicle_type_id":"4","last_reported":1762682956,"current_range_meters":7200,"station_id":"ce4bhi12rcd13ifvqfp0","pricing_plan_id":"cebpf4jnsgd1na2vs0mg"},{"bike_id":"95565d88-4e0c-4b5d-b6d1-9a4c73bcb1f1","system_id":"levelo_inurba_marseille","lat":43.33784,"lon":5.3742,"is_reserved":false,"is_disabled":false,"rental_uris":{"android":"levelo://app?vid=95565d88-4e0c-4b5d-b6d1-9a4c73bcb1f1","ios":"levelo://app?vid=95565d88-4e0c-4b5d-b6d1-9a4c73bcb1f1"},"vehicle_type_id":"4","last_reported":1762682956,"current_range_meters":7200,"station_id":"","pricing_plan_id":"cebpf4jnsgd1na2vs0mg"},{"bike_id":"382f597e-181c-4839-b1de-04339df9aa55","system_id":"levelo_inurba_marseille","lat":43.26792,"lon":5.40272,"is_reserved":false,"is_disabled":true,"rental_uris":{"android":"levelo://app?vid=382f597e-181c-4839-b1de-04339df9aa55","ios":"levelo://app?vid=382f597e-181c-4839-b1de-04339df9aa55"},"vehicle_type_id":"4","last_reported":1762682956,"current_range_meters":8000,"station_id":"ce501612rcd8frsf0b60","pricing_plan_id":"cebpf4jnsgd1na2vs0mg"},{"bike_id":"b98c59d1-12c0-4a03-b198-cf728a9bdad0","system_id":"levelo_inurba_marseille","lat":43.29322,"lon":5.37155,"is_reserved":false,"is_disabled":false,"rental_uris":{"android":"levelo://app?vid=b98c59d1-12c0-4a03-b198-cf728a9bdad0","ios":"levelo://app?vid=b98c59d1-12c0-4a03-b198-cf728a9bdad0"},"vehicle_type_id":"4","last_reported":1762682956,"current_range_meters":8000,"station_id":"","pricing_plan_id":"cebpf4jnsgd1na2vs0mg"},{"bike_id":"fecd52af-29bb-4bb2-9160-9e83d6376c53","system_id":"levelo_inurba_marseille","lat":43.2874,"lon":5.3959,"is_reserved":false,"is_disabled":false,"rental_uris":{"android":"levelo://app?vid=fecd52af-29bb-4bb2-9160-9e83d6376c53","ios":"levelo://app?vid=fecd52af-29bb-4bb2-9160-9e83d6376c53"},"vehicle_type_id":"4","last_reported":1762682956,"current_range_meters":8000,"station_id":"","pricing_plan_id":"cebpf4jnsgd1na2vs0mg"},{"bike_id":"9f611ac1-6f6a-4437-9025-ea87f35606a4","system_id":"levelo_inurba_marseille","lat":43.28526,"lon":5.37788,"is_reserved":false,"is_disabled":false,"rental_uris":{"android":"levelo://app?vid=9f611ac1-6f6a-4437-9025-ea87f35606a4","ios":"levelo://app?vid=9f611ac1-6f6a-4437-9025-ea87f35606a4"},"vehicle_type_id":"4","last_reported":1762682956,"current_range_meters":8000,"station_id":"","pricing_plan_id":"cebpf4jnsgd1na2vs0mg"},{"bike_id":"cd36fb7c-4385-47bd-96a8-f8889a6e3476","system_id":"levelo_inurba_marseille","lat":43.29902,"lon":5.43685,"is_reserved":false,"is_disabled":false,"rental_uris":{"android":"levelo://app?vid=cd36fb7c-4385-47bd-96a8-f8889a6e3476","ios":"levelo://app?vid=cd36fb7c-4385-47bd-96a8-f8889a6e3476"},"vehicle_type_id":"4","last_reported":1762682956,"current_range_meters":8000,"station_id":"ce4bhpp2rcd13ifvqhfg","pricing_plan_id":"cebpf4jnsgd1na2vs0mg"},{"bike_id":"a4b610ef-5dc5-47fb-9228-87e17fe490d3","system_id":"levelo_inurba_marseille","lat":43.27067,"lon":5.422766,"is_reserved":false,"is_disabled":true,"rental_uris":{"android":"levelo://app?vid=a4b610ef-5dc5-47fb-9228-87e17fe490d3","ios":"levelo://app?vid=a4b610ef-5dc5-47fb-9228-87e17fe490d3"},"vehicle_type_id":"4","last_reported":1762682956,"current_range_meters":8000,"station_id":"ce4bhk92rcd13ifvqgb0","pricing_plan_id":"cebpf4jnsgd1na2vs0mg"},{"bike_id":"59736966-d2af-4cbc-8ac5-e955aeb2f190","system_id":"levelo_inurba_marseille","lat":43.288645,"lon":5.425175,"is_reserved":false,"is_disabled":false,"rental_uris":{"android":"levelo://app?vid=59736966-d2af-4cbc-8ac5-e955aeb2f190","ios":"levelo://app?vid=59736966-d2af-4cbc-8ac5-e955aeb2f190"},"vehicle_type_id":"4","last_reported":1762682956,"current_range_meters":8000,"station_id":"st_d3b462108ojc7389ooeg","pricing_plan_id":"cebpf4jnsgd1na2vs0mg"},{"bike_id":"c0969de0-74b0-4b5a-9248-b43b0ee3e19e","system_id":"levelo_inurba_marseille","lat":43.24904,"lon":5.37652,"is_reserved":false,"is_disabled":false,"rental_uris":{"android":"levelo://app?vid=c0969de0-74b0-4b5a-9248-b43b0ee3e19e","ios":"levelo://app?vid=c0969de0-74b0-4b5a-9248-b43b0ee3e19e"},"vehicle_type_id":"4","last_reported":1762682956,"current_range_meters":8000,"station_id":"","pricing_plan_id":"cebpf4jnsgd1na2vs0mg"},{"bike_id":"198ab2c5-9687-4821-9591-4b4ab50e1a58","system_id":"levelo_inurba_marseille","lat":43.2988,"lon":5.38892,"is_reserved":false,"is_disabled":false,"rental_uris":{"android":"levelo://app?vid=198ab2c5-9687-4821-9591-4b4ab50e1a58","ios":"levelo://app?vid=198ab2c5-9687-4821-9591-4b4ab50e1a58"},"vehicle_type_id":"4","last_reported":1762682956,"current_range_meters":8000,"station_id":"ce4bh392rcd13ifvqdl0","pricing_plan_id":"cebpf4jnsgd1na2vs0mg"},{"bike_id":"3b294fa9-3f9f-4381-a2a8-e3592d375a68","system_id":"levelo_inurba_marseille","lat":43.26698,"lon":5.396822,"is_reserved":false,"is_disabled":false,"rental_uris":{"android":"levelo://app?vid=3b294fa9-3f9f-4381-a2a8-e3592d375a68","ios":"levelo://app?vid=3b294fa9-3f9f-4381-a2a8-e3592d375a68"},"vehicle_type_id":"4","last_reported":1762682956,"current_range_meters":8000,"station_id":"","pricing_plan_id":"cebpf4jnsgd1na2vs0mg"},{"bike_id":"9606f59c-b785-468b-bf32-4f7152eb69f7","system_id":"levelo_inurba_marseille","lat":43.253361,"lon":5.421671,"is_reserved":false,"is_disabled":false,"rental_uris":{"android":"levelo://app?vid=9606f59c-b785-468b-bf32-4f7152eb69f7","ios":"levelo://app?vid=9606f59c-b785-468b-bf32-4f7152eb69f7"},"vehicle_type_id":"4","last_reported":1762682956,"current_range_meters":8400,"station_id":"st_d2m65c5bi1j21697t3ng","pricing_plan_id":"cebpf4jnsgd1na2vs0mg"},{"bike_id":"d510b29d-06c6-4a67-8cee-2182097a14e2","system_id":"levelo_inurba_marseille","lat":43.29266,"lon":5.37622,"is_reserved":false,"is_disabled":true,"rental_uris":{"android":"levelo://app?vid=d510b29d-06c6-4a67-8cee-2182097a14e2","ios":"levelo://app?vid=d510b29d-06c6-4a67-8cee-2182097a14e2"},"vehicle_type_id":"4","last_reported":1762682956,"current_range_meters":8400,"station_id":"ce4bgi12rcd13ifvqb80","pricing_plan_id":"cebpf4jnsgd1na2vs0mg"},{"bike_id":"321d43c2-a97c-419e-a110-a172b4ee23e9","system_id":"levelo_inurba_marseille","lat":43.261538,"lon":5.417798,"is_reserved":false,"is_disabled":false,"rental_uris":{"android":"levelo://app?vid=321d43c2-a97c-419e-a110-a172b4ee23e9","ios":"levelo://app?vid=321d43c2-a97c-419e-a110-a172b4ee23e9"},"vehicle_type_id":"4","last_reported":1762682956,"current_range_meters":8400,"station_id":"","pricing_plan_id":"cebpf4jnsgd1na2vs0mg"},{"bike_id":"762f6a2e-ec65-41a1-b596-2945c96bfe79","system_id":"levelo_inurba_marseille","lat":43.26941,"lon":5.40253,"is_reserved":false,"is_disabled":false,"rental_uris":{"android":"levelo://app?vid=762f6a2e-ec65-41a1-b596-2945c96bfe79","ios":"levelo://app?vid=762f6a2e-ec65-41a1-b596-2945c96bfe79"},"vehicle_type_id":"4","last_reported":1762682956,"current_range_meters":8400,"station_id":"cjm6bp8fraef2m0cb0m0","pricing_plan_id":"cebpf4jnsgd1na2vs0mg"},{"bike_id":"b2042346-ee6d-4777-ba1d-c7f348d0e347","system_id":"levelo_inurba_marseille","lat":43.243914,"lon":5.370708,"is_reserved":false,"is_disabled":false,"rental_uris":{"android":"levelo://app?vid=b2042346-ee6d-4777-ba1d-c7f348d0e347","ios":"levelo://app?vid=b2042346-ee6d-4777-ba1d-c7f348d0e347"},"vehicle_type_id":"4","last_reported":1762682956,"current_range_meters":8400,"station_id":"ce4bhhh2rcd13ifvqfk0","pricing_plan_id":"cebpf4jnsgd1na2vs0mg"},{"bike_id":"bc02b101-97a5-40bb-a963-5838cbcf9e9d","system_id":"levelo_inurba_marseille","lat":43.28442,"lon":5.392,"is_reserved":false,"is_disabled":false,"rental_uris":{"android":"levelo://app?vid=bc02b101-97a5-40bb-a963-5838cbcf9e9d","ios":"levelo://app?vid=bc02b101-97a5-40bb-a963-5838cbcf9e9d"},"vehicle_type_id":"4","last_reported":1762682956,"current_range_meters":8400,"station_id":"ce4bhoh2rcd13ifvqh5g","pricing_plan_id":"cebpf4jnsgd1na2vs0mg"},{"bike_id":"9fd78d7b-844a-4e67-a033-1ca270b23832","system_id":"levelo_inurba_marseille","lat":43.25579,"lon":5.38228,"is_reserved":false,"is_disabled":false,"rental_uris":{"android":"levelo://app?vid=9fd78d7b-844a-4e67-a033-1ca270b23832","ios":"levelo://app?vid=9fd78d7b-844a-4e67-a033-1ca270b23832"},"vehicle_type_id":"4","last_reported":1762682956,"current_range_meters":8400,"station_id":"ce4bhih2rcd13ifvqfs0","pricing_plan_id":"cebpf4jnsgd1na2vs0mg"},{"bike_id":"0e481b69-920b-48e1-b4f6-7ad29c4b0bcb","system_id":"levelo_inurba_marseille","lat":43.24638,"lon":5.43132,"is_reserved":false,"is_disabled":false,"rental_uris":{"android":"levelo://app?vid=0e481b69-920b-48e1-b4f6-7ad29c4b0bcb","ios":"levelo://app?vid=0e481b69-920b-48e1-b4f6-7ad29c4b0bcb"},"vehicle_type_id":"4","last_reported":1762682956,"current_range_meters":8800,"station_id":"st_d2m6c4gdas8pm72e190g","pricing_plan_id":"cebpf4jnsgd1na2vs0mg"},{"bike_id":"5916b080-126b-493e-9d76-68ff8df78665","system_id":"levelo_inurba_marseille","lat":43.25124,"lon":5.4033,"is_reserved":false,"is_disabled":false,"rental_uris":{"android":"levelo://app?vid=5916b080-126b-493e-9d76-68ff8df78665","ios":"levelo://app?vid=5916b080-126b-493e-9d76-68ff8df78665"},"vehicle_type_id":"4","last_reported":1762682956,"current_range_meters":8800,"station_id":"ce4bhlh2rcd13ifvqgig","pricing_plan_id":"cebpf4jnsgd1na2vs0mg"},{"bike_id":"a9865bd5-be41-486d-b55c-2a75c0334784","system_id":"levelo_inurba_marseille","lat":43.28354,"lon":5.38106,"is_reserved":false,"is_disabled":false,"rental_uris":{"android":"levelo://app?vid=a9865bd5-be41-486d-b55c-2a75c0334784","ios":"levelo://app?vid=a9865bd5-be41-486d-b55c-2a75c0334784"},"vehicle_type_id":"4","last_reported":1762682956,"current_range_meters":8800,"station_id":"ce4bh412rcd13ifvqdr0","pricing_plan_id":"cebpf4jnsgd1na2vs0mg"},{"bike_id":"6ab16eec-2c8f-4ebf-8cf1-7dd74c943e11","system_id":"levelo_inurba_marseille","lat":43.28303,"lon":5.39015,"is_reserved":false,"is_disabled":false,"rental_uris":{"android":"levelo://app?vid=6ab16eec-2c8f-4ebf-8cf1-7dd74c943e11","ios":"levelo://app?vid=6ab16eec-2c8f-4ebf-8cf1-7dd74c943e11"},"vehicle_type_id":"4","last_reported":1762682956,"current_range_meters":8800,"station_id":"","pricing_plan_id":"cebpf4jnsgd1na2vs0mg"},{"bike_id":"e14dda37-224b-49e5-897c-26f7a8c31c5e","system_id":"levelo_inurba_marseille","lat":43.31671,"lon":5.42696,"is_reserved":false,"is_disabled":false,"rental_uris":{"android":"levelo://app?vid=e14dda37-224b-49e5-897c-26f7a8c31c5e","ios":"levelo://app?vid=e14dda37-224b-49e5-897c-26f7a8c31c5e"},"vehicle_type_id":"4","last_reported":1762682956,"current_range_meters":8800,"station_id":"","pricing_plan_id":"cebpf4jnsgd1na2vs0mg"},{"bike_id":"acebb37f-10a9-4fea-ba6c-a317484bde56","system_id":"levelo_inurba_marseille","lat":43.298316,"lon":5.365071,"is_reserved":false,"is_disabled":false,"rental_uris":{"android":"levelo://app?vid=acebb37f-10a9-4fea-ba6c-a317484bde56","ios":"levelo://app?vid=acebb37f-10a9-4fea-ba6c-a317484bde56"},"vehicle_type_id":"4","last_reported":1762682956,"current_range_meters":8800,"station_id":"","pricing_plan_id":"cebpf4jnsgd1na2vs0mg"},{"bike_id":"1339ef90-7056-4f6c-97e9-32c4fa532151","system_id":"levelo_inurba_marseille","lat":43.24055,"lon":5.3772,"is_reserved":false,"is_disabled":false,"rental_uris":{"android":"levelo://app?vid=1339ef90-7056-4f6c-97e9-32c4fa532151","ios":"levelo://app?vid=1339ef90-7056-4f6c-97e9-32c4fa532151"},"vehicle_type_id":"4","last_reported":1762682956,"current_range_meters":8800,"station_id":"ce4bhnp2rcd13ifvqgvg","pricing_plan_id":"cebpf4jnsgd1na2vs0mg"},{"bike_id":"a00c613d-745e-4cdd-8980-d375f3c60939","system_id":"levelo_inurba_marseille","lat":43.265725,"lon":5.39016,"is_reserved":false,"is_disabled":false,"rental_uris":{"android":"levelo://app?vid=a00c613d-745e-4cdd-8980-d375f3c60939","ios":"levelo://app?vid=a00c613d-745e-4cdd-8980-d375f3c60939"},"vehicle_type_id":"4","last_reported":1762682956,"current_range_meters":9200,"station_id":"ce4bhe12rcd13ifvqf30","pricing_plan_id":"cebpf4jnsgd1na2vs0mg"},{"bike_id":"1c96cc64-0234-4ae0-b5ee-3c65f4e1762a","system_id":"levelo_inurba_marseille","lat":43.24547,"lon":5.39528,"is_reserved":false,"is_disabled":false,"rental_uris":{"android":"levelo://app?vid=1c96cc64-0234-4ae0-b5ee-3c65f4e1762a","ios":"levelo://app?vid=1c96cc64-0234-4ae0-b5ee-3c65f4e1762a"},"vehicle_type_id":"4","last_reported":1762682956,"current_range_meters":9200,"station_id":"ce4bhlp2rcd13ifvqgjg","pricing_plan_id":"cebpf4jnsgd1na2vs0mg"},{"bike_id":"60c530a0-69e7-4ff7-af8a-3ef4e145092d","system_id":"levelo_inurba_marseille","lat":43.21738,"lon":5.34612,"is_reserved":false,"is_disabled":false,"rental_uris":{"android":"levelo://app?vid=60c530a0-69e7-4ff7-af8a-3ef4e145092d","ios":"levelo://app?vid=60c530a0-69e7-4ff7-af8a-3ef4e145092d"},"vehicle_type_id":"4","last_reported":1762682956,"current_range_meters":9200,"station_id":"st_cvj6r9ubvosntc0bgbag","pricing_plan_id":"cebpf4jnsgd1na2vs0mg"},{"bike_id":"30342aa8-d696-4b2f-8861-6ebe5d3170d8","system_id":"levelo_inurba_marseille","lat":43.22533,"lon":5.348348,"is_reserved":false,"is_disabled":false,"rental_uris":{"android":"levelo://app?vid=30342aa8-d696-4b2f-8861-6ebe5d3170d8","ios":"levelo://app?vid=30342aa8-d696-4b2f-8861-6ebe5d3170d8"},"vehicle_type_id":"4","last_reported":1762682956,"current_range_meters":9200,"station_id":"","pricing_plan_id":"cebpf4jnsgd1na2vs0mg"},{"bike_id":"d55a41ff-86ff-4350-b564-393826a61050","system_id":"levelo_inurba_marseille","lat":43.24948,"lon":5.40495,"is_reserved":false,"is_disabled":false,"rental_uris":{"android":"levelo://app?vid=d55a41ff-86ff-4350-b564-393826a61050","ios":"levelo://app?vid=d55a41ff-86ff-4350-b564-393826a61050"},"vehicle_type_id":"4","last_reported":1762682956,"current_range_meters":9200,"station_id":"st_d2ngiaodas8pm72gd1h0","pricing_plan_id":"cebpf4jnsgd1na2vs0mg"},{"bike_id":"8adceed4-99fa-4042-9822-c8ee8eab7221","system_id":"levelo_inurba_marseille","lat":43.23161,"lon":5.43708,"is_reserved":false,"is_disabled":false,"rental_uris":{"android":"levelo://app?vid=8adceed4-99fa-4042-9822-c8ee8eab7221","ios":"levelo://app?vid=8adceed4-99fa-4042-9822-c8ee8eab7221"},"vehicle_type_id":"4","last_reported":1762682956,"current_range_meters":9200,"station_id":"ce4bhmp2rcd13ifvqgog","pricing_plan_id":"cebpf4jnsgd1na2vs0mg"},{"bike_id":"870a9ad1-db35-4ab0-bc9a-84476efc6571","system_id":"levelo_inurba_marseille","lat":43.32789,"lon":5.426591,"is_reserved":false,"is_disabled":false,"rental_uris":{"android":"levelo://app?vid=870a9ad1-db35-4ab0-bc9a-84476efc6571","ios":"levelo://app?vid=870a9ad1-db35-4ab0-bc9a-84476efc6571"},"vehicle_type_id":"4","last_reported":1762682956,"current_range_meters":9200,"station_id":"","pricing_plan_id":"cebpf4jnsgd1na2vs0mg"},{"bike_id":"d2991a60-dcfa-4252-8f9d-bfff4b1dc433","system_id":"levelo_inurba_marseille","lat":43.31077,"lon":5.3711,"is_reserved":false,"is_disabled":false,"rental_uris":{"android":"levelo://app?vid=d2991a60-dcfa-4252-8f9d-bfff4b1dc433","ios":"levelo://app?vid=d2991a60-dcfa-4252-8f9d-bfff4b1dc433"},"vehicle_type_id":"4","last_reported":1762682956,"current_range_meters":9200,"station_id":"","pricing_plan_id":"cebpf4jnsgd1na2vs0mg"},{"bike_id":"dfde87bb-1a24-4866-bcda-6d9da60c1cf9","system_id":"levelo_inurba_marseille","lat":43.285899,"lon":5.393652,"is_reserved":false,"is_disabled":false,"rental_uris":{"android":"levelo://app?vid=dfde87bb-1a24-4866-bcda-6d9da60c1cf9","ios":"levelo://app?vid=dfde87bb-1a24-4866-bcda-6d9da60c1cf9"},"vehicle_type_id":"4","last_reported":1762682956,"current_range_meters":9200,"station_id":"","pricing_plan_id":"cebpf4jnsgd1na2vs0mg"},{"bike_id":"e99b663c-ec04-41fe-8eec-cafb1f8f26f6","system_id":"levelo_inurba_marseille","lat":43.30253,"lon":5.4007,"is_reserved":false,"is_disabled":false,"rental_uris":{"android":"levelo://app?vid=e99b663c-ec04-41fe-8eec-cafb1f8f26f6","ios":"levelo://app?vid=e99b663c-ec04-41fe-8eec-cafb1f8f26f6"},"vehicle_type_id":"4","last_reported":1762682956,"current_range_meters":9600,"station_id":"ce4bgvh2rcd13ifvqcs0","pricing_plan_id":"cebpf4jnsgd1na2vs0mg"},{"bike_id":"825a1957-d327-49da-97b3-2485c79c40e7","system_id":"levelo_inurba_marseille","lat":43.217504,"lon":5.345988,"is_reserved":false,"is_disabled":true,"rental_uris":{"android":"levelo://app?vid=825a1957-d327-49da-97b3-2485c79c40e7","ios":"levelo://app?vid=825a1957-d327-49da-97b3-2485c79c40e7"},"vehicle_type_id":"4","last_reported":1762682956,"current_range_meters":9600,"station_id":"","pricing_plan_id":"cebpf4jnsgd1na2vs0mg"},{"bike_id":"ea369eb4-f14e-431e-9345-0f9312e0cd00","system_id":"levelo_inurba_marseille","lat":43.2379,"lon":5.3661,"is_reserved":false,"is_disabled":false,"rental_uris":{"android":"levelo://app?vid=ea369eb4-f14e-431e-9345-0f9312e0cd00","ios":"levelo://app?vid=ea369eb4-f14e-431e-9345-0f9312e0cd00"},"vehicle_type_id":"4","last_reported":1762682956,"current_range_meters":9600,"station_id":"st_d3nk18o9ro0c73en2l3g","pricing_plan_id":"cebpf4jnsgd1na2vs0mg"},{"bike_id":"18b51b39-0966-4dc2-8854-b5395cb55506","system_id":"levelo_inurba_marseille","lat":43.241643,"lon":5.364109,"is_reserved":false,"is_disabled":false,"rental_uris":{"android":"levelo://app?vid=18b51b39-0966-4dc2-8854-b5395cb55506","ios":"levelo://app?vid=18b51b39-0966-4dc2-8854-b5395cb55506"},"vehicle_type_id":"4","last_reported":1762682956,"current_range_meters":9600,"station_id":"cpo36qri1sfpv3e86is0","pricing_plan_id":"cebpf4jnsgd1na2vs0mg"},{"bike_id":"54fa92af-5541-4137-afea-d36fade5cb4b","system_id":"levelo_inurba_marseille","lat":43.246399,"lon":5.431421,"is_reserved":false,"is_disabled":false,"rental_uris":{"android":"levelo://app?vid=54fa92af-5541-4137-afea-d36fade5cb4b","ios":"levelo://app?vid=54fa92af-5541-4137-afea-d36fade5cb4b"},"vehicle_type_id":"4","last_reported":1762682956,"current_range_meters":9600,"station_id":"st_d2m6c4gdas8pm72e190g","pricing_plan_id":"cebpf4jnsgd1na2vs0mg"},{"bike_id":"fdfdde80-7f98-4492-a263-3964ecfbbb45","system_id":"levelo_inurba_marseille","lat":43.28269,"lon":5.35057,"is_reserved":false,"is_disabled":true,"rental_uris":{"android":"levelo://app?vid=fdfdde80-7f98-4492-a263-3964ecfbbb45","ios":"levelo://app?vid=fdfdde80-7f98-4492-a263-3964ecfbbb45"},"vehicle_type_id":"4","last_reported":1762682956,"current_range_meters":9600,"station_id":"ce4bhbp2rcd13ifvqerg","pricing_plan_id":"cebpf4jnsgd1na2vs0mg"},{"bike_id":"4aad0256-af6b-4863-b539-756744a215f0","system_id":"levelo_inurba_marseille","lat":43.29531,"lon":5.3855,"is_reserved":false,"is_disabled":false,"rental_uris":{"android":"levelo://app?vid=4aad0256-af6b-4863-b539-756744a215f0","ios":"levelo://app?vid=4aad0256-af6b-4863-b539-756744a215f0"},"vehicle_type_id":"4","last_reported":1762682956,"current_range_meters":9600,"station_id":"ce4bgih2rcd13ifvqba0","pricing_plan_id":"cebpf4jnsgd1na2vs0mg"},{"bike_id":"61fa55a9-0e59-4465-8d87-ee061152fa29","system_id":"levelo_inurba_marseille","lat":43.275682,"lon":5.384227,"is_reserved":false,"is_disabled":false,"rental_uris":{"android":"levelo://app?vid=61fa55a9-0e59-4465-8d87-ee061152fa29","ios":"levelo://app?vid=61fa55a9-0e59-4465-8d87-ee061152fa29"},"vehicle_type_id":"4","last_reported":1762682956,"current_range_meters":9600,"station_id":"ce4bhh92rcd13ifvqfi0","pricing_plan_id":"cebpf4jnsgd1na2vs0mg"},{"bike_id":"034b45fe-fc8a-40e2-930b-00715a4950c7","system_id":"levelo_inurba_marseille","lat":43.22534,"lon":5.34834,"is_reserved":false,"is_disabled":false,"rental_uris":{"android":"levelo://app?vid=034b45fe-fc8a-40e2-930b-00715a4950c7","ios":"levelo://app?vid=034b45fe-fc8a-40e2-930b-00715a4950c7"},"vehicle_type_id":"4","last_reported":1762682956,"current_range_meters":10000,"station_id":"","pricing_plan_id":"cebpf4jnsgd1na2vs0mg"},{"bike_id":"100daea9-d433-4854-883b-ea2d805274c7","system_id":"levelo_inurba_marseille","lat":43.27564,"lon":5.38424,"is_reserved":false,"is_disabled":false,"rental_uris":{"android":"levelo://app?vid=100daea9-d433-4854-883b-ea2d805274c7","ios":"levelo://app?vid=100daea9-d433-4854-883b-ea2d805274c7"},"vehicle_type_id":"4","last_reported":1762682956,"current_range_meters":10000,"station_id":"ce4bhh92rcd13ifvqfi0","pricing_plan_id":"cebpf4jnsgd1na2vs0mg"},{"bike_id":"6e516340-9641-4325-9cd8-46780776c1ed","system_id":"levelo_inurba_marseille","lat":43.30526,"lon":5.36595,"is_reserved":false,"is_disabled":true,"rental_uris":{"android":"levelo://app?vid=6e516340-9641-4325-9cd8-46780776c1ed","ios":"levelo://app?vid=6e516340-9641-4325-9cd8-46780776c1ed"},"vehicle_type_id":"4","last_reported":1762682956,"current_range_meters":10000,"station_id":"ce4bgs12rcd13ifvqcag","pricing_plan_id":"cebpf4jnsgd1na2vs0mg"},{"bike_id":"755cc534-8502-443b-99ad-796f64a01270","system_id":"levelo_inurba_marseille","lat":43.24176,"lon":5.39729,"is_reserved":false,"is_disabled":false,"rental_uris":{"android":"levelo://app?vid=755cc534-8502-443b-99ad-796f64a01270","ios":"levelo://app?vid=755cc534-8502-443b-99ad-796f64a01270"},"vehicle_type_id":"4","last_reported":1762682956,"current_range_meters":10000,"station_id":"ce4bhn12rcd13ifvqgpg","pricing_plan_id":"cebpf4jnsgd1na2vs0mg"},{"bike_id":"21dcb4e2-bef4-415f-aa59-cd0b9e2cb07b","system_id":"levelo_inurba_marseille","lat":43.22816,"lon":5.43467,"is_reserved":false,"is_disabled":false,"rental_uris":{"android":"levelo://app?vid=21dcb4e2-bef4-415f-aa59-cd0b9e2cb07b","ios":"levelo://app?vid=21dcb4e2-bef4-415f-aa59-cd0b9e2cb07b"},"vehicle_type_id":"4","last_reported":1762682956,"current_range_meters":10000,"station_id":"","pricing_plan_id":"cebpf4jnsgd1na2vs0mg"},{"bike_id":"1a85bd73-f6c9-483d-ac28-5d95b6775d78","system_id":"levelo_inurba_marseille","lat":43.28699,"lon":5.37951,"is_reserved":false,"is_disabled":true,"rental_uris":{"android":"levelo://app?vid=1a85bd73-f6c9-483d-ac28-5d95b6775d78","ios":"levelo://app?vid=1a85bd73-f6c9-483d-ac28-5d95b6775d78"},"vehicle_type_id":"4","last_reported":1762682956,"current_range_meters":10800,"station_id":"ce4bh9p2rcd13ifvqec0","pricing_plan_id":"cebpf4jnsgd1na2vs0mg"},{"bike_id":"6fb9aaeb-fd54-4120-8c7f-cb19a69f6629","system_id":"levelo_inurba_marseille","lat":43.23575,"lon":5.37471,"is_reserved":false,"is_disabled":false,"rental_uris":{"android":"levelo://app?vid=6fb9aaeb-fd54-4120-8c7f-cb19a69f6629","ios":"levelo://app?vid=6fb9aaeb-fd54-4120-8c7f-cb19a69f6629"},"vehicle_type_id":"4","last_reported":1762682956,"current_range_meters":10800,"station_id":"","pricing_plan_id":"cebpf4jnsgd1na2vs0mg"},{"bike_id":"3b902bbb-178f-4f75-a3b6-5ecef9ec9984","system_id":"levelo_inurba_marseille","lat":43.23061,"lon":5.3549,"is_reserved":false,"is_disabled":false,"rental_uris":{"android":"levelo://app?vid=3b902bbb-178f-4f75-a3b6-5ecef9ec9984","ios":"levelo://app?vid=3b902bbb-178f-4f75-a3b6-5ecef9ec9984"},"vehicle_type_id":"4","last_reported":1762682956,"current_range_meters":10800,"station_id":"cpo3342slgdg3j2ifvpg","pricing_plan_id":"cebpf4jnsgd1na2vs0mg"},{"bike_id":"c73c5513-728d-4700-9395-e31e4399cd51","system_id":"levelo_inurba_marseille","lat":43.29217,"lon":5.40301,"is_reserved":false,"is_disabled":false,"rental_uris":{"android":"levelo://app?vid=c73c5513-728d-4700-9395-e31e4399cd51","ios":"levelo://app?vid=c73c5513-728d-4700-9395-e31e4399cd51"},"vehicle_type_id":"4","last_reported":1762682956,"current_range_meters":10800,"station_id":"","pricing_plan_id":"cebpf4jnsgd1na2vs0mg"},{"bike_id":"0438f67e-f1fb-4064-8a55-a78fd643a326","system_id":"levelo_inurba_marseille","lat":43.23588,"lon":5.37382,"is_reserved":false,"is_disabled":false,"rental_uris":{"android":"levelo://app?vid=0438f67e-f1fb-4064-8a55-a78fd643a326","ios":"levelo://app?vid=0438f67e-f1fb-4064-8a55-a78fd643a326"},"vehicle_type_id":"4","last_reported":1762682956,"current_range_meters":10800,"station_id":"","pricing_plan_id":"cebpf4jnsgd1na2vs0mg"},{"bike_id":"5c91f7a5-bf4a-47b4-82be-e1c1e11e7df2","system_id":"levelo_inurba_marseille","lat":43.294884,"lon":5.433136,"is_reserved":false,"is_disabled":false,"rental_uris":{"android":"levelo://app?vid=5c91f7a5-bf4a-47b4-82be-e1c1e11e7df2","ios":"levelo://app?vid=5c91f7a5-bf4a-47b4-82be-e1c1e11e7df2"},"vehicle_type_id":"4","last_reported":1762682956,"current_range_meters":10800,"station_id":"st_d3j5ugp08ojc73fj9d10","pricing_plan_id":"cebpf4jnsgd1na2vs0mg"},{"bike_id":"91c6df40-1ac9-4edb-97b2-2b6c0f35b549","system_id":"levelo_inurba_marseille","lat":43.28726,"lon":5.36083,"is_reserved":false,"is_disabled":false,"rental_uris":{"android":"levelo://app?vid=91c6df40-1ac9-4edb-97b2-2b6c0f35b549","ios":"levelo://app?vid=91c6df40-1ac9-4edb-97b2-2b6c0f35b549"},"vehicle_type_id":"4","last_reported":1762682956,"current_range_meters":10800,"station_id":"cki0cbj6b192h4jlfktg","pricing_plan_id":"cebpf4jnsgd1na2vs0mg"},{"bike_id":"e7e4d3f2-1021-428a-b10b-970abc7b4351","system_id":"levelo_inurba_marseille","lat":43.29258,"lon":5.38441,"is_reserved":false,"is_disabled":false,"rental_uris":{"android":"levelo://app?vid=e7e4d3f2-1021-428a-b10b-970abc7b4351","ios":"levelo://app?vid=e7e4d3f2-1021-428a-b10b-970abc7b4351"},"vehicle_type_id":"4","last_reported":1762682956,"current_range_meters":10800,"station_id":"ce4bh692rcd13ifvqea0","pricing_plan_id":"cebpf4jnsgd1na2vs0mg"},{"bike_id":"5320d673-8f17-42b0-b637-4e20de7189dd","system_id":"levelo_inurba_marseille","lat":43.299405,"lon":5.365438,"is_reserved":false,"is_disabled":true,"rental_uris":{"android":"levelo://app?vid=5320d673-8f17-42b0-b637-4e20de7189dd","ios":"levelo://app?vid=5320d673-8f17-42b0-b637-4e20de7189dd"},"vehicle_type_id":"4","last_reported":1762682956,"current_range_meters":11200,"station_id":"ce4bgm92rcd13ifvqbr0","pricing_plan_id":"cebpf4jnsgd1na2vs0mg"},{"bike_id":"8e140702-853d-4aa7-abe8-645805aa250e","system_id":"levelo_inurba_marseille","lat":43.26562,"lon":5.40316,"is_reserved":false,"is_disabled":false,"rental_uris":{"android":"levelo://app?vid=8e140702-853d-4aa7-abe8-645805aa250e","ios":"levelo://app?vid=8e140702-853d-4aa7-abe8-645805aa250e"},"vehicle_type_id":"4","last_reported":1762682956,"current_range_meters":11200,"station_id":"ce4bhmp2rcd13ifvqgng","pricing_plan_id":"cebpf4jnsgd1na2vs0mg"},{"bike_id":"84138f31-9213-45c3-a4c2-e6e9fdfb5ae1","system_id":"levelo_inurba_marseille","lat":43.292311,"lon":5.364797,"is_reserved":false,"is_disabled":false,"rental_uris":{"android":"levelo://app?vid=84138f31-9213-45c3-a4c2-e6e9fdfb5ae1","ios":"levelo://app?vid=84138f31-9213-45c3-a4c2-e6e9fdfb5ae1"},"vehicle_type_id":"4","last_reported":1762682956,"current_range_meters":11200,"station_id":"","pricing_plan_id":"cebpf4jnsgd1na2vs0mg"},{"bike_id":"15db09df-59b0-446a-87c5-e354a3319258","system_id":"levelo_inurba_marseille","lat":43.2848,"lon":5.48398,"is_reserved":false,"is_disabled":false,"rental_uris":{"android":"levelo://app?vid=15db09df-59b0-446a-87c5-e354a3319258","ios":"levelo://app?vid=15db09df-59b0-446a-87c5-e354a3319258"},"vehicle_type_id":"4","last_reported":1762682956,"current_range_meters":11200,"station_id":"","pricing_plan_id":"cebpf4jnsgd1na2vs0mg"},{"bike_id":"00a66643-ef23-43f4-a48d-e7e99cf3a454","system_id":"levelo_inurba_marseille","lat":43.26496,"lon":5.39538,"is_reserved":false,"is_disabled":false,"rental_uris":{"android":"levelo://app?vid=00a66643-ef23-43f4-a48d-e7e99cf3a454","ios":"levelo://app?vid=00a66643-ef23-43f4-a48d-e7e99cf3a454"},"vehicle_type_id":"4","last_reported":1762682956,"current_range_meters":11200,"station_id":"ce4bhi12rcd13ifvqfq0","pricing_plan_id":"cebpf4jnsgd1na2vs0mg"},{"bike_id":"b6e4535c-5cae-4935-a3fb-2bbd0399a4f7","system_id":"levelo_inurba_marseille","lat":43.21184,"lon":5.35065,"is_reserved":false,"is_disabled":false,"rental_uris":{"android":"levelo://app?vid=b6e4535c-5cae-4935-a3fb-2bbd0399a4f7","ios":"levelo://app?vid=b6e4535c-5cae-4935-a3fb-2bbd0399a4f7"},"vehicle_type_id":"4","last_reported":1762682956,"current_range_meters":11200,"station_id":"st_cvj6sg6p6f1abm77japg","pricing_plan_id":"cebpf4jnsgd1na2vs0mg"},{"bike_id":"3e2b6028-a539-4e64-9081-578276ce4315","system_id":"levelo_inurba_marseille","lat":43.24589,"lon":5.42093,"is_reserved":false,"is_disabled":false,"rental_uris":{"android":"levelo://app?vid=3e2b6028-a539-4e64-9081-578276ce4315","ios":"levelo://app?vid=3e2b6028-a539-4e64-9081-578276ce4315"},"vehicle_type_id":"4","last_reported":1762682956,"current_range_meters":11600,"station_id":"","pricing_plan_id":"cebpf4jnsgd1na2vs0mg"},{"bike_id":"63561aa8-ec74-47a5-b441-03bcb4a24523","system_id":"levelo_inurba_marseille","lat":43.29003,"lon":5.35604,"is_reserved":false,"is_disabled":false,"rental_uris":{"android":"levelo://app?vid=63561aa8-ec74-47a5-b441-03bcb4a24523","ios":"levelo://app?vid=63561aa8-ec74-47a5-b441-03bcb4a24523"},"vehicle_type_id":"4","last_reported":1762682956,"current_range_meters":12000,"station_id":"ce4bhb92rcd13ifvqen0","pricing_plan_id":"cebpf4jnsgd1na2vs0mg"},{"bike_id":"e374f4d6-676c-4d62-af2d-1f0734c48172","system_id":"levelo_inurba_marseille","lat":43.294869,"lon":5.43309,"is_reserved":false,"is_disabled":false,"rental_uris":{"android":"levelo://app?vid=e374f4d6-676c-4d62-af2d-1f0734c48172","ios":"levelo://app?vid=e374f4d6-676c-4d62-af2d-1f0734c48172"},"vehicle_type_id":"4","last_reported":1762682956,"current_range_meters":12000,"station_id":"st_d3j5ugp08ojc73fj9d10","pricing_plan_id":"cebpf4jnsgd1na2vs0mg"},{"bike_id":"66e0bf10-3d30-493f-91ec-a78bc2c4b7ec","system_id":"levelo_inurba_marseille","lat":43.256367,"lon":5.39394,"is_reserved":false,"is_disabled":false,"rental_uris":{"android":"levelo://app?vid=66e0bf10-3d30-493f-91ec-a78bc2c4b7ec","ios":"levelo://app?vid=66e0bf10-3d30-493f-91ec-a78bc2c4b7ec"},"vehicle_type_id":"4","last_reported":1762682956,"current_range_meters":12000,"station_id":"","pricing_plan_id":"cebpf4jnsgd1na2vs0mg"},{"bike_id":"6ca580b9-ae87-4e9b-a62c-4e0f6a07370c","system_id":"levelo_inurba_marseille","lat":43.2119,"lon":5.350692,"is_reserved":false,"is_disabled":false,"rental_uris":{"android":"levelo://app?vid=6ca580b9-ae87-4e9b-a62c-4e0f6a07370c","ios":"levelo://app?vid=6ca580b9-ae87-4e9b-a62c-4e0f6a07370c"},"vehicle_type_id":"4","last_reported":1762682956,"current_range_meters":12000,"station_id":"st_cvj6sg6p6f1abm77japg","pricing_plan_id":"cebpf4jnsgd1na2vs0mg"},{"bike_id":"c6d5d8d4-4173-4646-a45b-e93034e39692","system_id":"levelo_inurba_marseille","lat":43.23155,"lon":5.43715,"is_reserved":false,"is_disabled":false,"rental_uris":{"android":"levelo://app?vid=c6d5d8d4-4173-4646-a45b-e93034e39692","ios":"levelo://app?vid=c6d5d8d4-4173-4646-a45b-e93034e39692"},"vehicle_type_id":"4","last_reported":1762682956,"current_range_meters":12000,"station_id":"ce4bhmp2rcd13ifvqgog","pricing_plan_id":"cebpf4jnsgd1na2vs0mg"},{"bike_id":"ce8c961a-85c8-44ab-ae83-7f378b5ad238","system_id":"levelo_inurba_marseille","lat":43.28164,"lon":5.42638,"is_reserved":false,"is_disabled":false,"rental_uris":{"android":"levelo://app?vid=ce8c961a-85c8-44ab-ae83-7f378b5ad238","ios":"levelo://app?vid=ce8c961a-85c8-44ab-ae83-7f378b5ad238"},"vehicle_type_id":"4","last_reported":1762682956,"current_range_meters":12000,"station_id":"ce4bhnh2rcd13ifvqgug","pricing_plan_id":"cebpf4jnsgd1na2vs0mg"},{"bike_id":"64afb97e-7246-4474-83af-cffeee346617","system_id":"levelo_inurba_marseille","lat":43.29197,"lon":5.35807,"is_reserved":false,"is_disabled":false,"rental_uris":{"android":"levelo://app?vid=64afb97e-7246-4474-83af-cffeee346617","ios":"levelo://app?vid=64afb97e-7246-4474-83af-cffeee346617"},"vehicle_type_id":"4","last_reported":1762682956,"current_range_meters":12000,"station_id":"ce4bhb12rcd13ifvqel0","pricing_plan_id":"cebpf4jnsgd1na2vs0mg"},{"bike_id":"8811d196-a90f-498b-bc2d-f12f7e7fbf91","system_id":"levelo_inurba_marseille","lat":43.30432,"lon":5.38894,"is_reserved":false,"is_disabled":false,"rental_uris":{"android":"levelo://app?vid=8811d196-a90f-498b-bc2d-f12f7e7fbf91","ios":"levelo://app?vid=8811d196-a90f-498b-bc2d-f12f7e7fbf91"},"vehicle_type_id":"4","last_reported":1762682956,"current_range_meters":12000,"station_id":"ce4bgk12rcd13ifvqbi0","pricing_plan_id":"cebpf4jnsgd1na2vs0mg"},{"bike_id":"50f530d8-a703-4d21-9bca-1083f2e62edb","system_id":"levelo_inurba_marseille","lat":43.25332,"lon":5.42157,"is_reserved":false,"is_disabled":false,"rental_uris":{"android":"levelo://app?vid=50f530d8-a703-4d21-9bca-1083f2e62edb","ios":"levelo://app?vid=50f530d8-a703-4d21-9bca-1083f2e62edb"},"vehicle_type_id":"4","last_reported":1762682956,"current_range_meters":12400,"station_id":"st_d2m65c5bi1j21697t3ng","pricing_plan_id":"cebpf4jnsgd1na2vs0mg"},{"bike_id":"4132147f-7431-4834-888a-022eef83d616","system_id":"levelo_inurba_marseille","lat":43.27437,"lon":5.39398,"is_reserved":false,"is_disabled":false,"rental_uris":{"android":"levelo://app?vid=4132147f-7431-4834-888a-022eef83d616","ios":"levelo://app?vid=4132147f-7431-4834-888a-022eef83d616"},"vehicle_type_id":"4","last_reported":1762682956,"current_range_meters":12400,"station_id":"ce4bhdp2rcd13ifvqf20","pricing_plan_id":"cebpf4jnsgd1na2vs0mg"},{"bike_id":"06b572d6-d95a-4f1a-9a9a-b316897ad6d5","system_id":"levelo_inurba_marseille","lat":43.29545,"lon":5.3752,"is_reserved":false,"is_disabled":false,"rental_uris":{"android":"levelo://app?vid=06b572d6-d95a-4f1a-9a9a-b316897ad6d5","ios":"levelo://app?vid=06b572d6-d95a-4f1a-9a9a-b316897ad6d5"},"vehicle_type_id":"4","last_reported":1762682956,"current_range_meters":12400,"station_id":"ce4bgkp2rcd13ifvqbmg","pricing_plan_id":"cebpf4jnsgd1na2vs0mg"},{"bike_id":"b343e7d4-d786-4665-9636-a7f91c01ef9b","system_id":"levelo_inurba_marseille","lat":43.25334,"lon":5.42174,"is_reserved":false,"is_disabled":false,"rental_uris":{"android":"levelo://app?vid=b343e7d4-d786-4665-9636-a7f91c01ef9b","ios":"levelo://app?vid=b343e7d4-d786-4665-9636-a7f91c01ef9b"},"vehicle_type_id":"4","last_reported":1762682956,"current_range_meters":12400,"station_id":"st_d2m65c5bi1j21697t3ng","pricing_plan_id":"cebpf4jnsgd1na2vs0mg"},{"bike_id":"ac1012d0-7872-4c6e-85e6-fc8eaff39396","system_id":"levelo_inurba_marseille","lat":43.284641,"lon":5.358918,"is_reserved":false,"is_disabled":true,"rental_uris":{"android":"levelo://app?vid=ac1012d0-7872-4c6e-85e6-fc8eaff39396","ios":"levelo://app?vid=ac1012d0-7872-4c6e-85e6-fc8eaff39396"},"vehicle_type_id":"4","last_reported":1762682956,"current_range_meters":12400,"station_id":"ce4bhah2rcd13ifvqei0","pricing_plan_id":"cebpf4jnsgd1na2vs0mg"},{"bike_id":"260e08db-ebe0-43dc-841f-0b6cfdac9a2f","system_id":"levelo_inurba_marseille","lat":43.25122,"lon":5.40315,"is_reserved":false,"is_disabled":false,"rental_uris":{"android":"levelo://app?vid=260e08db-ebe0-43dc-841f-0b6cfdac9a2f","ios":"levelo://app?vid=260e08db-ebe0-43dc-841f-0b6cfdac9a2f"},"vehicle_type_id":"4","last_reported":1762682956,"current_range_meters":12800,"station_id":"ce4bhlh2rcd13ifvqgig","pricing_plan_id":"cebpf4jnsgd1na2vs0mg"},{"bike_id":"de55c010-abe2-4f50-9186-e780ceeace4d","system_id":"levelo_inurba_marseille","lat":43.31288,"lon":5.40154,"is_reserved":false,"is_disabled":false,"rental_uris":{"android":"levelo://app?vid=de55c010-abe2-4f50-9186-e780ceeace4d","ios":"levelo://app?vid=de55c010-abe2-4f50-9186-e780ceeace4d"},"vehicle_type_id":"4","last_reported":1762682956,"current_range_meters":12800,"station_id":"ce4bh092rcd13ifvqd30","pricing_plan_id":"cebpf4jnsgd1na2vs0mg"},{"bike_id":"bcb7664a-39c2-46f8-930f-41cebd3d0b86","system_id":"levelo_inurba_marseille","lat":43.21198,"lon":5.35075,"is_reserved":false,"is_disabled":true,"rental_uris":{"android":"levelo://app?vid=bcb7664a-39c2-46f8-930f-41cebd3d0b86","ios":"levelo://app?vid=bcb7664a-39c2-46f8-930f-41cebd3d0b86"},"vehicle_type_id":"4","last_reported":1762682956,"current_range_meters":12800,"station_id":"st_cvj6sg6p6f1abm77japg","pricing_plan_id":"cebpf4jnsgd1na2vs0mg"},{"bike_id":"d4d905e3-5d4c-4dcf-b2a7-a39dd627b8e4","system_id":"levelo_inurba_marseille","lat":43.25354,"lon":5.42159,"is_reserved":false,"is_disabled":false,"rental_uris":{"android":"levelo://app?vid=d4d905e3-5d4c-4dcf-b2a7-a39dd627b8e4","ios":"levelo://app?vid=d4d905e3-5d4c-4dcf-b2a7-a39dd627b8e4"},"vehicle_type_id":"4","last_reported":1762682956,"current_range_meters":12800,"station_id":"st_d2m65c5bi1j21697t3ng","pricing_plan_id":"cebpf4jnsgd1na2vs0mg"},{"bike_id":"14d59afc-7e49-4dc2-a971-2f543d6100c9","system_id":"levelo_inurba_marseille","lat":43.25579,"lon":5.38231,"is_reserved":false,"is_disabled":false,"rental_uris":{"android":"levelo://app?vid=14d59afc-7e49-4dc2-a971-2f543d6100c9","ios":"levelo://app?vid=14d59afc-7e49-4dc2-a971-2f543d6100c9"},"vehicle_type_id":"4","last_reported":1762682956,"current_range_meters":12800,"station_id":"ce4bhih2rcd13ifvqfs0","pricing_plan_id":"cebpf4jnsgd1na2vs0mg"},{"bike_id":"d5c00bf6-68aa-4c5c-9900-1653c757b7fe","system_id":"levelo_inurba_marseille","lat":43.231551,"lon":5.43707,"is_reserved":false,"is_disabled":false,"rental_uris":{"android":"levelo://app?vid=d5c00bf6-68aa-4c5c-9900-1653c757b7fe","ios":"levelo://app?vid=d5c00bf6-68aa-4c5c-9900-1653c757b7fe"},"vehicle_type_id":"4","last_reported":1762682956,"current_range_meters":12800,"station_id":"ce4bhmp2rcd13ifvqgog","pricing_plan_id":"cebpf4jnsgd1na2vs0mg"},{"bike_id":"6b9d3419-d510-49b1-8361-7cbd0e7db45c","system_id":"levelo_inurba_marseille","lat":43.2827,"lon":5.35056,"is_reserved":false,"is_disabled":false,"rental_uris":{"android":"levelo://app?vid=6b9d3419-d510-49b1-8361-7cbd0e7db45c","ios":"levelo://app?vid=6b9d3419-d510-49b1-8361-7cbd0e7db45c"},"vehicle_type_id":"4","last_reported":1762682956,"current_range_meters":13600,"station_id":"ce4bhbp2rcd13ifvqerg","pricing_plan_id":"cebpf4jnsgd1na2vs0mg"},{"bike_id":"90e75491-f300-4cd4-95d9-4fcce675996b","system_id":"levelo_inurba_marseille","lat":43.28401,"lon":5.37498,"is_reserved":false,"is_disabled":true,"rental_uris":{"android":"levelo://app?vid=90e75491-f300-4cd4-95d9-4fcce675996b","ios":"levelo://app?vid=90e75491-f300-4cd4-95d9-4fcce675996b"},"vehicle_type_id":"4","last_reported":1762682956,"current_range_meters":13600,"station_id":"ce4bh412rcd13ifvqds0","pricing_plan_id":"cebpf4jnsgd1na2vs0mg"},{"bike_id":"317822ad-eebe-4d49-be47-de3738a7f974","system_id":"levelo_inurba_marseille","lat":43.33162,"lon":5.37695,"is_reserved":false,"is_disabled":false,"rental_uris":{"android":"levelo://app?vid=317822ad-eebe-4d49-be47-de3738a7f974","ios":"levelo://app?vid=317822ad-eebe-4d49-be47-de3738a7f974"},"vehicle_type_id":"4","last_reported":1762682956,"current_range_meters":13600,"station_id":"st_d46cu089ee8s73dldbu0","pricing_plan_id":"cebpf4jnsgd1na2vs0mg"},{"bike_id":"c9a952da-dd0a-4da2-aadd-286f83de39b3","system_id":"levelo_inurba_marseille","lat":43.23184,"lon":5.39974,"is_reserved":false,"is_disabled":false,"rental_uris":{"android":"levelo://app?vid=c9a952da-dd0a-4da2-aadd-286f83de39b3","ios":"levelo://app?vid=c9a952da-dd0a-4da2-aadd-286f83de39b3"},"vehicle_type_id":"4","last_reported":1762682956,"current_range_meters":13600,"station_id":"ce4bhn12rcd13ifvqgqg","pricing_plan_id":"cebpf4jnsgd1na2vs0mg"},{"bike_id":"8104c69d-4db3-489d-9298-81ea4e398d16","system_id":"levelo_inurba_marseille","lat":43.27938,"lon":5.41038,"is_reserved":false,"is_disabled":false,"rental_uris":{"android":"levelo://app?vid=8104c69d-4db3-489d-9298-81ea4e398d16","ios":"levelo://app?vid=8104c69d-4db3-489d-9298-81ea4e398d16"},"vehicle_type_id":"4","last_reported":1762682956,"current_range_meters":13600,"station_id":"ce4bhnp2rcd13ifvqh0g","pricing_plan_id":"cebpf4jnsgd1na2vs0mg"},{"bike_id":"a697c050-65cb-4cad-975c-84488c6104a1","system_id":"levelo_inurba_marseille","lat":43.31975,"lon":5.38132,"is_reserved":false,"is_disabled":false,"rental_uris":{"android":"levelo://app?vid=a697c050-65cb-4cad-975c-84488c6104a1","ios":"levelo://app?vid=a697c050-65cb-4cad-975c-84488c6104a1"},"vehicle_type_id":"4","last_reported":1762682956,"current_range_meters":13600,"station_id":"ce4bhr12rcd13ifvqhpg","pricing_plan_id":"cebpf4jnsgd1na2vs0mg"},{"bike_id":"2e27933d-fc18-453e-ad3c-dfe367228a43","system_id":"levelo_inurba_marseille","lat":43.253352,"lon":5.421755,"is_reserved":false,"is_disabled":false,"rental_uris":{"android":"levelo://app?vid=2e27933d-fc18-453e-ad3c-dfe367228a43","ios":"levelo://app?vid=2e27933d-fc18-453e-ad3c-dfe367228a43"},"vehicle_type_id":"4","last_reported":1762682956,"current_range_meters":13600,"station_id":"st_d2m65c5bi1j21697t3ng","pricing_plan_id":"cebpf4jnsgd1na2vs0mg"},{"bike_id":"397dfa78-5d2c-4241-aaf4-69222d7e5283","system_id":"levelo_inurba_marseille","lat":43.29193,"lon":5.35815,"is_reserved":false,"is_disabled":false,"rental_uris":{"android":"levelo://app?vid=397dfa78-5d2c-4241-aaf4-69222d7e5283","ios":"levelo://app?vid=397dfa78-5d2c-4241-aaf4-69222d7e5283"},"vehicle_type_id":"4","last_reported":1762682956,"current_range_meters":14000,"station_id":"ce4bhb12rcd13ifvqel0","pricing_plan_id":"cebpf4jnsgd1na2vs0mg"},{"bike_id":"ecd9fbaa-71af-4da1-a554-7b75e9d6ed32","system_id":"levelo_inurba_marseille","lat":43.304168,"lon":5.412813,"is_reserved":false,"is_disabled":false,"rental_uris":{"android":"levelo://app?vid=ecd9fbaa-71af-4da1-a554-7b75e9d6ed32","ios":"levelo://app?vid=ecd9fbaa-71af-4da1-a554-7b75e9d6ed32"},"vehicle_type_id":"4","last_reported":1762682956,"current_range_meters":14000,"station_id":"ce4bhop2rcd13ifvqh8g","pricing_plan_id":"cebpf4jnsgd1na2vs0mg"},{"bike_id":"68e2a4eb-9515-41fd-aa1c-8497e40ac482","system_id":"levelo_inurba_marseille","lat":43.29928,"lon":5.38139,"is_reserved":false,"is_disabled":true,"rental_uris":{"android":"levelo://app?vid=68e2a4eb-9515-41fd-aa1c-8497e40ac482","ios":"levelo://app?vid=68e2a4eb-9515-41fd-aa1c-8497e40ac482"},"vehicle_type_id":"4","last_reported":1762682956,"current_range_meters":14000,"station_id":"ce4bgj12rcd13ifvqbc0","pricing_plan_id":"cebpf4jnsgd1na2vs0mg"},{"bike_id":"0cc37007-fc17-4895-b6c5-de7040c35c7a","system_id":"levelo_inurba_marseille","lat":43.21197,"lon":5.3507,"is_reserved":false,"is_disabled":false,"rental_uris":{"android":"levelo://app?vid=0cc37007-fc17-4895-b6c5-de7040c35c7a","ios":"levelo://app?vid=0cc37007-fc17-4895-b6c5-de7040c35c7a"},"vehicle_type_id":"4","last_reported":1762682956,"current_range_meters":14000,"station_id":"st_cvj6sg6p6f1abm77japg","pricing_plan_id":"cebpf4jnsgd1na2vs0mg"},{"bike_id":"beb94f55-7cad-4f93-b357-1a1cafd7bcec","system_id":"levelo_inurba_marseille","lat":43.24632,"lon":5.43135,"is_reserved":false,"is_disabled":false,"rental_uris":{"android":"levelo://app?vid=beb94f55-7cad-4f93-b357-1a1cafd7bcec","ios":"levelo://app?vid=beb94f55-7cad-4f93-b357-1a1cafd7bcec"},"vehicle_type_id":"4","last_reported":1762682956,"current_range_meters":14000,"station_id":"st_d2m6c4gdas8pm72e190g","pricing_plan_id":"cebpf4jnsgd1na2vs0mg"},{"bike_id":"a5a51bf9-9908-420d-8212-6ef8d2db5d39","system_id":"levelo_inurba_marseille","lat":43.27378,"lon":5.36252,"is_reserved":false,"is_disabled":false,"rental_uris":{"android":"levelo://app?vid=a5a51bf9-9908-420d-8212-6ef8d2db5d39","ios":"levelo://app?vid=a5a51bf9-9908-420d-8212-6ef8d2db5d39"},"vehicle_type_id":"4","last_reported":1762682956,"current_range_meters":14400,"station_id":"ce4bhbh2rcd13ifvqeo0","pricing_plan_id":"cebpf4jnsgd1na2vs0mg"},{"bike_id":"345285ad-10a7-49ef-b97f-7faa01587ccf","system_id":"levelo_inurba_marseille","lat":43.24629,"lon":5.431499,"is_reserved":false,"is_disabled":false,"rental_uris":{"android":"levelo://app?vid=345285ad-10a7-49ef-b97f-7faa01587ccf","ios":"levelo://app?vid=345285ad-10a7-49ef-b97f-7faa01587ccf"},"vehicle_type_id":"4","last_reported":1762682956,"current_range_meters":14400,"station_id":"st_d2m6c4gdas8pm72e190g","pricing_plan_id":"cebpf4jnsgd1na2vs0mg"},{"bike_id":"3bbdea92-f5e6-41ec-bf5b-5a6c14775bf2","system_id":"levelo_inurba_marseille","lat":43.2668,"lon":5.38275,"is_reserved":false,"is_disabled":false,"rental_uris":{"android":"levelo://app?vid=3bbdea92-f5e6-41ec-bf5b-5a6c14775bf2","ios":"levelo://app?vid=3bbdea92-f5e6-41ec-bf5b-5a6c14775bf2"},"vehicle_type_id":"4","last_reported":1762682956,"current_range_meters":14400,"station_id":"ce4bhg92rcd13ifvqf90","pricing_plan_id":"cebpf4jnsgd1na2vs0mg"},{"bike_id":"2af63f6c-5625-4c1c-aec0-be4ec80aef16","system_id":"levelo_inurba_marseille","lat":43.2826,"lon":5.3506,"is_reserved":false,"is_disabled":false,"rental_uris":{"android":"levelo://app?vid=2af63f6c-5625-4c1c-aec0-be4ec80aef16","ios":"levelo://app?vid=2af63f6c-5625-4c1c-aec0-be4ec80aef16"},"vehicle_type_id":"4","last_reported":1762682956,"current_range_meters":14400,"station_id":"ce4bhbp2rcd13ifvqerg","pricing_plan_id":"cebpf4jnsgd1na2vs0mg"},{"bike_id":"b0370738-4d86-4710-99fc-c5094c79dcbe","system_id":"levelo_inurba_marseille","lat":43.2919,"lon":5.35793,"is_reserved":false,"is_disabled":false,"rental_uris":{"android":"levelo://app?vid=b0370738-4d86-4710-99fc-c5094c79dcbe","ios":"levelo://app?vid=b0370738-4d86-4710-99fc-c5094c79dcbe"},"vehicle_type_id":"4","last_reported":1762682956,"current_range_meters":14400,"station_id":"ce4bhb12rcd13ifvqel0","pricing_plan_id":"cebpf4jnsgd1na2vs0mg"},{"bike_id":"b0c93f39-2f4b-4a4b-92c9-fdf9f6e8a0e9","system_id":"levelo_inurba_marseille","lat":43.27215,"lon":5.39186,"is_reserved":false,"is_disabled":false,"rental_uris":{"android":"levelo://app?vid=b0c93f39-2f4b-4a4b-92c9-fdf9f6e8a0e9","ios":"levelo://app?vid=b0c93f39-2f4b-4a4b-92c9-fdf9f6e8a0e9"},"vehicle_type_id":"4","last_reported":1762682956,"current_range_meters":14400,"station_id":"ce4bhhp2rcd13ifvqfm0","pricing_plan_id":"cebpf4jnsgd1na2vs0mg"},{"bike_id":"c19b9475-1f49-4df3-a555-5f8ad7c35f16","system_id":"levelo_inurba_marseille","lat":43.22541,"lon":5.34827,"is_reserved":false,"is_disabled":false,"rental_uris":{"android":"levelo://app?vid=c19b9475-1f49-4df3-a555-5f8ad7c35f16","ios":"levelo://app?vid=c19b9475-1f49-4df3-a555-5f8ad7c35f16"},"vehicle_type_id":"4","last_reported":1762682956,"current_range_meters":14400,"station_id":"","pricing_plan_id":"cebpf4jnsgd1na2vs0mg"},{"bike_id":"d8a2355e-a776-4b85-8a3e-22368796688d","system_id":"levelo_inurba_marseille","lat":43.307979,"lon":5.368425,"is_reserved":false,"is_disabled":false,"rental_uris":{"android":"levelo://app?vid=d8a2355e-a776-4b85-8a3e-22368796688d","ios":"levelo://app?vid=d8a2355e-a776-4b85-8a3e-22368796688d"},"vehicle_type_id":"4","last_reported":1762682956,"current_range_meters":14400,"station_id":"","pricing_plan_id":"cebpf4jnsgd1na2vs0mg"},{"bike_id":"5f51530e-ad6d-4525-9dbe-df8ccdff7435","system_id":"levelo_inurba_marseille","lat":43.316023,"lon":5.381906,"is_reserved":false,"is_disabled":false,"rental_uris":{"android":"levelo://app?vid=5f51530e-ad6d-4525-9dbe-df8ccdff7435","ios":"levelo://app?vid=5f51530e-ad6d-4525-9dbe-df8ccdff7435"},"vehicle_type_id":"4","last_reported":1762682956,"current_range_meters":14400,"station_id":"","pricing_plan_id":"cebpf4jnsgd1na2vs0mg"},{"bike_id":"07487456-04db-4d2a-9c08-bc3d6a0a4071","system_id":"levelo_inurba_marseille","lat":43.281525,"lon":5.426352,"is_reserved":false,"is_disabled":false,"rental_uris":{"android":"levelo://app?vid=07487456-04db-4d2a-9c08-bc3d6a0a4071","ios":"levelo://app?vid=07487456-04db-4d2a-9c08-bc3d6a0a4071"},"vehicle_type_id":"4","last_reported":1762682956,"current_range_meters":14800,"station_id":"ce4bhnh2rcd13ifvqgug","pricing_plan_id":"cebpf4jnsgd1na2vs0mg"},{"bike_id":"f4b3610c-ddfd-461d-9ea3-633c91510343","system_id":"levelo_inurba_marseille","lat":43.246271,"lon":5.43144,"is_reserved":false,"is_disabled":false,"rental_uris":{"android":"levelo://app?vid=f4b3610c-ddfd-461d-9ea3-633c91510343","ios":"levelo://app?vid=f4b3610c-ddfd-461d-9ea3-633c91510343"},"vehicle_type_id":"4","last_reported":1762682956,"current_range_meters":14800,"station_id":"st_d2m6c4gdas8pm72e190g","pricing_plan_id":"cebpf4jnsgd1na2vs0mg"},{"bike_id":"d7f127c2-c841-474e-95f5-ca9140c28898","system_id":"levelo_inurba_marseille","lat":43.21192,"lon":5.35073,"is_reserved":false,"is_disabled":false,"rental_uris":{"android":"levelo://app?vid=d7f127c2-c841-474e-95f5-ca9140c28898","ios":"levelo://app?vid=d7f127c2-c841-474e-95f5-ca9140c28898"},"vehicle_type_id":"4","last_reported":1762682956,"current_range_meters":14800,"station_id":"st_cvj6sg6p6f1abm77japg","pricing_plan_id":"cebpf4jnsgd1na2vs0mg"},{"bike_id":"4eac3eb9-9ac1-4ff6-ad57-ed359befeed2","system_id":"levelo_inurba_marseille","lat":43.22875,"lon":5.40243,"is_reserved":false,"is_disabled":false,"rental_uris":{"android":"levelo://app?vid=4eac3eb9-9ac1-4ff6-ad57-ed359befeed2","ios":"levelo://app?vid=4eac3eb9-9ac1-4ff6-ad57-ed359befeed2"},"vehicle_type_id":"4","last_reported":1762682956,"current_range_meters":14800,"station_id":"","pricing_plan_id":"cebpf4jnsgd1na2vs0mg"},{"bike_id":"c197fb5b-6ad3-43e6-ba7c-1a3724b70895","system_id":"levelo_inurba_marseille","lat":43.26574,"lon":5.39042,"is_reserved":false,"is_disabled":false,"rental_uris":{"android":"levelo://app?vid=c197fb5b-6ad3-43e6-ba7c-1a3724b70895","ios":"levelo://app?vid=c197fb5b-6ad3-43e6-ba7c-1a3724b70895"},"vehicle_type_id":"4","last_reported":1762682956,"current_range_meters":14800,"station_id":"ce4bhe12rcd13ifvqf30","pricing_plan_id":"cebpf4jnsgd1na2vs0mg"},{"bike_id":"02a47139-36f2-4275-867a-75674288c649","system_id":"levelo_inurba_marseille","lat":43.27208,"lon":5.39183,"is_reserved":false,"is_disabled":false,"rental_uris":{"android":"levelo://app?vid=02a47139-36f2-4275-867a-75674288c649","ios":"levelo://app?vid=02a47139-36f2-4275-867a-75674288c649"},"vehicle_type_id":"4","last_reported":1762682956,"current_range_meters":14800,"station_id":"ce4bhhp2rcd13ifvqfm0","pricing_plan_id":"cebpf4jnsgd1na2vs0mg"},{"bike_id":"ad8ac1fc-f209-4476-ae7c-9b313bc0536d","system_id":"levelo_inurba_marseille","lat":43.21191,"lon":5.35074,"is_reserved":false,"is_disabled":false,"rental_uris":{"android":"levelo://app?vid=ad8ac1fc-f209-4476-ae7c-9b313bc0536d","ios":"levelo://app?vid=ad8ac1fc-f209-4476-ae7c-9b313bc0536d"},"vehicle_type_id":"4","last_reported":1762682956,"current_range_meters":15200,"station_id":"st_cvj6sg6p6f1abm77japg","pricing_plan_id":"cebpf4jnsgd1na2vs0mg"},{"bike_id":"fee4f445-bba8-4be4-a3da-4decf51271b2","system_id":"levelo_inurba_marseille","lat":43.318373,"lon":5.407131,"is_reserved":false,"is_disabled":false,"rental_uris":{"android":"levelo://app?vid=fee4f445-bba8-4be4-a3da-4decf51271b2","ios":"levelo://app?vid=fee4f445-bba8-4be4-a3da-4decf51271b2"},"vehicle_type_id":"4","last_reported":1762682956,"current_range_meters":15200,"station_id":"","pricing_plan_id":"cebpf4jnsgd1na2vs0mg"},{"bike_id":"9c22d6db-e4a6-4b2a-bda7-daa9a3fc6173","system_id":"levelo_inurba_marseille","lat":43.29374,"lon":5.37853,"is_reserved":false,"is_disabled":false,"rental_uris":{"android":"levelo://app?vid=9c22d6db-e4a6-4b2a-bda7-daa9a3fc6173","ios":"levelo://app?vid=9c22d6db-e4a6-4b2a-bda7-daa9a3fc6173"},"vehicle_type_id":"4","last_reported":1762682956,"current_range_meters":15200,"station_id":"ce4bgjh2rcd13ifvqbf0","pricing_plan_id":"cebpf4jnsgd1na2vs0mg"},{"bike_id":"9a776a3f-cab6-4283-a416-cc8852920997","system_id":"levelo_inurba_marseille","lat":43.22533,"lon":5.34837,"is_reserved":false,"is_disabled":false,"rental_uris":{"android":"levelo://app?vid=9a776a3f-cab6-4283-a416-cc8852920997","ios":"levelo://app?vid=9a776a3f-cab6-4283-a416-cc8852920997"},"vehicle_type_id":"4","last_reported":1762682956,"current_range_meters":15200,"station_id":"","pricing_plan_id":"cebpf4jnsgd1na2vs0mg"},{"bike_id":"7fbd1ff9-4b4c-41ae-8d84-cca75e8f7f8a","system_id":"levelo_inurba_marseille","lat":43.27326,"lon":5.39103,"is_reserved":false,"is_disabled":false,"rental_uris":{"android":"levelo://app?vid=7fbd1ff9-4b4c-41ae-8d84-cca75e8f7f8a","ios":"levelo://app?vid=7fbd1ff9-4b4c-41ae-8d84-cca75e8f7f8a"},"vehicle_type_id":"4","last_reported":1762682956,"current_range_meters":15200,"station_id":"ce4bhgp2rcd13ifvqfe0","pricing_plan_id":"cebpf4jnsgd1na2vs0mg"},{"bike_id":"c1783fb2-6784-4b7f-92a8-0112651e291c","system_id":"levelo_inurba_marseille","lat":43.29758,"lon":5.42759,"is_reserved":false,"is_disabled":false,"rental_uris":{"android":"levelo://app?vid=c1783fb2-6784-4b7f-92a8-0112651e291c","ios":"levelo://app?vid=c1783fb2-6784-4b7f-92a8-0112651e291c"},"vehicle_type_id":"4","last_reported":1762682956,"current_range_meters":15200,"station_id":"st_d3md5207bmas73dh9klg","pricing_plan_id":"cebpf4jnsgd1na2vs0mg"},{"bike_id":"f08621f1-92b2-4985-8a3a-96dd283a7c2b","system_id":"levelo_inurba_marseille","lat":43.31354,"lon":5.37932,"is_reserved":false,"is_disabled":false,"rental_uris":{"android":"levelo://app?vid=f08621f1-92b2-4985-8a3a-96dd283a7c2b","ios":"levelo://app?vid=f08621f1-92b2-4985-8a3a-96dd283a7c2b"},"vehicle_type_id":"4","last_reported":1762682956,"current_range_meters":15200,"station_id":"","pricing_plan_id":"cebpf4jnsgd1na2vs0mg"},{"bike_id":"cf944fe0-628b-4da5-b0a7-3e9cb0c75fb3","system_id":"levelo_inurba_marseille","lat":43.28407,"lon":5.34974,"is_reserved":false,"is_disabled":false,"rental_uris":{"android":"levelo://app?vid=cf944fe0-628b-4da5-b0a7-3e9cb0c75fb3","ios":"levelo://app?vid=cf944fe0-628b-4da5-b0a7-3e9cb0c75fb3"},"vehicle_type_id":"4","last_reported":1762682956,"current_range_meters":15200,"station_id":"ce4bhbh2rcd13ifvqepg","pricing_plan_id":"cebpf4jnsgd1na2vs0mg"},{"bike_id":"493d5586-9fc6-4f12-be84-9f6467f72b20","system_id":"levelo_inurba_marseille","lat":43.29227,"lon":5.36059,"is_reserved":false,"is_disabled":false,"rental_uris":{"android":"levelo://app?vid=493d5586-9fc6-4f12-be84-9f6467f72b20","ios":"levelo://app?vid=493d5586-9fc6-4f12-be84-9f6467f72b20"},"vehicle_type_id":"4","last_reported":1762682956,"current_range_meters":15200,"station_id":"ce4bhbh2rcd13ifvqeqg","pricing_plan_id":"cebpf4jnsgd1na2vs0mg"},{"bike_id":"2b6c7f17-6a0b-4c7e-9de0-10989be42791","system_id":"levelo_inurba_marseille","lat":43.28997,"lon":5.38469,"is_reserved":false,"is_disabled":false,"rental_uris":{"android":"levelo://app?vid=2b6c7f17-6a0b-4c7e-9de0-10989be42791","ios":"levelo://app?vid=2b6c7f17-6a0b-4c7e-9de0-10989be42791"},"vehicle_type_id":"4","last_reported":1762682956,"current_range_meters":15200,"station_id":"","pricing_plan_id":"cebpf4jnsgd1na2vs0mg"},{"bike_id":"823f9d7f-5db5-4876-8b5d-28b6923592c8","system_id":"levelo_inurba_marseille","lat":43.24946,"lon":5.4049,"is_reserved":false,"is_disabled":false,"rental_uris":{"android":"levelo://app?vid=823f9d7f-5db5-4876-8b5d-28b6923592c8","ios":"levelo://app?vid=823f9d7f-5db5-4876-8b5d-28b6923592c8"},"vehicle_type_id":"4","last_reported":1762682956,"current_range_meters":15200,"station_id":"st_d2ngiaodas8pm72gd1h0","pricing_plan_id":"cebpf4jnsgd1na2vs0mg"},{"bike_id":"004653de-7c1b-4886-bdee-5252d1943d43","system_id":"levelo_inurba_marseille","lat":43.2848,"lon":5.38425,"is_reserved":false,"is_disabled":false,"rental_uris":{"android":"levelo://app?vid=004653de-7c1b-4886-bdee-5252d1943d43","ios":"levelo://app?vid=004653de-7c1b-4886-bdee-5252d1943d43"},"vehicle_type_id":"4","last_reported":1762682956,"current_range_meters":16000,"station_id":"","pricing_plan_id":"cebpf4jnsgd1na2vs0mg"},{"bike_id":"efff97ef-b67c-45a8-962f-651ecdf62653","system_id":"levelo_inurba_marseille","lat":43.22558,"lon":5.41629,"is_reserved":false,"is_disabled":false,"rental_uris":{"android":"levelo://app?vid=efff97ef-b67c-45a8-962f-651ecdf62653","ios":"levelo://app?vid=efff97ef-b67c-45a8-962f-651ecdf62653"},"vehicle_type_id":"4","last_reported":1762682956,"current_range_meters":16000,"station_id":"st_d2o4gvlbi1j2169b742g","pricing_plan_id":"cebpf4jnsgd1na2vs0mg"},{"bike_id":"6d7c1aaf-f4c7-4f1f-9842-eba300df5da2","system_id":"levelo_inurba_marseille","lat":43.29013,"lon":5.35614,"is_reserved":false,"is_disabled":false,"rental_uris":{"android":"levelo://app?vid=6d7c1aaf-f4c7-4f1f-9842-eba300df5da2","ios":"levelo://app?vid=6d7c1aaf-f4c7-4f1f-9842-eba300df5da2"},"vehicle_type_id":"4","last_reported":1762682956,"current_range_meters":16000,"station_id":"ce4bhb92rcd13ifvqen0","pricing_plan_id":"cebpf4jnsgd1na2vs0mg"},{"bike_id":"3612082c-af8a-4f01-92e2-e61169e4c736","system_id":"levelo_inurba_marseille","lat":43.29299,"lon":5.37446,"is_reserved":false,"is_disabled":false,"rental_uris":{"android":"levelo://app?vid=3612082c-af8a-4f01-92e2-e61169e4c736","ios":"levelo://app?vid=3612082c-af8a-4f01-92e2-e61169e4c736"},"vehicle_type_id":"4","last_reported":1762682956,"current_range_meters":16400,"station_id":"ce4bgi12rcd13ifvqb70","pricing_plan_id":"cebpf4jnsgd1na2vs0mg"},{"bike_id":"2db833f7-30c8-4ab8-90cb-f29430b1992a","system_id":"levelo_inurba_marseille","lat":43.29011,"lon":5.3562,"is_reserved":false,"is_disabled":false,"rental_uris":{"android":"levelo://app?vid=2db833f7-30c8-4ab8-90cb-f29430b1992a","ios":"levelo://app?vid=2db833f7-30c8-4ab8-90cb-f29430b1992a"},"vehicle_type_id":"4","last_reported":1762682956,"current_range_meters":16400,"station_id":"ce4bhb92rcd13ifvqen0","pricing_plan_id":"cebpf4jnsgd1na2vs0mg"},{"bike_id":"ab4ac132-5519-4aac-ac12-8b8c2929bb7e","system_id":"levelo_inurba_marseille","lat":43.32302,"lon":5.38493,"is_reserved":false,"is_disabled":false,"rental_uris":{"android":"levelo://app?vid=ab4ac132-5519-4aac-ac12-8b8c2929bb7e","ios":"levelo://app?vid=ab4ac132-5519-4aac-ac12-8b8c2929bb7e"},"vehicle_type_id":"4","last_reported":1762682956,"current_range_meters":16400,"station_id":"st_d45171o9ee8s73djdqug","pricing_plan_id":"cebpf4jnsgd1na2vs0mg"},{"bike_id":"53529ee7-fa79-4bfe-8ac3-2ffb63a46b11","system_id":"levelo_inurba_marseille","lat":43.31796,"lon":5.38853,"is_reserved":false,"is_disabled":false,"rental_uris":{"android":"levelo://app?vid=53529ee7-fa79-4bfe-8ac3-2ffb63a46b11","ios":"levelo://app?vid=53529ee7-fa79-4bfe-8ac3-2ffb63a46b11"},"vehicle_type_id":"4","last_reported":1762682956,"current_range_meters":16400,"station_id":"","pricing_plan_id":"cebpf4jnsgd1na2vs0mg"},{"bike_id":"0392c01f-c7f1-41fd-9cd6-aa463c8d4035","system_id":"levelo_inurba_marseille","lat":43.243864,"lon":5.370728,"is_reserved":false,"is_disabled":false,"rental_uris":{"android":"levelo://app?vid=0392c01f-c7f1-41fd-9cd6-aa463c8d4035","ios":"levelo://app?vid=0392c01f-c7f1-41fd-9cd6-aa463c8d4035"},"vehicle_type_id":"4","last_reported":1762682956,"current_range_meters":16400,"station_id":"ce4bhhh2rcd13ifvqfk0","pricing_plan_id":"cebpf4jnsgd1na2vs0mg"},{"bike_id":"5f9a5a0f-2733-475e-89d8-03de8455b765","system_id":"levelo_inurba_marseille","lat":43.21753,"lon":5.34582,"is_reserved":false,"is_disabled":false,"rental_uris":{"android":"levelo://app?vid=5f9a5a0f-2733-475e-89d8-03de8455b765","ios":"levelo://app?vid=5f9a5a0f-2733-475e-89d8-03de8455b765"},"vehicle_type_id":"4","last_reported":1762682956,"current_range_meters":16400,"station_id":"st_cvj6r9ubvosntc0bgbag","pricing_plan_id":"cebpf4jnsgd1na2vs0mg"},{"bike_id":"a9d08e4c-0813-4aef-85b1-1d50cf456f69","system_id":"levelo_inurba_marseille","lat":43.21745,"lon":5.34593,"is_reserved":false,"is_disabled":true,"rental_uris":{"android":"levelo://app?vid=a9d08e4c-0813-4aef-85b1-1d50cf456f69","ios":"levelo://app?vid=a9d08e4c-0813-4aef-85b1-1d50cf456f69"},"vehicle_type_id":"4","last_reported":1762682956,"current_range_meters":16800,"station_id":"","pricing_plan_id":"cebpf4jnsgd1na2vs0mg"},{"bike_id":"c1c2c044-4849-4924-8e74-c40d5933f91e","system_id":"levelo_inurba_marseille","lat":43.22545,"lon":5.34824,"is_reserved":false,"is_disabled":false,"rental_uris":{"android":"levelo://app?vid=c1c2c044-4849-4924-8e74-c40d5933f91e","ios":"levelo://app?vid=c1c2c044-4849-4924-8e74-c40d5933f91e"},"vehicle_type_id":"4","last_reported":1762682956,"current_range_meters":16800,"station_id":"","pricing_plan_id":"cebpf4jnsgd1na2vs0mg"},{"bike_id":"81117295-ef99-4696-a5e4-29e11d56d47c","system_id":"levelo_inurba_marseille","lat":43.326618,"lon":5.409885,"is_reserved":false,"is_disabled":false,"rental_uris":{"android":"levelo://app?vid=81117295-ef99-4696-a5e4-29e11d56d47c","ios":"levelo://app?vid=81117295-ef99-4696-a5e4-29e11d56d47c"},"vehicle_type_id":"4","last_reported":1762682956,"current_range_meters":16800,"station_id":"ce4bhpp2rcd13ifvqhgg","pricing_plan_id":"cebpf4jnsgd1na2vs0mg"},{"bike_id":"f4cd1f76-686b-443b-bf62-c78f0f11dda9","system_id":"levelo_inurba_marseille","lat":43.2841,"lon":5.37517,"is_reserved":false,"is_disabled":true,"rental_uris":{"android":"levelo://app?vid=f4cd1f76-686b-443b-bf62-c78f0f11dda9","ios":"levelo://app?vid=f4cd1f76-686b-443b-bf62-c78f0f11dda9"},"vehicle_type_id":"4","last_reported":1762682956,"current_range_meters":16800,"station_id":"ce4bh412rcd13ifvqds0","pricing_plan_id":"cebpf4jnsgd1na2vs0mg"},{"bike_id":"bb6dd970-a41d-4d39-b4c2-c31acc3d02b2","system_id":"levelo_inurba_marseille","lat":43.28268,"lon":5.35062,"is_reserved":false,"is_disabled":false,"rental_uris":{"android":"levelo://app?vid=bb6dd970-a41d-4d39-b4c2-c31acc3d02b2","ios":"levelo://app?vid=bb6dd970-a41d-4d39-b4c2-c31acc3d02b2"},"vehicle_type_id":"4","last_reported":1762682956,"current_range_meters":16800,"station_id":"ce4bhbp2rcd13ifvqerg","pricing_plan_id":"cebpf4jnsgd1na2vs0mg"},{"bike_id":"b6ba799f-93a0-474d-970a-cd786094f7da","system_id":"levelo_inurba_marseille","lat":43.28478,"lon":5.38447,"is_reserved":false,"is_disabled":true,"rental_uris":{"android":"levelo://app?vid=b6ba799f-93a0-474d-970a-cd786094f7da","ios":"levelo://app?vid=b6ba799f-93a0-474d-970a-cd786094f7da"},"vehicle_type_id":"4","last_reported":1762682956,"current_range_meters":16800,"station_id":"ce4bh512rcd13ifvqe3g","pricing_plan_id":"cebpf4jnsgd1na2vs0mg"},{"bike_id":"aaf560bb-adf8-4d7c-b749-b4c5ca2f2663","system_id":"levelo_inurba_marseille","lat":43.239532,"lon":5.366284,"is_reserved":false,"is_disabled":true,"rental_uris":{"android":"levelo://app?vid=aaf560bb-adf8-4d7c-b749-b4c5ca2f2663","ios":"levelo://app?vid=aaf560bb-adf8-4d7c-b749-b4c5ca2f2663"},"vehicle_type_id":"4","last_reported":1762682956,"current_range_meters":16800,"station_id":"ce4bhi12rcd13ifvqfp0","pricing_plan_id":"cebpf4jnsgd1na2vs0mg"},{"bike_id":"52fb7e67-9da4-4ef0-8336-d669123c5362","system_id":"levelo_inurba_marseille","lat":43.24154,"lon":5.39712,"is_reserved":false,"is_disabled":false,"rental_uris":{"android":"levelo://app?vid=52fb7e67-9da4-4ef0-8336-d669123c5362","ios":"levelo://app?vid=52fb7e67-9da4-4ef0-8336-d669123c5362"},"vehicle_type_id":"4","last_reported":1762682956,"current_range_meters":16800,"station_id":"ce4bhn12rcd13ifvqgpg","pricing_plan_id":"cebpf4jnsgd1na2vs0mg"},{"bike_id":"97c2399c-97fe-4fad-b4b1-086a15836f01","system_id":"levelo_inurba_marseille","lat":43.24076,"lon":5.3776,"is_reserved":false,"is_disabled":false,"rental_uris":{"android":"levelo://app?vid=97c2399c-97fe-4fad-b4b1-086a15836f01","ios":"levelo://app?vid=97c2399c-97fe-4fad-b4b1-086a15836f01"},"vehicle_type_id":"4","last_reported":1762682956,"current_range_meters":16800,"station_id":"ce4bhnp2rcd13ifvqgvg","pricing_plan_id":"cebpf4jnsgd1na2vs0mg"},{"bike_id":"e69e7294-0504-4d57-a490-e2b2b55a529c","system_id":"levelo_inurba_marseille","lat":43.31991,"lon":5.38135,"is_reserved":false,"is_disabled":false,"rental_uris":{"android":"levelo://app?vid=e69e7294-0504-4d57-a490-e2b2b55a529c","ios":"levelo://app?vid=e69e7294-0504-4d57-a490-e2b2b55a529c"},"vehicle_type_id":"4","last_reported":1762682956,"current_range_meters":16800,"station_id":"ce4bhr12rcd13ifvqhpg","pricing_plan_id":"cebpf4jnsgd1na2vs0mg"},{"bike_id":"2bee9d77-f4ce-40fb-a351-5c9f7e879e55","system_id":"levelo_inurba_marseille","lat":43.29628,"lon":5.40597,"is_reserved":false,"is_disabled":false,"rental_uris":{"android":"levelo://app?vid=2bee9d77-f4ce-40fb-a351-5c9f7e879e55","ios":"levelo://app?vid=2bee9d77-f4ce-40fb-a351-5c9f7e879e55"},"vehicle_type_id":"4","last_reported":1762682956,"current_range_meters":17200,"station_id":"ce4bh0h2rcd13ifvqd60","pricing_plan_id":"cebpf4jnsgd1na2vs0mg"},{"bike_id":"950e87dd-9cfc-43b7-97a0-6eb32362ec06","system_id":"levelo_inurba_marseille","lat":43.30535,"lon":5.36544,"is_reserved":false,"is_disabled":false,"rental_uris":{"android":"levelo://app?vid=950e87dd-9cfc-43b7-97a0-6eb32362ec06","ios":"levelo://app?vid=950e87dd-9cfc-43b7-97a0-6eb32362ec06"},"vehicle_type_id":"4","last_reported":1762682956,"current_range_meters":17200,"station_id":"ce4bgs12rcd13ifvqcag","pricing_plan_id":"cebpf4jnsgd1na2vs0mg"},{"bike_id":"f94794f5-6317-40a3-af8c-b1d1c3971fc0","system_id":"levelo_inurba_marseille","lat":43.30743,"lon":5.42448,"is_reserved":false,"is_disabled":false,"rental_uris":{"android":"levelo://app?vid=f94794f5-6317-40a3-af8c-b1d1c3971fc0","ios":"levelo://app?vid=f94794f5-6317-40a3-af8c-b1d1c3971fc0"},"vehicle_type_id":"4","last_reported":1762682956,"current_range_meters":17200,"station_id":"st_cvj6ca6bvosntc0bfgr0","pricing_plan_id":"cebpf4jnsgd1na2vs0mg"},{"bike_id":"cf41bac8-b3bf-4d78-b58b-1504370da1f3","system_id":"levelo_inurba_marseille","lat":43.2175,"lon":5.34599,"is_reserved":false,"is_disabled":true,"rental_uris":{"android":"levelo://app?vid=cf41bac8-b3bf-4d78-b58b-1504370da1f3","ios":"levelo://app?vid=cf41bac8-b3bf-4d78-b58b-1504370da1f3"},"vehicle_type_id":"4","last_reported":1762682956,"current_range_meters":17200,"station_id":"st_cvj6r9ubvosntc0bgbag","pricing_plan_id":"cebpf4jnsgd1na2vs0mg"},{"bike_id":"1c976489-2851-4bbb-b82e-7e6180ffe4bd","system_id":"levelo_inurba_marseille","lat":43.29908,"lon":5.38122,"is_reserved":false,"is_disabled":false,"rental_uris":{"android":"levelo://app?vid=1c976489-2851-4bbb-b82e-7e6180ffe4bd","ios":"levelo://app?vid=1c976489-2851-4bbb-b82e-7e6180ffe4bd"},"vehicle_type_id":"4","last_reported":1762682956,"current_range_meters":17200,"station_id":"ce4bgj12rcd13ifvqbc0","pricing_plan_id":"cebpf4jnsgd1na2vs0mg"},{"bike_id":"4a299e7b-fa77-4d39-93fa-a705e8d40c9f","system_id":"levelo_inurba_marseille","lat":43.3133,"lon":5.37923,"is_reserved":false,"is_disabled":false,"rental_uris":{"android":"levelo://app?vid=4a299e7b-fa77-4d39-93fa-a705e8d40c9f","ios":"levelo://app?vid=4a299e7b-fa77-4d39-93fa-a705e8d40c9f"},"vehicle_type_id":"4","last_reported":1762682956,"current_range_meters":17200,"station_id":"","pricing_plan_id":"cebpf4jnsgd1na2vs0mg"},{"bike_id":"b4cb9bc3-2674-422b-8c74-5594292dd02e","system_id":"levelo_inurba_marseille","lat":43.27531,"lon":5.37515,"is_reserved":false,"is_disabled":false,"rental_uris":{"android":"levelo://app?vid=b4cb9bc3-2674-422b-8c74-5594292dd02e","ios":"levelo://app?vid=b4cb9bc3-2674-422b-8c74-5594292dd02e"},"vehicle_type_id":"4","last_reported":1762682956,"current_range_meters":17200,"station_id":"","pricing_plan_id":"cebpf4jnsgd1na2vs0mg"},{"bike_id":"c1f78a39-f269-47f2-9709-f91c6275b44a","system_id":"levelo_inurba_marseille","lat":43.30549,"lon":5.36714,"is_reserved":false,"is_disabled":false,"rental_uris":{"android":"levelo://app?vid=c1f78a39-f269-47f2-9709-f91c6275b44a","ios":"levelo://app?vid=c1f78a39-f269-47f2-9709-f91c6275b44a"},"vehicle_type_id":"4","last_reported":1762682956,"current_range_meters":17200,"station_id":"ce4bgrp2rcd13ifvqc9g","pricing_plan_id":"cebpf4jnsgd1na2vs0mg"},{"bike_id":"96807a8e-1b45-4a36-b7ed-92091f4bcaf6","system_id":"levelo_inurba_marseille","lat":43.309306,"lon":5.401424,"is_reserved":false,"is_disabled":false,"rental_uris":{"android":"levelo://app?vid=96807a8e-1b45-4a36-b7ed-92091f4bcaf6","ios":"levelo://app?vid=96807a8e-1b45-4a36-b7ed-92091f4bcaf6"},"vehicle_type_id":"4","last_reported":1762682956,"current_range_meters":17600,"station_id":"","pricing_plan_id":"cebpf4jnsgd1na2vs0mg"},{"bike_id":"122b9ac4-5495-40d4-9745-ea8a1ca5d2c9","system_id":"levelo_inurba_marseille","lat":43.28838,"lon":5.35883,"is_reserved":false,"is_disabled":false,"rental_uris":{"android":"levelo://app?vid=122b9ac4-5495-40d4-9745-ea8a1ca5d2c9","ios":"levelo://app?vid=122b9ac4-5495-40d4-9745-ea8a1ca5d2c9"},"vehicle_type_id":"4","last_reported":1762682956,"current_range_meters":17600,"station_id":"ce4bhb12rcd13ifvqem0","pricing_plan_id":"cebpf4jnsgd1na2vs0mg"},{"bike_id":"f0f552c9-dd5b-44e5-8d71-e97f687d54ee","system_id":"levelo_inurba_marseille","lat":43.284231,"lon":5.349859,"is_reserved":false,"is_disabled":true,"rental_uris":{"android":"levelo://app?vid=f0f552c9-dd5b-44e5-8d71-e97f687d54ee","ios":"levelo://app?vid=f0f552c9-dd5b-44e5-8d71-e97f687d54ee"},"vehicle_type_id":"4","last_reported":1762682956,"current_range_meters":17600,"station_id":"ce4bhbh2rcd13ifvqepg","pricing_plan_id":"cebpf4jnsgd1na2vs0mg"},{"bike_id":"77dd386a-c491-4903-b512-c2486567c465","system_id":"levelo_inurba_marseille","lat":43.289389,"lon":5.366219,"is_reserved":false,"is_disabled":false,"rental_uris":{"android":"levelo://app?vid=77dd386a-c491-4903-b512-c2486567c465","ios":"levelo://app?vid=77dd386a-c491-4903-b512-c2486567c465"},"vehicle_type_id":"4","last_reported":1762682956,"current_range_meters":17600,"station_id":"ce4bhap2rcd13ifvqek0","pricing_plan_id":"cebpf4jnsgd1na2vs0mg"},{"bike_id":"364d0616-97d6-4f92-9f30-01d1ddd9ba11","system_id":"levelo_inurba_marseille","lat":43.21191,"lon":5.35071,"is_reserved":false,"is_disabled":false,"rental_uris":{"android":"levelo://app?vid=364d0616-97d6-4f92-9f30-01d1ddd9ba11","ios":"levelo://app?vid=364d0616-97d6-4f92-9f30-01d1ddd9ba11"},"vehicle_type_id":"4","last_reported":1762682956,"current_range_meters":17600,"station_id":"st_cvj6sg6p6f1abm77japg","pricing_plan_id":"cebpf4jnsgd1na2vs0mg"},{"bike_id":"39ff6a52-7c15-4e36-9056-950efe8be9ca","system_id":"levelo_inurba_marseille","lat":43.28476,"lon":5.48389,"is_reserved":false,"is_disabled":false,"rental_uris":{"android":"levelo://app?vid=39ff6a52-7c15-4e36-9056-950efe8be9ca","ios":"levelo://app?vid=39ff6a52-7c15-4e36-9056-950efe8be9ca"},"vehicle_type_id":"4","last_reported":1762682956,"current_range_meters":17600,"station_id":"","pricing_plan_id":"cebpf4jnsgd1na2vs0mg"},{"bike_id":"19221564-6c26-476b-aaee-5e0642937db4","system_id":"levelo_inurba_marseille","lat":43.25117,"lon":5.4033,"is_reserved":false,"is_disabled":false,"rental_uris":{"android":"levelo://app?vid=19221564-6c26-476b-aaee-5e0642937db4","ios":"levelo://app?vid=19221564-6c26-476b-aaee-5e0642937db4"},"vehicle_type_id":"4","last_reported":1762682956,"current_range_meters":18000,"station_id":"ce4bhlh2rcd13ifvqgig","pricing_plan_id":"cebpf4jnsgd1na2vs0mg"},{"bike_id":"ac8a8750-1d87-4cf8-9c77-e78b99da5512","system_id":"levelo_inurba_marseille","lat":43.23605,"lon":5.361713,"is_reserved":false,"is_disabled":false,"rental_uris":{"android":"levelo://app?vid=ac8a8750-1d87-4cf8-9c77-e78b99da5512","ios":"levelo://app?vid=ac8a8750-1d87-4cf8-9c77-e78b99da5512"},"vehicle_type_id":"4","last_reported":1762682956,"current_range_meters":18000,"station_id":"","pricing_plan_id":"cebpf4jnsgd1na2vs0mg"},{"bike_id":"896a0fc4-e98e-425f-b646-7db4d5ace172","system_id":"levelo_inurba_marseille","lat":43.3199,"lon":5.38155,"is_reserved":false,"is_disabled":false,"rental_uris":{"android":"levelo://app?vid=896a0fc4-e98e-425f-b646-7db4d5ace172","ios":"levelo://app?vid=896a0fc4-e98e-425f-b646-7db4d5ace172"},"vehicle_type_id":"4","last_reported":1762682956,"current_range_meters":18000,"station_id":"ce4bhr12rcd13ifvqhpg","pricing_plan_id":"cebpf4jnsgd1na2vs0mg"},{"bike_id":"8142a16a-13a8-4636-80c8-f6fe96871316","system_id":"levelo_inurba_marseille","lat":43.24391,"lon":5.37066,"is_reserved":false,"is_disabled":true,"rental_uris":{"android":"levelo://app?vid=8142a16a-13a8-4636-80c8-f6fe96871316","ios":"levelo://app?vid=8142a16a-13a8-4636-80c8-f6fe96871316"},"vehicle_type_id":"4","last_reported":1762682956,"current_range_meters":18000,"station_id":"ce4bhhh2rcd13ifvqfk0","pricing_plan_id":"cebpf4jnsgd1na2vs0mg"},{"bike_id":"299c4817-5eda-4794-9cef-e96f1d16422a","system_id":"levelo_inurba_marseille","lat":43.25108,"lon":5.40327,"is_reserved":false,"is_disabled":false,"rental_uris":{"android":"levelo://app?vid=299c4817-5eda-4794-9cef-e96f1d16422a","ios":"levelo://app?vid=299c4817-5eda-4794-9cef-e96f1d16422a"},"vehicle_type_id":"4","last_reported":1762682956,"current_range_meters":18000,"station_id":"ce4bhlh2rcd13ifvqgig","pricing_plan_id":"cebpf4jnsgd1na2vs0mg"},{"bike_id":"4c9cbee1-31fa-4183-bd50-6f568d7cd241","system_id":"levelo_inurba_marseille","lat":43.288646,"lon":5.42516,"is_reserved":false,"is_disabled":false,"rental_uris":{"android":"levelo://app?vid=4c9cbee1-31fa-4183-bd50-6f568d7cd241","ios":"levelo://app?vid=4c9cbee1-31fa-4183-bd50-6f568d7cd241"},"vehicle_type_id":"4","last_reported":1762682956,"current_range_meters":18000,"station_id":"st_d3b462108ojc7389ooeg","pricing_plan_id":"cebpf4jnsgd1na2vs0mg"},{"bike_id":"26c32945-808a-409c-bed9-55194900b0be","system_id":"levelo_inurba_marseille","lat":43.26197,"lon":5.37447,"is_reserved":false,"is_disabled":false,"rental_uris":{"android":"levelo://app?vid=26c32945-808a-409c-bed9-55194900b0be","ios":"levelo://app?vid=26c32945-808a-409c-bed9-55194900b0be"},"vehicle_type_id":"4","last_reported":1762682956,"current_range_meters":18000,"station_id":"ce4bhgp2rcd13ifvqfc0","pricing_plan_id":"cebpf4jnsgd1na2vs0mg"},{"bike_id":"24de70df-9b80-4721-8771-f61cb7be1ef9","system_id":"levelo_inurba_marseille","lat":43.319939,"lon":5.381397,"is_reserved":false,"is_disabled":false,"rental_uris":{"android":"levelo://app?vid=24de70df-9b80-4721-8771-f61cb7be1ef9","ios":"levelo://app?vid=24de70df-9b80-4721-8771-f61cb7be1ef9"},"vehicle_type_id":"4","last_reported":1762682956,"current_range_meters":18000,"station_id":"ce4bhr12rcd13ifvqhpg","pricing_plan_id":"cebpf4jnsgd1na2vs0mg"},{"bike_id":"7ac68617-61f2-4b5c-b393-1a6d76597555","system_id":"levelo_inurba_marseille","lat":43.30549,"lon":5.38138,"is_reserved":false,"is_disabled":false,"rental_uris":{"android":"levelo://app?vid=7ac68617-61f2-4b5c-b393-1a6d76597555","ios":"levelo://app?vid=7ac68617-61f2-4b5c-b393-1a6d76597555"},"vehicle_type_id":"4","last_reported":1762682956,"current_range_meters":18000,"station_id":"","pricing_plan_id":"cebpf4jnsgd1na2vs0mg"},{"bike_id":"2d89b7f6-869e-48c6-8fde-7a553cbc2ce5","system_id":"levelo_inurba_marseille","lat":43.2929,"lon":5.36843,"is_reserved":false,"is_disabled":false,"rental_uris":{"android":"levelo://app?vid=2d89b7f6-869e-48c6-8fde-7a553cbc2ce5","ios":"levelo://app?vid=2d89b7f6-869e-48c6-8fde-7a553cbc2ce5"},"vehicle_type_id":"4","last_reported":1762682956,"current_range_meters":18000,"station_id":"ce4bhbp2rcd13ifvqesg","pricing_plan_id":"cebpf4jnsgd1na2vs0mg"},{"bike_id":"9d385ecd-2d66-408d-a33c-679f661e529b","system_id":"levelo_inurba_marseille","lat":43.23155,"lon":5.43701,"is_reserved":false,"is_disabled":false,"rental_uris":{"android":"levelo://app?vid=9d385ecd-2d66-408d-a33c-679f661e529b","ios":"levelo://app?vid=9d385ecd-2d66-408d-a33c-679f661e529b"},"vehicle_type_id":"4","last_reported":1762682956,"current_range_meters":18000,"station_id":"ce4bhmp2rcd13ifvqgog","pricing_plan_id":"cebpf4jnsgd1na2vs0mg"},{"bike_id":"1cb4814f-4d42-4232-b8ef-dc9988cfe62c","system_id":"levelo_inurba_marseille","lat":43.276331,"lon":5.361239,"is_reserved":false,"is_disabled":false,"rental_uris":{"android":"levelo://app?vid=1cb4814f-4d42-4232-b8ef-dc9988cfe62c","ios":"levelo://app?vid=1cb4814f-4d42-4232-b8ef-dc9988cfe62c"},"vehicle_type_id":"4","last_reported":1762682956,"current_range_meters":18800,"station_id":"ce4bgj92rcd13ifvqbe0","pricing_plan_id":"cebpf4jnsgd1na2vs0mg"},{"bike_id":"51a2794e-02eb-4f6d-aa6f-24293dd9b1d9","system_id":"levelo_inurba_marseille","lat":43.24082,"lon":5.37755,"is_reserved":false,"is_disabled":false,"rental_uris":{"android":"levelo://app?vid=51a2794e-02eb-4f6d-aa6f-24293dd9b1d9","ios":"levelo://app?vid=51a2794e-02eb-4f6d-aa6f-24293dd9b1d9"},"vehicle_type_id":"4","last_reported":1762682956,"current_range_meters":18800,"station_id":"ce4bhnp2rcd13ifvqgvg","pricing_plan_id":"cebpf4jnsgd1na2vs0mg"},{"bike_id":"2d003246-289e-4235-87e3-d86a55465f5e","system_id":"levelo_inurba_marseille","lat":43.29892,"lon":5.37537,"is_reserved":false,"is_disabled":false,"rental_uris":{"android":"levelo://app?vid=2d003246-289e-4235-87e3-d86a55465f5e","ios":"levelo://app?vid=2d003246-289e-4235-87e3-d86a55465f5e"},"vehicle_type_id":"4","last_reported":1762682956,"current_range_meters":18800,"station_id":"","pricing_plan_id":"cebpf4jnsgd1na2vs0mg"},{"bike_id":"a2ecfe82-7fe6-45e2-a362-b957ffb449ae","system_id":"levelo_inurba_marseille","lat":43.22575,"lon":5.41625,"is_reserved":false,"is_disabled":false,"rental_uris":{"android":"levelo://app?vid=a2ecfe82-7fe6-45e2-a362-b957ffb449ae","ios":"levelo://app?vid=a2ecfe82-7fe6-45e2-a362-b957ffb449ae"},"vehicle_type_id":"4","last_reported":1762682956,"current_range_meters":18800,"station_id":"st_d2o4gvlbi1j2169b742g","pricing_plan_id":"cebpf4jnsgd1na2vs0mg"},{"bike_id":"2d5afc8b-337e-4263-911e-8d13f9ab2e07","system_id":"levelo_inurba_marseille","lat":43.21746,"lon":5.34613,"is_reserved":false,"is_disabled":false,"rental_uris":{"android":"levelo://app?vid=2d5afc8b-337e-4263-911e-8d13f9ab2e07","ios":"levelo://app?vid=2d5afc8b-337e-4263-911e-8d13f9ab2e07"},"vehicle_type_id":"4","last_reported":1762682956,"current_range_meters":18800,"station_id":"","pricing_plan_id":"cebpf4jnsgd1na2vs0mg"},{"bike_id":"f6f4b32c-10d7-4130-9076-a7cc5b843ccf","system_id":"levelo_inurba_marseille","lat":43.225383,"lon":5.416356,"is_reserved":false,"is_disabled":false,"rental_uris":{"android":"levelo://app?vid=f6f4b32c-10d7-4130-9076-a7cc5b843ccf","ios":"levelo://app?vid=f6f4b32c-10d7-4130-9076-a7cc5b843ccf"},"vehicle_type_id":"4","last_reported":1762682956,"current_range_meters":18800,"station_id":"st_d2o4gvlbi1j2169b742g","pricing_plan_id":"cebpf4jnsgd1na2vs0mg"},{"bike_id":"d237b476-122b-4912-82d3-7a3ffe838a5b","system_id":"levelo_inurba_marseille","lat":43.29002,"lon":5.35597,"is_reserved":false,"is_disabled":false,"rental_uris":{"android":"levelo://app?vid=d237b476-122b-4912-82d3-7a3ffe838a5b","ios":"levelo://app?vid=d237b476-122b-4912-82d3-7a3ffe838a5b"},"vehicle_type_id":"4","last_reported":1762682956,"current_range_meters":18800,"station_id":"ce4bhb92rcd13ifvqen0","pricing_plan_id":"cebpf4jnsgd1na2vs0mg"},{"bike_id":"12397a92-86a8-4216-9e88-af5661758cc8","system_id":"levelo_inurba_marseille","lat":43.29025,"lon":5.35924,"is_reserved":false,"is_disabled":false,"rental_uris":{"android":"levelo://app?vid=12397a92-86a8-4216-9e88-af5661758cc8","ios":"levelo://app?vid=12397a92-86a8-4216-9e88-af5661758cc8"},"vehicle_type_id":"4","last_reported":1762682956,"current_range_meters":18800,"station_id":"ce4bha92rcd13ifvqeg0","pricing_plan_id":"cebpf4jnsgd1na2vs0mg"},{"bike_id":"93b49ebf-d9fa-49cd-9da3-22e867a810f3","system_id":"levelo_inurba_marseille","lat":43.29758,"lon":5.41096,"is_reserved":false,"is_disabled":false,"rental_uris":{"android":"levelo://app?vid=93b49ebf-d9fa-49cd-9da3-22e867a810f3","ios":"levelo://app?vid=93b49ebf-d9fa-49cd-9da3-22e867a810f3"},"vehicle_type_id":"4","last_reported":1762682956,"current_range_meters":18800,"station_id":"","pricing_plan_id":"cebpf4jnsgd1na2vs0mg"},{"bike_id":"e17839a3-96d6-489d-881e-36b6da5aeb29","system_id":"levelo_inurba_marseille","lat":43.28612,"lon":5.37066,"is_reserved":false,"is_disabled":true,"rental_uris":{"android":"levelo://app?vid=e17839a3-96d6-489d-881e-36b6da5aeb29","ios":"levelo://app?vid=e17839a3-96d6-489d-881e-36b6da5aeb29"},"vehicle_type_id":"4","last_reported":1762682956,"current_range_meters":18800,"station_id":"ce4bht12rcd13ifvqi60","pricing_plan_id":"cebpf4jnsgd1na2vs0mg"},{"bike_id":"df9d440d-f354-43e9-901a-5dd4c342b34f","system_id":"levelo_inurba_marseille","lat":43.25116,"lon":5.40318,"is_reserved":false,"is_disabled":false,"rental_uris":{"android":"levelo://app?vid=df9d440d-f354-43e9-901a-5dd4c342b34f","ios":"levelo://app?vid=df9d440d-f354-43e9-901a-5dd4c342b34f"},"vehicle_type_id":"4","last_reported":1762682956,"current_range_meters":18800,"station_id":"ce4bhlh2rcd13ifvqgig","pricing_plan_id":"cebpf4jnsgd1na2vs0mg"},{"bike_id":"bd5f8506-f345-40e8-ae51-1efb099c8943","system_id":"levelo_inurba_marseille","lat":43.32689,"lon":5.3922,"is_reserved":false,"is_disabled":false,"rental_uris":{"android":"levelo://app?vid=bd5f8506-f345-40e8-ae51-1efb099c8943","ios":"levelo://app?vid=bd5f8506-f345-40e8-ae51-1efb099c8943"},"vehicle_type_id":"4","last_reported":1762682956,"current_range_meters":18800,"station_id":"","pricing_plan_id":"cebpf4jnsgd1na2vs0mg"},{"bike_id":"7476204c-054f-4450-8e22-0ae63b3e2d97","system_id":"levelo_inurba_marseille","lat":43.251078,"lon":5.403277,"is_reserved":false,"is_disabled":false,"rental_uris":{"android":"levelo://app?vid=7476204c-054f-4450-8e22-0ae63b3e2d97","ios":"levelo://app?vid=7476204c-054f-4450-8e22-0ae63b3e2d97"},"vehicle_type_id":"4","last_reported":1762682956,"current_range_meters":18800,"station_id":"ce4bhlh2rcd13ifvqgig","pricing_plan_id":"cebpf4jnsgd1na2vs0mg"},{"bike_id":"b0347a0f-1ee9-440e-8ae7-cc70eb510d1e","system_id":"levelo_inurba_marseille","lat":43.28999,"lon":5.35604,"is_reserved":false,"is_disabled":false,"rental_uris":{"android":"levelo://app?vid=b0347a0f-1ee9-440e-8ae7-cc70eb510d1e","ios":"levelo://app?vid=b0347a0f-1ee9-440e-8ae7-cc70eb510d1e"},"vehicle_type_id":"4","last_reported":1762682956,"current_range_meters":18800,"station_id":"ce4bhb92rcd13ifvqen0","pricing_plan_id":"cebpf4jnsgd1na2vs0mg"},{"bike_id":"7a817bec-5685-4e8a-a65c-103a0ffa1604","system_id":"levelo_inurba_marseille","lat":43.29223,"lon":5.3606,"is_reserved":false,"is_disabled":false,"rental_uris":{"android":"levelo://app?vid=7a817bec-5685-4e8a-a65c-103a0ffa1604","ios":"levelo://app?vid=7a817bec-5685-4e8a-a65c-103a0ffa1604"},"vehicle_type_id":"4","last_reported":1762682956,"current_range_meters":19200,"station_id":"ce4bhbh2rcd13ifvqeqg","pricing_plan_id":"cebpf4jnsgd1na2vs0mg"},{"bike_id":"038ad542-c5e2-40e4-a6e2-86d7570b2bfc","system_id":"levelo_inurba_marseille","lat":43.29006,"lon":5.35628,"is_reserved":false,"is_disabled":false,"rental_uris":{"android":"levelo://app?vid=038ad542-c5e2-40e4-a6e2-86d7570b2bfc","ios":"levelo://app?vid=038ad542-c5e2-40e4-a6e2-86d7570b2bfc"},"vehicle_type_id":"4","last_reported":1762682956,"current_range_meters":19200,"station_id":"ce4bhb92rcd13ifvqen0","pricing_plan_id":"cebpf4jnsgd1na2vs0mg"},{"bike_id":"a17e4c74-5774-4556-8e8d-3f21edde9d59","system_id":"levelo_inurba_marseille","lat":43.30582,"lon":5.38977,"is_reserved":false,"is_disabled":false,"rental_uris":{"android":"levelo://app?vid=a17e4c74-5774-4556-8e8d-3f21edde9d59","ios":"levelo://app?vid=a17e4c74-5774-4556-8e8d-3f21edde9d59"},"vehicle_type_id":"4","last_reported":1762682956,"current_range_meters":19200,"station_id":"","pricing_plan_id":"cebpf4jnsgd1na2vs0mg"},{"bike_id":"9005ba9f-0f01-40da-beb1-f7f4c248fcd0","system_id":"levelo_inurba_marseille","lat":43.29224,"lon":5.36057,"is_reserved":false,"is_disabled":false,"rental_uris":{"android":"levelo://app?vid=9005ba9f-0f01-40da-beb1-f7f4c248fcd0","ios":"levelo://app?vid=9005ba9f-0f01-40da-beb1-f7f4c248fcd0"},"vehicle_type_id":"4","last_reported":1762682956,"current_range_meters":19200,"station_id":"ce4bhbh2rcd13ifvqeqg","pricing_plan_id":"cebpf4jnsgd1na2vs0mg"},{"bike_id":"58afb123-caf0-4f8c-8a2d-b3a6669c0bc6","system_id":"levelo_inurba_marseille","lat":43.248008,"lon":5.374569,"is_reserved":false,"is_disabled":true,"rental_uris":{"android":"levelo://app?vid=58afb123-caf0-4f8c-8a2d-b3a6669c0bc6","ios":"levelo://app?vid=58afb123-caf0-4f8c-8a2d-b3a6669c0bc6"},"vehicle_type_id":"4","last_reported":1762682956,"current_range_meters":19200,"station_id":"","pricing_plan_id":"cebpf4jnsgd1na2vs0mg"},{"bike_id":"84784703-87bc-4074-b561-a14d1aec009a","system_id":"levelo_inurba_marseille","lat":43.24381,"lon":5.37068,"is_reserved":false,"is_disabled":false,"rental_uris":{"android":"levelo://app?vid=84784703-87bc-4074-b561-a14d1aec009a","ios":"levelo://app?vid=84784703-87bc-4074-b561-a14d1aec009a"},"vehicle_type_id":"4","last_reported":1762682956,"current_range_meters":19200,"station_id":"ce4bhhh2rcd13ifvqfk0","pricing_plan_id":"cebpf4jnsgd1na2vs0mg"},{"bike_id":"e9a31700-e70e-424f-b0e5-3b6b93ab2abe","system_id":"levelo_inurba_marseille","lat":43.29254,"lon":5.37615,"is_reserved":false,"is_disabled":false,"rental_uris":{"android":"levelo://app?vid=e9a31700-e70e-424f-b0e5-3b6b93ab2abe","ios":"levelo://app?vid=e9a31700-e70e-424f-b0e5-3b6b93ab2abe"},"vehicle_type_id":"4","last_reported":1762682956,"current_range_meters":19200,"station_id":"ce4bgi12rcd13ifvqb80","pricing_plan_id":"cebpf4jnsgd1na2vs0mg"},{"bike_id":"f544e609-5f6e-49a9-8527-f1f86f491bca","system_id":"levelo_inurba_marseille","lat":43.24634,"lon":5.43135,"is_reserved":false,"is_disabled":false,"rental_uris":{"android":"levelo://app?vid=f544e609-5f6e-49a9-8527-f1f86f491bca","ios":"levelo://app?vid=f544e609-5f6e-49a9-8527-f1f86f491bca"},"vehicle_type_id":"4","last_reported":1762682956,"current_range_meters":19200,"station_id":"st_d2m6c4gdas8pm72e190g","pricing_plan_id":"cebpf4jnsgd1na2vs0mg"},{"bike_id":"dcc33e6f-e089-40dc-88d9-ca29f2e5f31c","system_id":"levelo_inurba_marseille","lat":43.30941,"lon":5.39024,"is_reserved":false,"is_disabled":true,"rental_uris":{"android":"levelo://app?vid=dcc33e6f-e089-40dc-88d9-ca29f2e5f31c","ios":"levelo://app?vid=dcc33e6f-e089-40dc-88d9-ca29f2e5f31c"},"vehicle_type_id":"4","last_reported":1762682956,"current_range_meters":19200,"station_id":"ce4bgup2rcd13ifvqco0","pricing_plan_id":"cebpf4jnsgd1na2vs0mg"},