{"last_updated":1685147900,"ttl":30,"version":"2.2","data":{"bikes":[{"bike_id":"0a126e65-6468-4c5e-89b7-0a0c5b6bb237","system_id":"levelo_inurba_marseille","lat":43.31341,"lon":5.367098,"is_reserved":false,"is_disabled":false,"rental_uris":{"android":"levelo://app?vid=0a126e65-6468-4c5e-89b7-0a0c5b6bb237","ios":"levelo://app?vid=0a126e65-6468-4c5e-89b7-0a0c5b6bb237"},"vehicle_type_id":"4","last_reported":1685147901,"current_range_meters":16000,"station_id":"ce4bgr92rcd13ifvqc6g","pricing_plan_id":"free"},{"bike_id":"2a33377e-1850-4eeb-8982-7e09c7ddba76","system_id":"levelo_inurba_marseille","lat":43.31232,"lon":5.36857,"is_reserved":false,"is_disabled":false,"rental_uris":{"android":"levelo://app?vid=2a33377e-1850-4eeb-8982-7e09c7ddba76","ios":"levelo://app?vid=2a33377e-1850-4eeb-8982-7e09c7ddba76"},"vehicle_type_id":"4","last_reported":1685147901,"current_range_meters":1200,"station_id":"ce4bgl92rcd13ifvqbq0","pricing_plan_id":"free"},{"bike_id":"00fc317d-0a87-4b16-ba6c-59937eb85e43","system_id":"levelo_inurba_marseille","lat":43.31225,"lon":5.36862,"is_reserved":false,"is_disabled":false,"rental_uris":{"android":"levelo://app?vid=00fc317d-0a87-4b16-ba6c-59937eb85e43","ios":"levelo://app?vid=00fc317d-0a87-4b16-ba6c-59937eb85e43"},"vehicle_type_id":"4","last_reported":1685147901,"current_range_meters":24400,"station_id":"ce4bgl92rcd13ifvqbq0","pricing_plan_id":"free"},{"bike_id":"b345635f-57a4-4d2a-bca6-fc1a6d219356","system_id":"levelo_inurba_marseille","lat":43.312239,"lon":5.368562,"is_reserved":false,"is_disabled":false,"rental_uris":{"android":"levelo://app?vid=b345635f-57a4-4d2a-bca6-fc1a6d219356","ios":"levelo://app?vid=b345635f-57a4-4d2a-bca6-fc1a6d219356"},"vehicle_type_id":"4","last_reported":1685147901,"current_range_meters":27600,"station_id":"ce4bgl92rcd13ifvqbq0","pricing_plan_id":"free"},{"bike_id":"349c46e8-67c1-4d60-9fd6-650467b3992a","system_id":"levelo_inurba_marseille","lat":43.314811,"lon":5.373104,"is_reserved":false,"is_disabled":false,"rental_uris":{"android":"levelo://app?vid=349c46e8-67c1-4d60-9fd6-650467b3992a","ios":"levelo://app?vid=349c46e8-67c1-4d60-9fd6-650467b3992a"},"vehicle_type_id":"4","last_reported":1685147901,"current_range_meters":29200,"station_id":"ce4bgt12rcd13ifvqcd0","pricing_plan_id":"free"},{"bike_id":"1c2de123-dcec-464d-97ba-bfd2d9dd076b","system_id":"levelo_inurba_marseille","lat":43.308614,"lon":5.372098,"is_reserved":false,"is_disabled":false,"rental_uris":{"android":"levelo://app?vid=1c2de123-dcec-464d-97ba-bfd2d9dd076b","ios":"levelo://app?vid=1c2de123-dcec-464d-97ba-bfd2d9dd076b"},"vehicle_type_id":"4","last_reported":1685147901,"current_range_meters":1200,"station_id":"ce4bguh2rcd13ifvqckg","pricing_plan_id":"free"},{"bike_id":"5921b083-e155-411c-bed6-98f631b3efdd","system_id":"levelo_inurba_marseille","lat":43.305989,"lon":5.37225,"is_reserved":false,"is_disabled":false,"rental_uris":{"android":"levelo://app?vid=5921b083-e155-411c-bed6-98f631b3efdd","ios":"levelo://app?vid=5921b083-e155-411c-bed6-98f631b3efdd"},"vehicle_type_id":"4","last_reported":1685147901,"current_range_meters":23600,"station_id":"ce4bgqh2rcd13ifvqc4g","pricing_plan_id":"free"},{"bike_id":"2266264b-65a5-4a24-a811-282d1ecc2634","system_id":"levelo_inurba_marseille","lat":43.305989,"lon":5.37225,"is_reserved":false,"is_disabled":false,"rental_uris":{"android":"levelo://app?vid=2266264b-65a5-4a24-a811-282d1ecc2634","ios":"levelo://app?vid=2266264b-65a5-4a24-a811-282d1ecc2634"},"vehicle_type_id":"4","last_reported":1685147901,"current_range_meters":6000,"station_id":"ce4bgqh2rcd13ifvqc4g","pricing_plan_id":"free"},{"bike_id":"b046c666-e1ca-44a1-bc5a-5b257bbc90d2","system_id":"levelo_inurba_marseille","lat":43.311131,"lon":5.377651,"is_reserved":false,"is_disabled":false,"rental_uris":{"android":"levelo://app?vid=b046c666-e1ca-44a1-bc5a-5b257bbc90d2","ios":"levelo://app?vid=b046c666-e1ca-44a1-bc5a-5b257bbc90d2"},"vehicle_type_id":"4","last_reported":1685147901,"current_range_meters":21200,"station_id":"ce4bgt92rcd13ifvqcg0","pricing_plan_id":"free"},{"bike_id":"225d8a01-bc78-4e23-af85-dbe6f04179a1","system_id":"levelo_inurba_marseille","lat":43.311131,"lon":5.377651,"is_reserved":false,"is_disabled":false,"rental_uris":{"android":"levelo://app?vid=225d8a01-bc78-4e23-af85-dbe6f04179a1","ios":"levelo://app?vid=225d8a01-bc78-4e23-af85-dbe6f04179a1"},"vehicle_type_id":"4","last_reported":1685147901,"current_range_meters":19600,"station_id":"ce4bgt92rcd13ifvqcg0","pricing_plan_id":"free"},{"bike_id":"788de9eb-f4cb-4110-987b-cfe690f1663a","system_id":"levelo_inurba_marseille","lat":43.3112,"lon":5.37762,"is_reserved":false,"is_disabled":false,"rental_uris":{"android":"levelo://app?vid=788de9eb-f4cb-4110-987b-cfe690f1663a","ios":"levelo://app?vid=788de9eb-f4cb-4110-987b-cfe690f1663a"},"vehicle_type_id":"4","last_reported":1685147901,"current_range_meters":6800,"station_id":"ce4bgt92rcd13ifvqcg0","pricing_plan_id":"free"},{"bike_id":"4bee7b74-07fc-4945-b25c-f9f79128a0dc","system_id":"levelo_inurba_marseille","lat":43.311131,"lon":5.377651,"is_reserved":false,"is_disabled":false,"rental_uris":{"android":"levelo://app?vid=4bee7b74-07fc-4945-b25c-f9f79128a0dc","ios":"levelo://app?vid=4bee7b74-07fc-4945-b25c-f9f79128a0dc"},"vehicle_type_id":"4","last_reported":1685147901,"current_range_meters":21600,"station_id":"ce4bgt92rcd13ifvqcg0","pricing_plan_id":"free"},{"bike_id":"9228354f-aee1-4f6d-bf9a-8f82b491c6d3","system_id":"levelo_inurba_marseille","lat":43.31698,"lon":5.37747,"is_reserved":false,"is_disabled":false,"rental_uris":{"android":"levelo://app?vid=9228354f-aee1-4f6d-bf9a-8f82b491c6d3","ios":"levelo://app?vid=9228354f-aee1-4f6d-bf9a-8f82b491c6d3"},"vehicle_type_id":"4","last_reported":1685147901,"current_range_meters":13200,"station_id":"ce4bgth2rcd13ifvqch0","pricing_plan_id":"free"},{"bike_id":"f47b8c93-abbd-42bc-9979-f8f6f8e17204","system_id":"levelo_inurba_marseille","lat":43.31703,"lon":5.37748,"is_reserved":false,"is_disabled":false,"rental_uris":{"android":"levelo://app?vid=f47b8c93-abbd-42bc-9979-f8f6f8e17204","ios":"levelo://app?vid=f47b8c93-abbd-42bc-9979-f8f6f8e17204"},"vehicle_type_id":"4","last_reported":1685147901,"current_range_meters":11600,"station_id":"ce4bgth2rcd13ifvqch0","pricing_plan_id":"free"},{"bike_id":"c0b0d062-8275-40cf-8874-7d9d55ab7e88","system_id":"levelo_inurba_marseille","lat":43.31713,"lon":5.37832,"is_reserved":false,"is_disabled":false,"rental_uris":{"android":"levelo://app?vid=c0b0d062-8275-40cf-8874-7d9d55ab7e88","ios":"levelo://app?vid=c0b0d062-8275-40cf-8874-7d9d55ab7e88"},"vehicle_type_id":"4","last_reported":1685147901,"current_range_meters":22800,"station_id":"","pricing_plan_id":"free"},{"bike_id":"7ce388ff-136c-4fd1-a816-5d5fb2d88dad","system_id":"levelo_inurba_marseille","lat":43.303046,"lon":5.368981,"is_reserved":false,"is_disabled":false,"rental_uris":{"android":"levelo://app?vid=7ce388ff-136c-4fd1-a816-5d5fb2d88dad","ios":"levelo://app?vid=7ce388ff-136c-4fd1-a816-5d5fb2d88dad"},"vehicle_type_id":"4","last_reported":1685147901,"current_range_meters":12000,"station_id":"ce4bgqh2rcd13ifvqc5g","pricing_plan_id":"free"},{"bike_id":"78d52d36-a3c9-44b7-bdda-4acec2819a91","system_id":"levelo_inurba_marseille","lat":43.303046,"lon":5.368981,"is_reserved":false,"is_disabled":false,"rental_uris":{"android":"levelo://app?vid=78d52d36-a3c9-44b7-bdda-4acec2819a91","ios":"levelo://app?vid=78d52d36-a3c9-44b7-bdda-4acec2819a91"},"vehicle_type_id":"4","last_reported":1685147901,"current_range_meters":3600,"station_id":"ce4bgqh2rcd13ifvqc5g","pricing_plan_id":"free"},{"bike_id":"bd018a7b-6550-4515-b552-d4f5c144f393","system_id":"levelo_inurba_marseille","lat":43.303046,"lon":5.368981,"is_reserved":false,"is_disabled":false,"rental_uris":{"android":"levelo://app?vid=bd018a7b-6550-4515-b552-d4f5c144f393","ios":"levelo://app?vid=bd018a7b-6550-4515-b552-d4f5c144f393"},"vehicle_type_id":"4","last_reported":1685147901,"current_range_meters":800,"station_id":"ce4bgqh2rcd13ifvqc5g","pricing_plan_id":"free"},{"bike_id":"5c6d3410-9c43-4d50-bb24-06969f52b17c","system_id":"levelo_inurba_marseille","lat":43.315289,"lon":5.380349,"is_reserved":false,"is_disabled":false,"rental_uris":{"android":"levelo://app?vid=5c6d3410-9c43-4d50-bb24-06969f52b17c","ios":"levelo://app?vid=5c6d3410-9c43-4d50-bb24-06969f52b17c"},"vehicle_type_id":"4","last_reported":1685147901,"current_range_meters":27600,"station_id":"ce4bhsp2rcd13ifvqi50","pricing_plan_id":"free"},{"bike_id":"871ed027-16f2-46ef-b6e2-047b2e70397b","system_id":"levelo_inurba_marseille","lat":43.315293,"lon":5.380349,"is_reserved":false,"is_disabled":false,"rental_uris":{"android":"levelo://app?vid=871ed027-16f2-46ef-b6e2-047b2e70397b","ios":"levelo://app?vid=871ed027-16f2-46ef-b6e2-047b2e70397b"},"vehicle_type_id":"4","last_reported":1685147901,"current_range_meters":18800,"station_id":"ce4bhsp2rcd13ifvqi50","pricing_plan_id":"free"},{"bike_id":"be40ac48-858a-4da4-a87d-5d3d0c6f70f4","system_id":"levelo_inurba_marseille","lat":43.308012,"lon":5.381511,"is_reserved":false,"is_disabled":false,"rental_uris":{"android":"levelo://app?vid=be40ac48-858a-4da4-a87d-5d3d0c6f70f4","ios":"levelo://app?vid=be40ac48-858a-4da4-a87d-5d3d0c6f70f4"},"vehicle_type_id":"4","last_reported":1685147901,"current_range_meters":22000,"station_id":"ce4bgt12rcd13ifvqce0","pricing_plan_id":"free"},{"bike_id":"5f66b5c8-c13e-4e6a-af73-99f8edb1fe4e","system_id":"levelo_inurba_marseille","lat":43.31993,"lon":5.38148,"is_reserved":false,"is_disabled":false,"rental_uris":{"android":"levelo://app?vid=5f66b5c8-c13e-4e6a-af73-99f8edb1fe4e","ios":"levelo://app?vid=5f66b5c8-c13e-4e6a-af73-99f8edb1fe4e"},"vehicle_type_id":"4","last_reported":1685147901,"current_range_meters":19200,"station_id":"ce4bhr12rcd13ifvqhpg","pricing_plan_id":"free"},{"bike_id":"15085faf-94d1-454c-8de1-c9482918e24b","system_id":"levelo_inurba_marseille","lat":43.31992,"lon":5.38151,"is_reserved":false,"is_disabled":false,"rental_uris":{"android":"levelo://app?vid=15085faf-94d1-454c-8de1-c9482918e24b","ios":"levelo://app?vid=15085faf-94d1-454c-8de1-c9482918e24b"},"vehicle_type_id":"4","last_reported":1685147901,"current_range_meters":6800,"station_id":"ce4bhr12rcd13ifvqhpg","pricing_plan_id":"free"},{"bike_id":"e5571f58-adb6-49b7-8c86-2d757ae8e1a0","system_id":"levelo_inurba_marseille","lat":43.31991,"lon":5.38153,"is_reserved":false,"is_disabled":false,"rental_uris":{"android":"levelo://app?vid=e5571f58-adb6-49b7-8c86-2d757ae8e1a0","ios":"levelo://app?vid=e5571f58-adb6-49b7-8c86-2d757ae8e1a0"},"vehicle_type_id":"4","last_reported":1685147901,"current_range_meters":16400,"station_id":"ce4bhr12rcd13ifvqhpg","pricing_plan_id":"free"},{"bike_id":"46349676-80ed-44a7-9bea-3a55a4175303","system_id":"levelo_inurba_marseille","lat":43.31996,"lon":5.38155,"is_reserved":false,"is_disabled":false,"rental_uris":{"android":"levelo://app?vid=46349676-80ed-44a7-9bea-3a55a4175303","ios":"levelo://app?vid=46349676-80ed-44a7-9bea-3a55a4175303"},"vehicle_type_id":"4","last_reported":1685147901,"current_range_meters":8000,"station_id":"ce4bhr12rcd13ifvqhpg","pricing_plan_id":"free"},{"bike_id":"97b214bf-1b61-4e27-8be9-9ee88855c248","system_id":"levelo_inurba_marseille","lat":43.313571,"lon":5.384829,"is_reserved":false,"is_disabled":false,"rental_uris":{"android":"levelo://app?vid=97b214bf-1b61-4e27-8be9-9ee88855c248","ios":"levelo://app?vid=97b214bf-1b61-4e27-8be9-9ee88855c248"},"vehicle_type_id":"4","last_reported":1685147901,"current_range_meters":22400,"station_id":"ce4bgt92rcd13ifvqcf0","pricing_plan_id":"free"},{"bike_id":"282e49a3-da6d-4821-a4f5-b04fc5157ca6","system_id":"levelo_inurba_marseille","lat":43.313571,"lon":5.384829,"is_reserved":false,"is_disabled":false,"rental_uris":{"android":"levelo://app?vid=282e49a3-da6d-4821-a4f5-b04fc5157ca6","ios":"levelo://app?vid=282e49a3-da6d-4821-a4f5-b04fc5157ca6"},"vehicle_type_id":"4","last_reported":1685147901,"current_range_meters":31200,"station_id":"ce4bgt92rcd13ifvqcf0","pricing_plan_id":"free"},{"bike_id":"48dcd346-2153-4058-8ad0-8be5a4f1cc28","system_id":"levelo_inurba_marseille","lat":43.31365,"lon":5.38495,"is_reserved":false,"is_disabled":false,"rental_uris":{"android":"levelo://app?vid=48dcd346-2153-4058-8ad0-8be5a4f1cc28","ios":"levelo://app?vid=48dcd346-2153-4058-8ad0-8be5a4f1cc28"},"vehicle_type_id":"4","last_reported":1685147901,"current_range_meters":17600,"station_id":"ce4bgt92rcd13ifvqcf0","pricing_plan_id":"free"},{"bike_id":"c54a9467-eb1a-467c-b99a-2911073c7cb1","system_id":"levelo_inurba_marseille","lat":43.313571,"lon":5.384829,"is_reserved":false,"is_disabled":false,"rental_uris":{"android":"levelo://app?vid=c54a9467-eb1a-467c-b99a-2911073c7cb1","ios":"levelo://app?vid=c54a9467-eb1a-467c-b99a-2911073c7cb1"},"vehicle_type_id":"4","last_reported":1685147901,"current_range_meters":24800,"station_id":"ce4bgt92rcd13ifvqcf0","pricing_plan_id":"free"},{"bike_id":"c7781619-e55e-4ac4-b8b3-4561d131adca","system_id":"levelo_inurba_marseille","lat":43.3137,"lon":5.38507,"is_reserved":false,"is_disabled":false,"rental_uris":{"android":"levelo://app?vid=c7781619-e55e-4ac4-b8b3-4561d131adca","ios":"levelo://app?vid=c7781619-e55e-4ac4-b8b3-4561d131adca"},"vehicle_type_id":"4","last_reported":1685147901,"current_range_meters":12800,"station_id":"ce4bgt92rcd13ifvqcf0","pricing_plan_id":"free"},{"bike_id":"7e202de2-e387-465e-b2bc-f14c5340d44c","system_id":"levelo_inurba_marseille","lat":43.299222,"lon":5.365554,"is_reserved":false,"is_disabled":false,"rental_uris":{"android":"levelo://app?vid=7e202de2-e387-465e-b2bc-f14c5340d44c","ios":"levelo://app?vid=7e202de2-e387-465e-b2bc-f14c5340d44c"},"vehicle_type_id":"4","last_reported":1685147901,"current_range_meters":20800,"station_id":"ce4bgm92rcd13ifvqbr0","pricing_plan_id":"free"},{"bike_id":"d3d16a94-954d-49f1-a93c-d8a52f036ca2","system_id":"levelo_inurba_marseille","lat":43.299222,"lon":5.365554,"is_reserved":false,"is_disabled":false,"rental_uris":{"android":"levelo://app?vid=d3d16a94-954d-49f1-a93c-d8a52f036ca2","ios":"levelo://app?vid=d3d16a94-954d-49f1-a93c-d8a52f036ca2"},"vehicle_type_id":"4","last_reported":1685147901,"current_range_meters":26400,"station_id":"ce4bgm92rcd13ifvqbr0","pricing_plan_id":"free"},{"bike_id":"eff6ca2d-1f27-4115-93a1-cf1c14eea6f2","system_id":"levelo_inurba_marseille","lat":43.311722,"lon":5.387247,"is_reserved":false,"is_disabled":false,"rental_uris":{"android":"levelo://app?vid=eff6ca2d-1f27-4115-93a1-cf1c14eea6f2","ios":"levelo://app?vid=eff6ca2d-1f27-4115-93a1-cf1c14eea6f2"},"vehicle_type_id":"4","last_reported":1685147901,"current_range_meters":13600,"station_id":"ce4bgv12rcd13ifvqcp0","pricing_plan_id":"free"},{"bike_id":"dd0c32eb-8cac-4b97-9064-bb4f748ffd7b","system_id":"levelo_inurba_marseille","lat":43.311722,"lon":5.387247,"is_reserved":false,"is_disabled":false,"rental_uris":{"android":"levelo://app?vid=dd0c32eb-8cac-4b97-9064-bb4f748ffd7b","ios":"levelo://app?vid=dd0c32eb-8cac-4b97-9064-bb4f748ffd7b"},"vehicle_type_id":"4","last_reported":1685147901,"current_range_meters":7600,"station_id":"ce4bgv12rcd13ifvqcp0","pricing_plan_id":"free"},{"bike_id":"987ab992-a693-4911-9172-eb63749184d5","system_id":"levelo_inurba_marseille","lat":43.311722,"lon":5.387247,"is_reserved":false,"is_disabled":false,"rental_uris":{"android":"levelo://app?vid=987ab992-a693-4911-9172-eb63749184d5","ios":"levelo://app?vid=987ab992-a693-4911-9172-eb63749184d5"},"vehicle_type_id":"4","last_reported":1685147901,"current_range_meters":30000,"station_id":"ce4bgv12rcd13ifvqcp0","pricing_plan_id":"free"},{"bike_id":"04e0eaad-e904-4500-aace-9c4504be684d","system_id":"levelo_inurba_marseille","lat":43.311722,"lon":5.387247,"is_reserved":false,"is_disabled":false,"rental_uris":{"android":"levelo://app?vid=04e0eaad-e904-4500-aace-9c4504be684d","ios":"levelo://app?vid=04e0eaad-e904-4500-aace-9c4504be684d"},"vehicle_type_id":"4","last_reported":1685147901,"current_range_meters":31600,"station_id":"ce4bgv12rcd13ifvqcp0","pricing_plan_id":"free"},{"bike_id":"2c0c5287-f10f-469c-a32a-4527f5465581","system_id":"levelo_inurba_marseille","lat":43.311722,"lon":5.387247,"is_reserved":false,"is_disabled":false,"rental_uris":{"android":"levelo://app?vid=2c0c5287-f10f-469c-a32a-4527f5465581","ios":"levelo://app?vid=2c0c5287-f10f-469c-a32a-4527f5465581"},"vehicle_type_id":"4","last_reported":1685147901,"current_range_meters":24800,"station_id":"ce4bgv12rcd13ifvqcp0","pricing_plan_id":"free"},{"bike_id":"036615ac-15bd-4462-8a6e-05a9d4177585","system_id":"levelo_inurba_marseille","lat":43.311722,"lon":5.387247,"is_reserved":false,"is_disabled":false,"rental_uris":{"android":"levelo://app?vid=036615ac-15bd-4462-8a6e-05a9d4177585","ios":"levelo://app?vid=036615ac-15bd-4462-8a6e-05a9d4177585"},"vehicle_type_id":"4","last_reported":1685147901,"current_range_meters":10800,"station_id":"ce4bgv12rcd13ifvqcp0","pricing_plan_id":"free"},{"bike_id":"491fdf1b-e7de-42ae-a485-64c4dd51625a","system_id":"levelo_inurba_marseille","lat":43.311722,"lon":5.387247,"is_reserved":false,"is_disabled":false,"rental_uris":{"android":"levelo://app?vid=491fdf1b-e7de-42ae-a485-64c4dd51625a","ios":"levelo://app?vid=491fdf1b-e7de-42ae-a485-64c4dd51625a"},"vehicle_type_id":"4","last_reported":1685147901,"current_range_meters":26000,"station_id":"ce4bgv12rcd13ifvqcp0","pricing_plan_id":"free"},{"bike_id":"9bc8203b-cfbb-48c5-a581-2a2c07bfea34","system_id":"levelo_inurba_marseille","lat":43.311722,"lon":5.387247,"is_reserved":false,"is_disabled":false,"rental_uris":{"android":"levelo://app?vid=9bc8203b-cfbb-48c5-a581-2a2c07bfea34","ios":"levelo://app?vid=9bc8203b-cfbb-48c5-a581-2a2c07bfea34"},"vehicle_type_id":"4","last_reported":1685147901,"current_range_meters":6800,"station_id":"ce4bgv12rcd13ifvqcp0","pricing_plan_id":"free"},{"bike_id":"60e2837e-6285-4f26-a75d-5fd173cbcc2f","system_id":"levelo_inurba_marseille","lat":43.311722,"lon":5.387247,"is_reserved":false,"is_disabled":false,"rental_uris":{"android":"levelo://app?vid=60e2837e-6285-4f26-a75d-5fd173cbcc2f","ios":"levelo://app?vid=60e2837e-6285-4f26-a75d-5fd173cbcc2f"},"vehicle_type_id":"4","last_reported":1685147901,"current_range_meters":13200,"station_id":"ce4bgv12rcd13ifvqcp0","pricing_plan_id":"free"},{"bike_id":"1a4af876-56a3-4c79-99e8-7b3fbc690ddb","system_id":"levelo_inurba_marseille","lat":43.311722,"lon":5.387247,"is_reserved":false,"is_disabled":false,"rental_uris":{"android":"levelo://app?vid=1a4af876-56a3-4c79-99e8-7b3fbc690ddb","ios":"levelo://app?vid=1a4af876-56a3-4c79-99e8-7b3fbc690ddb"},"vehicle_type_id":"4","last_reported":1685147901,"current_range_meters":10000,"station_id":"ce4bgv12rcd13ifvqcp0","pricing_plan_id":"free"},{"bike_id":"6aadd20f-ee22-42f7-9c69-f3066c5dfcf1","system_id":"levelo_inurba_marseille","lat":43.328371,"lon":5.366909,"is_reserved":false,"is_disabled":false,"rental_uris":{"android":"levelo://app?vid=6aadd20f-ee22-42f7-9c69-f3066c5dfcf1","ios":"levelo://app?vid=6aadd20f-ee22-42f7-9c69-f3066c5dfcf1"},"vehicle_type_id":"4","last_reported":1685147901,"current_range_meters":17600,"station_id":"ce4bhs92rcd13ifvqi0g","pricing_plan_id":"free"},{"bike_id":"15bdd509-ac6b-486d-a3af-74b1c552f2cb","system_id":"levelo_inurba_marseille","lat":43.32833,"lon":5.36689,"is_reserved":false,"is_disabled":false,"rental_uris":{"android":"levelo://app?vid=15bdd509-ac6b-486d-a3af-74b1c552f2cb","ios":"levelo://app?vid=15bdd509-ac6b-486d-a3af-74b1c552f2cb"},"vehicle_type_id":"4","last_reported":1685147901,"current_range_meters":14000,"station_id":"ce4bhs92rcd13ifvqi0g","pricing_plan_id":"free"},{"bike_id":"d7f266a6-ce15-437e-86aa-7112b7a80e12","system_id":"levelo_inurba_marseille","lat":43.30969,"lon":5.39004,"is_reserved":false,"is_disabled":false,"rental_uris":{"android":"levelo://app?vid=d7f266a6-ce15-437e-86aa-7112b7a80e12","ios":"levelo://app?vid=d7f266a6-ce15-437e-86aa-7112b7a80e12"},"vehicle_type_id":"4","last_reported":1685147901,"current_range_meters":0,"station_id":"ce4bgup2rcd13ifvqco0","pricing_plan_id":"free"},{"bike_id":"8bb1d7f1-9be1-4919-8baa-9f6b422912aa","system_id":"levelo_inurba_marseille","lat":43.296921,"lon":5.376579,"is_reserved":false,"is_disabled":false,"rental_uris":{"android":"levelo://app?vid=8bb1d7f1-9be1-4919-8baa-9f6b422912aa","ios":"levelo://app?vid=8bb1d7f1-9be1-4919-8baa-9f6b422912aa"},"vehicle_type_id":"4","last_reported":1685147901,"current_range_meters":0,"station_id":"ce4bgkh2rcd13ifvqbl0","pricing_plan_id":"free"},{"bike_id":"cf1e6ba6-2d61-4285-95d3-eb9b767af4f5","system_id":"levelo_inurba_marseille","lat":43.30961,"lon":5.39045,"is_reserved":false,"is_disabled":false,"rental_uris":{"android":"levelo://app?vid=cf1e6ba6-2d61-4285-95d3-eb9b767af4f5","ios":"levelo://app?vid=cf1e6ba6-2d61-4285-95d3-eb9b767af4f5"},"vehicle_type_id":"4","last_reported":1685147901,"current_range_meters":0,"station_id":"ce4bgup2rcd13ifvqco0","pricing_plan_id":"free"},{"bike_id":"b760dc60-6d37-49c7-8dde-1a371397cdb8","system_id":"levelo_inurba_marseille","lat":43.317557,"lon":5.390173,"is_reserved":false,"is_disabled":false,"rental_uris":{"android":"levelo://app?vid=b760dc60-6d37-49c7-8dde-1a371397cdb8","ios":"levelo://app?vid=b760dc60-6d37-49c7-8dde-1a371397cdb8"},"vehicle_type_id":"4","last_reported":1685147901,"current_range_meters":28800,"station_id":"ce4bhqp2rcd13ifvqhng","pricing_plan_id":"free"},{"bike_id":"0a80d5e9-ad49-415c-9ece-72c4359f066d","system_id":"levelo_inurba_marseille","lat":43.317557,"lon":5.390173,"is_reserved":false,"is_disabled":false,"rental_uris":{"android":"levelo://app?vid=0a80d5e9-ad49-415c-9ece-72c4359f066d","ios":"levelo://app?vid=0a80d5e9-ad49-415c-9ece-72c4359f066d"},"vehicle_type_id":"4","last_reported":1685147901,"current_range_meters":28800,"station_id":"ce4bhqp2rcd13ifvqhng","pricing_plan_id":"free"},{"bike_id":"774ce504-2767-4c7f-b9b2-adba2127074c","system_id":"levelo_inurba_marseille","lat":43.317557,"lon":5.390173,"is_reserved":false,"is_disabled":false,"rental_uris":{"android":"levelo://app?vid=774ce504-2767-4c7f-b9b2-adba2127074c","ios":"levelo://app?vid=774ce504-2767-4c7f-b9b2-adba2127074c"},"vehicle_type_id":"4","last_reported":1685147901,"current_range_meters":29200,"station_id":"ce4bhqp2rcd13ifvqhng","pricing_plan_id":"free"},{"bike_id":"cf3fb89a-c959-4f23-8f03-a98d306de8af","system_id":"levelo_inurba_marseille","lat":43.317557,"lon":5.390173,"is_reserved":false,"is_disabled":false,"rental_uris":{"android":"levelo://app?vid=cf3fb89a-c959-4f23-8f03-a98d306de8af","ios":"levelo://app?vid=cf3fb89a-c959-4f23-8f03-a98d306de8af"},"vehicle_type_id":"4","last_reported":1685147901,"current_range_meters":24000,"station_id":"ce4bhqp2rcd13ifvqhng","pricing_plan_id":"free"},{"bike_id":"3289b7bc-6138-4ebb-8d82-2b0e69f1f911","system_id":"levelo_inurba_marseille","lat":43.296556,"lon":5.381226,"is_reserved":false,"is_disabled":false,"rental_uris":{"android":"levelo://app?vid=3289b7bc-6138-4ebb-8d82-2b0e69f1f911","ios":"levelo://app?vid=3289b7bc-6138-4ebb-8d82-2b0e69f1f911"},"vehicle_type_id":"4","last_reported":1685147901,"current_range_meters":1200,"station_id":"","pricing_plan_id":"free"},{"bike_id":"1dd64752-88c9-462a-9847-928f3c6352ea","system_id":"levelo_inurba_marseille","lat":43.30306,"lon":5.39213,"is_reserved":false,"is_disabled":false,"rental_uris":{"android":"levelo://app?vid=1dd64752-88c9-462a-9847-928f3c6352ea","ios":"levelo://app?vid=1dd64752-88c9-462a-9847-928f3c6352ea"},"vehicle_type_id":"4","last_reported":1685147901,"current_range_meters":28000,"station_id":"ce4bgkh2rcd13ifvqbk0","pricing_plan_id":"free"},{"bike_id":"c2dfad4e-203a-4a55-a71e-d6cfd1a7defc","system_id":"levelo_inurba_marseille","lat":43.292311,"lon":5.360731,"is_reserved":false,"is_disabled":false,"rental_uris":{"android":"levelo://app?vid=c2dfad4e-203a-4a55-a71e-d6cfd1a7defc","ios":"levelo://app?vid=c2dfad4e-203a-4a55-a71e-d6cfd1a7defc"},"vehicle_type_id":"4","last_reported":1685147901,"current_range_meters":29600,"station_id":"ce4bhbh2rcd13ifvqeqg","pricing_plan_id":"free"},{"bike_id":"315d986d-a715-4adb-aaf2-56d320044e5c","system_id":"levelo_inurba_marseille","lat":43.292311,"lon":5.360731,"is_reserved":false,"is_disabled":false,"rental_uris":{"android":"levelo://app?vid=315d986d-a715-4adb-aaf2-56d320044e5c","ios":"levelo://app?vid=315d986d-a715-4adb-aaf2-56d320044e5c"},"vehicle_type_id":"4","last_reported":1685147901,"current_range_meters":31200,"station_id":"ce4bhbh2rcd13ifvqeqg","pricing_plan_id":"free"},{"bike_id":"8e23444a-31c7-407b-8b1e-89757185ba86","system_id":"levelo_inurba_marseille","lat":43.29218,"lon":5.3606,"is_reserved":false,"is_disabled":false,"rental_uris":{"android":"levelo://app?vid=8e23444a-31c7-407b-8b1e-89757185ba86","ios":"levelo://app?vid=8e23444a-31c7-407b-8b1e-89757185ba86"},"vehicle_type_id":"4","last_reported":1685147901,"current_range_meters":30000,"station_id":"ce4bhbh2rcd13ifvqeqg","pricing_plan_id":"free"},{"bike_id":"7a0c1491-e7d2-4a04-8ef2-607ed3e9d341","system_id":"levelo_inurba_marseille","lat":43.292311,"lon":5.360731,"is_reserved":false,"is_disabled":false,"rental_uris":{"android":"levelo://app?vid=7a0c1491-e7d2-4a04-8ef2-607ed3e9d341","ios":"levelo://app?vid=7a0c1491-e7d2-4a04-8ef2-607ed3e9d341"},"vehicle_type_id":"4","last_reported":1685147901,"current_range_meters":28000,"station_id":"ce4bhbh2rcd13ifvqeqg","pricing_plan_id":"free"},{"bike_id":"9b95ba0a-ae04-4e7e-a6b2-8ec80f05adfe","system_id":"levelo_inurba_marseille","lat":43.29884,"lon":5.38904,"is_reserved":false,"is_disabled":false,"rental_uris":{"android":"levelo://app?vid=9b95ba0a-ae04-4e7e-a6b2-8ec80f05adfe","ios":"levelo://app?vid=9b95ba0a-ae04-4e7e-a6b2-8ec80f05adfe"},"vehicle_type_id":"4","last_reported":1685147901,"current_range_meters":22400,"station_id":"ce4bh392rcd13ifvqdl0","pricing_plan_id":"free"},{"bike_id":"fe3613ba-e557-44d4-91f9-0781c919e764","system_id":"levelo_inurba_marseille","lat":43.25102,"lon":5.403214,"is_reserved":false,"is_disabled":false,"rental_uris":{"android":"levelo://app?vid=fe3613ba-e557-44d4-91f9-0781c919e764","ios":"levelo://app?vid=fe3613ba-e557-44d4-91f9-0781c919e764"},"vehicle_type_id":"4","last_reported":1685147901,"current_range_meters":0,"station_id":"ce4bhlh2rcd13ifvqgig","pricing_plan_id":"free"},{"bike_id":"e83efb7a-b88f-4299-9dc5-8a967077d059","system_id":"levelo_inurba_marseille","lat":43.309038,"lon":5.396546,"is_reserved":false,"is_disabled":false,"rental_uris":{"android":"levelo://app?vid=e83efb7a-b88f-4299-9dc5-8a967077d059","ios":"levelo://app?vid=e83efb7a-b88f-4299-9dc5-8a967077d059"},"vehicle_type_id":"4","last_reported":1685147901,"current_range_meters":5600,"station_id":"ce4bh012rcd13ifvqcv0","pricing_plan_id":"free"},{"bike_id":"edb52245-6968-48e1-9132-075a25aab304","system_id":"levelo_inurba_marseille","lat":43.309038,"lon":5.396546,"is_reserved":false,"is_disabled":false,"rental_uris":{"android":"levelo://app?vid=edb52245-6968-48e1-9132-075a25aab304","ios":"levelo://app?vid=edb52245-6968-48e1-9132-075a25aab304"},"vehicle_type_id":"4","last_reported":1685147901,"current_range_meters":5200,"station_id":"ce4bh012rcd13ifvqcv0","pricing_plan_id":"free"},{"bike_id":"71db31b8-daf0-4fa8-b1dc-837820a25bdf","system_id":"levelo_inurba_marseille","lat":43.309038,"lon":5.396546,"is_reserved":false,"is_disabled":false,"rental_uris":{"android":"levelo://app?vid=71db31b8-daf0-4fa8-b1dc-837820a25bdf","ios":"levelo://app?vid=71db31b8-daf0-4fa8-b1dc-837820a25bdf"},"vehicle_type_id":"4","last_reported":1685147901,"current_range_meters":1200,"station_id":"ce4bh012rcd13ifvqcv0","pricing_plan_id":"free"},{"bike_id":"91251e0d-693c-48c7-a8af-45ec73cdd651","system_id":"levelo_inurba_marseille","lat":43.309038,"lon":5.396546,"is_reserved":false,"is_disabled":false,"rental_uris":{"android":"levelo://app?vid=91251e0d-693c-48c7-a8af-45ec73cdd651","ios":"levelo://app?vid=91251e0d-693c-48c7-a8af-45ec73cdd651"},"vehicle_type_id":"4","last_reported":1685147901,"current_range_meters":0,"station_id":"ce4bh012rcd13ifvqcv0","pricing_plan_id":"free"},{"bike_id":"f11bd125-d0cf-458a-b939-a63fa0ed69bf","system_id":"levelo_inurba_marseille","lat":43.30886,"lon":5.39635,"is_reserved":false,"is_disabled":false,"rental_uris":{"android":"levelo://app?vid=f11bd125-d0cf-458a-b939-a63fa0ed69bf","ios":"levelo://app?vid=f11bd125-d0cf-458a-b939-a63fa0ed69bf"},"vehicle_type_id":"4","last_reported":1685147901,"current_range_meters":1200,"station_id":"ce4bh012rcd13ifvqcv0","pricing_plan_id":"free"},{"bike_id":"9478e152-99c3-48df-855b-261b6cece1cc","system_id":"levelo_inurba_marseille","lat":43.31327,"lon":5.39696,"is_reserved":false,"is_disabled":false,"rental_uris":{"android":"levelo://app?vid=9478e152-99c3-48df-855b-261b6cece1cc","ios":"levelo://app?vid=9478e152-99c3-48df-855b-261b6cece1cc"},"vehicle_type_id":"4","last_reported":1685147901,"current_range_meters":12800,"station_id":"ce4bgvp2rcd13ifvqcu0","pricing_plan_id":"free"},{"bike_id":"341e13a8-3375-47ef-b6ab-bbcc35bdf995","system_id":"levelo_inurba_marseille","lat":43.29187,"lon":5.35799,"is_reserved":false,"is_disabled":false,"rental_uris":{"android":"levelo://app?vid=341e13a8-3375-47ef-b6ab-bbcc35bdf995","ios":"levelo://app?vid=341e13a8-3375-47ef-b6ab-bbcc35bdf995"},"vehicle_type_id":"4","last_reported":1685147901,"current_range_meters":30800,"station_id":"ce4bhb12rcd13ifvqel0","pricing_plan_id":"free"},{"bike_id":"18ed3bb2-12e7-491c-8c4f-55f6c405d52f","system_id":"levelo_inurba_marseille","lat":43.31322,"lon":5.39697,"is_reserved":false,"is_disabled":false,"rental_uris":{"android":"levelo://app?vid=18ed3bb2-12e7-491c-8c4f-55f6c405d52f","ios":"levelo://app?vid=18ed3bb2-12e7-491c-8c4f-55f6c405d52f"},"vehicle_type_id":"4","last_reported":1685147901,"current_range_meters":400,"station_id":"ce4bgvp2rcd13ifvqcu0","pricing_plan_id":"free"},{"bike_id":"c88bf966-df87-446e-b878-f0da731addc0","system_id":"levelo_inurba_marseille","lat":43.302008,"lon":5.394694,"is_reserved":false,"is_disabled":false,"rental_uris":{"android":"levelo://app?vid=c88bf966-df87-446e-b878-f0da731addc0","ios":"levelo://app?vid=c88bf966-df87-446e-b878-f0da731addc0"},"vehicle_type_id":"4","last_reported":1685147901,"current_range_meters":26800,"station_id":"ce4bh0p2rcd13ifvqd70","pricing_plan_id":"free"},{"bike_id":"64cea5c8-cb1f-474a-8a43-981d0cf2cdad","system_id":"levelo_inurba_marseille","lat":43.304274,"lon":5.397513,"is_reserved":false,"is_disabled":false,"rental_uris":{"android":"levelo://app?vid=64cea5c8-cb1f-474a-8a43-981d0cf2cdad","ios":"levelo://app?vid=64cea5c8-cb1f-474a-8a43-981d0cf2cdad"},"vehicle_type_id":"4","last_reported":1685147901,"current_range_meters":13200,"station_id":"ce4bh092rcd13ifvqd20","pricing_plan_id":"free"},{"bike_id":"7d5d4173-4e35-435e-b609-6830ccb16249","system_id":"levelo_inurba_marseille","lat":43.304274,"lon":5.397513,"is_reserved":false,"is_disabled":false,"rental_uris":{"android":"levelo://app?vid=7d5d4173-4e35-435e-b609-6830ccb16249","ios":"levelo://app?vid=7d5d4173-4e35-435e-b609-6830ccb16249"},"vehicle_type_id":"4","last_reported":1685147901,"current_range_meters":25600,"station_id":"ce4bh092rcd13ifvqd20","pricing_plan_id":"free"},{"bike_id":"45965492-6db7-4b9c-828f-19d1b9ad4ff1","system_id":"levelo_inurba_marseille","lat":43.33048,"lon":5.38911,"is_reserved":false,"is_disabled":false,"rental_uris":{"android":"levelo://app?vid=45965492-6db7-4b9c-828f-19d1b9ad4ff1","ios":"levelo://app?vid=45965492-6db7-4b9c-828f-19d1b9ad4ff1"},"vehicle_type_id":"4","last_reported":1685147901,"current_range_meters":3600,"station_id":"ce4bhr92rcd13ifvqhrg","pricing_plan_id":"free"},{"bike_id":"f445296b-8f7c-42f6-82cf-090bfc4f7485","system_id":"levelo_inurba_marseille","lat":43.33048,"lon":5.38912,"is_reserved":false,"is_disabled":false,"rental_uris":{"android":"levelo://app?vid=f445296b-8f7c-42f6-82cf-090bfc4f7485","ios":"levelo://app?vid=f445296b-8f7c-42f6-82cf-090bfc4f7485"},"vehicle_type_id":"4","last_reported":1685147901,"current_range_meters":12400,"station_id":"ce4bhr92rcd13ifvqhrg","pricing_plan_id":"free"},{"bike_id":"cea0c1f5-387c-4679-afaf-5f721de794e7","system_id":"levelo_inurba_marseille","lat":43.33048,"lon":5.38912,"is_reserved":false,"is_disabled":false,"rental_uris":{"android":"levelo://app?vid=cea0c1f5-387c-4679-afaf-5f721de794e7","ios":"levelo://app?vid=cea0c1f5-387c-4679-afaf-5f721de794e7"},"vehicle_type_id":"4","last_reported":1685147901,"current_range_meters":4800,"station_id":"ce4bhr92rcd13ifvqhrg","pricing_plan_id":"free"},{"bike_id":"59ad26f4-bea2-44d4-91c5-7ad5356ff707","system_id":"levelo_inurba_marseille","lat":43.290104,"lon":5.356111,"is_reserved":false,"is_disabled":false,"rental_uris":{"android":"levelo://app?vid=59ad26f4-bea2-44d4-91c5-7ad5356ff707","ios":"levelo://app?vid=59ad26f4-bea2-44d4-91c5-7ad5356ff707"},"vehicle_type_id":"4","last_reported":1685147901,"current_range_meters":5600,"station_id":"ce4bhb92rcd13ifvqen0","pricing_plan_id":"free"},{"bike_id":"351acc09-8a17-4508-bb95-e897624cde5b","system_id":"levelo_inurba_marseille","lat":43.33051,"lon":5.38912,"is_reserved":false,"is_disabled":false,"rental_uris":{"android":"levelo://app?vid=351acc09-8a17-4508-bb95-e897624cde5b","ios":"levelo://app?vid=351acc09-8a17-4508-bb95-e897624cde5b"},"vehicle_type_id":"4","last_reported":1685147901,"current_range_meters":6000,"station_id":"ce4bhr92rcd13ifvqhrg","pricing_plan_id":"free"},{"bike_id":"02362672-78e1-4667-9a77-d71f91f94365","system_id":"levelo_inurba_marseille","lat":43.33754,"lon":5.37434,"is_reserved":false,"is_disabled":false,"rental_uris":{"android":"levelo://app?vid=02362672-78e1-4667-9a77-d71f91f94365","ios":"levelo://app?vid=02362672-78e1-4667-9a77-d71f91f94365"},"vehicle_type_id":"4","last_reported":1685147901,"current_range_meters":18000,"station_id":"","pricing_plan_id":"free"},{"bike_id":"a954faba-4229-4088-83c1-30dbf2ffd26c","system_id":"levelo_inurba_marseille","lat":43.28751,"lon":5.3709,"is_reserved":false,"is_disabled":false,"rental_uris":{"android":"levelo://app?vid=a954faba-4229-4088-83c1-30dbf2ffd26c","ios":"levelo://app?vid=a954faba-4229-4088-83c1-30dbf2ffd26c"},"vehicle_type_id":"4","last_reported":1685147901,"current_range_meters":4400,"station_id":"","pricing_plan_id":"free"},{"bike_id":"556c6db1-2600-4c2b-9521-aae8453517c1","system_id":"levelo_inurba_marseille","lat":43.33758,"lon":5.3744,"is_reserved":false,"is_disabled":false,"rental_uris":{"android":"levelo://app?vid=556c6db1-2600-4c2b-9521-aae8453517c1","ios":"levelo://app?vid=556c6db1-2600-4c2b-9521-aae8453517c1"},"vehicle_type_id":"4","last_reported":1685147901,"current_range_meters":20400,"station_id":"","pricing_plan_id":"free"},{"bike_id":"7401fe54-02c9-4f07-95d2-62dd9e5e67dd","system_id":"levelo_inurba_marseille","lat":43.30642,"lon":5.401031,"is_reserved":false,"is_disabled":false,"rental_uris":{"android":"levelo://app?vid=7401fe54-02c9-4f07-95d2-62dd9e5e67dd","ios":"levelo://app?vid=7401fe54-02c9-4f07-95d2-62dd9e5e67dd"},"vehicle_type_id":"4","last_reported":1685147901,"current_range_meters":0,"station_id":"ce4bh112rcd13ifvqda0","pricing_plan_id":"free"},{"bike_id":"eb8ac404-8a95-4fc7-819a-ea19315069af","system_id":"levelo_inurba_marseille","lat":43.33762,"lon":5.37426,"is_reserved":false,"is_disabled":false,"rental_uris":{"android":"levelo://app?vid=eb8ac404-8a95-4fc7-819a-ea19315069af","ios":"levelo://app?vid=eb8ac404-8a95-4fc7-819a-ea19315069af"},"vehicle_type_id":"4","last_reported":1685147901,"current_range_meters":26000,"station_id":"","pricing_plan_id":"free"},{"bike_id":"141c14ea-594b-43ee-894e-8c44af1dcd73","system_id":"levelo_inurba_marseille","lat":43.33759,"lon":5.37447,"is_reserved":false,"is_disabled":false,"rental_uris":{"android":"levelo://app?vid=141c14ea-594b-43ee-894e-8c44af1dcd73","ios":"levelo://app?vid=141c14ea-594b-43ee-894e-8c44af1dcd73"},"vehicle_type_id":"4","last_reported":1685147901,"current_range_meters":13600,"station_id":"","pricing_plan_id":"free"},{"bike_id":"0db149bf-f8c9-48ec-a7e2-bc8c39f4a018","system_id":"levelo_inurba_marseille","lat":43.30642,"lon":5.401031,"is_reserved":false,"is_disabled":false,"rental_uris":{"android":"levelo://app?vid=0db149bf-f8c9-48ec-a7e2-bc8c39f4a018","ios":"levelo://app?vid=0db149bf-f8c9-48ec-a7e2-bc8c39f4a018"},"vehicle_type_id":"4","last_reported":1685147901,"current_range_meters":28800,"station_id":"ce4bh112rcd13ifvqda0","pricing_plan_id":"free"},{"bike_id":"91a34033-fdaf-4096-94b5-8b99c0e926e1","system_id":"levelo_inurba_marseille","lat":43.30642,"lon":5.401031,"is_reserved":false,"is_disabled":false,"rental_uris":{"android":"levelo://app?vid=91a34033-fdaf-4096-94b5-8b99c0e926e1","ios":"levelo://app?vid=91a34033-fdaf-4096-94b5-8b99c0e926e1"},"vehicle_type_id":"4","last_reported":1685147901,"current_range_meters":26400,"station_id":"ce4bh112rcd13ifvqda0","pricing_plan_id":"free"},{"bike_id":"5bd96745-9a19-4fe7-b597-4db9cabdc957","system_id":"levelo_inurba_marseille","lat":43.33766,"lon":5.37423,"is_reserved":false,"is_disabled":false,"rental_uris":{"android":"levelo://app?vid=5bd96745-9a19-4fe7-b597-4db9cabdc957","ios":"levelo://app?vid=5bd96745-9a19-4fe7-b597-4db9cabdc957"},"vehicle_type_id":"4","last_reported":1685147901,"current_range_meters":27600,"station_id":"","pricing_plan_id":"free"},{"bike_id":"1490fad1-fe90-4399-a2f2-79545cf03a2b","system_id":"levelo_inurba_marseille","lat":43.337578,"lon":5.374791,"is_reserved":false,"is_disabled":false,"rental_uris":{"android":"levelo://app?vid=1490fad1-fe90-4399-a2f2-79545cf03a2b","ios":"levelo://app?vid=1490fad1-fe90-4399-a2f2-79545cf03a2b"},"vehicle_type_id":"4","last_reported":1685147901,"current_range_meters":29600,"station_id":"","pricing_plan_id":"free"},{"bike_id":"31f720de-218a-4b5b-b0aa-c3e6fae4c874","system_id":"levelo_inurba_marseille","lat":43.30642,"lon":5.401031,"is_reserved":false,"is_disabled":false,"rental_uris":{"android":"levelo://app?vid=31f720de-218a-4b5b-b0aa-c3e6fae4c874","ios":"levelo://app?vid=31f720de-218a-4b5b-b0aa-c3e6fae4c874"},"vehicle_type_id":"4","last_reported":1685147901,"current_range_meters":30000,"station_id":"ce4bh112rcd13ifvqda0","pricing_plan_id":"free"},{"bike_id":"0f915385-1fd5-4f54-896c-f56a11a31d3d","system_id":"levelo_inurba_marseille","lat":43.33769,"lon":5.37428,"is_reserved":false,"is_disabled":false,"rental_uris":{"android":"levelo://app?vid=0f915385-1fd5-4f54-896c-f56a11a31d3d","ios":"levelo://app?vid=0f915385-1fd5-4f54-896c-f56a11a31d3d"},"vehicle_type_id":"4","last_reported":1685147901,"current_range_meters":20800,"station_id":"","pricing_plan_id":"free"},{"bike_id":"5a638d11-38ee-4dd3-a52a-47cf4a7378ed","system_id":"levelo_inurba_marseille","lat":43.30642,"lon":5.401031,"is_reserved":false,"is_disabled":false,"rental_uris":{"android":"levelo://app?vid=5a638d11-38ee-4dd3-a52a-47cf4a7378ed","ios":"levelo://app?vid=5a638d11-38ee-4dd3-a52a-47cf4a7378ed"},"vehicle_type_id":"4","last_reported":1685147901,"current_range_meters":6000,"station_id":"ce4bh112rcd13ifvqda0","pricing_plan_id":"free"},{"bike_id":"e2749322-6534-489d-8bdb-9c3cc2fdb47d","system_id":"levelo_inurba_marseille","lat":43.30642,"lon":5.401031,"is_reserved":false,"is_disabled":false,"rental_uris":{"android":"levelo://app?vid=e2749322-6534-489d-8bdb-9c3cc2fdb47d","ios":"levelo://app?vid=e2749322-6534-489d-8bdb-9c3cc2fdb47d"},"vehicle_type_id":"4","last_reported":1685147901,"current_range_meters":17600,"station_id":"ce4bh112rcd13ifvqda0","pricing_plan_id":"free"},{"bike_id":"f797c5e2-b815-452b-9e05-8cb889a95a4f","system_id":"levelo_inurba_marseille","lat":43.30642,"lon":5.401031,"is_reserved":false,"is_disabled":false,"rental_uris":{"android":"levelo://app?vid=f797c5e2-b815-452b-9e05-8cb889a95a4f","ios":"levelo://app?vid=f797c5e2-b815-452b-9e05-8cb889a95a4f"},"vehicle_type_id":"4","last_reported":1685147901,"current_range_meters":13600,"station_id":"ce4bh112rcd13ifvqda0","pricing_plan_id":"free"},{"bike_id":"e8d4de35-29c4-4bdc-a3e9-f427265b274e","system_id":"levelo_inurba_marseille","lat":43.30642,"lon":5.401031,"is_reserved":false,"is_disabled":false,"rental_uris":{"android":"levelo://app?vid=e8d4de35-29c4-4bdc-a3e9-f427265b274e","ios":"levelo://app?vid=e8d4de35-29c4-4bdc-a3e9-f427265b274e"},"vehicle_type_id":"4","last_reported":1685147901,"current_range_meters":26400,"station_id":"ce4bh112rcd13ifvqda0","pricing_plan_id":"free"},{"bike_id":"4d10c0e5-929e-4710-8c03-e1ff207f124f","system_id":"levelo_inurba_marseille","lat":43.298681,"lon":5.397225,"is_reserved":false,"is_disabled":false,"rental_uris":{"android":"levelo://app?vid=4d10c0e5-929e-4710-8c03-e1ff207f124f","ios":"levelo://app?vid=4d10c0e5-929e-4710-8c03-e1ff207f124f"},"vehicle_type_id":"4","last_reported":1685147901,"current_range_meters":31200,"station_id":"ce4bh0h2rcd13ifvqd50","pricing_plan_id":"free"},{"bike_id":"f51f25d6-0ef6-496e-ac0a-4b6fef334b92","system_id":"levelo_inurba_marseille","lat":43.286591,"lon":5.363346,"is_reserved":false,"is_disabled":false,"rental_uris":{"android":"levelo://app?vid=f51f25d6-0ef6-496e-ac0a-4b6fef334b92","ios":"levelo://app?vid=f51f25d6-0ef6-496e-ac0a-4b6fef334b92"},"vehicle_type_id":"4","last_reported":1685147901,"current_range_meters":28400,"station_id":"ce4bhah2rcd13ifvqej0","pricing_plan_id":"free"},{"bike_id":"f0615f9c-0e22-4e6e-b005-aaff40544634","system_id":"levelo_inurba_marseille","lat":43.298681,"lon":5.397225,"is_reserved":false,"is_disabled":false,"rental_uris":{"android":"levelo://app?vid=f0615f9c-0e22-4e6e-b005-aaff40544634","ios":"levelo://app?vid=f0615f9c-0e22-4e6e-b005-aaff40544634"},"vehicle_type_id":"4","last_reported":1685147901,"current_range_meters":0,"station_id":"ce4bh0h2rcd13ifvqd50","pricing_plan_id":"free"},{"bike_id":"9723a328-d09d-4249-8021-ef338cc09f7f","system_id":"levelo_inurba_marseille","lat":43.286593,"lon":5.363346,"is_reserved":false,"is_disabled":false,"rental_uris":{"android":"levelo://app?vid=9723a328-d09d-4249-8021-ef338cc09f7f","ios":"levelo://app?vid=9723a328-d09d-4249-8021-ef338cc09f7f"},"vehicle_type_id":"4","last_reported":1685147901,"current_range_meters":31200,"station_id":"ce4bhah2rcd13ifvqej0","pricing_plan_id":"free"},{"bike_id":"1eba3e86-89d0-40a3-aa4e-8a4246a9a64a","system_id":"levelo_inurba_marseille","lat":43.302759,"lon":5.400793,"is_reserved":false,"is_disabled":false,"rental_uris":{"android":"levelo://app?vid=1eba3e86-89d0-40a3-aa4e-8a4246a9a64a","ios":"levelo://app?vid=1eba3e86-89d0-40a3-aa4e-8a4246a9a64a"},"vehicle_type_id":"4","last_reported":1685147901,"current_range_meters":23600,"station_id":"ce4bgvh2rcd13ifvqcs0","pricing_plan_id":"free"},{"bike_id":"6048184b-c848-443a-b794-e90d739c08fb","system_id":"levelo_inurba_marseille","lat":43.295196,"lon":5.39397,"is_reserved":false,"is_disabled":false,"rental_uris":{"android":"levelo://app?vid=6048184b-c848-443a-b794-e90d739c08fb","ios":"levelo://app?vid=6048184b-c848-443a-b794-e90d739c08fb"},"vehicle_type_id":"4","last_reported":1685147901,"current_range_meters":24400,"station_id":"ce4bh292rcd13ifvqdf0","pricing_plan_id":"free"},{"bike_id":"c777f176-a84d-4aa0-9b98-25ff57aa68ff","system_id":"levelo_inurba_marseille","lat":43.302759,"lon":5.400793,"is_reserved":false,"is_disabled":false,"rental_uris":{"android":"levelo://app?vid=c777f176-a84d-4aa0-9b98-25ff57aa68ff","ios":"levelo://app?vid=c777f176-a84d-4aa0-9b98-25ff57aa68ff"},"vehicle_type_id":"4","last_reported":1685147901,"current_range_meters":12000,"station_id":"ce4bgvh2rcd13ifvqcs0","pricing_plan_id":"free"},{"bike_id":"c90037cd-a76f-4d3e-8909-e4e10cbd2318","system_id":"levelo_inurba_marseille","lat":43.30241,"lon":5.40049,"is_reserved":false,"is_disabled":false,"rental_uris":{"android":"levelo://app?vid=c90037cd-a76f-4d3e-8909-e4e10cbd2318","ios":"levelo://app?vid=c90037cd-a76f-4d3e-8909-e4e10cbd2318"},"vehicle_type_id":"4","last_reported":1685147901,"current_range_meters":5600,"station_id":"","pricing_plan_id":"free"},{"bike_id":"64584541-41da-458f-8589-51ee5f231232","system_id":"levelo_inurba_marseille","lat":43.302759,"lon":5.400793,"is_reserved":false,"is_disabled":false,"rental_uris":{"android":"levelo://app?vid=64584541-41da-458f-8589-51ee5f231232","ios":"levelo://app?vid=64584541-41da-458f-8589-51ee5f231232"},"vehicle_type_id":"4","last_reported":1685147901,"current_range_meters":29200,"station_id":"ce4bgvh2rcd13ifvqcs0","pricing_plan_id":"free"},{"bike_id":"709f07da-ef7c-44a3-98cb-10b97d904ce4","system_id":"levelo_inurba_marseille","lat":43.302759,"lon":5.400793,"is_reserved":false,"is_disabled":false,"rental_uris":{"android":"levelo://app?vid=709f07da-ef7c-44a3-98cb-10b97d904ce4","ios":"levelo://app?vid=709f07da-ef7c-44a3-98cb-10b97d904ce4"},"vehicle_type_id":"4","last_reported":1685147901,"current_range_meters":10000,"station_id":"ce4bgvh2rcd13ifvqcs0","pricing_plan_id":"free"},{"bike_id":"618dec31-78c4-46ef-a8f4-e5383e12f70e","system_id":"levelo_inurba_marseille","lat":43.302759,"lon":5.400793,"is_reserved":false,"is_disabled":false,"rental_uris":{"android":"levelo://app?vid=618dec31-78c4-46ef-a8f4-e5383e12f70e","ios":"levelo://app?vid=618dec31-78c4-46ef-a8f4-e5383e12f70e"},"vehicle_type_id":"4","last_reported":1685147901,"current_range_meters":8800,"station_id":"ce4bgvh2rcd13ifvqcs0","pricing_plan_id":"free"},{"bike_id":"cf79a257-9c4f-4d20-a818-2e27263360bf","system_id":"levelo_inurba_marseille","lat":43.284534,"lon":5.358662,"is_reserved":false,"is_disabled":false,"rental_uris":{"android":"levelo://app?vid=cf79a257-9c4f-4d20-a818-2e27263360bf","ios":"levelo://app?vid=cf79a257-9c4f-4d20-a818-2e27263360bf"},"vehicle_type_id":"4","last_reported":1685147901,"current_range_meters":31200,"station_id":"ce4bhah2rcd13ifvqei0","pricing_plan_id":"free"},{"bike_id":"28a6ea0c-1f23-4f97-9dc0-ed6153b0fdc2","system_id":"levelo_inurba_marseille","lat":43.284534,"lon":5.358662,"is_reserved":false,"is_disabled":false,"rental_uris":{"android":"levelo://app?vid=28a6ea0c-1f23-4f97-9dc0-ed6153b0fdc2","ios":"levelo://app?vid=28a6ea0c-1f23-4f97-9dc0-ed6153b0fdc2"},"vehicle_type_id":"4","last_reported":1685147901,"current_range_meters":31200,"station_id":"ce4bhah2rcd13ifvqei0","pricing_plan_id":"free"},{"bike_id":"c2628bff-6f47-458f-8862-b950821b94ce","system_id":"levelo_inurba_marseille","lat":43.284534,"lon":5.358662,"is_reserved":false,"is_disabled":false,"rental_uris":{"android":"levelo://app?vid=c2628bff-6f47-458f-8862-b950821b94ce","ios":"levelo://app?vid=c2628bff-6f47-458f-8862-b950821b94ce"},"vehicle_type_id":"4","last_reported":1685147901,"current_range_meters":25600,"station_id":"ce4bhah2rcd13ifvqei0","pricing_plan_id":"free"},{"bike_id":"bcfea7c1-d3f7-44cc-8dc8-ecdc4f3f257c","system_id":"levelo_inurba_marseille","lat":43.284534,"lon":5.358662,"is_reserved":false,"is_disabled":false,"rental_uris":{"android":"levelo://app?vid=bcfea7c1-d3f7-44cc-8dc8-ecdc4f3f257c","ios":"levelo://app?vid=bcfea7c1-d3f7-44cc-8dc8-ecdc4f3f257c"},"vehicle_type_id":"4","last_reported":1685147901,"current_range_meters":30800,"station_id":"ce4bhah2rcd13ifvqei0","pricing_plan_id":"free"},{"bike_id":"e64c4e4e-3d18-40a8-abc7-10b26217e348","system_id":"levelo_inurba_marseille","lat":43.284534,"lon":5.358662,"is_reserved":false,"is_disabled":false,"rental_uris":{"android":"levelo://app?vid=e64c4e4e-3d18-40a8-abc7-10b26217e348","ios":"levelo://app?vid=e64c4e4e-3d18-40a8-abc7-10b26217e348"},"vehicle_type_id":"4","last_reported":1685147901,"current_range_meters":9600,"station_id":"ce4bhah2rcd13ifvqei0","pricing_plan_id":"free"},{"bike_id":"363f589b-b3a0-4edf-adbf-07f19b28c863","system_id":"levelo_inurba_marseille","lat":43.285856,"lon":5.350771,"is_reserved":false,"is_disabled":false,"rental_uris":{"android":"levelo://app?vid=363f589b-b3a0-4edf-adbf-07f19b28c863","ios":"levelo://app?vid=363f589b-b3a0-4edf-adbf-07f19b28c863"},"vehicle_type_id":"4","last_reported":1685147901,"current_range_meters":31200,"station_id":"ce4bhch2rcd13ifvqeug","pricing_plan_id":"free"},{"bike_id":"e2127832-7e43-4e89-8d3d-00e9fc401535","system_id":"levelo_inurba_marseille","lat":43.285856,"lon":5.350771,"is_reserved":false,"is_disabled":false,"rental_uris":{"android":"levelo://app?vid=e2127832-7e43-4e89-8d3d-00e9fc401535","ios":"levelo://app?vid=e2127832-7e43-4e89-8d3d-00e9fc401535"},"vehicle_type_id":"4","last_reported":1685147901,"current_range_meters":31200,"station_id":"ce4bhch2rcd13ifvqeug","pricing_plan_id":"free"},{"bike_id":"7c171c01-fa60-4ea6-8dfc-5b86636faae7","system_id":"levelo_inurba_marseille","lat":43.285856,"lon":5.350771,"is_reserved":false,"is_disabled":false,"rental_uris":{"android":"levelo://app?vid=7c171c01-fa60-4ea6-8dfc-5b86636faae7","ios":"levelo://app?vid=7c171c01-fa60-4ea6-8dfc-5b86636faae7"},"vehicle_type_id":"4","last_reported":1685147901,"current_range_meters":31200,"station_id":"ce4bhch2rcd13ifvqeug","pricing_plan_id":"free"},{"bike_id":"fd722a03-52b2-4be0-8f69-98caaa2f1827","system_id":"levelo_inurba_marseille","lat":43.28616,"lon":5.35101,"is_reserved":false,"is_disabled":false,"rental_uris":{"android":"levelo://app?vid=fd722a03-52b2-4be0-8f69-98caaa2f1827","ios":"levelo://app?vid=fd722a03-52b2-4be0-8f69-98caaa2f1827"},"vehicle_type_id":"4","last_reported":1685147901,"current_range_meters":31200,"station_id":"","pricing_plan_id":"free"},{"bike_id":"579eea96-b1e2-44ba-afb5-a8496e262068","system_id":"levelo_inurba_marseille","lat":43.28615,"lon":5.35102,"is_reserved":false,"is_disabled":false,"rental_uris":{"android":"levelo://app?vid=579eea96-b1e2-44ba-afb5-a8496e262068","ios":"levelo://app?vid=579eea96-b1e2-44ba-afb5-a8496e262068"},"vehicle_type_id":"4","last_reported":1685147901,"current_range_meters":31200,"station_id":"","pricing_plan_id":"free"},{"bike_id":"6f383150-e027-4e07-bc9a-59b36ae1822d","system_id":"levelo_inurba_marseille","lat":43.285856,"lon":5.350771,"is_reserved":false,"is_disabled":false,"rental_uris":{"android":"levelo://app?vid=6f383150-e027-4e07-bc9a-59b36ae1822d","ios":"levelo://app?vid=6f383150-e027-4e07-bc9a-59b36ae1822d"},"vehicle_type_id":"4","last_reported":1685147901,"current_range_meters":31200,"station_id":"ce4bhch2rcd13ifvqeug","pricing_plan_id":"free"},{"bike_id":"b59e3972-bd7c-4ead-92bc-777cdd993bde","system_id":"levelo_inurba_marseille","lat":43.286595,"lon":5.386795,"is_reserved":false,"is_disabled":false,"rental_uris":{"android":"levelo://app?vid=b59e3972-bd7c-4ead-92bc-777cdd993bde","ios":"levelo://app?vid=b59e3972-bd7c-4ead-92bc-777cdd993bde"},"vehicle_type_id":"4","last_reported":1685147901,"current_range_meters":3200,"station_id":"ce4bh492rcd13ifvqdug","pricing_plan_id":"free"},{"bike_id":"25c965dc-b65e-4428-8602-44d7c1814020","system_id":"levelo_inurba_marseille","lat":43.2882,"lon":5.39155,"is_reserved":false,"is_disabled":false,"rental_uris":{"android":"levelo://app?vid=25c965dc-b65e-4428-8602-44d7c1814020","ios":"levelo://app?vid=25c965dc-b65e-4428-8602-44d7c1814020"},"vehicle_type_id":"4","last_reported":1685147901,"current_range_meters":0,"station_id":"","pricing_plan_id":"free"},{"bike_id":"b2b4c97d-4feb-49ce-8ac2-9614480a179c","system_id":"levelo_inurba_marseille","lat":43.323464,"lon":5.406297,"is_reserved":false,"is_disabled":false,"rental_uris":{"android":"levelo://app?vid=b2b4c97d-4feb-49ce-8ac2-9614480a179c","ios":"levelo://app?vid=b2b4c97d-4feb-49ce-8ac2-9614480a179c"},"vehicle_type_id":"4","last_reported":1685147901,"current_range_meters":30800,"station_id":"ce4bhq92rcd13ifvqhjg","pricing_plan_id":"free"},{"bike_id":"5371bbd7-c92f-4fd0-bddb-eca2c7cd5808","system_id":"levelo_inurba_marseille","lat":43.323464,"lon":5.406297,"is_reserved":false,"is_disabled":false,"rental_uris":{"android":"levelo://app?vid=5371bbd7-c92f-4fd0-bddb-eca2c7cd5808","ios":"levelo://app?vid=5371bbd7-c92f-4fd0-bddb-eca2c7cd5808"},"vehicle_type_id":"4","last_reported":1685147901,"current_range_meters":31200,"station_id":"ce4bhq92rcd13ifvqhjg","pricing_plan_id":"free"},{"bike_id":"879270a9-f3d5-4fbd-87f6-2ab604ed569b","system_id":"levelo_inurba_marseille","lat":43.323464,"lon":5.406297,"is_reserved":false,"is_disabled":false,"rental_uris":{"android":"levelo://app?vid=879270a9-f3d5-4fbd-87f6-2ab604ed569b","ios":"levelo://app?vid=879270a9-f3d5-4fbd-87f6-2ab604ed569b"},"vehicle_type_id":"4","last_reported":1685147901,"current_range_meters":6400,"station_id":"ce4bhq92rcd13ifvqhjg","pricing_plan_id":"free"},{"bike_id":"6939637e-15d6-4532-99c1-c88a05c70740","system_id":"levelo_inurba_marseille","lat":43.323464,"lon":5.406297,"is_reserved":false,"is_disabled":false,"rental_uris":{"android":"levelo://app?vid=6939637e-15d6-4532-99c1-c88a05c70740","ios":"levelo://app?vid=6939637e-15d6-4532-99c1-c88a05c70740"},"vehicle_type_id":"4","last_reported":1685147901,"current_range_meters":3200,"station_id":"ce4bhq92rcd13ifvqhjg","pricing_plan_id":"free"},{"bike_id":"d5fd31a8-b7a4-48f5-9751-f4ba7b16e78e","system_id":"levelo_inurba_marseille","lat":43.323464,"lon":5.406297,"is_reserved":false,"is_disabled":false,"rental_uris":{"android":"levelo://app?vid=d5fd31a8-b7a4-48f5-9751-f4ba7b16e78e","ios":"levelo://app?vid=d5fd31a8-b7a4-48f5-9751-f4ba7b16e78e"},"vehicle_type_id":"4","last_reported":1685147901,"current_range_meters":31600,"station_id":"ce4bhq92rcd13ifvqhjg","pricing_plan_id":"free"},{"bike_id":"f7643fda-0266-4755-82bf-fcd27a6a7f7a","system_id":"levelo_inurba_marseille","lat":43.323464,"lon":5.406297,"is_reserved":false,"is_disabled":false,"rental_uris":{"android":"levelo://app?vid=f7643fda-0266-4755-82bf-fcd27a6a7f7a","ios":"levelo://app?vid=f7643fda-0266-4755-82bf-fcd27a6a7f7a"},"vehicle_type_id":"4","last_reported":1685147901,"current_range_meters":17200,"station_id":"ce4bhq92rcd13ifvqhjg","pricing_plan_id":"free"},{"bike_id":"313049e2-232c-4f54-9b26-81086cea8884","system_id":"levelo_inurba_marseille","lat":43.33728,"lon":5.39185,"is_reserved":false,"is_disabled":false,"rental_uris":{"android":"levelo://app?vid=313049e2-232c-4f54-9b26-81086cea8884","ios":"levelo://app?vid=313049e2-232c-4f54-9b26-81086cea8884"},"vehicle_type_id":"4","last_reported":1685147901,"current_range_meters":11600,"station_id":"","pricing_plan_id":"free"},{"bike_id":"5d688962-049d-4fff-85f5-9a49fd012e0e","system_id":"levelo_inurba_marseille","lat":43.323464,"lon":5.406297,"is_reserved":false,"is_disabled":false,"rental_uris":{"android":"levelo://app?vid=5d688962-049d-4fff-85f5-9a49fd012e0e","ios":"levelo://app?vid=5d688962-049d-4fff-85f5-9a49fd012e0e"},"vehicle_type_id":"4","last_reported":1685147901,"current_range_meters":2800,"station_id":"ce4bhq92rcd13ifvqhjg","pricing_plan_id":"free"},{"bike_id":"0b05c968-cd6a-4e95-8036-39a56cbb4427","system_id":"levelo_inurba_marseille","lat":43.28855,"lon":5.39296,"is_reserved":false,"is_disabled":false,"rental_uris":{"android":"levelo://app?vid=0b05c968-cd6a-4e95-8036-39a56cbb4427","ios":"levelo://app?vid=0b05c968-cd6a-4e95-8036-39a56cbb4427"},"vehicle_type_id":"4","last_reported":1685147901,"current_range_meters":30000,"station_id":"ce4bh2p2rcd13ifvqdi0","pricing_plan_id":"free"},{"bike_id":"4468bee5-b17f-4400-8697-93607e5ab696","system_id":"levelo_inurba_marseille","lat":43.28855,"lon":5.39298,"is_reserved":false,"is_disabled":false,"rental_uris":{"android":"levelo://app?vid=4468bee5-b17f-4400-8697-93607e5ab696","ios":"levelo://app?vid=4468bee5-b17f-4400-8697-93607e5ab696"},"vehicle_type_id":"4","last_reported":1685147901,"current_range_meters":30400,"station_id":"ce4bh2p2rcd13ifvqdi0","pricing_plan_id":"free"},{"bike_id":"05535726-18cf-4c4e-a127-a20c64b49b2f","system_id":"levelo_inurba_marseille","lat":43.288501,"lon":5.393087,"is_reserved":false,"is_disabled":false,"rental_uris":{"android":"levelo://app?vid=05535726-18cf-4c4e-a127-a20c64b49b2f","ios":"levelo://app?vid=05535726-18cf-4c4e-a127-a20c64b49b2f"},"vehicle_type_id":"4","last_reported":1685147901,"current_range_meters":20800,"station_id":"ce4bh2p2rcd13ifvqdi0","pricing_plan_id":"free"},{"bike_id":"204b318d-2df0-4d66-ba92-9ab9c3f27acc","system_id":"levelo_inurba_marseille","lat":43.284219,"lon":5.3497,"is_reserved":false,"is_disabled":false,"rental_uris":{"android":"levelo://app?vid=204b318d-2df0-4d66-ba92-9ab9c3f27acc","ios":"levelo://app?vid=204b318d-2df0-4d66-ba92-9ab9c3f27acc"},"vehicle_type_id":"4","last_reported":1685147901,"current_range_meters":31200,"station_id":"ce4bhbh2rcd13ifvqepg","pricing_plan_id":"free"},{"bike_id":"1da85eb2-1e92-4400-b43b-c8a59fb908cc","system_id":"levelo_inurba_marseille","lat":43.28421,"lon":5.35003,"is_reserved":false,"is_disabled":false,"rental_uris":{"android":"levelo://app?vid=1da85eb2-1e92-4400-b43b-c8a59fb908cc","ios":"levelo://app?vid=1da85eb2-1e92-4400-b43b-c8a59fb908cc"},"vehicle_type_id":"4","last_reported":1685147901,"current_range_meters":31200,"station_id":"ce4bhbh2rcd13ifvqepg","pricing_plan_id":"free"},{"bike_id":"44ed831c-f698-4f5c-8811-4ec22a2d389d","system_id":"levelo_inurba_marseille","lat":43.284217,"lon":5.349697,"is_reserved":false,"is_disabled":false,"rental_uris":{"android":"levelo://app?vid=44ed831c-f698-4f5c-8811-4ec22a2d389d","ios":"levelo://app?vid=44ed831c-f698-4f5c-8811-4ec22a2d389d"},"vehicle_type_id":"4","last_reported":1685147901,"current_range_meters":22800,"station_id":"ce4bhbh2rcd13ifvqepg","pricing_plan_id":"free"},{"bike_id":"c94bd58b-8fbd-4df6-8937-d0f1424c003b","system_id":"levelo_inurba_marseille","lat":43.289363,"lon":5.396322,"is_reserved":false,"is_disabled":false,"rental_uris":{"android":"levelo://app?vid=c94bd58b-8fbd-4df6-8937-d0f1424c003b","ios":"levelo://app?vid=c94bd58b-8fbd-4df6-8937-d0f1424c003b"},"vehicle_type_id":"4","last_reported":1685147901,"current_range_meters":28800,"station_id":"ce4bh3h2rcd13ifvqdn0","pricing_plan_id":"free"},{"bike_id":"a181355c-c9d5-41ad-937d-b00064f6edd7","system_id":"levelo_inurba_marseille","lat":43.280382,"lon":5.369291,"is_reserved":false,"is_disabled":false,"rental_uris":{"android":"levelo://app?vid=a181355c-c9d5-41ad-937d-b00064f6edd7","ios":"levelo://app?vid=a181355c-c9d5-41ad-937d-b00064f6edd7"},"vehicle_type_id":"4","last_reported":1685147901,"current_range_meters":29200,"station_id":"ce4bha12rcd13ifvqef0","pricing_plan_id":"free"},{"bike_id":"8890bd81-eef3-4652-98ec-0a7d6cd649c0","system_id":"levelo_inurba_marseille","lat":43.280382,"lon":5.369291,"is_reserved":false,"is_disabled":false,"rental_uris":{"android":"levelo://app?vid=8890bd81-eef3-4652-98ec-0a7d6cd649c0","ios":"levelo://app?vid=8890bd81-eef3-4652-98ec-0a7d6cd649c0"},"vehicle_type_id":"4","last_reported":1685147901,"current_range_meters":30000,"station_id":"ce4bha12rcd13ifvqef0","pricing_plan_id":"free"},{"bike_id":"5ec07c7d-8feb-4917-9106-973a84124306","system_id":"levelo_inurba_marseille","lat":43.28039,"lon":5.369297,"is_reserved":false,"is_disabled":false,"rental_uris":{"android":"levelo://app?vid=5ec07c7d-8feb-4917-9106-973a84124306","ios":"levelo://app?vid=5ec07c7d-8feb-4917-9106-973a84124306"},"vehicle_type_id":"4","last_reported":1685147901,"current_range_meters":15600,"station_id":"ce4bha12rcd13ifvqef0","pricing_plan_id":"free"},{"bike_id":"4d86ce40-e406-44d0-9e2e-59dcfae65e59","system_id":"levelo_inurba_marseille","lat":43.29041,"lon":5.39947,"is_reserved":false,"is_disabled":false,"rental_uris":{"android":"levelo://app?vid=4d86ce40-e406-44d0-9e2e-59dcfae65e59","ios":"levelo://app?vid=4d86ce40-e406-44d0-9e2e-59dcfae65e59"},"vehicle_type_id":"4","last_reported":1685147901,"current_range_meters":0,"station_id":"ce4bh392rcd13ifvqdm0","pricing_plan_id":"free"},{"bike_id":"115d2406-3ee0-4558-ba3a-53ef2bebcd03","system_id":"levelo_inurba_marseille","lat":43.29041,"lon":5.399634,"is_reserved":false,"is_disabled":false,"rental_uris":{"android":"levelo://app?vid=115d2406-3ee0-4558-ba3a-53ef2bebcd03","ios":"levelo://app?vid=115d2406-3ee0-4558-ba3a-53ef2bebcd03"},"vehicle_type_id":"4","last_reported":1685147901,"current_range_meters":16400,"station_id":"ce4bh392rcd13ifvqdm0","pricing_plan_id":"free"},{"bike_id":"beb37638-8c65-4dc0-a0fc-36daf1f625f0","system_id":"levelo_inurba_marseille","lat":43.290412,"lon":5.399633,"is_reserved":false,"is_disabled":false,"rental_uris":{"android":"levelo://app?vid=beb37638-8c65-4dc0-a0fc-36daf1f625f0","ios":"levelo://app?vid=beb37638-8c65-4dc0-a0fc-36daf1f625f0"},"vehicle_type_id":"4","last_reported":1685147901,"current_range_meters":1200,"station_id":"ce4bh392rcd13ifvqdm0","pricing_plan_id":"free"},{"bike_id":"87c20631-d1d1-485b-bc59-21d9dca8e56f","system_id":"levelo_inurba_marseille","lat":43.29041,"lon":5.399634,"is_reserved":false,"is_disabled":false,"rental_uris":{"android":"levelo://app?vid=87c20631-d1d1-485b-bc59-21d9dca8e56f","ios":"levelo://app?vid=87c20631-d1d1-485b-bc59-21d9dca8e56f"},"vehicle_type_id":"4","last_reported":1685147901,"current_range_meters":16000,"station_id":"ce4bh392rcd13ifvqdm0","pricing_plan_id":"free"},{"bike_id":"d75c5d2c-e2c1-4449-83d9-e6ab0f3fbc7e","system_id":"levelo_inurba_marseille","lat":43.28105,"lon":5.37833,"is_reserved":false,"is_disabled":false,"rental_uris":{"android":"levelo://app?vid=d75c5d2c-e2c1-4449-83d9-e6ab0f3fbc7e","ios":"levelo://app?vid=d75c5d2c-e2c1-4449-83d9-e6ab0f3fbc7e"},"vehicle_type_id":"4","last_reported":1685147901,"current_range_meters":12400,"station_id":"ce4bha12rcd13ifvqee0","pricing_plan_id":"free"},{"bike_id":"2f42fb67-7e50-4a9a-be8a-e4b1dab1832d","system_id":"levelo_inurba_marseille","lat":43.28105,"lon":5.37836,"is_reserved":false,"is_disabled":false,"rental_uris":{"android":"levelo://app?vid=2f42fb67-7e50-4a9a-be8a-e4b1dab1832d","ios":"levelo://app?vid=2f42fb67-7e50-4a9a-be8a-e4b1dab1832d"},"vehicle_type_id":"4","last_reported":1685147901,"current_range_meters":7600,"station_id":"ce4bha12rcd13ifvqee0","pricing_plan_id":"free"},{"bike_id":"df03f69d-d32b-49e2-8dcc-c0beceb30041","system_id":"levelo_inurba_marseille","lat":43.28103,"lon":5.37832,"is_reserved":false,"is_disabled":false,"rental_uris":{"android":"levelo://app?vid=df03f69d-d32b-49e2-8dcc-c0beceb30041","ios":"levelo://app?vid=df03f69d-d32b-49e2-8dcc-c0beceb30041"},"vehicle_type_id":"4","last_reported":1685147901,"current_range_meters":16800,"station_id":"ce4bha12rcd13ifvqee0","pricing_plan_id":"free"},{"bike_id":"8f41c514-aa14-4761-923e-8911f12380ae","system_id":"levelo_inurba_marseille","lat":43.28103,"lon":5.37836,"is_reserved":false,"is_disabled":false,"rental_uris":{"android":"levelo://app?vid=8f41c514-aa14-4761-923e-8911f12380ae","ios":"levelo://app?vid=8f41c514-aa14-4761-923e-8911f12380ae"},"vehicle_type_id":"4","last_reported":1685147901,"current_range_meters":13200,"station_id":"ce4bha12rcd13ifvqee0","pricing_plan_id":"free"},{"bike_id":"d907dc81-067b-4de5-9dfa-74bdebf1946d","system_id":"levelo_inurba_marseille","lat":43.296263,"lon":5.40601,"is_reserved":false,"is_disabled":false,"rental_uris":{"android":"levelo://app?vid=d907dc81-067b-4de5-9dfa-74bdebf1946d","ios":"levelo://app?vid=d907dc81-067b-4de5-9dfa-74bdebf1946d"},"vehicle_type_id":"4","last_reported":1685147901,"current_range_meters":28400,"station_id":"ce4bh0h2rcd13ifvqd60","pricing_plan_id":"free"},{"bike_id":"976254bc-d84c-40e7-88b6-52c03416c965","system_id":"levelo_inurba_marseille","lat":43.32136,"lon":5.41078,"is_reserved":false,"is_disabled":false,"rental_uris":{"android":"levelo://app?vid=976254bc-d84c-40e7-88b6-52c03416c965","ios":"levelo://app?vid=976254bc-d84c-40e7-88b6-52c03416c965"},"vehicle_type_id":"4","last_reported":1685147901,"current_range_meters":10800,"station_id":"","pricing_plan_id":"free"},{"bike_id":"c9890851-61ba-4366-b00a-e964dbe97002","system_id":"levelo_inurba_marseille","lat":43.284462,"lon":5.392121,"is_reserved":false,"is_disabled":false,"rental_uris":{"android":"levelo://app?vid=c9890851-61ba-4366-b00a-e964dbe97002","ios":"levelo://app?vid=c9890851-61ba-4366-b00a-e964dbe97002"},"vehicle_type_id":"4","last_reported":1685147901,"current_range_meters":800,"station_id":"ce4bhoh2rcd13ifvqh5g","pricing_plan_id":"free"},{"bike_id":"bebb6f18-456f-441b-b4c3-9a108d642e66","system_id":"levelo_inurba_marseille","lat":43.284462,"lon":5.392121,"is_reserved":false,"is_disabled":false,"rental_uris":{"android":"levelo://app?vid=bebb6f18-456f-441b-b4c3-9a108d642e66","ios":"levelo://app?vid=bebb6f18-456f-441b-b4c3-9a108d642e66"},"vehicle_type_id":"4","last_reported":1685147901,"current_range_meters":7200,"station_id":"ce4bhoh2rcd13ifvqh5g","pricing_plan_id":"free"},{"bike_id":"e3a68845-096f-484e-a2eb-a878577c5104","system_id":"levelo_inurba_marseille","lat":43.284462,"lon":5.392121,"is_reserved":false,"is_disabled":false,"rental_uris":{"android":"levelo://app?vid=e3a68845-096f-484e-a2eb-a878577c5104","ios":"levelo://app?vid=e3a68845-096f-484e-a2eb-a878577c5104"},"vehicle_type_id":"4","last_reported":1685147901,"current_range_meters":3200,"station_id":"ce4bhoh2rcd13ifvqh5g","pricing_plan_id":"free"},{"bike_id":"7e66b6b5-700c-4328-a5da-b67e1e8507c9","system_id":"levelo_inurba_marseille","lat":43.284462,"lon":5.392121,"is_reserved":false,"is_disabled":false,"rental_uris":{"android":"levelo://app?vid=7e66b6b5-700c-4328-a5da-b67e1e8507c9","ios":"levelo://app?vid=7e66b6b5-700c-4328-a5da-b67e1e8507c9"},"vehicle_type_id":"4","last_reported":1685147901,"current_range_meters":5200,"station_id":"ce4bhoh2rcd13ifvqh5g","pricing_plan_id":"free"},{"bike_id":"a64971d0-cbb1-4172-819f-6cbf335f6a4c","system_id":"levelo_inurba_marseille","lat":43.28573,"lon":5.394992,"is_reserved":false,"is_disabled":false,"rental_uris":{"android":"levelo://app?vid=a64971d0-cbb1-4172-819f-6cbf335f6a4c","ios":"levelo://app?vid=a64971d0-cbb1-4172-819f-6cbf335f6a4c"},"vehicle_type_id":"4","last_reported":1685147901,"current_range_meters":20000,"station_id":"ce4bh292rcd13ifvqdg0","pricing_plan_id":"free"},{"bike_id":"3bee7284-f2b3-4c4e-ab2b-e118cf93a7f2","system_id":"levelo_inurba_marseille","lat":43.278401,"lon":5.392152,"is_reserved":false,"is_disabled":false,"rental_uris":{"android":"levelo://app?vid=3bee7284-f2b3-4c4e-ab2b-e118cf93a7f2","ios":"levelo://app?vid=3bee7284-f2b3-4c4e-ab2b-e118cf93a7f2"},"vehicle_type_id":"4","last_reported":1685147901,"current_range_meters":10000,"station_id":"ce4bhjp2rcd13ifvqga0","pricing_plan_id":"free"},{"bike_id":"bb09308a-bd56-4210-b775-985e78e5e469","system_id":"levelo_inurba_marseille","lat":43.304188,"lon":5.412904,"is_reserved":false,"is_disabled":false,"rental_uris":{"android":"levelo://app?vid=bb09308a-bd56-4210-b775-985e78e5e469","ios":"levelo://app?vid=bb09308a-bd56-4210-b775-985e78e5e469"},"vehicle_type_id":"4","last_reported":1685147901,"current_range_meters":6800,"station_id":"ce4bhop2rcd13ifvqh8g","pricing_plan_id":"free"},{"bike_id":"3d6afcea-6ab8-4617-bbdf-9ad70ac4187b","system_id":"levelo_inurba_marseille","lat":43.304188,"lon":5.412904,"is_reserved":false,"is_disabled":false,"rental_uris":{"android":"levelo://app?vid=3d6afcea-6ab8-4617-bbdf-9ad70ac4187b","ios":"levelo://app?vid=3d6afcea-6ab8-4617-bbdf-9ad70ac4187b"},"vehicle_type_id":"4","last_reported":1685147901,"current_range_meters":11200,"station_id":"ce4bhop2rcd13ifvqh8g","pricing_plan_id":"free"},{"bike_id":"12ed4811-d4f0-43aa-9a13-aa3cc3c6a097","system_id":"levelo_inurba_marseille","lat":43.27904,"lon":5.38005,"is_reserved":false,"is_disabled":false,"rental_uris":{"android":"levelo://app?vid=12ed4811-d4f0-43aa-9a13-aa3cc3c6a097","ios":"levelo://app?vid=12ed4811-d4f0-43aa-9a13-aa3cc3c6a097"},"vehicle_type_id":"4","last_reported":1685147901,"current_range_meters":0,"station_id":"","pricing_plan_id":"free"},{"bike_id":"f000203d-5a2a-4150-b7b1-736fed3d9a60","system_id":"levelo_inurba_marseille","lat":43.2871,"lon":5.39977,"is_reserved":false,"is_disabled":false,"rental_uris":{"android":"levelo://app?vid=f000203d-5a2a-4150-b7b1-736fed3d9a60","ios":"levelo://app?vid=f000203d-5a2a-4150-b7b1-736fed3d9a60"},"vehicle_type_id":"4","last_reported":1685147901,"current_range_meters":20800,"station_id":"ce4bho92rcd13ifvqh3g","pricing_plan_id":"free"},{"bike_id":"f261c8fe-2a68-4ed6-b039-4d946d9e744a","system_id":"levelo_inurba_marseille","lat":43.28709,"lon":5.39976,"is_reserved":false,"is_disabled":false,"rental_uris":{"android":"levelo://app?vid=f261c8fe-2a68-4ed6-b039-4d946d9e744a","ios":"levelo://app?vid=f261c8fe-2a68-4ed6-b039-4d946d9e744a"},"vehicle_type_id":"4","last_reported":1685147901,"current_range_meters":0,"station_id":"ce4bho92rcd13ifvqh3g","pricing_plan_id":"free"},{"bike_id":"4208cf45-bfb2-42b4-a59e-2d870a44089d","system_id":"levelo_inurba_marseille","lat":43.287154,"lon":5.399979,"is_reserved":false,"is_disabled":false,"rental_uris":{"android":"levelo://app?vid=4208cf45-bfb2-42b4-a59e-2d870a44089d","ios":"levelo://app?vid=4208cf45-bfb2-42b4-a59e-2d870a44089d"},"vehicle_type_id":"4","last_reported":1685147901,"current_range_meters":2800,"station_id":"ce4bho92rcd13ifvqh3g","pricing_plan_id":"free"},{"bike_id":"43dcc7f7-48f1-404c-b9e5-cfdfde26f758","system_id":"levelo_inurba_marseille","lat":43.287154,"lon":5.399979,"is_reserved":false,"is_disabled":false,"rental_uris":{"android":"levelo://app?vid=43dcc7f7-48f1-404c-b9e5-cfdfde26f758","ios":"levelo://app?vid=43dcc7f7-48f1-404c-b9e5-cfdfde26f758"},"vehicle_type_id":"4","last_reported":1685147901,"current_range_meters":22400,"station_id":"ce4bho92rcd13ifvqh3g","pricing_plan_id":"free"},{"bike_id":"d5481f23-2e90-49e5-90f9-50629faff775","system_id":"levelo_inurba_marseille","lat":43.287154,"lon":5.399979,"is_reserved":false,"is_disabled":false,"rental_uris":{"android":"levelo://app?vid=d5481f23-2e90-49e5-90f9-50629faff775","ios":"levelo://app?vid=d5481f23-2e90-49e5-90f9-50629faff775"},"vehicle_type_id":"4","last_reported":1685147901,"current_range_meters":31600,"station_id":"ce4bho92rcd13ifvqh3g","pricing_plan_id":"free"},{"bike_id":"cb956b86-65f4-4da8-b5c5-c7452cd50080","system_id":"levelo_inurba_marseille","lat":43.28701,"lon":5.39981,"is_reserved":false,"is_disabled":false,"rental_uris":{"android":"levelo://app?vid=cb956b86-65f4-4da8-b5c5-c7452cd50080","ios":"levelo://app?vid=cb956b86-65f4-4da8-b5c5-c7452cd50080"},"vehicle_type_id":"4","last_reported":1685147901,"current_range_meters":21200,"station_id":"ce4bho92rcd13ifvqh3g","pricing_plan_id":"free"},{"bike_id":"81e1e2b8-6542-4f6b-8f7a-9eaab41c34c8","system_id":"levelo_inurba_marseille","lat":43.287154,"lon":5.399979,"is_reserved":false,"is_disabled":false,"rental_uris":{"android":"levelo://app?vid=81e1e2b8-6542-4f6b-8f7a-9eaab41c34c8","ios":"levelo://app?vid=81e1e2b8-6542-4f6b-8f7a-9eaab41c34c8"},"vehicle_type_id":"4","last_reported":1685147901,"current_range_meters":30800,"station_id":"ce4bho92rcd13ifvqh3g","pricing_plan_id":"free"},{"bike_id":"ac3963b2-be8c-498c-ae2f-09e027148ade","system_id":"levelo_inurba_marseille","lat":43.287061,"lon":5.399911,"is_reserved":false,"is_disabled":false,"rental_uris":{"android":"levelo://app?vid=ac3963b2-be8c-498c-ae2f-09e027148ade","ios":"levelo://app?vid=ac3963b2-be8c-498c-ae2f-09e027148ade"},"vehicle_type_id":"4","last_reported":1685147901,"current_range_meters":6800,"station_id":"","pricing_plan_id":"free"},{"bike_id":"4fcbbd2a-fd77-4b8b-8966-4187f423eae8","system_id":"levelo_inurba_marseille","lat":43.28697,"lon":5.39978,"is_reserved":false,"is_disabled":false,"rental_uris":{"android":"levelo://app?vid=4fcbbd2a-fd77-4b8b-8966-4187f423eae8","ios":"levelo://app?vid=4fcbbd2a-fd77-4b8b-8966-4187f423eae8"},"vehicle_type_id":"4","last_reported":1685147901,"current_range_meters":4400,"station_id":"ce4bho92rcd13ifvqh3g","pricing_plan_id":"free"},{"bike_id":"ede29c99-b1e0-423e-9d45-e216622c8664","system_id":"levelo_inurba_marseille","lat":43.28699,"lon":5.39981,"is_reserved":false,"is_disabled":false,"rental_uris":{"android":"levelo://app?vid=ede29c99-b1e0-423e-9d45-e216622c8664","ios":"levelo://app?vid=ede29c99-b1e0-423e-9d45-e216622c8664"},"vehicle_type_id":"4","last_reported":1685147901,"current_range_meters":3600,"station_id":"ce4bho92rcd13ifvqh3g","pricing_plan_id":"free"},{"bike_id":"14c10f25-1cd8-479b-a190-b5803b5862fa","system_id":"levelo_inurba_marseille","lat":43.287154,"lon":5.399979,"is_reserved":false,"is_disabled":false,"rental_uris":{"android":"levelo://app?vid=14c10f25-1cd8-479b-a190-b5803b5862fa","ios":"levelo://app?vid=14c10f25-1cd8-479b-a190-b5803b5862fa"},"vehicle_type_id":"4","last_reported":1685147901,"current_range_meters":21600,"station_id":"ce4bho92rcd13ifvqh3g","pricing_plan_id":"free"},{"bike_id":"0e5605b8-b574-458e-b0b3-8469257a91ae","system_id":"levelo_inurba_marseille","lat":43.299579,"lon":5.413255,"is_reserved":false,"is_disabled":false,"rental_uris":{"android":"levelo://app?vid=0e5605b8-b574-458e-b0b3-8469257a91ae","ios":"levelo://app?vid=0e5605b8-b574-458e-b0b3-8469257a91ae"},"vehicle_type_id":"4","last_reported":1685147901,"current_range_meters":26800,"station_id":"ce4bhp12rcd13ifvqh9g","pricing_plan_id":"free"},{"bike_id":"9ea8c811-a191-4fac-a804-7dadbb63d627","system_id":"levelo_inurba_marseille","lat":43.320045,"lon":5.415048,"is_reserved":false,"is_disabled":false,"rental_uris":{"android":"levelo://app?vid=9ea8c811-a191-4fac-a804-7dadbb63d627","ios":"levelo://app?vid=9ea8c811-a191-4fac-a804-7dadbb63d627"},"vehicle_type_id":"4","last_reported":1685147901,"current_range_meters":20400,"station_id":"ce4bhq92rcd13ifvqhkg","pricing_plan_id":"free"},{"bike_id":"29627056-2dab-4b80-b8c7-86806dc33ee5","system_id":"levelo_inurba_marseille","lat":43.292571,"lon":5.409107,"is_reserved":false,"is_disabled":false,"rental_uris":{"android":"levelo://app?vid=29627056-2dab-4b80-b8c7-86806dc33ee5","ios":"levelo://app?vid=29627056-2dab-4b80-b8c7-86806dc33ee5"},"vehicle_type_id":"4","last_reported":1685147901,"current_range_meters":17200,"station_id":"ce4bh192rcd13ifvqdc0","pricing_plan_id":"free"},{"bike_id":"65482d4b-c453-46fa-9f92-9ba7852dc226","system_id":"levelo_inurba_marseille","lat":43.278399,"lon":5.392139,"is_reserved":false,"is_disabled":false,"rental_uris":{"android":"levelo://app?vid=65482d4b-c453-46fa-9f92-9ba7852dc226","ios":"levelo://app?vid=65482d4b-c453-46fa-9f92-9ba7852dc226"},"vehicle_type_id":"4","last_reported":1685147901,"current_range_meters":22800,"station_id":"ce4bhjp2rcd13ifvqga0","pricing_plan_id":"free"},{"bike_id":"90e86482-2bfe-431f-acec-adfa925d3919","system_id":"levelo_inurba_marseille","lat":43.278399,"lon":5.392139,"is_reserved":false,"is_disabled":false,"rental_uris":{"android":"levelo://app?vid=90e86482-2bfe-431f-acec-adfa925d3919","ios":"levelo://app?vid=90e86482-2bfe-431f-acec-adfa925d3919"},"vehicle_type_id":"4","last_reported":1685147901,"current_range_meters":22000,"station_id":"ce4bhjp2rcd13ifvqga0","pricing_plan_id":"free"},{"bike_id":"bafab01b-8d88-4a62-959b-55493035361c","system_id":"levelo_inurba_marseille","lat":43.276769,"lon":5.388787,"is_reserved":false,"is_disabled":false,"rental_uris":{"android":"levelo://app?vid=bafab01b-8d88-4a62-959b-55493035361c","ios":"levelo://app?vid=bafab01b-8d88-4a62-959b-55493035361c"},"vehicle_type_id":"4","last_reported":1685147901,"current_range_meters":1600,"station_id":"ce4bhi12rcd13ifvqfo0","pricing_plan_id":"free"},{"bike_id":"1e03af09-67fa-44d6-b1b4-444b4b37cdf1","system_id":"levelo_inurba_marseille","lat":43.276771,"lon":5.388799,"is_reserved":false,"is_disabled":false,"rental_uris":{"android":"levelo://app?vid=1e03af09-67fa-44d6-b1b4-444b4b37cdf1","ios":"levelo://app?vid=1e03af09-67fa-44d6-b1b4-444b4b37cdf1"},"vehicle_type_id":"4","last_reported":1685147901,"current_range_meters":13200,"station_id":"ce4bhi12rcd13ifvqfo0","pricing_plan_id":"free"},{"bike_id":"163fad4d-bd56-4a07-8a23-1a46296f67f7","system_id":"levelo_inurba_marseille","lat":43.317121,"lon":5.423936,"is_reserved":false,"is_disabled":false,"rental_uris":{"android":"levelo://app?vid=163fad4d-bd56-4a07-8a23-1a46296f67f7","ios":"levelo://app?vid=163fad4d-bd56-4a07-8a23-1a46296f67f7"},"vehicle_type_id":"4","last_reported":1685147901,"current_range_meters":26000,"station_id":"ce4bhp92rcd13ifvqhbg","pricing_plan_id":"free"},{"bike_id":"861329e4-ad11-429d-b8ea-90476abd2c56","system_id":"levelo_inurba_marseille","lat":43.317121,"lon":5.423936,"is_reserved":false,"is_disabled":false,"rental_uris":{"android":"levelo://app?vid=861329e4-ad11-429d-b8ea-90476abd2c56","ios":"levelo://app?vid=861329e4-ad11-429d-b8ea-90476abd2c56"},"vehicle_type_id":"4","last_reported":1685147901,"current_range_meters":14400,"station_id":"ce4bhp92rcd13ifvqhbg","pricing_plan_id":"free"},{"bike_id":"1b3a9706-1d75-49da-b04f-a8d2d21f8a41","system_id":"levelo_inurba_marseille","lat":43.31084,"lon":5.42427,"is_reserved":false,"is_disabled":false,"rental_uris":{"android":"levelo://app?vid=1b3a9706-1d75-49da-b04f-a8d2d21f8a41","ios":"levelo://app?vid=1b3a9706-1d75-49da-b04f-a8d2d21f8a41"},"vehicle_type_id":"4","last_reported":1685147901,"current_range_meters":27600,"station_id":"ce4bhp92rcd13ifvqhag","pricing_plan_id":"free"},{"bike_id":"25e6c62a-239c-4bb1-9cdd-05ae9326c2e5","system_id":"levelo_inurba_marseille","lat":43.31081,"lon":5.42429,"is_reserved":false,"is_disabled":false,"rental_uris":{"android":"levelo://app?vid=25e6c62a-239c-4bb1-9cdd-05ae9326c2e5","ios":"levelo://app?vid=25e6c62a-239c-4bb1-9cdd-05ae9326c2e5"},"vehicle_type_id":"4","last_reported":1685147901,"current_range_meters":17600,"station_id":"ce4bhp92rcd13ifvqhag","pricing_plan_id":"free"},{"bike_id":"2f2b0a8c-81dd-402b-bd67-742dbf9c0575","system_id":"levelo_inurba_marseille","lat":43.304096,"lon":5.425385,"is_reserved":false,"is_disabled":false,"rental_uris":{"android":"levelo://app?vid=2f2b0a8c-81dd-402b-bd67-742dbf9c0575","ios":"levelo://app?vid=2f2b0a8c-81dd-402b-bd67-742dbf9c0575"},"vehicle_type_id":"4","last_reported":1685147901,"current_range_meters":2000,"station_id":"ce4bhoh2rcd13ifvqh6g","pricing_plan_id":"free"},{"bike_id":"8a9965f5-ea9c-4bbe-a47e-1267db9cfd67","system_id":"levelo_inurba_marseille","lat":43.273125,"lon":5.390731,"is_reserved":false,"is_disabled":false,"rental_uris":{"android":"levelo://app?vid=8a9965f5-ea9c-4bbe-a47e-1267db9cfd67","ios":"levelo://app?vid=8a9965f5-ea9c-4bbe-a47e-1267db9cfd67"},"vehicle_type_id":"4","last_reported":1685147901,"current_range_meters":400,"station_id":"ce4bhgp2rcd13ifvqfe0","pricing_plan_id":"free"},{"bike_id":"ccf52596-28ae-426c-a62c-6ece1d77967b","system_id":"levelo_inurba_marseille","lat":43.304096,"lon":5.425385,"is_reserved":false,"is_disabled":false,"rental_uris":{"android":"levelo://app?vid=ccf52596-28ae-426c-a62c-6ece1d77967b","ios":"levelo://app?vid=ccf52596-28ae-426c-a62c-6ece1d77967b"},"vehicle_type_id":"4","last_reported":1685147901,"current_range_meters":2800,"station_id":"ce4bhoh2rcd13ifvqh6g","pricing_plan_id":"free"},{"bike_id":"de79f32b-5b48-49af-978b-7aeae2c3cc2e","system_id":"levelo_inurba_marseille","lat":43.295523,"lon":5.422926,"is_reserved":false,"is_disabled":false,"rental_uris":{"android":"levelo://app?vid=de79f32b-5b48-49af-978b-7aeae2c3cc2e","ios":"levelo://app?vid=de79f32b-5b48-49af-978b-7aeae2c3cc2e"},"vehicle_type_id":"4","last_reported":1685147901,"current_range_meters":0,"station_id":"ce4bhph2rcd13ifvqhdg","pricing_plan_id":"free"},{"bike_id":"6d713c6e-b9c6-4bb9-9970-dd3ec8ae03ba","system_id":"levelo_inurba_marseille","lat":43.295511,"lon":5.422926,"is_reserved":false,"is_disabled":false,"rental_uris":{"android":"levelo://app?vid=6d713c6e-b9c6-4bb9-9970-dd3ec8ae03ba","ios":"levelo://app?vid=6d713c6e-b9c6-4bb9-9970-dd3ec8ae03ba"},"vehicle_type_id":"4","last_reported":1685147901,"current_range_meters":4800,"station_id":"ce4bhph2rcd13ifvqhdg","pricing_plan_id":"free"},{"bike_id":"de3a8f84-22e2-4639-8b7c-600a488f198b","system_id":"levelo_inurba_marseille","lat":43.27819,"lon":5.40718,"is_reserved":false,"is_disabled":false,"rental_uris":{"android":"levelo://app?vid=de3a8f84-22e2-4639-8b7c-600a488f198b","ios":"levelo://app?vid=de3a8f84-22e2-4639-8b7c-600a488f198b"},"vehicle_type_id":"4","last_reported":1685147901,"current_range_meters":18400,"station_id":"ce4bhnh2rcd13ifvqgtg","pricing_plan_id":"free"},{"bike_id":"74a6307f-29bb-44c0-866a-f95adc25bbcc","system_id":"levelo_inurba_marseille","lat":43.278128,"lon":5.407195,"is_reserved":false,"is_disabled":false,"rental_uris":{"android":"levelo://app?vid=74a6307f-29bb-44c0-866a-f95adc25bbcc","ios":"levelo://app?vid=74a6307f-29bb-44c0-866a-f95adc25bbcc"},"vehicle_type_id":"4","last_reported":1685147901,"current_range_meters":28000,"station_id":"ce4bhnh2rcd13ifvqgtg","pricing_plan_id":"free"},{"bike_id":"ab960695-bb73-4430-bd6c-3f5b51e7531f","system_id":"levelo_inurba_marseille","lat":43.278128,"lon":5.407195,"is_reserved":false,"is_disabled":false,"rental_uris":{"android":"levelo://app?vid=ab960695-bb73-4430-bd6c-3f5b51e7531f","ios":"levelo://app?vid=ab960695-bb73-4430-bd6c-3f5b51e7531f"},"vehicle_type_id":"4","last_reported":1685147901,"current_range_meters":27200,"station_id":"ce4bhnh2rcd13ifvqgtg","pricing_plan_id":"free"},{"bike_id":"6fddf816-b4e6-49dd-a244-45ac6512ed6f","system_id":"levelo_inurba_marseille","lat":43.269467,"lon":5.386439,"is_reserved":false,"is_disabled":false,"rental_uris":{"android":"levelo://app?vid=6fddf816-b4e6-49dd-a244-45ac6512ed6f","ios":"levelo://app?vid=6fddf816-b4e6-49dd-a244-45ac6512ed6f"},"vehicle_type_id":"4","last_reported":1685147901,"current_range_meters":16400,"station_id":"ce4bhh92rcd13ifvqfh0","pricing_plan_id":"free"},{"bike_id":"8f493818-f303-4cf1-8240-4de5c23d40d2","system_id":"levelo_inurba_marseille","lat":43.27996,"lon":5.416624,"is_reserved":false,"is_disabled":false,"rental_uris":{"android":"levelo://app?vid=8f493818-f303-4cf1-8240-4de5c23d40d2","ios":"levelo://app?vid=8f493818-f303-4cf1-8240-4de5c23d40d2"},"vehicle_type_id":"4","last_reported":1685147901,"current_range_meters":21600,"station_id":"ce4bho12rcd13ifvqh1g","pricing_plan_id":"free"},{"bike_id":"eb1e7463-04a7-4eb1-b297-dd018c79d527","system_id":"levelo_inurba_marseille","lat":43.30802,"lon":5.43514,"is_reserved":false,"is_disabled":false,"rental_uris":{"android":"levelo://app?vid=eb1e7463-04a7-4eb1-b297-dd018c79d527","ios":"levelo://app?vid=eb1e7463-04a7-4eb1-b297-dd018c79d527"},"vehicle_type_id":"4","last_reported":1685147901,"current_range_meters":0,"station_id":"","pricing_plan_id":"free"},{"bike_id":"b35a7040-bbda-43db-9397-f046555e255b","system_id":"levelo_inurba_marseille","lat":43.30808,"lon":5.43527,"is_reserved":false,"is_disabled":false,"rental_uris":{"android":"levelo://app?vid=b35a7040-bbda-43db-9397-f046555e255b","ios":"levelo://app?vid=b35a7040-bbda-43db-9397-f046555e255b"},"vehicle_type_id":"4","last_reported":1685147901,"current_range_meters":22000,"station_id":"","pricing_plan_id":"free"},{"bike_id":"d1b03ae1-ba4c-4955-85a2-c1ad76ee87be","system_id":"levelo_inurba_marseille","lat":43.261782,"lon":5.374515,"is_reserved":false,"is_disabled":false,"rental_uris":{"android":"levelo://app?vid=d1b03ae1-ba4c-4955-85a2-c1ad76ee87be","ios":"levelo://app?vid=d1b03ae1-ba4c-4955-85a2-c1ad76ee87be"},"vehicle_type_id":"4","last_reported":1685147901,"current_range_meters":28000,"station_id":"ce4bhgp2rcd13ifvqfc0","pricing_plan_id":"free"},{"bike_id":"97f92444-dc7f-4ac8-885e-43ac50454dc0","system_id":"levelo_inurba_marseille","lat":43.31709,"lon":5.43695,"is_reserved":false,"is_disabled":false,"rental_uris":{"android":"levelo://app?vid=97f92444-dc7f-4ac8-885e-43ac50454dc0","ios":"levelo://app?vid=97f92444-dc7f-4ac8-885e-43ac50454dc0"},"vehicle_type_id":"4","last_reported":1685147901,"current_range_meters":0,"station_id":"ce4bhp92rcd13ifvqhcg","pricing_plan_id":"free"},{"bike_id":"da1b46c5-324d-40e2-abc5-419e4221fc12","system_id":"levelo_inurba_marseille","lat":43.317104,"lon":5.436818,"is_reserved":false,"is_disabled":false,"rental_uris":{"android":"levelo://app?vid=da1b46c5-324d-40e2-abc5-419e4221fc12","ios":"levelo://app?vid=da1b46c5-324d-40e2-abc5-419e4221fc12"},"vehicle_type_id":"4","last_reported":1685147901,"current_range_meters":30800,"station_id":"ce4bhp92rcd13ifvqhcg","pricing_plan_id":"free"},{"bike_id":"a40b814c-8d11-48f9-af9c-8f2d70505adb","system_id":"levelo_inurba_marseille","lat":43.31705,"lon":5.43705,"is_reserved":false,"is_disabled":false,"rental_uris":{"android":"levelo://app?vid=a40b814c-8d11-48f9-af9c-8f2d70505adb","ios":"levelo://app?vid=a40b814c-8d11-48f9-af9c-8f2d70505adb"},"vehicle_type_id":"4","last_reported":1685147901,"current_range_meters":24400,"station_id":"ce4bhp92rcd13ifvqhcg","pricing_plan_id":"free"},{"bike_id":"192415d3-3466-405a-972a-3bb1f0c28e58","system_id":"levelo_inurba_marseille","lat":43.317104,"lon":5.436818,"is_reserved":false,"is_disabled":false,"rental_uris":{"android":"levelo://app?vid=192415d3-3466-405a-972a-3bb1f0c28e58","ios":"levelo://app?vid=192415d3-3466-405a-972a-3bb1f0c28e58"},"vehicle_type_id":"4","last_reported":1685147901,"current_range_meters":23600,"station_id":"ce4bhp92rcd13ifvqhcg","pricing_plan_id":"free"},{"bike_id":"20f577de-5147-4873-9845-df04d4fb0009","system_id":"levelo_inurba_marseille","lat":43.317104,"lon":5.436818,"is_reserved":false,"is_disabled":false,"rental_uris":{"android":"levelo://app?vid=20f577de-5147-4873-9845-df04d4fb0009","ios":"levelo://app?vid=20f577de-5147-4873-9845-df04d4fb0009"},"vehicle_type_id":"4","last_reported":1685147901,"current_range_meters":26000,"station_id":"ce4bhp92rcd13ifvqhcg","pricing_plan_id":"free"},{"bike_id":"a1c1b9f3-607f-471d-b720-48316d364066","system_id":"levelo_inurba_marseille","lat":43.317104,"lon":5.436818,"is_reserved":false,"is_disabled":false,"rental_uris":{"android":"levelo://app?vid=a1c1b9f3-607f-471d-b720-48316d364066","ios":"levelo://app?vid=a1c1b9f3-607f-471d-b720-48316d364066"},"vehicle_type_id":"4","last_reported":1685147901,"current_range_meters":4000,"station_id":"ce4bhp92rcd13ifvqhcg","pricing_plan_id":"free"},{"bike_id":"677fe151-801a-4d73-9e92-e9bc07905498","system_id":"levelo_inurba_marseille","lat":43.31715,"lon":5.43712,"is_reserved":false,"is_disabled":false,"rental_uris":{"android":"levelo://app?vid=677fe151-801a-4d73-9e92-e9bc07905498","ios":"levelo://app?vid=677fe151-801a-4d73-9e92-e9bc07905498"},"vehicle_type_id":"4","last_reported":1685147901,"current_range_meters":29600,"station_id":"ce4bhp92rcd13ifvqhcg","pricing_plan_id":"free"},{"bike_id":"2fcb005b-eb15-46f5-bc53-9d2cc35779da","system_id":"levelo_inurba_marseille","lat":43.271388,"lon":5.409269,"is_reserved":false,"is_disabled":false,"rental_uris":{"android":"levelo://app?vid=2fcb005b-eb15-46f5-bc53-9d2cc35779da","ios":"levelo://app?vid=2fcb005b-eb15-46f5-bc53-9d2cc35779da"},"vehicle_type_id":"4","last_reported":1685147901,"current_range_meters":24800,"station_id":"ce4bhl12rcd13ifvqgf0","pricing_plan_id":"free"},{"bike_id":"a09c2fb7-fa01-4ddb-ade6-04db0857aafa","system_id":"levelo_inurba_marseille","lat":43.267959,"lon":5.402687,"is_reserved":false,"is_disabled":false,"rental_uris":{"android":"levelo://app?vid=a09c2fb7-fa01-4ddb-ade6-04db0857aafa","ios":"levelo://app?vid=a09c2fb7-fa01-4ddb-ade6-04db0857aafa"},"vehicle_type_id":"4","last_reported":1685147901,"current_range_meters":10000,"station_id":"ce501612rcd8frsf0b60","pricing_plan_id":"free"},{"bike_id":"c0b1d61f-95d0-43f1-8852-8a7f67e94801","system_id":"levelo_inurba_marseille","lat":43.267959,"lon":5.402687,"is_reserved":false,"is_disabled":false,"rental_uris":{"android":"levelo://app?vid=c0b1d61f-95d0-43f1-8852-8a7f67e94801","ios":"levelo://app?vid=c0b1d61f-95d0-43f1-8852-8a7f67e94801"},"vehicle_type_id":"4","last_reported":1685147901,"current_range_meters":31200,"station_id":"ce501612rcd8frsf0b60","pricing_plan_id":"free"},{"bike_id":"a7888e89-b39a-43b1-b69c-1f8318600eee","system_id":"levelo_inurba_marseille","lat":43.267959,"lon":5.402687,"is_reserved":false,"is_disabled":false,"rental_uris":{"android":"levelo://app?vid=a7888e89-b39a-43b1-b69c-1f8318600eee","ios":"levelo://app?vid=a7888e89-b39a-43b1-b69c-1f8318600eee"},"vehicle_type_id":"4","last_reported":1685147901,"current_range_meters":11200,"station_id":"ce501612rcd8frsf0b60","pricing_plan_id":"free"},{"bike_id":"e6f0d5a2-53e3-4624-b094-33844a880739","system_id":"levelo_inurba_marseille","lat":43.267959,"lon":5.402685,"is_reserved":false,"is_disabled":false,"rental_uris":{"android":"levelo://app?vid=e6f0d5a2-53e3-4624-b094-33844a880739","ios":"levelo://app?vid=e6f0d5a2-53e3-4624-b094-33844a880739"},"vehicle_type_id":"4","last_reported":1685147901,"current_range_meters":28400,"station_id":"ce501612rcd8frsf0b60","pricing_plan_id":"free"},{"bike_id":"7018540e-22fd-4855-9d5d-6d4e9895522b","system_id":"levelo_inurba_marseille","lat":43.267959,"lon":5.402687,"is_reserved":false,"is_disabled":false,"rental_uris":{"android":"levelo://app?vid=7018540e-22fd-4855-9d5d-6d4e9895522b","ios":"levelo://app?vid=7018540e-22fd-4855-9d5d-6d4e9895522b"},"vehicle_type_id":"4","last_reported":1685147901,"current_range_meters":1200,"station_id":"ce501612rcd8frsf0b60","pricing_plan_id":"free"},{"bike_id":"625cf51e-ab1a-4754-ae5a-a72655adf3ff","system_id":"levelo_inurba_marseille","lat":43.29896,"lon":5.43655,"is_reserved":false,"is_disabled":false,"rental_uris":{"android":"levelo://app?vid=625cf51e-ab1a-4754-ae5a-a72655adf3ff","ios":"levelo://app?vid=625cf51e-ab1a-4754-ae5a-a72655adf3ff"},"vehicle_type_id":"4","last_reported":1685147901,"current_range_meters":10000,"station_id":"ce4bhpp2rcd13ifvqhfg","pricing_plan_id":"free"},{"bike_id":"141abb9c-baa0-4410-bbbc-e3f6497daf31","system_id":"levelo_inurba_marseille","lat":43.29897,"lon":5.43657,"is_reserved":false,"is_disabled":false,"rental_uris":{"android":"levelo://app?vid=141abb9c-baa0-4410-bbbc-e3f6497daf31","ios":"levelo://app?vid=141abb9c-baa0-4410-bbbc-e3f6497daf31"},"vehicle_type_id":"4","last_reported":1685147901,"current_range_meters":5200,"station_id":"ce4bhpp2rcd13ifvqhfg","pricing_plan_id":"free"},{"bike_id":"4e1b86b6-b12c-441f-b5c1-ba0a90fca197","system_id":"levelo_inurba_marseille","lat":43.298768,"lon":5.43643,"is_reserved":false,"is_disabled":false,"rental_uris":{"android":"levelo://app?vid=4e1b86b6-b12c-441f-b5c1-ba0a90fca197","ios":"levelo://app?vid=4e1b86b6-b12c-441f-b5c1-ba0a90fca197"},"vehicle_type_id":"4","last_reported":1685147901,"current_range_meters":30400,"station_id":"ce4bhpp2rcd13ifvqhfg","pricing_plan_id":"free"},{"bike_id":"dde9f2f0-56ac-4fd7-8d1e-ed84b13d9718","system_id":"levelo_inurba_marseille","lat":43.29897,"lon":5.4366,"is_reserved":false,"is_disabled":false,"rental_uris":{"android":"levelo://app?vid=dde9f2f0-56ac-4fd7-8d1e-ed84b13d9718","ios":"levelo://app?vid=dde9f2f0-56ac-4fd7-8d1e-ed84b13d9718"},"vehicle_type_id":"4","last_reported":1685147901,"current_range_meters":28800,"station_id":"ce4bhpp2rcd13ifvqhfg","pricing_plan_id":"free"},{"bike_id":"2bbf39e5-5485-4880-b9ce-9ba5fff1a707","system_id":"levelo_inurba_marseille","lat":43.29898,"lon":5.43662,"is_reserved":false,"is_disabled":false,"rental_uris":{"android":"levelo://app?vid=2bbf39e5-5485-4880-b9ce-9ba5fff1a707","ios":"levelo://app?vid=2bbf39e5-5485-4880-b9ce-9ba5fff1a707"},"vehicle_type_id":"4","last_reported":1685147901,"current_range_meters":15600,"station_id":"ce4bhpp2rcd13ifvqhfg","pricing_plan_id":"free"},{"bike_id":"2bec87da-92f9-4fd1-a31d-4f8c41246cb1","system_id":"levelo_inurba_marseille","lat":43.29895,"lon":5.43662,"is_reserved":false,"is_disabled":false,"rental_uris":{"android":"levelo://app?vid=2bec87da-92f9-4fd1-a31d-4f8c41246cb1","ios":"levelo://app?vid=2bec87da-92f9-4fd1-a31d-4f8c41246cb1"},"vehicle_type_id":"4","last_reported":1685147901,"current_range_meters":6000,"station_id":"ce4bhpp2rcd13ifvqhfg","pricing_plan_id":"free"},{"bike_id":"57572c88-3708-4036-891a-204b9f884608","system_id":"levelo_inurba_marseille","lat":43.29895,"lon":5.43662,"is_reserved":false,"is_disabled":false,"rental_uris":{"android":"levelo://app?vid=57572c88-3708-4036-891a-204b9f884608","ios":"levelo://app?vid=57572c88-3708-4036-891a-204b9f884608"},"vehicle_type_id":"4","last_reported":1685147901,"current_range_meters":12000,"station_id":"ce4bhpp2rcd13ifvqhfg","pricing_plan_id":"free"},{"bike_id":"a01b8269-cd6f-432a-9c44-37513ea96cd0","system_id":"levelo_inurba_marseille","lat":43.298768,"lon":5.43643,"is_reserved":false,"is_disabled":false,"rental_uris":{"android":"levelo://app?vid=a01b8269-cd6f-432a-9c44-37513ea96cd0","ios":"levelo://app?vid=a01b8269-cd6f-432a-9c44-37513ea96cd0"},"vehicle_type_id":"4","last_reported":1685147901,"current_range_meters":23600,"station_id":"ce4bhpp2rcd13ifvqhfg","pricing_plan_id":"free"},{"bike_id":"c8de2773-0f39-49ca-aaaa-0510f3608265","system_id":"levelo_inurba_marseille","lat":43.29899,"lon":5.43667,"is_reserved":false,"is_disabled":false,"rental_uris":{"android":"levelo://app?vid=c8de2773-0f39-49ca-aaaa-0510f3608265","ios":"levelo://app?vid=c8de2773-0f39-49ca-aaaa-0510f3608265"},"vehicle_type_id":"4","last_reported":1685147901,"current_range_meters":24400,"station_id":"","pricing_plan_id":"free"},{"bike_id":"6ebd766a-159a-430a-b666-12fd8b5b0da1","system_id":"levelo_inurba_marseille","lat":43.298768,"lon":5.43643,"is_reserved":false,"is_disabled":false,"rental_uris":{"android":"levelo://app?vid=6ebd766a-159a-430a-b666-12fd8b5b0da1","ios":"levelo://app?vid=6ebd766a-159a-430a-b666-12fd8b5b0da1"},"vehicle_type_id":"4","last_reported":1685147901,"current_range_meters":22400,"station_id":"ce4bhpp2rcd13ifvqhfg","pricing_plan_id":"free"},{"bike_id":"608b499d-e068-453a-896b-74bff4555044","system_id":"levelo_inurba_marseille","lat":43.29899,"lon":5.43668,"is_reserved":false,"is_disabled":false,"rental_uris":{"android":"levelo://app?vid=608b499d-e068-453a-896b-74bff4555044","ios":"levelo://app?vid=608b499d-e068-453a-896b-74bff4555044"},"vehicle_type_id":"4","last_reported":1685147901,"current_range_meters":20400,"station_id":"ce4bhpp2rcd13ifvqhfg","pricing_plan_id":"free"},{"bike_id":"4f54b0a4-6084-499c-8a28-f8b3456023a2","system_id":"levelo_inurba_marseille","lat":43.29898,"lon":5.43668,"is_reserved":false,"is_disabled":false,"rental_uris":{"android":"levelo://app?vid=4f54b0a4-6084-499c-8a28-f8b3456023a2","ios":"levelo://app?vid=4f54b0a4-6084-499c-8a28-f8b3456023a2"},"vehicle_type_id":"4","last_reported":1685147901,"current_range_meters":17600,"station_id":"","pricing_plan_id":"free"},{"bike_id":"1522e6fe-e66c-4a0c-a606-391cd3d5a93b","system_id":"levelo_inurba_marseille","lat":43.298768,"lon":5.43643,"is_reserved":false,"is_disabled":false,"rental_uris":{"android":"levelo://app?vid=1522e6fe-e66c-4a0c-a606-391cd3d5a93b","ios":"levelo://app?vid=1522e6fe-e66c-4a0c-a606-391cd3d5a93b"},"vehicle_type_id":"4","last_reported":1685147901,"current_range_meters":18000,"station_id":"ce4bhpp2rcd13ifvqhfg","pricing_plan_id":"free"},{"bike_id":"d4497e2e-6e0a-4aac-af2d-c52051e55d20","system_id":"levelo_inurba_marseille","lat":43.29896,"lon":5.43673,"is_reserved":false,"is_disabled":false,"rental_uris":{"android":"levelo://app?vid=d4497e2e-6e0a-4aac-af2d-c52051e55d20","ios":"levelo://app?vid=d4497e2e-6e0a-4aac-af2d-c52051e55d20"},"vehicle_type_id":"4","last_reported":1685147901,"current_range_meters":20400,"station_id":"ce4bhpp2rcd13ifvqhfg","pricing_plan_id":"free"},{"bike_id":"dc8f9be1-44ae-4adf-9f9a-7114976b9866","system_id":"levelo_inurba_marseille","lat":43.2607,"lon":5.393983,"is_reserved":false,"is_disabled":false,"rental_uris":{"android":"levelo://app?vid=dc8f9be1-44ae-4adf-9f9a-7114976b9866","ios":"levelo://app?vid=dc8f9be1-44ae-4adf-9f9a-7114976b9866"},"vehicle_type_id":"4","last_reported":1685147901,"current_range_meters":28000,"station_id":"ce4bhh92rcd13ifvqfj0","pricing_plan_id":"free"},{"bike_id":"21a94e83-2bcf-4902-8a6a-85407ac0d3c9","system_id":"levelo_inurba_marseille","lat":43.254952,"lon":5.376471,"is_reserved":false,"is_disabled":false,"rental_uris":{"android":"levelo://app?vid=21a94e83-2bcf-4902-8a6a-85407ac0d3c9","ios":"levelo://app?vid=21a94e83-2bcf-4902-8a6a-85407ac0d3c9"},"vehicle_type_id":"4","last_reported":1685147901,"current_range_meters":6400,"station_id":"","pricing_plan_id":"free"},{"bike_id":"f70a446e-f90f-41e1-bb60-69406fd70c14","system_id":"levelo_inurba_marseille","lat":43.27074,"lon":5.42276,"is_reserved":false,"is_disabled":false,"rental_uris":{"android":"levelo://app?vid=f70a446e-f90f-41e1-bb60-69406fd70c14","ios":"levelo://app?vid=f70a446e-f90f-41e1-bb60-69406fd70c14"},"vehicle_type_id":"4","last_reported":1685147901,"current_range_meters":4800,"station_id":"ce4bhk92rcd13ifvqgb0","pricing_plan_id":"free"},{"bike_id":"783ca787-6440-405d-808e-48711cfe8ddc","system_id":"levelo_inurba_marseille","lat":43.270721,"lon":5.422764,"is_reserved":false,"is_disabled":false,"rental_uris":{"android":"levelo://app?vid=783ca787-6440-405d-808e-48711cfe8ddc","ios":"levelo://app?vid=783ca787-6440-405d-808e-48711cfe8ddc"},"vehicle_type_id":"4","last_reported":1685147901,"current_range_meters":31200,"station_id":"ce4bhk92rcd13ifvqgb0","pricing_plan_id":"free"},{"bike_id":"fb391ea4-e81d-46d6-bf8b-15607b8eba32","system_id":"levelo_inurba_marseille","lat":43.2707,"lon":5.42279,"is_reserved":false,"is_disabled":false,"rental_uris":{"android":"levelo://app?vid=fb391ea4-e81d-46d6-bf8b-15607b8eba32","ios":"levelo://app?vid=fb391ea4-e81d-46d6-bf8b-15607b8eba32"},"vehicle_type_id":"4","last_reported":1685147901,"current_range_meters":23600,"station_id":"ce4bhk92rcd13ifvqgb0","pricing_plan_id":"free"},{"bike_id":"3583dbe0-433b-4cf5-8a78-02a3550f1dd8","system_id":"levelo_inurba_marseille","lat":43.27439,"lon":5.42943,"is_reserved":false,"is_disabled":false,"rental_uris":{"android":"levelo://app?vid=3583dbe0-433b-4cf5-8a78-02a3550f1dd8","ios":"levelo://app?vid=3583dbe0-433b-4cf5-8a78-02a3550f1dd8"},"vehicle_type_id":"4","last_reported":1685147901,"current_range_meters":800,"station_id":"","pricing_plan_id":"free"},{"bike_id":"141f1402-22c0-4bcf-b91d-794031261f7b","system_id":"levelo_inurba_marseille","lat":43.25005,"lon":5.38913,"is_reserved":false,"is_disabled":false,"rental_uris":{"android":"levelo://app?vid=141f1402-22c0-4bcf-b91d-794031261f7b","ios":"levelo://app?vid=141f1402-22c0-4bcf-b91d-794031261f7b"},"vehicle_type_id":"4","last_reported":1685147901,"current_range_meters":0,"station_id":"ce4bhgp2rcd13ifvqfd0","pricing_plan_id":"free"},{"bike_id":"575c7a52-2b7a-43ca-a9aa-343f79fbc80f","system_id":"levelo_inurba_marseille","lat":43.2479,"lon":5.374457,"is_reserved":false,"is_disabled":false,"rental_uris":{"android":"levelo://app?vid=575c7a52-2b7a-43ca-a9aa-343f79fbc80f","ios":"levelo://app?vid=575c7a52-2b7a-43ca-a9aa-343f79fbc80f"},"vehicle_type_id":"4","last_reported":1685147901,"current_range_meters":29200,"station_id":"ce4bhgh2rcd13ifvqfb0","pricing_plan_id":"free"},{"bike_id":"3c5bcae6-fd20-4709-9262-df9556a43c01","system_id":"levelo_inurba_marseille","lat":43.25102,"lon":5.403214,"is_reserved":false,"is_disabled":false,"rental_uris":{"android":"levelo://app?vid=3c5bcae6-fd20-4709-9262-df9556a43c01","ios":"levelo://app?vid=3c5bcae6-fd20-4709-9262-df9556a43c01"},"vehicle_type_id":"4","last_reported":1685147901,"current_range_meters":6400,"station_id":"ce4bhlh2rcd13ifvqgig","pricing_plan_id":"free"},{"bike_id":"c18ce366-9a27-4947-8c99-1e2c7bf9165e","system_id":"levelo_inurba_marseille","lat":43.25102,"lon":5.403214,"is_reserved":false,"is_disabled":false,"rental_uris":{"android":"levelo://app?vid=c18ce366-9a27-4947-8c99-1e2c7bf9165e","ios":"levelo://app?vid=c18ce366-9a27-4947-8c99-1e2c7bf9165e"},"vehicle_type_id":"4","last_reported":1685147901,"current_range_meters":16400,"station_id":"ce4bhlh2rcd13ifvqgig","pricing_plan_id":"free"},{"bike_id":"e67ac434-ce49-4636-878c-1eb5fc52ed3b","system_id":"levelo_inurba_marseille","lat":43.24693,"lon":5.382096,"is_reserved":false,"is_disabled":false,"rental_uris":{"android":"levelo://app?vid=e67ac434-ce49-4636-878c-1eb5fc52ed3b","ios":"levelo://app?vid=e67ac434-ce49-4636-878c-1eb5fc52ed3b"},"vehicle_type_id":"4","last_reported":1685147901,"current_range_meters":2400,"station_id":"ce4bhih2rcd13ifvqfr0","pricing_plan_id":"free"},{"bike_id":"20180ec7-a362-4b14-a479-b69530fdd77b","system_id":"levelo_inurba_marseille","lat":43.25102,"lon":5.403214,"is_reserved":false,"is_disabled":false,"rental_uris":{"android":"levelo://app?vid=20180ec7-a362-4b14-a479-b69530fdd77b","ios":"levelo://app?vid=20180ec7-a362-4b14-a479-b69530fdd77b"},"vehicle_type_id":"4","last_reported":1685147901,"current_range_meters":18800,"station_id":"ce4bhlh2rcd13ifvqgig","pricing_plan_id":"free"},{"bike_id":"77a1adff-4568-49f8-b1a6-57ab17c81988","system_id":"levelo_inurba_marseille","lat":43.25102,"lon":5.403214,"is_reserved":false,"is_disabled":false,"rental_uris":{"android":"levelo://app?vid=77a1adff-4568-49f8-b1a6-57ab17c81988","ios":"levelo://app?vid=77a1adff-4568-49f8-b1a6-57ab17c81988"},"vehicle_type_id":"4","last_reported":1685147901,"current_range_meters":15600,"station_id":"ce4bhlh2rcd13ifvqgig","pricing_plan_id":"free"},