{"last_updated":1768158511,"ttl":60,"version":"2.2","data":{"bikes":[{"bike_id":"a1dcd8bf-b300-4092-8c84-5204375249a5","system_id":"levelo_inurba_marseille","lat":43.24808,"lon":5.37458,"is_reserved":false,"is_disabled":false,"rental_uris":{"android":"levelo://app?vid=a1dcd8bf-b300-4092-8c84-5204375249a5","ios":"levelo://app?vid=a1dcd8bf-b300-4092-8c84-5204375249a5"},"vehicle_type_id":"4","last_reported":1768158511,"current_range_meters":2800,"station_id":"ce4bhgh2rcd13ifvqfb0","pricing_plan_id":"cebpf4jnsgd1na2vs0mg"},{"bike_id":"38327db1-872b-4145-b227-8281d13298a3","system_id":"levelo_inurba_marseille","lat":43.29026,"lon":5.38633,"is_reserved":false,"is_disabled":false,"rental_uris":{"android":"levelo://app?vid=38327db1-872b-4145-b227-8281d13298a3","ios":"levelo://app?vid=38327db1-872b-4145-b227-8281d13298a3"},"vehicle_type_id":"4","last_reported":1768158511,"current_range_meters":2800,"station_id":"ce4bh4p2rcd13ifvqe0g","pricing_plan_id":"cebpf4jnsgd1na2vs0mg"},{"bike_id":"b2295231-8d7a-4a3c-8ee1-7dbae04933b0","system_id":"levelo_inurba_marseille","lat":43.26944,"lon":5.40243,"is_reserved":false,"is_disabled":false,"rental_uris":{"android":"levelo://app?vid=b2295231-8d7a-4a3c-8ee1-7dbae04933b0","ios":"levelo://app?vid=b2295231-8d7a-4a3c-8ee1-7dbae04933b0"},"vehicle_type_id":"4","last_reported":1768158511,"current_range_meters":2800,"station_id":"cjm6bp8fraef2m0cb0m0","pricing_plan_id":"cebpf4jnsgd1na2vs0mg"},{"bike_id":"c1e91021-94d8-459a-85f3-025da15489da","system_id":"levelo_inurba_marseille","lat":43.29891,"lon":5.39732,"is_reserved":false,"is_disabled":false,"rental_uris":{"android":"levelo://app?vid=c1e91021-94d8-459a-85f3-025da15489da","ios":"levelo://app?vid=c1e91021-94d8-459a-85f3-025da15489da"},"vehicle_type_id":"4","last_reported":1768158511,"current_range_meters":2800,"station_id":"ce4bh0h2rcd13ifvqd50","pricing_plan_id":"cebpf4jnsgd1na2vs0mg"},{"bike_id":"2f94929b-7e6c-4e24-b276-2f585e92f29a","system_id":"levelo_inurba_marseille","lat":43.297576,"lon":5.427726,"is_reserved":false,"is_disabled":true,"rental_uris":{"android":"levelo://app?vid=2f94929b-7e6c-4e24-b276-2f585e92f29a","ios":"levelo://app?vid=2f94929b-7e6c-4e24-b276-2f585e92f29a"},"vehicle_type_id":"4","last_reported":1768158511,"current_range_meters":2800,"station_id":"st_d3md5207bmas73dh9klg","pricing_plan_id":"cebpf4jnsgd1na2vs0mg"},{"bike_id":"e3f8a098-8639-446b-9c17-a55f46262e9c","system_id":"levelo_inurba_marseille","lat":43.25344,"lon":5.42152,"is_reserved":false,"is_disabled":false,"rental_uris":{"android":"levelo://app?vid=e3f8a098-8639-446b-9c17-a55f46262e9c","ios":"levelo://app?vid=e3f8a098-8639-446b-9c17-a55f46262e9c"},"vehicle_type_id":"4","last_reported":1768158511,"current_range_meters":2800,"station_id":"st_d2m65c5bi1j21697t3ng","pricing_plan_id":"cebpf4jnsgd1na2vs0mg"},{"bike_id":"2a619a57-8268-4929-b562-bc0b9dfe87a7","system_id":"levelo_inurba_marseille","lat":43.30584,"lon":5.36493,"is_reserved":false,"is_disabled":false,"rental_uris":{"android":"levelo://app?vid=2a619a57-8268-4929-b562-bc0b9dfe87a7","ios":"levelo://app?vid=2a619a57-8268-4929-b562-bc0b9dfe87a7"},"vehicle_type_id":"4","last_reported":1768158511,"current_range_meters":2800,"station_id":"","pricing_plan_id":"cebpf4jnsgd1na2vs0mg"},{"bike_id":"fa7ff91d-cd42-41b4-844a-cd4380b73267","system_id":"levelo_inurba_marseille","lat":43.31159,"lon":5.38709,"is_reserved":false,"is_disabled":false,"rental_uris":{"android":"levelo://app?vid=fa7ff91d-cd42-41b4-844a-cd4380b73267","ios":"levelo://app?vid=fa7ff91d-cd42-41b4-844a-cd4380b73267"},"vehicle_type_id":"4","last_reported":1768158511,"current_range_meters":2800,"station_id":"ce4bgv12rcd13ifvqcp0","pricing_plan_id":"cebpf4jnsgd1na2vs0mg"},{"bike_id":"1b3bfb24-a9b3-432e-a377-81ff67edd865","system_id":"levelo_inurba_marseille","lat":43.24465,"lon":5.42531,"is_reserved":false,"is_disabled":false,"rental_uris":{"android":"levelo://app?vid=1b3bfb24-a9b3-432e-a377-81ff67edd865","ios":"levelo://app?vid=1b3bfb24-a9b3-432e-a377-81ff67edd865"},"vehicle_type_id":"4","last_reported":1768158511,"current_range_meters":2800,"station_id":"st_d4a3vfp97mjs738cd8kg","pricing_plan_id":"cebpf4jnsgd1na2vs0mg"},{"bike_id":"cb084f06-9ca9-4aaa-9da0-9014bf81f35b","system_id":"levelo_inurba_marseille","lat":43.31071,"lon":5.38345,"is_reserved":false,"is_disabled":false,"rental_uris":{"android":"levelo://app?vid=cb084f06-9ca9-4aaa-9da0-9014bf81f35b","ios":"levelo://app?vid=cb084f06-9ca9-4aaa-9da0-9014bf81f35b"},"vehicle_type_id":"4","last_reported":1768158511,"current_range_meters":2800,"station_id":"ce4bgv92rcd13ifvqcr0","pricing_plan_id":"cebpf4jnsgd1na2vs0mg"},{"bike_id":"21fd000f-f4ce-4f18-a6a2-88e29d9458f7","system_id":"levelo_inurba_marseille","lat":43.23784,"lon":5.36594,"is_reserved":false,"is_disabled":false,"rental_uris":{"android":"levelo://app?vid=21fd000f-f4ce-4f18-a6a2-88e29d9458f7","ios":"levelo://app?vid=21fd000f-f4ce-4f18-a6a2-88e29d9458f7"},"vehicle_type_id":"4","last_reported":1768158511,"current_range_meters":2800,"station_id":"st_d3nk18o9ro0c73en2l3g","pricing_plan_id":"cebpf4jnsgd1na2vs0mg"},{"bike_id":"c1729c62-82be-40ab-a622-e09ae60fe140","system_id":"levelo_inurba_marseille","lat":43.299431,"lon":5.365581,"is_reserved":false,"is_disabled":false,"rental_uris":{"android":"levelo://app?vid=c1729c62-82be-40ab-a622-e09ae60fe140","ios":"levelo://app?vid=c1729c62-82be-40ab-a622-e09ae60fe140"},"vehicle_type_id":"4","last_reported":1768158511,"current_range_meters":2800,"station_id":"ce4bgm92rcd13ifvqbr0","pricing_plan_id":"cebpf4jnsgd1na2vs0mg"},{"bike_id":"dbe9e179-37a7-4bf6-8958-b4f7e3523bb3","system_id":"levelo_inurba_marseille","lat":43.28284,"lon":5.43053,"is_reserved":false,"is_disabled":false,"rental_uris":{"android":"levelo://app?vid=dbe9e179-37a7-4bf6-8958-b4f7e3523bb3","ios":"levelo://app?vid=dbe9e179-37a7-4bf6-8958-b4f7e3523bb3"},"vehicle_type_id":"4","last_reported":1768158511,"current_range_meters":2800,"station_id":"","pricing_plan_id":"cebpf4jnsgd1na2vs0mg"},{"bike_id":"7cb0f3c0-91b7-4d52-b819-563f7ddf0545","system_id":"levelo_inurba_marseille","lat":43.28366,"lon":5.38618,"is_reserved":false,"is_disabled":false,"rental_uris":{"android":"levelo://app?vid=7cb0f3c0-91b7-4d52-b819-563f7ddf0545","ios":"levelo://app?vid=7cb0f3c0-91b7-4d52-b819-563f7ddf0545"},"vehicle_type_id":"4","last_reported":1768158511,"current_range_meters":2800,"station_id":"ce4bh492rcd13ifvqdvg","pricing_plan_id":"cebpf4jnsgd1na2vs0mg"},{"bike_id":"d26f4054-daa5-4936-9c27-6bfc7457f4e6","system_id":"levelo_inurba_marseille","lat":43.28852,"lon":5.35835,"is_reserved":false,"is_disabled":false,"rental_uris":{"android":"levelo://app?vid=d26f4054-daa5-4936-9c27-6bfc7457f4e6","ios":"levelo://app?vid=d26f4054-daa5-4936-9c27-6bfc7457f4e6"},"vehicle_type_id":"4","last_reported":1768158511,"current_range_meters":2800,"station_id":"ce4bhb12rcd13ifvqem0","pricing_plan_id":"cebpf4jnsgd1na2vs0mg"},{"bike_id":"4c9d508b-a9bb-4620-a3a2-2cad2f07a3a2","system_id":"levelo_inurba_marseille","lat":43.301234,"lon":5.398691,"is_reserved":false,"is_disabled":false,"rental_uris":{"android":"levelo://app?vid=4c9d508b-a9bb-4620-a3a2-2cad2f07a3a2","ios":"levelo://app?vid=4c9d508b-a9bb-4620-a3a2-2cad2f07a3a2"},"vehicle_type_id":"4","last_reported":1768158511,"current_range_meters":3200,"station_id":"ce4bh0h2rcd13ifvqd40","pricing_plan_id":"cebpf4jnsgd1na2vs0mg"},{"bike_id":"55b9f7bf-f636-4d95-87ce-c4cb6a492fdf","system_id":"levelo_inurba_marseille","lat":43.24646,"lon":5.38882,"is_reserved":false,"is_disabled":false,"rental_uris":{"android":"levelo://app?vid=55b9f7bf-f636-4d95-87ce-c4cb6a492fdf","ios":"levelo://app?vid=55b9f7bf-f636-4d95-87ce-c4cb6a492fdf"},"vehicle_type_id":"4","last_reported":1768158511,"current_range_meters":3200,"station_id":"ce4bhg12rcd13ifvqf60","pricing_plan_id":"cebpf4jnsgd1na2vs0mg"},{"bike_id":"f8075f9d-b8a7-4230-8aa6-7f7f95cc5413","system_id":"levelo_inurba_marseille","lat":43.28196,"lon":5.39048,"is_reserved":false,"is_disabled":true,"rental_uris":{"android":"levelo://app?vid=f8075f9d-b8a7-4230-8aa6-7f7f95cc5413","ios":"levelo://app?vid=f8075f9d-b8a7-4230-8aa6-7f7f95cc5413"},"vehicle_type_id":"4","last_reported":1768158511,"current_range_meters":3200,"station_id":"ce4bhn92rcd13ifvqgsg","pricing_plan_id":"cebpf4jnsgd1na2vs0mg"},{"bike_id":"73aa8b26-ad51-4672-82b0-eabd4ddaa3c3","system_id":"levelo_inurba_marseille","lat":43.288563,"lon":5.358204,"is_reserved":false,"is_disabled":false,"rental_uris":{"android":"levelo://app?vid=73aa8b26-ad51-4672-82b0-eabd4ddaa3c3","ios":"levelo://app?vid=73aa8b26-ad51-4672-82b0-eabd4ddaa3c3"},"vehicle_type_id":"4","last_reported":1768158511,"current_range_meters":3200,"station_id":"ce4bhb12rcd13ifvqem0","pricing_plan_id":"cebpf4jnsgd1na2vs0mg"},{"bike_id":"5094aeb9-ac3f-47d1-a484-8aeeb36f0571","system_id":"levelo_inurba_marseille","lat":43.27961,"lon":5.41654,"is_reserved":false,"is_disabled":false,"rental_uris":{"android":"levelo://app?vid=5094aeb9-ac3f-47d1-a484-8aeeb36f0571","ios":"levelo://app?vid=5094aeb9-ac3f-47d1-a484-8aeeb36f0571"},"vehicle_type_id":"4","last_reported":1768158511,"current_range_meters":3200,"station_id":"ce4bho12rcd13ifvqh1g","pricing_plan_id":"cebpf4jnsgd1na2vs0mg"},{"bike_id":"a578bc33-2971-413b-af4b-9ebdd4bd3257","system_id":"levelo_inurba_marseille","lat":43.28842,"lon":5.35843,"is_reserved":false,"is_disabled":false,"rental_uris":{"android":"levelo://app?vid=a578bc33-2971-413b-af4b-9ebdd4bd3257","ios":"levelo://app?vid=a578bc33-2971-413b-af4b-9ebdd4bd3257"},"vehicle_type_id":"4","last_reported":1768158511,"current_range_meters":3200,"station_id":"ce4bhb12rcd13ifvqem0","pricing_plan_id":"cebpf4jnsgd1na2vs0mg"},{"bike_id":"62119b3a-a6bc-4525-9e02-e04e95b480a0","system_id":"levelo_inurba_marseille","lat":43.31172,"lon":5.38715,"is_reserved":false,"is_disabled":false,"rental_uris":{"android":"levelo://app?vid=62119b3a-a6bc-4525-9e02-e04e95b480a0","ios":"levelo://app?vid=62119b3a-a6bc-4525-9e02-e04e95b480a0"},"vehicle_type_id":"4","last_reported":1768158511,"current_range_meters":3200,"station_id":"ce4bgv12rcd13ifvqcp0","pricing_plan_id":"cebpf4jnsgd1na2vs0mg"},{"bike_id":"60655c68-cb7f-498c-bf2a-70aa4ef9e5cd","system_id":"levelo_inurba_marseille","lat":43.29808,"lon":5.38067,"is_reserved":false,"is_disabled":false,"rental_uris":{"android":"levelo://app?vid=60655c68-cb7f-498c-bf2a-70aa4ef9e5cd","ios":"levelo://app?vid=60655c68-cb7f-498c-bf2a-70aa4ef9e5cd"},"vehicle_type_id":"4","last_reported":1768158511,"current_range_meters":3200,"station_id":"ce4bgip2rcd13ifvqbb0","pricing_plan_id":"cebpf4jnsgd1na2vs0mg"},{"bike_id":"6f121fb8-7184-49f1-9f82-ee1eb3c16e00","system_id":"levelo_inurba_marseille","lat":43.26564,"lon":5.40326,"is_reserved":false,"is_disabled":false,"rental_uris":{"android":"levelo://app?vid=6f121fb8-7184-49f1-9f82-ee1eb3c16e00","ios":"levelo://app?vid=6f121fb8-7184-49f1-9f82-ee1eb3c16e00"},"vehicle_type_id":"4","last_reported":1768158511,"current_range_meters":3200,"station_id":"ce4bhmp2rcd13ifvqgng","pricing_plan_id":"cebpf4jnsgd1na2vs0mg"},{"bike_id":"852ec89d-4d4f-4349-be90-3089a890c03c","system_id":"levelo_inurba_marseille","lat":43.304578,"lon":5.389942,"is_reserved":false,"is_disabled":false,"rental_uris":{"android":"levelo://app?vid=852ec89d-4d4f-4349-be90-3089a890c03c","ios":"levelo://app?vid=852ec89d-4d4f-4349-be90-3089a890c03c"},"vehicle_type_id":"4","last_reported":1768158511,"current_range_meters":3200,"station_id":"ce4bgk12rcd13ifvqbi0","pricing_plan_id":"cebpf4jnsgd1na2vs0mg"},{"bike_id":"0638b680-f974-452c-a45b-f053330d47f8","system_id":"levelo_inurba_marseille","lat":43.2789,"lon":5.37994,"is_reserved":false,"is_disabled":false,"rental_uris":{"android":"levelo://app?vid=0638b680-f974-452c-a45b-f053330d47f8","ios":"levelo://app?vid=0638b680-f974-452c-a45b-f053330d47f8"},"vehicle_type_id":"4","last_reported":1768158511,"current_range_meters":3200,"station_id":"ce4bhf92rcd13ifvqf50","pricing_plan_id":"cebpf4jnsgd1na2vs0mg"},{"bike_id":"445783c0-a6c8-42cd-a157-680390d414ee","system_id":"levelo_inurba_marseille","lat":43.29027,"lon":5.38642,"is_reserved":false,"is_disabled":false,"rental_uris":{"android":"levelo://app?vid=445783c0-a6c8-42cd-a157-680390d414ee","ios":"levelo://app?vid=445783c0-a6c8-42cd-a157-680390d414ee"},"vehicle_type_id":"4","last_reported":1768158511,"current_range_meters":3200,"station_id":"ce4bh4p2rcd13ifvqe0g","pricing_plan_id":"cebpf4jnsgd1na2vs0mg"},{"bike_id":"6d4241cb-8fdd-45a8-9b7f-c891780635f5","system_id":"levelo_inurba_marseille","lat":43.2738,"lon":5.38271,"is_reserved":false,"is_disabled":false,"rental_uris":{"android":"levelo://app?vid=6d4241cb-8fdd-45a8-9b7f-c891780635f5","ios":"levelo://app?vid=6d4241cb-8fdd-45a8-9b7f-c891780635f5"},"vehicle_type_id":"4","last_reported":1768158511,"current_range_meters":3200,"station_id":"","pricing_plan_id":"cebpf4jnsgd1na2vs0mg"},{"bike_id":"16e3fedb-ca09-4c48-89c8-9b7e653afc1d","system_id":"levelo_inurba_marseille","lat":43.21195,"lon":5.35069,"is_reserved":false,"is_disabled":false,"rental_uris":{"android":"levelo://app?vid=16e3fedb-ca09-4c48-89c8-9b7e653afc1d","ios":"levelo://app?vid=16e3fedb-ca09-4c48-89c8-9b7e653afc1d"},"vehicle_type_id":"4","last_reported":1768158511,"current_range_meters":3200,"station_id":"st_cvj6sg6p6f1abm77japg","pricing_plan_id":"cebpf4jnsgd1na2vs0mg"},{"bike_id":"3a7d4bf0-4f04-4cf8-b966-90e49b6d003c","system_id":"levelo_inurba_marseille","lat":43.26607,"lon":5.39061,"is_reserved":false,"is_disabled":false,"rental_uris":{"android":"levelo://app?vid=3a7d4bf0-4f04-4cf8-b966-90e49b6d003c","ios":"levelo://app?vid=3a7d4bf0-4f04-4cf8-b966-90e49b6d003c"},"vehicle_type_id":"4","last_reported":1768158511,"current_range_meters":3600,"station_id":"ce4bhe12rcd13ifvqf30","pricing_plan_id":"cebpf4jnsgd1na2vs0mg"},{"bike_id":"3298400b-a581-435c-aa7d-6c0aebe8e78f","system_id":"levelo_inurba_marseille","lat":43.32479,"lon":5.36561,"is_reserved":false,"is_disabled":false,"rental_uris":{"android":"levelo://app?vid=3298400b-a581-435c-aa7d-6c0aebe8e78f","ios":"levelo://app?vid=3298400b-a581-435c-aa7d-6c0aebe8e78f"},"vehicle_type_id":"4","last_reported":1768158511,"current_range_meters":3600,"station_id":"ce4bhs12rcd13ifvqhvg","pricing_plan_id":"cebpf4jnsgd1na2vs0mg"},{"bike_id":"ff43ef99-a2e3-42cb-a87f-e919c3749872","system_id":"levelo_inurba_marseille","lat":43.29717,"lon":5.41478,"is_reserved":false,"is_disabled":false,"rental_uris":{"android":"levelo://app?vid=ff43ef99-a2e3-42cb-a87f-e919c3749872","ios":"levelo://app?vid=ff43ef99-a2e3-42cb-a87f-e919c3749872"},"vehicle_type_id":"4","last_reported":1768158511,"current_range_meters":3600,"station_id":"","pricing_plan_id":"cebpf4jnsgd1na2vs0mg"},{"bike_id":"499b63c7-d47c-4bda-89d6-56b8c0a94a03","system_id":"levelo_inurba_marseille","lat":43.3167,"lon":5.43094,"is_reserved":false,"is_disabled":false,"rental_uris":{"android":"levelo://app?vid=499b63c7-d47c-4bda-89d6-56b8c0a94a03","ios":"levelo://app?vid=499b63c7-d47c-4bda-89d6-56b8c0a94a03"},"vehicle_type_id":"4","last_reported":1768158511,"current_range_meters":3600,"station_id":"","pricing_plan_id":"cebpf4jnsgd1na2vs0mg"},{"bike_id":"70d25010-65be-4935-8d25-0b0275909892","system_id":"levelo_inurba_marseille","lat":43.27811,"lon":5.40696,"is_reserved":false,"is_disabled":false,"rental_uris":{"android":"levelo://app?vid=70d25010-65be-4935-8d25-0b0275909892","ios":"levelo://app?vid=70d25010-65be-4935-8d25-0b0275909892"},"vehicle_type_id":"4","last_reported":1768158511,"current_range_meters":3600,"station_id":"ce4bhnh2rcd13ifvqgtg","pricing_plan_id":"cebpf4jnsgd1na2vs0mg"},{"bike_id":"d047f3e6-5232-4d8a-a716-cf93d04ed4b1","system_id":"levelo_inurba_marseille","lat":43.27171,"lon":5.41002,"is_reserved":false,"is_disabled":false,"rental_uris":{"android":"levelo://app?vid=d047f3e6-5232-4d8a-a716-cf93d04ed4b1","ios":"levelo://app?vid=d047f3e6-5232-4d8a-a716-cf93d04ed4b1"},"vehicle_type_id":"4","last_reported":1768158511,"current_range_meters":3600,"station_id":"ce4bhl12rcd13ifvqgf0","pricing_plan_id":"cebpf4jnsgd1na2vs0mg"},{"bike_id":"9695ced4-9069-43de-9381-414e38a96d05","system_id":"levelo_inurba_marseille","lat":43.30051,"lon":5.37165,"is_reserved":false,"is_disabled":false,"rental_uris":{"android":"levelo://app?vid=9695ced4-9069-43de-9381-414e38a96d05","ios":"levelo://app?vid=9695ced4-9069-43de-9381-414e38a96d05"},"vehicle_type_id":"4","last_reported":1768158511,"current_range_meters":3600,"station_id":"","pricing_plan_id":"cebpf4jnsgd1na2vs0mg"},{"bike_id":"7f391882-abdd-4a67-9c14-bc81f5c2dbfb","system_id":"levelo_inurba_marseille","lat":43.24075,"lon":5.37742,"is_reserved":false,"is_disabled":false,"rental_uris":{"android":"levelo://app?vid=7f391882-abdd-4a67-9c14-bc81f5c2dbfb","ios":"levelo://app?vid=7f391882-abdd-4a67-9c14-bc81f5c2dbfb"},"vehicle_type_id":"4","last_reported":1768158511,"current_range_meters":3600,"station_id":"ce4bhnp2rcd13ifvqgvg","pricing_plan_id":"cebpf4jnsgd1na2vs0mg"},{"bike_id":"cfcad6e1-07c8-4c74-ba37-95de89a0dd64","system_id":"levelo_inurba_marseille","lat":43.28006,"lon":5.39999,"is_reserved":false,"is_disabled":false,"rental_uris":{"android":"levelo://app?vid=cfcad6e1-07c8-4c74-ba37-95de89a0dd64","ios":"levelo://app?vid=cfcad6e1-07c8-4c74-ba37-95de89a0dd64"},"vehicle_type_id":"4","last_reported":1768158511,"current_range_meters":3600,"station_id":"ce4bho92rcd13ifvqh4g","pricing_plan_id":"cebpf4jnsgd1na2vs0mg"},{"bike_id":"7c6e8543-32df-4a27-bc11-b68f55311974","system_id":"levelo_inurba_marseille","lat":43.2846,"lon":5.48402,"is_reserved":false,"is_disabled":false,"rental_uris":{"android":"levelo://app?vid=7c6e8543-32df-4a27-bc11-b68f55311974","ios":"levelo://app?vid=7c6e8543-32df-4a27-bc11-b68f55311974"},"vehicle_type_id":"4","last_reported":1768158511,"current_range_meters":3600,"station_id":"","pricing_plan_id":"cebpf4jnsgd1na2vs0mg"},{"bike_id":"f25b7784-aea1-474c-95c0-0460034c3211","system_id":"levelo_inurba_marseille","lat":43.30943,"lon":5.40118,"is_reserved":false,"is_disabled":false,"rental_uris":{"android":"levelo://app?vid=f25b7784-aea1-474c-95c0-0460034c3211","ios":"levelo://app?vid=f25b7784-aea1-474c-95c0-0460034c3211"},"vehicle_type_id":"4","last_reported":1768158511,"current_range_meters":3600,"station_id":"ce4bgvp2rcd13ifvqct0","pricing_plan_id":"cebpf4jnsgd1na2vs0mg"},{"bike_id":"c7c2fb25-2812-4554-a688-8c1334dc293c","system_id":"levelo_inurba_marseille","lat":43.33359,"lon":5.41124,"is_reserved":false,"is_disabled":false,"rental_uris":{"android":"levelo://app?vid=c7c2fb25-2812-4554-a688-8c1334dc293c","ios":"levelo://app?vid=c7c2fb25-2812-4554-a688-8c1334dc293c"},"vehicle_type_id":"4","last_reported":1768158511,"current_range_meters":3600,"station_id":"","pricing_plan_id":"cebpf4jnsgd1na2vs0mg"},{"bike_id":"63449c6f-1d9d-409a-8231-4295bcad5e5c","system_id":"levelo_inurba_marseille","lat":43.22928,"lon":5.35375,"is_reserved":false,"is_disabled":false,"rental_uris":{"android":"levelo://app?vid=63449c6f-1d9d-409a-8231-4295bcad5e5c","ios":"levelo://app?vid=63449c6f-1d9d-409a-8231-4295bcad5e5c"},"vehicle_type_id":"4","last_reported":1768158511,"current_range_meters":3600,"station_id":"cpo3532slgdg3j2ikp40","pricing_plan_id":"cebpf4jnsgd1na2vs0mg"},{"bike_id":"a815540b-72e6-4e6f-b923-e273e879b5e8","system_id":"levelo_inurba_marseille","lat":43.255793,"lon":5.382303,"is_reserved":false,"is_disabled":false,"rental_uris":{"android":"levelo://app?vid=a815540b-72e6-4e6f-b923-e273e879b5e8","ios":"levelo://app?vid=a815540b-72e6-4e6f-b923-e273e879b5e8"},"vehicle_type_id":"4","last_reported":1768158511,"current_range_meters":4000,"station_id":"ce4bhih2rcd13ifvqfs0","pricing_plan_id":"cebpf4jnsgd1na2vs0mg"},{"bike_id":"e75be847-48b0-4b1d-b9d5-c6eeb07ee07e","system_id":"levelo_inurba_marseille","lat":43.30211,"lon":5.39465,"is_reserved":false,"is_disabled":false,"rental_uris":{"android":"levelo://app?vid=e75be847-48b0-4b1d-b9d5-c6eeb07ee07e","ios":"levelo://app?vid=e75be847-48b0-4b1d-b9d5-c6eeb07ee07e"},"vehicle_type_id":"4","last_reported":1768158511,"current_range_meters":4000,"station_id":"ce4bh0p2rcd13ifvqd70","pricing_plan_id":"cebpf4jnsgd1na2vs0mg"},{"bike_id":"e7e6cb92-4ba6-4878-a96f-e087afdbdbc0","system_id":"levelo_inurba_marseille","lat":43.22925,"lon":5.3538,"is_reserved":false,"is_disabled":false,"rental_uris":{"android":"levelo://app?vid=e7e6cb92-4ba6-4878-a96f-e087afdbdbc0","ios":"levelo://app?vid=e7e6cb92-4ba6-4878-a96f-e087afdbdbc0"},"vehicle_type_id":"4","last_reported":1768158511,"current_range_meters":4000,"station_id":"cpo3532slgdg3j2ikp40","pricing_plan_id":"cebpf4jnsgd1na2vs0mg"},{"bike_id":"de025d8b-9701-499a-99d0-5a88bfb4d63f","system_id":"levelo_inurba_marseille","lat":43.25576,"lon":5.38232,"is_reserved":false,"is_disabled":false,"rental_uris":{"android":"levelo://app?vid=de025d8b-9701-499a-99d0-5a88bfb4d63f","ios":"levelo://app?vid=de025d8b-9701-499a-99d0-5a88bfb4d63f"},"vehicle_type_id":"4","last_reported":1768158511,"current_range_meters":4000,"station_id":"ce4bhih2rcd13ifvqfs0","pricing_plan_id":"cebpf4jnsgd1na2vs0mg"},{"bike_id":"ee66d2db-c17a-4b2a-83f9-37da596d1de5","system_id":"levelo_inurba_marseille","lat":43.24159,"lon":5.36397,"is_reserved":false,"is_disabled":false,"rental_uris":{"android":"levelo://app?vid=ee66d2db-c17a-4b2a-83f9-37da596d1de5","ios":"levelo://app?vid=ee66d2db-c17a-4b2a-83f9-37da596d1de5"},"vehicle_type_id":"4","last_reported":1768158511,"current_range_meters":4000,"station_id":"cpo36qri1sfpv3e86is0","pricing_plan_id":"cebpf4jnsgd1na2vs0mg"},{"bike_id":"6074d460-8355-43c9-ad00-28e850a7492f","system_id":"levelo_inurba_marseille","lat":43.28868,"lon":5.42501,"is_reserved":false,"is_disabled":false,"rental_uris":{"android":"levelo://app?vid=6074d460-8355-43c9-ad00-28e850a7492f","ios":"levelo://app?vid=6074d460-8355-43c9-ad00-28e850a7492f"},"vehicle_type_id":"4","last_reported":1768158511,"current_range_meters":4000,"station_id":"st_d3b462108ojc7389ooeg","pricing_plan_id":"cebpf4jnsgd1na2vs0mg"},{"bike_id":"3a944ff1-8f80-4b3a-87d1-40b3f03c9b0c","system_id":"levelo_inurba_marseille","lat":43.310884,"lon":5.386344,"is_reserved":false,"is_disabled":false,"rental_uris":{"android":"levelo://app?vid=3a944ff1-8f80-4b3a-87d1-40b3f03c9b0c","ios":"levelo://app?vid=3a944ff1-8f80-4b3a-87d1-40b3f03c9b0c"},"vehicle_type_id":"4","last_reported":1768158511,"current_range_meters":4000,"station_id":"","pricing_plan_id":"cebpf4jnsgd1na2vs0mg"},{"bike_id":"a20e324f-461e-49f1-9758-c1dce453e58f","system_id":"levelo_inurba_marseille","lat":43.229361,"lon":5.35367,"is_reserved":false,"is_disabled":false,"rental_uris":{"android":"levelo://app?vid=a20e324f-461e-49f1-9758-c1dce453e58f","ios":"levelo://app?vid=a20e324f-461e-49f1-9758-c1dce453e58f"},"vehicle_type_id":"4","last_reported":1768158511,"current_range_meters":4000,"station_id":"cpo3532slgdg3j2ikp40","pricing_plan_id":"cebpf4jnsgd1na2vs0mg"},{"bike_id":"0c4ecb86-47b8-4efa-b100-4abd6fc5fb3e","system_id":"levelo_inurba_marseille","lat":43.24811,"lon":5.37443,"is_reserved":false,"is_disabled":false,"rental_uris":{"android":"levelo://app?vid=0c4ecb86-47b8-4efa-b100-4abd6fc5fb3e","ios":"levelo://app?vid=0c4ecb86-47b8-4efa-b100-4abd6fc5fb3e"},"vehicle_type_id":"4","last_reported":1768158511,"current_range_meters":4000,"station_id":"ce4bhgh2rcd13ifvqfb0","pricing_plan_id":"cebpf4jnsgd1na2vs0mg"},{"bike_id":"21f2137c-178c-4a13-87c4-5d3f3db886f2","system_id":"levelo_inurba_marseille","lat":43.24476,"lon":5.42541,"is_reserved":false,"is_disabled":false,"rental_uris":{"android":"levelo://app?vid=21f2137c-178c-4a13-87c4-5d3f3db886f2","ios":"levelo://app?vid=21f2137c-178c-4a13-87c4-5d3f3db886f2"},"vehicle_type_id":"4","last_reported":1768158511,"current_range_meters":4000,"station_id":"st_d4a3vfp97mjs738cd8kg","pricing_plan_id":"cebpf4jnsgd1na2vs0mg"},{"bike_id":"e22cc6a3-5217-4c70-a0c3-1bb618e9068d","system_id":"levelo_inurba_marseille","lat":43.28928,"lon":5.36621,"is_reserved":false,"is_disabled":false,"rental_uris":{"android":"levelo://app?vid=e22cc6a3-5217-4c70-a0c3-1bb618e9068d","ios":"levelo://app?vid=e22cc6a3-5217-4c70-a0c3-1bb618e9068d"},"vehicle_type_id":"4","last_reported":1768158511,"current_range_meters":4000,"station_id":"ce4bhap2rcd13ifvqek0","pricing_plan_id":"cebpf4jnsgd1na2vs0mg"},{"bike_id":"24c968e2-f349-4093-a3b0-fcccfcdd6929","system_id":"levelo_inurba_marseille","lat":43.27362,"lon":5.36244,"is_reserved":false,"is_disabled":false,"rental_uris":{"android":"levelo://app?vid=24c968e2-f349-4093-a3b0-fcccfcdd6929","ios":"levelo://app?vid=24c968e2-f349-4093-a3b0-fcccfcdd6929"},"vehicle_type_id":"4","last_reported":1768158511,"current_range_meters":4000,"station_id":"ce4bhbh2rcd13ifvqeo0","pricing_plan_id":"cebpf4jnsgd1na2vs0mg"},{"bike_id":"604f78fd-36d7-4821-843f-e68feb228a98","system_id":"levelo_inurba_marseille","lat":43.241607,"lon":5.364217,"is_reserved":false,"is_disabled":false,"rental_uris":{"android":"levelo://app?vid=604f78fd-36d7-4821-843f-e68feb228a98","ios":"levelo://app?vid=604f78fd-36d7-4821-843f-e68feb228a98"},"vehicle_type_id":"4","last_reported":1768158511,"current_range_meters":4400,"station_id":"cpo36qri1sfpv3e86is0","pricing_plan_id":"cebpf4jnsgd1na2vs0mg"},{"bike_id":"202b9ed5-8993-43b0-b2e5-5a58a7060431","system_id":"levelo_inurba_marseille","lat":43.28082,"lon":5.39656,"is_reserved":false,"is_disabled":false,"rental_uris":{"android":"levelo://app?vid=202b9ed5-8993-43b0-b2e5-5a58a7060431","ios":"levelo://app?vid=202b9ed5-8993-43b0-b2e5-5a58a7060431"},"vehicle_type_id":"4","last_reported":1768158511,"current_range_meters":4400,"station_id":"ce4bho12rcd13ifvqh2g","pricing_plan_id":"cebpf4jnsgd1na2vs0mg"},{"bike_id":"26201a0e-2fa7-46bf-adb4-65d194f95ff4","system_id":"levelo_inurba_marseille","lat":43.2868,"lon":5.37393,"is_reserved":false,"is_disabled":true,"rental_uris":{"android":"levelo://app?vid=26201a0e-2fa7-46bf-adb4-65d194f95ff4","ios":"levelo://app?vid=26201a0e-2fa7-46bf-adb4-65d194f95ff4"},"vehicle_type_id":"4","last_reported":1768158511,"current_range_meters":4400,"station_id":"ce4bh3p2rcd13ifvqdq0","pricing_plan_id":"cebpf4jnsgd1na2vs0mg"},{"bike_id":"13a9c239-15d3-4470-9e4f-ae229b9c026f","system_id":"levelo_inurba_marseille","lat":43.21195,"lon":5.35073,"is_reserved":false,"is_disabled":true,"rental_uris":{"android":"levelo://app?vid=13a9c239-15d3-4470-9e4f-ae229b9c026f","ios":"levelo://app?vid=13a9c239-15d3-4470-9e4f-ae229b9c026f"},"vehicle_type_id":"4","last_reported":1768158511,"current_range_meters":4400,"station_id":"st_cvj6sg6p6f1abm77japg","pricing_plan_id":"cebpf4jnsgd1na2vs0mg"},{"bike_id":"15acaff8-889e-4081-ae54-8b8658492504","system_id":"levelo_inurba_marseille","lat":43.31411,"lon":5.40344,"is_reserved":false,"is_disabled":false,"rental_uris":{"android":"levelo://app?vid=15acaff8-889e-4081-ae54-8b8658492504","ios":"levelo://app?vid=15acaff8-889e-4081-ae54-8b8658492504"},"vehicle_type_id":"4","last_reported":1768158511,"current_range_meters":4400,"station_id":"","pricing_plan_id":"cebpf4jnsgd1na2vs0mg"},{"bike_id":"9e9276e3-a8ca-4969-8c04-47f68072c26e","system_id":"levelo_inurba_marseille","lat":43.22538,"lon":5.34799,"is_reserved":false,"is_disabled":false,"rental_uris":{"android":"levelo://app?vid=9e9276e3-a8ca-4969-8c04-47f68072c26e","ios":"levelo://app?vid=9e9276e3-a8ca-4969-8c04-47f68072c26e"},"vehicle_type_id":"4","last_reported":1768158511,"current_range_meters":4400,"station_id":"","pricing_plan_id":"cebpf4jnsgd1na2vs0mg"},{"bike_id":"6ed24c70-5929-4c23-8871-b5aa38f16bd3","system_id":"levelo_inurba_marseille","lat":43.24666,"lon":5.38149,"is_reserved":false,"is_disabled":false,"rental_uris":{"android":"levelo://app?vid=6ed24c70-5929-4c23-8871-b5aa38f16bd3","ios":"levelo://app?vid=6ed24c70-5929-4c23-8871-b5aa38f16bd3"},"vehicle_type_id":"4","last_reported":1768158511,"current_range_meters":4400,"station_id":"ce4bhih2rcd13ifvqfr0","pricing_plan_id":"cebpf4jnsgd1na2vs0mg"},{"bike_id":"1e5349c9-1961-45c6-b629-396680afa24e","system_id":"levelo_inurba_marseille","lat":43.23192,"lon":5.35554,"is_reserved":false,"is_disabled":false,"rental_uris":{"android":"levelo://app?vid=1e5349c9-1961-45c6-b629-396680afa24e","ios":"levelo://app?vid=1e5349c9-1961-45c6-b629-396680afa24e"},"vehicle_type_id":"4","last_reported":1768158511,"current_range_meters":4400,"station_id":"ce4bhu92rcd13ifvqi70","pricing_plan_id":"cebpf4jnsgd1na2vs0mg"},{"bike_id":"a086ce0c-3cff-47d2-ac7e-009ad7c5e69f","system_id":"levelo_inurba_marseille","lat":43.24075,"lon":5.37763,"is_reserved":false,"is_disabled":false,"rental_uris":{"android":"levelo://app?vid=a086ce0c-3cff-47d2-ac7e-009ad7c5e69f","ios":"levelo://app?vid=a086ce0c-3cff-47d2-ac7e-009ad7c5e69f"},"vehicle_type_id":"4","last_reported":1768158511,"current_range_meters":4800,"station_id":"ce4bhnp2rcd13ifvqgvg","pricing_plan_id":"cebpf4jnsgd1na2vs0mg"},{"bike_id":"c46739cb-8652-48d3-972f-9096dc83781a","system_id":"levelo_inurba_marseille","lat":43.2319,"lon":5.35562,"is_reserved":false,"is_disabled":false,"rental_uris":{"android":"levelo://app?vid=c46739cb-8652-48d3-972f-9096dc83781a","ios":"levelo://app?vid=c46739cb-8652-48d3-972f-9096dc83781a"},"vehicle_type_id":"4","last_reported":1768158511,"current_range_meters":4800,"station_id":"ce4bhu92rcd13ifvqi70","pricing_plan_id":"cebpf4jnsgd1na2vs0mg"},{"bike_id":"3632ea8b-40de-4396-b94a-0af04633fa3b","system_id":"levelo_inurba_marseille","lat":43.26546,"lon":5.37283,"is_reserved":false,"is_disabled":false,"rental_uris":{"android":"levelo://app?vid=3632ea8b-40de-4396-b94a-0af04633fa3b","ios":"levelo://app?vid=3632ea8b-40de-4396-b94a-0af04633fa3b"},"vehicle_type_id":"4","last_reported":1768158511,"current_range_meters":4800,"station_id":"ce4bhg12rcd13ifvqf70","pricing_plan_id":"cebpf4jnsgd1na2vs0mg"},{"bike_id":"63fdfcde-c194-4554-84ef-d1d69c79a723","system_id":"levelo_inurba_marseille","lat":43.28972,"lon":5.35608,"is_reserved":false,"is_disabled":false,"rental_uris":{"android":"levelo://app?vid=63fdfcde-c194-4554-84ef-d1d69c79a723","ios":"levelo://app?vid=63fdfcde-c194-4554-84ef-d1d69c79a723"},"vehicle_type_id":"4","last_reported":1768158511,"current_range_meters":4800,"station_id":"ce4bhb92rcd13ifvqen0","pricing_plan_id":"cebpf4jnsgd1na2vs0mg"},{"bike_id":"ae427873-2ce0-47ee-826b-d04d8e4f867a","system_id":"levelo_inurba_marseille","lat":43.30129,"lon":5.43112,"is_reserved":false,"is_disabled":false,"rental_uris":{"android":"levelo://app?vid=ae427873-2ce0-47ee-826b-d04d8e4f867a","ios":"levelo://app?vid=ae427873-2ce0-47ee-826b-d04d8e4f867a"},"vehicle_type_id":"4","last_reported":1768158511,"current_range_meters":4800,"station_id":"st_d3js3co5814s73ftftug","pricing_plan_id":"cebpf4jnsgd1na2vs0mg"},{"bike_id":"16c0960c-9de7-4b37-a0c4-1bf60f2af40d","system_id":"levelo_inurba_marseille","lat":43.28427,"lon":5.34987,"is_reserved":false,"is_disabled":false,"rental_uris":{"android":"levelo://app?vid=16c0960c-9de7-4b37-a0c4-1bf60f2af40d","ios":"levelo://app?vid=16c0960c-9de7-4b37-a0c4-1bf60f2af40d"},"vehicle_type_id":"4","last_reported":1768158511,"current_range_meters":4800,"station_id":"ce4bhbh2rcd13ifvqepg","pricing_plan_id":"cebpf4jnsgd1na2vs0mg"},{"bike_id":"ccbe76d3-bc0d-49c4-ae83-7ec33ebf6571","system_id":"levelo_inurba_marseille","lat":43.22563,"lon":5.41621,"is_reserved":false,"is_disabled":false,"rental_uris":{"android":"levelo://app?vid=ccbe76d3-bc0d-49c4-ae83-7ec33ebf6571","ios":"levelo://app?vid=ccbe76d3-bc0d-49c4-ae83-7ec33ebf6571"},"vehicle_type_id":"4","last_reported":1768158511,"current_range_meters":4800,"station_id":"st_d2o4gvlbi1j2169b742g","pricing_plan_id":"cebpf4jnsgd1na2vs0mg"},{"bike_id":"e37fa36d-467a-4084-be74-327706378111","system_id":"levelo_inurba_marseille","lat":43.31124,"lon":5.37755,"is_reserved":false,"is_disabled":false,"rental_uris":{"android":"levelo://app?vid=e37fa36d-467a-4084-be74-327706378111","ios":"levelo://app?vid=e37fa36d-467a-4084-be74-327706378111"},"vehicle_type_id":"4","last_reported":1768158511,"current_range_meters":4800,"station_id":"ce4bgt92rcd13ifvqcg0","pricing_plan_id":"cebpf4jnsgd1na2vs0mg"},{"bike_id":"37285173-7629-4cca-86c4-ad83064b32f4","system_id":"levelo_inurba_marseille","lat":43.26547,"lon":5.37298,"is_reserved":false,"is_disabled":false,"rental_uris":{"android":"levelo://app?vid=37285173-7629-4cca-86c4-ad83064b32f4","ios":"levelo://app?vid=37285173-7629-4cca-86c4-ad83064b32f4"},"vehicle_type_id":"4","last_reported":1768158511,"current_range_meters":4800,"station_id":"ce4bhg12rcd13ifvqf70","pricing_plan_id":"cebpf4jnsgd1na2vs0mg"},{"bike_id":"6fdf77f4-df4a-4c49-9e87-7104cf455c2b","system_id":"levelo_inurba_marseille","lat":43.31322,"lon":5.3866,"is_reserved":false,"is_disabled":true,"rental_uris":{"android":"levelo://app?vid=6fdf77f4-df4a-4c49-9e87-7104cf455c2b","ios":"levelo://app?vid=6fdf77f4-df4a-4c49-9e87-7104cf455c2b"},"vehicle_type_id":"4","last_reported":1768158511,"current_range_meters":4800,"station_id":"ce4bgt92rcd13ifvqcf0","pricing_plan_id":"cebpf4jnsgd1na2vs0mg"},{"bike_id":"f29bcdd1-b142-420c-9a19-02897faadde8","system_id":"levelo_inurba_marseille","lat":43.2867,"lon":5.3635,"is_reserved":false,"is_disabled":false,"rental_uris":{"android":"levelo://app?vid=f29bcdd1-b142-420c-9a19-02897faadde8","ios":"levelo://app?vid=f29bcdd1-b142-420c-9a19-02897faadde8"},"vehicle_type_id":"4","last_reported":1768158511,"current_range_meters":4800,"station_id":"ce4bhah2rcd13ifvqej0","pricing_plan_id":"cebpf4jnsgd1na2vs0mg"},{"bike_id":"063df669-1fca-4e26-ada7-7621db8bb52b","system_id":"levelo_inurba_marseille","lat":43.29982,"lon":5.38498,"is_reserved":false,"is_disabled":false,"rental_uris":{"android":"levelo://app?vid=063df669-1fca-4e26-ada7-7621db8bb52b","ios":"levelo://app?vid=063df669-1fca-4e26-ada7-7621db8bb52b"},"vehicle_type_id":"4","last_reported":1768158511,"current_range_meters":4800,"station_id":"ce4bgj92rcd13ifvqbd0","pricing_plan_id":"cebpf4jnsgd1na2vs0mg"},{"bike_id":"f4a60f1b-2920-4fb8-8f42-1eaeaa00e372","system_id":"levelo_inurba_marseille","lat":43.30122,"lon":5.43121,"is_reserved":false,"is_disabled":false,"rental_uris":{"android":"levelo://app?vid=f4a60f1b-2920-4fb8-8f42-1eaeaa00e372","ios":"levelo://app?vid=f4a60f1b-2920-4fb8-8f42-1eaeaa00e372"},"vehicle_type_id":"4","last_reported":1768158511,"current_range_meters":4800,"station_id":"st_d3js3co5814s73ftftug","pricing_plan_id":"cebpf4jnsgd1na2vs0mg"},{"bike_id":"21b36af9-5980-4af9-95e8-5ecd52aecbcb","system_id":"levelo_inurba_marseille","lat":43.25353,"lon":5.42193,"is_reserved":false,"is_disabled":false,"rental_uris":{"android":"levelo://app?vid=21b36af9-5980-4af9-95e8-5ecd52aecbcb","ios":"levelo://app?vid=21b36af9-5980-4af9-95e8-5ecd52aecbcb"},"vehicle_type_id":"4","last_reported":1768158511,"current_range_meters":4800,"station_id":"st_d2m65c5bi1j21697t3ng","pricing_plan_id":"cebpf4jnsgd1na2vs0mg"},{"bike_id":"0ff62afa-30df-4cf1-823f-f4ef4b2362a3","system_id":"levelo_inurba_marseille","lat":43.25514,"lon":5.37664,"is_reserved":false,"is_disabled":true,"rental_uris":{"android":"levelo://app?vid=0ff62afa-30df-4cf1-823f-f4ef4b2362a3","ios":"levelo://app?vid=0ff62afa-30df-4cf1-823f-f4ef4b2362a3"},"vehicle_type_id":"4","last_reported":1768158511,"current_range_meters":4800,"station_id":"ce4bhh12rcd13ifvqff0","pricing_plan_id":"cebpf4jnsgd1na2vs0mg"},{"bike_id":"42a3a59a-45b8-4e89-bed7-c1a6b85c9b70","system_id":"levelo_inurba_marseille","lat":43.28491,"lon":5.38411,"is_reserved":false,"is_disabled":false,"rental_uris":{"android":"levelo://app?vid=42a3a59a-45b8-4e89-bed7-c1a6b85c9b70","ios":"levelo://app?vid=42a3a59a-45b8-4e89-bed7-c1a6b85c9b70"},"vehicle_type_id":"4","last_reported":1768158511,"current_range_meters":4800,"station_id":"ce4bh512rcd13ifvqe3g","pricing_plan_id":"cebpf4jnsgd1na2vs0mg"},{"bike_id":"91911e67-1c8b-4110-91ee-f8da4103d9f2","system_id":"levelo_inurba_marseille","lat":43.317553,"lon":5.390172,"is_reserved":false,"is_disabled":false,"rental_uris":{"android":"levelo://app?vid=91911e67-1c8b-4110-91ee-f8da4103d9f2","ios":"levelo://app?vid=91911e67-1c8b-4110-91ee-f8da4103d9f2"},"vehicle_type_id":"4","last_reported":1768158511,"current_range_meters":4800,"station_id":"ce4bhqp2rcd13ifvqhng","pricing_plan_id":"cebpf4jnsgd1na2vs0mg"},{"bike_id":"b555239d-2168-4ba9-bdf4-8b711ca32acb","system_id":"levelo_inurba_marseille","lat":43.28469,"lon":5.48397,"is_reserved":false,"is_disabled":false,"rental_uris":{"android":"levelo://app?vid=b555239d-2168-4ba9-bdf4-8b711ca32acb","ios":"levelo://app?vid=b555239d-2168-4ba9-bdf4-8b711ca32acb"},"vehicle_type_id":"4","last_reported":1768158511,"current_range_meters":4800,"station_id":"","pricing_plan_id":"cebpf4jnsgd1na2vs0mg"},{"bike_id":"4d4ee320-9b3b-4382-9678-621b1b70893d","system_id":"levelo_inurba_marseille","lat":43.29198,"lon":5.39314,"is_reserved":false,"is_disabled":false,"rental_uris":{"android":"levelo://app?vid=4d4ee320-9b3b-4382-9678-621b1b70893d","ios":"levelo://app?vid=4d4ee320-9b3b-4382-9678-621b1b70893d"},"vehicle_type_id":"4","last_reported":1768158511,"current_range_meters":4800,"station_id":"ce4bh192rcd13ifvqdd0","pricing_plan_id":"cebpf4jnsgd1na2vs0mg"},{"bike_id":"bab73588-8820-4da4-9176-bcc2a30c702a","system_id":"levelo_inurba_marseille","lat":43.28704,"lon":5.39996,"is_reserved":false,"is_disabled":false,"rental_uris":{"android":"levelo://app?vid=bab73588-8820-4da4-9176-bcc2a30c702a","ios":"levelo://app?vid=bab73588-8820-4da4-9176-bcc2a30c702a"},"vehicle_type_id":"4","last_reported":1768158511,"current_range_meters":4800,"station_id":"ce4bho92rcd13ifvqh3g","pricing_plan_id":"cebpf4jnsgd1na2vs0mg"},{"bike_id":"6a8f2761-d338-495d-91ab-8beb34937453","system_id":"levelo_inurba_marseille","lat":43.29003,"lon":5.37378,"is_reserved":false,"is_disabled":false,"rental_uris":{"android":"levelo://app?vid=6a8f2761-d338-495d-91ab-8beb34937453","ios":"levelo://app?vid=6a8f2761-d338-495d-91ab-8beb34937453"},"vehicle_type_id":"4","last_reported":1768158511,"current_range_meters":5600,"station_id":"","pricing_plan_id":"cebpf4jnsgd1na2vs0mg"},{"bike_id":"2f7f8ed0-abfd-41e3-bc34-9299a62bf687","system_id":"levelo_inurba_marseille","lat":43.24077,"lon":5.377582,"is_reserved":false,"is_disabled":false,"rental_uris":{"android":"levelo://app?vid=2f7f8ed0-abfd-41e3-bc34-9299a62bf687","ios":"levelo://app?vid=2f7f8ed0-abfd-41e3-bc34-9299a62bf687"},"vehicle_type_id":"4","last_reported":1768158511,"current_range_meters":5600,"station_id":"ce4bhnp2rcd13ifvqgvg","pricing_plan_id":"cebpf4jnsgd1na2vs0mg"},{"bike_id":"f97b3454-46a8-4580-aa1d-632b39531a16","system_id":"levelo_inurba_marseille","lat":43.29713,"lon":5.36602,"is_reserved":false,"is_disabled":false,"rental_uris":{"android":"levelo://app?vid=f97b3454-46a8-4580-aa1d-632b39531a16","ios":"levelo://app?vid=f97b3454-46a8-4580-aa1d-632b39531a16"},"vehicle_type_id":"4","last_reported":1768158511,"current_range_meters":5600,"station_id":"ce4bgn12rcd13ifvqbt0","pricing_plan_id":"cebpf4jnsgd1na2vs0mg"},{"bike_id":"9e546458-c3a8-4e35-9b2b-b0910317fcfc","system_id":"levelo_inurba_marseille","lat":43.22927,"lon":5.35377,"is_reserved":false,"is_disabled":false,"rental_uris":{"android":"levelo://app?vid=9e546458-c3a8-4e35-9b2b-b0910317fcfc","ios":"levelo://app?vid=9e546458-c3a8-4e35-9b2b-b0910317fcfc"},"vehicle_type_id":"4","last_reported":1768158511,"current_range_meters":5600,"station_id":"cpo3532slgdg3j2ikp40","pricing_plan_id":"cebpf4jnsgd1na2vs0mg"},{"bike_id":"31e53656-e739-4be9-a074-127a7ee373ba","system_id":"levelo_inurba_marseille","lat":43.2737,"lon":5.36241,"is_reserved":false,"is_disabled":false,"rental_uris":{"android":"levelo://app?vid=31e53656-e739-4be9-a074-127a7ee373ba","ios":"levelo://app?vid=31e53656-e739-4be9-a074-127a7ee373ba"},"vehicle_type_id":"4","last_reported":1768158511,"current_range_meters":5600,"station_id":"ce4bhbh2rcd13ifvqeo0","pricing_plan_id":"cebpf4jnsgd1na2vs0mg"},{"bike_id":"077c8981-bea2-4e23-9f90-a06cf25901d0","system_id":"levelo_inurba_marseille","lat":43.29585,"lon":5.38041,"is_reserved":false,"is_disabled":false,"rental_uris":{"android":"levelo://app?vid=077c8981-bea2-4e23-9f90-a06cf25901d0","ios":"levelo://app?vid=077c8981-bea2-4e23-9f90-a06cf25901d0"},"vehicle_type_id":"4","last_reported":1768158511,"current_range_meters":5600,"station_id":"","pricing_plan_id":"cebpf4jnsgd1na2vs0mg"},{"bike_id":"239a18cd-6c0d-43fb-8897-a3f843c7752a","system_id":"levelo_inurba_marseille","lat":43.248064,"lon":5.374555,"is_reserved":false,"is_disabled":false,"rental_uris":{"android":"levelo://app?vid=239a18cd-6c0d-43fb-8897-a3f843c7752a","ios":"levelo://app?vid=239a18cd-6c0d-43fb-8897-a3f843c7752a"},"vehicle_type_id":"4","last_reported":1768158511,"current_range_meters":5600,"station_id":"ce4bhgh2rcd13ifvqfb0","pricing_plan_id":"cebpf4jnsgd1na2vs0mg"},{"bike_id":"b9a7ba49-2b43-434f-8b24-7c29d0891fc9","system_id":"levelo_inurba_marseille","lat":43.295314,"lon":5.385437,"is_reserved":false,"is_disabled":false,"rental_uris":{"android":"levelo://app?vid=b9a7ba49-2b43-434f-8b24-7c29d0891fc9","ios":"levelo://app?vid=b9a7ba49-2b43-434f-8b24-7c29d0891fc9"},"vehicle_type_id":"4","last_reported":1768158511,"current_range_meters":5600,"station_id":"ce4bgih2rcd13ifvqba0","pricing_plan_id":"cebpf4jnsgd1na2vs0mg"},{"bike_id":"69db0ffc-6870-4d4a-840e-d0c8f02a8535","system_id":"levelo_inurba_marseille","lat":43.29709,"lon":5.37676,"is_reserved":false,"is_disabled":false,"rental_uris":{"android":"levelo://app?vid=69db0ffc-6870-4d4a-840e-d0c8f02a8535","ios":"levelo://app?vid=69db0ffc-6870-4d4a-840e-d0c8f02a8535"},"vehicle_type_id":"4","last_reported":1768158511,"current_range_meters":5600,"station_id":"ce4bgkh2rcd13ifvqbl0","pricing_plan_id":"cebpf4jnsgd1na2vs0mg"},{"bike_id":"17f66319-ac3b-44f3-9f86-4da99c24d4a6","system_id":"levelo_inurba_marseille","lat":43.26034,"lon":5.37559,"is_reserved":false,"is_disabled":false,"rental_uris":{"android":"levelo://app?vid=17f66319-ac3b-44f3-9f86-4da99c24d4a6","ios":"levelo://app?vid=17f66319-ac3b-44f3-9f86-4da99c24d4a6"},"vehicle_type_id":"4","last_reported":1768158511,"current_range_meters":5600,"station_id":"ce4bhgh2rcd13ifvqfa0","pricing_plan_id":"cebpf4jnsgd1na2vs0mg"},{"bike_id":"bec1bdf7-8c3e-466a-9564-9717af11359e","system_id":"levelo_inurba_marseille","lat":43.2464,"lon":5.38152,"is_reserved":false,"is_disabled":true,"rental_uris":{"android":"levelo://app?vid=bec1bdf7-8c3e-466a-9564-9717af11359e","ios":"levelo://app?vid=bec1bdf7-8c3e-466a-9564-9717af11359e"},"vehicle_type_id":"4","last_reported":1768158511,"current_range_meters":5600,"station_id":"ce4bhih2rcd13ifvqfr0","pricing_plan_id":"cebpf4jnsgd1na2vs0mg"},{"bike_id":"5c19822a-c497-4f67-8777-6169bef66dc3","system_id":"levelo_inurba_marseille","lat":43.225332,"lon":5.348298,"is_reserved":false,"is_disabled":false,"rental_uris":{"android":"levelo://app?vid=5c19822a-c497-4f67-8777-6169bef66dc3","ios":"levelo://app?vid=5c19822a-c497-4f67-8777-6169bef66dc3"},"vehicle_type_id":"4","last_reported":1768158511,"current_range_meters":5600,"station_id":"","pricing_plan_id":"cebpf4jnsgd1na2vs0mg"},{"bike_id":"78190b18-d4f6-4583-b796-9b44806d2811","system_id":"levelo_inurba_marseille","lat":43.28476,"lon":5.48401,"is_reserved":false,"is_disabled":false,"rental_uris":{"android":"levelo://app?vid=78190b18-d4f6-4583-b796-9b44806d2811","ios":"levelo://app?vid=78190b18-d4f6-4583-b796-9b44806d2811"},"vehicle_type_id":"4","last_reported":1768158511,"current_range_meters":5600,"station_id":"","pricing_plan_id":"cebpf4jnsgd1na2vs0mg"},{"bike_id":"65ad97e6-aef1-40d9-8756-ec2d6c923c46","system_id":"levelo_inurba_marseille","lat":43.22928,"lon":5.35363,"is_reserved":false,"is_disabled":false,"rental_uris":{"android":"levelo://app?vid=65ad97e6-aef1-40d9-8756-ec2d6c923c46","ios":"levelo://app?vid=65ad97e6-aef1-40d9-8756-ec2d6c923c46"},"vehicle_type_id":"4","last_reported":1768158511,"current_range_meters":5600,"station_id":"cpo3532slgdg3j2ikp40","pricing_plan_id":"cebpf4jnsgd1na2vs0mg"},{"bike_id":"9227257d-26df-4311-bdb9-080324817f5d","system_id":"levelo_inurba_marseille","lat":43.2175,"lon":5.34608,"is_reserved":false,"is_disabled":true,"rental_uris":{"android":"levelo://app?vid=9227257d-26df-4311-bdb9-080324817f5d","ios":"levelo://app?vid=9227257d-26df-4311-bdb9-080324817f5d"},"vehicle_type_id":"4","last_reported":1768158511,"current_range_meters":5600,"station_id":"st_cvj6r9ubvosntc0bgbag","pricing_plan_id":"cebpf4jnsgd1na2vs0mg"},{"bike_id":"e6f34154-a48e-49f3-9790-37e1b4a4c491","system_id":"levelo_inurba_marseille","lat":43.30041,"lon":5.38192,"is_reserved":false,"is_disabled":false,"rental_uris":{"android":"levelo://app?vid=e6f34154-a48e-49f3-9790-37e1b4a4c491","ios":"levelo://app?vid=e6f34154-a48e-49f3-9790-37e1b4a4c491"},"vehicle_type_id":"4","last_reported":1768158511,"current_range_meters":5600,"station_id":"","pricing_plan_id":"cebpf4jnsgd1na2vs0mg"},{"bike_id":"009273ed-244f-454f-b699-b5e0994e43ed","system_id":"levelo_inurba_marseille","lat":43.27505,"lon":5.42436,"is_reserved":false,"is_disabled":false,"rental_uris":{"android":"levelo://app?vid=009273ed-244f-454f-b699-b5e0994e43ed","ios":"levelo://app?vid=009273ed-244f-454f-b699-b5e0994e43ed"},"vehicle_type_id":"4","last_reported":1768158511,"current_range_meters":5600,"station_id":"ce4bhn92rcd13ifvqgrg","pricing_plan_id":"cebpf4jnsgd1na2vs0mg"},{"bike_id":"fa4bb0d8-ba68-465b-864b-6be18ff84a1b","system_id":"levelo_inurba_marseille","lat":43.23194,"lon":5.35554,"is_reserved":false,"is_disabled":false,"rental_uris":{"android":"levelo://app?vid=fa4bb0d8-ba68-465b-864b-6be18ff84a1b","ios":"levelo://app?vid=fa4bb0d8-ba68-465b-864b-6be18ff84a1b"},"vehicle_type_id":"4","last_reported":1768158511,"current_range_meters":5600,"station_id":"ce4bhu92rcd13ifvqi70","pricing_plan_id":"cebpf4jnsgd1na2vs0mg"},{"bike_id":"d01cbaf4-4f71-47f8-877a-c178b0fccc8f","system_id":"levelo_inurba_marseille","lat":43.28072,"lon":5.39656,"is_reserved":false,"is_disabled":false,"rental_uris":{"android":"levelo://app?vid=d01cbaf4-4f71-47f8-877a-c178b0fccc8f","ios":"levelo://app?vid=d01cbaf4-4f71-47f8-877a-c178b0fccc8f"},"vehicle_type_id":"4","last_reported":1768158511,"current_range_meters":5600,"station_id":"ce4bho12rcd13ifvqh2g","pricing_plan_id":"cebpf4jnsgd1na2vs0mg"},{"bike_id":"9b91b606-0fd0-4673-a348-5b152ebeb7cc","system_id":"levelo_inurba_marseille","lat":43.323605,"lon":5.367543,"is_reserved":false,"is_disabled":false,"rental_uris":{"android":"levelo://app?vid=9b91b606-0fd0-4673-a348-5b152ebeb7cc","ios":"levelo://app?vid=9b91b606-0fd0-4673-a348-5b152ebeb7cc"},"vehicle_type_id":"4","last_reported":1768158511,"current_range_meters":5600,"station_id":"ce4bhsh2rcd13ifvqi2g","pricing_plan_id":"cebpf4jnsgd1na2vs0mg"},{"bike_id":"be8576a8-995a-45d7-bc62-cb26c280bb04","system_id":"levelo_inurba_marseille","lat":43.23217,"lon":5.35556,"is_reserved":false,"is_disabled":false,"rental_uris":{"android":"levelo://app?vid=be8576a8-995a-45d7-bc62-cb26c280bb04","ios":"levelo://app?vid=be8576a8-995a-45d7-bc62-cb26c280bb04"},"vehicle_type_id":"4","last_reported":1768158511,"current_range_meters":5600,"station_id":"ce4bhu92rcd13ifvqi70","pricing_plan_id":"cebpf4jnsgd1na2vs0mg"},{"bike_id":"7a2b1e2b-1f85-429f-9e31-eaf2f3b7d4a5","system_id":"levelo_inurba_marseille","lat":43.262074,"lon":5.37927,"is_reserved":false,"is_disabled":true,"rental_uris":{"android":"levelo://app?vid=7a2b1e2b-1f85-429f-9e31-eaf2f3b7d4a5","ios":"levelo://app?vid=7a2b1e2b-1f85-429f-9e31-eaf2f3b7d4a5"},"vehicle_type_id":"4","last_reported":1768158511,"current_range_meters":6000,"station_id":"","pricing_plan_id":"cebpf4jnsgd1na2vs0mg"},{"bike_id":"53958d33-5ed5-4c64-a159-c359f04e8ae4","system_id":"levelo_inurba_marseille","lat":43.294403,"lon":5.39745,"is_reserved":false,"is_disabled":false,"rental_uris":{"android":"levelo://app?vid=53958d33-5ed5-4c64-a159-c359f04e8ae4","ios":"levelo://app?vid=53958d33-5ed5-4c64-a159-c359f04e8ae4"},"vehicle_type_id":"4","last_reported":1768158511,"current_range_meters":6000,"station_id":"ce4bh3h2rcd13ifvqdo0","pricing_plan_id":"cebpf4jnsgd1na2vs0mg"},{"bike_id":"162a9a5f-4324-42e6-8411-4d4d4116471c","system_id":"levelo_inurba_marseille","lat":43.28715,"lon":5.37941,"is_reserved":false,"is_disabled":false,"rental_uris":{"android":"levelo://app?vid=162a9a5f-4324-42e6-8411-4d4d4116471c","ios":"levelo://app?vid=162a9a5f-4324-42e6-8411-4d4d4116471c"},"vehicle_type_id":"4","last_reported":1768158511,"current_range_meters":6000,"station_id":"ce4bh9p2rcd13ifvqec0","pricing_plan_id":"cebpf4jnsgd1na2vs0mg"},{"bike_id":"ca35d045-2c1b-44bb-b957-8f4166968359","system_id":"levelo_inurba_marseille","lat":43.26049,"lon":5.39405,"is_reserved":false,"is_disabled":false,"rental_uris":{"android":"levelo://app?vid=ca35d045-2c1b-44bb-b957-8f4166968359","ios":"levelo://app?vid=ca35d045-2c1b-44bb-b957-8f4166968359"},"vehicle_type_id":"4","last_reported":1768158511,"current_range_meters":6000,"station_id":"ce4bhh92rcd13ifvqfj0","pricing_plan_id":"cebpf4jnsgd1na2vs0mg"},{"bike_id":"10b06b52-b9d8-49fd-9373-4da8a32198a5","system_id":"levelo_inurba_marseille","lat":43.28152,"lon":5.42644,"is_reserved":false,"is_disabled":false,"rental_uris":{"android":"levelo://app?vid=10b06b52-b9d8-49fd-9373-4da8a32198a5","ios":"levelo://app?vid=10b06b52-b9d8-49fd-9373-4da8a32198a5"},"vehicle_type_id":"4","last_reported":1768158511,"current_range_meters":6000,"station_id":"ce4bhnh2rcd13ifvqgug","pricing_plan_id":"cebpf4jnsgd1na2vs0mg"},{"bike_id":"4ad6c3b4-e4f5-40a8-80cf-012ab506a9bb","system_id":"levelo_inurba_marseille","lat":43.29875,"lon":5.43617,"is_reserved":false,"is_disabled":false,"rental_uris":{"android":"levelo://app?vid=4ad6c3b4-e4f5-40a8-80cf-012ab506a9bb","ios":"levelo://app?vid=4ad6c3b4-e4f5-40a8-80cf-012ab506a9bb"},"vehicle_type_id":"4","last_reported":1768158511,"current_range_meters":6000,"station_id":"ce4bhpp2rcd13ifvqhfg","pricing_plan_id":"cebpf4jnsgd1na2vs0mg"},{"bike_id":"4c3558f2-faf6-43e6-a593-3aae3d520ba3","system_id":"levelo_inurba_marseille","lat":43.30319,"lon":5.36908,"is_reserved":false,"is_disabled":false,"rental_uris":{"android":"levelo://app?vid=4c3558f2-faf6-43e6-a593-3aae3d520ba3","ios":"levelo://app?vid=4c3558f2-faf6-43e6-a593-3aae3d520ba3"},"vehicle_type_id":"4","last_reported":1768158511,"current_range_meters":6000,"station_id":"ce4bgqh2rcd13ifvqc5g","pricing_plan_id":"cebpf4jnsgd1na2vs0mg"},{"bike_id":"bb2344d8-a1ee-4d35-a630-9f7958cde331","system_id":"levelo_inurba_marseille","lat":43.25572,"lon":5.38239,"is_reserved":false,"is_disabled":true,"rental_uris":{"android":"levelo://app?vid=bb2344d8-a1ee-4d35-a630-9f7958cde331","ios":"levelo://app?vid=bb2344d8-a1ee-4d35-a630-9f7958cde331"},"vehicle_type_id":"4","last_reported":1768158511,"current_range_meters":6000,"station_id":"ce4bhih2rcd13ifvqfs0","pricing_plan_id":"cebpf4jnsgd1na2vs0mg"},{"bike_id":"5aa482e6-221b-4498-a6a2-fec31f16d788","system_id":"levelo_inurba_marseille","lat":43.28486,"lon":5.48373,"is_reserved":false,"is_disabled":false,"rental_uris":{"android":"levelo://app?vid=5aa482e6-221b-4498-a6a2-fec31f16d788","ios":"levelo://app?vid=5aa482e6-221b-4498-a6a2-fec31f16d788"},"vehicle_type_id":"4","last_reported":1768158511,"current_range_meters":6000,"station_id":"","pricing_plan_id":"cebpf4jnsgd1na2vs0mg"},{"bike_id":"f61c0def-b9fb-430d-8097-3949ae3de058","system_id":"levelo_inurba_marseille","lat":43.283451,"lon":5.381114,"is_reserved":false,"is_disabled":false,"rental_uris":{"android":"levelo://app?vid=f61c0def-b9fb-430d-8097-3949ae3de058","ios":"levelo://app?vid=f61c0def-b9fb-430d-8097-3949ae3de058"},"vehicle_type_id":"4","last_reported":1768158511,"current_range_meters":6000,"station_id":"ce4bh412rcd13ifvqdr0","pricing_plan_id":"cebpf4jnsgd1na2vs0mg"},{"bike_id":"87d5c75a-ce16-46ad-a6dd-f7088e8ac2aa","system_id":"levelo_inurba_marseille","lat":43.258602,"lon":5.399013,"is_reserved":false,"is_disabled":false,"rental_uris":{"android":"levelo://app?vid=87d5c75a-ce16-46ad-a6dd-f7088e8ac2aa","ios":"levelo://app?vid=87d5c75a-ce16-46ad-a6dd-f7088e8ac2aa"},"vehicle_type_id":"4","last_reported":1768158511,"current_range_meters":6000,"station_id":"ce4bhl92rcd13ifvqghg","pricing_plan_id":"cebpf4jnsgd1na2vs0mg"},{"bike_id":"64b15cd8-8aa8-458c-8440-9198b05462e9","system_id":"levelo_inurba_marseille","lat":43.295238,"lon":5.39039,"is_reserved":false,"is_disabled":false,"rental_uris":{"android":"levelo://app?vid=64b15cd8-8aa8-458c-8440-9198b05462e9","ios":"levelo://app?vid=64b15cd8-8aa8-458c-8440-9198b05462e9"},"vehicle_type_id":"4","last_reported":1768158511,"current_range_meters":6000,"station_id":"ce4bh3p2rcd13ifvqdp0","pricing_plan_id":"cebpf4jnsgd1na2vs0mg"},{"bike_id":"8a7ee903-e4c0-4637-b8c6-905f7f6393e5","system_id":"levelo_inurba_marseille","lat":43.24173,"lon":5.364,"is_reserved":false,"is_disabled":false,"rental_uris":{"android":"levelo://app?vid=8a7ee903-e4c0-4637-b8c6-905f7f6393e5","ios":"levelo://app?vid=8a7ee903-e4c0-4637-b8c6-905f7f6393e5"},"vehicle_type_id":"4","last_reported":1768158511,"current_range_meters":6000,"station_id":"cpo36qri1sfpv3e86is0","pricing_plan_id":"cebpf4jnsgd1na2vs0mg"},{"bike_id":"45d8ca9c-83b5-46fa-abec-3dfc830de414","system_id":"levelo_inurba_marseille","lat":43.28002,"lon":5.39997,"is_reserved":false,"is_disabled":false,"rental_uris":{"android":"levelo://app?vid=45d8ca9c-83b5-46fa-abec-3dfc830de414","ios":"levelo://app?vid=45d8ca9c-83b5-46fa-abec-3dfc830de414"},"vehicle_type_id":"4","last_reported":1768158511,"current_range_meters":6000,"station_id":"ce4bho92rcd13ifvqh4g","pricing_plan_id":"cebpf4jnsgd1na2vs0mg"},{"bike_id":"827d3289-f5e2-4d9f-bd2d-eea9c84db47e","system_id":"levelo_inurba_marseille","lat":43.279954,"lon":5.400128,"is_reserved":false,"is_disabled":false,"rental_uris":{"android":"levelo://app?vid=827d3289-f5e2-4d9f-bd2d-eea9c84db47e","ios":"levelo://app?vid=827d3289-f5e2-4d9f-bd2d-eea9c84db47e"},"vehicle_type_id":"4","last_reported":1768158511,"current_range_meters":6000,"station_id":"ce4bho92rcd13ifvqh4g","pricing_plan_id":"cebpf4jnsgd1na2vs0mg"},{"bike_id":"1abcea64-d377-4e7a-923d-3fe8699944bd","system_id":"levelo_inurba_marseille","lat":43.30587,"lon":5.39334,"is_reserved":false,"is_disabled":false,"rental_uris":{"android":"levelo://app?vid=1abcea64-d377-4e7a-923d-3fe8699944bd","ios":"levelo://app?vid=1abcea64-d377-4e7a-923d-3fe8699944bd"},"vehicle_type_id":"4","last_reported":1768158511,"current_range_meters":6000,"station_id":"ce4bh0p2rcd13ifvqd80","pricing_plan_id":"cebpf4jnsgd1na2vs0mg"},{"bike_id":"04c30e8c-643d-458e-92a6-8b6052ba1ff4","system_id":"levelo_inurba_marseille","lat":43.24958,"lon":5.40482,"is_reserved":false,"is_disabled":false,"rental_uris":{"android":"levelo://app?vid=04c30e8c-643d-458e-92a6-8b6052ba1ff4","ios":"levelo://app?vid=04c30e8c-643d-458e-92a6-8b6052ba1ff4"},"vehicle_type_id":"4","last_reported":1768158511,"current_range_meters":6000,"station_id":"st_d2ngiaodas8pm72gd1h0","pricing_plan_id":"cebpf4jnsgd1na2vs0mg"},{"bike_id":"5ae46213-526f-49bc-859d-bd77a6272ad3","system_id":"levelo_inurba_marseille","lat":43.23188,"lon":5.39987,"is_reserved":false,"is_disabled":true,"rental_uris":{"android":"levelo://app?vid=5ae46213-526f-49bc-859d-bd77a6272ad3","ios":"levelo://app?vid=5ae46213-526f-49bc-859d-bd77a6272ad3"},"vehicle_type_id":"4","last_reported":1768158511,"current_range_meters":6400,"station_id":"ce4bhn12rcd13ifvqgqg","pricing_plan_id":"cebpf4jnsgd1na2vs0mg"},{"bike_id":"d86ac41f-9424-4f1d-842f-73398b556096","system_id":"levelo_inurba_marseille","lat":43.30145,"lon":5.37419,"is_reserved":false,"is_disabled":false,"rental_uris":{"android":"levelo://app?vid=d86ac41f-9424-4f1d-842f-73398b556096","ios":"levelo://app?vid=d86ac41f-9424-4f1d-842f-73398b556096"},"vehicle_type_id":"4","last_reported":1768158511,"current_range_meters":6400,"station_id":"ce4bgs92rcd13ifvqcc0","pricing_plan_id":"cebpf4jnsgd1na2vs0mg"},{"bike_id":"b90ea205-d197-49e9-b111-a317ba60130c","system_id":"levelo_inurba_marseille","lat":43.30251,"lon":5.40067,"is_reserved":false,"is_disabled":false,"rental_uris":{"android":"levelo://app?vid=b90ea205-d197-49e9-b111-a317ba60130c","ios":"levelo://app?vid=b90ea205-d197-49e9-b111-a317ba60130c"},"vehicle_type_id":"4","last_reported":1768158511,"current_range_meters":6400,"station_id":"ce4bgvh2rcd13ifvqcs0","pricing_plan_id":"cebpf4jnsgd1na2vs0mg"},{"bike_id":"01755f55-961f-40b3-9e23-e95349abd649","system_id":"levelo_inurba_marseille","lat":43.26066,"lon":5.39403,"is_reserved":false,"is_disabled":false,"rental_uris":{"android":"levelo://app?vid=01755f55-961f-40b3-9e23-e95349abd649","ios":"levelo://app?vid=01755f55-961f-40b3-9e23-e95349abd649"},"vehicle_type_id":"4","last_reported":1768158511,"current_range_meters":6400,"station_id":"ce4bhh92rcd13ifvqfj0","pricing_plan_id":"cebpf4jnsgd1na2vs0mg"},{"bike_id":"3ba117e0-a4c6-454c-8eed-fddab67ccb65","system_id":"levelo_inurba_marseille","lat":43.26491,"lon":5.39548,"is_reserved":false,"is_disabled":false,"rental_uris":{"android":"levelo://app?vid=3ba117e0-a4c6-454c-8eed-fddab67ccb65","ios":"levelo://app?vid=3ba117e0-a4c6-454c-8eed-fddab67ccb65"},"vehicle_type_id":"4","last_reported":1768158511,"current_range_meters":6400,"station_id":"ce4bhi12rcd13ifvqfq0","pricing_plan_id":"cebpf4jnsgd1na2vs0mg"},{"bike_id":"d16e7590-986b-4c9f-9fd2-ae2a57f36b73","system_id":"levelo_inurba_marseille","lat":43.30124,"lon":5.39881,"is_reserved":false,"is_disabled":false,"rental_uris":{"android":"levelo://app?vid=d16e7590-986b-4c9f-9fd2-ae2a57f36b73","ios":"levelo://app?vid=d16e7590-986b-4c9f-9fd2-ae2a57f36b73"},"vehicle_type_id":"4","last_reported":1768158511,"current_range_meters":6400,"station_id":"ce4bh0h2rcd13ifvqd40","pricing_plan_id":"cebpf4jnsgd1na2vs0mg"},{"bike_id":"2e00dc9d-8fca-4c53-9c49-436b3c531ac4","system_id":"levelo_inurba_marseille","lat":43.24812,"lon":5.37455,"is_reserved":false,"is_disabled":false,"rental_uris":{"android":"levelo://app?vid=2e00dc9d-8fca-4c53-9c49-436b3c531ac4","ios":"levelo://app?vid=2e00dc9d-8fca-4c53-9c49-436b3c531ac4"},"vehicle_type_id":"4","last_reported":1768158511,"current_range_meters":6400,"station_id":"ce4bhgh2rcd13ifvqfb0","pricing_plan_id":"cebpf4jnsgd1na2vs0mg"},{"bike_id":"a91695ee-af8f-4e73-8e7f-a8deb13a52eb","system_id":"levelo_inurba_marseille","lat":43.27998,"lon":5.40016,"is_reserved":false,"is_disabled":false,"rental_uris":{"android":"levelo://app?vid=a91695ee-af8f-4e73-8e7f-a8deb13a52eb","ios":"levelo://app?vid=a91695ee-af8f-4e73-8e7f-a8deb13a52eb"},"vehicle_type_id":"4","last_reported":1768158511,"current_range_meters":6400,"station_id":"ce4bho92rcd13ifvqh4g","pricing_plan_id":"cebpf4jnsgd1na2vs0mg"},{"bike_id":"1f38f0a0-9d5e-4cb4-93c5-d4ef43fbf00e","system_id":"levelo_inurba_marseille","lat":43.306086,"lon":5.371372,"is_reserved":false,"is_disabled":false,"rental_uris":{"android":"levelo://app?vid=1f38f0a0-9d5e-4cb4-93c5-d4ef43fbf00e","ios":"levelo://app?vid=1f38f0a0-9d5e-4cb4-93c5-d4ef43fbf00e"},"vehicle_type_id":"4","last_reported":1768158511,"current_range_meters":6400,"station_id":"","pricing_plan_id":"cebpf4jnsgd1na2vs0mg"},{"bike_id":"f0ebc8c2-e687-4bde-b3f8-6d500df6884a","system_id":"levelo_inurba_marseille","lat":43.29895,"lon":5.43664,"is_reserved":false,"is_disabled":false,"rental_uris":{"android":"levelo://app?vid=f0ebc8c2-e687-4bde-b3f8-6d500df6884a","ios":"levelo://app?vid=f0ebc8c2-e687-4bde-b3f8-6d500df6884a"},"vehicle_type_id":"4","last_reported":1768158511,"current_range_meters":6400,"station_id":"ce4bhpp2rcd13ifvqhfg","pricing_plan_id":"cebpf4jnsgd1na2vs0mg"},{"bike_id":"2bbac75b-b725-44b5-b9cb-b8e39bea2819","system_id":"levelo_inurba_marseille","lat":43.29305,"lon":5.36993,"is_reserved":false,"is_disabled":true,"rental_uris":{"android":"levelo://app?vid=2bbac75b-b725-44b5-b9cb-b8e39bea2819","ios":"levelo://app?vid=2bbac75b-b725-44b5-b9cb-b8e39bea2819"},"vehicle_type_id":"4","last_reported":1768158511,"current_range_meters":6400,"station_id":"","pricing_plan_id":"cebpf4jnsgd1na2vs0mg"},{"bike_id":"8d3f99e8-e0d3-4ac2-bf02-cbd27ce4a64f","system_id":"levelo_inurba_marseille","lat":43.28624,"lon":5.35104,"is_reserved":false,"is_disabled":false,"rental_uris":{"android":"levelo://app?vid=8d3f99e8-e0d3-4ac2-bf02-cbd27ce4a64f","ios":"levelo://app?vid=8d3f99e8-e0d3-4ac2-bf02-cbd27ce4a64f"},"vehicle_type_id":"4","last_reported":1768158511,"current_range_meters":6400,"station_id":"ce4bhch2rcd13ifvqeug","pricing_plan_id":"cebpf4jnsgd1na2vs0mg"},{"bike_id":"6f4243d7-a899-45df-9f36-5a28e263a49a","system_id":"levelo_inurba_marseille","lat":43.24469,"lon":5.42506,"is_reserved":false,"is_disabled":false,"rental_uris":{"android":"levelo://app?vid=6f4243d7-a899-45df-9f36-5a28e263a49a","ios":"levelo://app?vid=6f4243d7-a899-45df-9f36-5a28e263a49a"},"vehicle_type_id":"4","last_reported":1768158511,"current_range_meters":6400,"station_id":"st_d4a3vfp97mjs738cd8kg","pricing_plan_id":"cebpf4jnsgd1na2vs0mg"},{"bike_id":"628d697d-c92d-4077-b792-1e23cdd54fff","system_id":"levelo_inurba_marseille","lat":43.298819,"lon":5.372006,"is_reserved":false,"is_disabled":false,"rental_uris":{"android":"levelo://app?vid=628d697d-c92d-4077-b792-1e23cdd54fff","ios":"levelo://app?vid=628d697d-c92d-4077-b792-1e23cdd54fff"},"vehicle_type_id":"4","last_reported":1768158511,"current_range_meters":6400,"station_id":"ce4bgr92rcd13ifvqc7g","pricing_plan_id":"cebpf4jnsgd1na2vs0mg"},{"bike_id":"5a828171-37e3-4937-8eaa-03dcee500f40","system_id":"levelo_inurba_marseille","lat":43.22562,"lon":5.41619,"is_reserved":false,"is_disabled":false,"rental_uris":{"android":"levelo://app?vid=5a828171-37e3-4937-8eaa-03dcee500f40","ios":"levelo://app?vid=5a828171-37e3-4937-8eaa-03dcee500f40"},"vehicle_type_id":"4","last_reported":1768158511,"current_range_meters":6400,"station_id":"st_d2o4gvlbi1j2169b742g","pricing_plan_id":"cebpf4jnsgd1na2vs0mg"},{"bike_id":"e35be9d2-9f52-4da1-bcc2-9052314e7ee8","system_id":"levelo_inurba_marseille","lat":43.28852,"lon":5.35833,"is_reserved":false,"is_disabled":false,"rental_uris":{"android":"levelo://app?vid=e35be9d2-9f52-4da1-bcc2-9052314e7ee8","ios":"levelo://app?vid=e35be9d2-9f52-4da1-bcc2-9052314e7ee8"},"vehicle_type_id":"4","last_reported":1768158511,"current_range_meters":6400,"station_id":"ce4bhb12rcd13ifvqem0","pricing_plan_id":"cebpf4jnsgd1na2vs0mg"},{"bike_id":"551e9f37-b525-4909-9e6e-0277dfd85b6b","system_id":"levelo_inurba_marseille","lat":43.22561,"lon":5.4163,"is_reserved":false,"is_disabled":false,"rental_uris":{"android":"levelo://app?vid=551e9f37-b525-4909-9e6e-0277dfd85b6b","ios":"levelo://app?vid=551e9f37-b525-4909-9e6e-0277dfd85b6b"},"vehicle_type_id":"4","last_reported":1768158511,"current_range_meters":6400,"station_id":"st_d2o4gvlbi1j2169b742g","pricing_plan_id":"cebpf4jnsgd1na2vs0mg"},{"bike_id":"2a2b48e7-8964-4404-bf1f-51733f8ea3af","system_id":"levelo_inurba_marseille","lat":43.2854,"lon":5.44094,"is_reserved":false,"is_disabled":false,"rental_uris":{"android":"levelo://app?vid=2a2b48e7-8964-4404-bf1f-51733f8ea3af","ios":"levelo://app?vid=2a2b48e7-8964-4404-bf1f-51733f8ea3af"},"vehicle_type_id":"4","last_reported":1768158511,"current_range_meters":6400,"station_id":"st_d3j3df2ikq2c7380ej80","pricing_plan_id":"cebpf4jnsgd1na2vs0mg"},{"bike_id":"2b502982-b4ce-404e-ba25-50f38bdd9cf5","system_id":"levelo_inurba_marseille","lat":43.28864,"lon":5.42512,"is_reserved":false,"is_disabled":false,"rental_uris":{"android":"levelo://app?vid=2b502982-b4ce-404e-ba25-50f38bdd9cf5","ios":"levelo://app?vid=2b502982-b4ce-404e-ba25-50f38bdd9cf5"},"vehicle_type_id":"4","last_reported":1768158511,"current_range_meters":6400,"station_id":"st_d3b462108ojc7389ooeg","pricing_plan_id":"cebpf4jnsgd1na2vs0mg"},{"bike_id":"f77a1409-d43d-4ba6-bd27-9b4daa65e979","system_id":"levelo_inurba_marseille","lat":43.27323,"lon":5.390694,"is_reserved":false,"is_disabled":false,"rental_uris":{"android":"levelo://app?vid=f77a1409-d43d-4ba6-bd27-9b4daa65e979","ios":"levelo://app?vid=f77a1409-d43d-4ba6-bd27-9b4daa65e979"},"vehicle_type_id":"4","last_reported":1768158511,"current_range_meters":6400,"station_id":"ce4bhgp2rcd13ifvqfe0","pricing_plan_id":"cebpf4jnsgd1na2vs0mg"},{"bike_id":"016decb5-a4fe-4d88-a583-364244f3b740","system_id":"levelo_inurba_marseille","lat":43.28611,"lon":5.35112,"is_reserved":false,"is_disabled":false,"rental_uris":{"android":"levelo://app?vid=016decb5-a4fe-4d88-a583-364244f3b740","ios":"levelo://app?vid=016decb5-a4fe-4d88-a583-364244f3b740"},"vehicle_type_id":"4","last_reported":1768158511,"current_range_meters":6400,"station_id":"ce4bhch2rcd13ifvqeug","pricing_plan_id":"cebpf4jnsgd1na2vs0mg"},{"bike_id":"0f4aa1f0-1d34-4e14-89b1-e12e93833b6d","system_id":"levelo_inurba_marseille","lat":43.25336,"lon":5.42177,"is_reserved":false,"is_disabled":false,"rental_uris":{"android":"levelo://app?vid=0f4aa1f0-1d34-4e14-89b1-e12e93833b6d","ios":"levelo://app?vid=0f4aa1f0-1d34-4e14-89b1-e12e93833b6d"},"vehicle_type_id":"4","last_reported":1768158511,"current_range_meters":6400,"station_id":"st_d2m65c5bi1j21697t3ng","pricing_plan_id":"cebpf4jnsgd1na2vs0mg"},{"bike_id":"b1372eab-0c68-4b21-aac9-1ec7d86e7629","system_id":"levelo_inurba_marseille","lat":43.31058,"lon":5.3835,"is_reserved":false,"is_disabled":false,"rental_uris":{"android":"levelo://app?vid=b1372eab-0c68-4b21-aac9-1ec7d86e7629","ios":"levelo://app?vid=b1372eab-0c68-4b21-aac9-1ec7d86e7629"},"vehicle_type_id":"4","last_reported":1768158511,"current_range_meters":6800,"station_id":"ce4bgv92rcd13ifvqcr0","pricing_plan_id":"cebpf4jnsgd1na2vs0mg"},{"bike_id":"252022da-26ee-4d7f-abc8-1b488b81c896","system_id":"levelo_inurba_marseille","lat":43.302101,"lon":5.370806,"is_reserved":false,"is_disabled":false,"rental_uris":{"android":"levelo://app?vid=252022da-26ee-4d7f-abc8-1b488b81c896","ios":"levelo://app?vid=252022da-26ee-4d7f-abc8-1b488b81c896"},"vehicle_type_id":"4","last_reported":1768158511,"current_range_meters":6800,"station_id":"","pricing_plan_id":"cebpf4jnsgd1na2vs0mg"},{"bike_id":"784bade9-de85-4c9f-99c1-e1f7d025a70e","system_id":"levelo_inurba_marseille","lat":43.22587,"lon":5.41554,"is_reserved":false,"is_disabled":false,"rental_uris":{"android":"levelo://app?vid=784bade9-de85-4c9f-99c1-e1f7d025a70e","ios":"levelo://app?vid=784bade9-de85-4c9f-99c1-e1f7d025a70e"},"vehicle_type_id":"4","last_reported":1768158511,"current_range_meters":6800,"station_id":"","pricing_plan_id":"cebpf4jnsgd1na2vs0mg"},{"bike_id":"f71d23bb-0817-4575-bf00-a7284c6a3bb5","system_id":"levelo_inurba_marseille","lat":43.29488,"lon":5.43315,"is_reserved":false,"is_disabled":false,"rental_uris":{"android":"levelo://app?vid=f71d23bb-0817-4575-bf00-a7284c6a3bb5","ios":"levelo://app?vid=f71d23bb-0817-4575-bf00-a7284c6a3bb5"},"vehicle_type_id":"4","last_reported":1768158511,"current_range_meters":6800,"station_id":"st_d3j5ugp08ojc73fj9d10","pricing_plan_id":"cebpf4jnsgd1na2vs0mg"},{"bike_id":"ce168850-ad18-4118-b8c3-4df4ab978171","system_id":"levelo_inurba_marseille","lat":43.2954,"lon":5.3854,"is_reserved":false,"is_disabled":false,"rental_uris":{"android":"levelo://app?vid=ce168850-ad18-4118-b8c3-4df4ab978171","ios":"levelo://app?vid=ce168850-ad18-4118-b8c3-4df4ab978171"},"vehicle_type_id":"4","last_reported":1768158511,"current_range_meters":6800,"station_id":"ce4bgih2rcd13ifvqba0","pricing_plan_id":"cebpf4jnsgd1na2vs0mg"},{"bike_id":"db0d87ab-d952-4f44-a2fe-aa15cc2a7cf0","system_id":"levelo_inurba_marseille","lat":43.3136,"lon":5.38489,"is_reserved":false,"is_disabled":false,"rental_uris":{"android":"levelo://app?vid=db0d87ab-d952-4f44-a2fe-aa15cc2a7cf0","ios":"levelo://app?vid=db0d87ab-d952-4f44-a2fe-aa15cc2a7cf0"},"vehicle_type_id":"4","last_reported":1768158511,"current_range_meters":6800,"station_id":"ce4bgt92rcd13ifvqcf0","pricing_plan_id":"cebpf4jnsgd1na2vs0mg"},{"bike_id":"7628e7a5-7b21-4849-a067-eb70db95c2b6","system_id":"levelo_inurba_marseille","lat":43.29895,"lon":5.43669,"is_reserved":false,"is_disabled":false,"rental_uris":{"android":"levelo://app?vid=7628e7a5-7b21-4849-a067-eb70db95c2b6","ios":"levelo://app?vid=7628e7a5-7b21-4849-a067-eb70db95c2b6"},"vehicle_type_id":"4","last_reported":1768158511,"current_range_meters":6800,"station_id":"ce4bhpp2rcd13ifvqhfg","pricing_plan_id":"cebpf4jnsgd1na2vs0mg"},{"bike_id":"947ce4af-bec6-4b27-9e63-ce65682eb248","system_id":"levelo_inurba_marseille","lat":43.32333,"lon":5.36745,"is_reserved":false,"is_disabled":false,"rental_uris":{"android":"levelo://app?vid=947ce4af-bec6-4b27-9e63-ce65682eb248","ios":"levelo://app?vid=947ce4af-bec6-4b27-9e63-ce65682eb248"},"vehicle_type_id":"4","last_reported":1768158511,"current_range_meters":6800,"station_id":"ce4bhsh2rcd13ifvqi2g","pricing_plan_id":"cebpf4jnsgd1na2vs0mg"},{"bike_id":"4bb0d39c-53f9-41fa-85e4-2bccc60ee9cf","system_id":"levelo_inurba_marseille","lat":43.31992,"lon":5.38156,"is_reserved":false,"is_disabled":false,"rental_uris":{"android":"levelo://app?vid=4bb0d39c-53f9-41fa-85e4-2bccc60ee9cf","ios":"levelo://app?vid=4bb0d39c-53f9-41fa-85e4-2bccc60ee9cf"},"vehicle_type_id":"4","last_reported":1768158511,"current_range_meters":6800,"station_id":"ce4bhr12rcd13ifvqhpg","pricing_plan_id":"cebpf4jnsgd1na2vs0mg"},{"bike_id":"cd990854-dee9-4cc2-9197-070303ab2f54","system_id":"levelo_inurba_marseille","lat":43.31118,"lon":5.37758,"is_reserved":false,"is_disabled":false,"rental_uris":{"android":"levelo://app?vid=cd990854-dee9-4cc2-9197-070303ab2f54","ios":"levelo://app?vid=cd990854-dee9-4cc2-9197-070303ab2f54"},"vehicle_type_id":"4","last_reported":1768158511,"current_range_meters":6800,"station_id":"ce4bgt92rcd13ifvqcg0","pricing_plan_id":"cebpf4jnsgd1na2vs0mg"},{"bike_id":"2b75c922-9612-4798-89cf-9ab819b7fee0","system_id":"levelo_inurba_marseille","lat":43.27331,"lon":5.39072,"is_reserved":false,"is_disabled":false,"rental_uris":{"android":"levelo://app?vid=2b75c922-9612-4798-89cf-9ab819b7fee0","ios":"levelo://app?vid=2b75c922-9612-4798-89cf-9ab819b7fee0"},"vehicle_type_id":"4","last_reported":1768158511,"current_range_meters":6800,"station_id":"ce4bhgp2rcd13ifvqfe0","pricing_plan_id":"cebpf4jnsgd1na2vs0mg"},{"bike_id":"9970f978-d332-4998-b118-01bc35c6b403","system_id":"levelo_inurba_marseille","lat":43.25566,"lon":5.38227,"is_reserved":false,"is_disabled":false,"rental_uris":{"android":"levelo://app?vid=9970f978-d332-4998-b118-01bc35c6b403","ios":"levelo://app?vid=9970f978-d332-4998-b118-01bc35c6b403"},"vehicle_type_id":"4","last_reported":1768158511,"current_range_meters":6800,"station_id":"ce4bhih2rcd13ifvqfs0","pricing_plan_id":"cebpf4jnsgd1na2vs0mg"},{"bike_id":"3d9ca8f9-ac9d-41f8-ad50-df6291e7a4c4","system_id":"levelo_inurba_marseille","lat":43.23196,"lon":5.355516,"is_reserved":false,"is_disabled":false,"rental_uris":{"android":"levelo://app?vid=3d9ca8f9-ac9d-41f8-ad50-df6291e7a4c4","ios":"levelo://app?vid=3d9ca8f9-ac9d-41f8-ad50-df6291e7a4c4"},"vehicle_type_id":"4","last_reported":1768158511,"current_range_meters":6800,"station_id":"ce4bhu92rcd13ifvqi70","pricing_plan_id":"cebpf4jnsgd1na2vs0mg"},{"bike_id":"f1738cae-b37c-436c-93e9-f046d263b6fa","system_id":"levelo_inurba_marseille","lat":43.225301,"lon":5.348359,"is_reserved":false,"is_disabled":false,"rental_uris":{"android":"levelo://app?vid=f1738cae-b37c-436c-93e9-f046d263b6fa","ios":"levelo://app?vid=f1738cae-b37c-436c-93e9-f046d263b6fa"},"vehicle_type_id":"4","last_reported":1768158511,"current_range_meters":6800,"station_id":"","pricing_plan_id":"cebpf4jnsgd1na2vs0mg"},{"bike_id":"000bc33d-14bb-4ee3-8c98-01bdb8f48321","system_id":"levelo_inurba_marseille","lat":43.22563,"lon":5.41623,"is_reserved":false,"is_disabled":false,"rental_uris":{"android":"levelo://app?vid=000bc33d-14bb-4ee3-8c98-01bdb8f48321","ios":"levelo://app?vid=000bc33d-14bb-4ee3-8c98-01bdb8f48321"},"vehicle_type_id":"4","last_reported":1768158511,"current_range_meters":6800,"station_id":"st_d2o4gvlbi1j2169b742g","pricing_plan_id":"cebpf4jnsgd1na2vs0mg"},{"bike_id":"79c0ba30-a8bc-455f-be6b-ed310d987a62","system_id":"levelo_inurba_marseille","lat":43.288501,"lon":5.393265,"is_reserved":false,"is_disabled":true,"rental_uris":{"android":"levelo://app?vid=79c0ba30-a8bc-455f-be6b-ed310d987a62","ios":"levelo://app?vid=79c0ba30-a8bc-455f-be6b-ed310d987a62"},"vehicle_type_id":"4","last_reported":1768158511,"current_range_meters":6800,"station_id":"ce4bh2p2rcd13ifvqdi0","pricing_plan_id":"cebpf4jnsgd1na2vs0mg"},{"bike_id":"930483c6-b0db-481d-b8ef-96c4bce4f1cf","system_id":"levelo_inurba_marseille","lat":43.23961,"lon":5.36636,"is_reserved":false,"is_disabled":false,"rental_uris":{"android":"levelo://app?vid=930483c6-b0db-481d-b8ef-96c4bce4f1cf","ios":"levelo://app?vid=930483c6-b0db-481d-b8ef-96c4bce4f1cf"},"vehicle_type_id":"4","last_reported":1768158511,"current_range_meters":6800,"station_id":"ce4bhi12rcd13ifvqfp0","pricing_plan_id":"cebpf4jnsgd1na2vs0mg"},{"bike_id":"c72dfa06-f246-4eb4-a47f-cc812e4e69c1","system_id":"levelo_inurba_marseille","lat":43.23963,"lon":5.36624,"is_reserved":false,"is_disabled":false,"rental_uris":{"android":"levelo://app?vid=c72dfa06-f246-4eb4-a47f-cc812e4e69c1","ios":"levelo://app?vid=c72dfa06-f246-4eb4-a47f-cc812e4e69c1"},"vehicle_type_id":"4","last_reported":1768158511,"current_range_meters":6800,"station_id":"ce4bhi12rcd13ifvqfp0","pricing_plan_id":"cebpf4jnsgd1na2vs0mg"},{"bike_id":"c253fa61-8fed-462f-a5ce-20493a3a0b3d","system_id":"levelo_inurba_marseille","lat":43.27893,"lon":5.37988,"is_reserved":false,"is_disabled":false,"rental_uris":{"android":"levelo://app?vid=c253fa61-8fed-462f-a5ce-20493a3a0b3d","ios":"levelo://app?vid=c253fa61-8fed-462f-a5ce-20493a3a0b3d"},"vehicle_type_id":"4","last_reported":1768158511,"current_range_meters":6800,"station_id":"ce4bhf92rcd13ifvqf50","pricing_plan_id":"cebpf4jnsgd1na2vs0mg"},{"bike_id":"4c7b2ffd-ccb0-48ab-a409-0108095ad067","system_id":"levelo_inurba_marseille","lat":43.23195,"lon":5.39972,"is_reserved":false,"is_disabled":true,"rental_uris":{"android":"levelo://app?vid=4c7b2ffd-ccb0-48ab-a409-0108095ad067","ios":"levelo://app?vid=4c7b2ffd-ccb0-48ab-a409-0108095ad067"},"vehicle_type_id":"4","last_reported":1768158511,"current_range_meters":6800,"station_id":"ce4bhn12rcd13ifvqgqg","pricing_plan_id":"cebpf4jnsgd1na2vs0mg"},{"bike_id":"59a09b0d-15d8-4c45-bd96-37ad3a501623","system_id":"levelo_inurba_marseille","lat":43.28571,"lon":5.39494,"is_reserved":false,"is_disabled":false,"rental_uris":{"android":"levelo://app?vid=59a09b0d-15d8-4c45-bd96-37ad3a501623","ios":"levelo://app?vid=59a09b0d-15d8-4c45-bd96-37ad3a501623"},"vehicle_type_id":"4","last_reported":1768158511,"current_range_meters":6800,"station_id":"ce4bh292rcd13ifvqdg0","pricing_plan_id":"cebpf4jnsgd1na2vs0mg"},{"bike_id":"d9c321c1-bd42-4a0f-bd8a-d741d0e507f0","system_id":"levelo_inurba_marseille","lat":43.24177,"lon":5.36401,"is_reserved":false,"is_disabled":false,"rental_uris":{"android":"levelo://app?vid=d9c321c1-bd42-4a0f-bd8a-d741d0e507f0","ios":"levelo://app?vid=d9c321c1-bd42-4a0f-bd8a-d741d0e507f0"},"vehicle_type_id":"4","last_reported":1768158511,"current_range_meters":6800,"station_id":"cpo36qri1sfpv3e86is0","pricing_plan_id":"cebpf4jnsgd1na2vs0mg"},{"bike_id":"c59f5a79-013e-434e-937e-1cdde0b23ac2","system_id":"levelo_inurba_marseille","lat":43.25334,"lon":5.42165,"is_reserved":false,"is_disabled":false,"rental_uris":{"android":"levelo://app?vid=c59f5a79-013e-434e-937e-1cdde0b23ac2","ios":"levelo://app?vid=c59f5a79-013e-434e-937e-1cdde0b23ac2"},"vehicle_type_id":"4","last_reported":1768158511,"current_range_meters":6800,"station_id":"st_d2m65c5bi1j21697t3ng","pricing_plan_id":"cebpf4jnsgd1na2vs0mg"},{"bike_id":"c7c3fd4d-fd1d-4f8c-9546-aed8a4e8924a","system_id":"levelo_inurba_marseille","lat":43.27809,"lon":5.40695,"is_reserved":false,"is_disabled":false,"rental_uris":{"android":"levelo://app?vid=c7c3fd4d-fd1d-4f8c-9546-aed8a4e8924a","ios":"levelo://app?vid=c7c3fd4d-fd1d-4f8c-9546-aed8a4e8924a"},"vehicle_type_id":"4","last_reported":1768158511,"current_range_meters":6800,"station_id":"ce4bhnh2rcd13ifvqgtg","pricing_plan_id":"cebpf4jnsgd1na2vs0mg"},{"bike_id":"6869894f-67a0-4b58-8bae-911192c83f2f","system_id":"levelo_inurba_marseille","lat":43.31874,"lon":5.400007,"is_reserved":false,"is_disabled":false,"rental_uris":{"android":"levelo://app?vid=6869894f-67a0-4b58-8bae-911192c83f2f","ios":"levelo://app?vid=6869894f-67a0-4b58-8bae-911192c83f2f"},"vehicle_type_id":"4","last_reported":1768158511,"current_range_meters":6800,"station_id":"","pricing_plan_id":"cebpf4jnsgd1na2vs0mg"},{"bike_id":"94641ff9-fc82-42b2-b40d-a1f5f39755f1","system_id":"levelo_inurba_marseille","lat":43.29264,"lon":5.38459,"is_reserved":false,"is_disabled":false,"rental_uris":{"android":"levelo://app?vid=94641ff9-fc82-42b2-b40d-a1f5f39755f1","ios":"levelo://app?vid=94641ff9-fc82-42b2-b40d-a1f5f39755f1"},"vehicle_type_id":"4","last_reported":1768158511,"current_range_meters":6800,"station_id":"ce4bh692rcd13ifvqea0","pricing_plan_id":"cebpf4jnsgd1na2vs0mg"},{"bike_id":"5eb236d0-c732-47a3-b4ae-bebb81ae84fb","system_id":"levelo_inurba_marseille","lat":43.30863,"lon":5.40586,"is_reserved":false,"is_disabled":false,"rental_uris":{"android":"levelo://app?vid=5eb236d0-c732-47a3-b4ae-bebb81ae84fb","ios":"levelo://app?vid=5eb236d0-c732-47a3-b4ae-bebb81ae84fb"},"vehicle_type_id":"4","last_reported":1768158511,"current_range_meters":7200,"station_id":"","pricing_plan_id":"cebpf4jnsgd1na2vs0mg"},{"bike_id":"70164c08-8f57-4c6f-b7dd-76ca37d2ce10","system_id":"levelo_inurba_marseille","lat":43.24085,"lon":5.3774,"is_reserved":false,"is_disabled":false,"rental_uris":{"android":"levelo://app?vid=70164c08-8f57-4c6f-b7dd-76ca37d2ce10","ios":"levelo://app?vid=70164c08-8f57-4c6f-b7dd-76ca37d2ce10"},"vehicle_type_id":"4","last_reported":1768158511,"current_range_meters":7200,"station_id":"ce4bhnp2rcd13ifvqgvg","pricing_plan_id":"cebpf4jnsgd1na2vs0mg"},{"bike_id":"20de3ddf-3cfd-42ef-81e0-029c9589c76b","system_id":"levelo_inurba_marseille","lat":43.31565,"lon":5.38783,"is_reserved":false,"is_disabled":false,"rental_uris":{"android":"levelo://app?vid=20de3ddf-3cfd-42ef-81e0-029c9589c76b","ios":"levelo://app?vid=20de3ddf-3cfd-42ef-81e0-029c9589c76b"},"vehicle_type_id":"4","last_reported":1768158511,"current_range_meters":7200,"station_id":"","pricing_plan_id":"cebpf4jnsgd1na2vs0mg"},{"bike_id":"b5e622b0-5126-4c46-aea7-514865fdad46","system_id":"levelo_inurba_marseille","lat":43.225,"lon":5.34836,"is_reserved":false,"is_disabled":false,"rental_uris":{"android":"levelo://app?vid=b5e622b0-5126-4c46-aea7-514865fdad46","ios":"levelo://app?vid=b5e622b0-5126-4c46-aea7-514865fdad46"},"vehicle_type_id":"4","last_reported":1768158511,"current_range_meters":7200,"station_id":"st_cvj5dfep6f1abm77gieg","pricing_plan_id":"cebpf4jnsgd1na2vs0mg"},{"bike_id":"439a61d5-d051-40af-9b0f-2926884e52eb","system_id":"levelo_inurba_marseille","lat":43.30741,"lon":5.40983,"is_reserved":false,"is_disabled":false,"rental_uris":{"android":"levelo://app?vid=439a61d5-d051-40af-9b0f-2926884e52eb","ios":"levelo://app?vid=439a61d5-d051-40af-9b0f-2926884e52eb"},"vehicle_type_id":"4","last_reported":1768158511,"current_range_meters":7200,"station_id":"","pricing_plan_id":"cebpf4jnsgd1na2vs0mg"},{"bike_id":"cfa33c3b-bc1c-47f9-86f3-95a13849e383","system_id":"levelo_inurba_marseille","lat":43.26217,"lon":5.40455,"is_reserved":false,"is_disabled":false,"rental_uris":{"android":"levelo://app?vid=cfa33c3b-bc1c-47f9-86f3-95a13849e383","ios":"levelo://app?vid=cfa33c3b-bc1c-47f9-86f3-95a13849e383"},"vehicle_type_id":"4","last_reported":1768158511,"current_range_meters":7200,"station_id":"ce4bhmh2rcd13ifvqgmg","pricing_plan_id":"cebpf4jnsgd1na2vs0mg"},{"bike_id":"dfd48d63-e5d1-4425-97d5-a11fee772bb6","system_id":"levelo_inurba_marseille","lat":43.25572,"lon":5.38248,"is_reserved":false,"is_disabled":false,"rental_uris":{"android":"levelo://app?vid=dfd48d63-e5d1-4425-97d5-a11fee772bb6","ios":"levelo://app?vid=dfd48d63-e5d1-4425-97d5-a11fee772bb6"},"vehicle_type_id":"4","last_reported":1768158511,"current_range_meters":7200,"station_id":"ce4bhih2rcd13ifvqfs0","pricing_plan_id":"cebpf4jnsgd1na2vs0mg"},{"bike_id":"244b7538-163d-454d-823f-8b1f8b0c67c5","system_id":"levelo_inurba_marseille","lat":43.29442,"lon":5.39762,"is_reserved":false,"is_disabled":true,"rental_uris":{"android":"levelo://app?vid=244b7538-163d-454d-823f-8b1f8b0c67c5","ios":"levelo://app?vid=244b7538-163d-454d-823f-8b1f8b0c67c5"},"vehicle_type_id":"4","last_reported":1768158511,"current_range_meters":7200,"station_id":"ce4bh3h2rcd13ifvqdo0","pricing_plan_id":"cebpf4jnsgd1na2vs0mg"},{"bike_id":"45b28d04-1b17-452a-b07a-5af6d2c1615b","system_id":"levelo_inurba_marseille","lat":43.28927,"lon":5.38399,"is_reserved":false,"is_disabled":false,"rental_uris":{"android":"levelo://app?vid=45b28d04-1b17-452a-b07a-5af6d2c1615b","ios":"levelo://app?vid=45b28d04-1b17-452a-b07a-5af6d2c1615b"},"vehicle_type_id":"4","last_reported":1768158511,"current_range_meters":7200,"station_id":"ce4bh612rcd13ifvqe6g","pricing_plan_id":"cebpf4jnsgd1na2vs0mg"},{"bike_id":"d62f9e36-0176-47ea-b04e-e25d60615654","system_id":"levelo_inurba_marseille","lat":43.26476,"lon":5.39551,"is_reserved":false,"is_disabled":false,"rental_uris":{"android":"levelo://app?vid=d62f9e36-0176-47ea-b04e-e25d60615654","ios":"levelo://app?vid=d62f9e36-0176-47ea-b04e-e25d60615654"},"vehicle_type_id":"4","last_reported":1768158511,"current_range_meters":7200,"station_id":"ce4bhi12rcd13ifvqfq0","pricing_plan_id":"cebpf4jnsgd1na2vs0mg"},{"bike_id":"858e8a6e-ece2-491f-b2a2-0e10d2fd226b","system_id":"levelo_inurba_marseille","lat":43.290047,"lon":5.356147,"is_reserved":false,"is_disabled":false,"rental_uris":{"android":"levelo://app?vid=858e8a6e-ece2-491f-b2a2-0e10d2fd226b","ios":"levelo://app?vid=858e8a6e-ece2-491f-b2a2-0e10d2fd226b"},"vehicle_type_id":"4","last_reported":1768158511,"current_range_meters":7200,"station_id":"ce4bhb92rcd13ifvqen0","pricing_plan_id":"cebpf4jnsgd1na2vs0mg"},{"bike_id":"654f95b0-09d2-4766-9d58-38590168f568","system_id":"levelo_inurba_marseille","lat":43.28482,"lon":5.38418,"is_reserved":false,"is_disabled":false,"rental_uris":{"android":"levelo://app?vid=654f95b0-09d2-4766-9d58-38590168f568","ios":"levelo://app?vid=654f95b0-09d2-4766-9d58-38590168f568"},"vehicle_type_id":"4","last_reported":1768158511,"current_range_meters":7200,"station_id":"ce4bh512rcd13ifvqe3g","pricing_plan_id":"cebpf4jnsgd1na2vs0mg"},{"bike_id":"cfa9d431-0c3a-47b2-bafd-95922015c415","system_id":"levelo_inurba_marseille","lat":43.31855,"lon":5.37735,"is_reserved":false,"is_disabled":false,"rental_uris":{"android":"levelo://app?vid=cfa9d431-0c3a-47b2-bafd-95922015c415","ios":"levelo://app?vid=cfa9d431-0c3a-47b2-bafd-95922015c415"},"vehicle_type_id":"4","last_reported":1768158511,"current_range_meters":7200,"station_id":"","pricing_plan_id":"cebpf4jnsgd1na2vs0mg"},{"bike_id":"236625e6-1fe8-4421-ad4f-8447194d15bb","system_id":"levelo_inurba_marseille","lat":43.3152,"lon":5.38029,"is_reserved":false,"is_disabled":false,"rental_uris":{"android":"levelo://app?vid=236625e6-1fe8-4421-ad4f-8447194d15bb","ios":"levelo://app?vid=236625e6-1fe8-4421-ad4f-8447194d15bb"},"vehicle_type_id":"4","last_reported":1768158511,"current_range_meters":7200,"station_id":"ce4bhsp2rcd13ifvqi50","pricing_plan_id":"cebpf4jnsgd1na2vs0mg"},{"bike_id":"53285794-c62b-442b-9e6a-233ce6590272","system_id":"levelo_inurba_marseille","lat":43.245826,"lon":5.374825,"is_reserved":false,"is_disabled":false,"rental_uris":{"android":"levelo://app?vid=53285794-c62b-442b-9e6a-233ce6590272","ios":"levelo://app?vid=53285794-c62b-442b-9e6a-233ce6590272"},"vehicle_type_id":"4","last_reported":1768158511,"current_range_meters":7200,"station_id":"","pricing_plan_id":"cebpf4jnsgd1na2vs0mg"},{"bike_id":"c4e4a799-95e9-4757-a980-0dbb519e2def","system_id":"levelo_inurba_marseille","lat":43.29983,"lon":5.37166,"is_reserved":false,"is_disabled":false,"rental_uris":{"android":"levelo://app?vid=c4e4a799-95e9-4757-a980-0dbb519e2def","ios":"levelo://app?vid=c4e4a799-95e9-4757-a980-0dbb519e2def"},"vehicle_type_id":"4","last_reported":1768158511,"current_range_meters":7200,"station_id":"ce4bgr92rcd13ifvqc7g","pricing_plan_id":"cebpf4jnsgd1na2vs0mg"},{"bike_id":"affd63c6-b8a1-443d-bb79-e5ac663010fa","system_id":"levelo_inurba_marseille","lat":43.31545,"lon":5.39837,"is_reserved":false,"is_disabled":false,"rental_uris":{"android":"levelo://app?vid=affd63c6-b8a1-443d-bb79-e5ac663010fa","ios":"levelo://app?vid=affd63c6-b8a1-443d-bb79-e5ac663010fa"},"vehicle_type_id":"4","last_reported":1768158511,"current_range_meters":7200,"station_id":"","pricing_plan_id":"cebpf4jnsgd1na2vs0mg"},{"bike_id":"e8c2506f-c484-44be-956f-9290cd222ff7","system_id":"levelo_inurba_marseille","lat":43.25837,"lon":5.39445,"is_reserved":false,"is_disabled":false,"rental_uris":{"android":"levelo://app?vid=e8c2506f-c484-44be-956f-9290cd222ff7","ios":"levelo://app?vid=e8c2506f-c484-44be-956f-9290cd222ff7"},"vehicle_type_id":"4","last_reported":1768158511,"current_range_meters":7200,"station_id":"ce4bhip2rcd13ifvqft0","pricing_plan_id":"cebpf4jnsgd1na2vs0mg"},{"bike_id":"edd0b1e1-8c8d-4f25-a2be-11b368b57a1a","system_id":"levelo_inurba_marseille","lat":43.22945,"lon":5.35375,"is_reserved":false,"is_disabled":false,"rental_uris":{"android":"levelo://app?vid=edd0b1e1-8c8d-4f25-a2be-11b368b57a1a","ios":"levelo://app?vid=edd0b1e1-8c8d-4f25-a2be-11b368b57a1a"},"vehicle_type_id":"4","last_reported":1768158511,"current_range_meters":7200,"station_id":"cpo3532slgdg3j2ikp40","pricing_plan_id":"cebpf4jnsgd1na2vs0mg"},{"bike_id":"0fee359e-fd0a-419a-8bad-68dfffe61373","system_id":"levelo_inurba_marseille","lat":43.32535,"lon":5.40677,"is_reserved":false,"is_disabled":false,"rental_uris":{"android":"levelo://app?vid=0fee359e-fd0a-419a-8bad-68dfffe61373","ios":"levelo://app?vid=0fee359e-fd0a-419a-8bad-68dfffe61373"},"vehicle_type_id":"4","last_reported":1768158511,"current_range_meters":7200,"station_id":"","pricing_plan_id":"cebpf4jnsgd1na2vs0mg"},{"bike_id":"9eca2961-2c23-4aca-b3c7-bf4fc3359b46","system_id":"levelo_inurba_marseille","lat":43.24161,"lon":5.36395,"is_reserved":false,"is_disabled":false,"rental_uris":{"android":"levelo://app?vid=9eca2961-2c23-4aca-b3c7-bf4fc3359b46","ios":"levelo://app?vid=9eca2961-2c23-4aca-b3c7-bf4fc3359b46"},"vehicle_type_id":"4","last_reported":1768158511,"current_range_meters":8000,"station_id":"cpo36qri1sfpv3e86is0","pricing_plan_id":"cebpf4jnsgd1na2vs0mg"},{"bike_id":"7391bea9-cf28-4483-bef1-ec64b236fa58","system_id":"levelo_inurba_marseille","lat":43.22934,"lon":5.35377,"is_reserved":false,"is_disabled":false,"rental_uris":{"android":"levelo://app?vid=7391bea9-cf28-4483-bef1-ec64b236fa58","ios":"levelo://app?vid=7391bea9-cf28-4483-bef1-ec64b236fa58"},"vehicle_type_id":"4","last_reported":1768158511,"current_range_meters":8000,"station_id":"cpo3532slgdg3j2ikp40","pricing_plan_id":"cebpf4jnsgd1na2vs0mg"},{"bike_id":"5959aa29-05e9-4f9f-9557-c51d778d874a","system_id":"levelo_inurba_marseille","lat":43.30535,"lon":5.36705,"is_reserved":false,"is_disabled":false,"rental_uris":{"android":"levelo://app?vid=5959aa29-05e9-4f9f-9557-c51d778d874a","ios":"levelo://app?vid=5959aa29-05e9-4f9f-9557-c51d778d874a"},"vehicle_type_id":"4","last_reported":1768158511,"current_range_meters":8000,"station_id":"ce4bgrp2rcd13ifvqc9g","pricing_plan_id":"cebpf4jnsgd1na2vs0mg"},{"bike_id":"2e17ea1e-1ee6-4b02-964a-826e174a77e9","system_id":"levelo_inurba_marseille","lat":43.2782,"lon":5.40703,"is_reserved":false,"is_disabled":false,"rental_uris":{"android":"levelo://app?vid=2e17ea1e-1ee6-4b02-964a-826e174a77e9","ios":"levelo://app?vid=2e17ea1e-1ee6-4b02-964a-826e174a77e9"},"vehicle_type_id":"4","last_reported":1768158511,"current_range_meters":8000,"station_id":"ce4bhnh2rcd13ifvqgtg","pricing_plan_id":"cebpf4jnsgd1na2vs0mg"},{"bike_id":"c7aa20f8-983d-45fa-8f15-bc3b76c15f97","system_id":"levelo_inurba_marseille","lat":43.32342,"lon":5.37048,"is_reserved":false,"is_disabled":false,"rental_uris":{"android":"levelo://app?vid=c7aa20f8-983d-45fa-8f15-bc3b76c15f97","ios":"levelo://app?vid=c7aa20f8-983d-45fa-8f15-bc3b76c15f97"},"vehicle_type_id":"4","last_reported":1768158511,"current_range_meters":8000,"station_id":"","pricing_plan_id":"cebpf4jnsgd1na2vs0mg"},{"bike_id":"c0e1b22c-9e67-43eb-b8e9-683099f38799","system_id":"levelo_inurba_marseille","lat":43.287114,"lon":5.379277,"is_reserved":false,"is_disabled":false,"rental_uris":{"android":"levelo://app?vid=c0e1b22c-9e67-43eb-b8e9-683099f38799","ios":"levelo://app?vid=c0e1b22c-9e67-43eb-b8e9-683099f38799"},"vehicle_type_id":"4","last_reported":1768158511,"current_range_meters":8000,"station_id":"ce4bh9p2rcd13ifvqec0","pricing_plan_id":"cebpf4jnsgd1na2vs0mg"},{"bike_id":"739b9c75-e4e2-4afd-940a-adf7aa79d965","system_id":"levelo_inurba_marseille","lat":43.265675,"lon":5.390224,"is_reserved":false,"is_disabled":false,"rental_uris":{"android":"levelo://app?vid=739b9c75-e4e2-4afd-940a-adf7aa79d965","ios":"levelo://app?vid=739b9c75-e4e2-4afd-940a-adf7aa79d965"},"vehicle_type_id":"4","last_reported":1768158511,"current_range_meters":8000,"station_id":"ce4bhe12rcd13ifvqf30","pricing_plan_id":"cebpf4jnsgd1na2vs0mg"},{"bike_id":"8c2fa2bb-62c3-4e34-9fe1-d67d65e692b3","system_id":"levelo_inurba_marseille","lat":43.23202,"lon":5.39982,"is_reserved":false,"is_disabled":true,"rental_uris":{"android":"levelo://app?vid=8c2fa2bb-62c3-4e34-9fe1-d67d65e692b3","ios":"levelo://app?vid=8c2fa2bb-62c3-4e34-9fe1-d67d65e692b3"},"vehicle_type_id":"4","last_reported":1768158511,"current_range_meters":8000,"station_id":"ce4bhn12rcd13ifvqgqg","pricing_plan_id":"cebpf4jnsgd1na2vs0mg"},{"bike_id":"097b1db9-7cfb-4c5a-94d5-72ec3ba5c8b3","system_id":"levelo_inurba_marseille","lat":43.28002,"lon":5.40905,"is_reserved":false,"is_disabled":false,"rental_uris":{"android":"levelo://app?vid=097b1db9-7cfb-4c5a-94d5-72ec3ba5c8b3","ios":"levelo://app?vid=097b1db9-7cfb-4c5a-94d5-72ec3ba5c8b3"},"vehicle_type_id":"4","last_reported":1768158511,"current_range_meters":8000,"station_id":"","pricing_plan_id":"cebpf4jnsgd1na2vs0mg"},{"bike_id":"77477180-42b0-4266-9292-09ff695a5483","system_id":"levelo_inurba_marseille","lat":43.28706,"lon":5.37365,"is_reserved":false,"is_disabled":false,"rental_uris":{"android":"levelo://app?vid=77477180-42b0-4266-9292-09ff695a5483","ios":"levelo://app?vid=77477180-42b0-4266-9292-09ff695a5483"},"vehicle_type_id":"4","last_reported":1768158511,"current_range_meters":8000,"station_id":"ce4bh3p2rcd13ifvqdq0","pricing_plan_id":"cebpf4jnsgd1na2vs0mg"},{"bike_id":"ed2cd03a-66bb-4e81-9432-86bceab963be","system_id":"levelo_inurba_marseille","lat":43.22562,"lon":5.41639,"is_reserved":false,"is_disabled":false,"rental_uris":{"android":"levelo://app?vid=ed2cd03a-66bb-4e81-9432-86bceab963be","ios":"levelo://app?vid=ed2cd03a-66bb-4e81-9432-86bceab963be"},"vehicle_type_id":"4","last_reported":1768158511,"current_range_meters":8000,"station_id":"st_d2o4gvlbi1j2169b742g","pricing_plan_id":"cebpf4jnsgd1na2vs0mg"},{"bike_id":"c28651f8-c7f3-47c0-a854-7c444378edc7","system_id":"levelo_inurba_marseille","lat":43.24069,"lon":5.37774,"is_reserved":false,"is_disabled":false,"rental_uris":{"android":"levelo://app?vid=c28651f8-c7f3-47c0-a854-7c444378edc7","ios":"levelo://app?vid=c28651f8-c7f3-47c0-a854-7c444378edc7"},"vehicle_type_id":"4","last_reported":1768158511,"current_range_meters":8000,"station_id":"ce4bhnp2rcd13ifvqgvg","pricing_plan_id":"cebpf4jnsgd1na2vs0mg"},{"bike_id":"ddca8b76-308e-4bd5-893c-d3fca5b2f318","system_id":"levelo_inurba_marseille","lat":43.282312,"lon":5.402877,"is_reserved":false,"is_disabled":false,"rental_uris":{"android":"levelo://app?vid=ddca8b76-308e-4bd5-893c-d3fca5b2f318","ios":"levelo://app?vid=ddca8b76-308e-4bd5-893c-d3fca5b2f318"},"vehicle_type_id":"4","last_reported":1768158511,"current_range_meters":8000,"station_id":"","pricing_plan_id":"cebpf4jnsgd1na2vs0mg"},{"bike_id":"1cb07cb0-3ed6-4952-a336-fe76008dd481","system_id":"levelo_inurba_marseille","lat":43.287015,"lon":5.373945,"is_reserved":false,"is_disabled":false,"rental_uris":{"android":"levelo://app?vid=1cb07cb0-3ed6-4952-a336-fe76008dd481","ios":"levelo://app?vid=1cb07cb0-3ed6-4952-a336-fe76008dd481"},"vehicle_type_id":"4","last_reported":1768158511,"current_range_meters":8000,"station_id":"ce4bh3p2rcd13ifvqdq0","pricing_plan_id":"cebpf4jnsgd1na2vs0mg"},{"bike_id":"cfc31cb0-49ca-4b30-8c65-0b6d74754b4a","system_id":"levelo_inurba_marseille","lat":43.28624,"lon":5.42606,"is_reserved":false,"is_disabled":false,"rental_uris":{"android":"levelo://app?vid=cfc31cb0-49ca-4b30-8c65-0b6d74754b4a","ios":"levelo://app?vid=cfc31cb0-49ca-4b30-8c65-0b6d74754b4a"},"vehicle_type_id":"4","last_reported":1768158511,"current_range_meters":8000,"station_id":"","pricing_plan_id":"cebpf4jnsgd1na2vs0mg"},{"bike_id":"cbc05215-eae3-482c-8a83-406d798cd6ab","system_id":"levelo_inurba_marseille","lat":43.24168,"lon":5.36399,"is_reserved":false,"is_disabled":false,"rental_uris":{"android":"levelo://app?vid=cbc05215-eae3-482c-8a83-406d798cd6ab","ios":"levelo://app?vid=cbc05215-eae3-482c-8a83-406d798cd6ab"},"vehicle_type_id":"4","last_reported":1768158511,"current_range_meters":8000,"station_id":"cpo36qri1sfpv3e86is0","pricing_plan_id":"cebpf4jnsgd1na2vs0mg"},{"bike_id":"dc38271f-dd60-4c06-968f-a8b522b1760d","system_id":"levelo_inurba_marseille","lat":43.30461,"lon":5.37894,"is_reserved":false,"is_disabled":false,"rental_uris":{"android":"levelo://app?vid=dc38271f-dd60-4c06-968f-a8b522b1760d","ios":"levelo://app?vid=dc38271f-dd60-4c06-968f-a8b522b1760d"},"vehicle_type_id":"4","last_reported":1768158511,"current_range_meters":8000,"station_id":"ce4bgup2rcd13ifvqcn0","pricing_plan_id":"cebpf4jnsgd1na2vs0mg"},{"bike_id":"ccf3df2d-2595-4e60-bc12-4ee57003c1b4","system_id":"levelo_inurba_marseille","lat":43.28675,"lon":5.38712,"is_reserved":false,"is_disabled":false,"rental_uris":{"android":"levelo://app?vid=ccf3df2d-2595-4e60-bc12-4ee57003c1b4","ios":"levelo://app?vid=ccf3df2d-2595-4e60-bc12-4ee57003c1b4"},"vehicle_type_id":"4","last_reported":1768158511,"current_range_meters":8000,"station_id":"ce4bh492rcd13ifvqdug","pricing_plan_id":"cebpf4jnsgd1na2vs0mg"},{"bike_id":"4ee28d71-5afa-41a2-afd6-be21bb3f3cdb","system_id":"levelo_inurba_marseille","lat":43.29232,"lon":5.360518,"is_reserved":false,"is_disabled":false,"rental_uris":{"android":"levelo://app?vid=4ee28d71-5afa-41a2-afd6-be21bb3f3cdb","ios":"levelo://app?vid=4ee28d71-5afa-41a2-afd6-be21bb3f3cdb"},"vehicle_type_id":"4","last_reported":1768158511,"current_range_meters":8000,"station_id":"","pricing_plan_id":"cebpf4jnsgd1na2vs0mg"},{"bike_id":"4ddffc0c-a073-4800-9872-80f96d7a4252","system_id":"levelo_inurba_marseille","lat":43.25342,"lon":5.42182,"is_reserved":false,"is_disabled":false,"rental_uris":{"android":"levelo://app?vid=4ddffc0c-a073-4800-9872-80f96d7a4252","ios":"levelo://app?vid=4ddffc0c-a073-4800-9872-80f96d7a4252"},"vehicle_type_id":"4","last_reported":1768158511,"current_range_meters":8000,"station_id":"st_d2m65c5bi1j21697t3ng","pricing_plan_id":"cebpf4jnsgd1na2vs0mg"},{"bike_id":"c09077fd-b45e-4923-87ed-8f3d3b3f4e4e","system_id":"levelo_inurba_marseille","lat":43.28469,"lon":5.48396,"is_reserved":false,"is_disabled":false,"rental_uris":{"android":"levelo://app?vid=c09077fd-b45e-4923-87ed-8f3d3b3f4e4e","ios":"levelo://app?vid=c09077fd-b45e-4923-87ed-8f3d3b3f4e4e"},"vehicle_type_id":"4","last_reported":1768158511,"current_range_meters":8000,"station_id":"","pricing_plan_id":"cebpf4jnsgd1na2vs0mg"},{"bike_id":"21c109ac-e8ef-4037-9186-0bc96f2921c1","system_id":"levelo_inurba_marseille","lat":43.232,"lon":5.35548,"is_reserved":false,"is_disabled":false,"rental_uris":{"android":"levelo://app?vid=21c109ac-e8ef-4037-9186-0bc96f2921c1","ios":"levelo://app?vid=21c109ac-e8ef-4037-9186-0bc96f2921c1"},"vehicle_type_id":"4","last_reported":1768158511,"current_range_meters":8000,"station_id":"ce4bhu92rcd13ifvqi70","pricing_plan_id":"cebpf4jnsgd1na2vs0mg"},{"bike_id":"686567c3-f8b4-4ecb-80e6-1a8e648a52ee","system_id":"levelo_inurba_marseille","lat":43.27322,"lon":5.391,"is_reserved":false,"is_disabled":false,"rental_uris":{"android":"levelo://app?vid=686567c3-f8b4-4ecb-80e6-1a8e648a52ee","ios":"levelo://app?vid=686567c3-f8b4-4ecb-80e6-1a8e648a52ee"},"vehicle_type_id":"4","last_reported":1768158511,"current_range_meters":8000,"station_id":"ce4bhgp2rcd13ifvqfe0","pricing_plan_id":"cebpf4jnsgd1na2vs0mg"},{"bike_id":"a0b1a1c0-4317-4e99-b8d0-6cd3506102ad","system_id":"levelo_inurba_marseille","lat":43.26058,"lon":5.39392,"is_reserved":false,"is_disabled":false,"rental_uris":{"android":"levelo://app?vid=a0b1a1c0-4317-4e99-b8d0-6cd3506102ad","ios":"levelo://app?vid=a0b1a1c0-4317-4e99-b8d0-6cd3506102ad"},"vehicle_type_id":"4","last_reported":1768158511,"current_range_meters":8400,"station_id":"ce4bhh92rcd13ifvqfj0","pricing_plan_id":"cebpf4jnsgd1na2vs0mg"},{"bike_id":"e00a60f5-7eec-4bb5-b2e0-499885bcab97","system_id":"levelo_inurba_marseille","lat":43.26551,"lon":5.37285,"is_reserved":false,"is_disabled":false,"rental_uris":{"android":"levelo://app?vid=e00a60f5-7eec-4bb5-b2e0-499885bcab97","ios":"levelo://app?vid=e00a60f5-7eec-4bb5-b2e0-499885bcab97"},"vehicle_type_id":"4","last_reported":1768158511,"current_range_meters":8400,"station_id":"ce4bhg12rcd13ifvqf70","pricing_plan_id":"cebpf4jnsgd1na2vs0mg"},{"bike_id":"42f33adc-fe65-4ac4-9016-fac52b6274ac","system_id":"levelo_inurba_marseille","lat":43.25343,"lon":5.42172,"is_reserved":false,"is_disabled":false,"rental_uris":{"android":"levelo://app?vid=42f33adc-fe65-4ac4-9016-fac52b6274ac","ios":"levelo://app?vid=42f33adc-fe65-4ac4-9016-fac52b6274ac"},"vehicle_type_id":"4","last_reported":1768158511,"current_range_meters":8400,"station_id":"st_d2m65c5bi1j21697t3ng","pricing_plan_id":"cebpf4jnsgd1na2vs0mg"},{"bike_id":"d162d197-a0fd-462d-a34b-b55f6754275b","system_id":"levelo_inurba_marseille","lat":43.26069,"lon":5.39397,"is_reserved":false,"is_disabled":false,"rental_uris":{"android":"levelo://app?vid=d162d197-a0fd-462d-a34b-b55f6754275b","ios":"levelo://app?vid=d162d197-a0fd-462d-a34b-b55f6754275b"},"vehicle_type_id":"4","last_reported":1768158511,"current_range_meters":8400,"station_id":"ce4bhh92rcd13ifvqfj0","pricing_plan_id":"cebpf4jnsgd1na2vs0mg"},{"bike_id":"38a5a6be-7a66-462f-bfdd-a381aa75e6d3","system_id":"levelo_inurba_marseille","lat":43.28692,"lon":5.38668,"is_reserved":false,"is_disabled":true,"rental_uris":{"android":"levelo://app?vid=38a5a6be-7a66-462f-bfdd-a381aa75e6d3","ios":"levelo://app?vid=38a5a6be-7a66-462f-bfdd-a381aa75e6d3"},"vehicle_type_id":"4","last_reported":1768158511,"current_range_meters":8400,"station_id":"ce4bh492rcd13ifvqdug","pricing_plan_id":"cebpf4jnsgd1na2vs0mg"},{"bike_id":"748968f8-327c-4969-9ba7-2d3fe0ea40f7","system_id":"levelo_inurba_marseille","lat":43.29506,"lon":5.39614,"is_reserved":false,"is_disabled":false,"rental_uris":{"android":"levelo://app?vid=748968f8-327c-4969-9ba7-2d3fe0ea40f7","ios":"levelo://app?vid=748968f8-327c-4969-9ba7-2d3fe0ea40f7"},"vehicle_type_id":"4","last_reported":1768158511,"current_range_meters":8400,"station_id":"","pricing_plan_id":"cebpf4jnsgd1na2vs0mg"},{"bike_id":"bf2c1c0c-8eaf-4ec0-9818-f7a2601b0437","system_id":"levelo_inurba_marseille","lat":43.28855,"lon":5.39314,"is_reserved":false,"is_disabled":false,"rental_uris":{"android":"levelo://app?vid=bf2c1c0c-8eaf-4ec0-9818-f7a2601b0437","ios":"levelo://app?vid=bf2c1c0c-8eaf-4ec0-9818-f7a2601b0437"},"vehicle_type_id":"4","last_reported":1768158511,"current_range_meters":8400,"station_id":"ce4bh2p2rcd13ifvqdi0","pricing_plan_id":"cebpf4jnsgd1na2vs0mg"},{"bike_id":"e48607cd-b2f5-4b5a-9c6c-86ffe0a63554","system_id":"levelo_inurba_marseille","lat":43.24419,"lon":5.37061,"is_reserved":false,"is_disabled":false,"rental_uris":{"android":"levelo://app?vid=e48607cd-b2f5-4b5a-9c6c-86ffe0a63554","ios":"levelo://app?vid=e48607cd-b2f5-4b5a-9c6c-86ffe0a63554"},"vehicle_type_id":"4","last_reported":1768158511,"current_range_meters":8400,"station_id":"ce4bhhh2rcd13ifvqfk0","pricing_plan_id":"cebpf4jnsgd1na2vs0mg"},{"bike_id":"95172e0d-44d7-4bb1-abdc-dd3fd118e056","system_id":"levelo_inurba_marseille","lat":43.279894,"lon":5.416567,"is_reserved":false,"is_disabled":false,"rental_uris":{"android":"levelo://app?vid=95172e0d-44d7-4bb1-abdc-dd3fd118e056","ios":"levelo://app?vid=95172e0d-44d7-4bb1-abdc-dd3fd118e056"},"vehicle_type_id":"4","last_reported":1768158511,"current_range_meters":8400,"station_id":"ce4bho12rcd13ifvqh1g","pricing_plan_id":"cebpf4jnsgd1na2vs0mg"},