{"last_updated":1727511066,"ttl":60,"version":"2.2","data":{"bikes":[{"bike_id":"f2602725-d633-43ab-bd38-fb1227eda7aa","system_id":"levelo_inurba_marseille","lat":43.29842,"lon":5.36263,"is_reserved":false,"is_disabled":false,"rental_uris":{"android":"levelo://app?vid=f2602725-d633-43ab-bd38-fb1227eda7aa","ios":"levelo://app?vid=f2602725-d633-43ab-bd38-fb1227eda7aa"},"vehicle_type_id":"4","last_reported":1727511066,"current_range_meters":39200,"station_id":"ce4bgpp2rcd13ifvqc3g","pricing_plan_id":"cebpf4jnsgd1na2vs0mg"},{"bike_id":"4eeb24b6-7627-46b0-96a2-f0a95209c4f9","system_id":"levelo_inurba_marseille","lat":43.27826,"lon":5.40716,"is_reserved":false,"is_disabled":false,"rental_uris":{"android":"levelo://app?vid=4eeb24b6-7627-46b0-96a2-f0a95209c4f9","ios":"levelo://app?vid=4eeb24b6-7627-46b0-96a2-f0a95209c4f9"},"vehicle_type_id":"4","last_reported":1727511066,"current_range_meters":22000,"station_id":"ce4bhnh2rcd13ifvqgtg","pricing_plan_id":"cebpf4jnsgd1na2vs0mg"},{"bike_id":"e7081ef8-8a32-46a8-a293-c48ce527862e","system_id":"levelo_inurba_marseille","lat":43.34502,"lon":5.41626,"is_reserved":false,"is_disabled":false,"rental_uris":{"android":"levelo://app?vid=e7081ef8-8a32-46a8-a293-c48ce527862e","ios":"levelo://app?vid=e7081ef8-8a32-46a8-a293-c48ce527862e"},"vehicle_type_id":"4","last_reported":1727511066,"current_range_meters":6000,"station_id":"","pricing_plan_id":"cebpf4jnsgd1na2vs0mg"},{"bike_id":"a29d41d5-e7bc-4d60-8ced-60cf76942003","system_id":"levelo_inurba_marseille","lat":43.2465,"lon":5.38129,"is_reserved":false,"is_disabled":false,"rental_uris":{"android":"levelo://app?vid=a29d41d5-e7bc-4d60-8ced-60cf76942003","ios":"levelo://app?vid=a29d41d5-e7bc-4d60-8ced-60cf76942003"},"vehicle_type_id":"4","last_reported":1727511066,"current_range_meters":30400,"station_id":"ce4bhih2rcd13ifvqfr0","pricing_plan_id":"cebpf4jnsgd1na2vs0mg"},{"bike_id":"6338af0a-609f-4971-a24f-2fdbd146f635","system_id":"levelo_inurba_marseille","lat":43.30545,"lon":5.36703,"is_reserved":false,"is_disabled":false,"rental_uris":{"android":"levelo://app?vid=6338af0a-609f-4971-a24f-2fdbd146f635","ios":"levelo://app?vid=6338af0a-609f-4971-a24f-2fdbd146f635"},"vehicle_type_id":"4","last_reported":1727511066,"current_range_meters":38000,"station_id":"ce4bgrp2rcd13ifvqc9g","pricing_plan_id":"cebpf4jnsgd1na2vs0mg"},{"bike_id":"065bacd5-9929-4380-91c4-587ad3f90b3f","system_id":"levelo_inurba_marseille","lat":43.31276,"lon":5.4016,"is_reserved":false,"is_disabled":false,"rental_uris":{"android":"levelo://app?vid=065bacd5-9929-4380-91c4-587ad3f90b3f","ios":"levelo://app?vid=065bacd5-9929-4380-91c4-587ad3f90b3f"},"vehicle_type_id":"4","last_reported":1727511066,"current_range_meters":38800,"station_id":"ce4bh092rcd13ifvqd30","pricing_plan_id":"cebpf4jnsgd1na2vs0mg"},{"bike_id":"6642d7d8-2484-4537-aa6a-5def2bf5f855","system_id":"levelo_inurba_marseille","lat":43.2974,"lon":5.38148,"is_reserved":false,"is_disabled":false,"rental_uris":{"android":"levelo://app?vid=6642d7d8-2484-4537-aa6a-5def2bf5f855","ios":"levelo://app?vid=6642d7d8-2484-4537-aa6a-5def2bf5f855"},"vehicle_type_id":"4","last_reported":1727511066,"current_range_meters":36400,"station_id":"","pricing_plan_id":"cebpf4jnsgd1na2vs0mg"},{"bike_id":"c42bda2a-576f-4405-9ceb-4d1e065cf644","system_id":"levelo_inurba_marseille","lat":43.27951,"lon":5.41049,"is_reserved":false,"is_disabled":false,"rental_uris":{"android":"levelo://app?vid=c42bda2a-576f-4405-9ceb-4d1e065cf644","ios":"levelo://app?vid=c42bda2a-576f-4405-9ceb-4d1e065cf644"},"vehicle_type_id":"4","last_reported":1727511066,"current_range_meters":38000,"station_id":"ce4bhnp2rcd13ifvqh0g","pricing_plan_id":"cebpf4jnsgd1na2vs0mg"},{"bike_id":"0417605e-b0e9-4bf1-a3e1-ed70a3702cc9","system_id":"levelo_inurba_marseille","lat":43.27571,"lon":5.38422,"is_reserved":false,"is_disabled":false,"rental_uris":{"android":"levelo://app?vid=0417605e-b0e9-4bf1-a3e1-ed70a3702cc9","ios":"levelo://app?vid=0417605e-b0e9-4bf1-a3e1-ed70a3702cc9"},"vehicle_type_id":"4","last_reported":1727511066,"current_range_meters":38400,"station_id":"ce4bhh92rcd13ifvqfi0","pricing_plan_id":"cebpf4jnsgd1na2vs0mg"},{"bike_id":"1611d0c6-b821-466f-bba1-9d0a42198c24","system_id":"levelo_inurba_marseille","lat":43.30088,"lon":5.39066,"is_reserved":false,"is_disabled":false,"rental_uris":{"android":"levelo://app?vid=1611d0c6-b821-466f-bba1-9d0a42198c24","ios":"levelo://app?vid=1611d0c6-b821-466f-bba1-9d0a42198c24"},"vehicle_type_id":"4","last_reported":1727511066,"current_range_meters":23200,"station_id":"ce4bh192rcd13ifvqdb0","pricing_plan_id":"cebpf4jnsgd1na2vs0mg"},{"bike_id":"02c6d3d8-077a-4c1a-ae87-92ce1ff0942b","system_id":"levelo_inurba_marseille","lat":43.231905,"lon":5.399939,"is_reserved":false,"is_disabled":false,"rental_uris":{"android":"levelo://app?vid=02c6d3d8-077a-4c1a-ae87-92ce1ff0942b","ios":"levelo://app?vid=02c6d3d8-077a-4c1a-ae87-92ce1ff0942b"},"vehicle_type_id":"4","last_reported":1727511066,"current_range_meters":23200,"station_id":"ce4bhn12rcd13ifvqgqg","pricing_plan_id":"cebpf4jnsgd1na2vs0mg"},{"bike_id":"86ab9e15-2330-4229-871b-cd4aa2f273d2","system_id":"levelo_inurba_marseille","lat":43.32829,"lon":5.40516,"is_reserved":false,"is_disabled":false,"rental_uris":{"android":"levelo://app?vid=86ab9e15-2330-4229-871b-cd4aa2f273d2","ios":"levelo://app?vid=86ab9e15-2330-4229-871b-cd4aa2f273d2"},"vehicle_type_id":"4","last_reported":1727511066,"current_range_meters":3600,"station_id":"","pricing_plan_id":"cebpf4jnsgd1na2vs0mg"},{"bike_id":"a4a2f0c3-49a8-4928-8430-9d7576a0a2ee","system_id":"levelo_inurba_marseille","lat":43.27499,"lon":5.42452,"is_reserved":false,"is_disabled":false,"rental_uris":{"android":"levelo://app?vid=a4a2f0c3-49a8-4928-8430-9d7576a0a2ee","ios":"levelo://app?vid=a4a2f0c3-49a8-4928-8430-9d7576a0a2ee"},"vehicle_type_id":"4","last_reported":1727511066,"current_range_meters":24800,"station_id":"ce4bhn92rcd13ifvqgrg","pricing_plan_id":"cebpf4jnsgd1na2vs0mg"},{"bike_id":"fd95b7d0-9465-4ced-a887-157866b5f796","system_id":"levelo_inurba_marseille","lat":43.28081,"lon":5.39665,"is_reserved":false,"is_disabled":false,"rental_uris":{"android":"levelo://app?vid=fd95b7d0-9465-4ced-a887-157866b5f796","ios":"levelo://app?vid=fd95b7d0-9465-4ced-a887-157866b5f796"},"vehicle_type_id":"4","last_reported":1727511066,"current_range_meters":38800,"station_id":"ce4bho12rcd13ifvqh2g","pricing_plan_id":"cebpf4jnsgd1na2vs0mg"},{"bike_id":"9b75a29d-f1a9-4fde-909a-755a96ab8371","system_id":"levelo_inurba_marseille","lat":43.28271,"lon":5.35083,"is_reserved":false,"is_disabled":false,"rental_uris":{"android":"levelo://app?vid=9b75a29d-f1a9-4fde-909a-755a96ab8371","ios":"levelo://app?vid=9b75a29d-f1a9-4fde-909a-755a96ab8371"},"vehicle_type_id":"4","last_reported":1727511066,"current_range_meters":38800,"station_id":"ce4bhbp2rcd13ifvqerg","pricing_plan_id":"cebpf4jnsgd1na2vs0mg"},{"bike_id":"547e2159-7a4b-4c55-aede-f3c45615a7fa","system_id":"levelo_inurba_marseille","lat":43.2316,"lon":5.437,"is_reserved":false,"is_disabled":false,"rental_uris":{"android":"levelo://app?vid=547e2159-7a4b-4c55-aede-f3c45615a7fa","ios":"levelo://app?vid=547e2159-7a4b-4c55-aede-f3c45615a7fa"},"vehicle_type_id":"4","last_reported":1727511066,"current_range_meters":36800,"station_id":"ce4bhmp2rcd13ifvqgog","pricing_plan_id":"cebpf4jnsgd1na2vs0mg"},{"bike_id":"eb56312d-decf-4683-930e-db9e8bebb16e","system_id":"levelo_inurba_marseille","lat":43.29792,"lon":5.38122,"is_reserved":false,"is_disabled":false,"rental_uris":{"android":"levelo://app?vid=eb56312d-decf-4683-930e-db9e8bebb16e","ios":"levelo://app?vid=eb56312d-decf-4683-930e-db9e8bebb16e"},"vehicle_type_id":"4","last_reported":1727511066,"current_range_meters":33200,"station_id":"ce4bgip2rcd13ifvqbb0","pricing_plan_id":"cebpf4jnsgd1na2vs0mg"},{"bike_id":"83ab67e9-9683-40ac-9b80-c07390469159","system_id":"levelo_inurba_marseille","lat":43.22926,"lon":5.35385,"is_reserved":false,"is_disabled":false,"rental_uris":{"android":"levelo://app?vid=83ab67e9-9683-40ac-9b80-c07390469159","ios":"levelo://app?vid=83ab67e9-9683-40ac-9b80-c07390469159"},"vehicle_type_id":"4","last_reported":1727511066,"current_range_meters":38000,"station_id":"cpo3532slgdg3j2ikp40","pricing_plan_id":"cebpf4jnsgd1na2vs0mg"},{"bike_id":"73d4b1b9-8fa7-45c3-b819-17c2aa182b44","system_id":"levelo_inurba_marseille","lat":43.2956,"lon":5.4229,"is_reserved":false,"is_disabled":false,"rental_uris":{"android":"levelo://app?vid=73d4b1b9-8fa7-45c3-b819-17c2aa182b44","ios":"levelo://app?vid=73d4b1b9-8fa7-45c3-b819-17c2aa182b44"},"vehicle_type_id":"4","last_reported":1727511066,"current_range_meters":10800,"station_id":"ce4bhph2rcd13ifvqhdg","pricing_plan_id":"cebpf4jnsgd1na2vs0mg"},{"bike_id":"9f6b5ef6-02f7-4c16-9005-0978229a95e0","system_id":"levelo_inurba_marseille","lat":43.28461,"lon":5.35895,"is_reserved":false,"is_disabled":false,"rental_uris":{"android":"levelo://app?vid=9f6b5ef6-02f7-4c16-9005-0978229a95e0","ios":"levelo://app?vid=9f6b5ef6-02f7-4c16-9005-0978229a95e0"},"vehicle_type_id":"4","last_reported":1727511066,"current_range_meters":38000,"station_id":"ce4bhah2rcd13ifvqei0","pricing_plan_id":"cebpf4jnsgd1na2vs0mg"},{"bike_id":"3dcb4d19-9f2a-4c72-b340-cfe0fcbad6e1","system_id":"levelo_inurba_marseille","lat":43.25827,"lon":5.394399,"is_reserved":false,"is_disabled":false,"rental_uris":{"android":"levelo://app?vid=3dcb4d19-9f2a-4c72-b340-cfe0fcbad6e1","ios":"levelo://app?vid=3dcb4d19-9f2a-4c72-b340-cfe0fcbad6e1"},"vehicle_type_id":"4","last_reported":1727511066,"current_range_meters":38000,"station_id":"ce4bhip2rcd13ifvqft0","pricing_plan_id":"cebpf4jnsgd1na2vs0mg"},{"bike_id":"7473b1fb-f373-4fe9-9557-f1ee22edc7e4","system_id":"levelo_inurba_marseille","lat":43.29571,"lon":5.37531,"is_reserved":false,"is_disabled":false,"rental_uris":{"android":"levelo://app?vid=7473b1fb-f373-4fe9-9557-f1ee22edc7e4","ios":"levelo://app?vid=7473b1fb-f373-4fe9-9557-f1ee22edc7e4"},"vehicle_type_id":"4","last_reported":1727511066,"current_range_meters":24800,"station_id":"ce4bgh92rcd13ifvqb50","pricing_plan_id":"cebpf4jnsgd1na2vs0mg"},{"bike_id":"6fb54eef-1b79-4c8c-956c-b78c5752a631","system_id":"levelo_inurba_marseille","lat":43.2583,"lon":5.39429,"is_reserved":false,"is_disabled":false,"rental_uris":{"android":"levelo://app?vid=6fb54eef-1b79-4c8c-956c-b78c5752a631","ios":"levelo://app?vid=6fb54eef-1b79-4c8c-956c-b78c5752a631"},"vehicle_type_id":"4","last_reported":1727511066,"current_range_meters":8000,"station_id":"ce4bhip2rcd13ifvqft0","pricing_plan_id":"cebpf4jnsgd1na2vs0mg"},{"bike_id":"0abfa85f-e51b-42a4-82e2-778eb183e74e","system_id":"levelo_inurba_marseille","lat":43.31529,"lon":5.38043,"is_reserved":false,"is_disabled":false,"rental_uris":{"android":"levelo://app?vid=0abfa85f-e51b-42a4-82e2-778eb183e74e","ios":"levelo://app?vid=0abfa85f-e51b-42a4-82e2-778eb183e74e"},"vehicle_type_id":"4","last_reported":1727511066,"current_range_meters":37600,"station_id":"ce4bhsp2rcd13ifvqi50","pricing_plan_id":"cebpf4jnsgd1na2vs0mg"},{"bike_id":"e3cfc583-9a01-484b-8097-22856b022419","system_id":"levelo_inurba_marseille","lat":43.31118,"lon":5.37775,"is_reserved":false,"is_disabled":false,"rental_uris":{"android":"levelo://app?vid=e3cfc583-9a01-484b-8097-22856b022419","ios":"levelo://app?vid=e3cfc583-9a01-484b-8097-22856b022419"},"vehicle_type_id":"4","last_reported":1727511066,"current_range_meters":38800,"station_id":"ce4bgt92rcd13ifvqcg0","pricing_plan_id":"cebpf4jnsgd1na2vs0mg"},{"bike_id":"ef385aff-3079-48ef-a8fb-3479a7428776","system_id":"levelo_inurba_marseille","lat":43.27941,"lon":5.41051,"is_reserved":false,"is_disabled":false,"rental_uris":{"android":"levelo://app?vid=ef385aff-3079-48ef-a8fb-3479a7428776","ios":"levelo://app?vid=ef385aff-3079-48ef-a8fb-3479a7428776"},"vehicle_type_id":"4","last_reported":1727511066,"current_range_meters":38800,"station_id":"ce4bhnp2rcd13ifvqh0g","pricing_plan_id":"cebpf4jnsgd1na2vs0mg"},{"bike_id":"7fab7451-a6e0-472b-81ac-3e5565e130d8","system_id":"levelo_inurba_marseille","lat":43.33752,"lon":5.37361,"is_reserved":false,"is_disabled":false,"rental_uris":{"android":"levelo://app?vid=7fab7451-a6e0-472b-81ac-3e5565e130d8","ios":"levelo://app?vid=7fab7451-a6e0-472b-81ac-3e5565e130d8"},"vehicle_type_id":"4","last_reported":1727511066,"current_range_meters":23200,"station_id":"","pricing_plan_id":"cebpf4jnsgd1na2vs0mg"},{"bike_id":"c1f1be46-6a39-467c-91cf-9cc8be642387","system_id":"levelo_inurba_marseille","lat":43.31715,"lon":5.43708,"is_reserved":false,"is_disabled":false,"rental_uris":{"android":"levelo://app?vid=c1f1be46-6a39-467c-91cf-9cc8be642387","ios":"levelo://app?vid=c1f1be46-6a39-467c-91cf-9cc8be642387"},"vehicle_type_id":"4","last_reported":1727511066,"current_range_meters":22400,"station_id":"ce4bhp92rcd13ifvqhcg","pricing_plan_id":"cebpf4jnsgd1na2vs0mg"},{"bike_id":"06e383df-1197-449f-9df1-e723e6e5b745","system_id":"levelo_inurba_marseille","lat":43.23926,"lon":5.3828,"is_reserved":false,"is_disabled":false,"rental_uris":{"android":"levelo://app?vid=06e383df-1197-449f-9df1-e723e6e5b745","ios":"levelo://app?vid=06e383df-1197-449f-9df1-e723e6e5b745"},"vehicle_type_id":"4","last_reported":1727511066,"current_range_meters":8800,"station_id":"","pricing_plan_id":"cebpf4jnsgd1na2vs0mg"},{"bike_id":"e19c2211-331c-42ae-b78a-4ecc2a7133fe","system_id":"levelo_inurba_marseille","lat":43.2466,"lon":5.38163,"is_reserved":false,"is_disabled":false,"rental_uris":{"android":"levelo://app?vid=e19c2211-331c-42ae-b78a-4ecc2a7133fe","ios":"levelo://app?vid=e19c2211-331c-42ae-b78a-4ecc2a7133fe"},"vehicle_type_id":"4","last_reported":1727511066,"current_range_meters":39200,"station_id":"ce4bhih2rcd13ifvqfr0","pricing_plan_id":"cebpf4jnsgd1na2vs0mg"},{"bike_id":"9b277a9c-a609-42dd-be93-651fd6e72686","system_id":"levelo_inurba_marseille","lat":43.29632,"lon":5.40602,"is_reserved":false,"is_disabled":false,"rental_uris":{"android":"levelo://app?vid=9b277a9c-a609-42dd-be93-651fd6e72686","ios":"levelo://app?vid=9b277a9c-a609-42dd-be93-651fd6e72686"},"vehicle_type_id":"4","last_reported":1727511066,"current_range_meters":33600,"station_id":"ce4bh0h2rcd13ifvqd60","pricing_plan_id":"cebpf4jnsgd1na2vs0mg"},{"bike_id":"53d3d543-4809-4f9c-a6c1-ced8bbb46e3b","system_id":"levelo_inurba_marseille","lat":43.24386,"lon":5.3705,"is_reserved":false,"is_disabled":false,"rental_uris":{"android":"levelo://app?vid=53d3d543-4809-4f9c-a6c1-ced8bbb46e3b","ios":"levelo://app?vid=53d3d543-4809-4f9c-a6c1-ced8bbb46e3b"},"vehicle_type_id":"4","last_reported":1727511066,"current_range_meters":39200,"station_id":"ce4bhhh2rcd13ifvqfk0","pricing_plan_id":"cebpf4jnsgd1na2vs0mg"},{"bike_id":"a00340c3-2a87-4b48-a268-ec041e1a44ab","system_id":"levelo_inurba_marseille","lat":43.337444,"lon":5.374475,"is_reserved":false,"is_disabled":false,"rental_uris":{"android":"levelo://app?vid=a00340c3-2a87-4b48-a268-ec041e1a44ab","ios":"levelo://app?vid=a00340c3-2a87-4b48-a268-ec041e1a44ab"},"vehicle_type_id":"4","last_reported":1727511066,"current_range_meters":12800,"station_id":"","pricing_plan_id":"cebpf4jnsgd1na2vs0mg"},{"bike_id":"85bea604-ee1a-4e44-ab64-edd92269dade","system_id":"levelo_inurba_marseille","lat":43.30154,"lon":5.38083,"is_reserved":false,"is_disabled":false,"rental_uris":{"android":"levelo://app?vid=85bea604-ee1a-4e44-ab64-edd92269dade","ios":"levelo://app?vid=85bea604-ee1a-4e44-ab64-edd92269dade"},"vehicle_type_id":"4","last_reported":1727511066,"current_range_meters":27600,"station_id":"ce4bgjp2rcd13ifvqbh0","pricing_plan_id":"cebpf4jnsgd1na2vs0mg"},{"bike_id":"d068d157-381d-413c-84d5-85045142d6df","system_id":"levelo_inurba_marseille","lat":43.24397,"lon":5.37064,"is_reserved":false,"is_disabled":false,"rental_uris":{"android":"levelo://app?vid=d068d157-381d-413c-84d5-85045142d6df","ios":"levelo://app?vid=d068d157-381d-413c-84d5-85045142d6df"},"vehicle_type_id":"4","last_reported":1727511066,"current_range_meters":39200,"station_id":"ce4bhhh2rcd13ifvqfk0","pricing_plan_id":"cebpf4jnsgd1na2vs0mg"},{"bike_id":"f39b9220-86b8-417e-a144-7fb75a209616","system_id":"levelo_inurba_marseille","lat":43.27373,"lon":5.36252,"is_reserved":false,"is_disabled":false,"rental_uris":{"android":"levelo://app?vid=f39b9220-86b8-417e-a144-7fb75a209616","ios":"levelo://app?vid=f39b9220-86b8-417e-a144-7fb75a209616"},"vehicle_type_id":"4","last_reported":1727511066,"current_range_meters":38800,"station_id":"ce4bhbh2rcd13ifvqeo0","pricing_plan_id":"cebpf4jnsgd1na2vs0mg"},{"bike_id":"88c252b6-34e7-4889-9529-1e33eadcc1d0","system_id":"levelo_inurba_marseille","lat":43.27207,"lon":5.39178,"is_reserved":false,"is_disabled":false,"rental_uris":{"android":"levelo://app?vid=88c252b6-34e7-4889-9529-1e33eadcc1d0","ios":"levelo://app?vid=88c252b6-34e7-4889-9529-1e33eadcc1d0"},"vehicle_type_id":"4","last_reported":1727511066,"current_range_meters":36400,"station_id":"ce4bhhp2rcd13ifvqfm0","pricing_plan_id":"cebpf4jnsgd1na2vs0mg"},{"bike_id":"c57a2ddb-485c-41e1-b706-a97926a72245","system_id":"levelo_inurba_marseille","lat":43.30787,"lon":5.37651,"is_reserved":false,"is_disabled":false,"rental_uris":{"android":"levelo://app?vid=c57a2ddb-485c-41e1-b706-a97926a72245","ios":"levelo://app?vid=c57a2ddb-485c-41e1-b706-a97926a72245"},"vehicle_type_id":"4","last_reported":1727511066,"current_range_meters":19200,"station_id":"ce4bgv92rcd13ifvqcq0","pricing_plan_id":"cebpf4jnsgd1na2vs0mg"},{"bike_id":"8fe46ecc-1e67-4f19-8b8d-10a6acd8bd0b","system_id":"levelo_inurba_marseille","lat":43.26006,"lon":5.38677,"is_reserved":false,"is_disabled":false,"rental_uris":{"android":"levelo://app?vid=8fe46ecc-1e67-4f19-8b8d-10a6acd8bd0b","ios":"levelo://app?vid=8fe46ecc-1e67-4f19-8b8d-10a6acd8bd0b"},"vehicle_type_id":"4","last_reported":1727511066,"current_range_meters":9200,"station_id":"","pricing_plan_id":"cebpf4jnsgd1na2vs0mg"},{"bike_id":"b6f3e3a5-463f-4e04-84ad-db38dc53ca10","system_id":"levelo_inurba_marseille","lat":43.26691,"lon":5.38282,"is_reserved":false,"is_disabled":false,"rental_uris":{"android":"levelo://app?vid=b6f3e3a5-463f-4e04-84ad-db38dc53ca10","ios":"levelo://app?vid=b6f3e3a5-463f-4e04-84ad-db38dc53ca10"},"vehicle_type_id":"4","last_reported":1727511066,"current_range_meters":39200,"station_id":"ce4bhg92rcd13ifvqf90","pricing_plan_id":"cebpf4jnsgd1na2vs0mg"},{"bike_id":"d5265bda-67b4-48e9-9336-88e78a5ccea2","system_id":"levelo_inurba_marseille","lat":43.30538,"lon":5.36545,"is_reserved":false,"is_disabled":false,"rental_uris":{"android":"levelo://app?vid=d5265bda-67b4-48e9-9336-88e78a5ccea2","ios":"levelo://app?vid=d5265bda-67b4-48e9-9336-88e78a5ccea2"},"vehicle_type_id":"4","last_reported":1727511066,"current_range_meters":38000,"station_id":"ce4bgs12rcd13ifvqcag","pricing_plan_id":"cebpf4jnsgd1na2vs0mg"},{"bike_id":"afe5fcf5-fe1a-4d30-bfcd-4452c0d39cee","system_id":"levelo_inurba_marseille","lat":43.30149,"lon":5.38082,"is_reserved":false,"is_disabled":false,"rental_uris":{"android":"levelo://app?vid=afe5fcf5-fe1a-4d30-bfcd-4452c0d39cee","ios":"levelo://app?vid=afe5fcf5-fe1a-4d30-bfcd-4452c0d39cee"},"vehicle_type_id":"4","last_reported":1727511066,"current_range_meters":34800,"station_id":"ce4bgjp2rcd13ifvqbh0","pricing_plan_id":"cebpf4jnsgd1na2vs0mg"},{"bike_id":"991adec8-5c61-4b01-bbd2-48290cb7f4ab","system_id":"levelo_inurba_marseille","lat":43.29628,"lon":5.37154,"is_reserved":false,"is_disabled":false,"rental_uris":{"android":"levelo://app?vid=991adec8-5c61-4b01-bbd2-48290cb7f4ab","ios":"levelo://app?vid=991adec8-5c61-4b01-bbd2-48290cb7f4ab"},"vehicle_type_id":"4","last_reported":1727511066,"current_range_meters":38800,"station_id":"ce4bgnh2rcd13ifvqc0g","pricing_plan_id":"cebpf4jnsgd1na2vs0mg"},{"bike_id":"190b0699-b930-42f7-b3b0-6b2ee1a3350d","system_id":"levelo_inurba_marseille","lat":43.29906,"lon":5.38154,"is_reserved":false,"is_disabled":false,"rental_uris":{"android":"levelo://app?vid=190b0699-b930-42f7-b3b0-6b2ee1a3350d","ios":"levelo://app?vid=190b0699-b930-42f7-b3b0-6b2ee1a3350d"},"vehicle_type_id":"4","last_reported":1727511066,"current_range_meters":38800,"station_id":"ce4bgj12rcd13ifvqbc0","pricing_plan_id":"cebpf4jnsgd1na2vs0mg"},{"bike_id":"93b592c1-3637-4418-88f1-149375efabc7","system_id":"levelo_inurba_marseille","lat":43.30787,"lon":5.37653,"is_reserved":false,"is_disabled":false,"rental_uris":{"android":"levelo://app?vid=93b592c1-3637-4418-88f1-149375efabc7","ios":"levelo://app?vid=93b592c1-3637-4418-88f1-149375efabc7"},"vehicle_type_id":"4","last_reported":1727511066,"current_range_meters":34800,"station_id":"ce4bgv92rcd13ifvqcq0","pricing_plan_id":"cebpf4jnsgd1na2vs0mg"},{"bike_id":"6d2e0c7d-9a37-4e2b-8600-8680c8c9fb26","system_id":"levelo_inurba_marseille","lat":43.323364,"lon":5.406224,"is_reserved":false,"is_disabled":false,"rental_uris":{"android":"levelo://app?vid=6d2e0c7d-9a37-4e2b-8600-8680c8c9fb26","ios":"levelo://app?vid=6d2e0c7d-9a37-4e2b-8600-8680c8c9fb26"},"vehicle_type_id":"4","last_reported":1727511066,"current_range_meters":36400,"station_id":"ce4bhq92rcd13ifvqhjg","pricing_plan_id":"cebpf4jnsgd1na2vs0mg"},{"bike_id":"34210d1e-5120-452f-8bf4-0caac563929f","system_id":"levelo_inurba_marseille","lat":43.23186,"lon":5.39992,"is_reserved":false,"is_disabled":false,"rental_uris":{"android":"levelo://app?vid=34210d1e-5120-452f-8bf4-0caac563929f","ios":"levelo://app?vid=34210d1e-5120-452f-8bf4-0caac563929f"},"vehicle_type_id":"4","last_reported":1727511066,"current_range_meters":22400,"station_id":"ce4bhn12rcd13ifvqgqg","pricing_plan_id":"cebpf4jnsgd1na2vs0mg"},{"bike_id":"afd22b8f-da9e-49bd-b9c5-edbc00a92e9f","system_id":"levelo_inurba_marseille","lat":43.32659,"lon":5.41003,"is_reserved":false,"is_disabled":false,"rental_uris":{"android":"levelo://app?vid=afd22b8f-da9e-49bd-b9c5-edbc00a92e9f","ios":"levelo://app?vid=afd22b8f-da9e-49bd-b9c5-edbc00a92e9f"},"vehicle_type_id":"4","last_reported":1727511066,"current_range_meters":37600,"station_id":"ce4bhpp2rcd13ifvqhgg","pricing_plan_id":"cebpf4jnsgd1na2vs0mg"},{"bike_id":"869403bb-4fcc-4f66-8ec3-05c3e0e700b7","system_id":"levelo_inurba_marseille","lat":43.27426,"lon":5.39415,"is_reserved":false,"is_disabled":false,"rental_uris":{"android":"levelo://app?vid=869403bb-4fcc-4f66-8ec3-05c3e0e700b7","ios":"levelo://app?vid=869403bb-4fcc-4f66-8ec3-05c3e0e700b7"},"vehicle_type_id":"4","last_reported":1727511066,"current_range_meters":38000,"station_id":"ce4bhdp2rcd13ifvqf20","pricing_plan_id":"cebpf4jnsgd1na2vs0mg"},{"bike_id":"c7662f29-d977-460a-81ef-ae899ee53108","system_id":"levelo_inurba_marseille","lat":43.24548,"lon":5.39532,"is_reserved":false,"is_disabled":false,"rental_uris":{"android":"levelo://app?vid=c7662f29-d977-460a-81ef-ae899ee53108","ios":"levelo://app?vid=c7662f29-d977-460a-81ef-ae899ee53108"},"vehicle_type_id":"4","last_reported":1727511066,"current_range_meters":15200,"station_id":"ce4bhlp2rcd13ifvqgjg","pricing_plan_id":"cebpf4jnsgd1na2vs0mg"},{"bike_id":"2cbc9e6c-88f8-4917-a839-56ca300cece2","system_id":"levelo_inurba_marseille","lat":43.28612,"lon":5.37063,"is_reserved":false,"is_disabled":false,"rental_uris":{"android":"levelo://app?vid=2cbc9e6c-88f8-4917-a839-56ca300cece2","ios":"levelo://app?vid=2cbc9e6c-88f8-4917-a839-56ca300cece2"},"vehicle_type_id":"4","last_reported":1727511066,"current_range_meters":22400,"station_id":"ce4bht12rcd13ifvqi60","pricing_plan_id":"cebpf4jnsgd1na2vs0mg"},{"bike_id":"69ff64b2-90b6-40c6-96cc-57e6441f6bb9","system_id":"levelo_inurba_marseille","lat":43.29034,"lon":5.39967,"is_reserved":false,"is_disabled":false,"rental_uris":{"android":"levelo://app?vid=69ff64b2-90b6-40c6-96cc-57e6441f6bb9","ios":"levelo://app?vid=69ff64b2-90b6-40c6-96cc-57e6441f6bb9"},"vehicle_type_id":"4","last_reported":1727511066,"current_range_meters":38800,"station_id":"ce4bh392rcd13ifvqdm0","pricing_plan_id":"cebpf4jnsgd1na2vs0mg"},{"bike_id":"29fffc0f-5ee1-49fd-b093-b8286cc6dbdb","system_id":"levelo_inurba_marseille","lat":43.27814,"lon":5.40699,"is_reserved":false,"is_disabled":false,"rental_uris":{"android":"levelo://app?vid=29fffc0f-5ee1-49fd-b093-b8286cc6dbdb","ios":"levelo://app?vid=29fffc0f-5ee1-49fd-b093-b8286cc6dbdb"},"vehicle_type_id":"4","last_reported":1727511066,"current_range_meters":16000,"station_id":"ce4bhnh2rcd13ifvqgtg","pricing_plan_id":"cebpf4jnsgd1na2vs0mg"},{"bike_id":"cf2a99f0-171d-46e2-b5f9-b8e518581e33","system_id":"levelo_inurba_marseille","lat":43.23959,"lon":5.36633,"is_reserved":false,"is_disabled":false,"rental_uris":{"android":"levelo://app?vid=cf2a99f0-171d-46e2-b5f9-b8e518581e33","ios":"levelo://app?vid=cf2a99f0-171d-46e2-b5f9-b8e518581e33"},"vehicle_type_id":"4","last_reported":1727511066,"current_range_meters":38000,"station_id":"ce4bhi12rcd13ifvqfp0","pricing_plan_id":"cebpf4jnsgd1na2vs0mg"},{"bike_id":"65c8a0f3-336f-4dd0-b350-9a977bec0976","system_id":"levelo_inurba_marseille","lat":43.27953,"lon":5.4104,"is_reserved":false,"is_disabled":false,"rental_uris":{"android":"levelo://app?vid=65c8a0f3-336f-4dd0-b350-9a977bec0976","ios":"levelo://app?vid=65c8a0f3-336f-4dd0-b350-9a977bec0976"},"vehicle_type_id":"4","last_reported":1727511066,"current_range_meters":26800,"station_id":"ce4bhnp2rcd13ifvqh0g","pricing_plan_id":"cebpf4jnsgd1na2vs0mg"},{"bike_id":"1edebd99-2434-4fd0-a11f-d585198858c2","system_id":"levelo_inurba_marseille","lat":43.28963,"lon":5.48147,"is_reserved":false,"is_disabled":false,"rental_uris":{"android":"levelo://app?vid=1edebd99-2434-4fd0-a11f-d585198858c2","ios":"levelo://app?vid=1edebd99-2434-4fd0-a11f-d585198858c2"},"vehicle_type_id":"4","last_reported":1727511066,"current_range_meters":28800,"station_id":"","pricing_plan_id":"cebpf4jnsgd1na2vs0mg"},{"bike_id":"6e1cbdfe-c76c-47f6-a366-8fa7be96fcdc","system_id":"levelo_inurba_marseille","lat":43.26687,"lon":5.38271,"is_reserved":false,"is_disabled":false,"rental_uris":{"android":"levelo://app?vid=6e1cbdfe-c76c-47f6-a366-8fa7be96fcdc","ios":"levelo://app?vid=6e1cbdfe-c76c-47f6-a366-8fa7be96fcdc"},"vehicle_type_id":"4","last_reported":1727511066,"current_range_meters":38000,"station_id":"ce4bhg92rcd13ifvqf90","pricing_plan_id":"cebpf4jnsgd1na2vs0mg"},{"bike_id":"05a65473-4528-4866-bef5-6a81102143b3","system_id":"levelo_inurba_marseille","lat":43.27916,"lon":5.39581,"is_reserved":false,"is_disabled":false,"rental_uris":{"android":"levelo://app?vid=05a65473-4528-4866-bef5-6a81102143b3","ios":"levelo://app?vid=05a65473-4528-4866-bef5-6a81102143b3"},"vehicle_type_id":"4","last_reported":1727511066,"current_range_meters":37600,"station_id":"ce4bhf92rcd13ifvqf40","pricing_plan_id":"cebpf4jnsgd1na2vs0mg"},{"bike_id":"ab52395e-ba5e-4853-8871-805a1b180bda","system_id":"levelo_inurba_marseille","lat":43.2917,"lon":5.37165,"is_reserved":false,"is_disabled":false,"rental_uris":{"android":"levelo://app?vid=ab52395e-ba5e-4853-8871-805a1b180bda","ios":"levelo://app?vid=ab52395e-ba5e-4853-8871-805a1b180bda"},"vehicle_type_id":"4","last_reported":1727511066,"current_range_meters":37600,"station_id":"ce4bha92rcd13ifvqeh0","pricing_plan_id":"cebpf4jnsgd1na2vs0mg"},{"bike_id":"e173e9bf-3b91-451c-8346-16cb54836af9","system_id":"levelo_inurba_marseille","lat":43.24389,"lon":5.37055,"is_reserved":false,"is_disabled":false,"rental_uris":{"android":"levelo://app?vid=e173e9bf-3b91-451c-8346-16cb54836af9","ios":"levelo://app?vid=e173e9bf-3b91-451c-8346-16cb54836af9"},"vehicle_type_id":"4","last_reported":1727511066,"current_range_meters":38800,"station_id":"ce4bhhh2rcd13ifvqfk0","pricing_plan_id":"cebpf4jnsgd1na2vs0mg"},{"bike_id":"7db2ebac-ef38-4479-ab04-6dcff883ed81","system_id":"levelo_inurba_marseille","lat":43.28943,"lon":5.39626,"is_reserved":false,"is_disabled":false,"rental_uris":{"android":"levelo://app?vid=7db2ebac-ef38-4479-ab04-6dcff883ed81","ios":"levelo://app?vid=7db2ebac-ef38-4479-ab04-6dcff883ed81"},"vehicle_type_id":"4","last_reported":1727511066,"current_range_meters":30000,"station_id":"ce4bh3h2rcd13ifvqdn0","pricing_plan_id":"cebpf4jnsgd1na2vs0mg"},{"bike_id":"73030064-3072-4295-9cfa-bc953e005e24","system_id":"levelo_inurba_marseille","lat":43.26686,"lon":5.38264,"is_reserved":false,"is_disabled":false,"rental_uris":{"android":"levelo://app?vid=73030064-3072-4295-9cfa-bc953e005e24","ios":"levelo://app?vid=73030064-3072-4295-9cfa-bc953e005e24"},"vehicle_type_id":"4","last_reported":1727511066,"current_range_meters":7200,"station_id":"ce4bhg92rcd13ifvqf90","pricing_plan_id":"cebpf4jnsgd1na2vs0mg"},{"bike_id":"0b55a54a-cb93-429c-895c-43a1c40cd808","system_id":"levelo_inurba_marseille","lat":43.29277,"lon":5.36831,"is_reserved":false,"is_disabled":false,"rental_uris":{"android":"levelo://app?vid=0b55a54a-cb93-429c-895c-43a1c40cd808","ios":"levelo://app?vid=0b55a54a-cb93-429c-895c-43a1c40cd808"},"vehicle_type_id":"4","last_reported":1727511066,"current_range_meters":38800,"station_id":"ce4bhbp2rcd13ifvqesg","pricing_plan_id":"cebpf4jnsgd1na2vs0mg"},{"bike_id":"718ac6f5-0ffc-486e-9856-510eed2e9cc2","system_id":"levelo_inurba_marseille","lat":43.289825,"lon":5.378518,"is_reserved":false,"is_disabled":false,"rental_uris":{"android":"levelo://app?vid=718ac6f5-0ffc-486e-9856-510eed2e9cc2","ios":"levelo://app?vid=718ac6f5-0ffc-486e-9856-510eed2e9cc2"},"vehicle_type_id":"4","last_reported":1727511066,"current_range_meters":38000,"station_id":"","pricing_plan_id":"cebpf4jnsgd1na2vs0mg"},{"bike_id":"79de36c3-12d2-494a-8694-9013beb8b3e5","system_id":"levelo_inurba_marseille","lat":43.23188,"lon":5.3998,"is_reserved":false,"is_disabled":false,"rental_uris":{"android":"levelo://app?vid=79de36c3-12d2-494a-8694-9013beb8b3e5","ios":"levelo://app?vid=79de36c3-12d2-494a-8694-9013beb8b3e5"},"vehicle_type_id":"4","last_reported":1727511066,"current_range_meters":17600,"station_id":"ce4bhn12rcd13ifvqgqg","pricing_plan_id":"cebpf4jnsgd1na2vs0mg"},{"bike_id":"44362492-3031-4342-a94d-f15999585b78","system_id":"levelo_inurba_marseille","lat":43.29437,"lon":5.39767,"is_reserved":false,"is_disabled":false,"rental_uris":{"android":"levelo://app?vid=44362492-3031-4342-a94d-f15999585b78","ios":"levelo://app?vid=44362492-3031-4342-a94d-f15999585b78"},"vehicle_type_id":"4","last_reported":1727511066,"current_range_meters":28000,"station_id":"ce4bh3h2rcd13ifvqdo0","pricing_plan_id":"cebpf4jnsgd1na2vs0mg"},{"bike_id":"5f7c65f4-e71e-4e15-b205-025c2e0a2968","system_id":"levelo_inurba_marseille","lat":43.231843,"lon":5.399796,"is_reserved":false,"is_disabled":false,"rental_uris":{"android":"levelo://app?vid=5f7c65f4-e71e-4e15-b205-025c2e0a2968","ios":"levelo://app?vid=5f7c65f4-e71e-4e15-b205-025c2e0a2968"},"vehicle_type_id":"4","last_reported":1727511066,"current_range_meters":36400,"station_id":"ce4bhn12rcd13ifvqgqg","pricing_plan_id":"cebpf4jnsgd1na2vs0mg"},{"bike_id":"f39498a8-f029-4bf5-9eac-689a552be6d3","system_id":"levelo_inurba_marseille","lat":43.2926,"lon":5.40917,"is_reserved":false,"is_disabled":false,"rental_uris":{"android":"levelo://app?vid=f39498a8-f029-4bf5-9eac-689a552be6d3","ios":"levelo://app?vid=f39498a8-f029-4bf5-9eac-689a552be6d3"},"vehicle_type_id":"4","last_reported":1727511066,"current_range_meters":3200,"station_id":"ce4bh192rcd13ifvqdc0","pricing_plan_id":"cebpf4jnsgd1na2vs0mg"},{"bike_id":"e79808f3-7dc6-4dc9-9a42-6d9400cc6ef1","system_id":"levelo_inurba_marseille","lat":43.28275,"lon":5.35072,"is_reserved":false,"is_disabled":false,"rental_uris":{"android":"levelo://app?vid=e79808f3-7dc6-4dc9-9a42-6d9400cc6ef1","ios":"levelo://app?vid=e79808f3-7dc6-4dc9-9a42-6d9400cc6ef1"},"vehicle_type_id":"4","last_reported":1727511066,"current_range_meters":40000,"station_id":"ce4bhbp2rcd13ifvqerg","pricing_plan_id":"cebpf4jnsgd1na2vs0mg"},{"bike_id":"3553d125-bbcc-49a7-9de7-4e852c3b7709","system_id":"levelo_inurba_marseille","lat":43.29625,"lon":5.37729,"is_reserved":false,"is_disabled":false,"rental_uris":{"android":"levelo://app?vid=3553d125-bbcc-49a7-9de7-4e852c3b7709","ios":"levelo://app?vid=3553d125-bbcc-49a7-9de7-4e852c3b7709"},"vehicle_type_id":"4","last_reported":1727511066,"current_range_meters":34000,"station_id":"ce4bgi92rcd13ifvqb90","pricing_plan_id":"cebpf4jnsgd1na2vs0mg"},{"bike_id":"8bfa74d4-6034-476a-ae50-61f9c2cde2cb","system_id":"levelo_inurba_marseille","lat":43.26192,"lon":5.37447,"is_reserved":false,"is_disabled":false,"rental_uris":{"android":"levelo://app?vid=8bfa74d4-6034-476a-ae50-61f9c2cde2cb","ios":"levelo://app?vid=8bfa74d4-6034-476a-ae50-61f9c2cde2cb"},"vehicle_type_id":"4","last_reported":1727511066,"current_range_meters":32800,"station_id":"ce4bhgp2rcd13ifvqfc0","pricing_plan_id":"cebpf4jnsgd1na2vs0mg"},{"bike_id":"027ec904-758b-4151-8256-dde109f50a82","system_id":"levelo_inurba_marseille","lat":43.3176,"lon":5.3902,"is_reserved":false,"is_disabled":false,"rental_uris":{"android":"levelo://app?vid=027ec904-758b-4151-8256-dde109f50a82","ios":"levelo://app?vid=027ec904-758b-4151-8256-dde109f50a82"},"vehicle_type_id":"4","last_reported":1727511066,"current_range_meters":38800,"station_id":"ce4bhqp2rcd13ifvqhng","pricing_plan_id":"cebpf4jnsgd1na2vs0mg"},{"bike_id":"03373044-cab4-4cec-84ce-7d2eca2df3c1","system_id":"levelo_inurba_marseille","lat":43.31534,"lon":5.38042,"is_reserved":false,"is_disabled":false,"rental_uris":{"android":"levelo://app?vid=03373044-cab4-4cec-84ce-7d2eca2df3c1","ios":"levelo://app?vid=03373044-cab4-4cec-84ce-7d2eca2df3c1"},"vehicle_type_id":"4","last_reported":1727511066,"current_range_meters":20000,"station_id":"ce4bhsp2rcd13ifvqi50","pricing_plan_id":"cebpf4jnsgd1na2vs0mg"},{"bike_id":"8bc2963e-f24d-4af4-8d3d-ee0a94762b5c","system_id":"levelo_inurba_marseille","lat":43.25005,"lon":5.38932,"is_reserved":false,"is_disabled":false,"rental_uris":{"android":"levelo://app?vid=8bc2963e-f24d-4af4-8d3d-ee0a94762b5c","ios":"levelo://app?vid=8bc2963e-f24d-4af4-8d3d-ee0a94762b5c"},"vehicle_type_id":"4","last_reported":1727511066,"current_range_meters":20400,"station_id":"ce4bhgp2rcd13ifvqfd0","pricing_plan_id":"cebpf4jnsgd1na2vs0mg"},{"bike_id":"de8323f9-d012-4d9c-b01c-767c8be9d592","system_id":"levelo_inurba_marseille","lat":43.26553,"lon":5.37303,"is_reserved":false,"is_disabled":false,"rental_uris":{"android":"levelo://app?vid=de8323f9-d012-4d9c-b01c-767c8be9d592","ios":"levelo://app?vid=de8323f9-d012-4d9c-b01c-767c8be9d592"},"vehicle_type_id":"4","last_reported":1727511066,"current_range_meters":39200,"station_id":"ce4bhg12rcd13ifvqf70","pricing_plan_id":"cebpf4jnsgd1na2vs0mg"},{"bike_id":"eb10e224-cb08-4e8d-acee-722e2d2ab298","system_id":"levelo_inurba_marseille","lat":43.2594,"lon":5.409,"is_reserved":false,"is_disabled":false,"rental_uris":{"android":"levelo://app?vid=eb10e224-cb08-4e8d-acee-722e2d2ab298","ios":"levelo://app?vid=eb10e224-cb08-4e8d-acee-722e2d2ab298"},"vehicle_type_id":"4","last_reported":1727511066,"current_range_meters":26000,"station_id":"ce4bhm92rcd13ifvqglg","pricing_plan_id":"cebpf4jnsgd1na2vs0mg"},{"bike_id":"cd86a739-0d42-4110-a940-203a12da5e28","system_id":"levelo_inurba_marseille","lat":43.29048,"lon":5.39968,"is_reserved":false,"is_disabled":false,"rental_uris":{"android":"levelo://app?vid=cd86a739-0d42-4110-a940-203a12da5e28","ios":"levelo://app?vid=cd86a739-0d42-4110-a940-203a12da5e28"},"vehicle_type_id":"4","last_reported":1727511066,"current_range_meters":22400,"station_id":"ce4bh392rcd13ifvqdm0","pricing_plan_id":"cebpf4jnsgd1na2vs0mg"},{"bike_id":"31e01a85-cf49-4ca6-a24f-435e8ae339fe","system_id":"levelo_inurba_marseille","lat":43.295746,"lon":5.375605,"is_reserved":false,"is_disabled":false,"rental_uris":{"android":"levelo://app?vid=31e01a85-cf49-4ca6-a24f-435e8ae339fe","ios":"levelo://app?vid=31e01a85-cf49-4ca6-a24f-435e8ae339fe"},"vehicle_type_id":"4","last_reported":1727511066,"current_range_meters":30000,"station_id":"ce4bgh92rcd13ifvqb50","pricing_plan_id":"cebpf4jnsgd1na2vs0mg"},{"bike_id":"bdc5b691-ffc7-4073-a2da-fd841a386d5b","system_id":"levelo_inurba_marseille","lat":43.29284,"lon":5.36845,"is_reserved":false,"is_disabled":false,"rental_uris":{"android":"levelo://app?vid=bdc5b691-ffc7-4073-a2da-fd841a386d5b","ios":"levelo://app?vid=bdc5b691-ffc7-4073-a2da-fd841a386d5b"},"vehicle_type_id":"4","last_reported":1727511066,"current_range_meters":38800,"station_id":"ce4bhbp2rcd13ifvqesg","pricing_plan_id":"cebpf4jnsgd1na2vs0mg"},{"bike_id":"bf15cf37-3a4c-4635-b28c-358f55c15bae","system_id":"levelo_inurba_marseille","lat":43.33739,"lon":5.37468,"is_reserved":false,"is_disabled":false,"rental_uris":{"android":"levelo://app?vid=bf15cf37-3a4c-4635-b28c-358f55c15bae","ios":"levelo://app?vid=bf15cf37-3a4c-4635-b28c-358f55c15bae"},"vehicle_type_id":"4","last_reported":1727511066,"current_range_meters":25600,"station_id":"","pricing_plan_id":"cebpf4jnsgd1na2vs0mg"},{"bike_id":"9cd0bb23-3780-431d-97ff-9afd8a4bc25e","system_id":"levelo_inurba_marseille","lat":43.30481,"lon":5.37903,"is_reserved":false,"is_disabled":false,"rental_uris":{"android":"levelo://app?vid=9cd0bb23-3780-431d-97ff-9afd8a4bc25e","ios":"levelo://app?vid=9cd0bb23-3780-431d-97ff-9afd8a4bc25e"},"vehicle_type_id":"4","last_reported":1727511066,"current_range_meters":35600,"station_id":"ce4bgup2rcd13ifvqcn0","pricing_plan_id":"cebpf4jnsgd1na2vs0mg"},{"bike_id":"20202039-bf6e-49f7-abf4-48e3a3787af5","system_id":"levelo_inurba_marseille","lat":43.27945,"lon":5.41045,"is_reserved":false,"is_disabled":false,"rental_uris":{"android":"levelo://app?vid=20202039-bf6e-49f7-abf4-48e3a3787af5","ios":"levelo://app?vid=20202039-bf6e-49f7-abf4-48e3a3787af5"},"vehicle_type_id":"4","last_reported":1727511066,"current_range_meters":36800,"station_id":"ce4bhnp2rcd13ifvqh0g","pricing_plan_id":"cebpf4jnsgd1na2vs0mg"},{"bike_id":"cd2327c7-af60-4af9-9eff-465722c02c8b","system_id":"levelo_inurba_marseille","lat":43.33619,"lon":5.4103,"is_reserved":false,"is_disabled":false,"rental_uris":{"android":"levelo://app?vid=cd2327c7-af60-4af9-9eff-465722c02c8b","ios":"levelo://app?vid=cd2327c7-af60-4af9-9eff-465722c02c8b"},"vehicle_type_id":"4","last_reported":1727511066,"current_range_meters":9200,"station_id":"ce4bhqh2rcd13ifvqhmg","pricing_plan_id":"cebpf4jnsgd1na2vs0mg"},{"bike_id":"6aa95821-8b44-42f3-9d07-8b4a4001e2b1","system_id":"levelo_inurba_marseille","lat":43.2396,"lon":5.36636,"is_reserved":false,"is_disabled":false,"rental_uris":{"android":"levelo://app?vid=6aa95821-8b44-42f3-9d07-8b4a4001e2b1","ios":"levelo://app?vid=6aa95821-8b44-42f3-9d07-8b4a4001e2b1"},"vehicle_type_id":"4","last_reported":1727511066,"current_range_meters":35200,"station_id":"ce4bhi12rcd13ifvqfp0","pricing_plan_id":"cebpf4jnsgd1na2vs0mg"},{"bike_id":"51870931-c5a1-4480-846a-13af532df7a7","system_id":"levelo_inurba_marseille","lat":43.31758,"lon":5.39016,"is_reserved":false,"is_disabled":false,"rental_uris":{"android":"levelo://app?vid=51870931-c5a1-4480-846a-13af532df7a7","ios":"levelo://app?vid=51870931-c5a1-4480-846a-13af532df7a7"},"vehicle_type_id":"4","last_reported":1727511066,"current_range_meters":29600,"station_id":"ce4bhqp2rcd13ifvqhng","pricing_plan_id":"cebpf4jnsgd1na2vs0mg"},{"bike_id":"a63d4449-4f5a-4f1c-9a3c-27c8d74bd2a3","system_id":"levelo_inurba_marseille","lat":43.2439,"lon":5.37066,"is_reserved":false,"is_disabled":false,"rental_uris":{"android":"levelo://app?vid=a63d4449-4f5a-4f1c-9a3c-27c8d74bd2a3","ios":"levelo://app?vid=a63d4449-4f5a-4f1c-9a3c-27c8d74bd2a3"},"vehicle_type_id":"4","last_reported":1727511066,"current_range_meters":16800,"station_id":"ce4bhhh2rcd13ifvqfk0","pricing_plan_id":"cebpf4jnsgd1na2vs0mg"},{"bike_id":"ba48c801-c375-420c-8b20-98aee963414c","system_id":"levelo_inurba_marseille","lat":43.32484,"lon":5.36573,"is_reserved":false,"is_disabled":false,"rental_uris":{"android":"levelo://app?vid=ba48c801-c375-420c-8b20-98aee963414c","ios":"levelo://app?vid=ba48c801-c375-420c-8b20-98aee963414c"},"vehicle_type_id":"4","last_reported":1727511066,"current_range_meters":4400,"station_id":"ce4bhs12rcd13ifvqhvg","pricing_plan_id":"cebpf4jnsgd1na2vs0mg"},{"bike_id":"ec09e5c0-cfae-4c34-b309-fbe8307db493","system_id":"levelo_inurba_marseille","lat":43.30809,"lon":5.43534,"is_reserved":false,"is_disabled":false,"rental_uris":{"android":"levelo://app?vid=ec09e5c0-cfae-4c34-b309-fbe8307db493","ios":"levelo://app?vid=ec09e5c0-cfae-4c34-b309-fbe8307db493"},"vehicle_type_id":"4","last_reported":1727511066,"current_range_meters":38800,"station_id":"ce4bhph2rcd13ifvqheg","pricing_plan_id":"cebpf4jnsgd1na2vs0mg"},{"bike_id":"e71cdc24-19ea-42a1-911b-52d9ae9245e1","system_id":"levelo_inurba_marseille","lat":43.25496,"lon":5.3765,"is_reserved":false,"is_disabled":false,"rental_uris":{"android":"levelo://app?vid=e71cdc24-19ea-42a1-911b-52d9ae9245e1","ios":"levelo://app?vid=e71cdc24-19ea-42a1-911b-52d9ae9245e1"},"vehicle_type_id":"4","last_reported":1727511066,"current_range_meters":24000,"station_id":"ce4bhh12rcd13ifvqff0","pricing_plan_id":"cebpf4jnsgd1na2vs0mg"},{"bike_id":"809245d8-c125-4e34-bd4d-23eefcbba16e","system_id":"levelo_inurba_marseille","lat":43.30891,"lon":5.39641,"is_reserved":false,"is_disabled":false,"rental_uris":{"android":"levelo://app?vid=809245d8-c125-4e34-bd4d-23eefcbba16e","ios":"levelo://app?vid=809245d8-c125-4e34-bd4d-23eefcbba16e"},"vehicle_type_id":"4","last_reported":1727511066,"current_range_meters":36000,"station_id":"ce4bh012rcd13ifvqcv0","pricing_plan_id":"cebpf4jnsgd1na2vs0mg"},{"bike_id":"cb2cf2de-26fa-4449-ada0-056eedbe3b11","system_id":"levelo_inurba_marseille","lat":43.29026,"lon":5.39975,"is_reserved":false,"is_disabled":false,"rental_uris":{"android":"levelo://app?vid=cb2cf2de-26fa-4449-ada0-056eedbe3b11","ios":"levelo://app?vid=cb2cf2de-26fa-4449-ada0-056eedbe3b11"},"vehicle_type_id":"4","last_reported":1727511066,"current_range_meters":37600,"station_id":"ce4bh392rcd13ifvqdm0","pricing_plan_id":"cebpf4jnsgd1na2vs0mg"},{"bike_id":"cff8d981-82e5-4fe5-8732-59ac9c29f5d1","system_id":"levelo_inurba_marseille","lat":43.30786,"lon":5.37652,"is_reserved":false,"is_disabled":false,"rental_uris":{"android":"levelo://app?vid=cff8d981-82e5-4fe5-8732-59ac9c29f5d1","ios":"levelo://app?vid=cff8d981-82e5-4fe5-8732-59ac9c29f5d1"},"vehicle_type_id":"4","last_reported":1727511066,"current_range_meters":36400,"station_id":"ce4bgv92rcd13ifvqcq0","pricing_plan_id":"cebpf4jnsgd1na2vs0mg"},{"bike_id":"e8881021-06cd-42da-8a98-2ef3e9aefc43","system_id":"levelo_inurba_marseille","lat":43.2749,"lon":5.42459,"is_reserved":false,"is_disabled":false,"rental_uris":{"android":"levelo://app?vid=e8881021-06cd-42da-8a98-2ef3e9aefc43","ios":"levelo://app?vid=e8881021-06cd-42da-8a98-2ef3e9aefc43"},"vehicle_type_id":"4","last_reported":1727511066,"current_range_meters":29600,"station_id":"ce4bhn92rcd13ifvqgrg","pricing_plan_id":"cebpf4jnsgd1na2vs0mg"},{"bike_id":"ce9a5419-e4a6-43f3-a4fb-e7f88ddf3982","system_id":"levelo_inurba_marseille","lat":43.23186,"lon":5.3998,"is_reserved":false,"is_disabled":false,"rental_uris":{"android":"levelo://app?vid=ce9a5419-e4a6-43f3-a4fb-e7f88ddf3982","ios":"levelo://app?vid=ce9a5419-e4a6-43f3-a4fb-e7f88ddf3982"},"vehicle_type_id":"4","last_reported":1727511066,"current_range_meters":38000,"station_id":"ce4bhn12rcd13ifvqgqg","pricing_plan_id":"cebpf4jnsgd1na2vs0mg"},{"bike_id":"71ba535f-5af1-4e82-8d63-800670e2daf2","system_id":"levelo_inurba_marseille","lat":43.29619,"lon":5.37192,"is_reserved":false,"is_disabled":false,"rental_uris":{"android":"levelo://app?vid=71ba535f-5af1-4e82-8d63-800670e2daf2","ios":"levelo://app?vid=71ba535f-5af1-4e82-8d63-800670e2daf2"},"vehicle_type_id":"4","last_reported":1727511066,"current_range_meters":37600,"station_id":"ce4bgnh2rcd13ifvqc0g","pricing_plan_id":"cebpf4jnsgd1na2vs0mg"},{"bike_id":"bf4babc3-d8e1-4008-9a0f-c8606ba7f89d","system_id":"levelo_inurba_marseille","lat":43.26196,"lon":5.3745,"is_reserved":false,"is_disabled":false,"rental_uris":{"android":"levelo://app?vid=bf4babc3-d8e1-4008-9a0f-c8606ba7f89d","ios":"levelo://app?vid=bf4babc3-d8e1-4008-9a0f-c8606ba7f89d"},"vehicle_type_id":"4","last_reported":1727511066,"current_range_meters":38800,"station_id":"ce4bhgp2rcd13ifvqfc0","pricing_plan_id":"cebpf4jnsgd1na2vs0mg"},{"bike_id":"b420a558-0442-4340-a39c-af9bdd3ffb2a","system_id":"levelo_inurba_marseille","lat":43.30152,"lon":5.38075,"is_reserved":false,"is_disabled":false,"rental_uris":{"android":"levelo://app?vid=b420a558-0442-4340-a39c-af9bdd3ffb2a","ios":"levelo://app?vid=b420a558-0442-4340-a39c-af9bdd3ffb2a"},"vehicle_type_id":"4","last_reported":1727511066,"current_range_meters":26800,"station_id":"ce4bgjp2rcd13ifvqbh0","pricing_plan_id":"cebpf4jnsgd1na2vs0mg"},{"bike_id":"0cf7f5eb-9236-4027-b5fa-a06bfba275e2","system_id":"levelo_inurba_marseille","lat":43.29201,"lon":5.35809,"is_reserved":false,"is_disabled":false,"rental_uris":{"android":"levelo://app?vid=0cf7f5eb-9236-4027-b5fa-a06bfba275e2","ios":"levelo://app?vid=0cf7f5eb-9236-4027-b5fa-a06bfba275e2"},"vehicle_type_id":"4","last_reported":1727511066,"current_range_meters":39200,"station_id":"ce4bhb12rcd13ifvqel0","pricing_plan_id":"cebpf4jnsgd1na2vs0mg"},{"bike_id":"677c653e-87a0-47a5-9b05-44cc6e138cca","system_id":"levelo_inurba_marseille","lat":43.28077,"lon":5.39653,"is_reserved":false,"is_disabled":false,"rental_uris":{"android":"levelo://app?vid=677c653e-87a0-47a5-9b05-44cc6e138cca","ios":"levelo://app?vid=677c653e-87a0-47a5-9b05-44cc6e138cca"},"vehicle_type_id":"4","last_reported":1727511066,"current_range_meters":28000,"station_id":"ce4bho12rcd13ifvqh2g","pricing_plan_id":"cebpf4jnsgd1na2vs0mg"},{"bike_id":"9ef5bb37-a9fb-4352-8a8d-48574aea13a1","system_id":"levelo_inurba_marseille","lat":43.296032,"lon":5.377263,"is_reserved":false,"is_disabled":false,"rental_uris":{"android":"levelo://app?vid=9ef5bb37-a9fb-4352-8a8d-48574aea13a1","ios":"levelo://app?vid=9ef5bb37-a9fb-4352-8a8d-48574aea13a1"},"vehicle_type_id":"4","last_reported":1727511066,"current_range_meters":35200,"station_id":"ce4bgi92rcd13ifvqb90","pricing_plan_id":"cebpf4jnsgd1na2vs0mg"},{"bike_id":"24999d36-0b09-447a-ba6c-cc08fb1d6494","system_id":"levelo_inurba_marseille","lat":43.26191,"lon":5.37453,"is_reserved":false,"is_disabled":false,"rental_uris":{"android":"levelo://app?vid=24999d36-0b09-447a-ba6c-cc08fb1d6494","ios":"levelo://app?vid=24999d36-0b09-447a-ba6c-cc08fb1d6494"},"vehicle_type_id":"4","last_reported":1727511066,"current_range_meters":3200,"station_id":"ce4bhgp2rcd13ifvqfc0","pricing_plan_id":"cebpf4jnsgd1na2vs0mg"},{"bike_id":"97c3ce97-e7d1-4558-8f8e-452e57800968","system_id":"levelo_inurba_marseille","lat":43.28701,"lon":5.39986,"is_reserved":false,"is_disabled":false,"rental_uris":{"android":"levelo://app?vid=97c3ce97-e7d1-4558-8f8e-452e57800968","ios":"levelo://app?vid=97c3ce97-e7d1-4558-8f8e-452e57800968"},"vehicle_type_id":"4","last_reported":1727511066,"current_range_meters":22400,"station_id":"ce4bho92rcd13ifvqh3g","pricing_plan_id":"cebpf4jnsgd1na2vs0mg"},{"bike_id":"e9461f55-7e42-465e-ba90-31c941943249","system_id":"levelo_inurba_marseille","lat":43.30786,"lon":5.37648,"is_reserved":false,"is_disabled":false,"rental_uris":{"android":"levelo://app?vid=e9461f55-7e42-465e-ba90-31c941943249","ios":"levelo://app?vid=e9461f55-7e42-465e-ba90-31c941943249"},"vehicle_type_id":"4","last_reported":1727511066,"current_range_meters":38800,"station_id":"ce4bgv92rcd13ifvqcq0","pricing_plan_id":"cebpf4jnsgd1na2vs0mg"},{"bike_id":"4bec3a7d-69b5-4087-96f4-4e0bbed86a87","system_id":"levelo_inurba_marseille","lat":43.31284,"lon":5.40167,"is_reserved":false,"is_disabled":false,"rental_uris":{"android":"levelo://app?vid=4bec3a7d-69b5-4087-96f4-4e0bbed86a87","ios":"levelo://app?vid=4bec3a7d-69b5-4087-96f4-4e0bbed86a87"},"vehicle_type_id":"4","last_reported":1727511066,"current_range_meters":25600,"station_id":"ce4bh092rcd13ifvqd30","pricing_plan_id":"cebpf4jnsgd1na2vs0mg"},{"bike_id":"6bbe7017-d8c4-4797-9de4-8c9de6239e13","system_id":"levelo_inurba_marseille","lat":43.25004,"lon":5.38924,"is_reserved":false,"is_disabled":false,"rental_uris":{"android":"levelo://app?vid=6bbe7017-d8c4-4797-9de4-8c9de6239e13","ios":"levelo://app?vid=6bbe7017-d8c4-4797-9de4-8c9de6239e13"},"vehicle_type_id":"4","last_reported":1727511066,"current_range_meters":35600,"station_id":"ce4bhgp2rcd13ifvqfd0","pricing_plan_id":"cebpf4jnsgd1na2vs0mg"},{"bike_id":"7ed6f110-8042-4b99-8d26-80b0b283f72c","system_id":"levelo_inurba_marseille","lat":43.24068,"lon":5.37755,"is_reserved":false,"is_disabled":false,"rental_uris":{"android":"levelo://app?vid=7ed6f110-8042-4b99-8d26-80b0b283f72c","ios":"levelo://app?vid=7ed6f110-8042-4b99-8d26-80b0b283f72c"},"vehicle_type_id":"4","last_reported":1727511066,"current_range_meters":8000,"station_id":"ce4bhnp2rcd13ifvqgvg","pricing_plan_id":"cebpf4jnsgd1na2vs0mg"},{"bike_id":"3b170ecf-4bbb-421f-886d-94818fba1de8","system_id":"levelo_inurba_marseille","lat":43.28485,"lon":5.40026,"is_reserved":false,"is_disabled":false,"rental_uris":{"android":"levelo://app?vid=3b170ecf-4bbb-421f-886d-94818fba1de8","ios":"levelo://app?vid=3b170ecf-4bbb-421f-886d-94818fba1de8"},"vehicle_type_id":"4","last_reported":1727511066,"current_range_meters":37600,"station_id":"ce4bh2h2rcd13ifvqdh0","pricing_plan_id":"cebpf4jnsgd1na2vs0mg"},{"bike_id":"90693527-9214-4369-b63c-a3887ee4351c","system_id":"levelo_inurba_marseille","lat":43.30559,"lon":5.36529,"is_reserved":false,"is_disabled":false,"rental_uris":{"android":"levelo://app?vid=90693527-9214-4369-b63c-a3887ee4351c","ios":"levelo://app?vid=90693527-9214-4369-b63c-a3887ee4351c"},"vehicle_type_id":"4","last_reported":1727511066,"current_range_meters":37600,"station_id":"ce4bgs12rcd13ifvqcag","pricing_plan_id":"cebpf4jnsgd1na2vs0mg"},{"bike_id":"c0e9c9df-3021-4972-ac93-be35377e45ba","system_id":"levelo_inurba_marseille","lat":43.30957,"lon":5.39041,"is_reserved":false,"is_disabled":false,"rental_uris":{"android":"levelo://app?vid=c0e9c9df-3021-4972-ac93-be35377e45ba","ios":"levelo://app?vid=c0e9c9df-3021-4972-ac93-be35377e45ba"},"vehicle_type_id":"4","last_reported":1727511066,"current_range_meters":32400,"station_id":"ce4bh4p2rcd13ifvqe1g","pricing_plan_id":"cebpf4jnsgd1na2vs0mg"},{"bike_id":"207ffe99-f2e2-4d11-a577-0100f424763e","system_id":"levelo_inurba_marseille","lat":43.3204,"lon":5.41574,"is_reserved":false,"is_disabled":false,"rental_uris":{"android":"levelo://app?vid=207ffe99-f2e2-4d11-a577-0100f424763e","ios":"levelo://app?vid=207ffe99-f2e2-4d11-a577-0100f424763e"},"vehicle_type_id":"4","last_reported":1727511066,"current_range_meters":22000,"station_id":"ce4bhq92rcd13ifvqhkg","pricing_plan_id":"cebpf4jnsgd1na2vs0mg"},{"bike_id":"9cd02d11-726a-4f40-b3eb-6cf8ad7272ec","system_id":"levelo_inurba_marseille","lat":43.27206,"lon":5.39174,"is_reserved":false,"is_disabled":false,"rental_uris":{"android":"levelo://app?vid=9cd02d11-726a-4f40-b3eb-6cf8ad7272ec","ios":"levelo://app?vid=9cd02d11-726a-4f40-b3eb-6cf8ad7272ec"},"vehicle_type_id":"4","last_reported":1727511066,"current_range_meters":25200,"station_id":"ce4bhhp2rcd13ifvqfm0","pricing_plan_id":"cebpf4jnsgd1na2vs0mg"},{"bike_id":"0233e76c-9a4b-4972-880a-18372680d64a","system_id":"levelo_inurba_marseille","lat":43.32001,"lon":5.38145,"is_reserved":false,"is_disabled":false,"rental_uris":{"android":"levelo://app?vid=0233e76c-9a4b-4972-880a-18372680d64a","ios":"levelo://app?vid=0233e76c-9a4b-4972-880a-18372680d64a"},"vehicle_type_id":"4","last_reported":1727511066,"current_range_meters":36800,"station_id":"ce4bhr12rcd13ifvqhpg","pricing_plan_id":"cebpf4jnsgd1na2vs0mg"},{"bike_id":"384d6582-d630-40a7-afa7-0c8976683a5b","system_id":"levelo_inurba_marseille","lat":43.28945,"lon":5.39632,"is_reserved":false,"is_disabled":false,"rental_uris":{"android":"levelo://app?vid=384d6582-d630-40a7-afa7-0c8976683a5b","ios":"levelo://app?vid=384d6582-d630-40a7-afa7-0c8976683a5b"},"vehicle_type_id":"4","last_reported":1727511066,"current_range_meters":22000,"station_id":"ce4bh3h2rcd13ifvqdn0","pricing_plan_id":"cebpf4jnsgd1na2vs0mg"},{"bike_id":"d39210b3-a40b-4413-9d2a-e861998a3aad","system_id":"levelo_inurba_marseille","lat":43.25822,"lon":5.39428,"is_reserved":false,"is_disabled":false,"rental_uris":{"android":"levelo://app?vid=d39210b3-a40b-4413-9d2a-e861998a3aad","ios":"levelo://app?vid=d39210b3-a40b-4413-9d2a-e861998a3aad"},"vehicle_type_id":"4","last_reported":1727511066,"current_range_meters":38800,"station_id":"ce4bhip2rcd13ifvqft0","pricing_plan_id":"cebpf4jnsgd1na2vs0mg"},{"bike_id":"4915f018-35a4-41ab-8f17-b1de5745ad2a","system_id":"levelo_inurba_marseille","lat":43.3188,"lon":5.40725,"is_reserved":false,"is_disabled":false,"rental_uris":{"android":"levelo://app?vid=4915f018-35a4-41ab-8f17-b1de5745ad2a","ios":"levelo://app?vid=4915f018-35a4-41ab-8f17-b1de5745ad2a"},"vehicle_type_id":"4","last_reported":1727511066,"current_range_meters":15200,"station_id":"ce4bhq12rcd13ifvqhig","pricing_plan_id":"cebpf4jnsgd1na2vs0mg"},{"bike_id":"27dd2217-59df-4be1-b2c3-392ea7c13d9d","system_id":"levelo_inurba_marseille","lat":43.2621,"lon":5.37442,"is_reserved":false,"is_disabled":false,"rental_uris":{"android":"levelo://app?vid=27dd2217-59df-4be1-b2c3-392ea7c13d9d","ios":"levelo://app?vid=27dd2217-59df-4be1-b2c3-392ea7c13d9d"},"vehicle_type_id":"4","last_reported":1727511066,"current_range_meters":36800,"station_id":"ce4bhgp2rcd13ifvqfc0","pricing_plan_id":"cebpf4jnsgd1na2vs0mg"},{"bike_id":"eb40660b-9cba-4839-95b5-e1a88988e1c0","system_id":"levelo_inurba_marseille","lat":43.29845,"lon":5.362705,"is_reserved":false,"is_disabled":false,"rental_uris":{"android":"levelo://app?vid=eb40660b-9cba-4839-95b5-e1a88988e1c0","ios":"levelo://app?vid=eb40660b-9cba-4839-95b5-e1a88988e1c0"},"vehicle_type_id":"4","last_reported":1727511066,"current_range_meters":38800,"station_id":"ce4bgpp2rcd13ifvqc3g","pricing_plan_id":"cebpf4jnsgd1na2vs0mg"},{"bike_id":"28fd6afa-8ab7-494a-b25a-1a23b319519f","system_id":"levelo_inurba_marseille","lat":43.3171,"lon":5.43708,"is_reserved":false,"is_disabled":false,"rental_uris":{"android":"levelo://app?vid=28fd6afa-8ab7-494a-b25a-1a23b319519f","ios":"levelo://app?vid=28fd6afa-8ab7-494a-b25a-1a23b319519f"},"vehicle_type_id":"4","last_reported":1727511066,"current_range_meters":38000,"station_id":"ce4bhp92rcd13ifvqhcg","pricing_plan_id":"cebpf4jnsgd1na2vs0mg"},{"bike_id":"cf1e222b-a705-4706-a115-2d1fda88ea04","system_id":"levelo_inurba_marseille","lat":43.2695,"lon":5.38629,"is_reserved":false,"is_disabled":false,"rental_uris":{"android":"levelo://app?vid=cf1e222b-a705-4706-a115-2d1fda88ea04","ios":"levelo://app?vid=cf1e222b-a705-4706-a115-2d1fda88ea04"},"vehicle_type_id":"4","last_reported":1727511066,"current_range_meters":3200,"station_id":"ce4bhh92rcd13ifvqfh0","pricing_plan_id":"cebpf4jnsgd1na2vs0mg"},{"bike_id":"cf728546-b453-4bbe-a199-05de8a38e92b","system_id":"levelo_inurba_marseille","lat":43.29851,"lon":5.36287,"is_reserved":false,"is_disabled":false,"rental_uris":{"android":"levelo://app?vid=cf728546-b453-4bbe-a199-05de8a38e92b","ios":"levelo://app?vid=cf728546-b453-4bbe-a199-05de8a38e92b"},"vehicle_type_id":"4","last_reported":1727511066,"current_range_meters":12400,"station_id":"ce4bgpp2rcd13ifvqc3g","pricing_plan_id":"cebpf4jnsgd1na2vs0mg"},{"bike_id":"3acb6cfe-bfff-4d18-b8ea-021cf628d9f2","system_id":"levelo_inurba_marseille","lat":43.29284,"lon":5.36846,"is_reserved":false,"is_disabled":false,"rental_uris":{"android":"levelo://app?vid=3acb6cfe-bfff-4d18-b8ea-021cf628d9f2","ios":"levelo://app?vid=3acb6cfe-bfff-4d18-b8ea-021cf628d9f2"},"vehicle_type_id":"4","last_reported":1727511066,"current_range_meters":36400,"station_id":"ce4bhbp2rcd13ifvqesg","pricing_plan_id":"cebpf4jnsgd1na2vs0mg"},{"bike_id":"03e8b385-e3e3-4831-b70e-8615ef15136c","system_id":"levelo_inurba_marseille","lat":43.32343,"lon":5.40615,"is_reserved":false,"is_disabled":false,"rental_uris":{"android":"levelo://app?vid=03e8b385-e3e3-4831-b70e-8615ef15136c","ios":"levelo://app?vid=03e8b385-e3e3-4831-b70e-8615ef15136c"},"vehicle_type_id":"4","last_reported":1727511066,"current_range_meters":18800,"station_id":"ce4bhq92rcd13ifvqhjg","pricing_plan_id":"cebpf4jnsgd1na2vs0mg"},{"bike_id":"31d9581d-789e-483b-ab43-a3d81f0839cd","system_id":"levelo_inurba_marseille","lat":43.23153,"lon":5.43697,"is_reserved":false,"is_disabled":false,"rental_uris":{"android":"levelo://app?vid=31d9581d-789e-483b-ab43-a3d81f0839cd","ios":"levelo://app?vid=31d9581d-789e-483b-ab43-a3d81f0839cd"},"vehicle_type_id":"4","last_reported":1727511066,"current_range_meters":16800,"station_id":"ce4bhmp2rcd13ifvqgog","pricing_plan_id":"cebpf4jnsgd1na2vs0mg"},{"bike_id":"80fbb2f3-0555-484b-ac0d-fc057936df3c","system_id":"levelo_inurba_marseille","lat":43.28674,"lon":5.38656,"is_reserved":false,"is_disabled":false,"rental_uris":{"android":"levelo://app?vid=80fbb2f3-0555-484b-ac0d-fc057936df3c","ios":"levelo://app?vid=80fbb2f3-0555-484b-ac0d-fc057936df3c"},"vehicle_type_id":"4","last_reported":1727511066,"current_range_meters":28400,"station_id":"ce4bh492rcd13ifvqdug","pricing_plan_id":"cebpf4jnsgd1na2vs0mg"},{"bike_id":"eeac406d-c796-47e9-bcb1-35f89dd3acf4","system_id":"levelo_inurba_marseille","lat":43.29312,"lon":5.37187,"is_reserved":false,"is_disabled":false,"rental_uris":{"android":"levelo://app?vid=eeac406d-c796-47e9-bcb1-35f89dd3acf4","ios":"levelo://app?vid=eeac406d-c796-47e9-bcb1-35f89dd3acf4"},"vehicle_type_id":"4","last_reported":1727511066,"current_range_meters":24400,"station_id":"ce4bgh92rcd13ifvqb40","pricing_plan_id":"cebpf4jnsgd1na2vs0mg"},{"bike_id":"84a5db13-483a-4bd1-be71-8719b9977afe","system_id":"levelo_inurba_marseille","lat":43.287308,"lon":5.360765,"is_reserved":false,"is_disabled":false,"rental_uris":{"android":"levelo://app?vid=84a5db13-483a-4bd1-be71-8719b9977afe","ios":"levelo://app?vid=84a5db13-483a-4bd1-be71-8719b9977afe"},"vehicle_type_id":"4","last_reported":1727511066,"current_range_meters":33600,"station_id":"cki0cbj6b192h4jlfktg","pricing_plan_id":"cebpf4jnsgd1na2vs0mg"},{"bike_id":"11738bfd-608f-40fc-82d1-7fd832783990","system_id":"levelo_inurba_marseille","lat":43.29808,"lon":5.40405,"is_reserved":false,"is_disabled":false,"rental_uris":{"android":"levelo://app?vid=11738bfd-608f-40fc-82d1-7fd832783990","ios":"levelo://app?vid=11738bfd-608f-40fc-82d1-7fd832783990"},"vehicle_type_id":"4","last_reported":1727511066,"current_range_meters":38800,"station_id":"ce4bh112rcd13ifvqd90","pricing_plan_id":"cebpf4jnsgd1na2vs0mg"},{"bike_id":"2765eaf6-7ca6-4241-a191-b4d7fef45c56","system_id":"levelo_inurba_marseille","lat":43.32045,"lon":5.41571,"is_reserved":false,"is_disabled":false,"rental_uris":{"android":"levelo://app?vid=2765eaf6-7ca6-4241-a191-b4d7fef45c56","ios":"levelo://app?vid=2765eaf6-7ca6-4241-a191-b4d7fef45c56"},"vehicle_type_id":"4","last_reported":1727511066,"current_range_meters":35200,"station_id":"ce4bhq92rcd13ifvqhkg","pricing_plan_id":"cebpf4jnsgd1na2vs0mg"},{"bike_id":"8aafcc38-52e6-4c9b-b7e2-481c9db22dac","system_id":"levelo_inurba_marseille","lat":43.26198,"lon":5.3793,"is_reserved":false,"is_disabled":false,"rental_uris":{"android":"levelo://app?vid=8aafcc38-52e6-4c9b-b7e2-481c9db22dac","ios":"levelo://app?vid=8aafcc38-52e6-4c9b-b7e2-481c9db22dac"},"vehicle_type_id":"4","last_reported":1727511066,"current_range_meters":38800,"station_id":"ce4bhjp2rcd13ifvqg90","pricing_plan_id":"cebpf4jnsgd1na2vs0mg"},{"bike_id":"ceda1303-8e1d-4d6f-8792-80ce6a3025d5","system_id":"levelo_inurba_marseille","lat":43.31715,"lon":5.43707,"is_reserved":false,"is_disabled":false,"rental_uris":{"android":"levelo://app?vid=ceda1303-8e1d-4d6f-8792-80ce6a3025d5","ios":"levelo://app?vid=ceda1303-8e1d-4d6f-8792-80ce6a3025d5"},"vehicle_type_id":"4","last_reported":1727511066,"current_range_meters":7200,"station_id":"ce4bhp92rcd13ifvqhcg","pricing_plan_id":"cebpf4jnsgd1na2vs0mg"},{"bike_id":"edc59be0-3543-4bb1-937f-122eafd1e0f9","system_id":"levelo_inurba_marseille","lat":43.30317,"lon":5.369,"is_reserved":false,"is_disabled":false,"rental_uris":{"android":"levelo://app?vid=edc59be0-3543-4bb1-937f-122eafd1e0f9","ios":"levelo://app?vid=edc59be0-3543-4bb1-937f-122eafd1e0f9"},"vehicle_type_id":"4","last_reported":1727511066,"current_range_meters":36400,"station_id":"ce4bgqh2rcd13ifvqc5g","pricing_plan_id":"cebpf4jnsgd1na2vs0mg"},{"bike_id":"403999e6-396e-4ef4-99d3-c76a06c6f1a0","system_id":"levelo_inurba_marseille","lat":43.25496,"lon":5.37646,"is_reserved":false,"is_disabled":false,"rental_uris":{"android":"levelo://app?vid=403999e6-396e-4ef4-99d3-c76a06c6f1a0","ios":"levelo://app?vid=403999e6-396e-4ef4-99d3-c76a06c6f1a0"},"vehicle_type_id":"4","last_reported":1727511066,"current_range_meters":17200,"station_id":"ce4bhh12rcd13ifvqff0","pricing_plan_id":"cebpf4jnsgd1na2vs0mg"},{"bike_id":"a4ab644b-cbfb-4cb1-9455-b1f9da480836","system_id":"levelo_inurba_marseille","lat":43.27494,"lon":5.424535,"is_reserved":false,"is_disabled":false,"rental_uris":{"android":"levelo://app?vid=a4ab644b-cbfb-4cb1-9455-b1f9da480836","ios":"levelo://app?vid=a4ab644b-cbfb-4cb1-9455-b1f9da480836"},"vehicle_type_id":"4","last_reported":1727511066,"current_range_meters":27600,"station_id":"ce4bhn92rcd13ifvqgrg","pricing_plan_id":"cebpf4jnsgd1na2vs0mg"},{"bike_id":"c049a602-ba08-44c1-a4f9-1cbd185f086f","system_id":"levelo_inurba_marseille","lat":43.22933,"lon":5.35375,"is_reserved":false,"is_disabled":false,"rental_uris":{"android":"levelo://app?vid=c049a602-ba08-44c1-a4f9-1cbd185f086f","ios":"levelo://app?vid=c049a602-ba08-44c1-a4f9-1cbd185f086f"},"vehicle_type_id":"4","last_reported":1727511066,"current_range_meters":6400,"station_id":"cpo3532slgdg3j2ikp40","pricing_plan_id":"cebpf4jnsgd1na2vs0mg"},{"bike_id":"501139bd-0b6b-40af-9494-7e812e7b3314","system_id":"levelo_inurba_marseille","lat":43.30927,"lon":5.40153,"is_reserved":false,"is_disabled":false,"rental_uris":{"android":"levelo://app?vid=501139bd-0b6b-40af-9494-7e812e7b3314","ios":"levelo://app?vid=501139bd-0b6b-40af-9494-7e812e7b3314"},"vehicle_type_id":"4","last_reported":1727511066,"current_range_meters":3200,"station_id":"ce4bgvp2rcd13ifvqct0","pricing_plan_id":"cebpf4jnsgd1na2vs0mg"},{"bike_id":"d60cf626-5700-4d36-8daa-ab5815b4087c","system_id":"levelo_inurba_marseille","lat":43.30154,"lon":5.38079,"is_reserved":false,"is_disabled":false,"rental_uris":{"android":"levelo://app?vid=d60cf626-5700-4d36-8daa-ab5815b4087c","ios":"levelo://app?vid=d60cf626-5700-4d36-8daa-ab5815b4087c"},"vehicle_type_id":"4","last_reported":1727511066,"current_range_meters":33200,"station_id":"ce4bgjp2rcd13ifvqbh0","pricing_plan_id":"cebpf4jnsgd1na2vs0mg"},{"bike_id":"2c010b88-6cac-4f11-a9f6-a6e4d3a476f6","system_id":"levelo_inurba_marseille","lat":43.29527,"lon":5.37498,"is_reserved":false,"is_disabled":false,"rental_uris":{"android":"levelo://app?vid=2c010b88-6cac-4f11-a9f6-a6e4d3a476f6","ios":"levelo://app?vid=2c010b88-6cac-4f11-a9f6-a6e4d3a476f6"},"vehicle_type_id":"4","last_reported":1727511066,"current_range_meters":29600,"station_id":"ce4bgkp2rcd13ifvqbmg","pricing_plan_id":"cebpf4jnsgd1na2vs0mg"},{"bike_id":"eab435e6-b89d-4cdf-aa0e-050a5dab33ea","system_id":"levelo_inurba_marseille","lat":43.27942,"lon":5.41042,"is_reserved":false,"is_disabled":false,"rental_uris":{"android":"levelo://app?vid=eab435e6-b89d-4cdf-aa0e-050a5dab33ea","ios":"levelo://app?vid=eab435e6-b89d-4cdf-aa0e-050a5dab33ea"},"vehicle_type_id":"4","last_reported":1727511066,"current_range_meters":37600,"station_id":"ce4bhnp2rcd13ifvqh0g","pricing_plan_id":"cebpf4jnsgd1na2vs0mg"},{"bike_id":"652c3354-7fab-47d5-9b50-2d7a4e96974b","system_id":"levelo_inurba_marseille","lat":43.27496,"lon":5.42453,"is_reserved":false,"is_disabled":false,"rental_uris":{"android":"levelo://app?vid=652c3354-7fab-47d5-9b50-2d7a4e96974b","ios":"levelo://app?vid=652c3354-7fab-47d5-9b50-2d7a4e96974b"},"vehicle_type_id":"4","last_reported":1727511066,"current_range_meters":32400,"station_id":"ce4bhn92rcd13ifvqgrg","pricing_plan_id":"cebpf4jnsgd1na2vs0mg"},{"bike_id":"8cc23e0a-6058-42c3-9c9f-505316fb843e","system_id":"levelo_inurba_marseille","lat":43.29518,"lon":5.39402,"is_reserved":false,"is_disabled":false,"rental_uris":{"android":"levelo://app?vid=8cc23e0a-6058-42c3-9c9f-505316fb843e","ios":"levelo://app?vid=8cc23e0a-6058-42c3-9c9f-505316fb843e"},"vehicle_type_id":"4","last_reported":1727511066,"current_range_meters":36400,"station_id":"ce4bh292rcd13ifvqdf0","pricing_plan_id":"cebpf4jnsgd1na2vs0mg"},{"bike_id":"8ce4806c-bb9d-4fca-8f7a-c7ad41f52108","system_id":"levelo_inurba_marseille","lat":43.30158,"lon":5.38077,"is_reserved":false,"is_disabled":false,"rental_uris":{"android":"levelo://app?vid=8ce4806c-bb9d-4fca-8f7a-c7ad41f52108","ios":"levelo://app?vid=8ce4806c-bb9d-4fca-8f7a-c7ad41f52108"},"vehicle_type_id":"4","last_reported":1727511066,"current_range_meters":19600,"station_id":"ce4bgjp2rcd13ifvqbh0","pricing_plan_id":"cebpf4jnsgd1na2vs0mg"},{"bike_id":"cf75b762-b246-4899-a58b-3f89c40bd654","system_id":"levelo_inurba_marseille","lat":43.25106,"lon":5.40324,"is_reserved":false,"is_disabled":false,"rental_uris":{"android":"levelo://app?vid=cf75b762-b246-4899-a58b-3f89c40bd654","ios":"levelo://app?vid=cf75b762-b246-4899-a58b-3f89c40bd654"},"vehicle_type_id":"4","last_reported":1727511066,"current_range_meters":24400,"station_id":"ce4bhlh2rcd13ifvqgig","pricing_plan_id":"cebpf4jnsgd1na2vs0mg"},{"bike_id":"59cb08dd-7844-4e69-8d71-c17f2919f5c1","system_id":"levelo_inurba_marseille","lat":43.25086,"lon":5.39521,"is_reserved":false,"is_disabled":false,"rental_uris":{"android":"levelo://app?vid=59cb08dd-7844-4e69-8d71-c17f2919f5c1","ios":"levelo://app?vid=59cb08dd-7844-4e69-8d71-c17f2919f5c1"},"vehicle_type_id":"4","last_reported":1727511066,"current_range_meters":18800,"station_id":"ce4bhm12rcd13ifvqgkg","pricing_plan_id":"cebpf4jnsgd1na2vs0mg"},{"bike_id":"c6b9ea73-bd61-4c9b-abe4-22a8da63c7a9","system_id":"levelo_inurba_marseille","lat":43.262,"lon":5.37928,"is_reserved":false,"is_disabled":false,"rental_uris":{"android":"levelo://app?vid=c6b9ea73-bd61-4c9b-abe4-22a8da63c7a9","ios":"levelo://app?vid=c6b9ea73-bd61-4c9b-abe4-22a8da63c7a9"},"vehicle_type_id":"4","last_reported":1727511066,"current_range_meters":17600,"station_id":"ce4bhjp2rcd13ifvqg90","pricing_plan_id":"cebpf4jnsgd1na2vs0mg"},{"bike_id":"e9776310-b20e-4114-a6b6-30f9f0cfe653","system_id":"levelo_inurba_marseille","lat":43.26024,"lon":5.3755,"is_reserved":false,"is_disabled":false,"rental_uris":{"android":"levelo://app?vid=e9776310-b20e-4114-a6b6-30f9f0cfe653","ios":"levelo://app?vid=e9776310-b20e-4114-a6b6-30f9f0cfe653"},"vehicle_type_id":"4","last_reported":1727511066,"current_range_meters":38400,"station_id":"ce4bhgh2rcd13ifvqfa0","pricing_plan_id":"cebpf4jnsgd1na2vs0mg"},{"bike_id":"d9b76706-e826-4a7c-aebc-5d53252d4306","system_id":"levelo_inurba_marseille","lat":43.24083,"lon":5.37753,"is_reserved":false,"is_disabled":false,"rental_uris":{"android":"levelo://app?vid=d9b76706-e826-4a7c-aebc-5d53252d4306","ios":"levelo://app?vid=d9b76706-e826-4a7c-aebc-5d53252d4306"},"vehicle_type_id":"4","last_reported":1727511066,"current_range_meters":14800,"station_id":"ce4bhnp2rcd13ifvqgvg","pricing_plan_id":"cebpf4jnsgd1na2vs0mg"},{"bike_id":"9e376e4e-65aa-4662-9b69-3208173b899e","system_id":"levelo_inurba_marseille","lat":43.31085,"lon":5.42435,"is_reserved":false,"is_disabled":false,"rental_uris":{"android":"levelo://app?vid=9e376e4e-65aa-4662-9b69-3208173b899e","ios":"levelo://app?vid=9e376e4e-65aa-4662-9b69-3208173b899e"},"vehicle_type_id":"4","last_reported":1727511066,"current_range_meters":38800,"station_id":"ce4bhp92rcd13ifvqhag","pricing_plan_id":"cebpf4jnsgd1na2vs0mg"},{"bike_id":"0701cf2a-674c-4c9d-af1e-6650acbaaf74","system_id":"levelo_inurba_marseille","lat":43.28374,"lon":5.37299,"is_reserved":false,"is_disabled":false,"rental_uris":{"android":"levelo://app?vid=0701cf2a-674c-4c9d-af1e-6650acbaaf74","ios":"levelo://app?vid=0701cf2a-674c-4c9d-af1e-6650acbaaf74"},"vehicle_type_id":"4","last_reported":1727511066,"current_range_meters":17200,"station_id":"","pricing_plan_id":"cebpf4jnsgd1na2vs0mg"},{"bike_id":"ea164bf3-2888-4fbb-b022-bd6ff776ad99","system_id":"levelo_inurba_marseille","lat":43.27913,"lon":5.38018,"is_reserved":false,"is_disabled":false,"rental_uris":{"android":"levelo://app?vid=ea164bf3-2888-4fbb-b022-bd6ff776ad99","ios":"levelo://app?vid=ea164bf3-2888-4fbb-b022-bd6ff776ad99"},"vehicle_type_id":"4","last_reported":1727511066,"current_range_meters":38000,"station_id":"ce4bhf92rcd13ifvqf50","pricing_plan_id":"cebpf4jnsgd1na2vs0mg"},{"bike_id":"80159180-ec73-41b2-958f-918df6404d23","system_id":"levelo_inurba_marseille","lat":43.28732,"lon":5.3608,"is_reserved":false,"is_disabled":false,"rental_uris":{"android":"levelo://app?vid=80159180-ec73-41b2-958f-918df6404d23","ios":"levelo://app?vid=80159180-ec73-41b2-958f-918df6404d23"},"vehicle_type_id":"4","last_reported":1727511066,"current_range_meters":39200,"station_id":"cki0cbj6b192h4jlfktg","pricing_plan_id":"cebpf4jnsgd1na2vs0mg"},{"bike_id":"769690fe-a6b6-4b8d-b05e-fcb73caf5382","system_id":"levelo_inurba_marseille","lat":43.31232,"lon":5.36864,"is_reserved":false,"is_disabled":false,"rental_uris":{"android":"levelo://app?vid=769690fe-a6b6-4b8d-b05e-fcb73caf5382","ios":"levelo://app?vid=769690fe-a6b6-4b8d-b05e-fcb73caf5382"},"vehicle_type_id":"4","last_reported":1727511066,"current_range_meters":30800,"station_id":"ce4bgl92rcd13ifvqbq0","pricing_plan_id":"cebpf4jnsgd1na2vs0mg"},{"bike_id":"bbd0119f-8607-4cd5-9ca4-3008259f245b","system_id":"levelo_inurba_marseille","lat":43.30437,"lon":5.3889,"is_reserved":false,"is_disabled":false,"rental_uris":{"android":"levelo://app?vid=bbd0119f-8607-4cd5-9ca4-3008259f245b","ios":"levelo://app?vid=bbd0119f-8607-4cd5-9ca4-3008259f245b"},"vehicle_type_id":"4","last_reported":1727511066,"current_range_meters":28400,"station_id":"ce4bgk12rcd13ifvqbi0","pricing_plan_id":"cebpf4jnsgd1na2vs0mg"},{"bike_id":"1aa20d89-c313-42fb-abf6-f6c32d8b3843","system_id":"levelo_inurba_marseille","lat":43.30476,"lon":5.37911,"is_reserved":false,"is_disabled":false,"rental_uris":{"android":"levelo://app?vid=1aa20d89-c313-42fb-abf6-f6c32d8b3843","ios":"levelo://app?vid=1aa20d89-c313-42fb-abf6-f6c32d8b3843"},"vehicle_type_id":"4","last_reported":1727511066,"current_range_meters":32800,"station_id":"ce4bgup2rcd13ifvqcn0","pricing_plan_id":"cebpf4jnsgd1na2vs0mg"},{"bike_id":"a6903808-354a-4aed-8af8-b4a5f29db99f","system_id":"levelo_inurba_marseille","lat":43.27952,"lon":5.41058,"is_reserved":false,"is_disabled":false,"rental_uris":{"android":"levelo://app?vid=a6903808-354a-4aed-8af8-b4a5f29db99f","ios":"levelo://app?vid=a6903808-354a-4aed-8af8-b4a5f29db99f"},"vehicle_type_id":"4","last_reported":1727511066,"current_range_meters":18000,"station_id":"ce4bhnp2rcd13ifvqh0g","pricing_plan_id":"cebpf4jnsgd1na2vs0mg"},{"bike_id":"2969bdbb-042e-46e5-981e-947736358a43","system_id":"levelo_inurba_marseille","lat":43.29522,"lon":5.37484,"is_reserved":false,"is_disabled":false,"rental_uris":{"android":"levelo://app?vid=2969bdbb-042e-46e5-981e-947736358a43","ios":"levelo://app?vid=2969bdbb-042e-46e5-981e-947736358a43"},"vehicle_type_id":"4","last_reported":1727511066,"current_range_meters":22800,"station_id":"ce4bgkp2rcd13ifvqbmg","pricing_plan_id":"cebpf4jnsgd1na2vs0mg"},{"bike_id":"6cdca13d-24d1-4302-912a-54d18c748242","system_id":"levelo_inurba_marseille","lat":43.31083,"lon":5.40132,"is_reserved":false,"is_disabled":false,"rental_uris":{"android":"levelo://app?vid=6cdca13d-24d1-4302-912a-54d18c748242","ios":"levelo://app?vid=6cdca13d-24d1-4302-912a-54d18c748242"},"vehicle_type_id":"4","last_reported":1727511066,"current_range_meters":10000,"station_id":"","pricing_plan_id":"cebpf4jnsgd1na2vs0mg"},{"bike_id":"68cf2aee-233d-4f5f-a6eb-9cfde94241fc","system_id":"levelo_inurba_marseille","lat":43.30544,"lon":5.38433,"is_reserved":false,"is_disabled":false,"rental_uris":{"android":"levelo://app?vid=68cf2aee-233d-4f5f-a6eb-9cfde94241fc","ios":"levelo://app?vid=68cf2aee-233d-4f5f-a6eb-9cfde94241fc"},"vehicle_type_id":"4","last_reported":1727511066,"current_range_meters":28000,"station_id":"ce4bgg92rcd13ifvqb30","pricing_plan_id":"cebpf4jnsgd1na2vs0mg"},{"bike_id":"093c990c-4ffd-449c-ac18-aeecffb3b446","system_id":"levelo_inurba_marseille","lat":43.30928,"lon":5.40144,"is_reserved":false,"is_disabled":false,"rental_uris":{"android":"levelo://app?vid=093c990c-4ffd-449c-ac18-aeecffb3b446","ios":"levelo://app?vid=093c990c-4ffd-449c-ac18-aeecffb3b446"},"vehicle_type_id":"4","last_reported":1727511066,"current_range_meters":33600,"station_id":"ce4bgvp2rcd13ifvqct0","pricing_plan_id":"cebpf4jnsgd1na2vs0mg"},{"bike_id":"80772028-8c3e-4d06-b5a5-47d20bb2da13","system_id":"levelo_inurba_marseille","lat":43.30154,"lon":5.38073,"is_reserved":false,"is_disabled":false,"rental_uris":{"android":"levelo://app?vid=80772028-8c3e-4d06-b5a5-47d20bb2da13","ios":"levelo://app?vid=80772028-8c3e-4d06-b5a5-47d20bb2da13"},"vehicle_type_id":"4","last_reported":1727511066,"current_range_meters":36400,"station_id":"ce4bgjp2rcd13ifvqbh0","pricing_plan_id":"cebpf4jnsgd1na2vs0mg"},{"bike_id":"11b3a547-b40b-41c3-abfd-120f3879726f","system_id":"levelo_inurba_marseille","lat":43.29089,"lon":5.38158,"is_reserved":false,"is_disabled":false,"rental_uris":{"android":"levelo://app?vid=11b3a547-b40b-41c3-abfd-120f3879726f","ios":"levelo://app?vid=11b3a547-b40b-41c3-abfd-120f3879726f"},"vehicle_type_id":"4","last_reported":1727511066,"current_range_meters":8800,"station_id":"ce4bh512rcd13ifvqe2g","pricing_plan_id":"cebpf4jnsgd1na2vs0mg"},{"bike_id":"7f31b7c3-4a3b-43de-afc0-d4cf26796b63","system_id":"levelo_inurba_marseille","lat":43.27951,"lon":5.41048,"is_reserved":false,"is_disabled":false,"rental_uris":{"android":"levelo://app?vid=7f31b7c3-4a3b-43de-afc0-d4cf26796b63","ios":"levelo://app?vid=7f31b7c3-4a3b-43de-afc0-d4cf26796b63"},"vehicle_type_id":"4","last_reported":1727511066,"current_range_meters":33600,"station_id":"ce4bhnp2rcd13ifvqh0g","pricing_plan_id":"cebpf4jnsgd1na2vs0mg"},{"bike_id":"da2e7afb-45a7-4193-9960-716c0aa1657b","system_id":"levelo_inurba_marseille","lat":43.32292,"lon":5.38278,"is_reserved":false,"is_disabled":false,"rental_uris":{"android":"levelo://app?vid=da2e7afb-45a7-4193-9960-716c0aa1657b","ios":"levelo://app?vid=da2e7afb-45a7-4193-9960-716c0aa1657b"},"vehicle_type_id":"4","last_reported":1727511066,"current_range_meters":38000,"station_id":"ce4bhr12rcd13ifvqhqg","pricing_plan_id":"cebpf4jnsgd1na2vs0mg"},{"bike_id":"b64089c7-13ae-46ba-b29e-4e00e75820e1","system_id":"levelo_inurba_marseille","lat":43.30161,"lon":5.38078,"is_reserved":false,"is_disabled":false,"rental_uris":{"android":"levelo://app?vid=b64089c7-13ae-46ba-b29e-4e00e75820e1","ios":"levelo://app?vid=b64089c7-13ae-46ba-b29e-4e00e75820e1"},"vehicle_type_id":"4","last_reported":1727511066,"current_range_meters":37600,"station_id":"ce4bgjp2rcd13ifvqbh0","pricing_plan_id":"cebpf4jnsgd1na2vs0mg"},{"bike_id":"d151f664-7832-4381-b6dd-7d7b186a5d22","system_id":"levelo_inurba_marseille","lat":43.24075,"lon":5.37755,"is_reserved":false,"is_disabled":false,"rental_uris":{"android":"levelo://app?vid=d151f664-7832-4381-b6dd-7d7b186a5d22","ios":"levelo://app?vid=d151f664-7832-4381-b6dd-7d7b186a5d22"},"vehicle_type_id":"4","last_reported":1727511066,"current_range_meters":26800,"station_id":"ce4bhnp2rcd13ifvqgvg","pricing_plan_id":"cebpf4jnsgd1na2vs0mg"},{"bike_id":"007a75d5-0ad5-4811-897a-6d5e1a071c56","system_id":"levelo_inurba_marseille","lat":43.26206,"lon":5.37445,"is_reserved":false,"is_disabled":false,"rental_uris":{"android":"levelo://app?vid=007a75d5-0ad5-4811-897a-6d5e1a071c56","ios":"levelo://app?vid=007a75d5-0ad5-4811-897a-6d5e1a071c56"},"vehicle_type_id":"4","last_reported":1727511066,"current_range_meters":12800,"station_id":"ce4bhgp2rcd13ifvqfc0","pricing_plan_id":"cebpf4jnsgd1na2vs0mg"},{"bike_id":"dbab5e16-0de9-4389-932d-06a62d667144","system_id":"levelo_inurba_marseille","lat":43.25833,"lon":5.39417,"is_reserved":false,"is_disabled":false,"rental_uris":{"android":"levelo://app?vid=dbab5e16-0de9-4389-932d-06a62d667144","ios":"levelo://app?vid=dbab5e16-0de9-4389-932d-06a62d667144"},"vehicle_type_id":"4","last_reported":1727511066,"current_range_meters":37600,"station_id":"ce4bhip2rcd13ifvqft0","pricing_plan_id":"cebpf4jnsgd1na2vs0mg"},{"bike_id":"808e2a76-3583-4020-998e-63ef8bb4f2f9","system_id":"levelo_inurba_marseille","lat":43.31995,"lon":5.38152,"is_reserved":false,"is_disabled":false,"rental_uris":{"android":"levelo://app?vid=808e2a76-3583-4020-998e-63ef8bb4f2f9","ios":"levelo://app?vid=808e2a76-3583-4020-998e-63ef8bb4f2f9"},"vehicle_type_id":"4","last_reported":1727511066,"current_range_meters":24000,"station_id":"ce4bhr12rcd13ifvqhpg","pricing_plan_id":"cebpf4jnsgd1na2vs0mg"},{"bike_id":"b9cd4885-6618-49ae-b6e3-10480ada383c","system_id":"levelo_inurba_marseille","lat":43.28284,"lon":5.35079,"is_reserved":false,"is_disabled":false,"rental_uris":{"android":"levelo://app?vid=b9cd4885-6618-49ae-b6e3-10480ada383c","ios":"levelo://app?vid=b9cd4885-6618-49ae-b6e3-10480ada383c"},"vehicle_type_id":"4","last_reported":1727511066,"current_range_meters":39200,"station_id":"ce4bhbp2rcd13ifvqerg","pricing_plan_id":"cebpf4jnsgd1na2vs0mg"},{"bike_id":"2873df81-5c2b-4460-b599-b4b53a9bf0f4","system_id":"levelo_inurba_marseille","lat":43.29071,"lon":5.37178,"is_reserved":false,"is_disabled":false,"rental_uris":{"android":"levelo://app?vid=2873df81-5c2b-4460-b599-b4b53a9bf0f4","ios":"levelo://app?vid=2873df81-5c2b-4460-b599-b4b53a9bf0f4"},"vehicle_type_id":"4","last_reported":1727511066,"current_range_meters":14400,"station_id":"ce4bh5p2rcd13ifvqe4g","pricing_plan_id":"cebpf4jnsgd1na2vs0mg"},{"bike_id":"3407da71-e9f5-4375-9956-506983640a2f","system_id":"levelo_inurba_marseille","lat":43.28999,"lon":5.37589,"is_reserved":false,"is_disabled":false,"rental_uris":{"android":"levelo://app?vid=3407da71-e9f5-4375-9956-506983640a2f","ios":"levelo://app?vid=3407da71-e9f5-4375-9956-506983640a2f"},"vehicle_type_id":"4","last_reported":1727511066,"current_range_meters":29600,"station_id":"ce4bh692rcd13ifvqe90","pricing_plan_id":"cebpf4jnsgd1na2vs0mg"},{"bike_id":"aee71614-34c8-4461-92c5-12ca6455e1bd","system_id":"levelo_inurba_marseille","lat":43.25833,"lon":5.39434,"is_reserved":false,"is_disabled":false,"rental_uris":{"android":"levelo://app?vid=aee71614-34c8-4461-92c5-12ca6455e1bd","ios":"levelo://app?vid=aee71614-34c8-4461-92c5-12ca6455e1bd"},"vehicle_type_id":"4","last_reported":1727511066,"current_range_meters":30800,"station_id":"ce4bhip2rcd13ifvqft0","pricing_plan_id":"cebpf4jnsgd1na2vs0mg"},{"bike_id":"77f22560-948c-43c4-9d8b-49947d08654a","system_id":"levelo_inurba_marseille","lat":43.26214,"lon":5.37921,"is_reserved":false,"is_disabled":false,"rental_uris":{"android":"levelo://app?vid=77f22560-948c-43c4-9d8b-49947d08654a","ios":"levelo://app?vid=77f22560-948c-43c4-9d8b-49947d08654a"},"vehicle_type_id":"4","last_reported":1727511066,"current_range_meters":19600,"station_id":"ce4bhjp2rcd13ifvqg90","pricing_plan_id":"cebpf4jnsgd1na2vs0mg"},{"bike_id":"6756f6c1-2aa5-4a15-8684-f976f3f3abb6","system_id":"levelo_inurba_marseille","lat":43.2904,"lon":5.37576,"is_reserved":false,"is_disabled":false,"rental_uris":{"android":"levelo://app?vid=6756f6c1-2aa5-4a15-8684-f976f3f3abb6","ios":"levelo://app?vid=6756f6c1-2aa5-4a15-8684-f976f3f3abb6"},"vehicle_type_id":"4","last_reported":1727511066,"current_range_meters":36400,"station_id":"ce4bh692rcd13ifvqe90","pricing_plan_id":"cebpf4jnsgd1na2vs0mg"},{"bike_id":"a7bee9ae-54ab-4a82-bdc5-9f85919258dd","system_id":"levelo_inurba_marseille","lat":43.25504,"lon":5.37648,"is_reserved":false,"is_disabled":false,"rental_uris":{"android":"levelo://app?vid=a7bee9ae-54ab-4a82-bdc5-9f85919258dd","ios":"levelo://app?vid=a7bee9ae-54ab-4a82-bdc5-9f85919258dd"},"vehicle_type_id":"4","last_reported":1727511066,"current_range_meters":36000,"station_id":"ce4bhh12rcd13ifvqff0","pricing_plan_id":"cebpf4jnsgd1na2vs0mg"},{"bike_id":"e3ee7d5b-bd0b-4d4d-a3e6-11e8cd23caf2","system_id":"levelo_inurba_marseille","lat":43.28155,"lon":5.42636,"is_reserved":false,"is_disabled":false,"rental_uris":{"android":"levelo://app?vid=e3ee7d5b-bd0b-4d4d-a3e6-11e8cd23caf2","ios":"levelo://app?vid=e3ee7d5b-bd0b-4d4d-a3e6-11e8cd23caf2"},"vehicle_type_id":"4","last_reported":1727511066,"current_range_meters":34800,"station_id":"ce4bhnh2rcd13ifvqgug","pricing_plan_id":"cebpf4jnsgd1na2vs0mg"},{"bike_id":"2750ce0e-46f1-450c-9305-c442489af021","system_id":"levelo_inurba_marseille","lat":43.28981,"lon":5.37845,"is_reserved":false,"is_disabled":false,"rental_uris":{"android":"levelo://app?vid=2750ce0e-46f1-450c-9305-c442489af021","ios":"levelo://app?vid=2750ce0e-46f1-450c-9305-c442489af021"},"vehicle_type_id":"4","last_reported":1727511066,"current_range_meters":38800,"station_id":"ce4bh9p2rcd13ifvqed0","pricing_plan_id":"cebpf4jnsgd1na2vs0mg"},{"bike_id":"ddd3400b-618a-48cf-a3f2-c37dd01ba9b9","system_id":"levelo_inurba_marseille","lat":43.3093,"lon":5.40148,"is_reserved":false,"is_disabled":false,"rental_uris":{"android":"levelo://app?vid=ddd3400b-618a-48cf-a3f2-c37dd01ba9b9","ios":"levelo://app?vid=ddd3400b-618a-48cf-a3f2-c37dd01ba9b9"},"vehicle_type_id":"4","last_reported":1727511066,"current_range_meters":16400,"station_id":"ce4bgvp2rcd13ifvqct0","pricing_plan_id":"cebpf4jnsgd1na2vs0mg"},{"bike_id":"b25975a2-4789-471d-bf7d-ec59dfff3ec3","system_id":"levelo_inurba_marseille","lat":43.2953,"lon":5.3749,"is_reserved":false,"is_disabled":false,"rental_uris":{"android":"levelo://app?vid=b25975a2-4789-471d-bf7d-ec59dfff3ec3","ios":"levelo://app?vid=b25975a2-4789-471d-bf7d-ec59dfff3ec3"},"vehicle_type_id":"4","last_reported":1727511066,"current_range_meters":19200,"station_id":"ce4bgkp2rcd13ifvqbmg","pricing_plan_id":"cebpf4jnsgd1na2vs0mg"},{"bike_id":"d5adb0e7-a184-462e-8337-990c66f58ad7","system_id":"levelo_inurba_marseille","lat":43.33025,"lon":5.39043,"is_reserved":false,"is_disabled":false,"rental_uris":{"android":"levelo://app?vid=d5adb0e7-a184-462e-8337-990c66f58ad7","ios":"levelo://app?vid=d5adb0e7-a184-462e-8337-990c66f58ad7"},"vehicle_type_id":"4","last_reported":1727511066,"current_range_meters":33200,"station_id":"ce4bhr92rcd13ifvqhrg","pricing_plan_id":"cebpf4jnsgd1na2vs0mg"},{"bike_id":"da3d8f0d-0f47-455d-bf44-fb306bfeadf4","system_id":"levelo_inurba_marseille","lat":43.30148,"lon":5.38081,"is_reserved":false,"is_disabled":false,"rental_uris":{"android":"levelo://app?vid=da3d8f0d-0f47-455d-bf44-fb306bfeadf4","ios":"levelo://app?vid=da3d8f0d-0f47-455d-bf44-fb306bfeadf4"},"vehicle_type_id":"4","last_reported":1727511066,"current_range_meters":27200,"station_id":"ce4bgjp2rcd13ifvqbh0","pricing_plan_id":"cebpf4jnsgd1na2vs0mg"},{"bike_id":"8c111225-ab65-400c-940f-7ba65c42a15e","system_id":"levelo_inurba_marseille","lat":43.29972,"lon":5.38502,"is_reserved":false,"is_disabled":false,"rental_uris":{"android":"levelo://app?vid=8c111225-ab65-400c-940f-7ba65c42a15e","ios":"levelo://app?vid=8c111225-ab65-400c-940f-7ba65c42a15e"},"vehicle_type_id":"4","last_reported":1727511066,"current_range_meters":38800,"station_id":"ce4bgj92rcd13ifvqbd0","pricing_plan_id":"cebpf4jnsgd1na2vs0mg"},{"bike_id":"9bc57d13-f321-4dd6-ab39-d1ee59c87977","system_id":"levelo_inurba_marseille","lat":43.26949,"lon":5.4026,"is_reserved":false,"is_disabled":false,"rental_uris":{"android":"levelo://app?vid=9bc57d13-f321-4dd6-ab39-d1ee59c87977","ios":"levelo://app?vid=9bc57d13-f321-4dd6-ab39-d1ee59c87977"},"vehicle_type_id":"4","last_reported":1727511066,"current_range_meters":17200,"station_id":"cjm6bp8fraef2m0cb0m0","pricing_plan_id":"cebpf4jnsgd1na2vs0mg"},{"bike_id":"5b57ab71-d0a9-4acc-b02f-0ed5c88e99e1","system_id":"levelo_inurba_marseille","lat":43.30104,"lon":5.39084,"is_reserved":false,"is_disabled":false,"rental_uris":{"android":"levelo://app?vid=5b57ab71-d0a9-4acc-b02f-0ed5c88e99e1","ios":"levelo://app?vid=5b57ab71-d0a9-4acc-b02f-0ed5c88e99e1"},"vehicle_type_id":"4","last_reported":1727511066,"current_range_meters":16000,"station_id":"ce4bh192rcd13ifvqdb0","pricing_plan_id":"cebpf4jnsgd1na2vs0mg"},{"bike_id":"2385a768-acc4-4bca-b380-589c0719e15d","system_id":"levelo_inurba_marseille","lat":43.28458,"lon":5.35897,"is_reserved":false,"is_disabled":false,"rental_uris":{"android":"levelo://app?vid=2385a768-acc4-4bca-b380-589c0719e15d","ios":"levelo://app?vid=2385a768-acc4-4bca-b380-589c0719e15d"},"vehicle_type_id":"4","last_reported":1727511066,"current_range_meters":38400,"station_id":"ce4bhah2rcd13ifvqei0","pricing_plan_id":"cebpf4jnsgd1na2vs0mg"},{"bike_id":"e70e8252-4776-489c-b71e-9dfda14555b2","system_id":"levelo_inurba_marseille","lat":43.28103,"lon":5.37844,"is_reserved":false,"is_disabled":false,"rental_uris":{"android":"levelo://app?vid=e70e8252-4776-489c-b71e-9dfda14555b2","ios":"levelo://app?vid=e70e8252-4776-489c-b71e-9dfda14555b2"},"vehicle_type_id":"4","last_reported":1727511066,"current_range_meters":7200,"station_id":"ce4bha12rcd13ifvqee0","pricing_plan_id":"cebpf4jnsgd1na2vs0mg"},{"bike_id":"0c3f0369-7cdf-4cba-a0db-09435ab8c8da","system_id":"levelo_inurba_marseille","lat":43.23191,"lon":5.39991,"is_reserved":false,"is_disabled":false,"rental_uris":{"android":"levelo://app?vid=0c3f0369-7cdf-4cba-a0db-09435ab8c8da","ios":"levelo://app?vid=0c3f0369-7cdf-4cba-a0db-09435ab8c8da"},"vehicle_type_id":"4","last_reported":1727511066,"current_range_meters":32000,"station_id":"ce4bhn12rcd13ifvqgqg","pricing_plan_id":"cebpf4jnsgd1na2vs0mg"},{"bike_id":"c3635a8a-fd19-4ac5-908a-6e61960a500c","system_id":"levelo_inurba_marseille","lat":43.32046,"lon":5.4155,"is_reserved":false,"is_disabled":false,"rental_uris":{"android":"levelo://app?vid=c3635a8a-fd19-4ac5-908a-6e61960a500c","ios":"levelo://app?vid=c3635a8a-fd19-4ac5-908a-6e61960a500c"},"vehicle_type_id":"4","last_reported":1727511066,"current_range_meters":36800,"station_id":"ce4bhq92rcd13ifvqhkg","pricing_plan_id":"cebpf4jnsgd1na2vs0mg"},{"bike_id":"5bbd2505-51dc-451e-8388-5c62e078114a","system_id":"levelo_inurba_marseille","lat":43.24176,"lon":5.39746,"is_reserved":false,"is_disabled":false,"rental_uris":{"android":"levelo://app?vid=5bbd2505-51dc-451e-8388-5c62e078114a","ios":"levelo://app?vid=5bbd2505-51dc-451e-8388-5c62e078114a"},"vehicle_type_id":"4","last_reported":1727511066,"current_range_meters":38800,"station_id":"ce4bhn12rcd13ifvqgpg","pricing_plan_id":"cebpf4jnsgd1na2vs0mg"},{"bike_id":"8cc6420e-9ed0-4fab-ae82-860344d30ea8","system_id":"levelo_inurba_marseille","lat":43.3176,"lon":5.39019,"is_reserved":false,"is_disabled":false,"rental_uris":{"android":"levelo://app?vid=8cc6420e-9ed0-4fab-ae82-860344d30ea8","ios":"levelo://app?vid=8cc6420e-9ed0-4fab-ae82-860344d30ea8"},"vehicle_type_id":"4","last_reported":1727511066,"current_range_meters":38000,"station_id":"ce4bhqp2rcd13ifvqhng","pricing_plan_id":"cebpf4jnsgd1na2vs0mg"},{"bike_id":"776e28d4-c9d5-40f0-a19e-0083f17a7f1f","system_id":"levelo_inurba_marseille","lat":43.29982,"lon":5.38491,"is_reserved":false,"is_disabled":false,"rental_uris":{"android":"levelo://app?vid=776e28d4-c9d5-40f0-a19e-0083f17a7f1f","ios":"levelo://app?vid=776e28d4-c9d5-40f0-a19e-0083f17a7f1f"},"vehicle_type_id":"4","last_reported":1727511066,"current_range_meters":38800,"station_id":"ce4bgj92rcd13ifvqbd0","pricing_plan_id":"cebpf4jnsgd1na2vs0mg"},{"bike_id":"bc20af5c-be7b-4c51-b09b-2e170ca1b5b9","system_id":"levelo_inurba_marseille","lat":43.25487,"lon":5.37647,"is_reserved":false,"is_disabled":false,"rental_uris":{"android":"levelo://app?vid=bc20af5c-be7b-4c51-b09b-2e170ca1b5b9","ios":"levelo://app?vid=bc20af5c-be7b-4c51-b09b-2e170ca1b5b9"},"vehicle_type_id":"4","last_reported":1727511066,"current_range_meters":38000,"station_id":"ce4bhh12rcd13ifvqff0","pricing_plan_id":"cebpf4jnsgd1na2vs0mg"},{"bike_id":"03af8350-a5f2-42f1-9a40-a313e4daf477","system_id":"levelo_inurba_marseille","lat":43.23188,"lon":5.39983,"is_reserved":false,"is_disabled":false,"rental_uris":{"android":"levelo://app?vid=03af8350-a5f2-42f1-9a40-a313e4daf477","ios":"levelo://app?vid=03af8350-a5f2-42f1-9a40-a313e4daf477"},"vehicle_type_id":"4","last_reported":1727511066,"current_range_meters":9600,"station_id":"ce4bhn12rcd13ifvqgqg","pricing_plan_id":"cebpf4jnsgd1na2vs0mg"},{"bike_id":"242970b0-1372-463d-8314-94d3c92d90a4","system_id":"levelo_inurba_marseille","lat":43.26209,"lon":5.37443,"is_reserved":false,"is_disabled":false,"rental_uris":{"android":"levelo://app?vid=242970b0-1372-463d-8314-94d3c92d90a4","ios":"levelo://app?vid=242970b0-1372-463d-8314-94d3c92d90a4"},"vehicle_type_id":"4","last_reported":1727511066,"current_range_meters":33600,"station_id":"ce4bhgp2rcd13ifvqfc0","pricing_plan_id":"cebpf4jnsgd1na2vs0mg"},{"bike_id":"d8e32f1c-4c32-4777-922d-4d90b15b71c7","system_id":"levelo_inurba_marseille","lat":43.30863,"lon":5.3685,"is_reserved":false,"is_disabled":false,"rental_uris":{"android":"levelo://app?vid=d8e32f1c-4c32-4777-922d-4d90b15b71c7","ios":"levelo://app?vid=d8e32f1c-4c32-4777-922d-4d90b15b71c7"},"vehicle_type_id":"4","last_reported":1727511066,"current_range_meters":10800,"station_id":"ce4bgn92rcd13ifvqbvg","pricing_plan_id":"cebpf4jnsgd1na2vs0mg"},{"bike_id":"06f62eff-144c-42e8-9cda-03a811e02320","system_id":"levelo_inurba_marseille","lat":43.27488,"lon":5.42457,"is_reserved":false,"is_disabled":false,"rental_uris":{"android":"levelo://app?vid=06f62eff-144c-42e8-9cda-03a811e02320","ios":"levelo://app?vid=06f62eff-144c-42e8-9cda-03a811e02320"},"vehicle_type_id":"4","last_reported":1727511066,"current_range_meters":35600,"station_id":"ce4bhn92rcd13ifvqgrg","pricing_plan_id":"cebpf4jnsgd1na2vs0mg"},{"bike_id":"b470945e-f45c-4291-ac95-d7061c9aab44","system_id":"levelo_inurba_marseille","lat":43.27376,"lon":5.41214,"is_reserved":false,"is_disabled":false,"rental_uris":{"android":"levelo://app?vid=b470945e-f45c-4291-ac95-d7061c9aab44","ios":"levelo://app?vid=b470945e-f45c-4291-ac95-d7061c9aab44"},"vehicle_type_id":"4","last_reported":1727511066,"current_range_meters":28800,"station_id":"","pricing_plan_id":"cebpf4jnsgd1na2vs0mg"},{"bike_id":"7b094b27-c226-4735-ad93-a86b2a5de02d","system_id":"levelo_inurba_marseille","lat":43.26682,"lon":5.3827,"is_reserved":false,"is_disabled":false,"rental_uris":{"android":"levelo://app?vid=7b094b27-c226-4735-ad93-a86b2a5de02d","ios":"levelo://app?vid=7b094b27-c226-4735-ad93-a86b2a5de02d"},"vehicle_type_id":"4","last_reported":1727511066,"current_range_meters":38400,"station_id":"ce4bhg92rcd13ifvqf90","pricing_plan_id":"cebpf4jnsgd1na2vs0mg"},{"bike_id":"b6193e94-c93a-43a4-a4e8-8cb0195103ca","system_id":"levelo_inurba_marseille","lat":43.27993,"lon":5.40024,"is_reserved":false,"is_disabled":false,"rental_uris":{"android":"levelo://app?vid=b6193e94-c93a-43a4-a4e8-8cb0195103ca","ios":"levelo://app?vid=b6193e94-c93a-43a4-a4e8-8cb0195103ca"},"vehicle_type_id":"4","last_reported":1727511066,"current_range_meters":38800,"station_id":"ce4bho92rcd13ifvqh4g","pricing_plan_id":"cebpf4jnsgd1na2vs0mg"},{"bike_id":"23718270-4e74-46b6-8713-922dcb881082","system_id":"levelo_inurba_marseille","lat":43.30469,"lon":5.37897,"is_reserved":false,"is_disabled":false,"rental_uris":{"android":"levelo://app?vid=23718270-4e74-46b6-8713-922dcb881082","ios":"levelo://app?vid=23718270-4e74-46b6-8713-922dcb881082"},"vehicle_type_id":"4","last_reported":1727511066,"current_range_meters":30400,"station_id":"ce4bgup2rcd13ifvqcn0","pricing_plan_id":"cebpf4jnsgd1na2vs0mg"},{"bike_id":"1a20ea9f-ac93-42d3-aa28-127e314df036","system_id":"levelo_inurba_marseille","lat":43.26937,"lon":5.38632,"is_reserved":false,"is_disabled":false,"rental_uris":{"android":"levelo://app?vid=1a20ea9f-ac93-42d3-aa28-127e314df036","ios":"levelo://app?vid=1a20ea9f-ac93-42d3-aa28-127e314df036"},"vehicle_type_id":"4","last_reported":1727511066,"current_range_meters":38000,"station_id":"ce4bhh92rcd13ifvqfh0","pricing_plan_id":"cebpf4jnsgd1na2vs0mg"},{"bike_id":"00cf4a34-4928-4178-952a-39047b51cfd9","system_id":"levelo_inurba_marseille","lat":43.26956,"lon":5.3864,"is_reserved":false,"is_disabled":false,"rental_uris":{"android":"levelo://app?vid=00cf4a34-4928-4178-952a-39047b51cfd9","ios":"levelo://app?vid=00cf4a34-4928-4178-952a-39047b51cfd9"},"vehicle_type_id":"4","last_reported":1727511066,"current_range_meters":23200,"station_id":"ce4bhh92rcd13ifvqfh0","pricing_plan_id":"cebpf4jnsgd1na2vs0mg"},{"bike_id":"e4361fa2-90d9-45ff-9d8a-e7b112f4e011","system_id":"levelo_inurba_marseille","lat":43.2853,"lon":5.39139,"is_reserved":false,"is_disabled":false,"rental_uris":{"android":"levelo://app?vid=e4361fa2-90d9-45ff-9d8a-e7b112f4e011","ios":"levelo://app?vid=e4361fa2-90d9-45ff-9d8a-e7b112f4e011"},"vehicle_type_id":"4","last_reported":1727511066,"current_range_meters":34000,"station_id":"ce4bh3p2rcd13ifvqdp0","pricing_plan_id":"cebpf4jnsgd1na2vs0mg"},{"bike_id":"5047cb4d-ca91-46aa-bdab-25b28ad12de4","system_id":"levelo_inurba_marseille","lat":43.24661,"lon":5.38162,"is_reserved":false,"is_disabled":false,"rental_uris":{"android":"levelo://app?vid=5047cb4d-ca91-46aa-bdab-25b28ad12de4","ios":"levelo://app?vid=5047cb4d-ca91-46aa-bdab-25b28ad12de4"},"vehicle_type_id":"4","last_reported":1727511066,"current_range_meters":6800,"station_id":"ce4bhih2rcd13ifvqfr0","pricing_plan_id":"cebpf4jnsgd1na2vs0mg"},{"bike_id":"623f0d9e-00ec-42fc-ad5c-64dbf135db7b","system_id":"levelo_inurba_marseille","lat":43.323425,"lon":5.406286,"is_reserved":false,"is_disabled":false,"rental_uris":{"android":"levelo://app?vid=623f0d9e-00ec-42fc-ad5c-64dbf135db7b","ios":"levelo://app?vid=623f0d9e-00ec-42fc-ad5c-64dbf135db7b"},"vehicle_type_id":"4","last_reported":1727511066,"current_range_meters":26000,"station_id":"ce4bhq92rcd13ifvqhjg","pricing_plan_id":"cebpf4jnsgd1na2vs0mg"},{"bike_id":"cab45fd0-efbe-42f4-815f-9d32eba24a97","system_id":"levelo_inurba_marseille","lat":43.279449,"lon":5.410468,"is_reserved":false,"is_disabled":false,"rental_uris":{"android":"levelo://app?vid=cab45fd0-efbe-42f4-815f-9d32eba24a97","ios":"levelo://app?vid=cab45fd0-efbe-42f4-815f-9d32eba24a97"},"vehicle_type_id":"4","last_reported":1727511066,"current_range_meters":20000,"station_id":"ce4bhnp2rcd13ifvqh0g","pricing_plan_id":"cebpf4jnsgd1na2vs0mg"},{"bike_id":"6eff8d2d-61fa-4715-9388-b30a052d3e98","system_id":"levelo_inurba_marseille","lat":43.337444,"lon":5.374475,"is_reserved":false,"is_disabled":false,"rental_uris":{"android":"levelo://app?vid=6eff8d2d-61fa-4715-9388-b30a052d3e98","ios":"levelo://app?vid=6eff8d2d-61fa-4715-9388-b30a052d3e98"},"vehicle_type_id":"4","last_reported":1727511066,"current_range_meters":33600,"station_id":"","pricing_plan_id":"cebpf4jnsgd1na2vs0mg"},{"bike_id":"637ea54b-676e-4687-a372-f778f0655b85","system_id":"levelo_inurba_marseille","lat":43.27215,"lon":5.40101,"is_reserved":false,"is_disabled":false,"rental_uris":{"android":"levelo://app?vid=637ea54b-676e-4687-a372-f778f0655b85","ios":"levelo://app?vid=637ea54b-676e-4687-a372-f778f0655b85"},"vehicle_type_id":"4","last_reported":1727511066,"current_range_meters":26800,"station_id":"","pricing_plan_id":"cebpf4jnsgd1na2vs0mg"},{"bike_id":"7ad8bb66-4233-405d-8bb0-865c99639a82","system_id":"levelo_inurba_marseille","lat":43.2851,"lon":5.38186,"is_reserved":false,"is_disabled":false,"rental_uris":{"android":"levelo://app?vid=7ad8bb66-4233-405d-8bb0-865c99639a82","ios":"levelo://app?vid=7ad8bb66-4233-405d-8bb0-865c99639a82"},"vehicle_type_id":"4","last_reported":1727511066,"current_range_meters":38800,"station_id":"ce4bgjh2rcd13ifvqbf0","pricing_plan_id":"cebpf4jnsgd1na2vs0mg"},{"bike_id":"f96e549b-7187-4b0d-8400-ab9432f6394b","system_id":"levelo_inurba_marseille","lat":43.3048,"lon":5.37904,"is_reserved":false,"is_disabled":false,"rental_uris":{"android":"levelo://app?vid=f96e549b-7187-4b0d-8400-ab9432f6394b","ios":"levelo://app?vid=f96e549b-7187-4b0d-8400-ab9432f6394b"},"vehicle_type_id":"4","last_reported":1727511066,"current_range_meters":32400,"station_id":"ce4bgup2rcd13ifvqcn0","pricing_plan_id":"cebpf4jnsgd1na2vs0mg"},{"bike_id":"49103c36-092f-43a6-a665-96ac4218adb8","system_id":"levelo_inurba_marseille","lat":43.322874,"lon":5.382679,"is_reserved":false,"is_disabled":false,"rental_uris":{"android":"levelo://app?vid=49103c36-092f-43a6-a665-96ac4218adb8","ios":"levelo://app?vid=49103c36-092f-43a6-a665-96ac4218adb8"},"vehicle_type_id":"4","last_reported":1727511066,"current_range_meters":38800,"station_id":"ce4bhr12rcd13ifvqhqg","pricing_plan_id":"cebpf4jnsgd1na2vs0mg"},{"bike_id":"08b2c029-544d-42d4-99bd-4ccc61970a99","system_id":"levelo_inurba_marseille","lat":43.26555,"lon":5.37282,"is_reserved":false,"is_disabled":false,"rental_uris":{"android":"levelo://app?vid=08b2c029-544d-42d4-99bd-4ccc61970a99","ios":"levelo://app?vid=08b2c029-544d-42d4-99bd-4ccc61970a99"},"vehicle_type_id":"4","last_reported":1727511066,"current_range_meters":5600,"station_id":"ce4bhg12rcd13ifvqf70","pricing_plan_id":"cebpf4jnsgd1na2vs0mg"},{"bike_id":"e394206f-d77b-4337-b410-3c4b9a807e17","system_id":"levelo_inurba_marseille","lat":43.30312,"lon":5.369,"is_reserved":false,"is_disabled":false,"rental_uris":{"android":"levelo://app?vid=e394206f-d77b-4337-b410-3c4b9a807e17","ios":"levelo://app?vid=e394206f-d77b-4337-b410-3c4b9a807e17"},"vehicle_type_id":"4","last_reported":1727511066,"current_range_meters":17600,"station_id":"ce4bgqh2rcd13ifvqc5g","pricing_plan_id":"cebpf4jnsgd1na2vs0mg"},{"bike_id":"163a8071-da95-4e9d-a44d-2485a267f2eb","system_id":"levelo_inurba_marseille","lat":43.25097,"lon":5.39521,"is_reserved":false,"is_disabled":false,"rental_uris":{"android":"levelo://app?vid=163a8071-da95-4e9d-a44d-2485a267f2eb","ios":"levelo://app?vid=163a8071-da95-4e9d-a44d-2485a267f2eb"},"vehicle_type_id":"4","last_reported":1727511066,"current_range_meters":37600,"station_id":"ce4bhm12rcd13ifvqgkg","pricing_plan_id":"cebpf4jnsgd1na2vs0mg"},{"bike_id":"098b0cab-799a-42e0-9cb3-8fe6e62c7265","system_id":"levelo_inurba_marseille","lat":43.31287,"lon":5.40156,"is_reserved":false,"is_disabled":false,"rental_uris":{"android":"levelo://app?vid=098b0cab-799a-42e0-9cb3-8fe6e62c7265","ios":"levelo://app?vid=098b0cab-799a-42e0-9cb3-8fe6e62c7265"},"vehicle_type_id":"4","last_reported":1727511066,"current_range_meters":3200,"station_id":"ce4bh092rcd13ifvqd30","pricing_plan_id":"cebpf4jnsgd1na2vs0mg"},{"bike_id":"6f0f9c32-de70-4574-9b89-cca29ab0554e","system_id":"levelo_inurba_marseille","lat":43.337444,"lon":5.374475,"is_reserved":false,"is_disabled":false,"rental_uris":{"android":"levelo://app?vid=6f0f9c32-de70-4574-9b89-cca29ab0554e","ios":"levelo://app?vid=6f0f9c32-de70-4574-9b89-cca29ab0554e"},"vehicle_type_id":"4","last_reported":1727511066,"current_range_meters":31200,"station_id":"","pricing_plan_id":"cebpf4jnsgd1na2vs0mg"},{"bike_id":"44839918-e841-4578-a34d-4d8014b09bc8","system_id":"levelo_inurba_marseille","lat":43.31233,"lon":5.36889,"is_reserved":false,"is_disabled":false,"rental_uris":{"android":"levelo://app?vid=44839918-e841-4578-a34d-4d8014b09bc8","ios":"levelo://app?vid=44839918-e841-4578-a34d-4d8014b09bc8"},"vehicle_type_id":"4","last_reported":1727511066,"current_range_meters":37600,"station_id":"ce4bgl92rcd13ifvqbq0","pricing_plan_id":"cebpf4jnsgd1na2vs0mg"},{"bike_id":"14aa9d18-f90d-42a1-ba38-84573e6f7b4b","system_id":"levelo_inurba_marseille","lat":43.28622,"lon":5.35106,"is_reserved":false,"is_disabled":false,"rental_uris":{"android":"levelo://app?vid=14aa9d18-f90d-42a1-ba38-84573e6f7b4b","ios":"levelo://app?vid=14aa9d18-f90d-42a1-ba38-84573e6f7b4b"},"vehicle_type_id":"4","last_reported":1727511066,"current_range_meters":3600,"station_id":"ce4bhch2rcd13ifvqeug","pricing_plan_id":"cebpf4jnsgd1na2vs0mg"},{"bike_id":"0687a646-be72-47a3-8907-22e0afb02a46","system_id":"levelo_inurba_marseille","lat":43.23962,"lon":5.36624,"is_reserved":false,"is_disabled":false,"rental_uris":{"android":"levelo://app?vid=0687a646-be72-47a3-8907-22e0afb02a46","ios":"levelo://app?vid=0687a646-be72-47a3-8907-22e0afb02a46"},"vehicle_type_id":"4","last_reported":1727511066,"current_range_meters":36800,"station_id":"ce4bhi12rcd13ifvqfp0","pricing_plan_id":"cebpf4jnsgd1na2vs0mg"},{"bike_id":"b51e12b3-7df2-4845-bef4-3fd1f7641c91","system_id":"levelo_inurba_marseille","lat":43.25731,"lon":5.41114,"is_reserved":false,"is_disabled":false,"rental_uris":{"android":"levelo://app?vid=b51e12b3-7df2-4845-bef4-3fd1f7641c91","ios":"levelo://app?vid=b51e12b3-7df2-4845-bef4-3fd1f7641c91"},"vehicle_type_id":"4","last_reported":1727511066,"current_range_meters":35200,"station_id":"ce4bhkp2rcd13ifvqgd0","pricing_plan_id":"cebpf4jnsgd1na2vs0mg"},