{"last_updated":1746439912,"ttl":60,"version":"2.2","data":{"bikes":[{"bike_id":"2d87f24b-bb92-4f5a-9c64-611905425c8d","system_id":"levelo_inurba_marseille","lat":43.23667,"lon":5.39143,"is_reserved":false,"is_disabled":true,"rental_uris":{"android":"levelo://app?vid=2d87f24b-bb92-4f5a-9c64-611905425c8d","ios":"levelo://app?vid=2d87f24b-bb92-4f5a-9c64-611905425c8d"},"vehicle_type_id":"4","last_reported":1746439912,"current_range_meters":0,"station_id":"","pricing_plan_id":"cebpf4jnsgd1na2vs0mg"},{"bike_id":"fce08478-7109-482d-9a10-b4546e9d605a","system_id":"levelo_inurba_marseille","lat":43.31452,"lon":5.37277,"is_reserved":false,"is_disabled":true,"rental_uris":{"android":"levelo://app?vid=fce08478-7109-482d-9a10-b4546e9d605a","ios":"levelo://app?vid=fce08478-7109-482d-9a10-b4546e9d605a"},"vehicle_type_id":"4","last_reported":1746439912,"current_range_meters":0,"station_id":"ce4bgt12rcd13ifvqcd0","pricing_plan_id":"cebpf4jnsgd1na2vs0mg"},{"bike_id":"dc96cbc9-ee2d-483b-aed2-900a26280007","system_id":"levelo_inurba_marseille","lat":43.28484,"lon":5.38413,"is_reserved":false,"is_disabled":true,"rental_uris":{"android":"levelo://app?vid=dc96cbc9-ee2d-483b-aed2-900a26280007","ios":"levelo://app?vid=dc96cbc9-ee2d-483b-aed2-900a26280007"},"vehicle_type_id":"4","last_reported":1746439912,"current_range_meters":0,"station_id":"ce4bh512rcd13ifvqe3g","pricing_plan_id":"cebpf4jnsgd1na2vs0mg"},{"bike_id":"f967d2b9-62f0-4036-8495-6a7ec7a27f03","system_id":"levelo_inurba_marseille","lat":43.26192,"lon":5.37451,"is_reserved":false,"is_disabled":true,"rental_uris":{"android":"levelo://app?vid=f967d2b9-62f0-4036-8495-6a7ec7a27f03","ios":"levelo://app?vid=f967d2b9-62f0-4036-8495-6a7ec7a27f03"},"vehicle_type_id":"4","last_reported":1746439912,"current_range_meters":0,"station_id":"ce4bhgp2rcd13ifvqfc0","pricing_plan_id":"cebpf4jnsgd1na2vs0mg"},{"bike_id":"d5586c93-90e0-4b44-adca-d2a09f47a491","system_id":"levelo_inurba_marseille","lat":43.23173,"lon":5.43704,"is_reserved":false,"is_disabled":true,"rental_uris":{"android":"levelo://app?vid=d5586c93-90e0-4b44-adca-d2a09f47a491","ios":"levelo://app?vid=d5586c93-90e0-4b44-adca-d2a09f47a491"},"vehicle_type_id":"4","last_reported":1746439912,"current_range_meters":0,"station_id":"ce4bhmp2rcd13ifvqgog","pricing_plan_id":"cebpf4jnsgd1na2vs0mg"},{"bike_id":"bf7aade0-1e44-4b59-9e37-5b9db1e3b94b","system_id":"levelo_inurba_marseille","lat":43.27488,"lon":5.42471,"is_reserved":false,"is_disabled":true,"rental_uris":{"android":"levelo://app?vid=bf7aade0-1e44-4b59-9e37-5b9db1e3b94b","ios":"levelo://app?vid=bf7aade0-1e44-4b59-9e37-5b9db1e3b94b"},"vehicle_type_id":"4","last_reported":1746439912,"current_range_meters":0,"station_id":"ce4bhn92rcd13ifvqgrg","pricing_plan_id":"cebpf4jnsgd1na2vs0mg"},{"bike_id":"2c528f35-5776-4454-aecf-dedc7de16440","system_id":"levelo_inurba_marseille","lat":43.2799,"lon":5.41656,"is_reserved":false,"is_disabled":true,"rental_uris":{"android":"levelo://app?vid=2c528f35-5776-4454-aecf-dedc7de16440","ios":"levelo://app?vid=2c528f35-5776-4454-aecf-dedc7de16440"},"vehicle_type_id":"4","last_reported":1746439912,"current_range_meters":0,"station_id":"ce4bho12rcd13ifvqh1g","pricing_plan_id":"cebpf4jnsgd1na2vs0mg"},{"bike_id":"dfb3396e-96f5-457c-af11-f6f27dad33e9","system_id":"levelo_inurba_marseille","lat":43.27207,"lon":5.36473,"is_reserved":false,"is_disabled":true,"rental_uris":{"android":"levelo://app?vid=dfb3396e-96f5-457c-af11-f6f27dad33e9","ios":"levelo://app?vid=dfb3396e-96f5-457c-af11-f6f27dad33e9"},"vehicle_type_id":"4","last_reported":1746439912,"current_range_meters":1600,"station_id":"","pricing_plan_id":"cebpf4jnsgd1na2vs0mg"},{"bike_id":"d826eacd-0270-4345-88ce-b8492fe8add7","system_id":"levelo_inurba_marseille","lat":43.26202,"lon":5.37448,"is_reserved":false,"is_disabled":false,"rental_uris":{"android":"levelo://app?vid=d826eacd-0270-4345-88ce-b8492fe8add7","ios":"levelo://app?vid=d826eacd-0270-4345-88ce-b8492fe8add7"},"vehicle_type_id":"4","last_reported":1746439912,"current_range_meters":2800,"station_id":"ce4bhgp2rcd13ifvqfc0","pricing_plan_id":"cebpf4jnsgd1na2vs0mg"},{"bike_id":"9fe7a08e-2a3d-470e-9697-4b3b3348b708","system_id":"levelo_inurba_marseille","lat":43.25722,"lon":5.41107,"is_reserved":false,"is_disabled":false,"rental_uris":{"android":"levelo://app?vid=9fe7a08e-2a3d-470e-9697-4b3b3348b708","ios":"levelo://app?vid=9fe7a08e-2a3d-470e-9697-4b3b3348b708"},"vehicle_type_id":"4","last_reported":1746439912,"current_range_meters":3600,"station_id":"ce4bhkp2rcd13ifvqgd0","pricing_plan_id":"cebpf4jnsgd1na2vs0mg"},{"bike_id":"4d9c785a-6a14-4f60-8bcb-eb74d56c9262","system_id":"levelo_inurba_marseille","lat":43.27122,"lon":5.42228,"is_reserved":false,"is_disabled":false,"rental_uris":{"android":"levelo://app?vid=4d9c785a-6a14-4f60-8bcb-eb74d56c9262","ios":"levelo://app?vid=4d9c785a-6a14-4f60-8bcb-eb74d56c9262"},"vehicle_type_id":"4","last_reported":1746439912,"current_range_meters":4800,"station_id":"","pricing_plan_id":"cebpf4jnsgd1na2vs0mg"},{"bike_id":"a34a6400-4bc3-494a-a736-82748c35182e","system_id":"levelo_inurba_marseille","lat":43.297083,"lon":5.376744,"is_reserved":false,"is_disabled":false,"rental_uris":{"android":"levelo://app?vid=a34a6400-4bc3-494a-a736-82748c35182e","ios":"levelo://app?vid=a34a6400-4bc3-494a-a736-82748c35182e"},"vehicle_type_id":"4","last_reported":1746439912,"current_range_meters":4800,"station_id":"ce4bgkh2rcd13ifvqbl0","pricing_plan_id":"cebpf4jnsgd1na2vs0mg"},{"bike_id":"e02a45e8-f455-46c3-a9c8-d34845858e5f","system_id":"levelo_inurba_marseille","lat":43.30953,"lon":5.39031,"is_reserved":false,"is_disabled":false,"rental_uris":{"android":"levelo://app?vid=e02a45e8-f455-46c3-a9c8-d34845858e5f","ios":"levelo://app?vid=e02a45e8-f455-46c3-a9c8-d34845858e5f"},"vehicle_type_id":"4","last_reported":1746439912,"current_range_meters":4800,"station_id":"ce4bgup2rcd13ifvqco0","pricing_plan_id":"cebpf4jnsgd1na2vs0mg"},{"bike_id":"d93575d6-6de6-450f-b616-84237a703178","system_id":"levelo_inurba_marseille","lat":43.30886,"lon":5.39653,"is_reserved":false,"is_disabled":false,"rental_uris":{"android":"levelo://app?vid=d93575d6-6de6-450f-b616-84237a703178","ios":"levelo://app?vid=d93575d6-6de6-450f-b616-84237a703178"},"vehicle_type_id":"4","last_reported":1746439912,"current_range_meters":4800,"station_id":"ce4bh012rcd13ifvqcv0","pricing_plan_id":"cebpf4jnsgd1na2vs0mg"},{"bike_id":"30e398d3-b32f-40b3-b1d8-9d99aae30a72","system_id":"levelo_inurba_marseille","lat":43.23957,"lon":5.36638,"is_reserved":false,"is_disabled":false,"rental_uris":{"android":"levelo://app?vid=30e398d3-b32f-40b3-b1d8-9d99aae30a72","ios":"levelo://app?vid=30e398d3-b32f-40b3-b1d8-9d99aae30a72"},"vehicle_type_id":"4","last_reported":1746439912,"current_range_meters":5600,"station_id":"ce4bhi12rcd13ifvqfp0","pricing_plan_id":"cebpf4jnsgd1na2vs0mg"},{"bike_id":"007bdb22-9403-4345-a70c-9245f212153d","system_id":"levelo_inurba_marseille","lat":43.28081,"lon":5.39668,"is_reserved":false,"is_disabled":false,"rental_uris":{"android":"levelo://app?vid=007bdb22-9403-4345-a70c-9245f212153d","ios":"levelo://app?vid=007bdb22-9403-4345-a70c-9245f212153d"},"vehicle_type_id":"4","last_reported":1746439912,"current_range_meters":5600,"station_id":"ce4bho12rcd13ifvqh2g","pricing_plan_id":"cebpf4jnsgd1na2vs0mg"},{"bike_id":"80850639-125d-4e44-aec5-bbb6ff07fc94","system_id":"levelo_inurba_marseille","lat":43.26033,"lon":5.37554,"is_reserved":false,"is_disabled":false,"rental_uris":{"android":"levelo://app?vid=80850639-125d-4e44-aec5-bbb6ff07fc94","ios":"levelo://app?vid=80850639-125d-4e44-aec5-bbb6ff07fc94"},"vehicle_type_id":"4","last_reported":1746439912,"current_range_meters":6000,"station_id":"ce4bhgh2rcd13ifvqfa0","pricing_plan_id":"cebpf4jnsgd1na2vs0mg"},{"bike_id":"a7cd7cac-5a32-4d14-92f2-2738618b7e69","system_id":"levelo_inurba_marseille","lat":43.25917,"lon":5.40893,"is_reserved":false,"is_disabled":false,"rental_uris":{"android":"levelo://app?vid=a7cd7cac-5a32-4d14-92f2-2738618b7e69","ios":"levelo://app?vid=a7cd7cac-5a32-4d14-92f2-2738618b7e69"},"vehicle_type_id":"4","last_reported":1746439912,"current_range_meters":6000,"station_id":"ce4bhm92rcd13ifvqglg","pricing_plan_id":"cebpf4jnsgd1na2vs0mg"},{"bike_id":"6c9949a5-08b3-4f70-8646-e2ee22338a27","system_id":"levelo_inurba_marseille","lat":43.27394,"lon":5.39039,"is_reserved":false,"is_disabled":false,"rental_uris":{"android":"levelo://app?vid=6c9949a5-08b3-4f70-8646-e2ee22338a27","ios":"levelo://app?vid=6c9949a5-08b3-4f70-8646-e2ee22338a27"},"vehicle_type_id":"4","last_reported":1746439912,"current_range_meters":6400,"station_id":"","pricing_plan_id":"cebpf4jnsgd1na2vs0mg"},{"bike_id":"5782517b-c6bf-4d47-b1e6-dfeda7223578","system_id":"levelo_inurba_marseille","lat":43.291866,"lon":5.372335,"is_reserved":false,"is_disabled":false,"rental_uris":{"android":"levelo://app?vid=5782517b-c6bf-4d47-b1e6-dfeda7223578","ios":"levelo://app?vid=5782517b-c6bf-4d47-b1e6-dfeda7223578"},"vehicle_type_id":"4","last_reported":1746439912,"current_range_meters":6400,"station_id":"ce4bha92rcd13ifvqeh0","pricing_plan_id":"cebpf4jnsgd1na2vs0mg"},{"bike_id":"404da817-f031-4950-ba8b-2104a38b67fb","system_id":"levelo_inurba_marseille","lat":43.27186,"lon":5.40996,"is_reserved":false,"is_disabled":false,"rental_uris":{"android":"levelo://app?vid=404da817-f031-4950-ba8b-2104a38b67fb","ios":"levelo://app?vid=404da817-f031-4950-ba8b-2104a38b67fb"},"vehicle_type_id":"4","last_reported":1746439912,"current_range_meters":6400,"station_id":"ce4bhl12rcd13ifvqgf0","pricing_plan_id":"cebpf4jnsgd1na2vs0mg"},{"bike_id":"9cb3676d-2097-48bf-86e5-50e46aa8eb7c","system_id":"levelo_inurba_marseille","lat":43.25927,"lon":5.409041,"is_reserved":false,"is_disabled":false,"rental_uris":{"android":"levelo://app?vid=9cb3676d-2097-48bf-86e5-50e46aa8eb7c","ios":"levelo://app?vid=9cb3676d-2097-48bf-86e5-50e46aa8eb7c"},"vehicle_type_id":"4","last_reported":1746439912,"current_range_meters":6400,"station_id":"ce4bhm92rcd13ifvqglg","pricing_plan_id":"cebpf4jnsgd1na2vs0mg"},{"bike_id":"e86fb19f-0db2-44c4-80e9-f7126a850567","system_id":"levelo_inurba_marseille","lat":43.26027,"lon":5.37553,"is_reserved":false,"is_disabled":false,"rental_uris":{"android":"levelo://app?vid=e86fb19f-0db2-44c4-80e9-f7126a850567","ios":"levelo://app?vid=e86fb19f-0db2-44c4-80e9-f7126a850567"},"vehicle_type_id":"4","last_reported":1746439912,"current_range_meters":6800,"station_id":"ce4bhgh2rcd13ifvqfa0","pricing_plan_id":"cebpf4jnsgd1na2vs0mg"},{"bike_id":"ba4caf3d-1d5b-458d-ab65-7217dd08e4e9","system_id":"levelo_inurba_marseille","lat":43.27667,"lon":5.38873,"is_reserved":false,"is_disabled":false,"rental_uris":{"android":"levelo://app?vid=ba4caf3d-1d5b-458d-ab65-7217dd08e4e9","ios":"levelo://app?vid=ba4caf3d-1d5b-458d-ab65-7217dd08e4e9"},"vehicle_type_id":"4","last_reported":1746439912,"current_range_meters":6800,"station_id":"ce4bhi12rcd13ifvqfo0","pricing_plan_id":"cebpf4jnsgd1na2vs0mg"},{"bike_id":"75faa553-e774-4912-aca9-83892d578567","system_id":"levelo_inurba_marseille","lat":43.28151,"lon":5.42652,"is_reserved":false,"is_disabled":false,"rental_uris":{"android":"levelo://app?vid=75faa553-e774-4912-aca9-83892d578567","ios":"levelo://app?vid=75faa553-e774-4912-aca9-83892d578567"},"vehicle_type_id":"4","last_reported":1746439912,"current_range_meters":6800,"station_id":"ce4bhnh2rcd13ifvqgug","pricing_plan_id":"cebpf4jnsgd1na2vs0mg"},{"bike_id":"57ce2cb0-c1ee-48da-9f69-6cd6cf2307d5","system_id":"levelo_inurba_marseille","lat":43.30397,"lon":5.42478,"is_reserved":false,"is_disabled":false,"rental_uris":{"android":"levelo://app?vid=57ce2cb0-c1ee-48da-9f69-6cd6cf2307d5","ios":"levelo://app?vid=57ce2cb0-c1ee-48da-9f69-6cd6cf2307d5"},"vehicle_type_id":"4","last_reported":1746439912,"current_range_meters":6800,"station_id":"ce4bhoh2rcd13ifvqh6g","pricing_plan_id":"cebpf4jnsgd1na2vs0mg"},{"bike_id":"5cb514da-8890-4dea-a26e-2faf3b2b093b","system_id":"levelo_inurba_marseille","lat":43.31103,"lon":5.42422,"is_reserved":false,"is_disabled":false,"rental_uris":{"android":"levelo://app?vid=5cb514da-8890-4dea-a26e-2faf3b2b093b","ios":"levelo://app?vid=5cb514da-8890-4dea-a26e-2faf3b2b093b"},"vehicle_type_id":"4","last_reported":1746439912,"current_range_meters":6800,"station_id":"ce4bhp92rcd13ifvqhag","pricing_plan_id":"cebpf4jnsgd1na2vs0mg"},{"bike_id":"d55c8237-2304-4efd-993e-dc727f0f1b6a","system_id":"levelo_inurba_marseille","lat":43.225032,"lon":5.347802,"is_reserved":false,"is_disabled":false,"rental_uris":{"android":"levelo://app?vid=d55c8237-2304-4efd-993e-dc727f0f1b6a","ios":"levelo://app?vid=d55c8237-2304-4efd-993e-dc727f0f1b6a"},"vehicle_type_id":"4","last_reported":1746439912,"current_range_meters":6800,"station_id":"st_cvj5dfep6f1abm77gieg","pricing_plan_id":"cebpf4jnsgd1na2vs0mg"},{"bike_id":"aa38edf3-39cb-4f0b-8879-e56678138e7d","system_id":"levelo_inurba_marseille","lat":43.31275,"lon":5.36783,"is_reserved":false,"is_disabled":false,"rental_uris":{"android":"levelo://app?vid=aa38edf3-39cb-4f0b-8879-e56678138e7d","ios":"levelo://app?vid=aa38edf3-39cb-4f0b-8879-e56678138e7d"},"vehicle_type_id":"4","last_reported":1746439912,"current_range_meters":7200,"station_id":"","pricing_plan_id":"cebpf4jnsgd1na2vs0mg"},{"bike_id":"e60db072-856d-4606-bce8-e7ffc0fc1291","system_id":"levelo_inurba_marseille","lat":43.27203,"lon":5.39175,"is_reserved":false,"is_disabled":false,"rental_uris":{"android":"levelo://app?vid=e60db072-856d-4606-bce8-e7ffc0fc1291","ios":"levelo://app?vid=e60db072-856d-4606-bce8-e7ffc0fc1291"},"vehicle_type_id":"4","last_reported":1746439912,"current_range_meters":7200,"station_id":"ce4bhhp2rcd13ifvqfm0","pricing_plan_id":"cebpf4jnsgd1na2vs0mg"},{"bike_id":"5c907b2a-58db-4a79-8f41-09019fa3dcd0","system_id":"levelo_inurba_marseille","lat":43.2707,"lon":5.42284,"is_reserved":false,"is_disabled":false,"rental_uris":{"android":"levelo://app?vid=5c907b2a-58db-4a79-8f41-09019fa3dcd0","ios":"levelo://app?vid=5c907b2a-58db-4a79-8f41-09019fa3dcd0"},"vehicle_type_id":"4","last_reported":1746439912,"current_range_meters":7200,"station_id":"ce4bhk92rcd13ifvqgb0","pricing_plan_id":"cebpf4jnsgd1na2vs0mg"},{"bike_id":"aedf206f-89f3-4f30-9da6-56fb7ff8915b","system_id":"levelo_inurba_marseille","lat":43.28096,"lon":5.40394,"is_reserved":false,"is_disabled":false,"rental_uris":{"android":"levelo://app?vid=aedf206f-89f3-4f30-9da6-56fb7ff8915b","ios":"levelo://app?vid=aedf206f-89f3-4f30-9da6-56fb7ff8915b"},"vehicle_type_id":"4","last_reported":1746439912,"current_range_meters":8000,"station_id":"","pricing_plan_id":"cebpf4jnsgd1na2vs0mg"},{"bike_id":"cc8de86a-907e-48f5-a49d-faf20dcdc19a","system_id":"levelo_inurba_marseille","lat":43.260293,"lon":5.375462,"is_reserved":false,"is_disabled":false,"rental_uris":{"android":"levelo://app?vid=cc8de86a-907e-48f5-a49d-faf20dcdc19a","ios":"levelo://app?vid=cc8de86a-907e-48f5-a49d-faf20dcdc19a"},"vehicle_type_id":"4","last_reported":1746439912,"current_range_meters":8000,"station_id":"ce4bhgh2rcd13ifvqfa0","pricing_plan_id":"cebpf4jnsgd1na2vs0mg"},{"bike_id":"fa981afb-0854-461c-b8c6-e1d3a778170f","system_id":"levelo_inurba_marseille","lat":43.259213,"lon":5.408973,"is_reserved":false,"is_disabled":false,"rental_uris":{"android":"levelo://app?vid=fa981afb-0854-461c-b8c6-e1d3a778170f","ios":"levelo://app?vid=fa981afb-0854-461c-b8c6-e1d3a778170f"},"vehicle_type_id":"4","last_reported":1746439912,"current_range_meters":8000,"station_id":"ce4bhm92rcd13ifvqglg","pricing_plan_id":"cebpf4jnsgd1na2vs0mg"},{"bike_id":"917d3dfe-fe05-4d62-b132-42ecb62bc09e","system_id":"levelo_inurba_marseille","lat":43.30373,"lon":5.42488,"is_reserved":false,"is_disabled":false,"rental_uris":{"android":"levelo://app?vid=917d3dfe-fe05-4d62-b132-42ecb62bc09e","ios":"levelo://app?vid=917d3dfe-fe05-4d62-b132-42ecb62bc09e"},"vehicle_type_id":"4","last_reported":1746439912,"current_range_meters":8000,"station_id":"ce4bhoh2rcd13ifvqh6g","pricing_plan_id":"cebpf4jnsgd1na2vs0mg"},{"bike_id":"bd278318-d5f1-4ccf-9ac5-893e7bd91ba3","system_id":"levelo_inurba_marseille","lat":43.323658,"lon":5.367626,"is_reserved":false,"is_disabled":false,"rental_uris":{"android":"levelo://app?vid=bd278318-d5f1-4ccf-9ac5-893e7bd91ba3","ios":"levelo://app?vid=bd278318-d5f1-4ccf-9ac5-893e7bd91ba3"},"vehicle_type_id":"4","last_reported":1746439912,"current_range_meters":8000,"station_id":"ce4bhsh2rcd13ifvqi2g","pricing_plan_id":"cebpf4jnsgd1na2vs0mg"},{"bike_id":"ec93380d-7b90-4f55-954c-15196220a862","system_id":"levelo_inurba_marseille","lat":43.30538,"lon":5.36532,"is_reserved":false,"is_disabled":false,"rental_uris":{"android":"levelo://app?vid=ec93380d-7b90-4f55-954c-15196220a862","ios":"levelo://app?vid=ec93380d-7b90-4f55-954c-15196220a862"},"vehicle_type_id":"4","last_reported":1746439912,"current_range_meters":8400,"station_id":"ce4bgs12rcd13ifvqcag","pricing_plan_id":"cebpf4jnsgd1na2vs0mg"},{"bike_id":"0595dd05-e59a-4351-93a8-fd1bde3b96f1","system_id":"levelo_inurba_marseille","lat":43.255,"lon":5.37652,"is_reserved":false,"is_disabled":false,"rental_uris":{"android":"levelo://app?vid=0595dd05-e59a-4351-93a8-fd1bde3b96f1","ios":"levelo://app?vid=0595dd05-e59a-4351-93a8-fd1bde3b96f1"},"vehicle_type_id":"4","last_reported":1746439912,"current_range_meters":8400,"station_id":"ce4bhh12rcd13ifvqff0","pricing_plan_id":"cebpf4jnsgd1na2vs0mg"},{"bike_id":"77e5fc0c-8247-4eae-976e-b65c5c479c47","system_id":"levelo_inurba_marseille","lat":43.24383,"lon":5.37051,"is_reserved":false,"is_disabled":false,"rental_uris":{"android":"levelo://app?vid=77e5fc0c-8247-4eae-976e-b65c5c479c47","ios":"levelo://app?vid=77e5fc0c-8247-4eae-976e-b65c5c479c47"},"vehicle_type_id":"4","last_reported":1746439912,"current_range_meters":8400,"station_id":"ce4bhhh2rcd13ifvqfk0","pricing_plan_id":"cebpf4jnsgd1na2vs0mg"},{"bike_id":"94a84b75-7db9-4588-b88e-56c0f2ec4d00","system_id":"levelo_inurba_marseille","lat":43.26236,"lon":5.4045,"is_reserved":false,"is_disabled":false,"rental_uris":{"android":"levelo://app?vid=94a84b75-7db9-4588-b88e-56c0f2ec4d00","ios":"levelo://app?vid=94a84b75-7db9-4588-b88e-56c0f2ec4d00"},"vehicle_type_id":"4","last_reported":1746439912,"current_range_meters":8400,"station_id":"ce4bhmh2rcd13ifvqgmg","pricing_plan_id":"cebpf4jnsgd1na2vs0mg"},{"bike_id":"f28f6892-6b8e-4bb4-bd97-24bcbf7f6f01","system_id":"levelo_inurba_marseille","lat":43.23184,"lon":5.39996,"is_reserved":false,"is_disabled":false,"rental_uris":{"android":"levelo://app?vid=f28f6892-6b8e-4bb4-bd97-24bcbf7f6f01","ios":"levelo://app?vid=f28f6892-6b8e-4bb4-bd97-24bcbf7f6f01"},"vehicle_type_id":"4","last_reported":1746439912,"current_range_meters":8800,"station_id":"ce4bhn12rcd13ifvqgqg","pricing_plan_id":"cebpf4jnsgd1na2vs0mg"},{"bike_id":"7b35d8cf-e756-4027-9a14-91a7d72886f3","system_id":"levelo_inurba_marseille","lat":43.26028,"lon":5.37552,"is_reserved":false,"is_disabled":false,"rental_uris":{"android":"levelo://app?vid=7b35d8cf-e756-4027-9a14-91a7d72886f3","ios":"levelo://app?vid=7b35d8cf-e756-4027-9a14-91a7d72886f3"},"vehicle_type_id":"4","last_reported":1746439912,"current_range_meters":9200,"station_id":"","pricing_plan_id":"cebpf4jnsgd1na2vs0mg"},{"bike_id":"6c267926-d3ae-465b-ab08-7fd28ac529e0","system_id":"levelo_inurba_marseille","lat":43.24157,"lon":5.39761,"is_reserved":false,"is_disabled":false,"rental_uris":{"android":"levelo://app?vid=6c267926-d3ae-465b-ab08-7fd28ac529e0","ios":"levelo://app?vid=6c267926-d3ae-465b-ab08-7fd28ac529e0"},"vehicle_type_id":"4","last_reported":1746439912,"current_range_meters":9200,"station_id":"ce4bhn12rcd13ifvqgpg","pricing_plan_id":"cebpf4jnsgd1na2vs0mg"},{"bike_id":"10fa59ce-c249-4991-8845-0acc789b9453","system_id":"levelo_inurba_marseille","lat":43.241726,"lon":5.397277,"is_reserved":false,"is_disabled":false,"rental_uris":{"android":"levelo://app?vid=10fa59ce-c249-4991-8845-0acc789b9453","ios":"levelo://app?vid=10fa59ce-c249-4991-8845-0acc789b9453"},"vehicle_type_id":"4","last_reported":1746439912,"current_range_meters":9200,"station_id":"ce4bhn12rcd13ifvqgpg","pricing_plan_id":"cebpf4jnsgd1na2vs0mg"},{"bike_id":"b8ebe123-18b6-4e5d-addb-12ec10c089ac","system_id":"levelo_inurba_marseille","lat":43.32116,"lon":5.36748,"is_reserved":false,"is_disabled":false,"rental_uris":{"android":"levelo://app?vid=b8ebe123-18b6-4e5d-addb-12ec10c089ac","ios":"levelo://app?vid=b8ebe123-18b6-4e5d-addb-12ec10c089ac"},"vehicle_type_id":"4","last_reported":1746439912,"current_range_meters":9200,"station_id":"ce4bhrh2rcd13ifvqhug","pricing_plan_id":"cebpf4jnsgd1na2vs0mg"},{"bike_id":"f2ff001c-f5d9-4373-8a44-4374991abddc","system_id":"levelo_inurba_marseille","lat":43.31099,"lon":5.40251,"is_reserved":false,"is_disabled":false,"rental_uris":{"android":"levelo://app?vid=f2ff001c-f5d9-4373-8a44-4374991abddc","ios":"levelo://app?vid=f2ff001c-f5d9-4373-8a44-4374991abddc"},"vehicle_type_id":"4","last_reported":1746439912,"current_range_meters":9600,"station_id":"","pricing_plan_id":"cebpf4jnsgd1na2vs0mg"},{"bike_id":"db892ad2-45e2-41ec-882d-297b4d83fd53","system_id":"levelo_inurba_marseille","lat":43.29307,"lon":5.3746,"is_reserved":false,"is_disabled":false,"rental_uris":{"android":"levelo://app?vid=db892ad2-45e2-41ec-882d-297b4d83fd53","ios":"levelo://app?vid=db892ad2-45e2-41ec-882d-297b4d83fd53"},"vehicle_type_id":"4","last_reported":1746439912,"current_range_meters":9600,"station_id":"ce4bgi12rcd13ifvqb70","pricing_plan_id":"cebpf4jnsgd1na2vs0mg"},{"bike_id":"97688b4c-0ec9-48ac-8764-d0c79da2c4ff","system_id":"levelo_inurba_marseille","lat":43.25815,"lon":5.39433,"is_reserved":false,"is_disabled":false,"rental_uris":{"android":"levelo://app?vid=97688b4c-0ec9-48ac-8764-d0c79da2c4ff","ios":"levelo://app?vid=97688b4c-0ec9-48ac-8764-d0c79da2c4ff"},"vehicle_type_id":"4","last_reported":1746439912,"current_range_meters":9600,"station_id":"ce4bhip2rcd13ifvqft0","pricing_plan_id":"cebpf4jnsgd1na2vs0mg"},{"bike_id":"cec02868-da4c-46a9-bbda-15dc1c82835b","system_id":"levelo_inurba_marseille","lat":43.23159,"lon":5.43738,"is_reserved":false,"is_disabled":false,"rental_uris":{"android":"levelo://app?vid=cec02868-da4c-46a9-bbda-15dc1c82835b","ios":"levelo://app?vid=cec02868-da4c-46a9-bbda-15dc1c82835b"},"vehicle_type_id":"4","last_reported":1746439912,"current_range_meters":9600,"station_id":"ce4bhmp2rcd13ifvqgog","pricing_plan_id":"cebpf4jnsgd1na2vs0mg"},{"bike_id":"6743bbfc-2131-4816-a112-bd5081c57efd","system_id":"levelo_inurba_marseille","lat":43.29972,"lon":5.37179,"is_reserved":false,"is_disabled":false,"rental_uris":{"android":"levelo://app?vid=6743bbfc-2131-4816-a112-bd5081c57efd","ios":"levelo://app?vid=6743bbfc-2131-4816-a112-bd5081c57efd"},"vehicle_type_id":"4","last_reported":1746439912,"current_range_meters":10000,"station_id":"ce4bgr92rcd13ifvqc7g","pricing_plan_id":"cebpf4jnsgd1na2vs0mg"},{"bike_id":"b8abb655-4bb8-43f1-b792-12585c92d8d1","system_id":"levelo_inurba_marseille","lat":43.24214,"lon":5.39744,"is_reserved":false,"is_disabled":false,"rental_uris":{"android":"levelo://app?vid=b8abb655-4bb8-43f1-b792-12585c92d8d1","ios":"levelo://app?vid=b8abb655-4bb8-43f1-b792-12585c92d8d1"},"vehicle_type_id":"4","last_reported":1746439912,"current_range_meters":10000,"station_id":"ce4bhn12rcd13ifvqgpg","pricing_plan_id":"cebpf4jnsgd1na2vs0mg"},{"bike_id":"2a0baa54-a4a1-49ca-a07b-b1778b885a9f","system_id":"levelo_inurba_marseille","lat":43.24171,"lon":5.39743,"is_reserved":false,"is_disabled":false,"rental_uris":{"android":"levelo://app?vid=2a0baa54-a4a1-49ca-a07b-b1778b885a9f","ios":"levelo://app?vid=2a0baa54-a4a1-49ca-a07b-b1778b885a9f"},"vehicle_type_id":"4","last_reported":1746439912,"current_range_meters":10000,"station_id":"ce4bhn12rcd13ifvqgpg","pricing_plan_id":"cebpf4jnsgd1na2vs0mg"},{"bike_id":"43f220ab-0408-46b3-abe5-60437ce3bc1e","system_id":"levelo_inurba_marseille","lat":43.231907,"lon":5.355659,"is_reserved":false,"is_disabled":false,"rental_uris":{"android":"levelo://app?vid=43f220ab-0408-46b3-abe5-60437ce3bc1e","ios":"levelo://app?vid=43f220ab-0408-46b3-abe5-60437ce3bc1e"},"vehicle_type_id":"4","last_reported":1746439912,"current_range_meters":10000,"station_id":"ce4bhu92rcd13ifvqi70","pricing_plan_id":"cebpf4jnsgd1na2vs0mg"},{"bike_id":"d9a06e39-0566-4a7a-b04e-4b2137064126","system_id":"levelo_inurba_marseille","lat":43.26037,"lon":5.37557,"is_reserved":false,"is_disabled":false,"rental_uris":{"android":"levelo://app?vid=d9a06e39-0566-4a7a-b04e-4b2137064126","ios":"levelo://app?vid=d9a06e39-0566-4a7a-b04e-4b2137064126"},"vehicle_type_id":"4","last_reported":1746439912,"current_range_meters":10800,"station_id":"ce4bhgh2rcd13ifvqfa0","pricing_plan_id":"cebpf4jnsgd1na2vs0mg"},{"bike_id":"8be4158a-795b-49e0-a470-93ebc00a6d2c","system_id":"levelo_inurba_marseille","lat":43.26493,"lon":5.39555,"is_reserved":false,"is_disabled":false,"rental_uris":{"android":"levelo://app?vid=8be4158a-795b-49e0-a470-93ebc00a6d2c","ios":"levelo://app?vid=8be4158a-795b-49e0-a470-93ebc00a6d2c"},"vehicle_type_id":"4","last_reported":1746439912,"current_range_meters":10800,"station_id":"ce4bhi12rcd13ifvqfq0","pricing_plan_id":"cebpf4jnsgd1na2vs0mg"},{"bike_id":"94492518-1cff-4f05-9acf-19ac57724956","system_id":"levelo_inurba_marseille","lat":43.23148,"lon":5.43715,"is_reserved":false,"is_disabled":false,"rental_uris":{"android":"levelo://app?vid=94492518-1cff-4f05-9acf-19ac57724956","ios":"levelo://app?vid=94492518-1cff-4f05-9acf-19ac57724956"},"vehicle_type_id":"4","last_reported":1746439912,"current_range_meters":10800,"station_id":"ce4bhmp2rcd13ifvqgog","pricing_plan_id":"cebpf4jnsgd1na2vs0mg"},{"bike_id":"a64c34d8-72e2-4f8f-919b-2e2b4805437e","system_id":"levelo_inurba_marseille","lat":43.33732,"lon":5.39182,"is_reserved":false,"is_disabled":false,"rental_uris":{"android":"levelo://app?vid=a64c34d8-72e2-4f8f-919b-2e2b4805437e","ios":"levelo://app?vid=a64c34d8-72e2-4f8f-919b-2e2b4805437e"},"vehicle_type_id":"4","last_reported":1746439912,"current_range_meters":10800,"station_id":"ce4bhr92rcd13ifvqhsg","pricing_plan_id":"cebpf4jnsgd1na2vs0mg"},{"bike_id":"eeab379f-fc95-4807-857b-29c3deee31f9","system_id":"levelo_inurba_marseille","lat":43.25592,"lon":5.38237,"is_reserved":false,"is_disabled":false,"rental_uris":{"android":"levelo://app?vid=eeab379f-fc95-4807-857b-29c3deee31f9","ios":"levelo://app?vid=eeab379f-fc95-4807-857b-29c3deee31f9"},"vehicle_type_id":"4","last_reported":1746439912,"current_range_meters":11200,"station_id":"ce4bhih2rcd13ifvqfs0","pricing_plan_id":"cebpf4jnsgd1na2vs0mg"},{"bike_id":"578732df-51ae-47a2-8d9a-a3a489ba150f","system_id":"levelo_inurba_marseille","lat":43.29542,"lon":5.42291,"is_reserved":false,"is_disabled":false,"rental_uris":{"android":"levelo://app?vid=578732df-51ae-47a2-8d9a-a3a489ba150f","ios":"levelo://app?vid=578732df-51ae-47a2-8d9a-a3a489ba150f"},"vehicle_type_id":"4","last_reported":1746439912,"current_range_meters":11200,"station_id":"ce4bhph2rcd13ifvqhdg","pricing_plan_id":"cebpf4jnsgd1na2vs0mg"},{"bike_id":"a95e69fd-9a72-4f4a-bc63-f47c4519d8f3","system_id":"levelo_inurba_marseille","lat":43.314507,"lon":5.373341,"is_reserved":false,"is_disabled":false,"rental_uris":{"android":"levelo://app?vid=a95e69fd-9a72-4f4a-bc63-f47c4519d8f3","ios":"levelo://app?vid=a95e69fd-9a72-4f4a-bc63-f47c4519d8f3"},"vehicle_type_id":"4","last_reported":1746439912,"current_range_meters":12000,"station_id":"","pricing_plan_id":"cebpf4jnsgd1na2vs0mg"},{"bike_id":"1888a6ef-4e5f-4115-9bde-e2fe57427fa9","system_id":"levelo_inurba_marseille","lat":43.24181,"lon":5.39735,"is_reserved":false,"is_disabled":false,"rental_uris":{"android":"levelo://app?vid=1888a6ef-4e5f-4115-9bde-e2fe57427fa9","ios":"levelo://app?vid=1888a6ef-4e5f-4115-9bde-e2fe57427fa9"},"vehicle_type_id":"4","last_reported":1746439912,"current_range_meters":12000,"station_id":"ce4bhn12rcd13ifvqgpg","pricing_plan_id":"cebpf4jnsgd1na2vs0mg"},{"bike_id":"d342a70b-0490-4dea-b796-15cb5536d152","system_id":"levelo_inurba_marseille","lat":43.32113,"lon":5.36769,"is_reserved":false,"is_disabled":false,"rental_uris":{"android":"levelo://app?vid=d342a70b-0490-4dea-b796-15cb5536d152","ios":"levelo://app?vid=d342a70b-0490-4dea-b796-15cb5536d152"},"vehicle_type_id":"4","last_reported":1746439912,"current_range_meters":12000,"station_id":"ce4bhrh2rcd13ifvqhug","pricing_plan_id":"cebpf4jnsgd1na2vs0mg"},{"bike_id":"54ea42e3-e47b-4951-8d44-334bd2d240a0","system_id":"levelo_inurba_marseille","lat":43.29036,"lon":5.37571,"is_reserved":false,"is_disabled":false,"rental_uris":{"android":"levelo://app?vid=54ea42e3-e47b-4951-8d44-334bd2d240a0","ios":"levelo://app?vid=54ea42e3-e47b-4951-8d44-334bd2d240a0"},"vehicle_type_id":"4","last_reported":1746439912,"current_range_meters":12800,"station_id":"ce4bh692rcd13ifvqe90","pricing_plan_id":"cebpf4jnsgd1na2vs0mg"},{"bike_id":"87261a79-d7a8-46e5-a4de-e6a7271583c3","system_id":"levelo_inurba_marseille","lat":43.24558,"lon":5.39531,"is_reserved":false,"is_disabled":false,"rental_uris":{"android":"levelo://app?vid=87261a79-d7a8-46e5-a4de-e6a7271583c3","ios":"levelo://app?vid=87261a79-d7a8-46e5-a4de-e6a7271583c3"},"vehicle_type_id":"4","last_reported":1746439912,"current_range_meters":12800,"station_id":"ce4bhlp2rcd13ifvqgjg","pricing_plan_id":"cebpf4jnsgd1na2vs0mg"},{"bike_id":"cf495c21-5728-473e-8168-b87d5cd5b334","system_id":"levelo_inurba_marseille","lat":43.29898,"lon":5.43664,"is_reserved":false,"is_disabled":false,"rental_uris":{"android":"levelo://app?vid=cf495c21-5728-473e-8168-b87d5cd5b334","ios":"levelo://app?vid=cf495c21-5728-473e-8168-b87d5cd5b334"},"vehicle_type_id":"4","last_reported":1746439912,"current_range_meters":12800,"station_id":"ce4bhpp2rcd13ifvqhfg","pricing_plan_id":"cebpf4jnsgd1na2vs0mg"},{"bike_id":"1d6f2faa-09df-463b-928e-7fca12150838","system_id":"levelo_inurba_marseille","lat":43.279,"lon":5.38021,"is_reserved":false,"is_disabled":false,"rental_uris":{"android":"levelo://app?vid=1d6f2faa-09df-463b-928e-7fca12150838","ios":"levelo://app?vid=1d6f2faa-09df-463b-928e-7fca12150838"},"vehicle_type_id":"4","last_reported":1746439912,"current_range_meters":13600,"station_id":"ce4bhf92rcd13ifvqf50","pricing_plan_id":"cebpf4jnsgd1na2vs0mg"},{"bike_id":"56f4e078-c9d6-4e29-a0cc-a3afe30e4612","system_id":"levelo_inurba_marseille","lat":43.32101,"lon":5.36779,"is_reserved":false,"is_disabled":false,"rental_uris":{"android":"levelo://app?vid=56f4e078-c9d6-4e29-a0cc-a3afe30e4612","ios":"levelo://app?vid=56f4e078-c9d6-4e29-a0cc-a3afe30e4612"},"vehicle_type_id":"4","last_reported":1746439912,"current_range_meters":13600,"station_id":"ce4bhrh2rcd13ifvqhug","pricing_plan_id":"cebpf4jnsgd1na2vs0mg"},{"bike_id":"3ff1331f-d2b9-4db6-9af0-17b5a04341a5","system_id":"levelo_inurba_marseille","lat":43.24347,"lon":5.37996,"is_reserved":false,"is_disabled":false,"rental_uris":{"android":"levelo://app?vid=3ff1331f-d2b9-4db6-9af0-17b5a04341a5","ios":"levelo://app?vid=3ff1331f-d2b9-4db6-9af0-17b5a04341a5"},"vehicle_type_id":"4","last_reported":1746439912,"current_range_meters":14000,"station_id":"","pricing_plan_id":"cebpf4jnsgd1na2vs0mg"},{"bike_id":"dbce784b-1646-4596-ba51-2cc683d527d4","system_id":"levelo_inurba_marseille","lat":43.31357,"lon":5.36732,"is_reserved":false,"is_disabled":false,"rental_uris":{"android":"levelo://app?vid=dbce784b-1646-4596-ba51-2cc683d527d4","ios":"levelo://app?vid=dbce784b-1646-4596-ba51-2cc683d527d4"},"vehicle_type_id":"4","last_reported":1746439912,"current_range_meters":14000,"station_id":"ce4bgr92rcd13ifvqc6g","pricing_plan_id":"cebpf4jnsgd1na2vs0mg"},{"bike_id":"b3cbb21e-793f-478c-9965-8205d52774c6","system_id":"levelo_inurba_marseille","lat":43.30737,"lon":5.42458,"is_reserved":false,"is_disabled":false,"rental_uris":{"android":"levelo://app?vid=b3cbb21e-793f-478c-9965-8205d52774c6","ios":"levelo://app?vid=b3cbb21e-793f-478c-9965-8205d52774c6"},"vehicle_type_id":"4","last_reported":1746439912,"current_range_meters":14000,"station_id":"st_cvj6ca6bvosntc0bfgr0","pricing_plan_id":"cebpf4jnsgd1na2vs0mg"},{"bike_id":"a7393548-1ca4-426f-bec8-e094325f844e","system_id":"levelo_inurba_marseille","lat":43.2627,"lon":5.37452,"is_reserved":false,"is_disabled":false,"rental_uris":{"android":"levelo://app?vid=a7393548-1ca4-426f-bec8-e094325f844e","ios":"levelo://app?vid=a7393548-1ca4-426f-bec8-e094325f844e"},"vehicle_type_id":"4","last_reported":1746439912,"current_range_meters":14400,"station_id":"","pricing_plan_id":"cebpf4jnsgd1na2vs0mg"},{"bike_id":"2a372080-4af1-4510-ba95-205381a85755","system_id":"levelo_inurba_marseille","lat":43.29608,"lon":5.37722,"is_reserved":false,"is_disabled":false,"rental_uris":{"android":"levelo://app?vid=2a372080-4af1-4510-ba95-205381a85755","ios":"levelo://app?vid=2a372080-4af1-4510-ba95-205381a85755"},"vehicle_type_id":"4","last_reported":1746439912,"current_range_meters":14400,"station_id":"ce4bgi92rcd13ifvqb90","pricing_plan_id":"cebpf4jnsgd1na2vs0mg"},{"bike_id":"f29364d2-fe4b-42cc-b096-b68568b9172a","system_id":"levelo_inurba_marseille","lat":43.30948,"lon":5.39036,"is_reserved":false,"is_disabled":false,"rental_uris":{"android":"levelo://app?vid=f29364d2-fe4b-42cc-b096-b68568b9172a","ios":"levelo://app?vid=f29364d2-fe4b-42cc-b096-b68568b9172a"},"vehicle_type_id":"4","last_reported":1746439912,"current_range_meters":14400,"station_id":"ce4bgup2rcd13ifvqco0","pricing_plan_id":"cebpf4jnsgd1na2vs0mg"},{"bike_id":"5ef30cd7-b738-4b7d-8f52-930dccec5a8c","system_id":"levelo_inurba_marseille","lat":43.29169,"lon":5.37165,"is_reserved":false,"is_disabled":false,"rental_uris":{"android":"levelo://app?vid=5ef30cd7-b738-4b7d-8f52-930dccec5a8c","ios":"levelo://app?vid=5ef30cd7-b738-4b7d-8f52-930dccec5a8c"},"vehicle_type_id":"4","last_reported":1746439912,"current_range_meters":14400,"station_id":"ce4bha92rcd13ifvqeh0","pricing_plan_id":"cebpf4jnsgd1na2vs0mg"},{"bike_id":"d252a272-7b85-44ee-b117-a17b072d1a91","system_id":"levelo_inurba_marseille","lat":43.21758,"lon":5.34607,"is_reserved":false,"is_disabled":false,"rental_uris":{"android":"levelo://app?vid=d252a272-7b85-44ee-b117-a17b072d1a91","ios":"levelo://app?vid=d252a272-7b85-44ee-b117-a17b072d1a91"},"vehicle_type_id":"4","last_reported":1746439912,"current_range_meters":14400,"station_id":"st_cvj6r9ubvosntc0bgbag","pricing_plan_id":"cebpf4jnsgd1na2vs0mg"},{"bike_id":"c934e342-8967-47c6-95e6-c9ef3ee530b5","system_id":"levelo_inurba_marseille","lat":43.21189,"lon":5.35077,"is_reserved":false,"is_disabled":false,"rental_uris":{"android":"levelo://app?vid=c934e342-8967-47c6-95e6-c9ef3ee530b5","ios":"levelo://app?vid=c934e342-8967-47c6-95e6-c9ef3ee530b5"},"vehicle_type_id":"4","last_reported":1746439912,"current_range_meters":14400,"station_id":"st_cvj6sg6p6f1abm77japg","pricing_plan_id":"cebpf4jnsgd1na2vs0mg"},{"bike_id":"88e508bb-972f-46db-8f87-41095ce6f295","system_id":"levelo_inurba_marseille","lat":43.295293,"lon":5.385373,"is_reserved":false,"is_disabled":false,"rental_uris":{"android":"levelo://app?vid=88e508bb-972f-46db-8f87-41095ce6f295","ios":"levelo://app?vid=88e508bb-972f-46db-8f87-41095ce6f295"},"vehicle_type_id":"4","last_reported":1746439912,"current_range_meters":14800,"station_id":"ce4bgih2rcd13ifvqba0","pricing_plan_id":"cebpf4jnsgd1na2vs0mg"},{"bike_id":"f41b8ceb-4664-4bfe-ae94-aebf307f8e10","system_id":"levelo_inurba_marseille","lat":43.29281,"lon":5.36843,"is_reserved":false,"is_disabled":false,"rental_uris":{"android":"levelo://app?vid=f41b8ceb-4664-4bfe-ae94-aebf307f8e10","ios":"levelo://app?vid=f41b8ceb-4664-4bfe-ae94-aebf307f8e10"},"vehicle_type_id":"4","last_reported":1746439912,"current_range_meters":14800,"station_id":"ce4bhbp2rcd13ifvqesg","pricing_plan_id":"cebpf4jnsgd1na2vs0mg"},{"bike_id":"89c1c22e-4deb-4a12-b25d-9d0f09a1f79b","system_id":"levelo_inurba_marseille","lat":43.21767,"lon":5.34607,"is_reserved":false,"is_disabled":false,"rental_uris":{"android":"levelo://app?vid=89c1c22e-4deb-4a12-b25d-9d0f09a1f79b","ios":"levelo://app?vid=89c1c22e-4deb-4a12-b25d-9d0f09a1f79b"},"vehicle_type_id":"4","last_reported":1746439912,"current_range_meters":14800,"station_id":"st_cvj6r9ubvosntc0bgbag","pricing_plan_id":"cebpf4jnsgd1na2vs0mg"},{"bike_id":"366afdc8-2736-4264-abc7-961d164dfa3a","system_id":"levelo_inurba_marseille","lat":43.27028,"lon":5.39893,"is_reserved":false,"is_disabled":false,"rental_uris":{"android":"levelo://app?vid=366afdc8-2736-4264-abc7-961d164dfa3a","ios":"levelo://app?vid=366afdc8-2736-4264-abc7-961d164dfa3a"},"vehicle_type_id":"4","last_reported":1746439912,"current_range_meters":15200,"station_id":"","pricing_plan_id":"cebpf4jnsgd1na2vs0mg"},{"bike_id":"574f9534-6b0b-43b3-a942-c6870095631b","system_id":"levelo_inurba_marseille","lat":43.28603,"lon":5.37063,"is_reserved":false,"is_disabled":false,"rental_uris":{"android":"levelo://app?vid=574f9534-6b0b-43b3-a942-c6870095631b","ios":"levelo://app?vid=574f9534-6b0b-43b3-a942-c6870095631b"},"vehicle_type_id":"4","last_reported":1746439912,"current_range_meters":16000,"station_id":"","pricing_plan_id":"cebpf4jnsgd1na2vs0mg"},{"bike_id":"0e42e81c-9a07-4a97-bdd7-e94210c258de","system_id":"levelo_inurba_marseille","lat":43.245825,"lon":5.404969,"is_reserved":false,"is_disabled":false,"rental_uris":{"android":"levelo://app?vid=0e42e81c-9a07-4a97-bdd7-e94210c258de","ios":"levelo://app?vid=0e42e81c-9a07-4a97-bdd7-e94210c258de"},"vehicle_type_id":"4","last_reported":1746439912,"current_range_meters":16000,"station_id":"","pricing_plan_id":"cebpf4jnsgd1na2vs0mg"},{"bike_id":"f6990bbf-7200-4595-9d3c-805bae17a99e","system_id":"levelo_inurba_marseille","lat":43.22523,"lon":5.34785,"is_reserved":false,"is_disabled":false,"rental_uris":{"android":"levelo://app?vid=f6990bbf-7200-4595-9d3c-805bae17a99e","ios":"levelo://app?vid=f6990bbf-7200-4595-9d3c-805bae17a99e"},"vehicle_type_id":"4","last_reported":1746439912,"current_range_meters":16000,"station_id":"","pricing_plan_id":"cebpf4jnsgd1na2vs0mg"},{"bike_id":"589e58db-1f5d-4905-ae7b-daecb3341e05","system_id":"levelo_inurba_marseille","lat":43.25503,"lon":5.37652,"is_reserved":false,"is_disabled":false,"rental_uris":{"android":"levelo://app?vid=589e58db-1f5d-4905-ae7b-daecb3341e05","ios":"levelo://app?vid=589e58db-1f5d-4905-ae7b-daecb3341e05"},"vehicle_type_id":"4","last_reported":1746439912,"current_range_meters":16000,"station_id":"ce4bhh12rcd13ifvqff0","pricing_plan_id":"cebpf4jnsgd1na2vs0mg"},{"bike_id":"36839d2f-f3fb-4ae5-87d2-3bdb958b3981","system_id":"levelo_inurba_marseille","lat":43.26246,"lon":5.37919,"is_reserved":false,"is_disabled":false,"rental_uris":{"android":"levelo://app?vid=36839d2f-f3fb-4ae5-87d2-3bdb958b3981","ios":"levelo://app?vid=36839d2f-f3fb-4ae5-87d2-3bdb958b3981"},"vehicle_type_id":"4","last_reported":1746439912,"current_range_meters":16000,"station_id":"ce4bhjp2rcd13ifvqg90","pricing_plan_id":"cebpf4jnsgd1na2vs0mg"},{"bike_id":"1dab89a1-5412-4cee-a8ad-8b167b5a3f96","system_id":"levelo_inurba_marseille","lat":43.2417,"lon":5.39735,"is_reserved":false,"is_disabled":false,"rental_uris":{"android":"levelo://app?vid=1dab89a1-5412-4cee-a8ad-8b167b5a3f96","ios":"levelo://app?vid=1dab89a1-5412-4cee-a8ad-8b167b5a3f96"},"vehicle_type_id":"4","last_reported":1746439912,"current_range_meters":16000,"station_id":"ce4bhn12rcd13ifvqgpg","pricing_plan_id":"cebpf4jnsgd1na2vs0mg"},{"bike_id":"9f8616dc-073a-4627-9f09-6cf552722c4a","system_id":"levelo_inurba_marseille","lat":43.24079,"lon":5.37759,"is_reserved":false,"is_disabled":false,"rental_uris":{"android":"levelo://app?vid=9f8616dc-073a-4627-9f09-6cf552722c4a","ios":"levelo://app?vid=9f8616dc-073a-4627-9f09-6cf552722c4a"},"vehicle_type_id":"4","last_reported":1746439912,"current_range_meters":16000,"station_id":"ce4bhnp2rcd13ifvqgvg","pricing_plan_id":"cebpf4jnsgd1na2vs0mg"},{"bike_id":"db0e0ddb-0230-4f44-ba3e-6dcb98b952cd","system_id":"levelo_inurba_marseille","lat":43.23187,"lon":5.35562,"is_reserved":false,"is_disabled":false,"rental_uris":{"android":"levelo://app?vid=db0e0ddb-0230-4f44-ba3e-6dcb98b952cd","ios":"levelo://app?vid=db0e0ddb-0230-4f44-ba3e-6dcb98b952cd"},"vehicle_type_id":"4","last_reported":1746439912,"current_range_meters":16000,"station_id":"ce4bhu92rcd13ifvqi70","pricing_plan_id":"cebpf4jnsgd1na2vs0mg"},{"bike_id":"24f757de-a17b-4d12-a91c-97b045990d7b","system_id":"levelo_inurba_marseille","lat":43.337444,"lon":5.374475,"is_reserved":false,"is_disabled":false,"rental_uris":{"android":"levelo://app?vid=24f757de-a17b-4d12-a91c-97b045990d7b","ios":"levelo://app?vid=24f757de-a17b-4d12-a91c-97b045990d7b"},"vehicle_type_id":"4","last_reported":1746439912,"current_range_meters":16400,"station_id":"","pricing_plan_id":"cebpf4jnsgd1na2vs0mg"},{"bike_id":"b78c21fc-eb82-4c85-81f4-0e729ea5ebbc","system_id":"levelo_inurba_marseille","lat":43.29621,"lon":5.37165,"is_reserved":false,"is_disabled":false,"rental_uris":{"android":"levelo://app?vid=b78c21fc-eb82-4c85-81f4-0e729ea5ebbc","ios":"levelo://app?vid=b78c21fc-eb82-4c85-81f4-0e729ea5ebbc"},"vehicle_type_id":"4","last_reported":1746439912,"current_range_meters":16400,"station_id":"ce4bgnh2rcd13ifvqc0g","pricing_plan_id":"cebpf4jnsgd1na2vs0mg"},{"bike_id":"4cb3f2d6-6c9b-49fa-8db8-e20142e6a432","system_id":"levelo_inurba_marseille","lat":43.29259,"lon":5.40906,"is_reserved":false,"is_disabled":false,"rental_uris":{"android":"levelo://app?vid=4cb3f2d6-6c9b-49fa-8db8-e20142e6a432","ios":"levelo://app?vid=4cb3f2d6-6c9b-49fa-8db8-e20142e6a432"},"vehicle_type_id":"4","last_reported":1746439912,"current_range_meters":16400,"station_id":"ce4bh192rcd13ifvqdc0","pricing_plan_id":"cebpf4jnsgd1na2vs0mg"},{"bike_id":"8b028970-458c-43c5-9321-f5aa1f989005","system_id":"levelo_inurba_marseille","lat":43.24082,"lon":5.37756,"is_reserved":false,"is_disabled":false,"rental_uris":{"android":"levelo://app?vid=8b028970-458c-43c5-9321-f5aa1f989005","ios":"levelo://app?vid=8b028970-458c-43c5-9321-f5aa1f989005"},"vehicle_type_id":"4","last_reported":1746439912,"current_range_meters":16400,"station_id":"ce4bhnp2rcd13ifvqgvg","pricing_plan_id":"cebpf4jnsgd1na2vs0mg"},{"bike_id":"bbba4a42-41f1-4d4c-a0ec-15062e1d6496","system_id":"levelo_inurba_marseille","lat":43.30809,"lon":5.43513,"is_reserved":false,"is_disabled":false,"rental_uris":{"android":"levelo://app?vid=bbba4a42-41f1-4d4c-a0ec-15062e1d6496","ios":"levelo://app?vid=bbba4a42-41f1-4d4c-a0ec-15062e1d6496"},"vehicle_type_id":"4","last_reported":1746439912,"current_range_meters":16400,"station_id":"ce4bhph2rcd13ifvqheg","pricing_plan_id":"cebpf4jnsgd1na2vs0mg"},{"bike_id":"1e787ecd-2869-4a0d-8ca0-8671348ec2f2","system_id":"levelo_inurba_marseille","lat":43.33592,"lon":5.40981,"is_reserved":false,"is_disabled":false,"rental_uris":{"android":"levelo://app?vid=1e787ecd-2869-4a0d-8ca0-8671348ec2f2","ios":"levelo://app?vid=1e787ecd-2869-4a0d-8ca0-8671348ec2f2"},"vehicle_type_id":"4","last_reported":1746439912,"current_range_meters":16400,"station_id":"ce4bhqh2rcd13ifvqhmg","pricing_plan_id":"cebpf4jnsgd1na2vs0mg"},{"bike_id":"a5bfde75-bfd4-4b48-9edf-080cf92f3b6e","system_id":"levelo_inurba_marseille","lat":43.26032,"lon":5.37554,"is_reserved":false,"is_disabled":false,"rental_uris":{"android":"levelo://app?vid=a5bfde75-bfd4-4b48-9edf-080cf92f3b6e","ios":"levelo://app?vid=a5bfde75-bfd4-4b48-9edf-080cf92f3b6e"},"vehicle_type_id":"4","last_reported":1746439912,"current_range_meters":16800,"station_id":"ce4bhgh2rcd13ifvqfa0","pricing_plan_id":"cebpf4jnsgd1na2vs0mg"},{"bike_id":"7c01aac7-df14-45d7-920c-b42e524dee8d","system_id":"levelo_inurba_marseille","lat":43.2396,"lon":5.36627,"is_reserved":false,"is_disabled":false,"rental_uris":{"android":"levelo://app?vid=7c01aac7-df14-45d7-920c-b42e524dee8d","ios":"levelo://app?vid=7c01aac7-df14-45d7-920c-b42e524dee8d"},"vehicle_type_id":"4","last_reported":1746439912,"current_range_meters":16800,"station_id":"ce4bhi12rcd13ifvqfp0","pricing_plan_id":"cebpf4jnsgd1na2vs0mg"},{"bike_id":"520debde-33a1-4221-9230-ac2066a99b71","system_id":"levelo_inurba_marseille","lat":43.22932,"lon":5.35378,"is_reserved":false,"is_disabled":false,"rental_uris":{"android":"levelo://app?vid=520debde-33a1-4221-9230-ac2066a99b71","ios":"levelo://app?vid=520debde-33a1-4221-9230-ac2066a99b71"},"vehicle_type_id":"4","last_reported":1746439912,"current_range_meters":16800,"station_id":"cpo3532slgdg3j2ikp40","pricing_plan_id":"cebpf4jnsgd1na2vs0mg"},{"bike_id":"2dce38cf-a8d4-49cd-9fcf-ef494d90a125","system_id":"levelo_inurba_marseille","lat":43.27133,"lon":5.36372,"is_reserved":false,"is_disabled":false,"rental_uris":{"android":"levelo://app?vid=2dce38cf-a8d4-49cd-9fcf-ef494d90a125","ios":"levelo://app?vid=2dce38cf-a8d4-49cd-9fcf-ef494d90a125"},"vehicle_type_id":"4","last_reported":1746439912,"current_range_meters":17200,"station_id":"","pricing_plan_id":"cebpf4jnsgd1na2vs0mg"},{"bike_id":"8b2285d3-d248-444c-a9fa-a333a1711750","system_id":"levelo_inurba_marseille","lat":43.286497,"lon":5.373407,"is_reserved":false,"is_disabled":false,"rental_uris":{"android":"levelo://app?vid=8b2285d3-d248-444c-a9fa-a333a1711750","ios":"levelo://app?vid=8b2285d3-d248-444c-a9fa-a333a1711750"},"vehicle_type_id":"4","last_reported":1746439912,"current_range_meters":17200,"station_id":"","pricing_plan_id":"cebpf4jnsgd1na2vs0mg"},{"bike_id":"0dc97091-6e66-483f-9308-21a20c924f0b","system_id":"levelo_inurba_marseille","lat":43.2963,"lon":5.37164,"is_reserved":false,"is_disabled":false,"rental_uris":{"android":"levelo://app?vid=0dc97091-6e66-483f-9308-21a20c924f0b","ios":"levelo://app?vid=0dc97091-6e66-483f-9308-21a20c924f0b"},"vehicle_type_id":"4","last_reported":1746439912,"current_range_meters":17200,"station_id":"ce4bgnh2rcd13ifvqc0g","pricing_plan_id":"cebpf4jnsgd1na2vs0mg"},{"bike_id":"fedc619d-d7cc-4df1-a967-c5d0953b5b95","system_id":"levelo_inurba_marseille","lat":43.245775,"lon":5.40841,"is_reserved":false,"is_disabled":false,"rental_uris":{"android":"levelo://app?vid=fedc619d-d7cc-4df1-a967-c5d0953b5b95","ios":"levelo://app?vid=fedc619d-d7cc-4df1-a967-c5d0953b5b95"},"vehicle_type_id":"4","last_reported":1746439912,"current_range_meters":17600,"station_id":"","pricing_plan_id":"cebpf4jnsgd1na2vs0mg"},{"bike_id":"314df586-207c-4a89-8b40-3e4c328204cd","system_id":"levelo_inurba_marseille","lat":43.24646,"lon":5.38889,"is_reserved":false,"is_disabled":false,"rental_uris":{"android":"levelo://app?vid=314df586-207c-4a89-8b40-3e4c328204cd","ios":"levelo://app?vid=314df586-207c-4a89-8b40-3e4c328204cd"},"vehicle_type_id":"4","last_reported":1746439912,"current_range_meters":17600,"station_id":"ce4bhg12rcd13ifvqf60","pricing_plan_id":"cebpf4jnsgd1na2vs0mg"},{"bike_id":"49110bfb-6f6c-4de8-b19f-6edc8de53d84","system_id":"levelo_inurba_marseille","lat":43.31344,"lon":5.36723,"is_reserved":false,"is_disabled":false,"rental_uris":{"android":"levelo://app?vid=49110bfb-6f6c-4de8-b19f-6edc8de53d84","ios":"levelo://app?vid=49110bfb-6f6c-4de8-b19f-6edc8de53d84"},"vehicle_type_id":"4","last_reported":1746439912,"current_range_meters":18000,"station_id":"ce4bgr92rcd13ifvqc6g","pricing_plan_id":"cebpf4jnsgd1na2vs0mg"},{"bike_id":"85f883d2-106b-4bee-bdac-860bc4667032","system_id":"levelo_inurba_marseille","lat":43.2416,"lon":5.36394,"is_reserved":false,"is_disabled":false,"rental_uris":{"android":"levelo://app?vid=85f883d2-106b-4bee-bdac-860bc4667032","ios":"levelo://app?vid=85f883d2-106b-4bee-bdac-860bc4667032"},"vehicle_type_id":"4","last_reported":1746439912,"current_range_meters":18000,"station_id":"cpo36qri1sfpv3e86is0","pricing_plan_id":"cebpf4jnsgd1na2vs0mg"},{"bike_id":"e5b73177-e636-471a-8d40-c71ebd3262c2","system_id":"levelo_inurba_marseille","lat":43.33583,"lon":5.40977,"is_reserved":false,"is_disabled":false,"rental_uris":{"android":"levelo://app?vid=e5b73177-e636-471a-8d40-c71ebd3262c2","ios":"levelo://app?vid=e5b73177-e636-471a-8d40-c71ebd3262c2"},"vehicle_type_id":"4","last_reported":1746439912,"current_range_meters":18800,"station_id":"","pricing_plan_id":"cebpf4jnsgd1na2vs0mg"},{"bike_id":"96e070da-b0e6-4861-a7e6-1c419a119de3","system_id":"levelo_inurba_marseille","lat":43.31424,"lon":5.36544,"is_reserved":false,"is_disabled":false,"rental_uris":{"android":"levelo://app?vid=96e070da-b0e6-4861-a7e6-1c419a119de3","ios":"levelo://app?vid=96e070da-b0e6-4861-a7e6-1c419a119de3"},"vehicle_type_id":"4","last_reported":1746439912,"current_range_meters":18800,"station_id":"","pricing_plan_id":"cebpf4jnsgd1na2vs0mg"},{"bike_id":"82b929d4-c3dc-4bce-8506-52de450d9a5c","system_id":"levelo_inurba_marseille","lat":43.29281,"lon":5.36842,"is_reserved":false,"is_disabled":false,"rental_uris":{"android":"levelo://app?vid=82b929d4-c3dc-4bce-8506-52de450d9a5c","ios":"levelo://app?vid=82b929d4-c3dc-4bce-8506-52de450d9a5c"},"vehicle_type_id":"4","last_reported":1746439912,"current_range_meters":18800,"station_id":"ce4bhbp2rcd13ifvqesg","pricing_plan_id":"cebpf4jnsgd1na2vs0mg"},{"bike_id":"c403646e-05ba-4262-afad-5e61dba3246b","system_id":"levelo_inurba_marseille","lat":43.2592,"lon":5.40885,"is_reserved":false,"is_disabled":false,"rental_uris":{"android":"levelo://app?vid=c403646e-05ba-4262-afad-5e61dba3246b","ios":"levelo://app?vid=c403646e-05ba-4262-afad-5e61dba3246b"},"vehicle_type_id":"4","last_reported":1746439912,"current_range_meters":18800,"station_id":"ce4bhm92rcd13ifvqglg","pricing_plan_id":"cebpf4jnsgd1na2vs0mg"},{"bike_id":"1351d2e1-4507-44f6-9645-e85ad7214f49","system_id":"levelo_inurba_marseille","lat":43.24106,"lon":5.37775,"is_reserved":false,"is_disabled":false,"rental_uris":{"android":"levelo://app?vid=1351d2e1-4507-44f6-9645-e85ad7214f49","ios":"levelo://app?vid=1351d2e1-4507-44f6-9645-e85ad7214f49"},"vehicle_type_id":"4","last_reported":1746439912,"current_range_meters":18800,"station_id":"ce4bhnp2rcd13ifvqgvg","pricing_plan_id":"cebpf4jnsgd1na2vs0mg"},{"bike_id":"203d91f5-6c36-4523-963d-b10eff730e29","system_id":"levelo_inurba_marseille","lat":43.30751,"lon":5.42453,"is_reserved":false,"is_disabled":false,"rental_uris":{"android":"levelo://app?vid=203d91f5-6c36-4523-963d-b10eff730e29","ios":"levelo://app?vid=203d91f5-6c36-4523-963d-b10eff730e29"},"vehicle_type_id":"4","last_reported":1746439912,"current_range_meters":18800,"station_id":"st_cvj6ca6bvosntc0bfgr0","pricing_plan_id":"cebpf4jnsgd1na2vs0mg"},{"bike_id":"f6544c52-88b9-4cda-9dbf-aae9ea9a024e","system_id":"levelo_inurba_marseille","lat":43.312294,"lon":5.368513,"is_reserved":false,"is_disabled":false,"rental_uris":{"android":"levelo://app?vid=f6544c52-88b9-4cda-9dbf-aae9ea9a024e","ios":"levelo://app?vid=f6544c52-88b9-4cda-9dbf-aae9ea9a024e"},"vehicle_type_id":"4","last_reported":1746439912,"current_range_meters":19200,"station_id":"ce4bgl92rcd13ifvqbq0","pricing_plan_id":"cebpf4jnsgd1na2vs0mg"},{"bike_id":"67c23af4-17e4-4286-9e36-70cd5cabae28","system_id":"levelo_inurba_marseille","lat":43.30541,"lon":5.36548,"is_reserved":false,"is_disabled":false,"rental_uris":{"android":"levelo://app?vid=67c23af4-17e4-4286-9e36-70cd5cabae28","ios":"levelo://app?vid=67c23af4-17e4-4286-9e36-70cd5cabae28"},"vehicle_type_id":"4","last_reported":1746439912,"current_range_meters":19200,"station_id":"ce4bgs12rcd13ifvqcag","pricing_plan_id":"cebpf4jnsgd1na2vs0mg"},{"bike_id":"82fbb92e-77a5-4ed0-a938-410551d3bf31","system_id":"levelo_inurba_marseille","lat":43.28693,"lon":5.374053,"is_reserved":false,"is_disabled":false,"rental_uris":{"android":"levelo://app?vid=82fbb92e-77a5-4ed0-a938-410551d3bf31","ios":"levelo://app?vid=82fbb92e-77a5-4ed0-a938-410551d3bf31"},"vehicle_type_id":"4","last_reported":1746439912,"current_range_meters":19200,"station_id":"ce4bh3p2rcd13ifvqdq0","pricing_plan_id":"cebpf4jnsgd1na2vs0mg"},{"bike_id":"ad293378-cf9e-426c-a9ca-ccbe1dd1e129","system_id":"levelo_inurba_marseille","lat":43.27914,"lon":5.39578,"is_reserved":false,"is_disabled":false,"rental_uris":{"android":"levelo://app?vid=ad293378-cf9e-426c-a9ca-ccbe1dd1e129","ios":"levelo://app?vid=ad293378-cf9e-426c-a9ca-ccbe1dd1e129"},"vehicle_type_id":"4","last_reported":1746439912,"current_range_meters":19200,"station_id":"ce4bhf92rcd13ifvqf40","pricing_plan_id":"cebpf4jnsgd1na2vs0mg"},{"bike_id":"2b23a4e2-11bc-49d2-831c-cf088935a707","system_id":"levelo_inurba_marseille","lat":43.292996,"lon":5.374592,"is_reserved":false,"is_disabled":false,"rental_uris":{"android":"levelo://app?vid=2b23a4e2-11bc-49d2-831c-cf088935a707","ios":"levelo://app?vid=2b23a4e2-11bc-49d2-831c-cf088935a707"},"vehicle_type_id":"4","last_reported":1746439912,"current_range_meters":19600,"station_id":"ce4bgi12rcd13ifvqb70","pricing_plan_id":"cebpf4jnsgd1na2vs0mg"},{"bike_id":"3e882008-21f3-4b77-b9d5-c3fcfc2f4d67","system_id":"levelo_inurba_marseille","lat":43.27071,"lon":5.42281,"is_reserved":false,"is_disabled":false,"rental_uris":{"android":"levelo://app?vid=3e882008-21f3-4b77-b9d5-c3fcfc2f4d67","ios":"levelo://app?vid=3e882008-21f3-4b77-b9d5-c3fcfc2f4d67"},"vehicle_type_id":"4","last_reported":1746439912,"current_range_meters":19600,"station_id":"ce4bhk92rcd13ifvqgb0","pricing_plan_id":"cebpf4jnsgd1na2vs0mg"},{"bike_id":"2fe0eb6e-fa6d-4d73-8902-1799ebd696f0","system_id":"levelo_inurba_marseille","lat":43.24555,"lon":5.3952,"is_reserved":false,"is_disabled":false,"rental_uris":{"android":"levelo://app?vid=2fe0eb6e-fa6d-4d73-8902-1799ebd696f0","ios":"levelo://app?vid=2fe0eb6e-fa6d-4d73-8902-1799ebd696f0"},"vehicle_type_id":"4","last_reported":1746439912,"current_range_meters":19600,"station_id":"ce4bhlp2rcd13ifvqgjg","pricing_plan_id":"cebpf4jnsgd1na2vs0mg"},{"bike_id":"243b49a7-8924-4b7d-8d65-fa1ee8c16a75","system_id":"levelo_inurba_marseille","lat":43.29057,"lon":5.40497,"is_reserved":false,"is_disabled":false,"rental_uris":{"android":"levelo://app?vid=243b49a7-8924-4b7d-8d65-fa1ee8c16a75","ios":"levelo://app?vid=243b49a7-8924-4b7d-8d65-fa1ee8c16a75"},"vehicle_type_id":"4","last_reported":1746439912,"current_range_meters":20000,"station_id":"","pricing_plan_id":"cebpf4jnsgd1na2vs0mg"},{"bike_id":"86b93b16-87a0-4fbf-a3d1-c409da7732b0","system_id":"levelo_inurba_marseille","lat":43.293396,"lon":5.371296,"is_reserved":false,"is_disabled":false,"rental_uris":{"android":"levelo://app?vid=86b93b16-87a0-4fbf-a3d1-c409da7732b0","ios":"levelo://app?vid=86b93b16-87a0-4fbf-a3d1-c409da7732b0"},"vehicle_type_id":"4","last_reported":1746439912,"current_range_meters":20000,"station_id":"","pricing_plan_id":"cebpf4jnsgd1na2vs0mg"},{"bike_id":"5b8f06bc-052a-454a-b1dc-55ff1d1e7111","system_id":"levelo_inurba_marseille","lat":43.31354,"lon":5.36655,"is_reserved":false,"is_disabled":false,"rental_uris":{"android":"levelo://app?vid=5b8f06bc-052a-454a-b1dc-55ff1d1e7111","ios":"levelo://app?vid=5b8f06bc-052a-454a-b1dc-55ff1d1e7111"},"vehicle_type_id":"4","last_reported":1746439912,"current_range_meters":20000,"station_id":"ce4bgr92rcd13ifvqc6g","pricing_plan_id":"cebpf4jnsgd1na2vs0mg"},{"bike_id":"5b0da776-35a0-4dd6-91d4-665eeee1e567","system_id":"levelo_inurba_marseille","lat":43.30567,"lon":5.36538,"is_reserved":false,"is_disabled":false,"rental_uris":{"android":"levelo://app?vid=5b0da776-35a0-4dd6-91d4-665eeee1e567","ios":"levelo://app?vid=5b0da776-35a0-4dd6-91d4-665eeee1e567"},"vehicle_type_id":"4","last_reported":1746439912,"current_range_meters":20000,"station_id":"ce4bgs12rcd13ifvqcag","pricing_plan_id":"cebpf4jnsgd1na2vs0mg"},{"bike_id":"dc4b1064-f240-41d8-9647-8fef58fc0b96","system_id":"levelo_inurba_marseille","lat":43.28157,"lon":5.4264,"is_reserved":false,"is_disabled":false,"rental_uris":{"android":"levelo://app?vid=dc4b1064-f240-41d8-9647-8fef58fc0b96","ios":"levelo://app?vid=dc4b1064-f240-41d8-9647-8fef58fc0b96"},"vehicle_type_id":"4","last_reported":1746439912,"current_range_meters":20000,"station_id":"ce4bhnh2rcd13ifvqgug","pricing_plan_id":"cebpf4jnsgd1na2vs0mg"},{"bike_id":"415644f3-5f8e-47d3-a822-1bf31bdd14ab","system_id":"levelo_inurba_marseille","lat":43.233169,"lon":5.435853,"is_reserved":false,"is_disabled":false,"rental_uris":{"android":"levelo://app?vid=415644f3-5f8e-47d3-a822-1bf31bdd14ab","ios":"levelo://app?vid=415644f3-5f8e-47d3-a822-1bf31bdd14ab"},"vehicle_type_id":"4","last_reported":1746439912,"current_range_meters":20400,"station_id":"ce4bhmp2rcd13ifvqgog","pricing_plan_id":"cebpf4jnsgd1na2vs0mg"},{"bike_id":"61c05337-15ed-45a6-8c09-0564798435bc","system_id":"levelo_inurba_marseille","lat":43.28445,"lon":5.39203,"is_reserved":false,"is_disabled":false,"rental_uris":{"android":"levelo://app?vid=61c05337-15ed-45a6-8c09-0564798435bc","ios":"levelo://app?vid=61c05337-15ed-45a6-8c09-0564798435bc"},"vehicle_type_id":"4","last_reported":1746439912,"current_range_meters":20400,"station_id":"ce4bhoh2rcd13ifvqh5g","pricing_plan_id":"cebpf4jnsgd1na2vs0mg"},{"bike_id":"d4f6b9d7-a1e2-42ac-9fe1-75c7c9bda882","system_id":"levelo_inurba_marseille","lat":43.32108,"lon":5.36781,"is_reserved":false,"is_disabled":false,"rental_uris":{"android":"levelo://app?vid=d4f6b9d7-a1e2-42ac-9fe1-75c7c9bda882","ios":"levelo://app?vid=d4f6b9d7-a1e2-42ac-9fe1-75c7c9bda882"},"vehicle_type_id":"4","last_reported":1746439912,"current_range_meters":20400,"station_id":"ce4bhrh2rcd13ifvqhug","pricing_plan_id":"cebpf4jnsgd1na2vs0mg"},{"bike_id":"f4af1d0a-bb44-4895-91f9-714045779767","system_id":"levelo_inurba_marseille","lat":43.31119,"lon":5.3778,"is_reserved":false,"is_disabled":false,"rental_uris":{"android":"levelo://app?vid=f4af1d0a-bb44-4895-91f9-714045779767","ios":"levelo://app?vid=f4af1d0a-bb44-4895-91f9-714045779767"},"vehicle_type_id":"4","last_reported":1746439912,"current_range_meters":20800,"station_id":"ce4bgt92rcd13ifvqcg0","pricing_plan_id":"cebpf4jnsgd1na2vs0mg"},{"bike_id":"f78eb5dd-f1df-4f93-83b4-44386d3ce6ac","system_id":"levelo_inurba_marseille","lat":43.26031,"lon":5.37548,"is_reserved":false,"is_disabled":false,"rental_uris":{"android":"levelo://app?vid=f78eb5dd-f1df-4f93-83b4-44386d3ce6ac","ios":"levelo://app?vid=f78eb5dd-f1df-4f93-83b4-44386d3ce6ac"},"vehicle_type_id":"4","last_reported":1746439912,"current_range_meters":20800,"station_id":"ce4bhgh2rcd13ifvqfa0","pricing_plan_id":"cebpf4jnsgd1na2vs0mg"},{"bike_id":"1defc0cc-b574-4a3c-b9f0-e1ad7b926ebf","system_id":"levelo_inurba_marseille","lat":43.24178,"lon":5.3638,"is_reserved":false,"is_disabled":false,"rental_uris":{"android":"levelo://app?vid=1defc0cc-b574-4a3c-b9f0-e1ad7b926ebf","ios":"levelo://app?vid=1defc0cc-b574-4a3c-b9f0-e1ad7b926ebf"},"vehicle_type_id":"4","last_reported":1746439912,"current_range_meters":20800,"station_id":"cpo36qri1sfpv3e86is0","pricing_plan_id":"cebpf4jnsgd1na2vs0mg"},{"bike_id":"8d160a7f-0e6f-457a-9397-4abe87705b68","system_id":"levelo_inurba_marseille","lat":43.21761,"lon":5.34611,"is_reserved":false,"is_disabled":false,"rental_uris":{"android":"levelo://app?vid=8d160a7f-0e6f-457a-9397-4abe87705b68","ios":"levelo://app?vid=8d160a7f-0e6f-457a-9397-4abe87705b68"},"vehicle_type_id":"4","last_reported":1746439912,"current_range_meters":20800,"station_id":"st_cvj6r9ubvosntc0bgbag","pricing_plan_id":"cebpf4jnsgd1na2vs0mg"},{"bike_id":"788046ab-4020-4c6e-a0e2-de3aee25f874","system_id":"levelo_inurba_marseille","lat":43.21181,"lon":5.35082,"is_reserved":false,"is_disabled":false,"rental_uris":{"android":"levelo://app?vid=788046ab-4020-4c6e-a0e2-de3aee25f874","ios":"levelo://app?vid=788046ab-4020-4c6e-a0e2-de3aee25f874"},"vehicle_type_id":"4","last_reported":1746439912,"current_range_meters":20800,"station_id":"st_cvj6sg6p6f1abm77japg","pricing_plan_id":"cebpf4jnsgd1na2vs0mg"},{"bike_id":"55422e6c-37ac-424c-9a48-58c5cf44fd7f","system_id":"levelo_inurba_marseille","lat":43.306,"lon":5.37219,"is_reserved":false,"is_disabled":false,"rental_uris":{"android":"levelo://app?vid=55422e6c-37ac-424c-9a48-58c5cf44fd7f","ios":"levelo://app?vid=55422e6c-37ac-424c-9a48-58c5cf44fd7f"},"vehicle_type_id":"4","last_reported":1746439912,"current_range_meters":21600,"station_id":"ce4bgqh2rcd13ifvqc4g","pricing_plan_id":"cebpf4jnsgd1na2vs0mg"},{"bike_id":"b7bae0b8-eae7-475e-b352-3da377855acd","system_id":"levelo_inurba_marseille","lat":43.24179,"lon":5.39743,"is_reserved":false,"is_disabled":false,"rental_uris":{"android":"levelo://app?vid=b7bae0b8-eae7-475e-b352-3da377855acd","ios":"levelo://app?vid=b7bae0b8-eae7-475e-b352-3da377855acd"},"vehicle_type_id":"4","last_reported":1746439912,"current_range_meters":21600,"station_id":"ce4bhn12rcd13ifvqgpg","pricing_plan_id":"cebpf4jnsgd1na2vs0mg"},{"bike_id":"e251da1b-e6e3-4577-b6ee-ca5b78846d86","system_id":"levelo_inurba_marseille","lat":43.230632,"lon":5.354946,"is_reserved":false,"is_disabled":false,"rental_uris":{"android":"levelo://app?vid=e251da1b-e6e3-4577-b6ee-ca5b78846d86","ios":"levelo://app?vid=e251da1b-e6e3-4577-b6ee-ca5b78846d86"},"vehicle_type_id":"4","last_reported":1746439912,"current_range_meters":21600,"station_id":"cpo3342slgdg3j2ifvpg","pricing_plan_id":"cebpf4jnsgd1na2vs0mg"},{"bike_id":"f5624e7c-f294-481f-a1bf-27739014eb89","system_id":"levelo_inurba_marseille","lat":43.21745,"lon":5.34602,"is_reserved":false,"is_disabled":false,"rental_uris":{"android":"levelo://app?vid=f5624e7c-f294-481f-a1bf-27739014eb89","ios":"levelo://app?vid=f5624e7c-f294-481f-a1bf-27739014eb89"},"vehicle_type_id":"4","last_reported":1746439912,"current_range_meters":21600,"station_id":"st_cvj6r9ubvosntc0bgbag","pricing_plan_id":"cebpf4jnsgd1na2vs0mg"},{"bike_id":"7b26d8ad-e234-43ff-9682-f341d64ef84f","system_id":"levelo_inurba_marseille","lat":43.30531,"lon":5.36686,"is_reserved":false,"is_disabled":false,"rental_uris":{"android":"levelo://app?vid=7b26d8ad-e234-43ff-9682-f341d64ef84f","ios":"levelo://app?vid=7b26d8ad-e234-43ff-9682-f341d64ef84f"},"vehicle_type_id":"4","last_reported":1746439912,"current_range_meters":22000,"station_id":"ce4bgrp2rcd13ifvqc9g","pricing_plan_id":"cebpf4jnsgd1na2vs0mg"},{"bike_id":"c6de097a-e38d-42ee-a80e-fb4ccfad3285","system_id":"levelo_inurba_marseille","lat":43.29808,"lon":5.38093,"is_reserved":false,"is_disabled":false,"rental_uris":{"android":"levelo://app?vid=c6de097a-e38d-42ee-a80e-fb4ccfad3285","ios":"levelo://app?vid=c6de097a-e38d-42ee-a80e-fb4ccfad3285"},"vehicle_type_id":"4","last_reported":1746439912,"current_range_meters":22400,"station_id":"ce4bgip2rcd13ifvqbb0","pricing_plan_id":"cebpf4jnsgd1na2vs0mg"},{"bike_id":"5e7d9f9f-a5c3-4939-996b-cdc8173350e3","system_id":"levelo_inurba_marseille","lat":43.30143,"lon":5.38072,"is_reserved":false,"is_disabled":false,"rental_uris":{"android":"levelo://app?vid=5e7d9f9f-a5c3-4939-996b-cdc8173350e3","ios":"levelo://app?vid=5e7d9f9f-a5c3-4939-996b-cdc8173350e3"},"vehicle_type_id":"4","last_reported":1746439912,"current_range_meters":22400,"station_id":"ce4bgjp2rcd13ifvqbh0","pricing_plan_id":"cebpf4jnsgd1na2vs0mg"},{"bike_id":"03a26ed3-3349-4667-8aa8-30a397d8d3a7","system_id":"levelo_inurba_marseille","lat":43.30192,"lon":5.36631,"is_reserved":false,"is_disabled":false,"rental_uris":{"android":"levelo://app?vid=03a26ed3-3349-4667-8aa8-30a397d8d3a7","ios":"levelo://app?vid=03a26ed3-3349-4667-8aa8-30a397d8d3a7"},"vehicle_type_id":"4","last_reported":1746439912,"current_range_meters":22400,"station_id":"ce4bgrh2rcd13ifvqc8g","pricing_plan_id":"cebpf4jnsgd1na2vs0mg"},{"bike_id":"9581aa82-c4da-4fb7-bd00-47ca1cc08ead","system_id":"levelo_inurba_marseille","lat":43.26028,"lon":5.37562,"is_reserved":false,"is_disabled":false,"rental_uris":{"android":"levelo://app?vid=9581aa82-c4da-4fb7-bd00-47ca1cc08ead","ios":"levelo://app?vid=9581aa82-c4da-4fb7-bd00-47ca1cc08ead"},"vehicle_type_id":"4","last_reported":1746439912,"current_range_meters":22400,"station_id":"ce4bhgh2rcd13ifvqfa0","pricing_plan_id":"cebpf4jnsgd1na2vs0mg"},{"bike_id":"ec1d0d3a-2b02-4260-a905-efe5646117f6","system_id":"levelo_inurba_marseille","lat":43.23965,"lon":5.36629,"is_reserved":false,"is_disabled":false,"rental_uris":{"android":"levelo://app?vid=ec1d0d3a-2b02-4260-a905-efe5646117f6","ios":"levelo://app?vid=ec1d0d3a-2b02-4260-a905-efe5646117f6"},"vehicle_type_id":"4","last_reported":1746439912,"current_range_meters":22400,"station_id":"ce4bhi12rcd13ifvqfp0","pricing_plan_id":"cebpf4jnsgd1na2vs0mg"},{"bike_id":"955b985b-8f14-493c-8af0-2eaa7df52cdc","system_id":"levelo_inurba_marseille","lat":43.25578,"lon":5.38229,"is_reserved":false,"is_disabled":false,"rental_uris":{"android":"levelo://app?vid=955b985b-8f14-493c-8af0-2eaa7df52cdc","ios":"levelo://app?vid=955b985b-8f14-493c-8af0-2eaa7df52cdc"},"vehicle_type_id":"4","last_reported":1746439912,"current_range_meters":22400,"station_id":"ce4bhih2rcd13ifvqfs0","pricing_plan_id":"cebpf4jnsgd1na2vs0mg"},{"bike_id":"1463df37-cf61-469b-bdcd-b1f774c257b1","system_id":"levelo_inurba_marseille","lat":43.30884,"lon":5.372,"is_reserved":false,"is_disabled":false,"rental_uris":{"android":"levelo://app?vid=1463df37-cf61-469b-bdcd-b1f774c257b1","ios":"levelo://app?vid=1463df37-cf61-469b-bdcd-b1f774c257b1"},"vehicle_type_id":"4","last_reported":1746439912,"current_range_meters":22800,"station_id":"ce4bguh2rcd13ifvqckg","pricing_plan_id":"cebpf4jnsgd1na2vs0mg"},{"bike_id":"75b494dc-9c23-4251-b497-b732890e372b","system_id":"levelo_inurba_marseille","lat":43.30211,"lon":5.39472,"is_reserved":false,"is_disabled":false,"rental_uris":{"android":"levelo://app?vid=75b494dc-9c23-4251-b497-b732890e372b","ios":"levelo://app?vid=75b494dc-9c23-4251-b497-b732890e372b"},"vehicle_type_id":"4","last_reported":1746439912,"current_range_meters":22800,"station_id":"ce4bh0p2rcd13ifvqd70","pricing_plan_id":"cebpf4jnsgd1na2vs0mg"},{"bike_id":"7f85dfa2-272f-4ac6-97bb-d6b322ab5e10","system_id":"levelo_inurba_marseille","lat":43.29285,"lon":5.36844,"is_reserved":false,"is_disabled":false,"rental_uris":{"android":"levelo://app?vid=7f85dfa2-272f-4ac6-97bb-d6b322ab5e10","ios":"levelo://app?vid=7f85dfa2-272f-4ac6-97bb-d6b322ab5e10"},"vehicle_type_id":"4","last_reported":1746439912,"current_range_meters":22800,"station_id":"ce4bhbp2rcd13ifvqesg","pricing_plan_id":"cebpf4jnsgd1na2vs0mg"},{"bike_id":"3ae74631-5401-4c8d-87e8-3b0125a546bc","system_id":"levelo_inurba_marseille","lat":43.24159,"lon":5.39747,"is_reserved":false,"is_disabled":false,"rental_uris":{"android":"levelo://app?vid=3ae74631-5401-4c8d-87e8-3b0125a546bc","ios":"levelo://app?vid=3ae74631-5401-4c8d-87e8-3b0125a546bc"},"vehicle_type_id":"4","last_reported":1746439912,"current_range_meters":22800,"station_id":"ce4bhn12rcd13ifvqgpg","pricing_plan_id":"cebpf4jnsgd1na2vs0mg"},{"bike_id":"418386e3-abf3-40a0-be92-f17c77a2278e","system_id":"levelo_inurba_marseille","lat":43.28162,"lon":5.42658,"is_reserved":false,"is_disabled":false,"rental_uris":{"android":"levelo://app?vid=418386e3-abf3-40a0-be92-f17c77a2278e","ios":"levelo://app?vid=418386e3-abf3-40a0-be92-f17c77a2278e"},"vehicle_type_id":"4","last_reported":1746439912,"current_range_meters":22800,"station_id":"ce4bhnh2rcd13ifvqgug","pricing_plan_id":"cebpf4jnsgd1na2vs0mg"},{"bike_id":"d3a852b4-655d-4d40-9d50-42e796c56f96","system_id":"levelo_inurba_marseille","lat":43.32361,"lon":5.36732,"is_reserved":false,"is_disabled":false,"rental_uris":{"android":"levelo://app?vid=d3a852b4-655d-4d40-9d50-42e796c56f96","ios":"levelo://app?vid=d3a852b4-655d-4d40-9d50-42e796c56f96"},"vehicle_type_id":"4","last_reported":1746439912,"current_range_meters":22800,"station_id":"ce4bhsh2rcd13ifvqi2g","pricing_plan_id":"cebpf4jnsgd1na2vs0mg"},{"bike_id":"f411480e-d16c-4cef-977f-908434432ba8","system_id":"levelo_inurba_marseille","lat":43.21754,"lon":5.34607,"is_reserved":false,"is_disabled":false,"rental_uris":{"android":"levelo://app?vid=f411480e-d16c-4cef-977f-908434432ba8","ios":"levelo://app?vid=f411480e-d16c-4cef-977f-908434432ba8"},"vehicle_type_id":"4","last_reported":1746439912,"current_range_meters":22800,"station_id":"st_cvj6r9ubvosntc0bgbag","pricing_plan_id":"cebpf4jnsgd1na2vs0mg"},{"bike_id":"bd540609-63ec-48df-ae72-6d47e4e3c2e2","system_id":"levelo_inurba_marseille","lat":43.31349,"lon":5.36731,"is_reserved":false,"is_disabled":false,"rental_uris":{"android":"levelo://app?vid=bd540609-63ec-48df-ae72-6d47e4e3c2e2","ios":"levelo://app?vid=bd540609-63ec-48df-ae72-6d47e4e3c2e2"},"vehicle_type_id":"4","last_reported":1746439912,"current_range_meters":23200,"station_id":"ce4bgr92rcd13ifvqc6g","pricing_plan_id":"cebpf4jnsgd1na2vs0mg"},{"bike_id":"148751d6-27d8-45e7-9c0c-9521addae0ae","system_id":"levelo_inurba_marseille","lat":43.33757,"lon":5.37485,"is_reserved":false,"is_disabled":false,"rental_uris":{"android":"levelo://app?vid=148751d6-27d8-45e7-9c0c-9521addae0ae","ios":"levelo://app?vid=148751d6-27d8-45e7-9c0c-9521addae0ae"},"vehicle_type_id":"4","last_reported":1746439912,"current_range_meters":24000,"station_id":"","pricing_plan_id":"cebpf4jnsgd1na2vs0mg"},{"bike_id":"8d3e28b3-4bdd-4386-b4f3-3c26d32ae21f","system_id":"levelo_inurba_marseille","lat":43.30782,"lon":5.37646,"is_reserved":false,"is_disabled":false,"rental_uris":{"android":"levelo://app?vid=8d3e28b3-4bdd-4386-b4f3-3c26d32ae21f","ios":"levelo://app?vid=8d3e28b3-4bdd-4386-b4f3-3c26d32ae21f"},"vehicle_type_id":"4","last_reported":1746439912,"current_range_meters":24000,"station_id":"ce4bgv92rcd13ifvqcq0","pricing_plan_id":"cebpf4jnsgd1na2vs0mg"},{"bike_id":"bc929a7b-4233-405f-925c-39b82401ba51","system_id":"levelo_inurba_marseille","lat":43.28999,"lon":5.35627,"is_reserved":false,"is_disabled":false,"rental_uris":{"android":"levelo://app?vid=bc929a7b-4233-405f-925c-39b82401ba51","ios":"levelo://app?vid=bc929a7b-4233-405f-925c-39b82401ba51"},"vehicle_type_id":"4","last_reported":1746439912,"current_range_meters":24000,"station_id":"ce4bhb92rcd13ifvqen0","pricing_plan_id":"cebpf4jnsgd1na2vs0mg"},{"bike_id":"8c9fd3f5-a988-4e2a-8f9d-8d142e1ffbfb","system_id":"levelo_inurba_marseille","lat":43.24184,"lon":5.39732,"is_reserved":false,"is_disabled":false,"rental_uris":{"android":"levelo://app?vid=8c9fd3f5-a988-4e2a-8f9d-8d142e1ffbfb","ios":"levelo://app?vid=8c9fd3f5-a988-4e2a-8f9d-8d142e1ffbfb"},"vehicle_type_id":"4","last_reported":1746439912,"current_range_meters":24000,"station_id":"ce4bhn12rcd13ifvqgpg","pricing_plan_id":"cebpf4jnsgd1na2vs0mg"},{"bike_id":"4596f8f2-e4bf-4794-b21c-acfc3d756e93","system_id":"levelo_inurba_marseille","lat":43.30357,"lon":5.41888,"is_reserved":false,"is_disabled":false,"rental_uris":{"android":"levelo://app?vid=4596f8f2-e4bf-4794-b21c-acfc3d756e93","ios":"levelo://app?vid=4596f8f2-e4bf-4794-b21c-acfc3d756e93"},"vehicle_type_id":"4","last_reported":1746439912,"current_range_meters":24000,"station_id":"ce4bhop2rcd13ifvqh7g","pricing_plan_id":"cebpf4jnsgd1na2vs0mg"},{"bike_id":"d0746e70-2da4-497c-8d30-b37b0e2e9c1f","system_id":"levelo_inurba_marseille","lat":43.33592,"lon":5.41013,"is_reserved":false,"is_disabled":false,"rental_uris":{"android":"levelo://app?vid=d0746e70-2da4-497c-8d30-b37b0e2e9c1f","ios":"levelo://app?vid=d0746e70-2da4-497c-8d30-b37b0e2e9c1f"},"vehicle_type_id":"4","last_reported":1746439912,"current_range_meters":24000,"station_id":"ce4bhqh2rcd13ifvqhmg","pricing_plan_id":"cebpf4jnsgd1na2vs0mg"},{"bike_id":"638d16bc-c6e8-422e-8907-cb54e849c916","system_id":"levelo_inurba_marseille","lat":43.22922,"lon":5.35379,"is_reserved":false,"is_disabled":false,"rental_uris":{"android":"levelo://app?vid=638d16bc-c6e8-422e-8907-cb54e849c916","ios":"levelo://app?vid=638d16bc-c6e8-422e-8907-cb54e849c916"},"vehicle_type_id":"4","last_reported":1746439912,"current_range_meters":24000,"station_id":"cpo3532slgdg3j2ikp40","pricing_plan_id":"cebpf4jnsgd1na2vs0mg"},{"bike_id":"3bb772c7-f122-4417-92c6-a4dffeefc2f4","system_id":"levelo_inurba_marseille","lat":43.29846,"lon":5.37371,"is_reserved":false,"is_disabled":false,"rental_uris":{"android":"levelo://app?vid=3bb772c7-f122-4417-92c6-a4dffeefc2f4","ios":"levelo://app?vid=3bb772c7-f122-4417-92c6-a4dffeefc2f4"},"vehicle_type_id":"4","last_reported":1746439912,"current_range_meters":24400,"station_id":"","pricing_plan_id":"cebpf4jnsgd1na2vs0mg"},{"bike_id":"4e32be63-9d1b-43cc-9b89-7b46a65d9e82","system_id":"levelo_inurba_marseille","lat":43.33794,"lon":5.37436,"is_reserved":false,"is_disabled":false,"rental_uris":{"android":"levelo://app?vid=4e32be63-9d1b-43cc-9b89-7b46a65d9e82","ios":"levelo://app?vid=4e32be63-9d1b-43cc-9b89-7b46a65d9e82"},"vehicle_type_id":"4","last_reported":1746439912,"current_range_meters":24400,"station_id":"","pricing_plan_id":"cebpf4jnsgd1na2vs0mg"},{"bike_id":"3e5ca6c7-12a8-40b7-b1a3-844a2e512e8a","system_id":"levelo_inurba_marseille","lat":43.27219,"lon":5.39183,"is_reserved":false,"is_disabled":false,"rental_uris":{"android":"levelo://app?vid=3e5ca6c7-12a8-40b7-b1a3-844a2e512e8a","ios":"levelo://app?vid=3e5ca6c7-12a8-40b7-b1a3-844a2e512e8a"},"vehicle_type_id":"4","last_reported":1746439912,"current_range_meters":24400,"station_id":"ce4bhhp2rcd13ifvqfm0","pricing_plan_id":"cebpf4jnsgd1na2vs0mg"},{"bike_id":"751bbba6-1c62-431c-bce7-50c1dacf1b13","system_id":"levelo_inurba_marseille","lat":43.24185,"lon":5.39719,"is_reserved":false,"is_disabled":false,"rental_uris":{"android":"levelo://app?vid=751bbba6-1c62-431c-bce7-50c1dacf1b13","ios":"levelo://app?vid=751bbba6-1c62-431c-bce7-50c1dacf1b13"},"vehicle_type_id":"4","last_reported":1746439912,"current_range_meters":24400,"station_id":"ce4bhn12rcd13ifvqgpg","pricing_plan_id":"cebpf4jnsgd1na2vs0mg"},{"bike_id":"cde0fa0e-c4c6-4bc4-a852-f4c917846b32","system_id":"levelo_inurba_marseille","lat":43.23059,"lon":5.35492,"is_reserved":false,"is_disabled":false,"rental_uris":{"android":"levelo://app?vid=cde0fa0e-c4c6-4bc4-a852-f4c917846b32","ios":"levelo://app?vid=cde0fa0e-c4c6-4bc4-a852-f4c917846b32"},"vehicle_type_id":"4","last_reported":1746439912,"current_range_meters":24400,"station_id":"cpo3342slgdg3j2ifvpg","pricing_plan_id":"cebpf4jnsgd1na2vs0mg"},{"bike_id":"c0e2eb01-219c-4f4b-9af9-9fb402dea3ab","system_id":"levelo_inurba_marseille","lat":43.30527,"lon":5.36549,"is_reserved":false,"is_disabled":false,"rental_uris":{"android":"levelo://app?vid=c0e2eb01-219c-4f4b-9af9-9fb402dea3ab","ios":"levelo://app?vid=c0e2eb01-219c-4f4b-9af9-9fb402dea3ab"},"vehicle_type_id":"4","last_reported":1746439912,"current_range_meters":24800,"station_id":"ce4bgs12rcd13ifvqcag","pricing_plan_id":"cebpf4jnsgd1na2vs0mg"},{"bike_id":"119024d4-3262-4af4-8087-2233f1765a3c","system_id":"levelo_inurba_marseille","lat":43.31684,"lon":5.40474,"is_reserved":false,"is_disabled":false,"rental_uris":{"android":"levelo://app?vid=119024d4-3262-4af4-8087-2233f1765a3c","ios":"levelo://app?vid=119024d4-3262-4af4-8087-2233f1765a3c"},"vehicle_type_id":"4","last_reported":1746439912,"current_range_meters":24800,"station_id":"ce4bh012rcd13ifvqd00","pricing_plan_id":"cebpf4jnsgd1na2vs0mg"},{"bike_id":"a02dbc2c-88fd-4eeb-a27d-b351ba7fbf1e","system_id":"levelo_inurba_marseille","lat":43.2906,"lon":5.35918,"is_reserved":false,"is_disabled":false,"rental_uris":{"android":"levelo://app?vid=a02dbc2c-88fd-4eeb-a27d-b351ba7fbf1e","ios":"levelo://app?vid=a02dbc2c-88fd-4eeb-a27d-b351ba7fbf1e"},"vehicle_type_id":"4","last_reported":1746439912,"current_range_meters":24800,"station_id":"ce4bha92rcd13ifvqeg0","pricing_plan_id":"cebpf4jnsgd1na2vs0mg"},{"bike_id":"d63ae83f-02b7-4956-be89-4dbafa95b24b","system_id":"levelo_inurba_marseille","lat":43.26223,"lon":5.40447,"is_reserved":false,"is_disabled":false,"rental_uris":{"android":"levelo://app?vid=d63ae83f-02b7-4956-be89-4dbafa95b24b","ios":"levelo://app?vid=d63ae83f-02b7-4956-be89-4dbafa95b24b"},"vehicle_type_id":"4","last_reported":1746439912,"current_range_meters":24800,"station_id":"ce4bhmh2rcd13ifvqgmg","pricing_plan_id":"cebpf4jnsgd1na2vs0mg"},{"bike_id":"c2b41a15-a85d-46d1-814c-f8816b3cf185","system_id":"levelo_inurba_marseille","lat":43.341448,"lon":5.40901,"is_reserved":false,"is_disabled":false,"rental_uris":{"android":"levelo://app?vid=c2b41a15-a85d-46d1-814c-f8816b3cf185","ios":"levelo://app?vid=c2b41a15-a85d-46d1-814c-f8816b3cf185"},"vehicle_type_id":"4","last_reported":1746439912,"current_range_meters":24800,"station_id":"ce4bhqh2rcd13ifvqhlg","pricing_plan_id":"cebpf4jnsgd1na2vs0mg"},{"bike_id":"3a63acc5-b352-4e5e-8ce6-37badecb6507","system_id":"levelo_inurba_marseille","lat":43.29495,"lon":5.4183,"is_reserved":false,"is_disabled":false,"rental_uris":{"android":"levelo://app?vid=3a63acc5-b352-4e5e-8ce6-37badecb6507","ios":"levelo://app?vid=3a63acc5-b352-4e5e-8ce6-37badecb6507"},"vehicle_type_id":"4","last_reported":1746439912,"current_range_meters":25200,"station_id":"","pricing_plan_id":"cebpf4jnsgd1na2vs0mg"},{"bike_id":"96107970-e87d-459a-81a5-b874bbd412f7","system_id":"levelo_inurba_marseille","lat":43.311128,"lon":5.378071,"is_reserved":false,"is_disabled":false,"rental_uris":{"android":"levelo://app?vid=96107970-e87d-459a-81a5-b874bbd412f7","ios":"levelo://app?vid=96107970-e87d-459a-81a5-b874bbd412f7"},"vehicle_type_id":"4","last_reported":1746439912,"current_range_meters":25200,"station_id":"ce4bgt92rcd13ifvqcg0","pricing_plan_id":"cebpf4jnsgd1na2vs0mg"},{"bike_id":"65d0c138-7638-4bf6-824a-cd8a04d3ae07","system_id":"levelo_inurba_marseille","lat":43.28686,"lon":5.37392,"is_reserved":false,"is_disabled":false,"rental_uris":{"android":"levelo://app?vid=65d0c138-7638-4bf6-824a-cd8a04d3ae07","ios":"levelo://app?vid=65d0c138-7638-4bf6-824a-cd8a04d3ae07"},"vehicle_type_id":"4","last_reported":1746439912,"current_range_meters":25200,"station_id":"ce4bh3p2rcd13ifvqdq0","pricing_plan_id":"cebpf4jnsgd1na2vs0mg"},{"bike_id":"60a468fd-5634-48dd-ac8b-645ab89cb0ea","system_id":"levelo_inurba_marseille","lat":43.2886,"lon":5.35865,"is_reserved":false,"is_disabled":false,"rental_uris":{"android":"levelo://app?vid=60a468fd-5634-48dd-ac8b-645ab89cb0ea","ios":"levelo://app?vid=60a468fd-5634-48dd-ac8b-645ab89cb0ea"},"vehicle_type_id":"4","last_reported":1746439912,"current_range_meters":25200,"station_id":"ce4bhb12rcd13ifvqem0","pricing_plan_id":"cebpf4jnsgd1na2vs0mg"},{"bike_id":"659e5838-84f1-4410-97e8-b2309c4abf7b","system_id":"levelo_inurba_marseille","lat":43.23958,"lon":5.3665,"is_reserved":false,"is_disabled":false,"rental_uris":{"android":"levelo://app?vid=659e5838-84f1-4410-97e8-b2309c4abf7b","ios":"levelo://app?vid=659e5838-84f1-4410-97e8-b2309c4abf7b"},"vehicle_type_id":"4","last_reported":1746439912,"current_range_meters":25200,"station_id":"ce4bhi12rcd13ifvqfp0","pricing_plan_id":"cebpf4jnsgd1na2vs0mg"},{"bike_id":"6f10c397-2fb9-4802-915f-b2f2dce9e14a","system_id":"levelo_inurba_marseille","lat":43.23066,"lon":5.35504,"is_reserved":false,"is_disabled":false,"rental_uris":{"android":"levelo://app?vid=6f10c397-2fb9-4802-915f-b2f2dce9e14a","ios":"levelo://app?vid=6f10c397-2fb9-4802-915f-b2f2dce9e14a"},"vehicle_type_id":"4","last_reported":1746439912,"current_range_meters":25200,"station_id":"cpo3342slgdg3j2ifvpg","pricing_plan_id":"cebpf4jnsgd1na2vs0mg"},{"bike_id":"a606d140-7bac-4bfb-a3a0-4444a258dc17","system_id":"levelo_inurba_marseille","lat":43.2962,"lon":5.37168,"is_reserved":false,"is_disabled":false,"rental_uris":{"android":"levelo://app?vid=a606d140-7bac-4bfb-a3a0-4444a258dc17","ios":"levelo://app?vid=a606d140-7bac-4bfb-a3a0-4444a258dc17"},"vehicle_type_id":"4","last_reported":1746439912,"current_range_meters":25600,"station_id":"ce4bgnh2rcd13ifvqc0g","pricing_plan_id":"cebpf4jnsgd1na2vs0mg"},{"bike_id":"5b34a8d0-e48c-42e9-90aa-6b283510f97d","system_id":"levelo_inurba_marseille","lat":43.30191,"lon":5.36605,"is_reserved":false,"is_disabled":false,"rental_uris":{"android":"levelo://app?vid=5b34a8d0-e48c-42e9-90aa-6b283510f97d","ios":"levelo://app?vid=5b34a8d0-e48c-42e9-90aa-6b283510f97d"},"vehicle_type_id":"4","last_reported":1746439912,"current_range_meters":25600,"station_id":"ce4bgrh2rcd13ifvqc8g","pricing_plan_id":"cebpf4jnsgd1na2vs0mg"},{"bike_id":"b68db1ce-edcd-463d-a829-7ae5d8bfba1f","system_id":"levelo_inurba_marseille","lat":43.23963,"lon":5.36626,"is_reserved":false,"is_disabled":false,"rental_uris":{"android":"levelo://app?vid=b68db1ce-edcd-463d-a829-7ae5d8bfba1f","ios":"levelo://app?vid=b68db1ce-edcd-463d-a829-7ae5d8bfba1f"},"vehicle_type_id":"4","last_reported":1746439912,"current_range_meters":25600,"station_id":"ce4bhi12rcd13ifvqfp0","pricing_plan_id":"cebpf4jnsgd1na2vs0mg"},{"bike_id":"4d55305c-f7f7-446b-bb11-646aa7190194","system_id":"levelo_inurba_marseille","lat":43.23964,"lon":5.36624,"is_reserved":false,"is_disabled":false,"rental_uris":{"android":"levelo://app?vid=4d55305c-f7f7-446b-bb11-646aa7190194","ios":"levelo://app?vid=4d55305c-f7f7-446b-bb11-646aa7190194"},"vehicle_type_id":"4","last_reported":1746439912,"current_range_meters":25600,"station_id":"ce4bhi12rcd13ifvqfp0","pricing_plan_id":"cebpf4jnsgd1na2vs0mg"},{"bike_id":"fff0b5d9-79b3-413d-b373-705d9950080a","system_id":"levelo_inurba_marseille","lat":43.23977,"lon":5.36618,"is_reserved":false,"is_disabled":false,"rental_uris":{"android":"levelo://app?vid=fff0b5d9-79b3-413d-b373-705d9950080a","ios":"levelo://app?vid=fff0b5d9-79b3-413d-b373-705d9950080a"},"vehicle_type_id":"4","last_reported":1746439912,"current_range_meters":25600,"station_id":"ce4bhi12rcd13ifvqfp0","pricing_plan_id":"cebpf4jnsgd1na2vs0mg"},{"bike_id":"94d49a5d-19ed-460d-9cd0-fb0638489879","system_id":"levelo_inurba_marseille","lat":43.24662,"lon":5.38169,"is_reserved":false,"is_disabled":false,"rental_uris":{"android":"levelo://app?vid=94d49a5d-19ed-460d-9cd0-fb0638489879","ios":"levelo://app?vid=94d49a5d-19ed-460d-9cd0-fb0638489879"},"vehicle_type_id":"4","last_reported":1746439912,"current_range_meters":25600,"station_id":"ce4bhih2rcd13ifvqfr0","pricing_plan_id":"cebpf4jnsgd1na2vs0mg"},{"bike_id":"0aa5b90f-550a-4efd-9bbc-22b1b2133141","system_id":"levelo_inurba_marseille","lat":43.27108,"lon":5.42246,"is_reserved":false,"is_disabled":false,"rental_uris":{"android":"levelo://app?vid=0aa5b90f-550a-4efd-9bbc-22b1b2133141","ios":"levelo://app?vid=0aa5b90f-550a-4efd-9bbc-22b1b2133141"},"vehicle_type_id":"4","last_reported":1746439912,"current_range_meters":25600,"station_id":"ce4bhk92rcd13ifvqgb0","pricing_plan_id":"cebpf4jnsgd1na2vs0mg"},{"bike_id":"e3a2eeed-26a7-4c64-8ce8-4dbe25442ead","system_id":"levelo_inurba_marseille","lat":43.30554,"lon":5.36516,"is_reserved":false,"is_disabled":false,"rental_uris":{"android":"levelo://app?vid=e3a2eeed-26a7-4c64-8ce8-4dbe25442ead","ios":"levelo://app?vid=e3a2eeed-26a7-4c64-8ce8-4dbe25442ead"},"vehicle_type_id":"4","last_reported":1746439912,"current_range_meters":26000,"station_id":"ce4bgs12rcd13ifvqcag","pricing_plan_id":"cebpf4jnsgd1na2vs0mg"},{"bike_id":"0c9d82fd-f39f-4521-9ef8-bf062839211e","system_id":"levelo_inurba_marseille","lat":43.26191,"lon":5.37449,"is_reserved":false,"is_disabled":false,"rental_uris":{"android":"levelo://app?vid=0c9d82fd-f39f-4521-9ef8-bf062839211e","ios":"levelo://app?vid=0c9d82fd-f39f-4521-9ef8-bf062839211e"},"vehicle_type_id":"4","last_reported":1746439912,"current_range_meters":26000,"station_id":"ce4bhgp2rcd13ifvqfc0","pricing_plan_id":"cebpf4jnsgd1na2vs0mg"},{"bike_id":"977f4bb4-3d44-493d-b5a1-22093907125a","system_id":"levelo_inurba_marseille","lat":43.27063,"lon":5.4227,"is_reserved":false,"is_disabled":false,"rental_uris":{"android":"levelo://app?vid=977f4bb4-3d44-493d-b5a1-22093907125a","ios":"levelo://app?vid=977f4bb4-3d44-493d-b5a1-22093907125a"},"vehicle_type_id":"4","last_reported":1746439912,"current_range_meters":26000,"station_id":"ce4bhk92rcd13ifvqgb0","pricing_plan_id":"cebpf4jnsgd1na2vs0mg"},{"bike_id":"f8b0b83e-3275-4842-8279-54953a201dd7","system_id":"levelo_inurba_marseille","lat":43.262368,"lon":5.404531,"is_reserved":false,"is_disabled":false,"rental_uris":{"android":"levelo://app?vid=f8b0b83e-3275-4842-8279-54953a201dd7","ios":"levelo://app?vid=f8b0b83e-3275-4842-8279-54953a201dd7"},"vehicle_type_id":"4","last_reported":1746439912,"current_range_meters":26000,"station_id":"ce4bhmh2rcd13ifvqgmg","pricing_plan_id":"cebpf4jnsgd1na2vs0mg"},{"bike_id":"36453c9c-3388-461c-a3a2-007d8dcd5103","system_id":"levelo_inurba_marseille","lat":43.28149,"lon":5.42637,"is_reserved":false,"is_disabled":false,"rental_uris":{"android":"levelo://app?vid=36453c9c-3388-461c-a3a2-007d8dcd5103","ios":"levelo://app?vid=36453c9c-3388-461c-a3a2-007d8dcd5103"},"vehicle_type_id":"4","last_reported":1746439912,"current_range_meters":26000,"station_id":"ce4bhnh2rcd13ifvqgug","pricing_plan_id":"cebpf4jnsgd1na2vs0mg"},{"bike_id":"f3b63c94-4ac9-4e75-8b87-9174e4f7ecb5","system_id":"levelo_inurba_marseille","lat":43.2955,"lon":5.42284,"is_reserved":false,"is_disabled":false,"rental_uris":{"android":"levelo://app?vid=f3b63c94-4ac9-4e75-8b87-9174e4f7ecb5","ios":"levelo://app?vid=f3b63c94-4ac9-4e75-8b87-9174e4f7ecb5"},"vehicle_type_id":"4","last_reported":1746439912,"current_range_meters":26000,"station_id":"ce4bhph2rcd13ifvqhdg","pricing_plan_id":"cebpf4jnsgd1na2vs0mg"},{"bike_id":"79b06513-1be3-43fd-a1aa-b7c7c6c1c8db","system_id":"levelo_inurba_marseille","lat":43.308035,"lon":5.43528,"is_reserved":false,"is_disabled":false,"rental_uris":{"android":"levelo://app?vid=79b06513-1be3-43fd-a1aa-b7c7c6c1c8db","ios":"levelo://app?vid=79b06513-1be3-43fd-a1aa-b7c7c6c1c8db"},"vehicle_type_id":"4","last_reported":1746439912,"current_range_meters":26000,"station_id":"ce4bhph2rcd13ifvqheg","pricing_plan_id":"cebpf4jnsgd1na2vs0mg"},{"bike_id":"35c14a69-0e64-400b-befe-ccae2571a02e","system_id":"levelo_inurba_marseille","lat":43.28717,"lon":5.37937,"is_reserved":false,"is_disabled":false,"rental_uris":{"android":"levelo://app?vid=35c14a69-0e64-400b-befe-ccae2571a02e","ios":"levelo://app?vid=35c14a69-0e64-400b-befe-ccae2571a02e"},"vehicle_type_id":"4","last_reported":1746439912,"current_range_meters":26800,"station_id":"ce4bh9p2rcd13ifvqec0","pricing_plan_id":"cebpf4jnsgd1na2vs0mg"},{"bike_id":"64d6bfb2-97bc-405f-8e34-a887eae2133f","system_id":"levelo_inurba_marseille","lat":43.24646,"lon":5.3889,"is_reserved":false,"is_disabled":false,"rental_uris":{"android":"levelo://app?vid=64d6bfb2-97bc-405f-8e34-a887eae2133f","ios":"levelo://app?vid=64d6bfb2-97bc-405f-8e34-a887eae2133f"},"vehicle_type_id":"4","last_reported":1746439912,"current_range_meters":26800,"station_id":"ce4bhg12rcd13ifvqf60","pricing_plan_id":"cebpf4jnsgd1na2vs0mg"},{"bike_id":"559c0644-c43e-4040-ba42-79580febc08d","system_id":"levelo_inurba_marseille","lat":43.2439,"lon":5.37052,"is_reserved":false,"is_disabled":false,"rental_uris":{"android":"levelo://app?vid=559c0644-c43e-4040-ba42-79580febc08d","ios":"levelo://app?vid=559c0644-c43e-4040-ba42-79580febc08d"},"vehicle_type_id":"4","last_reported":1746439912,"current_range_meters":26800,"station_id":"ce4bhhh2rcd13ifvqfk0","pricing_plan_id":"cebpf4jnsgd1na2vs0mg"},{"bike_id":"5232bde8-3dd8-4af8-a362-705d9ed2478e","system_id":"levelo_inurba_marseille","lat":43.27995,"lon":5.41672,"is_reserved":false,"is_disabled":false,"rental_uris":{"android":"levelo://app?vid=5232bde8-3dd8-4af8-a362-705d9ed2478e","ios":"levelo://app?vid=5232bde8-3dd8-4af8-a362-705d9ed2478e"},"vehicle_type_id":"4","last_reported":1746439912,"current_range_meters":26800,"station_id":"ce4bho12rcd13ifvqh1g","pricing_plan_id":"cebpf4jnsgd1na2vs0mg"},{"bike_id":"c599a77c-3c56-4ef0-b26c-2d4c4ce2d0c7","system_id":"levelo_inurba_marseille","lat":43.30936,"lon":5.40146,"is_reserved":false,"is_disabled":false,"rental_uris":{"android":"levelo://app?vid=c599a77c-3c56-4ef0-b26c-2d4c4ce2d0c7","ios":"levelo://app?vid=c599a77c-3c56-4ef0-b26c-2d4c4ce2d0c7"},"vehicle_type_id":"4","last_reported":1746439912,"current_range_meters":27200,"station_id":"ce4bgvp2rcd13ifvqct0","pricing_plan_id":"cebpf4jnsgd1na2vs0mg"},{"bike_id":"5b8d7de3-fd62-401b-aec2-45345a28ccf9","system_id":"levelo_inurba_marseille","lat":43.25914,"lon":5.40868,"is_reserved":false,"is_disabled":false,"rental_uris":{"android":"levelo://app?vid=5b8d7de3-fd62-401b-aec2-45345a28ccf9","ios":"levelo://app?vid=5b8d7de3-fd62-401b-aec2-45345a28ccf9"},"vehicle_type_id":"4","last_reported":1746439912,"current_range_meters":27200,"station_id":"ce4bhm92rcd13ifvqglg","pricing_plan_id":"cebpf4jnsgd1na2vs0mg"},{"bike_id":"fa02d5da-a6c8-4512-94f1-aeb32d688931","system_id":"levelo_inurba_marseille","lat":43.2417,"lon":5.39708,"is_reserved":false,"is_disabled":false,"rental_uris":{"android":"levelo://app?vid=fa02d5da-a6c8-4512-94f1-aeb32d688931","ios":"levelo://app?vid=fa02d5da-a6c8-4512-94f1-aeb32d688931"},"vehicle_type_id":"4","last_reported":1746439912,"current_range_meters":27200,"station_id":"ce4bhn12rcd13ifvqgpg","pricing_plan_id":"cebpf4jnsgd1na2vs0mg"},{"bike_id":"b838c0e6-072a-488e-8533-779a91c3b493","system_id":"levelo_inurba_marseille","lat":43.26934,"lon":5.4026,"is_reserved":false,"is_disabled":false,"rental_uris":{"android":"levelo://app?vid=b838c0e6-072a-488e-8533-779a91c3b493","ios":"levelo://app?vid=b838c0e6-072a-488e-8533-779a91c3b493"},"vehicle_type_id":"4","last_reported":1746439912,"current_range_meters":27200,"station_id":"cjm6bp8fraef2m0cb0m0","pricing_plan_id":"cebpf4jnsgd1na2vs0mg"},{"bike_id":"89a87ac7-bc3b-476b-9481-69c3b8e589cc","system_id":"levelo_inurba_marseille","lat":43.28493,"lon":5.3708,"is_reserved":false,"is_disabled":false,"rental_uris":{"android":"levelo://app?vid=89a87ac7-bc3b-476b-9481-69c3b8e589cc","ios":"levelo://app?vid=89a87ac7-bc3b-476b-9481-69c3b8e589cc"},"vehicle_type_id":"4","last_reported":1746439912,"current_range_meters":27600,"station_id":"","pricing_plan_id":"cebpf4jnsgd1na2vs0mg"},{"bike_id":"ef87a01c-b5a4-466c-b695-d1b4d8006aba","system_id":"levelo_inurba_marseille","lat":43.33791,"lon":5.37421,"is_reserved":false,"is_disabled":false,"rental_uris":{"android":"levelo://app?vid=ef87a01c-b5a4-466c-b695-d1b4d8006aba","ios":"levelo://app?vid=ef87a01c-b5a4-466c-b695-d1b4d8006aba"},"vehicle_type_id":"4","last_reported":1746439912,"current_range_meters":27600,"station_id":"","pricing_plan_id":"cebpf4jnsgd1na2vs0mg"},{"bike_id":"d6e50450-5b25-4e3e-8639-900097626145","system_id":"levelo_inurba_marseille","lat":43.30538,"lon":5.36523,"is_reserved":false,"is_disabled":false,"rental_uris":{"android":"levelo://app?vid=d6e50450-5b25-4e3e-8639-900097626145","ios":"levelo://app?vid=d6e50450-5b25-4e3e-8639-900097626145"},"vehicle_type_id":"4","last_reported":1746439912,"current_range_meters":27600,"station_id":"ce4bgs12rcd13ifvqcag","pricing_plan_id":"cebpf4jnsgd1na2vs0mg"},{"bike_id":"52de92c0-480d-499e-b84d-f6148d23f730","system_id":"levelo_inurba_marseille","lat":43.28378,"lon":5.38644,"is_reserved":false,"is_disabled":false,"rental_uris":{"android":"levelo://app?vid=52de92c0-480d-499e-b84d-f6148d23f730","ios":"levelo://app?vid=52de92c0-480d-499e-b84d-f6148d23f730"},"vehicle_type_id":"4","last_reported":1746439912,"current_range_meters":27600,"station_id":"ce4bh492rcd13ifvqdvg","pricing_plan_id":"cebpf4jnsgd1na2vs0mg"},{"bike_id":"532e5d5e-18c4-4d38-8bf6-6f4cfbd634ca","system_id":"levelo_inurba_marseille","lat":43.26022,"lon":5.37554,"is_reserved":false,"is_disabled":false,"rental_uris":{"android":"levelo://app?vid=532e5d5e-18c4-4d38-8bf6-6f4cfbd634ca","ios":"levelo://app?vid=532e5d5e-18c4-4d38-8bf6-6f4cfbd634ca"},"vehicle_type_id":"4","last_reported":1746439912,"current_range_meters":27600,"station_id":"ce4bhgh2rcd13ifvqfa0","pricing_plan_id":"cebpf4jnsgd1na2vs0mg"},{"bike_id":"b5fec1f9-55cb-4de3-ad6a-ffd685af82fa","system_id":"levelo_inurba_marseille","lat":43.27996,"lon":5.41648,"is_reserved":false,"is_disabled":false,"rental_uris":{"android":"levelo://app?vid=b5fec1f9-55cb-4de3-ad6a-ffd685af82fa","ios":"levelo://app?vid=b5fec1f9-55cb-4de3-ad6a-ffd685af82fa"},"vehicle_type_id":"4","last_reported":1746439912,"current_range_meters":27600,"station_id":"ce4bho12rcd13ifvqh1g","pricing_plan_id":"cebpf4jnsgd1na2vs0mg"},{"bike_id":"7a6c5aab-c60b-4040-b4a6-d09dcbafcda5","system_id":"levelo_inurba_marseille","lat":43.30556,"lon":5.36567,"is_reserved":false,"is_disabled":false,"rental_uris":{"android":"levelo://app?vid=7a6c5aab-c60b-4040-b4a6-d09dcbafcda5","ios":"levelo://app?vid=7a6c5aab-c60b-4040-b4a6-d09dcbafcda5"},"vehicle_type_id":"4","last_reported":1746439912,"current_range_meters":28000,"station_id":"ce4bgs12rcd13ifvqcag","pricing_plan_id":"cebpf4jnsgd1na2vs0mg"},{"bike_id":"c6af4f33-3405-46da-a1f2-cfb9b784ab3d","system_id":"levelo_inurba_marseille","lat":43.30554,"lon":5.36563,"is_reserved":false,"is_disabled":false,"rental_uris":{"android":"levelo://app?vid=c6af4f33-3405-46da-a1f2-cfb9b784ab3d","ios":"levelo://app?vid=c6af4f33-3405-46da-a1f2-cfb9b784ab3d"},"vehicle_type_id":"4","last_reported":1746439912,"current_range_meters":28000,"station_id":"ce4bgs12rcd13ifvqcag","pricing_plan_id":"cebpf4jnsgd1na2vs0mg"},{"bike_id":"107a5235-37d3-401a-8fb0-eb41e4eb6d8e","system_id":"levelo_inurba_marseille","lat":43.30541,"lon":5.36533,"is_reserved":false,"is_disabled":false,"rental_uris":{"android":"levelo://app?vid=107a5235-37d3-401a-8fb0-eb41e4eb6d8e","ios":"levelo://app?vid=107a5235-37d3-401a-8fb0-eb41e4eb6d8e"},"vehicle_type_id":"4","last_reported":1746439912,"current_range_meters":28000,"station_id":"ce4bgs12rcd13ifvqcag","pricing_plan_id":"cebpf4jnsgd1na2vs0mg"},{"bike_id":"e7cf2a0a-741d-4f46-b0d4-453a4c40bde3","system_id":"levelo_inurba_marseille","lat":43.29036,"lon":5.39967,"is_reserved":false,"is_disabled":false,"rental_uris":{"android":"levelo://app?vid=e7cf2a0a-741d-4f46-b0d4-453a4c40bde3","ios":"levelo://app?vid=e7cf2a0a-741d-4f46-b0d4-453a4c40bde3"},"vehicle_type_id":"4","last_reported":1746439912,"current_range_meters":28000,"station_id":"ce4bh392rcd13ifvqdm0","pricing_plan_id":"cebpf4jnsgd1na2vs0mg"},{"bike_id":"3c718984-ba5b-497c-af57-cae459584ee9","system_id":"levelo_inurba_marseille","lat":43.32333,"lon":5.38857,"is_reserved":false,"is_disabled":false,"rental_uris":{"android":"levelo://app?vid=3c718984-ba5b-497c-af57-cae459584ee9","ios":"levelo://app?vid=3c718984-ba5b-497c-af57-cae459584ee9"},"vehicle_type_id":"4","last_reported":1746439912,"current_range_meters":28000,"station_id":"ce4bhqp2rcd13ifvqhog","pricing_plan_id":"cebpf4jnsgd1na2vs0mg"},{"bike_id":"65e45e1a-c2da-4b28-9d39-c4d108a80333","system_id":"levelo_inurba_marseille","lat":43.243877,"lon":5.37061,"is_reserved":false,"is_disabled":false,"rental_uris":{"android":"levelo://app?vid=65e45e1a-c2da-4b28-9d39-c4d108a80333","ios":"levelo://app?vid=65e45e1a-c2da-4b28-9d39-c4d108a80333"},"vehicle_type_id":"4","last_reported":1746439912,"current_range_meters":28400,"station_id":"ce4bhhh2rcd13ifvqfk0","pricing_plan_id":"cebpf4jnsgd1na2vs0mg"},{"bike_id":"9f3623e6-1843-4b9c-b358-3a4488f749de","system_id":"levelo_inurba_marseille","lat":43.23965,"lon":5.36626,"is_reserved":false,"is_disabled":false,"rental_uris":{"android":"levelo://app?vid=9f3623e6-1843-4b9c-b358-3a4488f749de","ios":"levelo://app?vid=9f3623e6-1843-4b9c-b358-3a4488f749de"},"vehicle_type_id":"4","last_reported":1746439912,"current_range_meters":28400,"station_id":"ce4bhi12rcd13ifvqfp0","pricing_plan_id":"cebpf4jnsgd1na2vs0mg"},{"bike_id":"59d32755-6826-4b0e-bac9-51d62d5a2249","system_id":"levelo_inurba_marseille","lat":43.25937,"lon":5.40883,"is_reserved":false,"is_disabled":false,"rental_uris":{"android":"levelo://app?vid=59d32755-6826-4b0e-bac9-51d62d5a2249","ios":"levelo://app?vid=59d32755-6826-4b0e-bac9-51d62d5a2249"},"vehicle_type_id":"4","last_reported":1746439912,"current_range_meters":28400,"station_id":"ce4bhm92rcd13ifvqglg","pricing_plan_id":"cebpf4jnsgd1na2vs0mg"},{"bike_id":"bbf8ec1b-0fc1-4f18-91b4-53cd84197477","system_id":"levelo_inurba_marseille","lat":43.32352,"lon":5.3673,"is_reserved":false,"is_disabled":false,"rental_uris":{"android":"levelo://app?vid=bbf8ec1b-0fc1-4f18-91b4-53cd84197477","ios":"levelo://app?vid=bbf8ec1b-0fc1-4f18-91b4-53cd84197477"},"vehicle_type_id":"4","last_reported":1746439912,"current_range_meters":28400,"station_id":"ce4bhsh2rcd13ifvqi2g","pricing_plan_id":"cebpf4jnsgd1na2vs0mg"},{"bike_id":"e15b5a77-7686-4539-9857-e0077a4b049c","system_id":"levelo_inurba_marseille","lat":43.21749,"lon":5.34601,"is_reserved":false,"is_disabled":false,"rental_uris":{"android":"levelo://app?vid=e15b5a77-7686-4539-9857-e0077a4b049c","ios":"levelo://app?vid=e15b5a77-7686-4539-9857-e0077a4b049c"},"vehicle_type_id":"4","last_reported":1746439912,"current_range_meters":28400,"station_id":"st_cvj6r9ubvosntc0bgbag","pricing_plan_id":"cebpf4jnsgd1na2vs0mg"},{"bike_id":"873be0ab-23cd-4aea-b147-c5fdeffe76ca","system_id":"levelo_inurba_marseille","lat":43.29552,"lon":5.37534,"is_reserved":false,"is_disabled":false,"rental_uris":{"android":"levelo://app?vid=873be0ab-23cd-4aea-b147-c5fdeffe76ca","ios":"levelo://app?vid=873be0ab-23cd-4aea-b147-c5fdeffe76ca"},"vehicle_type_id":"4","last_reported":1746439912,"current_range_meters":28800,"station_id":"ce4bgh92rcd13ifvqb50","pricing_plan_id":"cebpf4jnsgd1na2vs0mg"},{"bike_id":"2262b91f-612e-40d1-bdc9-d1b72977ffbf","system_id":"levelo_inurba_marseille","lat":43.26029,"lon":5.37557,"is_reserved":false,"is_disabled":false,"rental_uris":{"android":"levelo://app?vid=2262b91f-612e-40d1-bdc9-d1b72977ffbf","ios":"levelo://app?vid=2262b91f-612e-40d1-bdc9-d1b72977ffbf"},"vehicle_type_id":"4","last_reported":1746439912,"current_range_meters":28800,"station_id":"ce4bhgh2rcd13ifvqfa0","pricing_plan_id":"cebpf4jnsgd1na2vs0mg"},{"bike_id":"7faca34c-062d-48db-9cdb-49aa41c44864","system_id":"levelo_inurba_marseille","lat":43.26031,"lon":5.3755,"is_reserved":false,"is_disabled":false,"rental_uris":{"android":"levelo://app?vid=7faca34c-062d-48db-9cdb-49aa41c44864","ios":"levelo://app?vid=7faca34c-062d-48db-9cdb-49aa41c44864"},"vehicle_type_id":"4","last_reported":1746439912,"current_range_meters":28800,"station_id":"ce4bhgh2rcd13ifvqfa0","pricing_plan_id":"cebpf4jnsgd1na2vs0mg"},{"bike_id":"046a4940-6aab-40ad-8253-d9c1ad0afa82","system_id":"levelo_inurba_marseille","lat":43.33593,"lon":5.41024,"is_reserved":false,"is_disabled":false,"rental_uris":{"android":"levelo://app?vid=046a4940-6aab-40ad-8253-d9c1ad0afa82","ios":"levelo://app?vid=046a4940-6aab-40ad-8253-d9c1ad0afa82"},"vehicle_type_id":"4","last_reported":1746439912,"current_range_meters":28800,"station_id":"ce4bhqh2rcd13ifvqhmg","pricing_plan_id":"cebpf4jnsgd1na2vs0mg"},{"bike_id":"8df37787-a611-4ce6-9e65-032cb168f59b","system_id":"levelo_inurba_marseille","lat":43.21207,"lon":5.35067,"is_reserved":false,"is_disabled":false,"rental_uris":{"android":"levelo://app?vid=8df37787-a611-4ce6-9e65-032cb168f59b","ios":"levelo://app?vid=8df37787-a611-4ce6-9e65-032cb168f59b"},"vehicle_type_id":"4","last_reported":1746439912,"current_range_meters":28800,"station_id":"st_cvj6sg6p6f1abm77japg","pricing_plan_id":"cebpf4jnsgd1na2vs0mg"},{"bike_id":"7bfd5881-8936-48c4-9fd3-5ff042755e3f","system_id":"levelo_inurba_marseille","lat":43.30511,"lon":5.36531,"is_reserved":false,"is_disabled":false,"rental_uris":{"android":"levelo://app?vid=7bfd5881-8936-48c4-9fd3-5ff042755e3f","ios":"levelo://app?vid=7bfd5881-8936-48c4-9fd3-5ff042755e3f"},"vehicle_type_id":"4","last_reported":1746439912,"current_range_meters":29600,"station_id":"","pricing_plan_id":"cebpf4jnsgd1na2vs0mg"},{"bike_id":"f2922c9d-38b9-4bb1-a117-8fe91add4544","system_id":"levelo_inurba_marseille","lat":43.33134,"lon":5.38187,"is_reserved":false,"is_disabled":false,"rental_uris":{"android":"levelo://app?vid=f2922c9d-38b9-4bb1-a117-8fe91add4544","ios":"levelo://app?vid=f2922c9d-38b9-4bb1-a117-8fe91add4544"},"vehicle_type_id":"4","last_reported":1746439912,"current_range_meters":29600,"station_id":"","pricing_plan_id":"cebpf4jnsgd1na2vs0mg"},{"bike_id":"3a8412c1-a7c6-4142-b8ea-f0154be5da41","system_id":"levelo_inurba_marseille","lat":43.26036,"lon":5.37548,"is_reserved":false,"is_disabled":false,"rental_uris":{"android":"levelo://app?vid=3a8412c1-a7c6-4142-b8ea-f0154be5da41","ios":"levelo://app?vid=3a8412c1-a7c6-4142-b8ea-f0154be5da41"},"vehicle_type_id":"4","last_reported":1746439912,"current_range_meters":29600,"station_id":"ce4bhgh2rcd13ifvqfa0","pricing_plan_id":"cebpf4jnsgd1na2vs0mg"},{"bike_id":"b5f4324a-1914-4a04-8810-fc3379b5594b","system_id":"levelo_inurba_marseille","lat":43.26028,"lon":5.37553,"is_reserved":false,"is_disabled":false,"rental_uris":{"android":"levelo://app?vid=b5f4324a-1914-4a04-8810-fc3379b5594b","ios":"levelo://app?vid=b5f4324a-1914-4a04-8810-fc3379b5594b"},"vehicle_type_id":"4","last_reported":1746439912,"current_range_meters":29600,"station_id":"ce4bhgh2rcd13ifvqfa0","pricing_plan_id":"cebpf4jnsgd1na2vs0mg"},{"bike_id":"fe330823-4ce3-4c48-811f-dcfa52dc2e31","system_id":"levelo_inurba_marseille","lat":43.308115,"lon":5.435189,"is_reserved":false,"is_disabled":false,"rental_uris":{"android":"levelo://app?vid=fe330823-4ce3-4c48-811f-dcfa52dc2e31","ios":"levelo://app?vid=fe330823-4ce3-4c48-811f-dcfa52dc2e31"},"vehicle_type_id":"4","last_reported":1746439912,"current_range_meters":29600,"station_id":"ce4bhph2rcd13ifvqheg","pricing_plan_id":"cebpf4jnsgd1na2vs0mg"},