{"last_updated":1744136006,"ttl":60,"version":"2.2","data":{"bikes":[{"bike_id":"560e17bf-ac37-4844-88f0-aa3a929cf095","system_id":"levelo_inurba_marseille","lat":43.29422,"lon":5.38626,"is_reserved":false,"is_disabled":true,"rental_uris":{"android":"levelo://app?vid=560e17bf-ac37-4844-88f0-aa3a929cf095","ios":"levelo://app?vid=560e17bf-ac37-4844-88f0-aa3a929cf095"},"vehicle_type_id":"4","last_reported":1744136006,"current_range_meters":2800,"station_id":"ce4bh2h2rcd13ifvqdh0","pricing_plan_id":"cebpf4jnsgd1na2vs0mg"},{"bike_id":"1f36a339-4564-479e-92ec-6ec45eee838c","system_id":"levelo_inurba_marseille","lat":43.295172,"lon":5.389479,"is_reserved":false,"is_disabled":false,"rental_uris":{"android":"levelo://app?vid=1f36a339-4564-479e-92ec-6ec45eee838c","ios":"levelo://app?vid=1f36a339-4564-479e-92ec-6ec45eee838c"},"vehicle_type_id":"4","last_reported":1744136006,"current_range_meters":2800,"station_id":"ce4bh3p2rcd13ifvqdp0","pricing_plan_id":"cebpf4jnsgd1na2vs0mg"},{"bike_id":"d3045b13-ea31-46e1-9d34-d6ac8eb2daa2","system_id":"levelo_inurba_marseille","lat":43.27369,"lon":5.3626,"is_reserved":false,"is_disabled":true,"rental_uris":{"android":"levelo://app?vid=d3045b13-ea31-46e1-9d34-d6ac8eb2daa2","ios":"levelo://app?vid=d3045b13-ea31-46e1-9d34-d6ac8eb2daa2"},"vehicle_type_id":"4","last_reported":1744136006,"current_range_meters":2800,"station_id":"ce4bhbh2rcd13ifvqeo0","pricing_plan_id":"cebpf4jnsgd1na2vs0mg"},{"bike_id":"a959694d-18ce-4d80-917f-23c91ed81065","system_id":"levelo_inurba_marseille","lat":43.29917,"lon":5.43694,"is_reserved":false,"is_disabled":true,"rental_uris":{"android":"levelo://app?vid=a959694d-18ce-4d80-917f-23c91ed81065","ios":"levelo://app?vid=a959694d-18ce-4d80-917f-23c91ed81065"},"vehicle_type_id":"4","last_reported":1744136006,"current_range_meters":2800,"station_id":"ce4bhpp2rcd13ifvqhfg","pricing_plan_id":"cebpf4jnsgd1na2vs0mg"},{"bike_id":"1ebab13a-f5a4-495e-89e4-7586a2aac124","system_id":"levelo_inurba_marseille","lat":43.32482,"lon":5.36571,"is_reserved":false,"is_disabled":false,"rental_uris":{"android":"levelo://app?vid=1ebab13a-f5a4-495e-89e4-7586a2aac124","ios":"levelo://app?vid=1ebab13a-f5a4-495e-89e4-7586a2aac124"},"vehicle_type_id":"4","last_reported":1744136006,"current_range_meters":2800,"station_id":"ce4bhs12rcd13ifvqhvg","pricing_plan_id":"cebpf4jnsgd1na2vs0mg"},{"bike_id":"e73dedc1-f8ec-40c8-8b9b-a33bfea34595","system_id":"levelo_inurba_marseille","lat":43.28756,"lon":5.36133,"is_reserved":false,"is_disabled":false,"rental_uris":{"android":"levelo://app?vid=e73dedc1-f8ec-40c8-8b9b-a33bfea34595","ios":"levelo://app?vid=e73dedc1-f8ec-40c8-8b9b-a33bfea34595"},"vehicle_type_id":"4","last_reported":1744136006,"current_range_meters":2800,"station_id":"cki0cbj6b192h4jlfktg","pricing_plan_id":"cebpf4jnsgd1na2vs0mg"},{"bike_id":"1c97db44-aed8-41fd-aa73-89799e822be6","system_id":"levelo_inurba_marseille","lat":43.298767,"lon":5.389139,"is_reserved":false,"is_disabled":false,"rental_uris":{"android":"levelo://app?vid=1c97db44-aed8-41fd-aa73-89799e822be6","ios":"levelo://app?vid=1c97db44-aed8-41fd-aa73-89799e822be6"},"vehicle_type_id":"4","last_reported":1744136006,"current_range_meters":2000,"station_id":"ce4bh392rcd13ifvqdl0","pricing_plan_id":"cebpf4jnsgd1na2vs0mg"},{"bike_id":"662bc58d-5fb7-4602-ba0a-33276d1ed023","system_id":"levelo_inurba_marseille","lat":43.3169,"lon":5.4047,"is_reserved":false,"is_disabled":false,"rental_uris":{"android":"levelo://app?vid=662bc58d-5fb7-4602-ba0a-33276d1ed023","ios":"levelo://app?vid=662bc58d-5fb7-4602-ba0a-33276d1ed023"},"vehicle_type_id":"4","last_reported":1744136006,"current_range_meters":3200,"station_id":"ce4bh012rcd13ifvqd00","pricing_plan_id":"cebpf4jnsgd1na2vs0mg"},{"bike_id":"d1727fde-469e-48e3-93bf-4262537830fa","system_id":"levelo_inurba_marseille","lat":43.27619,"lon":5.361,"is_reserved":false,"is_disabled":false,"rental_uris":{"android":"levelo://app?vid=d1727fde-469e-48e3-93bf-4262537830fa","ios":"levelo://app?vid=d1727fde-469e-48e3-93bf-4262537830fa"},"vehicle_type_id":"4","last_reported":1744136006,"current_range_meters":3200,"station_id":"ce4bgj92rcd13ifvqbe0","pricing_plan_id":"cebpf4jnsgd1na2vs0mg"},{"bike_id":"66413117-9873-46d3-a02f-6f237562b0ee","system_id":"levelo_inurba_marseille","lat":43.2996,"lon":5.38501,"is_reserved":false,"is_disabled":false,"rental_uris":{"android":"levelo://app?vid=66413117-9873-46d3-a02f-6f237562b0ee","ios":"levelo://app?vid=66413117-9873-46d3-a02f-6f237562b0ee"},"vehicle_type_id":"4","last_reported":1744136006,"current_range_meters":3200,"station_id":"ce4bgj92rcd13ifvqbd0","pricing_plan_id":"cebpf4jnsgd1na2vs0mg"},{"bike_id":"6011ab96-e955-4ca8-95b1-9776ff68c79a","system_id":"levelo_inurba_marseille","lat":43.27375,"lon":5.36248,"is_reserved":false,"is_disabled":false,"rental_uris":{"android":"levelo://app?vid=6011ab96-e955-4ca8-95b1-9776ff68c79a","ios":"levelo://app?vid=6011ab96-e955-4ca8-95b1-9776ff68c79a"},"vehicle_type_id":"4","last_reported":1744136006,"current_range_meters":3200,"station_id":"ce4bhbh2rcd13ifvqeo0","pricing_plan_id":"cebpf4jnsgd1na2vs0mg"},{"bike_id":"f6d4f01f-96d5-471a-a272-806dc28068d5","system_id":"levelo_inurba_marseille","lat":43.28343,"lon":5.38104,"is_reserved":false,"is_disabled":false,"rental_uris":{"android":"levelo://app?vid=f6d4f01f-96d5-471a-a272-806dc28068d5","ios":"levelo://app?vid=f6d4f01f-96d5-471a-a272-806dc28068d5"},"vehicle_type_id":"4","last_reported":1744136006,"current_range_meters":3200,"station_id":"ce4bh412rcd13ifvqdr0","pricing_plan_id":"cebpf4jnsgd1na2vs0mg"},{"bike_id":"e2be3212-153f-44fa-ac6b-1582beba71a4","system_id":"levelo_inurba_marseille","lat":43.2902,"lon":5.3861,"is_reserved":false,"is_disabled":false,"rental_uris":{"android":"levelo://app?vid=e2be3212-153f-44fa-ac6b-1582beba71a4","ios":"levelo://app?vid=e2be3212-153f-44fa-ac6b-1582beba71a4"},"vehicle_type_id":"4","last_reported":1744136006,"current_range_meters":3200,"station_id":"ce4bh4p2rcd13ifvqe0g","pricing_plan_id":"cebpf4jnsgd1na2vs0mg"},{"bike_id":"041cfdbf-f317-4e38-95cf-74bccebac012","system_id":"levelo_inurba_marseille","lat":43.28116,"lon":5.37847,"is_reserved":false,"is_disabled":false,"rental_uris":{"android":"levelo://app?vid=041cfdbf-f317-4e38-95cf-74bccebac012","ios":"levelo://app?vid=041cfdbf-f317-4e38-95cf-74bccebac012"},"vehicle_type_id":"4","last_reported":1744136006,"current_range_meters":3200,"station_id":"ce4bha12rcd13ifvqee0","pricing_plan_id":"cebpf4jnsgd1na2vs0mg"},{"bike_id":"b8737717-6846-43d4-a823-a711e67ce6f5","system_id":"levelo_inurba_marseille","lat":43.29264,"lon":5.38446,"is_reserved":false,"is_disabled":false,"rental_uris":{"android":"levelo://app?vid=b8737717-6846-43d4-a823-a711e67ce6f5","ios":"levelo://app?vid=b8737717-6846-43d4-a823-a711e67ce6f5"},"vehicle_type_id":"4","last_reported":1744136006,"current_range_meters":3600,"station_id":"ce4bh692rcd13ifvqea0","pricing_plan_id":"cebpf4jnsgd1na2vs0mg"},{"bike_id":"14d79d34-fb5d-4e7e-a848-a49a38c70567","system_id":"levelo_inurba_marseille","lat":43.31272,"lon":5.40174,"is_reserved":false,"is_disabled":false,"rental_uris":{"android":"levelo://app?vid=14d79d34-fb5d-4e7e-a848-a49a38c70567","ios":"levelo://app?vid=14d79d34-fb5d-4e7e-a848-a49a38c70567"},"vehicle_type_id":"4","last_reported":1744136006,"current_range_meters":3600,"station_id":"ce4bh092rcd13ifvqd30","pricing_plan_id":"cebpf4jnsgd1na2vs0mg"},{"bike_id":"29c217d4-f3ff-4582-83f0-77f563868d59","system_id":"levelo_inurba_marseille","lat":43.28951,"lon":5.36642,"is_reserved":false,"is_disabled":false,"rental_uris":{"android":"levelo://app?vid=29c217d4-f3ff-4582-83f0-77f563868d59","ios":"levelo://app?vid=29c217d4-f3ff-4582-83f0-77f563868d59"},"vehicle_type_id":"4","last_reported":1744136006,"current_range_meters":3600,"station_id":"ce4bhap2rcd13ifvqek0","pricing_plan_id":"cebpf4jnsgd1na2vs0mg"},{"bike_id":"e615de16-bf28-45aa-8c0a-faafe76bdcdc","system_id":"levelo_inurba_marseille","lat":43.313357,"lon":5.396873,"is_reserved":false,"is_disabled":true,"rental_uris":{"android":"levelo://app?vid=e615de16-bf28-45aa-8c0a-faafe76bdcdc","ios":"levelo://app?vid=e615de16-bf28-45aa-8c0a-faafe76bdcdc"},"vehicle_type_id":"4","last_reported":1744136006,"current_range_meters":3600,"station_id":"ce4bgvp2rcd13ifvqcu0","pricing_plan_id":"cebpf4jnsgd1na2vs0mg"},{"bike_id":"dbbef4ce-2125-418c-982b-c4e03739e103","system_id":"levelo_inurba_marseille","lat":43.29229,"lon":5.36077,"is_reserved":false,"is_disabled":false,"rental_uris":{"android":"levelo://app?vid=dbbef4ce-2125-418c-982b-c4e03739e103","ios":"levelo://app?vid=dbbef4ce-2125-418c-982b-c4e03739e103"},"vehicle_type_id":"4","last_reported":1744136006,"current_range_meters":3600,"station_id":"ce4bhbh2rcd13ifvqeqg","pricing_plan_id":"cebpf4jnsgd1na2vs0mg"},{"bike_id":"e7a86924-5271-44fc-aa2c-61e4c73a211c","system_id":"levelo_inurba_marseille","lat":43.25719,"lon":5.41113,"is_reserved":false,"is_disabled":false,"rental_uris":{"android":"levelo://app?vid=e7a86924-5271-44fc-aa2c-61e4c73a211c","ios":"levelo://app?vid=e7a86924-5271-44fc-aa2c-61e4c73a211c"},"vehicle_type_id":"4","last_reported":1744136006,"current_range_meters":3600,"station_id":"ce4bhkp2rcd13ifvqgd0","pricing_plan_id":"cebpf4jnsgd1na2vs0mg"},{"bike_id":"c93abd94-fe4c-4d51-8205-3ba145fb576d","system_id":"levelo_inurba_marseille","lat":43.24656,"lon":5.3816,"is_reserved":false,"is_disabled":false,"rental_uris":{"android":"levelo://app?vid=c93abd94-fe4c-4d51-8205-3ba145fb576d","ios":"levelo://app?vid=c93abd94-fe4c-4d51-8205-3ba145fb576d"},"vehicle_type_id":"4","last_reported":1744136006,"current_range_meters":3600,"station_id":"ce4bhih2rcd13ifvqfr0","pricing_plan_id":"cebpf4jnsgd1na2vs0mg"},{"bike_id":"3ca560d1-495c-4757-b5dd-ac8f2b062801","system_id":"levelo_inurba_marseille","lat":43.28663,"lon":5.36342,"is_reserved":false,"is_disabled":false,"rental_uris":{"android":"levelo://app?vid=3ca560d1-495c-4757-b5dd-ac8f2b062801","ios":"levelo://app?vid=3ca560d1-495c-4757-b5dd-ac8f2b062801"},"vehicle_type_id":"4","last_reported":1744136006,"current_range_meters":3600,"station_id":"ce4bhah2rcd13ifvqej0","pricing_plan_id":"cebpf4jnsgd1na2vs0mg"},{"bike_id":"a01f3e0b-a627-47df-bfae-dd5327cd723a","system_id":"levelo_inurba_marseille","lat":43.286377,"lon":5.351407,"is_reserved":false,"is_disabled":false,"rental_uris":{"android":"levelo://app?vid=a01f3e0b-a627-47df-bfae-dd5327cd723a","ios":"levelo://app?vid=a01f3e0b-a627-47df-bfae-dd5327cd723a"},"vehicle_type_id":"4","last_reported":1744136006,"current_range_meters":3600,"station_id":"ce4bh012rcd13ifvqcv0","pricing_plan_id":"cebpf4jnsgd1na2vs0mg"},{"bike_id":"421c06bb-cbff-4e2b-a83f-8e60ab357e92","system_id":"levelo_inurba_marseille","lat":43.29532,"lon":5.39067,"is_reserved":false,"is_disabled":false,"rental_uris":{"android":"levelo://app?vid=421c06bb-cbff-4e2b-a83f-8e60ab357e92","ios":"levelo://app?vid=421c06bb-cbff-4e2b-a83f-8e60ab357e92"},"vehicle_type_id":"4","last_reported":1744136006,"current_range_meters":3600,"station_id":"ce4bh3p2rcd13ifvqdp0","pricing_plan_id":"cebpf4jnsgd1na2vs0mg"},{"bike_id":"42c33152-4719-490b-bd8f-b408020ac3ee","system_id":"levelo_inurba_marseille","lat":43.294153,"lon":5.386241,"is_reserved":false,"is_disabled":false,"rental_uris":{"android":"levelo://app?vid=42c33152-4719-490b-bd8f-b408020ac3ee","ios":"levelo://app?vid=42c33152-4719-490b-bd8f-b408020ac3ee"},"vehicle_type_id":"4","last_reported":1744136006,"current_range_meters":4000,"station_id":"ce4bh2h2rcd13ifvqdh0","pricing_plan_id":"cebpf4jnsgd1na2vs0mg"},{"bike_id":"66b52508-51ae-4d7d-a365-04a3e71fe5ac","system_id":"levelo_inurba_marseille","lat":43.29418,"lon":5.38626,"is_reserved":false,"is_disabled":false,"rental_uris":{"android":"levelo://app?vid=66b52508-51ae-4d7d-a365-04a3e71fe5ac","ios":"levelo://app?vid=66b52508-51ae-4d7d-a365-04a3e71fe5ac"},"vehicle_type_id":"4","last_reported":1744136006,"current_range_meters":4000,"station_id":"ce4bh2h2rcd13ifvqdh0","pricing_plan_id":"cebpf4jnsgd1na2vs0mg"},{"bike_id":"117baf9d-2428-4ae3-996f-c49b6121b1cc","system_id":"levelo_inurba_marseille","lat":43.30314,"lon":5.36894,"is_reserved":false,"is_disabled":false,"rental_uris":{"android":"levelo://app?vid=117baf9d-2428-4ae3-996f-c49b6121b1cc","ios":"levelo://app?vid=117baf9d-2428-4ae3-996f-c49b6121b1cc"},"vehicle_type_id":"4","last_reported":1744136006,"current_range_meters":4000,"station_id":"ce4bgqh2rcd13ifvqc5g","pricing_plan_id":"cebpf4jnsgd1na2vs0mg"},{"bike_id":"81547417-f101-4363-b48e-736d3ce20b11","system_id":"levelo_inurba_marseille","lat":43.29003,"lon":5.35632,"is_reserved":false,"is_disabled":false,"rental_uris":{"android":"levelo://app?vid=81547417-f101-4363-b48e-736d3ce20b11","ios":"levelo://app?vid=81547417-f101-4363-b48e-736d3ce20b11"},"vehicle_type_id":"4","last_reported":1744136006,"current_range_meters":4000,"station_id":"ce4bhb92rcd13ifvqen0","pricing_plan_id":"cebpf4jnsgd1na2vs0mg"},{"bike_id":"c6304cc3-4663-4fec-aa3b-a4155988637c","system_id":"levelo_inurba_marseille","lat":43.26508,"lon":5.39561,"is_reserved":false,"is_disabled":false,"rental_uris":{"android":"levelo://app?vid=c6304cc3-4663-4fec-aa3b-a4155988637c","ios":"levelo://app?vid=c6304cc3-4663-4fec-aa3b-a4155988637c"},"vehicle_type_id":"4","last_reported":1744136006,"current_range_meters":4000,"station_id":"ce4bhi12rcd13ifvqfq0","pricing_plan_id":"cebpf4jnsgd1na2vs0mg"},{"bike_id":"e94f90fa-b658-434e-93d9-bd87cc75dd50","system_id":"levelo_inurba_marseille","lat":43.2868,"lon":5.37375,"is_reserved":false,"is_disabled":false,"rental_uris":{"android":"levelo://app?vid=e94f90fa-b658-434e-93d9-bd87cc75dd50","ios":"levelo://app?vid=e94f90fa-b658-434e-93d9-bd87cc75dd50"},"vehicle_type_id":"4","last_reported":1744136006,"current_range_meters":4000,"station_id":"ce4bh3p2rcd13ifvqdq0","pricing_plan_id":"cebpf4jnsgd1na2vs0mg"},{"bike_id":"5b6d9dca-0caa-423b-874a-af0d1023f251","system_id":"levelo_inurba_marseille","lat":43.29042,"lon":5.35916,"is_reserved":false,"is_disabled":false,"rental_uris":{"android":"levelo://app?vid=5b6d9dca-0caa-423b-874a-af0d1023f251","ios":"levelo://app?vid=5b6d9dca-0caa-423b-874a-af0d1023f251"},"vehicle_type_id":"4","last_reported":1744136006,"current_range_meters":4000,"station_id":"ce4bha92rcd13ifvqeg0","pricing_plan_id":"cebpf4jnsgd1na2vs0mg"},{"bike_id":"5b79fd17-71c7-46ba-a08e-72b15d99e820","system_id":"levelo_inurba_marseille","lat":43.22536,"lon":5.34781,"is_reserved":false,"is_disabled":true,"rental_uris":{"android":"levelo://app?vid=5b79fd17-71c7-46ba-a08e-72b15d99e820","ios":"levelo://app?vid=5b79fd17-71c7-46ba-a08e-72b15d99e820"},"vehicle_type_id":"4","last_reported":1744136006,"current_range_meters":4000,"station_id":"st_cvj5dfep6f1abm77gieg","pricing_plan_id":"cebpf4jnsgd1na2vs0mg"},{"bike_id":"dc4e564c-2e23-4eb2-a6b8-44be219f7989","system_id":"levelo_inurba_marseille","lat":43.29274,"lon":5.38453,"is_reserved":false,"is_disabled":false,"rental_uris":{"android":"levelo://app?vid=dc4e564c-2e23-4eb2-a6b8-44be219f7989","ios":"levelo://app?vid=dc4e564c-2e23-4eb2-a6b8-44be219f7989"},"vehicle_type_id":"4","last_reported":1744136006,"current_range_meters":4000,"station_id":"ce4bh692rcd13ifvqea0","pricing_plan_id":"cebpf4jnsgd1na2vs0mg"},{"bike_id":"14122957-50a2-4b82-8133-4ff4dee93699","system_id":"levelo_inurba_marseille","lat":43.29214,"lon":5.3604,"is_reserved":false,"is_disabled":false,"rental_uris":{"android":"levelo://app?vid=14122957-50a2-4b82-8133-4ff4dee93699","ios":"levelo://app?vid=14122957-50a2-4b82-8133-4ff4dee93699"},"vehicle_type_id":"4","last_reported":1744136006,"current_range_meters":4000,"station_id":"ce4bhbh2rcd13ifvqeqg","pricing_plan_id":"cebpf4jnsgd1na2vs0mg"},{"bike_id":"b95f3cd3-0a5b-40e0-b06e-939996ffefa6","system_id":"levelo_inurba_marseille","lat":43.27833,"lon":5.40716,"is_reserved":false,"is_disabled":true,"rental_uris":{"android":"levelo://app?vid=b95f3cd3-0a5b-40e0-b06e-939996ffefa6","ios":"levelo://app?vid=b95f3cd3-0a5b-40e0-b06e-939996ffefa6"},"vehicle_type_id":"4","last_reported":1744136006,"current_range_meters":4000,"station_id":"ce4bhnh2rcd13ifvqgtg","pricing_plan_id":"cebpf4jnsgd1na2vs0mg"},{"bike_id":"bffbd70e-f56b-40d7-a5c7-1ffc8dbe35b2","system_id":"levelo_inurba_marseille","lat":43.292389,"lon":5.376207,"is_reserved":false,"is_disabled":false,"rental_uris":{"android":"levelo://app?vid=bffbd70e-f56b-40d7-a5c7-1ffc8dbe35b2","ios":"levelo://app?vid=bffbd70e-f56b-40d7-a5c7-1ffc8dbe35b2"},"vehicle_type_id":"4","last_reported":1744136006,"current_range_meters":4000,"station_id":"ce4bgi12rcd13ifvqb80","pricing_plan_id":"cebpf4jnsgd1na2vs0mg"},{"bike_id":"bb1cfb4e-e752-43bf-ab30-3c28f060a115","system_id":"levelo_inurba_marseille","lat":43.29534,"lon":5.38546,"is_reserved":false,"is_disabled":false,"rental_uris":{"android":"levelo://app?vid=bb1cfb4e-e752-43bf-ab30-3c28f060a115","ios":"levelo://app?vid=bb1cfb4e-e752-43bf-ab30-3c28f060a115"},"vehicle_type_id":"4","last_reported":1744136006,"current_range_meters":4400,"station_id":"ce4bgih2rcd13ifvqba0","pricing_plan_id":"cebpf4jnsgd1na2vs0mg"},{"bike_id":"e1c2a23e-36e5-44df-b256-019a315845fc","system_id":"levelo_inurba_marseille","lat":43.28724,"lon":5.3794,"is_reserved":false,"is_disabled":false,"rental_uris":{"android":"levelo://app?vid=e1c2a23e-36e5-44df-b256-019a315845fc","ios":"levelo://app?vid=e1c2a23e-36e5-44df-b256-019a315845fc"},"vehicle_type_id":"4","last_reported":1744136006,"current_range_meters":4000,"station_id":"ce4bh9p2rcd13ifvqec0","pricing_plan_id":"cebpf4jnsgd1na2vs0mg"},{"bike_id":"8828973b-9b18-40f1-8746-f792cb3badc0","system_id":"levelo_inurba_marseille","lat":43.27908,"lon":5.380173,"is_reserved":false,"is_disabled":false,"rental_uris":{"android":"levelo://app?vid=8828973b-9b18-40f1-8746-f792cb3badc0","ios":"levelo://app?vid=8828973b-9b18-40f1-8746-f792cb3badc0"},"vehicle_type_id":"4","last_reported":1744136006,"current_range_meters":4400,"station_id":"ce4bhf92rcd13ifvqf50","pricing_plan_id":"cebpf4jnsgd1na2vs0mg"},{"bike_id":"67e5ccc8-2f8f-44ff-b0fd-7a89cf85a973","system_id":"levelo_inurba_marseille","lat":43.29308,"lon":5.37465,"is_reserved":false,"is_disabled":false,"rental_uris":{"android":"levelo://app?vid=67e5ccc8-2f8f-44ff-b0fd-7a89cf85a973","ios":"levelo://app?vid=67e5ccc8-2f8f-44ff-b0fd-7a89cf85a973"},"vehicle_type_id":"4","last_reported":1744136006,"current_range_meters":4400,"station_id":"ce4bgi12rcd13ifvqb70","pricing_plan_id":"cebpf4jnsgd1na2vs0mg"},{"bike_id":"81c74b52-38ba-4dc7-b4d0-5555f23b9e95","system_id":"levelo_inurba_marseille","lat":43.30423,"lon":5.41278,"is_reserved":false,"is_disabled":false,"rental_uris":{"android":"levelo://app?vid=81c74b52-38ba-4dc7-b4d0-5555f23b9e95","ios":"levelo://app?vid=81c74b52-38ba-4dc7-b4d0-5555f23b9e95"},"vehicle_type_id":"4","last_reported":1744136006,"current_range_meters":4400,"station_id":"ce4bhop2rcd13ifvqh8g","pricing_plan_id":"cebpf4jnsgd1na2vs0mg"},{"bike_id":"63c1ba63-6fbb-4558-bf1b-d7a342278177","system_id":"levelo_inurba_marseille","lat":43.28957,"lon":5.36633,"is_reserved":false,"is_disabled":false,"rental_uris":{"android":"levelo://app?vid=63c1ba63-6fbb-4558-bf1b-d7a342278177","ios":"levelo://app?vid=63c1ba63-6fbb-4558-bf1b-d7a342278177"},"vehicle_type_id":"4","last_reported":1744136006,"current_range_meters":4400,"station_id":"ce4bhap2rcd13ifvqek0","pricing_plan_id":"cebpf4jnsgd1na2vs0mg"},{"bike_id":"dd4f500c-5150-4ce2-b937-6ce95d9f38db","system_id":"levelo_inurba_marseille","lat":43.29034,"lon":5.37582,"is_reserved":false,"is_disabled":false,"rental_uris":{"android":"levelo://app?vid=dd4f500c-5150-4ce2-b937-6ce95d9f38db","ios":"levelo://app?vid=dd4f500c-5150-4ce2-b937-6ce95d9f38db"},"vehicle_type_id":"4","last_reported":1744136006,"current_range_meters":4400,"station_id":"ce4bh692rcd13ifvqe90","pricing_plan_id":"cebpf4jnsgd1na2vs0mg"},{"bike_id":"5376c169-f18c-4511-b4b7-2373db708a92","system_id":"levelo_inurba_marseille","lat":43.29422,"lon":5.38631,"is_reserved":false,"is_disabled":false,"rental_uris":{"android":"levelo://app?vid=5376c169-f18c-4511-b4b7-2373db708a92","ios":"levelo://app?vid=5376c169-f18c-4511-b4b7-2373db708a92"},"vehicle_type_id":"4","last_reported":1744136006,"current_range_meters":4400,"station_id":"ce4bh2h2rcd13ifvqdh0","pricing_plan_id":"cebpf4jnsgd1na2vs0mg"},{"bike_id":"0ba287ac-e9ec-4eab-93c2-0e60aabd1ebb","system_id":"levelo_inurba_marseille","lat":43.330358,"lon":5.390677,"is_reserved":false,"is_disabled":false,"rental_uris":{"android":"levelo://app?vid=0ba287ac-e9ec-4eab-93c2-0e60aabd1ebb","ios":"levelo://app?vid=0ba287ac-e9ec-4eab-93c2-0e60aabd1ebb"},"vehicle_type_id":"4","last_reported":1744136006,"current_range_meters":4400,"station_id":"ce4bhr92rcd13ifvqhrg","pricing_plan_id":"cebpf4jnsgd1na2vs0mg"},{"bike_id":"5d736d3f-f703-458c-bf63-f473b3dc4ebd","system_id":"levelo_inurba_marseille","lat":43.29257,"lon":5.36087,"is_reserved":false,"is_disabled":false,"rental_uris":{"android":"levelo://app?vid=5d736d3f-f703-458c-bf63-f473b3dc4ebd","ios":"levelo://app?vid=5d736d3f-f703-458c-bf63-f473b3dc4ebd"},"vehicle_type_id":"4","last_reported":1744136006,"current_range_meters":4800,"station_id":"ce4bhbh2rcd13ifvqeqg","pricing_plan_id":"cebpf4jnsgd1na2vs0mg"},{"bike_id":"681235a5-89e7-4fa6-9cc1-a10c6011af9f","system_id":"levelo_inurba_marseille","lat":43.23196,"lon":5.3556,"is_reserved":false,"is_disabled":false,"rental_uris":{"android":"levelo://app?vid=681235a5-89e7-4fa6-9cc1-a10c6011af9f","ios":"levelo://app?vid=681235a5-89e7-4fa6-9cc1-a10c6011af9f"},"vehicle_type_id":"4","last_reported":1744136006,"current_range_meters":4400,"station_id":"ce4bhu92rcd13ifvqi70","pricing_plan_id":"cebpf4jnsgd1na2vs0mg"},{"bike_id":"f2f0c301-4b7b-42bc-8591-acee9b1e47bc","system_id":"levelo_inurba_marseille","lat":43.2873,"lon":5.37942,"is_reserved":false,"is_disabled":false,"rental_uris":{"android":"levelo://app?vid=f2f0c301-4b7b-42bc-8591-acee9b1e47bc","ios":"levelo://app?vid=f2f0c301-4b7b-42bc-8591-acee9b1e47bc"},"vehicle_type_id":"4","last_reported":1744136006,"current_range_meters":4800,"station_id":"ce4bh9p2rcd13ifvqec0","pricing_plan_id":"cebpf4jnsgd1na2vs0mg"},{"bike_id":"7e158114-def0-4066-97b6-1e42407ccad1","system_id":"levelo_inurba_marseille","lat":43.26213,"lon":5.37433,"is_reserved":false,"is_disabled":true,"rental_uris":{"android":"levelo://app?vid=7e158114-def0-4066-97b6-1e42407ccad1","ios":"levelo://app?vid=7e158114-def0-4066-97b6-1e42407ccad1"},"vehicle_type_id":"4","last_reported":1744136006,"current_range_meters":4800,"station_id":"ce4bhgp2rcd13ifvqfc0","pricing_plan_id":"cebpf4jnsgd1na2vs0mg"},{"bike_id":"cd7783a7-9870-4acc-8cef-929c2c51633c","system_id":"levelo_inurba_marseille","lat":43.299014,"lon":5.397332,"is_reserved":false,"is_disabled":false,"rental_uris":{"android":"levelo://app?vid=cd7783a7-9870-4acc-8cef-929c2c51633c","ios":"levelo://app?vid=cd7783a7-9870-4acc-8cef-929c2c51633c"},"vehicle_type_id":"4","last_reported":1744136006,"current_range_meters":4800,"station_id":"ce4bh0h2rcd13ifvqd50","pricing_plan_id":"cebpf4jnsgd1na2vs0mg"},{"bike_id":"6ff8ba3e-a962-49bb-8c29-e21547a299ea","system_id":"levelo_inurba_marseille","lat":43.26931,"lon":5.38917,"is_reserved":false,"is_disabled":false,"rental_uris":{"android":"levelo://app?vid=6ff8ba3e-a962-49bb-8c29-e21547a299ea","ios":"levelo://app?vid=6ff8ba3e-a962-49bb-8c29-e21547a299ea"},"vehicle_type_id":"4","last_reported":1744136006,"current_range_meters":4400,"station_id":"ce4bhhh2rcd13ifvqfl0","pricing_plan_id":"cebpf4jnsgd1na2vs0mg"},{"bike_id":"08b754af-c650-4b21-a625-296ef6258268","system_id":"levelo_inurba_marseille","lat":43.29376,"lon":5.37864,"is_reserved":false,"is_disabled":false,"rental_uris":{"android":"levelo://app?vid=08b754af-c650-4b21-a625-296ef6258268","ios":"levelo://app?vid=08b754af-c650-4b21-a625-296ef6258268"},"vehicle_type_id":"4","last_reported":1744136006,"current_range_meters":4800,"station_id":"ce4bgjh2rcd13ifvqbf0","pricing_plan_id":"cebpf4jnsgd1na2vs0mg"},{"bike_id":"388f00ca-a81f-46df-adbe-fbbff7e2eff8","system_id":"levelo_inurba_marseille","lat":43.2467,"lon":5.38167,"is_reserved":false,"is_disabled":true,"rental_uris":{"android":"levelo://app?vid=388f00ca-a81f-46df-adbe-fbbff7e2eff8","ios":"levelo://app?vid=388f00ca-a81f-46df-adbe-fbbff7e2eff8"},"vehicle_type_id":"4","last_reported":1744136006,"current_range_meters":4800,"station_id":"ce4bhih2rcd13ifvqfr0","pricing_plan_id":"cebpf4jnsgd1na2vs0mg"},{"bike_id":"4d5aecf8-9eef-4b72-a229-004b32dd1862","system_id":"levelo_inurba_marseille","lat":43.28675,"lon":5.3867,"is_reserved":false,"is_disabled":false,"rental_uris":{"android":"levelo://app?vid=4d5aecf8-9eef-4b72-a229-004b32dd1862","ios":"levelo://app?vid=4d5aecf8-9eef-4b72-a229-004b32dd1862"},"vehicle_type_id":"4","last_reported":1744136006,"current_range_meters":5600,"station_id":"ce4bh492rcd13ifvqdug","pricing_plan_id":"cebpf4jnsgd1na2vs0mg"},{"bike_id":"830933f5-b24d-4dc8-906a-b977c865b747","system_id":"levelo_inurba_marseille","lat":43.28456,"lon":5.35893,"is_reserved":false,"is_disabled":false,"rental_uris":{"android":"levelo://app?vid=830933f5-b24d-4dc8-906a-b977c865b747","ios":"levelo://app?vid=830933f5-b24d-4dc8-906a-b977c865b747"},"vehicle_type_id":"4","last_reported":1744136006,"current_range_meters":5600,"station_id":"ce4bhah2rcd13ifvqei0","pricing_plan_id":"cebpf4jnsgd1na2vs0mg"},{"bike_id":"d7d8184d-1cbe-4499-8d97-84e32e9913f2","system_id":"levelo_inurba_marseille","lat":43.278458,"lon":5.392225,"is_reserved":false,"is_disabled":false,"rental_uris":{"android":"levelo://app?vid=d7d8184d-1cbe-4499-8d97-84e32e9913f2","ios":"levelo://app?vid=d7d8184d-1cbe-4499-8d97-84e32e9913f2"},"vehicle_type_id":"4","last_reported":1744136006,"current_range_meters":5600,"station_id":"ce4bho12rcd13ifvqh1g","pricing_plan_id":"cebpf4jnsgd1na2vs0mg"},{"bike_id":"bd65a4aa-ce1d-4b8b-a727-3151bd41caa4","system_id":"levelo_inurba_marseille","lat":43.29554,"lon":5.38546,"is_reserved":false,"is_disabled":false,"rental_uris":{"android":"levelo://app?vid=bd65a4aa-ce1d-4b8b-a727-3151bd41caa4","ios":"levelo://app?vid=bd65a4aa-ce1d-4b8b-a727-3151bd41caa4"},"vehicle_type_id":"4","last_reported":1744136006,"current_range_meters":5600,"station_id":"ce4bgih2rcd13ifvqba0","pricing_plan_id":"cebpf4jnsgd1na2vs0mg"},{"bike_id":"445dcb0f-92e1-44d6-931b-e369bf4a8951","system_id":"levelo_inurba_marseille","lat":43.28355,"lon":5.3809,"is_reserved":false,"is_disabled":false,"rental_uris":{"android":"levelo://app?vid=445dcb0f-92e1-44d6-931b-e369bf4a8951","ios":"levelo://app?vid=445dcb0f-92e1-44d6-931b-e369bf4a8951"},"vehicle_type_id":"4","last_reported":1744136006,"current_range_meters":5600,"station_id":"ce4bh412rcd13ifvqdr0","pricing_plan_id":"cebpf4jnsgd1na2vs0mg"},{"bike_id":"87bda883-ac94-49fc-94c2-3a86e52b4f97","system_id":"levelo_inurba_marseille","lat":43.307201,"lon":5.383488,"is_reserved":false,"is_disabled":false,"rental_uris":{"android":"levelo://app?vid=87bda883-ac94-49fc-94c2-3a86e52b4f97","ios":"levelo://app?vid=87bda883-ac94-49fc-94c2-3a86e52b4f97"},"vehicle_type_id":"4","last_reported":1744136006,"current_range_meters":5600,"station_id":"","pricing_plan_id":"cebpf4jnsgd1na2vs0mg"},{"bike_id":"6c260c3d-138a-4fce-bfe6-574d001cffed","system_id":"levelo_inurba_marseille","lat":43.25728,"lon":5.4111,"is_reserved":false,"is_disabled":false,"rental_uris":{"android":"levelo://app?vid=6c260c3d-138a-4fce-bfe6-574d001cffed","ios":"levelo://app?vid=6c260c3d-138a-4fce-bfe6-574d001cffed"},"vehicle_type_id":"4","last_reported":1744136006,"current_range_meters":5600,"station_id":"ce4bhkp2rcd13ifvqgd0","pricing_plan_id":"cebpf4jnsgd1na2vs0mg"},{"bike_id":"e2267f0c-d827-414b-b770-932c79aaf9a0","system_id":"levelo_inurba_marseille","lat":43.29309,"lon":5.37461,"is_reserved":false,"is_disabled":false,"rental_uris":{"android":"levelo://app?vid=e2267f0c-d827-414b-b770-932c79aaf9a0","ios":"levelo://app?vid=e2267f0c-d827-414b-b770-932c79aaf9a0"},"vehicle_type_id":"4","last_reported":1744136006,"current_range_meters":5600,"station_id":"ce4bhoh2rcd13ifvqh5g","pricing_plan_id":"cebpf4jnsgd1na2vs0mg"},{"bike_id":"cc057f14-b1e1-4dee-b107-8741c01c5964","system_id":"levelo_inurba_marseille","lat":43.321169,"lon":5.367921,"is_reserved":false,"is_disabled":true,"rental_uris":{"android":"levelo://app?vid=cc057f14-b1e1-4dee-b107-8741c01c5964","ios":"levelo://app?vid=cc057f14-b1e1-4dee-b107-8741c01c5964"},"vehicle_type_id":"4","last_reported":1744136006,"current_range_meters":5600,"station_id":"ce4bhrh2rcd13ifvqhug","pricing_plan_id":"cebpf4jnsgd1na2vs0mg"},{"bike_id":"8c6ac4c3-87d0-43ef-a1aa-733eba17b0d6","system_id":"levelo_inurba_marseille","lat":43.2319,"lon":5.35562,"is_reserved":false,"is_disabled":false,"rental_uris":{"android":"levelo://app?vid=8c6ac4c3-87d0-43ef-a1aa-733eba17b0d6","ios":"levelo://app?vid=8c6ac4c3-87d0-43ef-a1aa-733eba17b0d6"},"vehicle_type_id":"4","last_reported":1744136006,"current_range_meters":5600,"station_id":"ce4bhu92rcd13ifvqi70","pricing_plan_id":"cebpf4jnsgd1na2vs0mg"},{"bike_id":"809cadfd-d9c6-4c22-889b-af5f4b1c725c","system_id":"levelo_inurba_marseille","lat":43.28622,"lon":5.3511,"is_reserved":false,"is_disabled":false,"rental_uris":{"android":"levelo://app?vid=809cadfd-d9c6-4c22-889b-af5f4b1c725c","ios":"levelo://app?vid=809cadfd-d9c6-4c22-889b-af5f4b1c725c"},"vehicle_type_id":"4","last_reported":1744136006,"current_range_meters":6000,"station_id":"ce4bhch2rcd13ifvqeug","pricing_plan_id":"cebpf4jnsgd1na2vs0mg"},{"bike_id":"67800b66-a175-414a-b634-cc5af04876e7","system_id":"levelo_inurba_marseille","lat":43.28859,"lon":5.35857,"is_reserved":false,"is_disabled":false,"rental_uris":{"android":"levelo://app?vid=67800b66-a175-414a-b634-cc5af04876e7","ios":"levelo://app?vid=67800b66-a175-414a-b634-cc5af04876e7"},"vehicle_type_id":"4","last_reported":1744136006,"current_range_meters":6000,"station_id":"ce4bhb12rcd13ifvqem0","pricing_plan_id":"cebpf4jnsgd1na2vs0mg"},{"bike_id":"8aaaa93f-8132-4adb-a568-6582ad358043","system_id":"levelo_inurba_marseille","lat":43.24551,"lon":5.3952,"is_reserved":false,"is_disabled":false,"rental_uris":{"android":"levelo://app?vid=8aaaa93f-8132-4adb-a568-6582ad358043","ios":"levelo://app?vid=8aaaa93f-8132-4adb-a568-6582ad358043"},"vehicle_type_id":"4","last_reported":1744136006,"current_range_meters":6000,"station_id":"ce4bhlp2rcd13ifvqgjg","pricing_plan_id":"cebpf4jnsgd1na2vs0mg"},{"bike_id":"252e6c12-3e63-49da-b6ab-9d85406b6d2d","system_id":"levelo_inurba_marseille","lat":43.28416,"lon":5.34992,"is_reserved":false,"is_disabled":false,"rental_uris":{"android":"levelo://app?vid=252e6c12-3e63-49da-b6ab-9d85406b6d2d","ios":"levelo://app?vid=252e6c12-3e63-49da-b6ab-9d85406b6d2d"},"vehicle_type_id":"4","last_reported":1744136006,"current_range_meters":6000,"station_id":"ce4bhbh2rcd13ifvqepg","pricing_plan_id":"cebpf4jnsgd1na2vs0mg"},{"bike_id":"3944b4a0-54fb-4d6c-af80-4ca20b89931c","system_id":"levelo_inurba_marseille","lat":43.27989,"lon":5.41659,"is_reserved":false,"is_disabled":false,"rental_uris":{"android":"levelo://app?vid=3944b4a0-54fb-4d6c-af80-4ca20b89931c","ios":"levelo://app?vid=3944b4a0-54fb-4d6c-af80-4ca20b89931c"},"vehicle_type_id":"4","last_reported":1744136006,"current_range_meters":6000,"station_id":"ce4bho12rcd13ifvqh1g","pricing_plan_id":"cebpf4jnsgd1na2vs0mg"},{"bike_id":"6702b04f-cbab-4f8a-8bb7-bc1f2994a696","system_id":"levelo_inurba_marseille","lat":43.28392,"lon":5.37478,"is_reserved":false,"is_disabled":false,"rental_uris":{"android":"levelo://app?vid=6702b04f-cbab-4f8a-8bb7-bc1f2994a696","ios":"levelo://app?vid=6702b04f-cbab-4f8a-8bb7-bc1f2994a696"},"vehicle_type_id":"4","last_reported":1744136006,"current_range_meters":6000,"station_id":"ce4bh412rcd13ifvqds0","pricing_plan_id":"cebpf4jnsgd1na2vs0mg"},{"bike_id":"e9828844-77fc-4426-8fdf-5534d9e30c46","system_id":"levelo_inurba_marseille","lat":43.29968,"lon":5.38497,"is_reserved":false,"is_disabled":false,"rental_uris":{"android":"levelo://app?vid=e9828844-77fc-4426-8fdf-5534d9e30c46","ios":"levelo://app?vid=e9828844-77fc-4426-8fdf-5534d9e30c46"},"vehicle_type_id":"4","last_reported":1744136006,"current_range_meters":6000,"station_id":"ce4bgj92rcd13ifvqbd0","pricing_plan_id":"cebpf4jnsgd1na2vs0mg"},{"bike_id":"159779cf-52bd-4b36-a130-092d2c35fb4d","system_id":"levelo_inurba_marseille","lat":43.27389,"lon":5.36254,"is_reserved":false,"is_disabled":false,"rental_uris":{"android":"levelo://app?vid=159779cf-52bd-4b36-a130-092d2c35fb4d","ios":"levelo://app?vid=159779cf-52bd-4b36-a130-092d2c35fb4d"},"vehicle_type_id":"4","last_reported":1744136006,"current_range_meters":6400,"station_id":"ce4bhbh2rcd13ifvqeo0","pricing_plan_id":"cebpf4jnsgd1na2vs0mg"},{"bike_id":"8b4a5c52-3413-49f2-b7f4-7f3508a08342","system_id":"levelo_inurba_marseille","lat":43.30242,"lon":5.40067,"is_reserved":false,"is_disabled":false,"rental_uris":{"android":"levelo://app?vid=8b4a5c52-3413-49f2-b7f4-7f3508a08342","ios":"levelo://app?vid=8b4a5c52-3413-49f2-b7f4-7f3508a08342"},"vehicle_type_id":"4","last_reported":1744136006,"current_range_meters":6400,"station_id":"ce4bgvh2rcd13ifvqcs0","pricing_plan_id":"cebpf4jnsgd1na2vs0mg"},{"bike_id":"312aa6d3-2e2c-4919-9c1a-413375fb31d0","system_id":"levelo_inurba_marseille","lat":43.2781,"lon":5.40719,"is_reserved":false,"is_disabled":false,"rental_uris":{"android":"levelo://app?vid=312aa6d3-2e2c-4919-9c1a-413375fb31d0","ios":"levelo://app?vid=312aa6d3-2e2c-4919-9c1a-413375fb31d0"},"vehicle_type_id":"4","last_reported":1744136006,"current_range_meters":6400,"station_id":"ce4bhnh2rcd13ifvqgtg","pricing_plan_id":"cebpf4jnsgd1na2vs0mg"},{"bike_id":"1f2f6228-74ea-422a-b195-b7d1a28d01fe","system_id":"levelo_inurba_marseille","lat":43.29548,"lon":5.38555,"is_reserved":false,"is_disabled":false,"rental_uris":{"android":"levelo://app?vid=1f2f6228-74ea-422a-b195-b7d1a28d01fe","ios":"levelo://app?vid=1f2f6228-74ea-422a-b195-b7d1a28d01fe"},"vehicle_type_id":"4","last_reported":1744136006,"current_range_meters":6400,"station_id":"ce4bgih2rcd13ifvqba0","pricing_plan_id":"cebpf4jnsgd1na2vs0mg"},{"bike_id":"251c5ed9-e81f-4e0e-8dbb-66e77afdd71d","system_id":"levelo_inurba_marseille","lat":43.31277,"lon":5.40167,"is_reserved":false,"is_disabled":false,"rental_uris":{"android":"levelo://app?vid=251c5ed9-e81f-4e0e-8dbb-66e77afdd71d","ios":"levelo://app?vid=251c5ed9-e81f-4e0e-8dbb-66e77afdd71d"},"vehicle_type_id":"4","last_reported":1744136006,"current_range_meters":6400,"station_id":"ce4bh092rcd13ifvqd30","pricing_plan_id":"cebpf4jnsgd1na2vs0mg"},{"bike_id":"48df9bb3-38cd-4854-bf49-38915f742eba","system_id":"levelo_inurba_marseille","lat":43.27058,"lon":5.40263,"is_reserved":false,"is_disabled":false,"rental_uris":{"android":"levelo://app?vid=48df9bb3-38cd-4854-bf49-38915f742eba","ios":"levelo://app?vid=48df9bb3-38cd-4854-bf49-38915f742eba"},"vehicle_type_id":"4","last_reported":1744136006,"current_range_meters":6400,"station_id":"ce4bhk92rcd13ifvqgc0","pricing_plan_id":"cebpf4jnsgd1na2vs0mg"},{"bike_id":"28de6e55-3d8d-4193-b713-7d374b032122","system_id":"levelo_inurba_marseille","lat":43.28425,"lon":5.34999,"is_reserved":false,"is_disabled":false,"rental_uris":{"android":"levelo://app?vid=28de6e55-3d8d-4193-b713-7d374b032122","ios":"levelo://app?vid=28de6e55-3d8d-4193-b713-7d374b032122"},"vehicle_type_id":"4","last_reported":1744136006,"current_range_meters":6400,"station_id":"ce4bhbh2rcd13ifvqepg","pricing_plan_id":"cebpf4jnsgd1na2vs0mg"},{"bike_id":"8e5be275-8a99-4f27-ba34-724383a03a2d","system_id":"levelo_inurba_marseille","lat":43.28039,"lon":5.36948,"is_reserved":false,"is_disabled":false,"rental_uris":{"android":"levelo://app?vid=8e5be275-8a99-4f27-ba34-724383a03a2d","ios":"levelo://app?vid=8e5be275-8a99-4f27-ba34-724383a03a2d"},"vehicle_type_id":"4","last_reported":1744136006,"current_range_meters":4800,"station_id":"ce4bha12rcd13ifvqef0","pricing_plan_id":"cebpf4jnsgd1na2vs0mg"},{"bike_id":"4b8dddbd-4a73-4c7c-a615-40a931cd78e8","system_id":"levelo_inurba_marseille","lat":43.25082,"lon":5.39553,"is_reserved":false,"is_disabled":false,"rental_uris":{"android":"levelo://app?vid=4b8dddbd-4a73-4c7c-a615-40a931cd78e8","ios":"levelo://app?vid=4b8dddbd-4a73-4c7c-a615-40a931cd78e8"},"vehicle_type_id":"4","last_reported":1744136006,"current_range_meters":6800,"station_id":"ce4bhm12rcd13ifvqgkg","pricing_plan_id":"cebpf4jnsgd1na2vs0mg"},{"bike_id":"988130cb-e748-4c6f-9e42-0c5709157918","system_id":"levelo_inurba_marseille","lat":43.29039,"lon":5.35931,"is_reserved":false,"is_disabled":false,"rental_uris":{"android":"levelo://app?vid=988130cb-e748-4c6f-9e42-0c5709157918","ios":"levelo://app?vid=988130cb-e748-4c6f-9e42-0c5709157918"},"vehicle_type_id":"4","last_reported":1744136006,"current_range_meters":6800,"station_id":"ce4bha92rcd13ifvqeg0","pricing_plan_id":"cebpf4jnsgd1na2vs0mg"},{"bike_id":"bb44f525-1028-4935-9704-b1a500e021b7","system_id":"levelo_inurba_marseille","lat":43.28673,"lon":5.36379,"is_reserved":false,"is_disabled":false,"rental_uris":{"android":"levelo://app?vid=bb44f525-1028-4935-9704-b1a500e021b7","ios":"levelo://app?vid=bb44f525-1028-4935-9704-b1a500e021b7"},"vehicle_type_id":"4","last_reported":1744136006,"current_range_meters":6800,"station_id":"ce4bhah2rcd13ifvqej0","pricing_plan_id":"cebpf4jnsgd1na2vs0mg"},{"bike_id":"a2bc1534-fa4c-44c0-9bf1-e145e671d810","system_id":"levelo_inurba_marseille","lat":43.303257,"lon":5.400675,"is_reserved":false,"is_disabled":false,"rental_uris":{"android":"levelo://app?vid=a2bc1534-fa4c-44c0-9bf1-e145e671d810","ios":"levelo://app?vid=a2bc1534-fa4c-44c0-9bf1-e145e671d810"},"vehicle_type_id":"4","last_reported":1744136006,"current_range_meters":6800,"station_id":"","pricing_plan_id":"cebpf4jnsgd1na2vs0mg"},{"bike_id":"7a5cbd17-69e7-41fa-b675-d053f49e97f3","system_id":"levelo_inurba_marseille","lat":43.294027,"lon":5.386306,"is_reserved":false,"is_disabled":false,"rental_uris":{"android":"levelo://app?vid=7a5cbd17-69e7-41fa-b675-d053f49e97f3","ios":"levelo://app?vid=7a5cbd17-69e7-41fa-b675-d053f49e97f3"},"vehicle_type_id":"4","last_reported":1744136006,"current_range_meters":6800,"station_id":"ce4bh2h2rcd13ifvqdh0","pricing_plan_id":"cebpf4jnsgd1na2vs0mg"},{"bike_id":"95e4d341-aa1d-45d3-97d4-58ce3861535b","system_id":"levelo_inurba_marseille","lat":43.21224,"lon":5.35106,"is_reserved":false,"is_disabled":true,"rental_uris":{"android":"levelo://app?vid=95e4d341-aa1d-45d3-97d4-58ce3861535b","ios":"levelo://app?vid=95e4d341-aa1d-45d3-97d4-58ce3861535b"},"vehicle_type_id":"4","last_reported":1744136006,"current_range_meters":6800,"station_id":"","pricing_plan_id":"cebpf4jnsgd1na2vs0mg"},{"bike_id":"a2d46cb9-9eeb-44f6-ab18-0e5c210fd7b5","system_id":"levelo_inurba_marseille","lat":43.28935,"lon":5.36656,"is_reserved":false,"is_disabled":true,"rental_uris":{"android":"levelo://app?vid=a2d46cb9-9eeb-44f6-ab18-0e5c210fd7b5","ios":"levelo://app?vid=a2d46cb9-9eeb-44f6-ab18-0e5c210fd7b5"},"vehicle_type_id":"4","last_reported":1744136006,"current_range_meters":6800,"station_id":"ce4bhap2rcd13ifvqek0","pricing_plan_id":"cebpf4jnsgd1na2vs0mg"},{"bike_id":"500b552f-56b8-4b4a-939e-43e5a1336a03","system_id":"levelo_inurba_marseille","lat":43.24671,"lon":5.38186,"is_reserved":false,"is_disabled":false,"rental_uris":{"android":"levelo://app?vid=500b552f-56b8-4b4a-939e-43e5a1336a03","ios":"levelo://app?vid=500b552f-56b8-4b4a-939e-43e5a1336a03"},"vehicle_type_id":"4","last_reported":1744136006,"current_range_meters":6800,"station_id":"ce4bhih2rcd13ifvqfr0","pricing_plan_id":"cebpf4jnsgd1na2vs0mg"},{"bike_id":"b54f3fc2-7d2a-474a-aee2-fd925bdde7b7","system_id":"levelo_inurba_marseille","lat":43.299935,"lon":5.385094,"is_reserved":false,"is_disabled":false,"rental_uris":{"android":"levelo://app?vid=b54f3fc2-7d2a-474a-aee2-fd925bdde7b7","ios":"levelo://app?vid=b54f3fc2-7d2a-474a-aee2-fd925bdde7b7"},"vehicle_type_id":"4","last_reported":1744136006,"current_range_meters":7200,"station_id":"ce4bh012rcd13ifvqcv0","pricing_plan_id":"cebpf4jnsgd1na2vs0mg"},{"bike_id":"73948350-f656-45a4-915d-809cae2ac447","system_id":"levelo_inurba_marseille","lat":43.24814,"lon":5.37458,"is_reserved":false,"is_disabled":false,"rental_uris":{"android":"levelo://app?vid=73948350-f656-45a4-915d-809cae2ac447","ios":"levelo://app?vid=73948350-f656-45a4-915d-809cae2ac447"},"vehicle_type_id":"4","last_reported":1744136006,"current_range_meters":7200,"station_id":"ce4bhgh2rcd13ifvqfb0","pricing_plan_id":"cebpf4jnsgd1na2vs0mg"},{"bike_id":"94cc02d0-1cba-4ce3-a6ee-2b2a43266460","system_id":"levelo_inurba_marseille","lat":43.250895,"lon":5.395167,"is_reserved":false,"is_disabled":false,"rental_uris":{"android":"levelo://app?vid=94cc02d0-1cba-4ce3-a6ee-2b2a43266460","ios":"levelo://app?vid=94cc02d0-1cba-4ce3-a6ee-2b2a43266460"},"vehicle_type_id":"4","last_reported":1744136006,"current_range_meters":7200,"station_id":"ce4bhm12rcd13ifvqgkg","pricing_plan_id":"cebpf4jnsgd1na2vs0mg"},{"bike_id":"4c3c509e-8f2c-4b96-bf22-15f6437356a3","system_id":"levelo_inurba_marseille","lat":43.30533,"lon":5.36712,"is_reserved":false,"is_disabled":false,"rental_uris":{"android":"levelo://app?vid=4c3c509e-8f2c-4b96-bf22-15f6437356a3","ios":"levelo://app?vid=4c3c509e-8f2c-4b96-bf22-15f6437356a3"},"vehicle_type_id":"4","last_reported":1744136006,"current_range_meters":7200,"station_id":"ce4bgrp2rcd13ifvqc9g","pricing_plan_id":"cebpf4jnsgd1na2vs0mg"},{"bike_id":"29fb94c4-5a72-4cfe-a8b8-6ad9490fee5a","system_id":"levelo_inurba_marseille","lat":43.30635,"lon":5.40088,"is_reserved":false,"is_disabled":false,"rental_uris":{"android":"levelo://app?vid=29fb94c4-5a72-4cfe-a8b8-6ad9490fee5a","ios":"levelo://app?vid=29fb94c4-5a72-4cfe-a8b8-6ad9490fee5a"},"vehicle_type_id":"4","last_reported":1744136006,"current_range_meters":6800,"station_id":"ce4bh112rcd13ifvqda0","pricing_plan_id":"cebpf4jnsgd1na2vs0mg"},{"bike_id":"f962c9f7-55af-4947-b773-a894394a18df","system_id":"levelo_inurba_marseille","lat":43.2905,"lon":5.35902,"is_reserved":false,"is_disabled":false,"rental_uris":{"android":"levelo://app?vid=f962c9f7-55af-4947-b773-a894394a18df","ios":"levelo://app?vid=f962c9f7-55af-4947-b773-a894394a18df"},"vehicle_type_id":"4","last_reported":1744136006,"current_range_meters":7200,"station_id":"ce4bha92rcd13ifvqeg0","pricing_plan_id":"cebpf4jnsgd1na2vs0mg"},{"bike_id":"a0c96c7e-3e1f-4900-a614-78c63f115acd","system_id":"levelo_inurba_marseille","lat":43.26058,"lon":5.3759,"is_reserved":false,"is_disabled":false,"rental_uris":{"android":"levelo://app?vid=a0c96c7e-3e1f-4900-a614-78c63f115acd","ios":"levelo://app?vid=a0c96c7e-3e1f-4900-a614-78c63f115acd"},"vehicle_type_id":"4","last_reported":1744136006,"current_range_meters":7200,"station_id":"","pricing_plan_id":"cebpf4jnsgd1na2vs0mg"},{"bike_id":"8b82120e-a065-47c7-a4a4-535451fd9988","system_id":"levelo_inurba_marseille","lat":43.27581,"lon":5.38416,"is_reserved":false,"is_disabled":false,"rental_uris":{"android":"levelo://app?vid=8b82120e-a065-47c7-a4a4-535451fd9988","ios":"levelo://app?vid=8b82120e-a065-47c7-a4a4-535451fd9988"},"vehicle_type_id":"4","last_reported":1744136006,"current_range_meters":7200,"station_id":"ce4bhh92rcd13ifvqfi0","pricing_plan_id":"cebpf4jnsgd1na2vs0mg"},{"bike_id":"8db1fccd-4712-44df-90bb-2e2fab9e7cdf","system_id":"levelo_inurba_marseille","lat":43.32068,"lon":5.4155,"is_reserved":false,"is_disabled":false,"rental_uris":{"android":"levelo://app?vid=8db1fccd-4712-44df-90bb-2e2fab9e7cdf","ios":"levelo://app?vid=8db1fccd-4712-44df-90bb-2e2fab9e7cdf"},"vehicle_type_id":"4","last_reported":1744136006,"current_range_meters":6800,"station_id":"ce4bhq92rcd13ifvqhkg","pricing_plan_id":"cebpf4jnsgd1na2vs0mg"},{"bike_id":"6840b194-d99f-42ff-90a2-f12696d02246","system_id":"levelo_inurba_marseille","lat":43.29266,"lon":5.38452,"is_reserved":false,"is_disabled":false,"rental_uris":{"android":"levelo://app?vid=6840b194-d99f-42ff-90a2-f12696d02246","ios":"levelo://app?vid=6840b194-d99f-42ff-90a2-f12696d02246"},"vehicle_type_id":"4","last_reported":1744136006,"current_range_meters":7200,"station_id":"ce4bh692rcd13ifvqea0","pricing_plan_id":"cebpf4jnsgd1na2vs0mg"},{"bike_id":"b3b3acd3-1312-438a-9e83-bd81131a218c","system_id":"levelo_inurba_marseille","lat":43.28428,"lon":5.34997,"is_reserved":false,"is_disabled":false,"rental_uris":{"android":"levelo://app?vid=b3b3acd3-1312-438a-9e83-bd81131a218c","ios":"levelo://app?vid=b3b3acd3-1312-438a-9e83-bd81131a218c"},"vehicle_type_id":"4","last_reported":1744136006,"current_range_meters":7200,"station_id":"ce4bhbh2rcd13ifvqepg","pricing_plan_id":"cebpf4jnsgd1na2vs0mg"},{"bike_id":"5cd1fd40-06f1-4a7e-84bc-4417ad88331e","system_id":"levelo_inurba_marseille","lat":43.28107,"lon":5.37837,"is_reserved":false,"is_disabled":false,"rental_uris":{"android":"levelo://app?vid=5cd1fd40-06f1-4a7e-84bc-4417ad88331e","ios":"levelo://app?vid=5cd1fd40-06f1-4a7e-84bc-4417ad88331e"},"vehicle_type_id":"4","last_reported":1744136006,"current_range_meters":8000,"station_id":"ce4bha12rcd13ifvqee0","pricing_plan_id":"cebpf4jnsgd1na2vs0mg"},{"bike_id":"3f585102-2ecc-469f-9aba-f239072b2097","system_id":"levelo_inurba_marseille","lat":43.27576,"lon":5.38419,"is_reserved":false,"is_disabled":false,"rental_uris":{"android":"levelo://app?vid=3f585102-2ecc-469f-9aba-f239072b2097","ios":"levelo://app?vid=3f585102-2ecc-469f-9aba-f239072b2097"},"vehicle_type_id":"4","last_reported":1744136006,"current_range_meters":8000,"station_id":"ce4bhh92rcd13ifvqfi0","pricing_plan_id":"cebpf4jnsgd1na2vs0mg"},{"bike_id":"ecef8e9e-03dc-4612-b74e-b978f92e2873","system_id":"levelo_inurba_marseille","lat":43.30096,"lon":5.39095,"is_reserved":false,"is_disabled":true,"rental_uris":{"android":"levelo://app?vid=ecef8e9e-03dc-4612-b74e-b978f92e2873","ios":"levelo://app?vid=ecef8e9e-03dc-4612-b74e-b978f92e2873"},"vehicle_type_id":"4","last_reported":1744136006,"current_range_meters":8000,"station_id":"ce4bh192rcd13ifvqdb0","pricing_plan_id":"cebpf4jnsgd1na2vs0mg"},{"bike_id":"f39be6f5-2f69-4c37-b021-559d20b299a4","system_id":"levelo_inurba_marseille","lat":43.30024,"lon":5.37653,"is_reserved":false,"is_disabled":false,"rental_uris":{"android":"levelo://app?vid=f39be6f5-2f69-4c37-b021-559d20b299a4","ios":"levelo://app?vid=f39be6f5-2f69-4c37-b021-559d20b299a4"},"vehicle_type_id":"4","last_reported":1744136006,"current_range_meters":8000,"station_id":"","pricing_plan_id":"cebpf4jnsgd1na2vs0mg"},{"bike_id":"c8394c7d-78f2-459c-8342-4ea76c221e8d","system_id":"levelo_inurba_marseille","lat":43.2794,"lon":5.41052,"is_reserved":false,"is_disabled":false,"rental_uris":{"android":"levelo://app?vid=c8394c7d-78f2-459c-8342-4ea76c221e8d","ios":"levelo://app?vid=c8394c7d-78f2-459c-8342-4ea76c221e8d"},"vehicle_type_id":"4","last_reported":1744136006,"current_range_meters":8000,"station_id":"ce4bhnp2rcd13ifvqh0g","pricing_plan_id":"cebpf4jnsgd1na2vs0mg"},{"bike_id":"c2f7f2a8-8d0f-4306-9c3d-e98c6840f1dd","system_id":"levelo_inurba_marseille","lat":43.27841,"lon":5.39215,"is_reserved":false,"is_disabled":false,"rental_uris":{"android":"levelo://app?vid=c2f7f2a8-8d0f-4306-9c3d-e98c6840f1dd","ios":"levelo://app?vid=c2f7f2a8-8d0f-4306-9c3d-e98c6840f1dd"},"vehicle_type_id":"4","last_reported":1744136006,"current_range_meters":8400,"station_id":"ce4bhjp2rcd13ifvqga0","pricing_plan_id":"cebpf4jnsgd1na2vs0mg"},{"bike_id":"4ed7dfc3-253b-451c-ae55-2152c1547ae6","system_id":"levelo_inurba_marseille","lat":43.25118,"lon":5.40311,"is_reserved":false,"is_disabled":false,"rental_uris":{"android":"levelo://app?vid=4ed7dfc3-253b-451c-ae55-2152c1547ae6","ios":"levelo://app?vid=4ed7dfc3-253b-451c-ae55-2152c1547ae6"},"vehicle_type_id":"4","last_reported":1744136006,"current_range_meters":8400,"station_id":"ce4bhlh2rcd13ifvqgig","pricing_plan_id":"cebpf4jnsgd1na2vs0mg"},{"bike_id":"eadc0f7c-8fed-4dfc-826e-550fe606b618","system_id":"levelo_inurba_marseille","lat":43.28616,"lon":5.35108,"is_reserved":false,"is_disabled":false,"rental_uris":{"android":"levelo://app?vid=eadc0f7c-8fed-4dfc-826e-550fe606b618","ios":"levelo://app?vid=eadc0f7c-8fed-4dfc-826e-550fe606b618"},"vehicle_type_id":"4","last_reported":1744136006,"current_range_meters":8400,"station_id":"ce4bhch2rcd13ifvqeug","pricing_plan_id":"cebpf4jnsgd1na2vs0mg"},{"bike_id":"3576b946-70b3-456f-a60a-d98e227f015c","system_id":"levelo_inurba_marseille","lat":43.30105,"lon":5.38231,"is_reserved":false,"is_disabled":false,"rental_uris":{"android":"levelo://app?vid=3576b946-70b3-456f-a60a-d98e227f015c","ios":"levelo://app?vid=3576b946-70b3-456f-a60a-d98e227f015c"},"vehicle_type_id":"4","last_reported":1744136006,"current_range_meters":8400,"station_id":"ce4bgup2rcd13ifvqcn0","pricing_plan_id":"cebpf4jnsgd1na2vs0mg"},{"bike_id":"02f5f556-9aca-41a9-928c-e217b6392b4b","system_id":"levelo_inurba_marseille","lat":43.31827,"lon":5.43511,"is_reserved":false,"is_disabled":false,"rental_uris":{"android":"levelo://app?vid=02f5f556-9aca-41a9-928c-e217b6392b4b","ios":"levelo://app?vid=02f5f556-9aca-41a9-928c-e217b6392b4b"},"vehicle_type_id":"4","last_reported":1744136006,"current_range_meters":8400,"station_id":"","pricing_plan_id":"cebpf4jnsgd1na2vs0mg"},{"bike_id":"a5da07bc-f261-4717-9517-4016187cc133","system_id":"levelo_inurba_marseille","lat":43.28572,"lon":5.39499,"is_reserved":false,"is_disabled":false,"rental_uris":{"android":"levelo://app?vid=a5da07bc-f261-4717-9517-4016187cc133","ios":"levelo://app?vid=a5da07bc-f261-4717-9517-4016187cc133"},"vehicle_type_id":"4","last_reported":1744136006,"current_range_meters":8400,"station_id":"ce4bh292rcd13ifvqdg0","pricing_plan_id":"cebpf4jnsgd1na2vs0mg"},{"bike_id":"39565443-0c12-46d1-9e76-98c988609e4b","system_id":"levelo_inurba_marseille","lat":43.28869,"lon":5.3587,"is_reserved":false,"is_disabled":false,"rental_uris":{"android":"levelo://app?vid=39565443-0c12-46d1-9e76-98c988609e4b","ios":"levelo://app?vid=39565443-0c12-46d1-9e76-98c988609e4b"},"vehicle_type_id":"4","last_reported":1744136006,"current_range_meters":8400,"station_id":"ce4bhb12rcd13ifvqem0","pricing_plan_id":"cebpf4jnsgd1na2vs0mg"},{"bike_id":"2b88c4e3-ef4f-44fc-8fab-f63dd40f6f4a","system_id":"levelo_inurba_marseille","lat":43.26505,"lon":5.39545,"is_reserved":false,"is_disabled":false,"rental_uris":{"android":"levelo://app?vid=2b88c4e3-ef4f-44fc-8fab-f63dd40f6f4a","ios":"levelo://app?vid=2b88c4e3-ef4f-44fc-8fab-f63dd40f6f4a"},"vehicle_type_id":"4","last_reported":1744136006,"current_range_meters":8400,"station_id":"ce4bhi12rcd13ifvqfq0","pricing_plan_id":"cebpf4jnsgd1na2vs0mg"},{"bike_id":"b2876493-cbd5-4132-8523-7f2dd11c9406","system_id":"levelo_inurba_marseille","lat":43.29008,"lon":5.35614,"is_reserved":false,"is_disabled":false,"rental_uris":{"android":"levelo://app?vid=b2876493-cbd5-4132-8523-7f2dd11c9406","ios":"levelo://app?vid=b2876493-cbd5-4132-8523-7f2dd11c9406"},"vehicle_type_id":"4","last_reported":1744136006,"current_range_meters":8400,"station_id":"ce4bhb92rcd13ifvqen0","pricing_plan_id":"cebpf4jnsgd1na2vs0mg"},{"bike_id":"83368cd1-39c1-42a6-ae4d-1f25e29ae1dd","system_id":"levelo_inurba_marseille","lat":43.25113,"lon":5.40325,"is_reserved":false,"is_disabled":false,"rental_uris":{"android":"levelo://app?vid=83368cd1-39c1-42a6-ae4d-1f25e29ae1dd","ios":"levelo://app?vid=83368cd1-39c1-42a6-ae4d-1f25e29ae1dd"},"vehicle_type_id":"4","last_reported":1744136006,"current_range_meters":8400,"station_id":"ce4bhlh2rcd13ifvqgig","pricing_plan_id":"cebpf4jnsgd1na2vs0mg"},{"bike_id":"a1214fb6-ec32-4f6d-b480-2c868d210d82","system_id":"levelo_inurba_marseille","lat":43.23219,"lon":5.35554,"is_reserved":false,"is_disabled":false,"rental_uris":{"android":"levelo://app?vid=a1214fb6-ec32-4f6d-b480-2c868d210d82","ios":"levelo://app?vid=a1214fb6-ec32-4f6d-b480-2c868d210d82"},"vehicle_type_id":"4","last_reported":1744136006,"current_range_meters":8400,"station_id":"ce4bhu92rcd13ifvqi70","pricing_plan_id":"cebpf4jnsgd1na2vs0mg"},{"bike_id":"ff842943-d2bb-4edc-9e5a-49904d76c37c","system_id":"levelo_inurba_marseille","lat":43.29008,"lon":5.35617,"is_reserved":false,"is_disabled":false,"rental_uris":{"android":"levelo://app?vid=ff842943-d2bb-4edc-9e5a-49904d76c37c","ios":"levelo://app?vid=ff842943-d2bb-4edc-9e5a-49904d76c37c"},"vehicle_type_id":"4","last_reported":1744136006,"current_range_meters":8400,"station_id":"ce4bhb92rcd13ifvqen0","pricing_plan_id":"cebpf4jnsgd1na2vs0mg"},{"bike_id":"e34f7c01-c5fa-4cd6-8388-b5cd12b4b9c7","system_id":"levelo_inurba_marseille","lat":43.28614,"lon":5.35107,"is_reserved":false,"is_disabled":true,"rental_uris":{"android":"levelo://app?vid=e34f7c01-c5fa-4cd6-8388-b5cd12b4b9c7","ios":"levelo://app?vid=e34f7c01-c5fa-4cd6-8388-b5cd12b4b9c7"},"vehicle_type_id":"4","last_reported":1744136006,"current_range_meters":8400,"station_id":"ce4bhch2rcd13ifvqeug","pricing_plan_id":"cebpf4jnsgd1na2vs0mg"},{"bike_id":"52c6ce16-0c51-43e9-88b9-6466dc01041a","system_id":"levelo_inurba_marseille","lat":43.28857,"lon":5.35853,"is_reserved":false,"is_disabled":false,"rental_uris":{"android":"levelo://app?vid=52c6ce16-0c51-43e9-88b9-6466dc01041a","ios":"levelo://app?vid=52c6ce16-0c51-43e9-88b9-6466dc01041a"},"vehicle_type_id":"4","last_reported":1744136006,"current_range_meters":8400,"station_id":"ce4bhb12rcd13ifvqem0","pricing_plan_id":"cebpf4jnsgd1na2vs0mg"},{"bike_id":"371ad84f-6364-46ba-8052-de0026a42c16","system_id":"levelo_inurba_marseille","lat":43.28883,"lon":5.35884,"is_reserved":false,"is_disabled":false,"rental_uris":{"android":"levelo://app?vid=371ad84f-6364-46ba-8052-de0026a42c16","ios":"levelo://app?vid=371ad84f-6364-46ba-8052-de0026a42c16"},"vehicle_type_id":"4","last_reported":1744136006,"current_range_meters":8400,"station_id":"ce4bhb12rcd13ifvqem0","pricing_plan_id":"cebpf4jnsgd1na2vs0mg"},{"bike_id":"e12790fc-4b0d-4287-bfcf-29486bb17ca1","system_id":"levelo_inurba_marseille","lat":43.27625,"lon":5.3611,"is_reserved":false,"is_disabled":false,"rental_uris":{"android":"levelo://app?vid=e12790fc-4b0d-4287-bfcf-29486bb17ca1","ios":"levelo://app?vid=e12790fc-4b0d-4287-bfcf-29486bb17ca1"},"vehicle_type_id":"4","last_reported":1744136006,"current_range_meters":8000,"station_id":"ce4bgj92rcd13ifvqbe0","pricing_plan_id":"cebpf4jnsgd1na2vs0mg"},{"bike_id":"456b79bb-81b6-42d9-a52b-1ca6c839f098","system_id":"levelo_inurba_marseille","lat":43.30412,"lon":5.41285,"is_reserved":false,"is_disabled":true,"rental_uris":{"android":"levelo://app?vid=456b79bb-81b6-42d9-a52b-1ca6c839f098","ios":"levelo://app?vid=456b79bb-81b6-42d9-a52b-1ca6c839f098"},"vehicle_type_id":"4","last_reported":1744136006,"current_range_meters":8400,"station_id":"ce4bhop2rcd13ifvqh8g","pricing_plan_id":"cebpf4jnsgd1na2vs0mg"},{"bike_id":"2e9000dc-6400-4918-a994-dd60039ca96d","system_id":"levelo_inurba_marseille","lat":43.32006,"lon":5.38155,"is_reserved":false,"is_disabled":true,"rental_uris":{"android":"levelo://app?vid=2e9000dc-6400-4918-a994-dd60039ca96d","ios":"levelo://app?vid=2e9000dc-6400-4918-a994-dd60039ca96d"},"vehicle_type_id":"4","last_reported":1744136006,"current_range_meters":8400,"station_id":"ce4bhr12rcd13ifvqhpg","pricing_plan_id":"cebpf4jnsgd1na2vs0mg"},{"bike_id":"c2d184fa-b655-4171-a497-d07bcf34a095","system_id":"levelo_inurba_marseille","lat":43.30888,"lon":5.39665,"is_reserved":false,"is_disabled":false,"rental_uris":{"android":"levelo://app?vid=c2d184fa-b655-4171-a497-d07bcf34a095","ios":"levelo://app?vid=c2d184fa-b655-4171-a497-d07bcf34a095"},"vehicle_type_id":"4","last_reported":1744136006,"current_range_meters":8400,"station_id":"ce4bh012rcd13ifvqcv0","pricing_plan_id":"cebpf4jnsgd1na2vs0mg"},{"bike_id":"ac4a6fbf-8fba-43f8-99df-bd81cf5e83e7","system_id":"levelo_inurba_marseille","lat":43.29035,"lon":5.38637,"is_reserved":false,"is_disabled":false,"rental_uris":{"android":"levelo://app?vid=ac4a6fbf-8fba-43f8-99df-bd81cf5e83e7","ios":"levelo://app?vid=ac4a6fbf-8fba-43f8-99df-bd81cf5e83e7"},"vehicle_type_id":"4","last_reported":1744136006,"current_range_meters":8800,"station_id":"ce4bh4p2rcd13ifvqe0g","pricing_plan_id":"cebpf4jnsgd1na2vs0mg"},{"bike_id":"f17ce36f-e80a-4732-89e2-7a7dfab19d87","system_id":"levelo_inurba_marseille","lat":43.29912,"lon":5.43678,"is_reserved":false,"is_disabled":false,"rental_uris":{"android":"levelo://app?vid=f17ce36f-e80a-4732-89e2-7a7dfab19d87","ios":"levelo://app?vid=f17ce36f-e80a-4732-89e2-7a7dfab19d87"},"vehicle_type_id":"4","last_reported":1744136006,"current_range_meters":8800,"station_id":"ce4bhpp2rcd13ifvqhfg","pricing_plan_id":"cebpf4jnsgd1na2vs0mg"},{"bike_id":"82f28cf6-556c-431d-a12b-bd3ce5fc2f28","system_id":"levelo_inurba_marseille","lat":43.27508,"lon":5.37754,"is_reserved":false,"is_disabled":false,"rental_uris":{"android":"levelo://app?vid=82f28cf6-556c-431d-a12b-bd3ce5fc2f28","ios":"levelo://app?vid=82f28cf6-556c-431d-a12b-bd3ce5fc2f28"},"vehicle_type_id":"4","last_reported":1744136006,"current_range_meters":8800,"station_id":"","pricing_plan_id":"cebpf4jnsgd1na2vs0mg"},{"bike_id":"6788d942-c7a7-4398-83f9-96b814ec7bb5","system_id":"levelo_inurba_marseille","lat":43.28467,"lon":5.35896,"is_reserved":false,"is_disabled":false,"rental_uris":{"android":"levelo://app?vid=6788d942-c7a7-4398-83f9-96b814ec7bb5","ios":"levelo://app?vid=6788d942-c7a7-4398-83f9-96b814ec7bb5"},"vehicle_type_id":"4","last_reported":1744136006,"current_range_meters":8800,"station_id":"ce4bhah2rcd13ifvqei0","pricing_plan_id":"cebpf4jnsgd1na2vs0mg"},{"bike_id":"70810d3e-9936-4863-b211-84f880613e88","system_id":"levelo_inurba_marseille","lat":43.31311,"lon":5.37334,"is_reserved":false,"is_disabled":false,"rental_uris":{"android":"levelo://app?vid=70810d3e-9936-4863-b211-84f880613e88","ios":"levelo://app?vid=70810d3e-9936-4863-b211-84f880613e88"},"vehicle_type_id":"4","last_reported":1744136006,"current_range_meters":8800,"station_id":"","pricing_plan_id":"cebpf4jnsgd1na2vs0mg"},{"bike_id":"fedbf61b-0d9e-4f6e-a388-a8d2f103329d","system_id":"levelo_inurba_marseille","lat":43.29424,"lon":5.3862,"is_reserved":false,"is_disabled":false,"rental_uris":{"android":"levelo://app?vid=fedbf61b-0d9e-4f6e-a388-a8d2f103329d","ios":"levelo://app?vid=fedbf61b-0d9e-4f6e-a388-a8d2f103329d"},"vehicle_type_id":"4","last_reported":1744136006,"current_range_meters":8800,"station_id":"ce4bh2h2rcd13ifvqdh0","pricing_plan_id":"cebpf4jnsgd1na2vs0mg"},{"bike_id":"e6d397b0-aa25-451c-b8fa-c96a7127b927","system_id":"levelo_inurba_marseille","lat":43.24178,"lon":5.39736,"is_reserved":false,"is_disabled":false,"rental_uris":{"android":"levelo://app?vid=e6d397b0-aa25-451c-b8fa-c96a7127b927","ios":"levelo://app?vid=e6d397b0-aa25-451c-b8fa-c96a7127b927"},"vehicle_type_id":"4","last_reported":1744136006,"current_range_meters":8800,"station_id":"ce4bhn12rcd13ifvqgpg","pricing_plan_id":"cebpf4jnsgd1na2vs0mg"},{"bike_id":"c57c451f-2113-4f8f-8962-6b5082c0541f","system_id":"levelo_inurba_marseille","lat":43.284148,"lon":5.349899,"is_reserved":false,"is_disabled":false,"rental_uris":{"android":"levelo://app?vid=c57c451f-2113-4f8f-8962-6b5082c0541f","ios":"levelo://app?vid=c57c451f-2113-4f8f-8962-6b5082c0541f"},"vehicle_type_id":"4","last_reported":1744136006,"current_range_meters":8800,"station_id":"ce4bhbh2rcd13ifvqepg","pricing_plan_id":"cebpf4jnsgd1na2vs0mg"},{"bike_id":"20481e75-a5a2-4a13-9850-bb126181f38b","system_id":"levelo_inurba_marseille","lat":43.28436,"lon":5.34998,"is_reserved":false,"is_disabled":false,"rental_uris":{"android":"levelo://app?vid=20481e75-a5a2-4a13-9850-bb126181f38b","ios":"levelo://app?vid=20481e75-a5a2-4a13-9850-bb126181f38b"},"vehicle_type_id":"4","last_reported":1744136006,"current_range_meters":8800,"station_id":"ce4bhbh2rcd13ifvqepg","pricing_plan_id":"cebpf4jnsgd1na2vs0mg"},{"bike_id":"7ab1cfeb-8935-4bfd-a210-331c212db326","system_id":"levelo_inurba_marseille","lat":43.2953,"lon":5.38547,"is_reserved":false,"is_disabled":false,"rental_uris":{"android":"levelo://app?vid=7ab1cfeb-8935-4bfd-a210-331c212db326","ios":"levelo://app?vid=7ab1cfeb-8935-4bfd-a210-331c212db326"},"vehicle_type_id":"4","last_reported":1744136006,"current_range_meters":9600,"station_id":"ce4bgih2rcd13ifvqba0","pricing_plan_id":"cebpf4jnsgd1na2vs0mg"},{"bike_id":"e50f3dc9-8c8f-43c1-9141-0ee8d31a7229","system_id":"levelo_inurba_marseille","lat":43.28036,"lon":5.36958,"is_reserved":false,"is_disabled":false,"rental_uris":{"android":"levelo://app?vid=e50f3dc9-8c8f-43c1-9141-0ee8d31a7229","ios":"levelo://app?vid=e50f3dc9-8c8f-43c1-9141-0ee8d31a7229"},"vehicle_type_id":"4","last_reported":1744136006,"current_range_meters":9200,"station_id":"ce4bha12rcd13ifvqef0","pricing_plan_id":"cebpf4jnsgd1na2vs0mg"},{"bike_id":"2e856f74-b77f-49a8-a598-61c0200772d9","system_id":"levelo_inurba_marseille","lat":43.2922,"lon":5.36066,"is_reserved":false,"is_disabled":false,"rental_uris":{"android":"levelo://app?vid=2e856f74-b77f-49a8-a598-61c0200772d9","ios":"levelo://app?vid=2e856f74-b77f-49a8-a598-61c0200772d9"},"vehicle_type_id":"4","last_reported":1744136006,"current_range_meters":9200,"station_id":"ce4bhbh2rcd13ifvqeqg","pricing_plan_id":"cebpf4jnsgd1na2vs0mg"},{"bike_id":"81b4eeec-d26b-4050-a92d-04743fb93072","system_id":"levelo_inurba_marseille","lat":43.23176,"lon":5.39992,"is_reserved":false,"is_disabled":true,"rental_uris":{"android":"levelo://app?vid=81b4eeec-d26b-4050-a92d-04743fb93072","ios":"levelo://app?vid=81b4eeec-d26b-4050-a92d-04743fb93072"},"vehicle_type_id":"4","last_reported":1744136006,"current_range_meters":9200,"station_id":"ce4bhn12rcd13ifvqgqg","pricing_plan_id":"cebpf4jnsgd1na2vs0mg"},{"bike_id":"ec41b842-c84f-4ab1-894c-fc6101e00efb","system_id":"levelo_inurba_marseille","lat":43.31723,"lon":5.40303,"is_reserved":false,"is_disabled":false,"rental_uris":{"android":"levelo://app?vid=ec41b842-c84f-4ab1-894c-fc6101e00efb","ios":"levelo://app?vid=ec41b842-c84f-4ab1-894c-fc6101e00efb"},"vehicle_type_id":"4","last_reported":1744136006,"current_range_meters":9200,"station_id":"","pricing_plan_id":"cebpf4jnsgd1na2vs0mg"},{"bike_id":"c6b9ef54-4b64-4a3b-9276-d18333947c9e","system_id":"levelo_inurba_marseille","lat":43.29307,"lon":5.3718,"is_reserved":false,"is_disabled":false,"rental_uris":{"android":"levelo://app?vid=c6b9ef54-4b64-4a3b-9276-d18333947c9e","ios":"levelo://app?vid=c6b9ef54-4b64-4a3b-9276-d18333947c9e"},"vehicle_type_id":"4","last_reported":1744136006,"current_range_meters":9200,"station_id":"ce4bgh92rcd13ifvqb40","pricing_plan_id":"cebpf4jnsgd1na2vs0mg"},{"bike_id":"5cef5330-1ce4-4a84-af6e-c73f86416aa1","system_id":"levelo_inurba_marseille","lat":43.231952,"lon":5.35553,"is_reserved":false,"is_disabled":false,"rental_uris":{"android":"levelo://app?vid=5cef5330-1ce4-4a84-af6e-c73f86416aa1","ios":"levelo://app?vid=5cef5330-1ce4-4a84-af6e-c73f86416aa1"},"vehicle_type_id":"4","last_reported":1744136006,"current_range_meters":9200,"station_id":"ce4bhu92rcd13ifvqi70","pricing_plan_id":"cebpf4jnsgd1na2vs0mg"},{"bike_id":"42a2a0dd-e073-46d3-a004-33e2e45e3038","system_id":"levelo_inurba_marseille","lat":43.34125,"lon":5.40909,"is_reserved":false,"is_disabled":false,"rental_uris":{"android":"levelo://app?vid=42a2a0dd-e073-46d3-a004-33e2e45e3038","ios":"levelo://app?vid=42a2a0dd-e073-46d3-a004-33e2e45e3038"},"vehicle_type_id":"4","last_reported":1744136006,"current_range_meters":9600,"station_id":"ce4bhqh2rcd13ifvqhlg","pricing_plan_id":"cebpf4jnsgd1na2vs0mg"},{"bike_id":"37b2591d-7265-4820-a87b-554301495f71","system_id":"levelo_inurba_marseille","lat":43.28952,"lon":5.36633,"is_reserved":false,"is_disabled":true,"rental_uris":{"android":"levelo://app?vid=37b2591d-7265-4820-a87b-554301495f71","ios":"levelo://app?vid=37b2591d-7265-4820-a87b-554301495f71"},"vehicle_type_id":"4","last_reported":1744136006,"current_range_meters":9600,"station_id":"ce4bhap2rcd13ifvqek0","pricing_plan_id":"cebpf4jnsgd1na2vs0mg"},{"bike_id":"9c49defb-4334-41ab-8220-2526614f99e2","system_id":"levelo_inurba_marseille","lat":43.2743,"lon":5.39424,"is_reserved":false,"is_disabled":false,"rental_uris":{"android":"levelo://app?vid=9c49defb-4334-41ab-8220-2526614f99e2","ios":"levelo://app?vid=9c49defb-4334-41ab-8220-2526614f99e2"},"vehicle_type_id":"4","last_reported":1744136006,"current_range_meters":9600,"station_id":"ce4bhdp2rcd13ifvqf20","pricing_plan_id":"cebpf4jnsgd1na2vs0mg"},{"bike_id":"def16230-6839-41bc-97e8-197ff2eb3975","system_id":"levelo_inurba_marseille","lat":43.29534,"lon":5.38549,"is_reserved":false,"is_disabled":false,"rental_uris":{"android":"levelo://app?vid=def16230-6839-41bc-97e8-197ff2eb3975","ios":"levelo://app?vid=def16230-6839-41bc-97e8-197ff2eb3975"},"vehicle_type_id":"4","last_reported":1744136006,"current_range_meters":9600,"station_id":"ce4bgih2rcd13ifvqba0","pricing_plan_id":"cebpf4jnsgd1na2vs0mg"},{"bike_id":"0a7f4372-16af-4f69-8516-8dd572477625","system_id":"levelo_inurba_marseille","lat":43.33027,"lon":5.39048,"is_reserved":false,"is_disabled":false,"rental_uris":{"android":"levelo://app?vid=0a7f4372-16af-4f69-8516-8dd572477625","ios":"levelo://app?vid=0a7f4372-16af-4f69-8516-8dd572477625"},"vehicle_type_id":"4","last_reported":1744136006,"current_range_meters":9200,"station_id":"ce4bhr92rcd13ifvqhrg","pricing_plan_id":"cebpf4jnsgd1na2vs0mg"},{"bike_id":"bae6df81-8adc-4476-b6f2-9a1a28d315c4","system_id":"levelo_inurba_marseille","lat":43.280635,"lon":5.368644,"is_reserved":false,"is_disabled":false,"rental_uris":{"android":"levelo://app?vid=bae6df81-8adc-4476-b6f2-9a1a28d315c4","ios":"levelo://app?vid=bae6df81-8adc-4476-b6f2-9a1a28d315c4"},"vehicle_type_id":"4","last_reported":1744136006,"current_range_meters":9600,"station_id":"ce4bgj92rcd13ifvqbe0","pricing_plan_id":"cebpf4jnsgd1na2vs0mg"},{"bike_id":"1c16ce55-fc77-44db-8b14-5e0e03e28ace","system_id":"levelo_inurba_marseille","lat":43.28441,"lon":5.35001,"is_reserved":false,"is_disabled":false,"rental_uris":{"android":"levelo://app?vid=1c16ce55-fc77-44db-8b14-5e0e03e28ace","ios":"levelo://app?vid=1c16ce55-fc77-44db-8b14-5e0e03e28ace"},"vehicle_type_id":"4","last_reported":1744136006,"current_range_meters":9600,"station_id":"ce4bhbh2rcd13ifvqepg","pricing_plan_id":"cebpf4jnsgd1na2vs0mg"},{"bike_id":"5e6ad826-38da-4531-b4ba-2eda8622ede3","system_id":"levelo_inurba_marseille","lat":43.31096,"lon":5.40469,"is_reserved":false,"is_disabled":false,"rental_uris":{"android":"levelo://app?vid=5e6ad826-38da-4531-b4ba-2eda8622ede3","ios":"levelo://app?vid=5e6ad826-38da-4531-b4ba-2eda8622ede3"},"vehicle_type_id":"4","last_reported":1744136006,"current_range_meters":9600,"station_id":"","pricing_plan_id":"cebpf4jnsgd1na2vs0mg"},{"bike_id":"08f62232-41bf-4b44-a9ae-1298c215b432","system_id":"levelo_inurba_marseille","lat":43.31116,"lon":5.37759,"is_reserved":false,"is_disabled":false,"rental_uris":{"android":"levelo://app?vid=08f62232-41bf-4b44-a9ae-1298c215b432","ios":"levelo://app?vid=08f62232-41bf-4b44-a9ae-1298c215b432"},"vehicle_type_id":"4","last_reported":1744136006,"current_range_meters":9600,"station_id":"ce4bgt92rcd13ifvqcg0","pricing_plan_id":"cebpf4jnsgd1na2vs0mg"},{"bike_id":"49f38000-5cf0-4b58-b8e7-caa6afa023b8","system_id":"levelo_inurba_marseille","lat":43.311656,"lon":5.38724,"is_reserved":false,"is_disabled":false,"rental_uris":{"android":"levelo://app?vid=49f38000-5cf0-4b58-b8e7-caa6afa023b8","ios":"levelo://app?vid=49f38000-5cf0-4b58-b8e7-caa6afa023b8"},"vehicle_type_id":"4","last_reported":1744136006,"current_range_meters":10000,"station_id":"ce4bgth2rcd13ifvqch0","pricing_plan_id":"cebpf4jnsgd1na2vs0mg"},{"bike_id":"31134649-31b9-42bc-b51e-ef06ed5b347a","system_id":"levelo_inurba_marseille","lat":43.28621,"lon":5.35103,"is_reserved":false,"is_disabled":false,"rental_uris":{"android":"levelo://app?vid=31134649-31b9-42bc-b51e-ef06ed5b347a","ios":"levelo://app?vid=31134649-31b9-42bc-b51e-ef06ed5b347a"},"vehicle_type_id":"4","last_reported":1744136006,"current_range_meters":10000,"station_id":"ce4bhch2rcd13ifvqeug","pricing_plan_id":"cebpf4jnsgd1na2vs0mg"},{"bike_id":"41da13e3-55a9-430d-b010-65e97a50bc5c","system_id":"levelo_inurba_marseille","lat":43.29787,"lon":5.39359,"is_reserved":false,"is_disabled":false,"rental_uris":{"android":"levelo://app?vid=41da13e3-55a9-430d-b010-65e97a50bc5c","ios":"levelo://app?vid=41da13e3-55a9-430d-b010-65e97a50bc5c"},"vehicle_type_id":"4","last_reported":1744136006,"current_range_meters":10000,"station_id":"chh1huq6cuj3fo74tm60","pricing_plan_id":"cebpf4jnsgd1na2vs0mg"},{"bike_id":"f0095612-9e69-445f-b770-387ee11c6f88","system_id":"levelo_inurba_marseille","lat":43.284325,"lon":5.349948,"is_reserved":false,"is_disabled":false,"rental_uris":{"android":"levelo://app?vid=f0095612-9e69-445f-b770-387ee11c6f88","ios":"levelo://app?vid=f0095612-9e69-445f-b770-387ee11c6f88"},"vehicle_type_id":"4","last_reported":1744136006,"current_range_meters":10000,"station_id":"ce4bhbh2rcd13ifvqepg","pricing_plan_id":"cebpf4jnsgd1na2vs0mg"},{"bike_id":"5ea20095-7252-4be8-875c-7f5494559920","system_id":"levelo_inurba_marseille","lat":43.24391,"lon":5.37057,"is_reserved":false,"is_disabled":false,"rental_uris":{"android":"levelo://app?vid=5ea20095-7252-4be8-875c-7f5494559920","ios":"levelo://app?vid=5ea20095-7252-4be8-875c-7f5494559920"},"vehicle_type_id":"4","last_reported":1744136006,"current_range_meters":10000,"station_id":"ce4bhhh2rcd13ifvqfk0","pricing_plan_id":"cebpf4jnsgd1na2vs0mg"},{"bike_id":"d5016fd2-8994-4326-854d-9b2747106f2b","system_id":"levelo_inurba_marseille","lat":43.2621,"lon":5.37446,"is_reserved":false,"is_disabled":false,"rental_uris":{"android":"levelo://app?vid=d5016fd2-8994-4326-854d-9b2747106f2b","ios":"levelo://app?vid=d5016fd2-8994-4326-854d-9b2747106f2b"},"vehicle_type_id":"4","last_reported":1744136006,"current_range_meters":10000,"station_id":"ce4bhgp2rcd13ifvqfc0","pricing_plan_id":"cebpf4jnsgd1na2vs0mg"},{"bike_id":"d417c824-8e77-4cd0-a662-1663b0cca35e","system_id":"levelo_inurba_marseille","lat":43.279994,"lon":5.400157,"is_reserved":false,"is_disabled":false,"rental_uris":{"android":"levelo://app?vid=d417c824-8e77-4cd0-a662-1663b0cca35e","ios":"levelo://app?vid=d417c824-8e77-4cd0-a662-1663b0cca35e"},"vehicle_type_id":"4","last_reported":1744136006,"current_range_meters":10000,"station_id":"ce4bh192rcd13ifvqdc0","pricing_plan_id":"cebpf4jnsgd1na2vs0mg"},{"bike_id":"68d1cc33-0218-451e-8e10-d32225c21263","system_id":"levelo_inurba_marseille","lat":43.23173,"lon":5.43759,"is_reserved":false,"is_disabled":true,"rental_uris":{"android":"levelo://app?vid=68d1cc33-0218-451e-8e10-d32225c21263","ios":"levelo://app?vid=68d1cc33-0218-451e-8e10-d32225c21263"},"vehicle_type_id":"4","last_reported":1744136006,"current_range_meters":10000,"station_id":"ce4bhmp2rcd13ifvqgog","pricing_plan_id":"cebpf4jnsgd1na2vs0mg"},{"bike_id":"f76782ad-856f-4c30-8e92-db4ef27f18ab","system_id":"levelo_inurba_marseille","lat":43.30622,"lon":5.37222,"is_reserved":false,"is_disabled":false,"rental_uris":{"android":"levelo://app?vid=f76782ad-856f-4c30-8e92-db4ef27f18ab","ios":"levelo://app?vid=f76782ad-856f-4c30-8e92-db4ef27f18ab"},"vehicle_type_id":"4","last_reported":1744136006,"current_range_meters":9600,"station_id":"ce4bgqh2rcd13ifvqc4g","pricing_plan_id":"cebpf4jnsgd1na2vs0mg"},{"bike_id":"8066ad33-cfa8-459f-a086-2b6841b4bb9e","system_id":"levelo_inurba_marseille","lat":43.28618,"lon":5.35109,"is_reserved":false,"is_disabled":false,"rental_uris":{"android":"levelo://app?vid=8066ad33-cfa8-459f-a086-2b6841b4bb9e","ios":"levelo://app?vid=8066ad33-cfa8-459f-a086-2b6841b4bb9e"},"vehicle_type_id":"4","last_reported":1744136006,"current_range_meters":10000,"station_id":"ce4bhch2rcd13ifvqeug","pricing_plan_id":"cebpf4jnsgd1na2vs0mg"},{"bike_id":"d229a2a9-4e7b-43eb-bd5a-7aed6af59124","system_id":"levelo_inurba_marseille","lat":43.28854,"lon":5.35856,"is_reserved":false,"is_disabled":false,"rental_uris":{"android":"levelo://app?vid=d229a2a9-4e7b-43eb-bd5a-7aed6af59124","ios":"levelo://app?vid=d229a2a9-4e7b-43eb-bd5a-7aed6af59124"},"vehicle_type_id":"4","last_reported":1744136006,"current_range_meters":10000,"station_id":"ce4bhb12rcd13ifvqem0","pricing_plan_id":"cebpf4jnsgd1na2vs0mg"},{"bike_id":"650cd787-8c2a-4d8d-94da-55ff49e8aeb3","system_id":"levelo_inurba_marseille","lat":43.28863,"lon":5.35858,"is_reserved":false,"is_disabled":false,"rental_uris":{"android":"levelo://app?vid=650cd787-8c2a-4d8d-94da-55ff49e8aeb3","ios":"levelo://app?vid=650cd787-8c2a-4d8d-94da-55ff49e8aeb3"},"vehicle_type_id":"4","last_reported":1744136006,"current_range_meters":10000,"station_id":"ce4bhb12rcd13ifvqem0","pricing_plan_id":"cebpf4jnsgd1na2vs0mg"},{"bike_id":"94e58602-967e-42df-ae51-03e72ca997c6","system_id":"levelo_inurba_marseille","lat":43.32366,"lon":5.38891,"is_reserved":false,"is_disabled":false,"rental_uris":{"android":"levelo://app?vid=94e58602-967e-42df-ae51-03e72ca997c6","ios":"levelo://app?vid=94e58602-967e-42df-ae51-03e72ca997c6"},"vehicle_type_id":"4","last_reported":1744136006,"current_range_meters":10800,"station_id":"ce4bhqp2rcd13ifvqhog","pricing_plan_id":"cebpf4jnsgd1na2vs0mg"},{"bike_id":"6740a552-979e-483f-b133-7488b18d7baa","system_id":"levelo_inurba_marseille","lat":43.28398,"lon":5.37503,"is_reserved":false,"is_disabled":false,"rental_uris":{"android":"levelo://app?vid=6740a552-979e-483f-b133-7488b18d7baa","ios":"levelo://app?vid=6740a552-979e-483f-b133-7488b18d7baa"},"vehicle_type_id":"4","last_reported":1744136006,"current_range_meters":10800,"station_id":"ce4bh412rcd13ifvqds0","pricing_plan_id":"cebpf4jnsgd1na2vs0mg"},{"bike_id":"bbe1d6f7-badd-47ae-8ac0-0c055d0c15af","system_id":"levelo_inurba_marseille","lat":43.28618,"lon":5.35098,"is_reserved":false,"is_disabled":false,"rental_uris":{"android":"levelo://app?vid=bbe1d6f7-badd-47ae-8ac0-0c055d0c15af","ios":"levelo://app?vid=bbe1d6f7-badd-47ae-8ac0-0c055d0c15af"},"vehicle_type_id":"4","last_reported":1744136006,"current_range_meters":10800,"station_id":"ce4bhch2rcd13ifvqeug","pricing_plan_id":"cebpf4jnsgd1na2vs0mg"},{"bike_id":"0aa02c49-cbb3-4907-a588-f754056f3ba8","system_id":"levelo_inurba_marseille","lat":43.30832,"lon":5.38163,"is_reserved":false,"is_disabled":true,"rental_uris":{"android":"levelo://app?vid=0aa02c49-cbb3-4907-a588-f754056f3ba8","ios":"levelo://app?vid=0aa02c49-cbb3-4907-a588-f754056f3ba8"},"vehicle_type_id":"4","last_reported":1744136006,"current_range_meters":10800,"station_id":"ce4bgt12rcd13ifvqce0","pricing_plan_id":"cebpf4jnsgd1na2vs0mg"},{"bike_id":"739a9b0a-31dc-4899-a513-2d01c7a1db90","system_id":"levelo_inurba_marseille","lat":43.295193,"lon":5.374952,"is_reserved":false,"is_disabled":false,"rental_uris":{"android":"levelo://app?vid=739a9b0a-31dc-4899-a513-2d01c7a1db90","ios":"levelo://app?vid=739a9b0a-31dc-4899-a513-2d01c7a1db90"},"vehicle_type_id":"4","last_reported":1744136006,"current_range_meters":10800,"station_id":"ce4bgkp2rcd13ifvqbmg","pricing_plan_id":"cebpf4jnsgd1na2vs0mg"},{"bike_id":"a84010db-2c10-45f3-8ca4-8d2ab5df3741","system_id":"levelo_inurba_marseille","lat":43.29263,"lon":5.38441,"is_reserved":false,"is_disabled":false,"rental_uris":{"android":"levelo://app?vid=a84010db-2c10-45f3-8ca4-8d2ab5df3741","ios":"levelo://app?vid=a84010db-2c10-45f3-8ca4-8d2ab5df3741"},"vehicle_type_id":"4","last_reported":1744136006,"current_range_meters":11200,"station_id":"ce4bh692rcd13ifvqea0","pricing_plan_id":"cebpf4jnsgd1na2vs0mg"},{"bike_id":"5937f653-3f65-407b-9fe6-74eb6bfaa526","system_id":"levelo_inurba_marseille","lat":43.29806,"lon":5.38098,"is_reserved":false,"is_disabled":false,"rental_uris":{"android":"levelo://app?vid=5937f653-3f65-407b-9fe6-74eb6bfaa526","ios":"levelo://app?vid=5937f653-3f65-407b-9fe6-74eb6bfaa526"},"vehicle_type_id":"4","last_reported":1744136006,"current_range_meters":11200,"station_id":"ce4bgip2rcd13ifvqbb0","pricing_plan_id":"cebpf4jnsgd1na2vs0mg"},{"bike_id":"93e3fd92-d65f-4f36-ba40-a3e5476ebc87","system_id":"levelo_inurba_marseille","lat":43.3066,"lon":5.36587,"is_reserved":false,"is_disabled":false,"rental_uris":{"android":"levelo://app?vid=93e3fd92-d65f-4f36-ba40-a3e5476ebc87","ios":"levelo://app?vid=93e3fd92-d65f-4f36-ba40-a3e5476ebc87"},"vehicle_type_id":"4","last_reported":1744136006,"current_range_meters":11200,"station_id":"","pricing_plan_id":"cebpf4jnsgd1na2vs0mg"},{"bike_id":"03b0a259-3096-4cdd-8ad6-1a2303a94ff0","system_id":"levelo_inurba_marseille","lat":43.27426,"lon":5.39417,"is_reserved":false,"is_disabled":false,"rental_uris":{"android":"levelo://app?vid=03b0a259-3096-4cdd-8ad6-1a2303a94ff0","ios":"levelo://app?vid=03b0a259-3096-4cdd-8ad6-1a2303a94ff0"},"vehicle_type_id":"4","last_reported":1744136006,"current_range_meters":11200,"station_id":"ce4bhdp2rcd13ifvqf20","pricing_plan_id":"cebpf4jnsgd1na2vs0mg"},{"bike_id":"1ca7d0c4-b7aa-4350-ad9f-4e24c2ba029a","system_id":"levelo_inurba_marseille","lat":43.30377,"lon":5.4251,"is_reserved":false,"is_disabled":true,"rental_uris":{"android":"levelo://app?vid=1ca7d0c4-b7aa-4350-ad9f-4e24c2ba029a","ios":"levelo://app?vid=1ca7d0c4-b7aa-4350-ad9f-4e24c2ba029a"},"vehicle_type_id":"4","last_reported":1744136006,"current_range_meters":11200,"station_id":"ce4bhoh2rcd13ifvqh6g","pricing_plan_id":"cebpf4jnsgd1na2vs0mg"},{"bike_id":"196aab48-85b0-499e-8220-62200322436d","system_id":"levelo_inurba_marseille","lat":43.231959,"lon":5.355523,"is_reserved":false,"is_disabled":false,"rental_uris":{"android":"levelo://app?vid=196aab48-85b0-499e-8220-62200322436d","ios":"levelo://app?vid=196aab48-85b0-499e-8220-62200322436d"},"vehicle_type_id":"4","last_reported":1744136006,"current_range_meters":11200,"station_id":"ce4bhu92rcd13ifvqi70","pricing_plan_id":"cebpf4jnsgd1na2vs0mg"},{"bike_id":"fb877293-c0fb-47ed-963d-95e607c6afd3","system_id":"levelo_inurba_marseille","lat":43.28934,"lon":5.38398,"is_reserved":false,"is_disabled":false,"rental_uris":{"android":"levelo://app?vid=fb877293-c0fb-47ed-963d-95e607c6afd3","ios":"levelo://app?vid=fb877293-c0fb-47ed-963d-95e607c6afd3"},"vehicle_type_id":"4","last_reported":1744136006,"current_range_meters":11200,"station_id":"ce4bh612rcd13ifvqe6g","pricing_plan_id":"cebpf4jnsgd1na2vs0mg"},{"bike_id":"bad83ffa-e233-41ac-b2b4-421ba5c713d7","system_id":"levelo_inurba_marseille","lat":43.30256,"lon":5.40079,"is_reserved":false,"is_disabled":false,"rental_uris":{"android":"levelo://app?vid=bad83ffa-e233-41ac-b2b4-421ba5c713d7","ios":"levelo://app?vid=bad83ffa-e233-41ac-b2b4-421ba5c713d7"},"vehicle_type_id":"4","last_reported":1744136006,"current_range_meters":11200,"station_id":"ce4bgvh2rcd13ifvqcs0","pricing_plan_id":"cebpf4jnsgd1na2vs0mg"},{"bike_id":"4ed65455-0baf-4c83-9134-b59f53b342f2","system_id":"levelo_inurba_marseille","lat":43.30785,"lon":5.37641,"is_reserved":false,"is_disabled":false,"rental_uris":{"android":"levelo://app?vid=4ed65455-0baf-4c83-9134-b59f53b342f2","ios":"levelo://app?vid=4ed65455-0baf-4c83-9134-b59f53b342f2"},"vehicle_type_id":"4","last_reported":1744136006,"current_range_meters":11200,"station_id":"ce4bgv92rcd13ifvqcq0","pricing_plan_id":"cebpf4jnsgd1na2vs0mg"},{"bike_id":"08f9c0c8-8b33-4578-8a03-20f44d582241","system_id":"levelo_inurba_marseille","lat":43.3062,"lon":5.37164,"is_reserved":false,"is_disabled":false,"rental_uris":{"android":"levelo://app?vid=08f9c0c8-8b33-4578-8a03-20f44d582241","ios":"levelo://app?vid=08f9c0c8-8b33-4578-8a03-20f44d582241"},"vehicle_type_id":"4","last_reported":1744136006,"current_range_meters":11200,"station_id":"","pricing_plan_id":"cebpf4jnsgd1na2vs0mg"},{"bike_id":"bcf0b6a3-1491-4837-8b0f-93dfdced7f56","system_id":"levelo_inurba_marseille","lat":43.30139,"lon":5.39874,"is_reserved":false,"is_disabled":false,"rental_uris":{"android":"levelo://app?vid=bcf0b6a3-1491-4837-8b0f-93dfdced7f56","ios":"levelo://app?vid=bcf0b6a3-1491-4837-8b0f-93dfdced7f56"},"vehicle_type_id":"4","last_reported":1744136006,"current_range_meters":11200,"station_id":"ce4bh0h2rcd13ifvqd40","pricing_plan_id":"cebpf4jnsgd1na2vs0mg"},{"bike_id":"cf06ea46-cca1-480a-bf83-cdcba4cea6c3","system_id":"levelo_inurba_marseille","lat":43.281603,"lon":5.378788,"is_reserved":false,"is_disabled":false,"rental_uris":{"android":"levelo://app?vid=cf06ea46-cca1-480a-bf83-cdcba4cea6c3","ios":"levelo://app?vid=cf06ea46-cca1-480a-bf83-cdcba4cea6c3"},"vehicle_type_id":"4","last_reported":1744136006,"current_range_meters":11600,"station_id":"ce4bha12rcd13ifvqee0","pricing_plan_id":"cebpf4jnsgd1na2vs0mg"},{"bike_id":"a5a3b1e0-74c4-483a-bc6d-25e78d47fd62","system_id":"levelo_inurba_marseille","lat":43.28508,"lon":5.35966,"is_reserved":false,"is_disabled":false,"rental_uris":{"android":"levelo://app?vid=a5a3b1e0-74c4-483a-bc6d-25e78d47fd62","ios":"levelo://app?vid=a5a3b1e0-74c4-483a-bc6d-25e78d47fd62"},"vehicle_type_id":"4","last_reported":1744136006,"current_range_meters":11600,"station_id":"ce4bhah2rcd13ifvqei0","pricing_plan_id":"cebpf4jnsgd1na2vs0mg"},{"bike_id":"5e915f82-a4c1-4e4f-a760-938d066b707c","system_id":"levelo_inurba_marseille","lat":43.28943,"lon":5.36401,"is_reserved":false,"is_disabled":false,"rental_uris":{"android":"levelo://app?vid=5e915f82-a4c1-4e4f-a760-938d066b707c","ios":"levelo://app?vid=5e915f82-a4c1-4e4f-a760-938d066b707c"},"vehicle_type_id":"4","last_reported":1744136006,"current_range_meters":11600,"station_id":"ce4bhc92rcd13ifvqetg","pricing_plan_id":"cebpf4jnsgd1na2vs0mg"},{"bike_id":"80ea55be-75e4-4954-8054-1bf6adcbb409","system_id":"levelo_inurba_marseille","lat":43.29809,"lon":5.38102,"is_reserved":false,"is_disabled":false,"rental_uris":{"android":"levelo://app?vid=80ea55be-75e4-4954-8054-1bf6adcbb409","ios":"levelo://app?vid=80ea55be-75e4-4954-8054-1bf6adcbb409"},"vehicle_type_id":"4","last_reported":1744136006,"current_range_meters":11600,"station_id":"ce4bgip2rcd13ifvqbb0","pricing_plan_id":"cebpf4jnsgd1na2vs0mg"},{"bike_id":"69e106a1-fcae-46cf-99cc-aa8001be4b20","system_id":"levelo_inurba_marseille","lat":43.28605,"lon":5.35108,"is_reserved":false,"is_disabled":false,"rental_uris":{"android":"levelo://app?vid=69e106a1-fcae-46cf-99cc-aa8001be4b20","ios":"levelo://app?vid=69e106a1-fcae-46cf-99cc-aa8001be4b20"},"vehicle_type_id":"4","last_reported":1744136006,"current_range_meters":11600,"station_id":"ce4bhch2rcd13ifvqeug","pricing_plan_id":"cebpf4jnsgd1na2vs0mg"},{"bike_id":"13be73e1-390c-4dad-a91b-51e2eb5c28cb","system_id":"levelo_inurba_marseille","lat":43.28288,"lon":5.35084,"is_reserved":false,"is_disabled":false,"rental_uris":{"android":"levelo://app?vid=13be73e1-390c-4dad-a91b-51e2eb5c28cb","ios":"levelo://app?vid=13be73e1-390c-4dad-a91b-51e2eb5c28cb"},"vehicle_type_id":"4","last_reported":1744136006,"current_range_meters":11200,"station_id":"ce4bhbp2rcd13ifvqerg","pricing_plan_id":"cebpf4jnsgd1na2vs0mg"},{"bike_id":"e59051cf-599d-44e5-b103-bcfbd325bed4","system_id":"levelo_inurba_marseille","lat":43.28639,"lon":5.35098,"is_reserved":false,"is_disabled":false,"rental_uris":{"android":"levelo://app?vid=e59051cf-599d-44e5-b103-bcfbd325bed4","ios":"levelo://app?vid=e59051cf-599d-44e5-b103-bcfbd325bed4"},"vehicle_type_id":"4","last_reported":1744136006,"current_range_meters":11600,"station_id":"ce4bhch2rcd13ifvqeug","pricing_plan_id":"cebpf4jnsgd1na2vs0mg"},{"bike_id":"2f34184e-2108-4f3b-8a8d-9c40e17a8684","system_id":"levelo_inurba_marseille","lat":43.28619,"lon":5.35106,"is_reserved":false,"is_disabled":false,"rental_uris":{"android":"levelo://app?vid=2f34184e-2108-4f3b-8a8d-9c40e17a8684","ios":"levelo://app?vid=2f34184e-2108-4f3b-8a8d-9c40e17a8684"},"vehicle_type_id":"4","last_reported":1744136006,"current_range_meters":11600,"station_id":"ce4bhch2rcd13ifvqeug","pricing_plan_id":"cebpf4jnsgd1na2vs0mg"},{"bike_id":"4c2e028f-2e56-4a9d-9a8a-be7b94f64afb","system_id":"levelo_inurba_marseille","lat":43.3237,"lon":5.38589,"is_reserved":false,"is_disabled":false,"rental_uris":{"android":"levelo://app?vid=4c2e028f-2e56-4a9d-9a8a-be7b94f64afb","ios":"levelo://app?vid=4c2e028f-2e56-4a9d-9a8a-be7b94f64afb"},"vehicle_type_id":"4","last_reported":1744136006,"current_range_meters":12000,"station_id":"","pricing_plan_id":"cebpf4jnsgd1na2vs0mg"},{"bike_id":"020572ba-a5aa-440a-b36f-c17175204926","system_id":"levelo_inurba_marseille","lat":43.2954,"lon":5.38535,"is_reserved":false,"is_disabled":false,"rental_uris":{"android":"levelo://app?vid=020572ba-a5aa-440a-b36f-c17175204926","ios":"levelo://app?vid=020572ba-a5aa-440a-b36f-c17175204926"},"vehicle_type_id":"4","last_reported":1744136006,"current_range_meters":11200,"station_id":"ce4bgih2rcd13ifvqba0","pricing_plan_id":"cebpf4jnsgd1na2vs0mg"},{"bike_id":"b397701f-0d3d-44bf-ab3e-3ccc7e74fb2e","system_id":"levelo_inurba_marseille","lat":43.26455,"lon":5.42273,"is_reserved":false,"is_disabled":false,"rental_uris":{"android":"levelo://app?vid=b397701f-0d3d-44bf-ab3e-3ccc7e74fb2e","ios":"levelo://app?vid=b397701f-0d3d-44bf-ab3e-3ccc7e74fb2e"},"vehicle_type_id":"4","last_reported":1744136006,"current_range_meters":11600,"station_id":"","pricing_plan_id":"cebpf4jnsgd1na2vs0mg"},{"bike_id":"c9b54e39-f4bf-4596-b6b0-178d9d25c0ac","system_id":"levelo_inurba_marseille","lat":43.29104,"lon":5.38128,"is_reserved":false,"is_disabled":false,"rental_uris":{"android":"levelo://app?vid=c9b54e39-f4bf-4596-b6b0-178d9d25c0ac","ios":"levelo://app?vid=c9b54e39-f4bf-4596-b6b0-178d9d25c0ac"},"vehicle_type_id":"4","last_reported":1744136006,"current_range_meters":11600,"station_id":"ce4bh512rcd13ifvqe2g","pricing_plan_id":"cebpf4jnsgd1na2vs0mg"},{"bike_id":"9fce7fb9-26b6-4832-9f96-ea1b75c489f0","system_id":"levelo_inurba_marseille","lat":43.23196,"lon":5.35584,"is_reserved":false,"is_disabled":false,"rental_uris":{"android":"levelo://app?vid=9fce7fb9-26b6-4832-9f96-ea1b75c489f0","ios":"levelo://app?vid=9fce7fb9-26b6-4832-9f96-ea1b75c489f0"},"vehicle_type_id":"4","last_reported":1744136006,"current_range_meters":12000,"station_id":"ce4bhu92rcd13ifvqi70","pricing_plan_id":"cebpf4jnsgd1na2vs0mg"},{"bike_id":"d77214b9-f917-491a-8171-af2189f63920","system_id":"levelo_inurba_marseille","lat":43.29788,"lon":5.39356,"is_reserved":false,"is_disabled":false,"rental_uris":{"android":"levelo://app?vid=d77214b9-f917-491a-8171-af2189f63920","ios":"levelo://app?vid=d77214b9-f917-491a-8171-af2189f63920"},"vehicle_type_id":"4","last_reported":1744136006,"current_range_meters":12000,"station_id":"chh1huq6cuj3fo74tm60","pricing_plan_id":"cebpf4jnsgd1na2vs0mg"},{"bike_id":"8608fed8-5511-445a-b382-7039018c22a6","system_id":"levelo_inurba_marseille","lat":43.27068,"lon":5.42278,"is_reserved":false,"is_disabled":false,"rental_uris":{"android":"levelo://app?vid=8608fed8-5511-445a-b382-7039018c22a6","ios":"levelo://app?vid=8608fed8-5511-445a-b382-7039018c22a6"},"vehicle_type_id":"4","last_reported":1744136006,"current_range_meters":11600,"station_id":"ce4bhk92rcd13ifvqgb0","pricing_plan_id":"cebpf4jnsgd1na2vs0mg"},{"bike_id":"1993efc5-6855-42dd-b6c5-658c819e74ea","system_id":"levelo_inurba_marseille","lat":43.29266,"lon":5.38434,"is_reserved":false,"is_disabled":false,"rental_uris":{"android":"levelo://app?vid=1993efc5-6855-42dd-b6c5-658c819e74ea","ios":"levelo://app?vid=1993efc5-6855-42dd-b6c5-658c819e74ea"},"vehicle_type_id":"4","last_reported":1744136006,"current_range_meters":12000,"station_id":"ce4bh692rcd13ifvqea0","pricing_plan_id":"cebpf4jnsgd1na2vs0mg"},{"bike_id":"c1e94783-8ec7-4caa-9ecb-7fd381961fce","system_id":"levelo_inurba_marseille","lat":43.28617,"lon":5.35079,"is_reserved":false,"is_disabled":false,"rental_uris":{"android":"levelo://app?vid=c1e94783-8ec7-4caa-9ecb-7fd381961fce","ios":"levelo://app?vid=c1e94783-8ec7-4caa-9ecb-7fd381961fce"},"vehicle_type_id":"4","last_reported":1744136006,"current_range_meters":12000,"station_id":"ce4bhch2rcd13ifvqeug","pricing_plan_id":"cebpf4jnsgd1na2vs0mg"},{"bike_id":"9491b13c-6e0b-4e3d-871e-45ca77888c0f","system_id":"levelo_inurba_marseille","lat":43.28873,"lon":5.35866,"is_reserved":false,"is_disabled":false,"rental_uris":{"android":"levelo://app?vid=9491b13c-6e0b-4e3d-871e-45ca77888c0f","ios":"levelo://app?vid=9491b13c-6e0b-4e3d-871e-45ca77888c0f"},"vehicle_type_id":"4","last_reported":1744136006,"current_range_meters":12000,"station_id":"ce4bhb12rcd13ifvqem0","pricing_plan_id":"cebpf4jnsgd1na2vs0mg"},{"bike_id":"05ebd012-a397-44d6-8d3a-b4fd8a759a09","system_id":"levelo_inurba_marseille","lat":43.30798,"lon":5.43524,"is_reserved":false,"is_disabled":false,"rental_uris":{"android":"levelo://app?vid=05ebd012-a397-44d6-8d3a-b4fd8a759a09","ios":"levelo://app?vid=05ebd012-a397-44d6-8d3a-b4fd8a759a09"},"vehicle_type_id":"4","last_reported":1744136006,"current_range_meters":12000,"station_id":"ce4bhph2rcd13ifvqheg","pricing_plan_id":"cebpf4jnsgd1na2vs0mg"},{"bike_id":"fcba2fad-8717-4251-93ef-1b115b919533","system_id":"levelo_inurba_marseille","lat":43.27368,"lon":5.36209,"is_reserved":false,"is_disabled":false,"rental_uris":{"android":"levelo://app?vid=fcba2fad-8717-4251-93ef-1b115b919533","ios":"levelo://app?vid=fcba2fad-8717-4251-93ef-1b115b919533"},"vehicle_type_id":"4","last_reported":1744136006,"current_range_meters":12000,"station_id":"","pricing_plan_id":"cebpf4jnsgd1na2vs0mg"},{"bike_id":"2f69d31d-1e22-46b5-b363-7e3db009c8ab","system_id":"levelo_inurba_marseille","lat":43.295,"lon":5.39027,"is_reserved":false,"is_disabled":false,"rental_uris":{"android":"levelo://app?vid=2f69d31d-1e22-46b5-b363-7e3db009c8ab","ios":"levelo://app?vid=2f69d31d-1e22-46b5-b363-7e3db009c8ab"},"vehicle_type_id":"4","last_reported":1744136006,"current_range_meters":12000,"station_id":"ce4bh3p2rcd13ifvqdp0","pricing_plan_id":"cebpf4jnsgd1na2vs0mg"},{"bike_id":"d25a6475-ec8e-4ab9-a32b-fa73293f74eb","system_id":"levelo_inurba_marseille","lat":43.24814,"lon":5.37468,"is_reserved":false,"is_disabled":false,"rental_uris":{"android":"levelo://app?vid=d25a6475-ec8e-4ab9-a32b-fa73293f74eb","ios":"levelo://app?vid=d25a6475-ec8e-4ab9-a32b-fa73293f74eb"},"vehicle_type_id":"4","last_reported":1744136006,"current_range_meters":12000,"station_id":"ce4bhgh2rcd13ifvqfb0","pricing_plan_id":"cebpf4jnsgd1na2vs0mg"},{"bike_id":"8c33120b-fb8a-43fc-b964-011265f7c0c0","system_id":"levelo_inurba_marseille","lat":43.2862,"lon":5.35104,"is_reserved":false,"is_disabled":false,"rental_uris":{"android":"levelo://app?vid=8c33120b-fb8a-43fc-b964-011265f7c0c0","ios":"levelo://app?vid=8c33120b-fb8a-43fc-b964-011265f7c0c0"},"vehicle_type_id":"4","last_reported":1744136006,"current_range_meters":12400,"station_id":"ce4bhch2rcd13ifvqeug","pricing_plan_id":"cebpf4jnsgd1na2vs0mg"},{"bike_id":"51ecdd63-5f2b-4abd-a2f9-2e63705e966f","system_id":"levelo_inurba_marseille","lat":43.29784,"lon":5.39351,"is_reserved":false,"is_disabled":false,"rental_uris":{"android":"levelo://app?vid=51ecdd63-5f2b-4abd-a2f9-2e63705e966f","ios":"levelo://app?vid=51ecdd63-5f2b-4abd-a2f9-2e63705e966f"},"vehicle_type_id":"4","last_reported":1744136006,"current_range_meters":12400,"station_id":"chh1huq6cuj3fo74tm60","pricing_plan_id":"cebpf4jnsgd1na2vs0mg"},{"bike_id":"2726c103-f5dc-4cf1-9b4d-71b0feb29efa","system_id":"levelo_inurba_marseille","lat":43.24806,"lon":5.37451,"is_reserved":false,"is_disabled":false,"rental_uris":{"android":"levelo://app?vid=2726c103-f5dc-4cf1-9b4d-71b0feb29efa","ios":"levelo://app?vid=2726c103-f5dc-4cf1-9b4d-71b0feb29efa"},"vehicle_type_id":"4","last_reported":1744136006,"current_range_meters":12400,"station_id":"ce4bhgh2rcd13ifvqfb0","pricing_plan_id":"cebpf4jnsgd1na2vs0mg"},{"bike_id":"90bbcc3a-c358-4216-b635-b58ea38b64be","system_id":"levelo_inurba_marseille","lat":43.32288,"lon":5.38271,"is_reserved":false,"is_disabled":false,"rental_uris":{"android":"levelo://app?vid=90bbcc3a-c358-4216-b635-b58ea38b64be","ios":"levelo://app?vid=90bbcc3a-c358-4216-b635-b58ea38b64be"},"vehicle_type_id":"4","last_reported":1744136006,"current_range_meters":12400,"station_id":"ce4bhr12rcd13ifvqhqg","pricing_plan_id":"cebpf4jnsgd1na2vs0mg"},{"bike_id":"29aff4b5-ae2b-45ae-8c08-ae2fcd7b3ccd","system_id":"levelo_inurba_marseille","lat":43.28858,"lon":5.35852,"is_reserved":false,"is_disabled":false,"rental_uris":{"android":"levelo://app?vid=29aff4b5-ae2b-45ae-8c08-ae2fcd7b3ccd","ios":"levelo://app?vid=29aff4b5-ae2b-45ae-8c08-ae2fcd7b3ccd"},"vehicle_type_id":"4","last_reported":1744136006,"current_range_meters":12400,"station_id":"ce4bhb12rcd13ifvqem0","pricing_plan_id":"cebpf4jnsgd1na2vs0mg"},{"bike_id":"bef9bfb5-8a75-4075-a0f5-0add3d4be34e","system_id":"levelo_inurba_marseille","lat":43.26577,"lon":5.39015,"is_reserved":false,"is_disabled":false,"rental_uris":{"android":"levelo://app?vid=bef9bfb5-8a75-4075-a0f5-0add3d4be34e","ios":"levelo://app?vid=bef9bfb5-8a75-4075-a0f5-0add3d4be34e"},"vehicle_type_id":"4","last_reported":1744136006,"current_range_meters":12400,"station_id":"ce4bhe12rcd13ifvqf30","pricing_plan_id":"cebpf4jnsgd1na2vs0mg"},{"bike_id":"56ee759a-b574-4911-9e6e-32e32e9ade9a","system_id":"levelo_inurba_marseille","lat":43.28624,"lon":5.35085,"is_reserved":false,"is_disabled":false,"rental_uris":{"android":"levelo://app?vid=56ee759a-b574-4911-9e6e-32e32e9ade9a","ios":"levelo://app?vid=56ee759a-b574-4911-9e6e-32e32e9ade9a"},"vehicle_type_id":"4","last_reported":1744136006,"current_range_meters":12400,"station_id":"ce4bhch2rcd13ifvqeug","pricing_plan_id":"cebpf4jnsgd1na2vs0mg"},{"bike_id":"e5938b52-8c6e-4217-b08d-89d8d604ff59","system_id":"levelo_inurba_marseille","lat":43.290265,"lon":5.37938,"is_reserved":false,"is_disabled":false,"rental_uris":{"android":"levelo://app?vid=e5938b52-8c6e-4217-b08d-89d8d604ff59","ios":"levelo://app?vid=e5938b52-8c6e-4217-b08d-89d8d604ff59"},"vehicle_type_id":"4","last_reported":1744136006,"current_range_meters":12400,"station_id":"ce4bh512rcd13ifvqe2g","pricing_plan_id":"cebpf4jnsgd1na2vs0mg"},{"bike_id":"e2b59902-6359-4dca-bc19-3e3e3e41aed4","system_id":"levelo_inurba_marseille","lat":43.24807,"lon":5.37457,"is_reserved":false,"is_disabled":true,"rental_uris":{"android":"levelo://app?vid=e2b59902-6359-4dca-bc19-3e3e3e41aed4","ios":"levelo://app?vid=e2b59902-6359-4dca-bc19-3e3e3e41aed4"},"vehicle_type_id":"4","last_reported":1744136006,"current_range_meters":12400,"station_id":"ce4bhgh2rcd13ifvqfb0","pricing_plan_id":"cebpf4jnsgd1na2vs0mg"},{"bike_id":"894923f7-24a8-4f05-8d0c-1af4b4d3211a","system_id":"levelo_inurba_marseille","lat":43.30305,"lon":5.39215,"is_reserved":false,"is_disabled":true,"rental_uris":{"android":"levelo://app?vid=894923f7-24a8-4f05-8d0c-1af4b4d3211a","ios":"levelo://app?vid=894923f7-24a8-4f05-8d0c-1af4b4d3211a"},"vehicle_type_id":"4","last_reported":1744136006,"current_range_meters":12800,"station_id":"ce4bgkh2rcd13ifvqbk0","pricing_plan_id":"cebpf4jnsgd1na2vs0mg"},{"bike_id":"d41270f1-fec7-4c37-a954-f4e257bbdc37","system_id":"levelo_inurba_marseille","lat":43.29272,"lon":5.38437,"is_reserved":false,"is_disabled":false,"rental_uris":{"android":"levelo://app?vid=d41270f1-fec7-4c37-a954-f4e257bbdc37","ios":"levelo://app?vid=d41270f1-fec7-4c37-a954-f4e257bbdc37"},"vehicle_type_id":"4","last_reported":1744136006,"current_range_meters":12800,"station_id":"ce4bh692rcd13ifvqea0","pricing_plan_id":"cebpf4jnsgd1na2vs0mg"},{"bike_id":"958e05fb-44d5-44f7-bba1-324251e0a70f","system_id":"levelo_inurba_marseille","lat":43.28664,"lon":5.36345,"is_reserved":false,"is_disabled":false,"rental_uris":{"android":"levelo://app?vid=958e05fb-44d5-44f7-bba1-324251e0a70f","ios":"levelo://app?vid=958e05fb-44d5-44f7-bba1-324251e0a70f"},"vehicle_type_id":"4","last_reported":1744136006,"current_range_meters":12800,"station_id":"ce4bhah2rcd13ifvqej0","pricing_plan_id":"cebpf4jnsgd1na2vs0mg"},{"bike_id":"9719e735-7f03-450f-8995-a21dae30970a","system_id":"levelo_inurba_marseille","lat":43.28157,"lon":5.42647,"is_reserved":false,"is_disabled":false,"rental_uris":{"android":"levelo://app?vid=9719e735-7f03-450f-8995-a21dae30970a","ios":"levelo://app?vid=9719e735-7f03-450f-8995-a21dae30970a"},"vehicle_type_id":"4","last_reported":1744136006,"current_range_meters":12800,"station_id":"ce4bhnh2rcd13ifvqgug","pricing_plan_id":"cebpf4jnsgd1na2vs0mg"},{"bike_id":"49b5b449-0414-42f8-89c2-1949e69312b5","system_id":"levelo_inurba_marseille","lat":43.24845,"lon":5.37466,"is_reserved":false,"is_disabled":false,"rental_uris":{"android":"levelo://app?vid=49b5b449-0414-42f8-89c2-1949e69312b5","ios":"levelo://app?vid=49b5b449-0414-42f8-89c2-1949e69312b5"},"vehicle_type_id":"4","last_reported":1744136006,"current_range_meters":10800,"station_id":"","pricing_plan_id":"cebpf4jnsgd1na2vs0mg"},{"bike_id":"972a42b8-e257-44da-acb1-01f76978b7cc","system_id":"levelo_inurba_marseille","lat":43.299668,"lon":5.384862,"is_reserved":false,"is_disabled":false,"rental_uris":{"android":"levelo://app?vid=972a42b8-e257-44da-acb1-01f76978b7cc","ios":"levelo://app?vid=972a42b8-e257-44da-acb1-01f76978b7cc"},"vehicle_type_id":"4","last_reported":1744136006,"current_range_meters":12800,"station_id":"ce4bgk12rcd13ifvqbi0","pricing_plan_id":"cebpf4jnsgd1na2vs0mg"},{"bike_id":"8379372e-c06d-426f-85f9-acdc4eafa151","system_id":"levelo_inurba_marseille","lat":43.21761,"lon":5.34619,"is_reserved":false,"is_disabled":true,"rental_uris":{"android":"levelo://app?vid=8379372e-c06d-426f-85f9-acdc4eafa151","ios":"levelo://app?vid=8379372e-c06d-426f-85f9-acdc4eafa151"},"vehicle_type_id":"4","last_reported":1744136006,"current_range_meters":12800,"station_id":"st_cvj6r9ubvosntc0bgbag","pricing_plan_id":"cebpf4jnsgd1na2vs0mg"},{"bike_id":"16b1f7e2-9d61-4a84-ad43-cbc8f21d47b2","system_id":"levelo_inurba_marseille","lat":43.29264,"lon":5.38446,"is_reserved":false,"is_disabled":false,"rental_uris":{"android":"levelo://app?vid=16b1f7e2-9d61-4a84-ad43-cbc8f21d47b2","ios":"levelo://app?vid=16b1f7e2-9d61-4a84-ad43-cbc8f21d47b2"},"vehicle_type_id":"4","last_reported":1744136006,"current_range_meters":12800,"station_id":"ce4bh692rcd13ifvqea0","pricing_plan_id":"cebpf4jnsgd1na2vs0mg"},{"bike_id":"14beac6a-b60c-44ce-b661-1aafeddb42ec","system_id":"levelo_inurba_marseille","lat":43.275,"lon":5.42469,"is_reserved":false,"is_disabled":false,"rental_uris":{"android":"levelo://app?vid=14beac6a-b60c-44ce-b661-1aafeddb42ec","ios":"levelo://app?vid=14beac6a-b60c-44ce-b661-1aafeddb42ec"},"vehicle_type_id":"4","last_reported":1744136006,"current_range_meters":12400,"station_id":"ce4bhn92rcd13ifvqgrg","pricing_plan_id":"cebpf4jnsgd1na2vs0mg"},{"bike_id":"4516663a-6bd6-48f9-a6ce-42e1bc54548e","system_id":"levelo_inurba_marseille","lat":43.27985,"lon":5.40038,"is_reserved":false,"is_disabled":false,"rental_uris":{"android":"levelo://app?vid=4516663a-6bd6-48f9-a6ce-42e1bc54548e","ios":"levelo://app?vid=4516663a-6bd6-48f9-a6ce-42e1bc54548e"},"vehicle_type_id":"4","last_reported":1744136006,"current_range_meters":12800,"station_id":"ce4bho92rcd13ifvqh4g","pricing_plan_id":"cebpf4jnsgd1na2vs0mg"},{"bike_id":"384afcf6-eaa4-4f6b-b140-ba32f26af9fa","system_id":"levelo_inurba_marseille","lat":43.3065,"lon":5.40097,"is_reserved":false,"is_disabled":false,"rental_uris":{"android":"levelo://app?vid=384afcf6-eaa4-4f6b-b140-ba32f26af9fa","ios":"levelo://app?vid=384afcf6-eaa4-4f6b-b140-ba32f26af9fa"},"vehicle_type_id":"4","last_reported":1744136006,"current_range_meters":12800,"station_id":"ce4bh112rcd13ifvqda0","pricing_plan_id":"cebpf4jnsgd1na2vs0mg"},{"bike_id":"665a064a-920d-4999-9ff5-cba7d7ade4b6","system_id":"levelo_inurba_marseille","lat":43.24074,"lon":5.37761,"is_reserved":false,"is_disabled":false,"rental_uris":{"android":"levelo://app?vid=665a064a-920d-4999-9ff5-cba7d7ade4b6","ios":"levelo://app?vid=665a064a-920d-4999-9ff5-cba7d7ade4b6"},"vehicle_type_id":"4","last_reported":1744136006,"current_range_meters":13600,"station_id":"ce4bhnp2rcd13ifvqgvg","pricing_plan_id":"cebpf4jnsgd1na2vs0mg"},{"bike_id":"e5569473-5b1e-48b1-a1ca-0de8ff32da8f","system_id":"levelo_inurba_marseille","lat":43.29425,"lon":5.38619,"is_reserved":false,"is_disabled":false,"rental_uris":{"android":"levelo://app?vid=e5569473-5b1e-48b1-a1ca-0de8ff32da8f","ios":"levelo://app?vid=e5569473-5b1e-48b1-a1ca-0de8ff32da8f"},"vehicle_type_id":"4","last_reported":1744136006,"current_range_meters":14000,"station_id":"ce4bh2h2rcd13ifvqdh0","pricing_plan_id":"cebpf4jnsgd1na2vs0mg"},{"bike_id":"c7e5eafd-db41-4122-88ae-fbd132a8aefd","system_id":"levelo_inurba_marseille","lat":43.25817,"lon":5.39434,"is_reserved":false,"is_disabled":false,"rental_uris":{"android":"levelo://app?vid=c7e5eafd-db41-4122-88ae-fbd132a8aefd","ios":"levelo://app?vid=c7e5eafd-db41-4122-88ae-fbd132a8aefd"},"vehicle_type_id":"4","last_reported":1744136006,"current_range_meters":14000,"station_id":"ce4bhip2rcd13ifvqft0","pricing_plan_id":"cebpf4jnsgd1na2vs0mg"},{"bike_id":"65928e7d-f606-4a69-a7df-22e52467033e","system_id":"levelo_inurba_marseille","lat":43.24665,"lon":5.38169,"is_reserved":false,"is_disabled":false,"rental_uris":{"android":"levelo://app?vid=65928e7d-f606-4a69-a7df-22e52467033e","ios":"levelo://app?vid=65928e7d-f606-4a69-a7df-22e52467033e"},