{"last_updated":1722359258,"ttl":30,"version":"2.2","data":{"bikes":[{"bike_id":"18d11f54-c5a5-4a7f-9383-dd4c2714c0fe","system_id":"levelo_inurba_marseille","lat":43.313391,"lon":5.36706,"is_reserved":false,"is_disabled":false,"rental_uris":{"android":"levelo://app?vid=18d11f54-c5a5-4a7f-9383-dd4c2714c0fe","ios":"levelo://app?vid=18d11f54-c5a5-4a7f-9383-dd4c2714c0fe"},"vehicle_type_id":"4","last_reported":1722359258,"current_range_meters":6000,"station_id":"ce4bgr92rcd13ifvqc6g","pricing_plan_id":"cebpf4jnsgd1na2vs0mg"},{"bike_id":"763c3ee1-fb98-48d1-99f1-d8fc8e79df3f","system_id":"levelo_inurba_marseille","lat":43.3124,"lon":5.36816,"is_reserved":false,"is_disabled":false,"rental_uris":{"android":"levelo://app?vid=763c3ee1-fb98-48d1-99f1-d8fc8e79df3f","ios":"levelo://app?vid=763c3ee1-fb98-48d1-99f1-d8fc8e79df3f"},"vehicle_type_id":"4","last_reported":1722359258,"current_range_meters":16800,"station_id":"ce4bgl92rcd13ifvqbq0","pricing_plan_id":"cebpf4jnsgd1na2vs0mg"},{"bike_id":"0c204385-009b-48a3-99b5-0e0e0d91b30f","system_id":"levelo_inurba_marseille","lat":43.31234,"lon":5.36819,"is_reserved":false,"is_disabled":false,"rental_uris":{"android":"levelo://app?vid=0c204385-009b-48a3-99b5-0e0e0d91b30f","ios":"levelo://app?vid=0c204385-009b-48a3-99b5-0e0e0d91b30f"},"vehicle_type_id":"4","last_reported":1722359258,"current_range_meters":6000,"station_id":"ce4bgl92rcd13ifvqbq0","pricing_plan_id":"cebpf4jnsgd1na2vs0mg"},{"bike_id":"def5710e-d266-4f5d-9f1f-fd3103fccbef","system_id":"levelo_inurba_marseille","lat":43.31243,"lon":5.36825,"is_reserved":false,"is_disabled":false,"rental_uris":{"android":"levelo://app?vid=def5710e-d266-4f5d-9f1f-fd3103fccbef","ios":"levelo://app?vid=def5710e-d266-4f5d-9f1f-fd3103fccbef"},"vehicle_type_id":"4","last_reported":1722359258,"current_range_meters":0,"station_id":"","pricing_plan_id":"cebpf4jnsgd1na2vs0mg"},{"bike_id":"b31465f7-6890-4f94-a442-ea3d184ae0d2","system_id":"levelo_inurba_marseille","lat":43.309076,"lon":5.368465,"is_reserved":false,"is_disabled":false,"rental_uris":{"android":"levelo://app?vid=b31465f7-6890-4f94-a442-ea3d184ae0d2","ios":"levelo://app?vid=b31465f7-6890-4f94-a442-ea3d184ae0d2"},"vehicle_type_id":"4","last_reported":1722359258,"current_range_meters":6000,"station_id":"ce4bgn92rcd13ifvqbvg","pricing_plan_id":"cebpf4jnsgd1na2vs0mg"},{"bike_id":"b116f809-4999-462e-85e7-5258af6458e8","system_id":"levelo_inurba_marseille","lat":43.31491,"lon":5.37305,"is_reserved":false,"is_disabled":false,"rental_uris":{"android":"levelo://app?vid=b116f809-4999-462e-85e7-5258af6458e8","ios":"levelo://app?vid=b116f809-4999-462e-85e7-5258af6458e8"},"vehicle_type_id":"4","last_reported":1722359258,"current_range_meters":0,"station_id":"ce4bgt12rcd13ifvqcd0","pricing_plan_id":"cebpf4jnsgd1na2vs0mg"},{"bike_id":"1dc499d6-97af-4e68-b6e7-7b2106b8b68d","system_id":"levelo_inurba_marseille","lat":43.31711,"lon":5.37403,"is_reserved":false,"is_disabled":false,"rental_uris":{"android":"levelo://app?vid=1dc499d6-97af-4e68-b6e7-7b2106b8b68d","ios":"levelo://app?vid=1dc499d6-97af-4e68-b6e7-7b2106b8b68d"},"vehicle_type_id":"4","last_reported":1722359258,"current_range_meters":0,"station_id":"","pricing_plan_id":"cebpf4jnsgd1na2vs0mg"},{"bike_id":"4854b7d9-efa8-4eff-a063-3d54583185a0","system_id":"levelo_inurba_marseille","lat":43.305706,"lon":5.365654,"is_reserved":false,"is_disabled":false,"rental_uris":{"android":"levelo://app?vid=4854b7d9-efa8-4eff-a063-3d54583185a0","ios":"levelo://app?vid=4854b7d9-efa8-4eff-a063-3d54583185a0"},"vehicle_type_id":"4","last_reported":1722359258,"current_range_meters":0,"station_id":"ce4bgs12rcd13ifvqcag","pricing_plan_id":"cebpf4jnsgd1na2vs0mg"},{"bike_id":"8954339b-d6a1-465f-b054-0fa890a420cd","system_id":"levelo_inurba_marseille","lat":43.3053,"lon":5.36704,"is_reserved":false,"is_disabled":false,"rental_uris":{"android":"levelo://app?vid=8954339b-d6a1-465f-b054-0fa890a420cd","ios":"levelo://app?vid=8954339b-d6a1-465f-b054-0fa890a420cd"},"vehicle_type_id":"4","last_reported":1722359258,"current_range_meters":0,"station_id":"ce4bgrp2rcd13ifvqc9g","pricing_plan_id":"cebpf4jnsgd1na2vs0mg"},{"bike_id":"47bdd111-a0a5-4b46-85d1-a527e300ca26","system_id":"levelo_inurba_marseille","lat":43.30515,"lon":5.36698,"is_reserved":false,"is_disabled":false,"rental_uris":{"android":"levelo://app?vid=47bdd111-a0a5-4b46-85d1-a527e300ca26","ios":"levelo://app?vid=47bdd111-a0a5-4b46-85d1-a527e300ca26"},"vehicle_type_id":"4","last_reported":1722359258,"current_range_meters":0,"station_id":"ce4bgrp2rcd13ifvqc9g","pricing_plan_id":"cebpf4jnsgd1na2vs0mg"},{"bike_id":"338d49fa-49ab-4e97-a4d5-fff72294587c","system_id":"levelo_inurba_marseille","lat":43.311125,"lon":5.377624,"is_reserved":false,"is_disabled":false,"rental_uris":{"android":"levelo://app?vid=338d49fa-49ab-4e97-a4d5-fff72294587c","ios":"levelo://app?vid=338d49fa-49ab-4e97-a4d5-fff72294587c"},"vehicle_type_id":"4","last_reported":1722359258,"current_range_meters":0,"station_id":"ce4bgt92rcd13ifvqcg0","pricing_plan_id":"cebpf4jnsgd1na2vs0mg"},{"bike_id":"2f9a36ff-61b6-44c0-858a-f6a8a5b5ac45","system_id":"levelo_inurba_marseille","lat":43.31113,"lon":5.37762,"is_reserved":false,"is_disabled":false,"rental_uris":{"android":"levelo://app?vid=2f9a36ff-61b6-44c0-858a-f6a8a5b5ac45","ios":"levelo://app?vid=2f9a36ff-61b6-44c0-858a-f6a8a5b5ac45"},"vehicle_type_id":"4","last_reported":1722359258,"current_range_meters":0,"station_id":"ce4bgt92rcd13ifvqcg0","pricing_plan_id":"cebpf4jnsgd1na2vs0mg"},{"bike_id":"0b088990-38e0-457d-9d22-4e1b54b8f9de","system_id":"levelo_inurba_marseille","lat":43.317075,"lon":5.377367,"is_reserved":false,"is_disabled":false,"rental_uris":{"android":"levelo://app?vid=0b088990-38e0-457d-9d22-4e1b54b8f9de","ios":"levelo://app?vid=0b088990-38e0-457d-9d22-4e1b54b8f9de"},"vehicle_type_id":"4","last_reported":1722359258,"current_range_meters":14000,"station_id":"ce4bgth2rcd13ifvqch0","pricing_plan_id":"cebpf4jnsgd1na2vs0mg"},{"bike_id":"7369dd8c-926d-439b-a05e-77b5321a37a4","system_id":"levelo_inurba_marseille","lat":43.317103,"lon":5.37738,"is_reserved":false,"is_disabled":false,"rental_uris":{"android":"levelo://app?vid=7369dd8c-926d-439b-a05e-77b5321a37a4","ios":"levelo://app?vid=7369dd8c-926d-439b-a05e-77b5321a37a4"},"vehicle_type_id":"4","last_reported":1722359258,"current_range_meters":12000,"station_id":"ce4bgth2rcd13ifvqch0","pricing_plan_id":"cebpf4jnsgd1na2vs0mg"},{"bike_id":"93eb177f-35a7-4d93-9d3e-c63b3ef6dcce","system_id":"levelo_inurba_marseille","lat":43.31166,"lon":5.37984,"is_reserved":false,"is_disabled":false,"rental_uris":{"android":"levelo://app?vid=93eb177f-35a7-4d93-9d3e-c63b3ef6dcce","ios":"levelo://app?vid=93eb177f-35a7-4d93-9d3e-c63b3ef6dcce"},"vehicle_type_id":"4","last_reported":1722359258,"current_range_meters":12800,"station_id":"","pricing_plan_id":"cebpf4jnsgd1na2vs0mg"},{"bike_id":"73f58f22-0d99-4c84-8411-c4f8da74d999","system_id":"levelo_inurba_marseille","lat":43.302783,"lon":5.367536,"is_reserved":false,"is_disabled":false,"rental_uris":{"android":"levelo://app?vid=73f58f22-0d99-4c84-8411-c4f8da74d999","ios":"levelo://app?vid=73f58f22-0d99-4c84-8411-c4f8da74d999"},"vehicle_type_id":"4","last_reported":1722359258,"current_range_meters":0,"station_id":"","pricing_plan_id":"cebpf4jnsgd1na2vs0mg"},{"bike_id":"e2230309-7a84-46f5-9210-e46114ecbc49","system_id":"levelo_inurba_marseille","lat":43.30858,"lon":5.379553,"is_reserved":false,"is_disabled":false,"rental_uris":{"android":"levelo://app?vid=e2230309-7a84-46f5-9210-e46114ecbc49","ios":"levelo://app?vid=e2230309-7a84-46f5-9210-e46114ecbc49"},"vehicle_type_id":"4","last_reported":1722359258,"current_range_meters":14000,"station_id":"","pricing_plan_id":"cebpf4jnsgd1na2vs0mg"},{"bike_id":"d49aa3e5-1926-4030-9828-5396f79b0678","system_id":"levelo_inurba_marseille","lat":43.308012,"lon":5.381511,"is_reserved":false,"is_disabled":false,"rental_uris":{"android":"levelo://app?vid=d49aa3e5-1926-4030-9828-5396f79b0678","ios":"levelo://app?vid=d49aa3e5-1926-4030-9828-5396f79b0678"},"vehicle_type_id":"4","last_reported":1722359258,"current_range_meters":12000,"station_id":"ce4bgt12rcd13ifvqce0","pricing_plan_id":"cebpf4jnsgd1na2vs0mg"},{"bike_id":"fda966d1-aa7d-48d2-a63e-b9485fbfb3ff","system_id":"levelo_inurba_marseille","lat":43.31193,"lon":5.38286,"is_reserved":false,"is_disabled":false,"rental_uris":{"android":"levelo://app?vid=fda966d1-aa7d-48d2-a63e-b9485fbfb3ff","ios":"levelo://app?vid=fda966d1-aa7d-48d2-a63e-b9485fbfb3ff"},"vehicle_type_id":"4","last_reported":1722359258,"current_range_meters":16400,"station_id":"","pricing_plan_id":"cebpf4jnsgd1na2vs0mg"},{"bike_id":"6fe861f1-3e41-4f5f-a0b3-cbae7d9ad3b9","system_id":"levelo_inurba_marseille","lat":43.308012,"lon":5.381511,"is_reserved":false,"is_disabled":false,"rental_uris":{"android":"levelo://app?vid=6fe861f1-3e41-4f5f-a0b3-cbae7d9ad3b9","ios":"levelo://app?vid=6fe861f1-3e41-4f5f-a0b3-cbae7d9ad3b9"},"vehicle_type_id":"4","last_reported":1722359258,"current_range_meters":0,"station_id":"ce4bgt12rcd13ifvqce0","pricing_plan_id":"cebpf4jnsgd1na2vs0mg"},{"bike_id":"99bd0741-5faa-4815-a2e1-13964c9aab5f","system_id":"levelo_inurba_marseille","lat":43.324771,"lon":5.36557,"is_reserved":false,"is_disabled":false,"rental_uris":{"android":"levelo://app?vid=99bd0741-5faa-4815-a2e1-13964c9aab5f","ios":"levelo://app?vid=99bd0741-5faa-4815-a2e1-13964c9aab5f"},"vehicle_type_id":"4","last_reported":1722359258,"current_range_meters":0,"station_id":"ce4bhs12rcd13ifvqhvg","pricing_plan_id":"cebpf4jnsgd1na2vs0mg"},{"bike_id":"2cea40d3-5fd0-4d75-8dd2-15c4087239df","system_id":"levelo_inurba_marseille","lat":43.324771,"lon":5.36557,"is_reserved":false,"is_disabled":false,"rental_uris":{"android":"levelo://app?vid=2cea40d3-5fd0-4d75-8dd2-15c4087239df","ios":"levelo://app?vid=2cea40d3-5fd0-4d75-8dd2-15c4087239df"},"vehicle_type_id":"4","last_reported":1722359258,"current_range_meters":31200,"station_id":"ce4bhs12rcd13ifvqhvg","pricing_plan_id":"cebpf4jnsgd1na2vs0mg"},{"bike_id":"bbc4a081-5d44-4c70-aca6-ba0be4373e40","system_id":"levelo_inurba_marseille","lat":43.324771,"lon":5.36557,"is_reserved":false,"is_disabled":false,"rental_uris":{"android":"levelo://app?vid=bbc4a081-5d44-4c70-aca6-ba0be4373e40","ios":"levelo://app?vid=bbc4a081-5d44-4c70-aca6-ba0be4373e40"},"vehicle_type_id":"4","last_reported":1722359258,"current_range_meters":22800,"station_id":"ce4bhs12rcd13ifvqhvg","pricing_plan_id":"cebpf4jnsgd1na2vs0mg"},{"bike_id":"b91e00b6-fad8-48fa-a5fe-93d84a028d26","system_id":"levelo_inurba_marseille","lat":43.324771,"lon":5.36557,"is_reserved":false,"is_disabled":false,"rental_uris":{"android":"levelo://app?vid=b91e00b6-fad8-48fa-a5fe-93d84a028d26","ios":"levelo://app?vid=b91e00b6-fad8-48fa-a5fe-93d84a028d26"},"vehicle_type_id":"4","last_reported":1722359258,"current_range_meters":26000,"station_id":"ce4bhs12rcd13ifvqhvg","pricing_plan_id":"cebpf4jnsgd1na2vs0mg"},{"bike_id":"cf2295fe-e9a5-4fa3-992d-424feac9b7ac","system_id":"levelo_inurba_marseille","lat":43.324771,"lon":5.36557,"is_reserved":false,"is_disabled":false,"rental_uris":{"android":"levelo://app?vid=cf2295fe-e9a5-4fa3-992d-424feac9b7ac","ios":"levelo://app?vid=cf2295fe-e9a5-4fa3-992d-424feac9b7ac"},"vehicle_type_id":"4","last_reported":1722359258,"current_range_meters":2000,"station_id":"ce4bhs12rcd13ifvqhvg","pricing_plan_id":"cebpf4jnsgd1na2vs0mg"},{"bike_id":"fa183acd-93ee-4a74-84db-11d1599f3b2a","system_id":"levelo_inurba_marseille","lat":43.324771,"lon":5.36557,"is_reserved":false,"is_disabled":false,"rental_uris":{"android":"levelo://app?vid=fa183acd-93ee-4a74-84db-11d1599f3b2a","ios":"levelo://app?vid=fa183acd-93ee-4a74-84db-11d1599f3b2a"},"vehicle_type_id":"4","last_reported":1722359258,"current_range_meters":27600,"station_id":"ce4bhs12rcd13ifvqhvg","pricing_plan_id":"cebpf4jnsgd1na2vs0mg"},{"bike_id":"68268780-9d4d-41ba-ba66-92f5b81043cc","system_id":"levelo_inurba_marseille","lat":43.324771,"lon":5.36557,"is_reserved":false,"is_disabled":false,"rental_uris":{"android":"levelo://app?vid=68268780-9d4d-41ba-ba66-92f5b81043cc","ios":"levelo://app?vid=68268780-9d4d-41ba-ba66-92f5b81043cc"},"vehicle_type_id":"4","last_reported":1722359258,"current_range_meters":9200,"station_id":"ce4bhs12rcd13ifvqhvg","pricing_plan_id":"cebpf4jnsgd1na2vs0mg"},{"bike_id":"e831b0b3-e77c-432e-b2bf-1756713bba14","system_id":"levelo_inurba_marseille","lat":43.310804,"lon":5.38359,"is_reserved":false,"is_disabled":false,"rental_uris":{"android":"levelo://app?vid=e831b0b3-e77c-432e-b2bf-1756713bba14","ios":"levelo://app?vid=e831b0b3-e77c-432e-b2bf-1756713bba14"},"vehicle_type_id":"4","last_reported":1722359258,"current_range_meters":1600,"station_id":"ce4bgv92rcd13ifvqcr0","pricing_plan_id":"cebpf4jnsgd1na2vs0mg"},{"bike_id":"4a086aa8-e1a7-4fb8-a743-89cb53585fd0","system_id":"levelo_inurba_marseille","lat":43.319979,"lon":5.381564,"is_reserved":false,"is_disabled":false,"rental_uris":{"android":"levelo://app?vid=4a086aa8-e1a7-4fb8-a743-89cb53585fd0","ios":"levelo://app?vid=4a086aa8-e1a7-4fb8-a743-89cb53585fd0"},"vehicle_type_id":"4","last_reported":1722359258,"current_range_meters":28000,"station_id":"ce4bhr12rcd13ifvqhpg","pricing_plan_id":"cebpf4jnsgd1na2vs0mg"},{"bike_id":"fdc6ba3b-98d6-4b3e-a124-8c5821f21829","system_id":"levelo_inurba_marseille","lat":43.31998,"lon":5.3816,"is_reserved":false,"is_disabled":false,"rental_uris":{"android":"levelo://app?vid=fdc6ba3b-98d6-4b3e-a124-8c5821f21829","ios":"levelo://app?vid=fdc6ba3b-98d6-4b3e-a124-8c5821f21829"},"vehicle_type_id":"4","last_reported":1722359258,"current_range_meters":0,"station_id":"ce4bhr12rcd13ifvqhpg","pricing_plan_id":"cebpf4jnsgd1na2vs0mg"},{"bike_id":"57633afe-77d1-4922-bf9e-b70885cbc0e6","system_id":"levelo_inurba_marseille","lat":43.31994,"lon":5.38167,"is_reserved":false,"is_disabled":false,"rental_uris":{"android":"levelo://app?vid=57633afe-77d1-4922-bf9e-b70885cbc0e6","ios":"levelo://app?vid=57633afe-77d1-4922-bf9e-b70885cbc0e6"},"vehicle_type_id":"4","last_reported":1722359258,"current_range_meters":16400,"station_id":"ce4bhr12rcd13ifvqhpg","pricing_plan_id":"cebpf4jnsgd1na2vs0mg"},{"bike_id":"8c42c542-f4bc-45f1-9374-4ff26244054d","system_id":"levelo_inurba_marseille","lat":43.31998,"lon":5.38164,"is_reserved":false,"is_disabled":false,"rental_uris":{"android":"levelo://app?vid=8c42c542-f4bc-45f1-9374-4ff26244054d","ios":"levelo://app?vid=8c42c542-f4bc-45f1-9374-4ff26244054d"},"vehicle_type_id":"4","last_reported":1722359258,"current_range_meters":2800,"station_id":"ce4bhr12rcd13ifvqhpg","pricing_plan_id":"cebpf4jnsgd1na2vs0mg"},{"bike_id":"44ec682b-f897-46d7-9cae-e3c83025d420","system_id":"levelo_inurba_marseille","lat":43.313571,"lon":5.384829,"is_reserved":false,"is_disabled":false,"rental_uris":{"android":"levelo://app?vid=44ec682b-f897-46d7-9cae-e3c83025d420","ios":"levelo://app?vid=44ec682b-f897-46d7-9cae-e3c83025d420"},"vehicle_type_id":"4","last_reported":1722359258,"current_range_meters":30000,"station_id":"ce4bgt92rcd13ifvqcf0","pricing_plan_id":"cebpf4jnsgd1na2vs0mg"},{"bike_id":"b967055c-74af-40d1-9090-b24500c6da19","system_id":"levelo_inurba_marseille","lat":43.311722,"lon":5.387247,"is_reserved":false,"is_disabled":false,"rental_uris":{"android":"levelo://app?vid=b967055c-74af-40d1-9090-b24500c6da19","ios":"levelo://app?vid=b967055c-74af-40d1-9090-b24500c6da19"},"vehicle_type_id":"4","last_reported":1722359258,"current_range_meters":0,"station_id":"ce4bgv12rcd13ifvqcp0","pricing_plan_id":"cebpf4jnsgd1na2vs0mg"},{"bike_id":"ace9a12a-86f8-4249-bcdb-44e17286d3f2","system_id":"levelo_inurba_marseille","lat":43.311722,"lon":5.387247,"is_reserved":false,"is_disabled":false,"rental_uris":{"android":"levelo://app?vid=ace9a12a-86f8-4249-bcdb-44e17286d3f2","ios":"levelo://app?vid=ace9a12a-86f8-4249-bcdb-44e17286d3f2"},"vehicle_type_id":"4","last_reported":1722359258,"current_range_meters":4800,"station_id":"ce4bgv12rcd13ifvqcp0","pricing_plan_id":"cebpf4jnsgd1na2vs0mg"},{"bike_id":"350883f1-62d8-4bb0-9bab-b739c3980d8d","system_id":"levelo_inurba_marseille","lat":43.311722,"lon":5.387247,"is_reserved":false,"is_disabled":false,"rental_uris":{"android":"levelo://app?vid=350883f1-62d8-4bb0-9bab-b739c3980d8d","ios":"levelo://app?vid=350883f1-62d8-4bb0-9bab-b739c3980d8d"},"vehicle_type_id":"4","last_reported":1722359258,"current_range_meters":6000,"station_id":"ce4bgv12rcd13ifvqcp0","pricing_plan_id":"cebpf4jnsgd1na2vs0mg"},{"bike_id":"e46f20be-4370-4310-b6ed-15c9cb6b7edc","system_id":"levelo_inurba_marseille","lat":43.30149,"lon":5.38072,"is_reserved":false,"is_disabled":false,"rental_uris":{"android":"levelo://app?vid=e46f20be-4370-4310-b6ed-15c9cb6b7edc","ios":"levelo://app?vid=e46f20be-4370-4310-b6ed-15c9cb6b7edc"},"vehicle_type_id":"4","last_reported":1722359258,"current_range_meters":0,"station_id":"","pricing_plan_id":"cebpf4jnsgd1na2vs0mg"},{"bike_id":"ad630b40-c686-4394-b30f-2331b78d4a1a","system_id":"levelo_inurba_marseille","lat":43.297774,"lon":5.370875,"is_reserved":false,"is_disabled":false,"rental_uris":{"android":"levelo://app?vid=ad630b40-c686-4394-b30f-2331b78d4a1a","ios":"levelo://app?vid=ad630b40-c686-4394-b30f-2331b78d4a1a"},"vehicle_type_id":"4","last_reported":1722359258,"current_range_meters":11600,"station_id":"ce4bgop2rcd13ifvqc1g","pricing_plan_id":"cebpf4jnsgd1na2vs0mg"},{"bike_id":"d6943fe6-e2c5-4393-9a32-2b162452b951","system_id":"levelo_inurba_marseille","lat":43.322872,"lon":5.382756,"is_reserved":false,"is_disabled":false,"rental_uris":{"android":"levelo://app?vid=d6943fe6-e2c5-4393-9a32-2b162452b951","ios":"levelo://app?vid=d6943fe6-e2c5-4393-9a32-2b162452b951"},"vehicle_type_id":"4","last_reported":1722359258,"current_range_meters":22400,"station_id":"ce4bhr12rcd13ifvqhqg","pricing_plan_id":"cebpf4jnsgd1na2vs0mg"},{"bike_id":"9266143a-9546-4c26-9e06-b1ecc4abae8a","system_id":"levelo_inurba_marseille","lat":43.300265,"lon":5.382035,"is_reserved":false,"is_disabled":false,"rental_uris":{"android":"levelo://app?vid=9266143a-9546-4c26-9e06-b1ecc4abae8a","ios":"levelo://app?vid=9266143a-9546-4c26-9e06-b1ecc4abae8a"},"vehicle_type_id":"4","last_reported":1722359258,"current_range_meters":5600,"station_id":"","pricing_plan_id":"cebpf4jnsgd1na2vs0mg"},{"bike_id":"7bad3acf-4fd0-40e2-b9e9-d317dd70ba03","system_id":"levelo_inurba_marseille","lat":43.296131,"lon":5.370773,"is_reserved":false,"is_disabled":false,"rental_uris":{"android":"levelo://app?vid=7bad3acf-4fd0-40e2-b9e9-d317dd70ba03","ios":"levelo://app?vid=7bad3acf-4fd0-40e2-b9e9-d317dd70ba03"},"vehicle_type_id":"4","last_reported":1722359258,"current_range_meters":4800,"station_id":"ce4bgnh2rcd13ifvqc0g","pricing_plan_id":"cebpf4jnsgd1na2vs0mg"},{"bike_id":"8390ffe2-fc85-4eaa-a6a1-03bbd1855b34","system_id":"levelo_inurba_marseille","lat":43.29713,"lon":5.37705,"is_reserved":false,"is_disabled":false,"rental_uris":{"android":"levelo://app?vid=8390ffe2-fc85-4eaa-a6a1-03bbd1855b34","ios":"levelo://app?vid=8390ffe2-fc85-4eaa-a6a1-03bbd1855b34"},"vehicle_type_id":"4","last_reported":1722359258,"current_range_meters":0,"station_id":"","pricing_plan_id":"cebpf4jnsgd1na2vs0mg"},{"bike_id":"34d1ef27-ed70-43d5-8c35-d68864c59fa4","system_id":"levelo_inurba_marseille","lat":43.317557,"lon":5.390173,"is_reserved":false,"is_disabled":false,"rental_uris":{"android":"levelo://app?vid=34d1ef27-ed70-43d5-8c35-d68864c59fa4","ios":"levelo://app?vid=34d1ef27-ed70-43d5-8c35-d68864c59fa4"},"vehicle_type_id":"4","last_reported":1722359258,"current_range_meters":28800,"station_id":"ce4bhqp2rcd13ifvqhng","pricing_plan_id":"cebpf4jnsgd1na2vs0mg"},{"bike_id":"19c62199-ca9a-4e52-a7a2-13879350da67","system_id":"levelo_inurba_marseille","lat":43.317557,"lon":5.39015,"is_reserved":false,"is_disabled":false,"rental_uris":{"android":"levelo://app?vid=19c62199-ca9a-4e52-a7a2-13879350da67","ios":"levelo://app?vid=19c62199-ca9a-4e52-a7a2-13879350da67"},"vehicle_type_id":"4","last_reported":1722359258,"current_range_meters":19200,"station_id":"ce4bhqp2rcd13ifvqhng","pricing_plan_id":"cebpf4jnsgd1na2vs0mg"},{"bike_id":"1a6bb7ed-2aa8-47c4-a379-6b0d95364502","system_id":"levelo_inurba_marseille","lat":43.299724,"lon":5.384848,"is_reserved":false,"is_disabled":false,"rental_uris":{"android":"levelo://app?vid=1a6bb7ed-2aa8-47c4-a379-6b0d95364502","ios":"levelo://app?vid=1a6bb7ed-2aa8-47c4-a379-6b0d95364502"},"vehicle_type_id":"4","last_reported":1722359258,"current_range_meters":1200,"station_id":"ce4bgj92rcd13ifvqbd0","pricing_plan_id":"cebpf4jnsgd1na2vs0mg"},{"bike_id":"b61add8f-9173-401c-830b-2bb65a553a97","system_id":"levelo_inurba_marseille","lat":43.299707,"lon":5.384859,"is_reserved":false,"is_disabled":false,"rental_uris":{"android":"levelo://app?vid=b61add8f-9173-401c-830b-2bb65a553a97","ios":"levelo://app?vid=b61add8f-9173-401c-830b-2bb65a553a97"},"vehicle_type_id":"4","last_reported":1722359258,"current_range_meters":11200,"station_id":"ce4bgj92rcd13ifvqbd0","pricing_plan_id":"cebpf4jnsgd1na2vs0mg"},{"bike_id":"076335d3-e18e-41ff-b820-4c3005b51842","system_id":"levelo_inurba_marseille","lat":43.290104,"lon":5.356111,"is_reserved":false,"is_disabled":false,"rental_uris":{"android":"levelo://app?vid=076335d3-e18e-41ff-b820-4c3005b51842","ios":"levelo://app?vid=076335d3-e18e-41ff-b820-4c3005b51842"},"vehicle_type_id":"4","last_reported":1722359258,"current_range_meters":23200,"station_id":"ce4bhb92rcd13ifvqen0","pricing_plan_id":"cebpf4jnsgd1na2vs0mg"},{"bike_id":"1bf4b9c4-b74e-45eb-87d0-13ff9db59a3d","system_id":"levelo_inurba_marseille","lat":43.30139,"lon":5.38774,"is_reserved":false,"is_disabled":false,"rental_uris":{"android":"levelo://app?vid=1bf4b9c4-b74e-45eb-87d0-13ff9db59a3d","ios":"levelo://app?vid=1bf4b9c4-b74e-45eb-87d0-13ff9db59a3d"},"vehicle_type_id":"4","last_reported":1722359258,"current_range_meters":0,"station_id":"ce4bghh2rcd13ifvqb60","pricing_plan_id":"cebpf4jnsgd1na2vs0mg"},{"bike_id":"65651897-76ca-47e6-92f3-5aa342c3a43f","system_id":"levelo_inurba_marseille","lat":43.301396,"lon":5.387812,"is_reserved":false,"is_disabled":false,"rental_uris":{"android":"levelo://app?vid=65651897-76ca-47e6-92f3-5aa342c3a43f","ios":"levelo://app?vid=65651897-76ca-47e6-92f3-5aa342c3a43f"},"vehicle_type_id":"4","last_reported":1722359258,"current_range_meters":0,"station_id":"ce4bghh2rcd13ifvqb60","pricing_plan_id":"cebpf4jnsgd1na2vs0mg"},{"bike_id":"15d62a7f-5b8d-4cbb-afbd-1ca3da10effa","system_id":"levelo_inurba_marseille","lat":43.29602,"lon":5.381084,"is_reserved":false,"is_disabled":false,"rental_uris":{"android":"levelo://app?vid=15d62a7f-5b8d-4cbb-afbd-1ca3da10effa","ios":"levelo://app?vid=15d62a7f-5b8d-4cbb-afbd-1ca3da10effa"},"vehicle_type_id":"4","last_reported":1722359258,"current_range_meters":0,"station_id":"ce4bgl12rcd13ifvqbo0","pricing_plan_id":"cebpf4jnsgd1na2vs0mg"},{"bike_id":"25788caa-e73c-46f8-aece-25842838a689","system_id":"levelo_inurba_marseille","lat":43.293259,"lon":5.371586,"is_reserved":false,"is_disabled":false,"rental_uris":{"android":"levelo://app?vid=25788caa-e73c-46f8-aece-25842838a689","ios":"levelo://app?vid=25788caa-e73c-46f8-aece-25842838a689"},"vehicle_type_id":"4","last_reported":1722359258,"current_range_meters":0,"station_id":"ce4bgh92rcd13ifvqb40","pricing_plan_id":"cebpf4jnsgd1na2vs0mg"},{"bike_id":"139fe9c4-51af-48d8-88bd-05ed33ec7fc4","system_id":"levelo_inurba_marseille","lat":43.292749,"lon":5.368398,"is_reserved":false,"is_disabled":false,"rental_uris":{"android":"levelo://app?vid=139fe9c4-51af-48d8-88bd-05ed33ec7fc4","ios":"levelo://app?vid=139fe9c4-51af-48d8-88bd-05ed33ec7fc4"},"vehicle_type_id":"4","last_reported":1722359258,"current_range_meters":0,"station_id":"ce4bhbp2rcd13ifvqesg","pricing_plan_id":"cebpf4jnsgd1na2vs0mg"},{"bike_id":"d22aea95-8e6b-4c91-80ec-9f3feed9f562","system_id":"levelo_inurba_marseille","lat":43.292749,"lon":5.368402,"is_reserved":false,"is_disabled":false,"rental_uris":{"android":"levelo://app?vid=d22aea95-8e6b-4c91-80ec-9f3feed9f562","ios":"levelo://app?vid=d22aea95-8e6b-4c91-80ec-9f3feed9f562"},"vehicle_type_id":"4","last_reported":1722359258,"current_range_meters":0,"station_id":"ce4bhbp2rcd13ifvqesg","pricing_plan_id":"cebpf4jnsgd1na2vs0mg"},{"bike_id":"de0381d9-3d12-4023-9cd2-8f4101a03e41","system_id":"levelo_inurba_marseille","lat":43.292749,"lon":5.368402,"is_reserved":false,"is_disabled":false,"rental_uris":{"android":"levelo://app?vid=de0381d9-3d12-4023-9cd2-8f4101a03e41","ios":"levelo://app?vid=de0381d9-3d12-4023-9cd2-8f4101a03e41"},"vehicle_type_id":"4","last_reported":1722359258,"current_range_meters":0,"station_id":"ce4bhbp2rcd13ifvqesg","pricing_plan_id":"cebpf4jnsgd1na2vs0mg"},{"bike_id":"6fb1e79d-f37b-4f9e-851c-4c33f0c8ecdf","system_id":"levelo_inurba_marseille","lat":43.293018,"lon":5.374333,"is_reserved":false,"is_disabled":false,"rental_uris":{"android":"levelo://app?vid=6fb1e79d-f37b-4f9e-851c-4c33f0c8ecdf","ios":"levelo://app?vid=6fb1e79d-f37b-4f9e-851c-4c33f0c8ecdf"},"vehicle_type_id":"4","last_reported":1722359258,"current_range_meters":0,"station_id":"ce4bgi12rcd13ifvqb70","pricing_plan_id":"cebpf4jnsgd1na2vs0mg"},{"bike_id":"a547142a-ace3-422a-8fd6-7a5089dc6bde","system_id":"levelo_inurba_marseille","lat":43.293009,"lon":5.374584,"is_reserved":false,"is_disabled":false,"rental_uris":{"android":"levelo://app?vid=a547142a-ace3-422a-8fd6-7a5089dc6bde","ios":"levelo://app?vid=a547142a-ace3-422a-8fd6-7a5089dc6bde"},"vehicle_type_id":"4","last_reported":1722359258,"current_range_meters":400,"station_id":"ce4bgi12rcd13ifvqb70","pricing_plan_id":"cebpf4jnsgd1na2vs0mg"},{"bike_id":"525adf07-5a45-4f29-8db6-d5a3d1d43103","system_id":"levelo_inurba_marseille","lat":43.284217,"lon":5.349697,"is_reserved":false,"is_disabled":false,"rental_uris":{"android":"levelo://app?vid=525adf07-5a45-4f29-8db6-d5a3d1d43103","ios":"levelo://app?vid=525adf07-5a45-4f29-8db6-d5a3d1d43103"},"vehicle_type_id":"4","last_reported":1722359258,"current_range_meters":2800,"station_id":"ce4bhbh2rcd13ifvqepg","pricing_plan_id":"cebpf4jnsgd1na2vs0mg"},{"bike_id":"46a5a35f-b80b-4b52-9b25-1d4c3b02b67a","system_id":"levelo_inurba_marseille","lat":43.29377,"lon":5.3784,"is_reserved":false,"is_disabled":false,"rental_uris":{"android":"levelo://app?vid=46a5a35f-b80b-4b52-9b25-1d4c3b02b67a","ios":"levelo://app?vid=46a5a35f-b80b-4b52-9b25-1d4c3b02b67a"},"vehicle_type_id":"4","last_reported":1722359258,"current_range_meters":0,"station_id":"ce4bgjh2rcd13ifvqbf0","pricing_plan_id":"cebpf4jnsgd1na2vs0mg"},{"bike_id":"894065f6-f9eb-4b8e-b40b-406c02503a55","system_id":"levelo_inurba_marseille","lat":43.2936,"lon":5.37835,"is_reserved":false,"is_disabled":false,"rental_uris":{"android":"levelo://app?vid=894065f6-f9eb-4b8e-b40b-406c02503a55","ios":"levelo://app?vid=894065f6-f9eb-4b8e-b40b-406c02503a55"},"vehicle_type_id":"4","last_reported":1722359258,"current_range_meters":9600,"station_id":"ce4bgjh2rcd13ifvqbf0","pricing_plan_id":"cebpf4jnsgd1na2vs0mg"},{"bike_id":"fa7f8469-e307-4d44-9432-47e48f85339c","system_id":"levelo_inurba_marseille","lat":43.292311,"lon":5.360731,"is_reserved":false,"is_disabled":false,"rental_uris":{"android":"levelo://app?vid=fa7f8469-e307-4d44-9432-47e48f85339c","ios":"levelo://app?vid=fa7f8469-e307-4d44-9432-47e48f85339c"},"vehicle_type_id":"4","last_reported":1722359258,"current_range_meters":0,"station_id":"ce4bhbh2rcd13ifvqeqg","pricing_plan_id":"cebpf4jnsgd1na2vs0mg"},{"bike_id":"37aa70fc-27b8-4f06-a287-4957ead0d35e","system_id":"levelo_inurba_marseille","lat":43.292262,"lon":5.360463,"is_reserved":false,"is_disabled":false,"rental_uris":{"android":"levelo://app?vid=37aa70fc-27b8-4f06-a287-4957ead0d35e","ios":"levelo://app?vid=37aa70fc-27b8-4f06-a287-4957ead0d35e"},"vehicle_type_id":"4","last_reported":1722359258,"current_range_meters":31200,"station_id":"ce4bgh92rcd13ifvqb40","pricing_plan_id":"cebpf4jnsgd1na2vs0mg"},{"bike_id":"18284e93-66c5-4850-85b1-34a98e5e950b","system_id":"levelo_inurba_marseille","lat":43.292584,"lon":5.376174,"is_reserved":false,"is_disabled":false,"rental_uris":{"android":"levelo://app?vid=18284e93-66c5-4850-85b1-34a98e5e950b","ios":"levelo://app?vid=18284e93-66c5-4850-85b1-34a98e5e950b"},"vehicle_type_id":"4","last_reported":1722359258,"current_range_meters":2000,"station_id":"ce4bgi12rcd13ifvqb80","pricing_plan_id":"cebpf4jnsgd1na2vs0mg"},{"bike_id":"14d8d4f8-8ed1-45b7-ae29-67121a125c23","system_id":"levelo_inurba_marseille","lat":43.292509,"lon":5.376147,"is_reserved":false,"is_disabled":false,"rental_uris":{"android":"levelo://app?vid=14d8d4f8-8ed1-45b7-ae29-67121a125c23","ios":"levelo://app?vid=14d8d4f8-8ed1-45b7-ae29-67121a125c23"},"vehicle_type_id":"4","last_reported":1722359258,"current_range_meters":11200,"station_id":"ce4bgi12rcd13ifvqb80","pricing_plan_id":"cebpf4jnsgd1na2vs0mg"},{"bike_id":"dde84ee7-36b1-4901-b1a9-687b2be6a87a","system_id":"levelo_inurba_marseille","lat":43.291671,"lon":5.371575,"is_reserved":false,"is_disabled":false,"rental_uris":{"android":"levelo://app?vid=dde84ee7-36b1-4901-b1a9-687b2be6a87a","ios":"levelo://app?vid=dde84ee7-36b1-4901-b1a9-687b2be6a87a"},"vehicle_type_id":"4","last_reported":1722359258,"current_range_meters":0,"station_id":"ce4bha92rcd13ifvqeh0","pricing_plan_id":"cebpf4jnsgd1na2vs0mg"},{"bike_id":"d1663721-a46f-4a7d-ae85-1263426d7cf9","system_id":"levelo_inurba_marseille","lat":43.292005,"lon":5.357875,"is_reserved":false,"is_disabled":false,"rental_uris":{"android":"levelo://app?vid=d1663721-a46f-4a7d-ae85-1263426d7cf9","ios":"levelo://app?vid=d1663721-a46f-4a7d-ae85-1263426d7cf9"},"vehicle_type_id":"4","last_reported":1722359258,"current_range_meters":0,"station_id":"ce4bhb12rcd13ifvqel0","pricing_plan_id":"cebpf4jnsgd1na2vs0mg"},{"bike_id":"687c5b8d-ce53-4957-ba5d-c1a5d405a677","system_id":"levelo_inurba_marseille","lat":43.313291,"lon":5.396838,"is_reserved":false,"is_disabled":false,"rental_uris":{"android":"levelo://app?vid=687c5b8d-ce53-4957-ba5d-c1a5d405a677","ios":"levelo://app?vid=687c5b8d-ce53-4957-ba5d-c1a5d405a677"},"vehicle_type_id":"4","last_reported":1722359258,"current_range_meters":15600,"station_id":"ce4bgvp2rcd13ifvqcu0","pricing_plan_id":"cebpf4jnsgd1na2vs0mg"},{"bike_id":"a5bb928c-abc2-49d6-b026-3c8f1515301f","system_id":"levelo_inurba_marseille","lat":43.309047,"lon":5.396551,"is_reserved":false,"is_disabled":false,"rental_uris":{"android":"levelo://app?vid=a5bb928c-abc2-49d6-b026-3c8f1515301f","ios":"levelo://app?vid=a5bb928c-abc2-49d6-b026-3c8f1515301f"},"vehicle_type_id":"4","last_reported":1722359258,"current_range_meters":3200,"station_id":"ce4bh012rcd13ifvqcv0","pricing_plan_id":"cebpf4jnsgd1na2vs0mg"},{"bike_id":"63f62059-f86b-4202-99ae-294a124af3ca","system_id":"levelo_inurba_marseille","lat":43.309047,"lon":5.396551,"is_reserved":false,"is_disabled":false,"rental_uris":{"android":"levelo://app?vid=63f62059-f86b-4202-99ae-294a124af3ca","ios":"levelo://app?vid=63f62059-f86b-4202-99ae-294a124af3ca"},"vehicle_type_id":"4","last_reported":1722359258,"current_range_meters":0,"station_id":"ce4bh012rcd13ifvqcv0","pricing_plan_id":"cebpf4jnsgd1na2vs0mg"},{"bike_id":"433ec0d7-a7d5-4784-b314-e512f2b68963","system_id":"levelo_inurba_marseille","lat":43.309038,"lon":5.396546,"is_reserved":false,"is_disabled":false,"rental_uris":{"android":"levelo://app?vid=433ec0d7-a7d5-4784-b314-e512f2b68963","ios":"levelo://app?vid=433ec0d7-a7d5-4784-b314-e512f2b68963"},"vehicle_type_id":"4","last_reported":1722359258,"current_range_meters":5200,"station_id":"ce4bh012rcd13ifvqcv0","pricing_plan_id":"cebpf4jnsgd1na2vs0mg"},{"bike_id":"af9a8cfe-a994-4c30-b258-77d79f96c7a5","system_id":"levelo_inurba_marseille","lat":43.309047,"lon":5.396551,"is_reserved":false,"is_disabled":false,"rental_uris":{"android":"levelo://app?vid=af9a8cfe-a994-4c30-b258-77d79f96c7a5","ios":"levelo://app?vid=af9a8cfe-a994-4c30-b258-77d79f96c7a5"},"vehicle_type_id":"4","last_reported":1722359258,"current_range_meters":15200,"station_id":"ce4bh012rcd13ifvqcv0","pricing_plan_id":"cebpf4jnsgd1na2vs0mg"},{"bike_id":"25b0a0ad-6257-4256-80ed-843d53a7530d","system_id":"levelo_inurba_marseille","lat":43.309038,"lon":5.396546,"is_reserved":false,"is_disabled":false,"rental_uris":{"android":"levelo://app?vid=25b0a0ad-6257-4256-80ed-843d53a7530d","ios":"levelo://app?vid=25b0a0ad-6257-4256-80ed-843d53a7530d"},"vehicle_type_id":"4","last_reported":1722359258,"current_range_meters":2000,"station_id":"ce4bh012rcd13ifvqcv0","pricing_plan_id":"cebpf4jnsgd1na2vs0mg"},{"bike_id":"58a6075c-2deb-44d2-b072-d6dda27a8657","system_id":"levelo_inurba_marseille","lat":43.309038,"lon":5.396546,"is_reserved":false,"is_disabled":false,"rental_uris":{"android":"levelo://app?vid=58a6075c-2deb-44d2-b072-d6dda27a8657","ios":"levelo://app?vid=58a6075c-2deb-44d2-b072-d6dda27a8657"},"vehicle_type_id":"4","last_reported":1722359258,"current_range_meters":7200,"station_id":"ce4bh012rcd13ifvqcv0","pricing_plan_id":"cebpf4jnsgd1na2vs0mg"},{"bike_id":"e6ccc869-e107-4163-826b-ccca58885ffd","system_id":"levelo_inurba_marseille","lat":43.290624,"lon":5.359245,"is_reserved":false,"is_disabled":false,"rental_uris":{"android":"levelo://app?vid=e6ccc869-e107-4163-826b-ccca58885ffd","ios":"levelo://app?vid=e6ccc869-e107-4163-826b-ccca58885ffd"},"vehicle_type_id":"4","last_reported":1722359258,"current_range_meters":2400,"station_id":"ce4bha92rcd13ifvqeg0","pricing_plan_id":"cebpf4jnsgd1na2vs0mg"},{"bike_id":"4b2b4fe9-dbfc-4c62-b32d-7e2b1f6c10bd","system_id":"levelo_inurba_marseille","lat":43.294153,"lon":5.386305,"is_reserved":false,"is_disabled":false,"rental_uris":{"android":"levelo://app?vid=4b2b4fe9-dbfc-4c62-b32d-7e2b1f6c10bd","ios":"levelo://app?vid=4b2b4fe9-dbfc-4c62-b32d-7e2b1f6c10bd"},"vehicle_type_id":"4","last_reported":1722359258,"current_range_meters":400,"station_id":"ce4bh2h2rcd13ifvqdh0","pricing_plan_id":"cebpf4jnsgd1na2vs0mg"},{"bike_id":"97612e1d-97f1-47b4-8df8-dd0fef4f53d3","system_id":"levelo_inurba_marseille","lat":43.29423,"lon":5.38621,"is_reserved":false,"is_disabled":false,"rental_uris":{"android":"levelo://app?vid=97612e1d-97f1-47b4-8df8-dd0fef4f53d3","ios":"levelo://app?vid=97612e1d-97f1-47b4-8df8-dd0fef4f53d3"},"vehicle_type_id":"4","last_reported":1722359258,"current_range_meters":0,"station_id":"ce4bh2h2rcd13ifvqdh0","pricing_plan_id":"cebpf4jnsgd1na2vs0mg"},{"bike_id":"b26f85cd-55a5-424f-9714-0196ee9912e7","system_id":"levelo_inurba_marseille","lat":43.294162,"lon":5.386292,"is_reserved":false,"is_disabled":false,"rental_uris":{"android":"levelo://app?vid=b26f85cd-55a5-424f-9714-0196ee9912e7","ios":"levelo://app?vid=b26f85cd-55a5-424f-9714-0196ee9912e7"},"vehicle_type_id":"4","last_reported":1722359258,"current_range_meters":800,"station_id":"ce4bh2h2rcd13ifvqdh0","pricing_plan_id":"cebpf4jnsgd1na2vs0mg"},{"bike_id":"1cc029f9-56fc-41c5-a950-5824511cbb2b","system_id":"levelo_inurba_marseille","lat":43.2942,"lon":5.38619,"is_reserved":false,"is_disabled":false,"rental_uris":{"android":"levelo://app?vid=1cc029f9-56fc-41c5-a950-5824511cbb2b","ios":"levelo://app?vid=1cc029f9-56fc-41c5-a950-5824511cbb2b"},"vehicle_type_id":"4","last_reported":1722359258,"current_range_meters":0,"station_id":"ce4bh2h2rcd13ifvqdh0","pricing_plan_id":"cebpf4jnsgd1na2vs0mg"},{"bike_id":"6b243d03-978a-443a-a986-80920d0b7e91","system_id":"levelo_inurba_marseille","lat":43.294153,"lon":5.386305,"is_reserved":false,"is_disabled":false,"rental_uris":{"android":"levelo://app?vid=6b243d03-978a-443a-a986-80920d0b7e91","ios":"levelo://app?vid=6b243d03-978a-443a-a986-80920d0b7e91"},"vehicle_type_id":"4","last_reported":1722359258,"current_range_meters":0,"station_id":"ce4bh2h2rcd13ifvqdh0","pricing_plan_id":"cebpf4jnsgd1na2vs0mg"},{"bike_id":"ef7b4d9a-895a-4a81-9eaf-8d6b6cbc9dd4","system_id":"levelo_inurba_marseille","lat":43.2942,"lon":5.38627,"is_reserved":false,"is_disabled":false,"rental_uris":{"android":"levelo://app?vid=ef7b4d9a-895a-4a81-9eaf-8d6b6cbc9dd4","ios":"levelo://app?vid=ef7b4d9a-895a-4a81-9eaf-8d6b6cbc9dd4"},"vehicle_type_id":"4","last_reported":1722359258,"current_range_meters":0,"station_id":"ce4bh2h2rcd13ifvqdh0","pricing_plan_id":"cebpf4jnsgd1na2vs0mg"},{"bike_id":"78065450-557c-4b57-8712-a077fc633ba8","system_id":"levelo_inurba_marseille","lat":43.294153,"lon":5.386305,"is_reserved":false,"is_disabled":false,"rental_uris":{"android":"levelo://app?vid=78065450-557c-4b57-8712-a077fc633ba8","ios":"levelo://app?vid=78065450-557c-4b57-8712-a077fc633ba8"},"vehicle_type_id":"4","last_reported":1722359258,"current_range_meters":4800,"station_id":"ce4bh2h2rcd13ifvqdh0","pricing_plan_id":"cebpf4jnsgd1na2vs0mg"},{"bike_id":"03fbc062-d88b-4202-b56a-43e2c6cd2263","system_id":"levelo_inurba_marseille","lat":43.29419,"lon":5.38632,"is_reserved":false,"is_disabled":false,"rental_uris":{"android":"levelo://app?vid=03fbc062-d88b-4202-b56a-43e2c6cd2263","ios":"levelo://app?vid=03fbc062-d88b-4202-b56a-43e2c6cd2263"},"vehicle_type_id":"4","last_reported":1722359258,"current_range_meters":2800,"station_id":"ce4bh2h2rcd13ifvqdh0","pricing_plan_id":"cebpf4jnsgd1na2vs0mg"},{"bike_id":"199748de-0412-4583-b362-7c17c254dad2","system_id":"levelo_inurba_marseille","lat":43.289184,"lon":5.366408,"is_reserved":false,"is_disabled":false,"rental_uris":{"android":"levelo://app?vid=199748de-0412-4583-b362-7c17c254dad2","ios":"levelo://app?vid=199748de-0412-4583-b362-7c17c254dad2"},"vehicle_type_id":"4","last_reported":1722359258,"current_range_meters":30000,"station_id":"ce4bhap2rcd13ifvqek0","pricing_plan_id":"cebpf4jnsgd1na2vs0mg"},{"bike_id":"ab4dbc93-b037-4521-a862-bb5501cacace","system_id":"levelo_inurba_marseille","lat":43.289395,"lon":5.366385,"is_reserved":false,"is_disabled":false,"rental_uris":{"android":"levelo://app?vid=ab4dbc93-b037-4521-a862-bb5501cacace","ios":"levelo://app?vid=ab4dbc93-b037-4521-a862-bb5501cacace"},"vehicle_type_id":"4","last_reported":1722359258,"current_range_meters":6800,"station_id":"ce4bhap2rcd13ifvqek0","pricing_plan_id":"cebpf4jnsgd1na2vs0mg"},{"bike_id":"0fc36716-30b2-46a8-8c48-5a3717a449fd","system_id":"levelo_inurba_marseille","lat":43.289184,"lon":5.366408,"is_reserved":false,"is_disabled":false,"rental_uris":{"android":"levelo://app?vid=0fc36716-30b2-46a8-8c48-5a3717a449fd","ios":"levelo://app?vid=0fc36716-30b2-46a8-8c48-5a3717a449fd"},"vehicle_type_id":"4","last_reported":1722359258,"current_range_meters":31600,"station_id":"ce4bhap2rcd13ifvqek0","pricing_plan_id":"cebpf4jnsgd1na2vs0mg"},{"bike_id":"89b928ec-abc1-4e33-82ea-3240589565f0","system_id":"levelo_inurba_marseille","lat":43.289184,"lon":5.366408,"is_reserved":false,"is_disabled":false,"rental_uris":{"android":"levelo://app?vid=89b928ec-abc1-4e33-82ea-3240589565f0","ios":"levelo://app?vid=89b928ec-abc1-4e33-82ea-3240589565f0"},"vehicle_type_id":"4","last_reported":1722359258,"current_range_meters":14800,"station_id":"ce4bhap2rcd13ifvqek0","pricing_plan_id":"cebpf4jnsgd1na2vs0mg"},{"bike_id":"eba1b126-b933-4a83-af34-7e1547f59b25","system_id":"levelo_inurba_marseille","lat":43.289184,"lon":5.366408,"is_reserved":false,"is_disabled":false,"rental_uris":{"android":"levelo://app?vid=eba1b126-b933-4a83-af34-7e1547f59b25","ios":"levelo://app?vid=eba1b126-b933-4a83-af34-7e1547f59b25"},"vehicle_type_id":"4","last_reported":1722359258,"current_range_meters":11600,"station_id":"ce4bhap2rcd13ifvqek0","pricing_plan_id":"cebpf4jnsgd1na2vs0mg"},{"bike_id":"9ce800ca-b908-4386-8178-c280fd2d761a","system_id":"levelo_inurba_marseille","lat":43.289468,"lon":5.363719,"is_reserved":false,"is_disabled":false,"rental_uris":{"android":"levelo://app?vid=9ce800ca-b908-4386-8178-c280fd2d761a","ios":"levelo://app?vid=9ce800ca-b908-4386-8178-c280fd2d761a"},"vehicle_type_id":"4","last_reported":1722359258,"current_range_meters":22400,"station_id":"ce4bhc92rcd13ifvqetg","pricing_plan_id":"cebpf4jnsgd1na2vs0mg"},{"bike_id":"8827b39d-da31-474f-8f06-373519030131","system_id":"levelo_inurba_marseille","lat":43.304296,"lon":5.397513,"is_reserved":false,"is_disabled":false,"rental_uris":{"android":"levelo://app?vid=8827b39d-da31-474f-8f06-373519030131","ios":"levelo://app?vid=8827b39d-da31-474f-8f06-373519030131"},"vehicle_type_id":"4","last_reported":1722359258,"current_range_meters":0,"station_id":"ce4bh092rcd13ifvqd20","pricing_plan_id":"cebpf4jnsgd1na2vs0mg"},{"bike_id":"489c64f6-973a-468a-b53c-04303b24fc90","system_id":"levelo_inurba_marseille","lat":43.292644,"lon":5.384257,"is_reserved":false,"is_disabled":false,"rental_uris":{"android":"levelo://app?vid=489c64f6-973a-468a-b53c-04303b24fc90","ios":"levelo://app?vid=489c64f6-973a-468a-b53c-04303b24fc90"},"vehicle_type_id":"4","last_reported":1722359258,"current_range_meters":14000,"station_id":"ce4bh692rcd13ifvqea0","pricing_plan_id":"cebpf4jnsgd1na2vs0mg"},{"bike_id":"6e8c4463-e369-4a60-a7d9-1479d9034b7c","system_id":"levelo_inurba_marseille","lat":43.290104,"lon":5.356111,"is_reserved":false,"is_disabled":false,"rental_uris":{"android":"levelo://app?vid=6e8c4463-e369-4a60-a7d9-1479d9034b7c","ios":"levelo://app?vid=6e8c4463-e369-4a60-a7d9-1479d9034b7c"},"vehicle_type_id":"4","last_reported":1722359258,"current_range_meters":0,"station_id":"ce4bhb92rcd13ifvqen0","pricing_plan_id":"cebpf4jnsgd1na2vs0mg"},{"bike_id":"ff8b4f1e-29f7-4312-9119-6bafea5e51cc","system_id":"levelo_inurba_marseille","lat":43.29004,"lon":5.35619,"is_reserved":false,"is_disabled":false,"rental_uris":{"android":"levelo://app?vid=ff8b4f1e-29f7-4312-9119-6bafea5e51cc","ios":"levelo://app?vid=ff8b4f1e-29f7-4312-9119-6bafea5e51cc"},"vehicle_type_id":"4","last_reported":1722359258,"current_range_meters":0,"station_id":"ce4bhb92rcd13ifvqen0","pricing_plan_id":"cebpf4jnsgd1na2vs0mg"},{"bike_id":"2255a915-e33d-4cff-b4ff-7fbd3358e304","system_id":"levelo_inurba_marseille","lat":43.290103,"lon":5.356114,"is_reserved":false,"is_disabled":false,"rental_uris":{"android":"levelo://app?vid=2255a915-e33d-4cff-b4ff-7fbd3358e304","ios":"levelo://app?vid=2255a915-e33d-4cff-b4ff-7fbd3358e304"},"vehicle_type_id":"4","last_reported":1722359258,"current_range_meters":0,"station_id":"ce4bhb92rcd13ifvqen0","pricing_plan_id":"cebpf4jnsgd1na2vs0mg"},{"bike_id":"1a59e703-483f-4c0d-8473-2a80cc6394f1","system_id":"levelo_inurba_marseille","lat":43.289741,"lon":5.378306,"is_reserved":false,"is_disabled":false,"rental_uris":{"android":"levelo://app?vid=1a59e703-483f-4c0d-8473-2a80cc6394f1","ios":"levelo://app?vid=1a59e703-483f-4c0d-8473-2a80cc6394f1"},"vehicle_type_id":"4","last_reported":1722359258,"current_range_meters":400,"station_id":"ce4bh9p2rcd13ifvqed0","pricing_plan_id":"cebpf4jnsgd1na2vs0mg"},{"bike_id":"ec20996b-9d77-43d2-81aa-156d1d1e88ab","system_id":"levelo_inurba_marseille","lat":43.295169,"lon":5.390426,"is_reserved":false,"is_disabled":false,"rental_uris":{"android":"levelo://app?vid=ec20996b-9d77-43d2-81aa-156d1d1e88ab","ios":"levelo://app?vid=ec20996b-9d77-43d2-81aa-156d1d1e88ab"},"vehicle_type_id":"4","last_reported":1722359258,"current_range_meters":0,"station_id":"ce4bh3p2rcd13ifvqdp0","pricing_plan_id":"cebpf4jnsgd1na2vs0mg"},{"bike_id":"2c18991a-742b-47d3-a5ac-dd2fb812ca5c","system_id":"levelo_inurba_marseille","lat":43.297807,"lon":5.393533,"is_reserved":false,"is_disabled":false,"rental_uris":{"android":"levelo://app?vid=2c18991a-742b-47d3-a5ac-dd2fb812ca5c","ios":"levelo://app?vid=2c18991a-742b-47d3-a5ac-dd2fb812ca5c"},"vehicle_type_id":"4","last_reported":1722359258,"current_range_meters":0,"station_id":"chh1huq6cuj3fo74tm60","pricing_plan_id":"cebpf4jnsgd1na2vs0mg"},{"bike_id":"9f82f437-f159-4563-b054-efa3885a31e8","system_id":"levelo_inurba_marseille","lat":43.330442,"lon":5.389148,"is_reserved":false,"is_disabled":false,"rental_uris":{"android":"levelo://app?vid=9f82f437-f159-4563-b054-efa3885a31e8","ios":"levelo://app?vid=9f82f437-f159-4563-b054-efa3885a31e8"},"vehicle_type_id":"4","last_reported":1722359258,"current_range_meters":800,"station_id":"ce4bhr92rcd13ifvqhrg","pricing_plan_id":"cebpf4jnsgd1na2vs0mg"},{"bike_id":"ab9d2898-1504-4b0b-b6c9-5f24871e0b02","system_id":"levelo_inurba_marseille","lat":43.29527,"lon":5.39044,"is_reserved":false,"is_disabled":false,"rental_uris":{"android":"levelo://app?vid=ab9d2898-1504-4b0b-b6c9-5f24871e0b02","ios":"levelo://app?vid=ab9d2898-1504-4b0b-b6c9-5f24871e0b02"},"vehicle_type_id":"4","last_reported":1722359258,"current_range_meters":0,"station_id":"ce4bh3p2rcd13ifvqdp0","pricing_plan_id":"cebpf4jnsgd1na2vs0mg"},{"bike_id":"ebca25b2-1f4d-4a47-bb9f-b2cd5aeffe6c","system_id":"levelo_inurba_marseille","lat":43.295169,"lon":5.390426,"is_reserved":false,"is_disabled":false,"rental_uris":{"android":"levelo://app?vid=ebca25b2-1f4d-4a47-bb9f-b2cd5aeffe6c","ios":"levelo://app?vid=ebca25b2-1f4d-4a47-bb9f-b2cd5aeffe6c"},"vehicle_type_id":"4","last_reported":1722359258,"current_range_meters":2800,"station_id":"ce4bh3p2rcd13ifvqdp0","pricing_plan_id":"cebpf4jnsgd1na2vs0mg"},{"bike_id":"3785e5b7-1666-438c-a600-325823d28a96","system_id":"levelo_inurba_marseille","lat":43.330442,"lon":5.389148,"is_reserved":false,"is_disabled":false,"rental_uris":{"android":"levelo://app?vid=3785e5b7-1666-438c-a600-325823d28a96","ios":"levelo://app?vid=3785e5b7-1666-438c-a600-325823d28a96"},"vehicle_type_id":"4","last_reported":1722359258,"current_range_meters":25200,"station_id":"ce4bhr92rcd13ifvqhrg","pricing_plan_id":"cebpf4jnsgd1na2vs0mg"},{"bike_id":"b82a5ed8-3b77-499f-b820-1e17387e28c0","system_id":"levelo_inurba_marseille","lat":43.29024,"lon":5.3814,"is_reserved":false,"is_disabled":false,"rental_uris":{"android":"levelo://app?vid=b82a5ed8-3b77-499f-b820-1e17387e28c0","ios":"levelo://app?vid=b82a5ed8-3b77-499f-b820-1e17387e28c0"},"vehicle_type_id":"4","last_reported":1722359258,"current_range_meters":0,"station_id":"ce4bh4p2rcd13ifvqe1g","pricing_plan_id":"cebpf4jnsgd1na2vs0mg"},{"bike_id":"f4cdf6f8-59cc-4926-bbd3-bf830cd7e7b6","system_id":"levelo_inurba_marseille","lat":43.29022,"lon":5.38143,"is_reserved":false,"is_disabled":false,"rental_uris":{"android":"levelo://app?vid=f4cdf6f8-59cc-4926-bbd3-bf830cd7e7b6","ios":"levelo://app?vid=f4cdf6f8-59cc-4926-bbd3-bf830cd7e7b6"},"vehicle_type_id":"4","last_reported":1722359258,"current_range_meters":29200,"station_id":"ce4bh4p2rcd13ifvqe1g","pricing_plan_id":"cebpf4jnsgd1na2vs0mg"},{"bike_id":"afdc5f7d-454e-4c8b-ae19-92f436327d89","system_id":"levelo_inurba_marseille","lat":43.28856,"lon":5.358371,"is_reserved":false,"is_disabled":false,"rental_uris":{"android":"levelo://app?vid=afdc5f7d-454e-4c8b-ae19-92f436327d89","ios":"levelo://app?vid=afdc5f7d-454e-4c8b-ae19-92f436327d89"},"vehicle_type_id":"4","last_reported":1722359258,"current_range_meters":0,"station_id":"ce4bhb12rcd13ifvqem0","pricing_plan_id":"cebpf4jnsgd1na2vs0mg"},{"bike_id":"d0dd06a3-91c1-4ee6-8746-9ca186fe32ae","system_id":"levelo_inurba_marseille","lat":43.29018,"lon":5.38142,"is_reserved":false,"is_disabled":false,"rental_uris":{"android":"levelo://app?vid=d0dd06a3-91c1-4ee6-8746-9ca186fe32ae","ios":"levelo://app?vid=d0dd06a3-91c1-4ee6-8746-9ca186fe32ae"},"vehicle_type_id":"4","last_reported":1722359258,"current_range_meters":0,"station_id":"ce4bh4p2rcd13ifvqe1g","pricing_plan_id":"cebpf4jnsgd1na2vs0mg"},{"bike_id":"13c47711-a9c9-462b-833b-5506be1514f2","system_id":"levelo_inurba_marseille","lat":43.28856,"lon":5.358371,"is_reserved":false,"is_disabled":false,"rental_uris":{"android":"levelo://app?vid=13c47711-a9c9-462b-833b-5506be1514f2","ios":"levelo://app?vid=13c47711-a9c9-462b-833b-5506be1514f2"},"vehicle_type_id":"4","last_reported":1722359258,"current_range_meters":29600,"station_id":"ce4bhb12rcd13ifvqem0","pricing_plan_id":"cebpf4jnsgd1na2vs0mg"},{"bike_id":"031bef61-f042-414a-81fd-8c51ed6ded19","system_id":"levelo_inurba_marseille","lat":43.288608,"lon":5.358297,"is_reserved":false,"is_disabled":false,"rental_uris":{"android":"levelo://app?vid=031bef61-f042-414a-81fd-8c51ed6ded19","ios":"levelo://app?vid=031bef61-f042-414a-81fd-8c51ed6ded19"},"vehicle_type_id":"4","last_reported":1722359258,"current_range_meters":0,"station_id":"ce4bhb12rcd13ifvqem0","pricing_plan_id":"cebpf4jnsgd1na2vs0mg"},{"bike_id":"40dc9464-00fa-44b5-86bb-e5f88ec5f226","system_id":"levelo_inurba_marseille","lat":43.309371,"lon":5.401449,"is_reserved":false,"is_disabled":false,"rental_uris":{"android":"levelo://app?vid=40dc9464-00fa-44b5-86bb-e5f88ec5f226","ios":"levelo://app?vid=40dc9464-00fa-44b5-86bb-e5f88ec5f226"},"vehicle_type_id":"4","last_reported":1722359258,"current_range_meters":22800,"station_id":"ce4bgvp2rcd13ifvqct0","pricing_plan_id":"cebpf4jnsgd1na2vs0mg"},{"bike_id":"9ce3a99b-e7ec-45cc-938c-5cdf88f25031","system_id":"levelo_inurba_marseille","lat":43.28787,"lon":5.37367,"is_reserved":false,"is_disabled":false,"rental_uris":{"android":"levelo://app?vid=9ce3a99b-e7ec-45cc-938c-5cdf88f25031","ios":"levelo://app?vid=9ce3a99b-e7ec-45cc-938c-5cdf88f25031"},"vehicle_type_id":"4","last_reported":1722359258,"current_range_meters":22000,"station_id":"","pricing_plan_id":"cebpf4jnsgd1na2vs0mg"},{"bike_id":"f5d3a63e-fe61-4e75-b0cb-aaffc2141b5f","system_id":"levelo_inurba_marseille","lat":43.337507,"lon":5.374583,"is_reserved":false,"is_disabled":false,"rental_uris":{"android":"levelo://app?vid=f5d3a63e-fe61-4e75-b0cb-aaffc2141b5f","ios":"levelo://app?vid=f5d3a63e-fe61-4e75-b0cb-aaffc2141b5f"},"vehicle_type_id":"4","last_reported":1722359258,"current_range_meters":29200,"station_id":"","pricing_plan_id":"cebpf4jnsgd1na2vs0mg"},{"bike_id":"0947d520-5902-43d2-9e61-47bf12ff75f9","system_id":"levelo_inurba_marseille","lat":43.337553,"lon":5.374554,"is_reserved":false,"is_disabled":false,"rental_uris":{"android":"levelo://app?vid=0947d520-5902-43d2-9e61-47bf12ff75f9","ios":"levelo://app?vid=0947d520-5902-43d2-9e61-47bf12ff75f9"},"vehicle_type_id":"4","last_reported":1722359258,"current_range_meters":18000,"station_id":"","pricing_plan_id":"cebpf4jnsgd1na2vs0mg"},{"bike_id":"1966b14a-bbaa-407b-8289-53570a1dabfd","system_id":"levelo_inurba_marseille","lat":43.30642,"lon":5.401031,"is_reserved":false,"is_disabled":false,"rental_uris":{"android":"levelo://app?vid=1966b14a-bbaa-407b-8289-53570a1dabfd","ios":"levelo://app?vid=1966b14a-bbaa-407b-8289-53570a1dabfd"},"vehicle_type_id":"4","last_reported":1722359258,"current_range_meters":18400,"station_id":"ce4bh112rcd13ifvqda0","pricing_plan_id":"cebpf4jnsgd1na2vs0mg"},{"bike_id":"af2e964a-a009-4834-8c68-bdc252944123","system_id":"levelo_inurba_marseille","lat":43.337639,"lon":5.374616,"is_reserved":false,"is_disabled":false,"rental_uris":{"android":"levelo://app?vid=af2e964a-a009-4834-8c68-bdc252944123","ios":"levelo://app?vid=af2e964a-a009-4834-8c68-bdc252944123"},"vehicle_type_id":"4","last_reported":1722359258,"current_range_meters":30400,"station_id":"","pricing_plan_id":"cebpf4jnsgd1na2vs0mg"},{"bike_id":"eebce066-39ca-43e4-8602-eb604fafc5f7","system_id":"levelo_inurba_marseille","lat":43.301117,"lon":5.398795,"is_reserved":false,"is_disabled":false,"rental_uris":{"android":"levelo://app?vid=eebce066-39ca-43e4-8602-eb604fafc5f7","ios":"levelo://app?vid=eebce066-39ca-43e4-8602-eb604fafc5f7"},"vehicle_type_id":"4","last_reported":1722359258,"current_range_meters":400,"station_id":"ce4bh0h2rcd13ifvqd40","pricing_plan_id":"cebpf4jnsgd1na2vs0mg"},{"bike_id":"74bdee5a-d23a-4472-9eff-7add96100b8a","system_id":"levelo_inurba_marseille","lat":43.301117,"lon":5.398795,"is_reserved":false,"is_disabled":false,"rental_uris":{"android":"levelo://app?vid=74bdee5a-d23a-4472-9eff-7add96100b8a","ios":"levelo://app?vid=74bdee5a-d23a-4472-9eff-7add96100b8a"},"vehicle_type_id":"4","last_reported":1722359258,"current_range_meters":0,"station_id":"ce4bh0h2rcd13ifvqd40","pricing_plan_id":"cebpf4jnsgd1na2vs0mg"},{"bike_id":"79650ac0-0895-4a45-87aa-e1179a171726","system_id":"levelo_inurba_marseille","lat":43.301117,"lon":5.398795,"is_reserved":false,"is_disabled":false,"rental_uris":{"android":"levelo://app?vid=79650ac0-0895-4a45-87aa-e1179a171726","ios":"levelo://app?vid=79650ac0-0895-4a45-87aa-e1179a171726"},"vehicle_type_id":"4","last_reported":1722359258,"current_range_meters":2000,"station_id":"ce4bh0h2rcd13ifvqd40","pricing_plan_id":"cebpf4jnsgd1na2vs0mg"},{"bike_id":"25c8f144-e8c7-4acd-becd-e601ab501a96","system_id":"levelo_inurba_marseille","lat":43.28727,"lon":5.36078,"is_reserved":false,"is_disabled":false,"rental_uris":{"android":"levelo://app?vid=25c8f144-e8c7-4acd-becd-e601ab501a96","ios":"levelo://app?vid=25c8f144-e8c7-4acd-becd-e601ab501a96"},"vehicle_type_id":"4","last_reported":1722359258,"current_range_meters":6400,"station_id":"cki0cbj6b192h4jlfktg","pricing_plan_id":"cebpf4jnsgd1na2vs0mg"},{"bike_id":"53d03676-004a-4c06-b2d8-463ac3a9ccb8","system_id":"levelo_inurba_marseille","lat":43.286591,"lon":5.363346,"is_reserved":false,"is_disabled":false,"rental_uris":{"android":"levelo://app?vid=53d03676-004a-4c06-b2d8-463ac3a9ccb8","ios":"levelo://app?vid=53d03676-004a-4c06-b2d8-463ac3a9ccb8"},"vehicle_type_id":"4","last_reported":1722359258,"current_range_meters":800,"station_id":"ce4bhah2rcd13ifvqej0","pricing_plan_id":"cebpf4jnsgd1na2vs0mg"},{"bike_id":"f209fef3-d95f-4a1b-a087-585b553d0529","system_id":"levelo_inurba_marseille","lat":43.298681,"lon":5.397225,"is_reserved":false,"is_disabled":false,"rental_uris":{"android":"levelo://app?vid=f209fef3-d95f-4a1b-a087-585b553d0529","ios":"levelo://app?vid=f209fef3-d95f-4a1b-a087-585b553d0529"},"vehicle_type_id":"4","last_reported":1722359258,"current_range_meters":0,"station_id":"ce4bh0h2rcd13ifvqd50","pricing_plan_id":"cebpf4jnsgd1na2vs0mg"},{"bike_id":"4654730b-3963-4a35-afec-290bea21785d","system_id":"levelo_inurba_marseille","lat":43.286591,"lon":5.363346,"is_reserved":false,"is_disabled":false,"rental_uris":{"android":"levelo://app?vid=4654730b-3963-4a35-afec-290bea21785d","ios":"levelo://app?vid=4654730b-3963-4a35-afec-290bea21785d"},"vehicle_type_id":"4","last_reported":1722359258,"current_range_meters":3600,"station_id":"ce4bhah2rcd13ifvqej0","pricing_plan_id":"cebpf4jnsgd1na2vs0mg"},{"bike_id":"35f3b33b-2ab8-4b13-b4ab-d2894ea02555","system_id":"levelo_inurba_marseille","lat":43.29872,"lon":5.39731,"is_reserved":false,"is_disabled":false,"rental_uris":{"android":"levelo://app?vid=35f3b33b-2ab8-4b13-b4ab-d2894ea02555","ios":"levelo://app?vid=35f3b33b-2ab8-4b13-b4ab-d2894ea02555"},"vehicle_type_id":"4","last_reported":1722359258,"current_range_meters":0,"station_id":"ce4bh0h2rcd13ifvqd50","pricing_plan_id":"cebpf4jnsgd1na2vs0mg"},{"bike_id":"fc287e21-20e1-4e73-b16c-942994331305","system_id":"levelo_inurba_marseille","lat":43.286961,"lon":5.373785,"is_reserved":false,"is_disabled":false,"rental_uris":{"android":"levelo://app?vid=fc287e21-20e1-4e73-b16c-942994331305","ios":"levelo://app?vid=fc287e21-20e1-4e73-b16c-942994331305"},"vehicle_type_id":"4","last_reported":1722359258,"current_range_meters":1600,"station_id":"ce4bh3p2rcd13ifvqdq0","pricing_plan_id":"cebpf4jnsgd1na2vs0mg"},{"bike_id":"7f79b74a-f4e4-4379-9ac0-8b882a0387ec","system_id":"levelo_inurba_marseille","lat":43.302759,"lon":5.400793,"is_reserved":false,"is_disabled":false,"rental_uris":{"android":"levelo://app?vid=7f79b74a-f4e4-4379-9ac0-8b882a0387ec","ios":"levelo://app?vid=7f79b74a-f4e4-4379-9ac0-8b882a0387ec"},"vehicle_type_id":"4","last_reported":1722359258,"current_range_meters":10000,"station_id":"ce4bgvh2rcd13ifvqcs0","pricing_plan_id":"cebpf4jnsgd1na2vs0mg"},{"bike_id":"c6039c82-8dc1-487e-886a-c328e5717f39","system_id":"levelo_inurba_marseille","lat":43.29018,"lon":5.38619,"is_reserved":false,"is_disabled":false,"rental_uris":{"android":"levelo://app?vid=c6039c82-8dc1-487e-886a-c328e5717f39","ios":"levelo://app?vid=c6039c82-8dc1-487e-886a-c328e5717f39"},"vehicle_type_id":"4","last_reported":1722359258,"current_range_meters":0,"station_id":"ce4bh4p2rcd13ifvqe0g","pricing_plan_id":"cebpf4jnsgd1na2vs0mg"},{"bike_id":"d71e41b1-dcac-404e-97fb-2cf743a26f51","system_id":"levelo_inurba_marseille","lat":43.290229,"lon":5.386356,"is_reserved":false,"is_disabled":false,"rental_uris":{"android":"levelo://app?vid=d71e41b1-dcac-404e-97fb-2cf743a26f51","ios":"levelo://app?vid=d71e41b1-dcac-404e-97fb-2cf743a26f51"},"vehicle_type_id":"4","last_reported":1722359258,"current_range_meters":0,"station_id":"ce4bh4p2rcd13ifvqe0g","pricing_plan_id":"cebpf4jnsgd1na2vs0mg"},{"bike_id":"ccaef167-05e9-4f98-b518-7dd39d54e07c","system_id":"levelo_inurba_marseille","lat":43.302759,"lon":5.400793,"is_reserved":false,"is_disabled":false,"rental_uris":{"android":"levelo://app?vid=ccaef167-05e9-4f98-b518-7dd39d54e07c","ios":"levelo://app?vid=ccaef167-05e9-4f98-b518-7dd39d54e07c"},"vehicle_type_id":"4","last_reported":1722359258,"current_range_meters":0,"station_id":"ce4bgvh2rcd13ifvqcs0","pricing_plan_id":"cebpf4jnsgd1na2vs0mg"},{"bike_id":"c48c8685-95de-44e6-8e20-5476162371e7","system_id":"levelo_inurba_marseille","lat":43.29029,"lon":5.3865,"is_reserved":false,"is_disabled":false,"rental_uris":{"android":"levelo://app?vid=c48c8685-95de-44e6-8e20-5476162371e7","ios":"levelo://app?vid=c48c8685-95de-44e6-8e20-5476162371e7"},"vehicle_type_id":"4","last_reported":1722359258,"current_range_meters":0,"station_id":"ce4bh4p2rcd13ifvqe0g","pricing_plan_id":"cebpf4jnsgd1na2vs0mg"},{"bike_id":"3e32f6d1-2751-4c5c-bc84-7db9ca69d685","system_id":"levelo_inurba_marseille","lat":43.29023,"lon":5.38641,"is_reserved":false,"is_disabled":false,"rental_uris":{"android":"levelo://app?vid=3e32f6d1-2751-4c5c-bc84-7db9ca69d685","ios":"levelo://app?vid=3e32f6d1-2751-4c5c-bc84-7db9ca69d685"},"vehicle_type_id":"4","last_reported":1722359258,"current_range_meters":0,"station_id":"ce4bh4p2rcd13ifvqe0g","pricing_plan_id":"cebpf4jnsgd1na2vs0mg"},{"bike_id":"e7ca5ac7-70c6-4bce-b2d6-9a5364216075","system_id":"levelo_inurba_marseille","lat":43.290336,"lon":5.386425,"is_reserved":false,"is_disabled":false,"rental_uris":{"android":"levelo://app?vid=e7ca5ac7-70c6-4bce-b2d6-9a5364216075","ios":"levelo://app?vid=e7ca5ac7-70c6-4bce-b2d6-9a5364216075"},"vehicle_type_id":"4","last_reported":1722359258,"current_range_meters":2000,"station_id":"ce4bh4p2rcd13ifvqe0g","pricing_plan_id":"cebpf4jnsgd1na2vs0mg"},{"bike_id":"c3dd1863-768b-48c3-ba91-c51cb4b0311e","system_id":"levelo_inurba_marseille","lat":43.286039,"lon":5.370681,"is_reserved":false,"is_disabled":false,"rental_uris":{"android":"levelo://app?vid=c3dd1863-768b-48c3-ba91-c51cb4b0311e","ios":"levelo://app?vid=c3dd1863-768b-48c3-ba91-c51cb4b0311e"},"vehicle_type_id":"4","last_reported":1722359258,"current_range_meters":18400,"station_id":"ce4bht12rcd13ifvqi60","pricing_plan_id":"cebpf4jnsgd1na2vs0mg"},{"bike_id":"024f9d20-91e7-49c5-84fe-0e6aa275b3ae","system_id":"levelo_inurba_marseille","lat":43.286039,"lon":5.370681,"is_reserved":false,"is_disabled":false,"rental_uris":{"android":"levelo://app?vid=024f9d20-91e7-49c5-84fe-0e6aa275b3ae","ios":"levelo://app?vid=024f9d20-91e7-49c5-84fe-0e6aa275b3ae"},"vehicle_type_id":"4","last_reported":1722359258,"current_range_meters":26000,"station_id":"ce4bht12rcd13ifvqi60","pricing_plan_id":"cebpf4jnsgd1na2vs0mg"},{"bike_id":"59fb77ce-c565-4199-8f1e-816be4583450","system_id":"levelo_inurba_marseille","lat":43.28797,"lon":5.35237,"is_reserved":false,"is_disabled":false,"rental_uris":{"android":"levelo://app?vid=59fb77ce-c565-4199-8f1e-816be4583450","ios":"levelo://app?vid=59fb77ce-c565-4199-8f1e-816be4583450"},"vehicle_type_id":"4","last_reported":1722359258,"current_range_meters":7600,"station_id":"","pricing_plan_id":"cebpf4jnsgd1na2vs0mg"},{"bike_id":"aeeb7d3f-9082-4866-aa46-f9aaaf9bfac1","system_id":"levelo_inurba_marseille","lat":43.28763,"lon":5.35269,"is_reserved":false,"is_disabled":false,"rental_uris":{"android":"levelo://app?vid=aeeb7d3f-9082-4866-aa46-f9aaaf9bfac1","ios":"levelo://app?vid=aeeb7d3f-9082-4866-aa46-f9aaaf9bfac1"},"vehicle_type_id":"4","last_reported":1722359258,"current_range_meters":23200,"station_id":"","pricing_plan_id":"cebpf4jnsgd1na2vs0mg"},{"bike_id":"5bbbfde2-f9b4-4d00-8265-ccb5e05d3e28","system_id":"levelo_inurba_marseille","lat":43.291994,"lon":5.392907,"is_reserved":false,"is_disabled":false,"rental_uris":{"android":"levelo://app?vid=5bbbfde2-f9b4-4d00-8265-ccb5e05d3e28","ios":"levelo://app?vid=5bbbfde2-f9b4-4d00-8265-ccb5e05d3e28"},"vehicle_type_id":"4","last_reported":1722359258,"current_range_meters":800,"station_id":"ce4bh192rcd13ifvqdd0","pricing_plan_id":"cebpf4jnsgd1na2vs0mg"},{"bike_id":"e10048cd-79ef-4c71-9184-0827576c8c02","system_id":"levelo_inurba_marseille","lat":43.284538,"lon":5.358657,"is_reserved":false,"is_disabled":false,"rental_uris":{"android":"levelo://app?vid=e10048cd-79ef-4c71-9184-0827576c8c02","ios":"levelo://app?vid=e10048cd-79ef-4c71-9184-0827576c8c02"},"vehicle_type_id":"4","last_reported":1722359258,"current_range_meters":14400,"station_id":"ce4bhah2rcd13ifvqei0","pricing_plan_id":"cebpf4jnsgd1na2vs0mg"},{"bike_id":"fad89481-9f1b-4eb8-94ff-58532dabca1c","system_id":"levelo_inurba_marseille","lat":43.284538,"lon":5.358657,"is_reserved":false,"is_disabled":false,"rental_uris":{"android":"levelo://app?vid=fad89481-9f1b-4eb8-94ff-58532dabca1c","ios":"levelo://app?vid=fad89481-9f1b-4eb8-94ff-58532dabca1c"},"vehicle_type_id":"4","last_reported":1722359258,"current_range_meters":11200,"station_id":"ce4bhah2rcd13ifvqei0","pricing_plan_id":"cebpf4jnsgd1na2vs0mg"},{"bike_id":"a6020e20-991f-4fdf-8079-8a48d8f2943c","system_id":"levelo_inurba_marseille","lat":43.29447,"lon":5.39742,"is_reserved":false,"is_disabled":false,"rental_uris":{"android":"levelo://app?vid=a6020e20-991f-4fdf-8079-8a48d8f2943c","ios":"levelo://app?vid=a6020e20-991f-4fdf-8079-8a48d8f2943c"},"vehicle_type_id":"4","last_reported":1722359258,"current_range_meters":0,"station_id":"ce4bh3h2rcd13ifvqdo0","pricing_plan_id":"cebpf4jnsgd1na2vs0mg"},{"bike_id":"c52dd7c9-2eee-4bbc-b681-4c641057d977","system_id":"levelo_inurba_marseille","lat":43.284534,"lon":5.358662,"is_reserved":false,"is_disabled":false,"rental_uris":{"android":"levelo://app?vid=c52dd7c9-2eee-4bbc-b681-4c641057d977","ios":"levelo://app?vid=c52dd7c9-2eee-4bbc-b681-4c641057d977"},"vehicle_type_id":"4","last_reported":1722359258,"current_range_meters":5200,"station_id":"ce4bhah2rcd13ifvqei0","pricing_plan_id":"cebpf4jnsgd1na2vs0mg"},{"bike_id":"e23bd2fb-0509-4fd5-85fd-3a22480d0a53","system_id":"levelo_inurba_marseille","lat":43.284538,"lon":5.358657,"is_reserved":false,"is_disabled":false,"rental_uris":{"android":"levelo://app?vid=e23bd2fb-0509-4fd5-85fd-3a22480d0a53","ios":"levelo://app?vid=e23bd2fb-0509-4fd5-85fd-3a22480d0a53"},"vehicle_type_id":"4","last_reported":1722359258,"current_range_meters":25600,"station_id":"ce4bhah2rcd13ifvqei0","pricing_plan_id":"cebpf4jnsgd1na2vs0mg"},{"bike_id":"5e59a933-c8e4-4f3e-9ac3-e71f6765b9ed","system_id":"levelo_inurba_marseille","lat":43.28458,"lon":5.35875,"is_reserved":false,"is_disabled":false,"rental_uris":{"android":"levelo://app?vid=5e59a933-c8e4-4f3e-9ac3-e71f6765b9ed","ios":"levelo://app?vid=5e59a933-c8e4-4f3e-9ac3-e71f6765b9ed"},"vehicle_type_id":"4","last_reported":1722359258,"current_range_meters":5200,"station_id":"ce4bhah2rcd13ifvqei0","pricing_plan_id":"cebpf4jnsgd1na2vs0mg"},{"bike_id":"a52e06cc-1de1-42ef-98aa-c0a7931e4245","system_id":"levelo_inurba_marseille","lat":43.294314,"lon":5.397498,"is_reserved":false,"is_disabled":false,"rental_uris":{"android":"levelo://app?vid=a52e06cc-1de1-42ef-98aa-c0a7931e4245","ios":"levelo://app?vid=a52e06cc-1de1-42ef-98aa-c0a7931e4245"},"vehicle_type_id":"4","last_reported":1722359258,"current_range_meters":0,"station_id":"ce4bh3h2rcd13ifvqdo0","pricing_plan_id":"cebpf4jnsgd1na2vs0mg"},{"bike_id":"c35d428b-ced8-4400-ad68-aa2d927810b4","system_id":"levelo_inurba_marseille","lat":43.28625,"lon":5.35096,"is_reserved":false,"is_disabled":false,"rental_uris":{"android":"levelo://app?vid=c35d428b-ced8-4400-ad68-aa2d927810b4","ios":"levelo://app?vid=c35d428b-ced8-4400-ad68-aa2d927810b4"},"vehicle_type_id":"4","last_reported":1722359258,"current_range_meters":19600,"station_id":"ce4bhch2rcd13ifvqeug","pricing_plan_id":"cebpf4jnsgd1na2vs0mg"},{"bike_id":"3bb95615-853a-4f62-ae25-5aa13338f3ca","system_id":"levelo_inurba_marseille","lat":43.2862,"lon":5.35108,"is_reserved":false,"is_disabled":false,"rental_uris":{"android":"levelo://app?vid=3bb95615-853a-4f62-ae25-5aa13338f3ca","ios":"levelo://app?vid=3bb95615-853a-4f62-ae25-5aa13338f3ca"},"vehicle_type_id":"4","last_reported":1722359258,"current_range_meters":9600,"station_id":"ce4bhch2rcd13ifvqeug","pricing_plan_id":"cebpf4jnsgd1na2vs0mg"},{"bike_id":"cff00355-3c88-4d64-9b33-7e77dae0df04","system_id":"levelo_inurba_marseille","lat":43.28621,"lon":5.35104,"is_reserved":false,"is_disabled":false,"rental_uris":{"android":"levelo://app?vid=cff00355-3c88-4d64-9b33-7e77dae0df04","ios":"levelo://app?vid=cff00355-3c88-4d64-9b33-7e77dae0df04"},"vehicle_type_id":"4","last_reported":1722359258,"current_range_meters":22000,"station_id":"ce4bhch2rcd13ifvqeug","pricing_plan_id":"cebpf4jnsgd1na2vs0mg"},{"bike_id":"07e22386-1561-4206-ac83-639f7ee21a79","system_id":"levelo_inurba_marseille","lat":43.28619,"lon":5.35106,"is_reserved":false,"is_disabled":false,"rental_uris":{"android":"levelo://app?vid=07e22386-1561-4206-ac83-639f7ee21a79","ios":"levelo://app?vid=07e22386-1561-4206-ac83-639f7ee21a79"},"vehicle_type_id":"4","last_reported":1722359258,"current_range_meters":14400,"station_id":"ce4bhch2rcd13ifvqeug","pricing_plan_id":"cebpf4jnsgd1na2vs0mg"},{"bike_id":"2560ef1e-5e33-40fb-b1b4-6bdc090c8113","system_id":"levelo_inurba_marseille","lat":43.28618,"lon":5.35107,"is_reserved":false,"is_disabled":false,"rental_uris":{"android":"levelo://app?vid=2560ef1e-5e33-40fb-b1b4-6bdc090c8113","ios":"levelo://app?vid=2560ef1e-5e33-40fb-b1b4-6bdc090c8113"},"vehicle_type_id":"4","last_reported":1722359258,"current_range_meters":400,"station_id":"ce4bhch2rcd13ifvqeug","pricing_plan_id":"cebpf4jnsgd1na2vs0mg"},{"bike_id":"b4794b67-d19d-4703-8489-62fb4e597aa1","system_id":"levelo_inurba_marseille","lat":43.28617,"lon":5.35106,"is_reserved":false,"is_disabled":false,"rental_uris":{"android":"levelo://app?vid=b4794b67-d19d-4703-8489-62fb4e597aa1","ios":"levelo://app?vid=b4794b67-d19d-4703-8489-62fb4e597aa1"},"vehicle_type_id":"4","last_reported":1722359258,"current_range_meters":13200,"station_id":"ce4bhch2rcd13ifvqeug","pricing_plan_id":"cebpf4jnsgd1na2vs0mg"},{"bike_id":"d995437d-3680-44f3-abfb-f4402bf16053","system_id":"levelo_inurba_marseille","lat":43.286168,"lon":5.351054,"is_reserved":false,"is_disabled":false,"rental_uris":{"android":"levelo://app?vid=d995437d-3680-44f3-abfb-f4402bf16053","ios":"levelo://app?vid=d995437d-3680-44f3-abfb-f4402bf16053"},"vehicle_type_id":"4","last_reported":1722359258,"current_range_meters":26400,"station_id":"ce4bhch2rcd13ifvqeug","pricing_plan_id":"cebpf4jnsgd1na2vs0mg"},{"bike_id":"288c8ee9-bf65-4ad9-b5fd-77c40d428f81","system_id":"levelo_inurba_marseille","lat":43.28616,"lon":5.35103,"is_reserved":false,"is_disabled":false,"rental_uris":{"android":"levelo://app?vid=288c8ee9-bf65-4ad9-b5fd-77c40d428f81","ios":"levelo://app?vid=288c8ee9-bf65-4ad9-b5fd-77c40d428f81"},"vehicle_type_id":"4","last_reported":1722359258,"current_range_meters":0,"station_id":"","pricing_plan_id":"cebpf4jnsgd1na2vs0mg"},{"bike_id":"92286914-c2b9-4ee7-9436-5bd08b0561a2","system_id":"levelo_inurba_marseille","lat":43.28615,"lon":5.35106,"is_reserved":false,"is_disabled":false,"rental_uris":{"android":"levelo://app?vid=92286914-c2b9-4ee7-9436-5bd08b0561a2","ios":"levelo://app?vid=92286914-c2b9-4ee7-9436-5bd08b0561a2"},"vehicle_type_id":"4","last_reported":1722359258,"current_range_meters":20000,"station_id":"ce4bhch2rcd13ifvqeug","pricing_plan_id":"cebpf4jnsgd1na2vs0mg"},{"bike_id":"07151056-50bb-41b7-8d9b-34e9365ac753","system_id":"levelo_inurba_marseille","lat":43.28615,"lon":5.35102,"is_reserved":false,"is_disabled":false,"rental_uris":{"android":"levelo://app?vid=07151056-50bb-41b7-8d9b-34e9365ac753","ios":"levelo://app?vid=07151056-50bb-41b7-8d9b-34e9365ac753"},"vehicle_type_id":"4","last_reported":1722359258,"current_range_meters":31200,"station_id":"","pricing_plan_id":"cebpf4jnsgd1na2vs0mg"},{"bike_id":"ff3a953e-9830-407e-b092-c4e6db95362a","system_id":"levelo_inurba_marseille","lat":43.28613,"lon":5.35103,"is_reserved":false,"is_disabled":false,"rental_uris":{"android":"levelo://app?vid=ff3a953e-9830-407e-b092-c4e6db95362a","ios":"levelo://app?vid=ff3a953e-9830-407e-b092-c4e6db95362a"},"vehicle_type_id":"4","last_reported":1722359258,"current_range_meters":0,"station_id":"ce4bhch2rcd13ifvqeug","pricing_plan_id":"cebpf4jnsgd1na2vs0mg"},{"bike_id":"78d54470-6941-4030-b389-24d36a58455d","system_id":"levelo_inurba_marseille","lat":43.285856,"lon":5.350771,"is_reserved":false,"is_disabled":false,"rental_uris":{"android":"levelo://app?vid=78d54470-6941-4030-b389-24d36a58455d","ios":"levelo://app?vid=78d54470-6941-4030-b389-24d36a58455d"},"vehicle_type_id":"4","last_reported":1722359258,"current_range_meters":29200,"station_id":"ce4bhch2rcd13ifvqeug","pricing_plan_id":"cebpf4jnsgd1na2vs0mg"},{"bike_id":"06e4919d-b811-42ce-8022-f12416e57d69","system_id":"levelo_inurba_marseille","lat":43.28613,"lon":5.35099,"is_reserved":false,"is_disabled":false,"rental_uris":{"android":"levelo://app?vid=06e4919d-b811-42ce-8022-f12416e57d69","ios":"levelo://app?vid=06e4919d-b811-42ce-8022-f12416e57d69"},"vehicle_type_id":"4","last_reported":1722359258,"current_range_meters":30800,"station_id":"ce4bhch2rcd13ifvqeug","pricing_plan_id":"cebpf4jnsgd1na2vs0mg"},{"bike_id":"1e6b106a-6a12-4c0b-be08-aa73ec5e7227","system_id":"levelo_inurba_marseille","lat":43.285856,"lon":5.350771,"is_reserved":false,"is_disabled":false,"rental_uris":{"android":"levelo://app?vid=1e6b106a-6a12-4c0b-be08-aa73ec5e7227","ios":"levelo://app?vid=1e6b106a-6a12-4c0b-be08-aa73ec5e7227"},"vehicle_type_id":"4","last_reported":1722359258,"current_range_meters":30000,"station_id":"ce4bhch2rcd13ifvqeug","pricing_plan_id":"cebpf4jnsgd1na2vs0mg"},{"bike_id":"c3cfb6b6-9259-4f51-a445-66d57809177c","system_id":"levelo_inurba_marseille","lat":43.28613,"lon":5.35098,"is_reserved":false,"is_disabled":false,"rental_uris":{"android":"levelo://app?vid=c3cfb6b6-9259-4f51-a445-66d57809177c","ios":"levelo://app?vid=c3cfb6b6-9259-4f51-a445-66d57809177c"},"vehicle_type_id":"4","last_reported":1722359258,"current_range_meters":10400,"station_id":"ce4bhch2rcd13ifvqeug","pricing_plan_id":"cebpf4jnsgd1na2vs0mg"},{"bike_id":"1878ac00-09bc-405d-9a7b-06af91d5115e","system_id":"levelo_inurba_marseille","lat":43.29572,"lon":5.39964,"is_reserved":false,"is_disabled":false,"rental_uris":{"android":"levelo://app?vid=1878ac00-09bc-405d-9a7b-06af91d5115e","ios":"levelo://app?vid=1878ac00-09bc-405d-9a7b-06af91d5115e"},"vehicle_type_id":"4","last_reported":1722359258,"current_range_meters":0,"station_id":"ce4bh312rcd13ifvqdj0","pricing_plan_id":"cebpf4jnsgd1na2vs0mg"},{"bike_id":"afccc0b5-66a6-4f95-81d3-9bfd586fb5d3","system_id":"levelo_inurba_marseille","lat":43.295713,"lon":5.399639,"is_reserved":false,"is_disabled":false,"rental_uris":{"android":"levelo://app?vid=afccc0b5-66a6-4f95-81d3-9bfd586fb5d3","ios":"levelo://app?vid=afccc0b5-66a6-4f95-81d3-9bfd586fb5d3"},"vehicle_type_id":"4","last_reported":1722359258,"current_range_meters":7600,"station_id":"ce4bh312rcd13ifvqdj0","pricing_plan_id":"cebpf4jnsgd1na2vs0mg"},{"bike_id":"35b65cd1-c3c5-4443-a7b2-ce0435b99e27","system_id":"levelo_inurba_marseille","lat":43.319179,"lon":5.407725,"is_reserved":false,"is_disabled":false,"rental_uris":{"android":"levelo://app?vid=35b65cd1-c3c5-4443-a7b2-ce0435b99e27","ios":"levelo://app?vid=35b65cd1-c3c5-4443-a7b2-ce0435b99e27"},"vehicle_type_id":"4","last_reported":1722359258,"current_range_meters":7600,"station_id":"ce4bhq12rcd13ifvqhig","pricing_plan_id":"cebpf4jnsgd1na2vs0mg"},{"bike_id":"2ca98b3c-5262-4254-81a8-773a10774353","system_id":"levelo_inurba_marseille","lat":43.283494,"lon":5.380945,"is_reserved":false,"is_disabled":false,"rental_uris":{"android":"levelo://app?vid=2ca98b3c-5262-4254-81a8-773a10774353","ios":"levelo://app?vid=2ca98b3c-5262-4254-81a8-773a10774353"},"vehicle_type_id":"4","last_reported":1722359258,"current_range_meters":0,"station_id":"ce4bh412rcd13ifvqdr0","pricing_plan_id":"cebpf4jnsgd1na2vs0mg"},{"bike_id":"b2e70521-0ade-45fc-999b-4925ee595985","system_id":"levelo_inurba_marseille","lat":43.33725,"lon":5.39178,"is_reserved":false,"is_disabled":false,"rental_uris":{"android":"levelo://app?vid=b2e70521-0ade-45fc-999b-4925ee595985","ios":"levelo://app?vid=b2e70521-0ade-45fc-999b-4925ee595985"},"vehicle_type_id":"4","last_reported":1722359258,"current_range_meters":400,"station_id":"ce4bhr92rcd13ifvqhsg","pricing_plan_id":"cebpf4jnsgd1na2vs0mg"},{"bike_id":"dc617274-6d53-4499-b576-f8f73f6058c9","system_id":"levelo_inurba_marseille","lat":43.323464,"lon":5.406297,"is_reserved":false,"is_disabled":false,"rental_uris":{"android":"levelo://app?vid=dc617274-6d53-4499-b576-f8f73f6058c9","ios":"levelo://app?vid=dc617274-6d53-4499-b576-f8f73f6058c9"},"vehicle_type_id":"4","last_reported":1722359258,"current_range_meters":8800,"station_id":"ce4bhq92rcd13ifvqhjg","pricing_plan_id":"cebpf4jnsgd1na2vs0mg"},{"bike_id":"403e7fa6-c014-4204-b1cd-05aa6bc17461","system_id":"levelo_inurba_marseille","lat":43.28482,"lon":5.38405,"is_reserved":false,"is_disabled":false,"rental_uris":{"android":"levelo://app?vid=403e7fa6-c014-4204-b1cd-05aa6bc17461","ios":"levelo://app?vid=403e7fa6-c014-4204-b1cd-05aa6bc17461"},"vehicle_type_id":"4","last_reported":1722359258,"current_range_meters":0,"station_id":"ce4bh512rcd13ifvqe3g","pricing_plan_id":"cebpf4jnsgd1na2vs0mg"},{"bike_id":"d38348c7-d622-4ccf-bfd7-e994d51468d5","system_id":"levelo_inurba_marseille","lat":43.28476,"lon":5.38408,"is_reserved":false,"is_disabled":false,"rental_uris":{"android":"levelo://app?vid=d38348c7-d622-4ccf-bfd7-e994d51468d5","ios":"levelo://app?vid=d38348c7-d622-4ccf-bfd7-e994d51468d5"},"vehicle_type_id":"4","last_reported":1722359258,"current_range_meters":0,"station_id":"ce4bh512rcd13ifvqe3g","pricing_plan_id":"cebpf4jnsgd1na2vs0mg"},{"bike_id":"eece1e9d-ef2d-4e64-a952-058e86f4b965","system_id":"levelo_inurba_marseille","lat":43.297946,"lon":5.404063,"is_reserved":false,"is_disabled":false,"rental_uris":{"android":"levelo://app?vid=eece1e9d-ef2d-4e64-a952-058e86f4b965","ios":"levelo://app?vid=eece1e9d-ef2d-4e64-a952-058e86f4b965"},"vehicle_type_id":"4","last_reported":1722359258,"current_range_meters":2400,"station_id":"ce4bh112rcd13ifvqd90","pricing_plan_id":"cebpf4jnsgd1na2vs0mg"},{"bike_id":"15da3b5f-4e6a-4d88-8d9c-9ef4ba41b589","system_id":"levelo_inurba_marseille","lat":43.295713,"lon":5.399639,"is_reserved":false,"is_disabled":false,"rental_uris":{"android":"levelo://app?vid=15da3b5f-4e6a-4d88-8d9c-9ef4ba41b589","ios":"levelo://app?vid=15da3b5f-4e6a-4d88-8d9c-9ef4ba41b589"},"vehicle_type_id":"4","last_reported":1722359258,"current_range_meters":2000,"station_id":"ce4bh312rcd13ifvqdj0","pricing_plan_id":"cebpf4jnsgd1na2vs0mg"},{"bike_id":"d9884cfc-3730-41fa-841d-6f0505902a3c","system_id":"levelo_inurba_marseille","lat":43.28356,"lon":5.38106,"is_reserved":false,"is_disabled":false,"rental_uris":{"android":"levelo://app?vid=d9884cfc-3730-41fa-841d-6f0505902a3c","ios":"levelo://app?vid=d9884cfc-3730-41fa-841d-6f0505902a3c"},"vehicle_type_id":"4","last_reported":1722359258,"current_range_meters":0,"station_id":"ce4bh412rcd13ifvqdr0","pricing_plan_id":"cebpf4jnsgd1na2vs0mg"},{"bike_id":"24996c05-d1a9-4bee-8b39-cc8506ad0236","system_id":"levelo_inurba_marseille","lat":43.284264,"lon":5.349794,"is_reserved":false,"is_disabled":false,"rental_uris":{"android":"levelo://app?vid=24996c05-d1a9-4bee-8b39-cc8506ad0236","ios":"levelo://app?vid=24996c05-d1a9-4bee-8b39-cc8506ad0236"},"vehicle_type_id":"4","last_reported":1722359258,"current_range_meters":18800,"station_id":"ce4bhbh2rcd13ifvqepg","pricing_plan_id":"cebpf4jnsgd1na2vs0mg"},{"bike_id":"66e5459e-d2cb-4fae-a2bc-80cc88c6b56d","system_id":"levelo_inurba_marseille","lat":43.28421,"lon":5.34995,"is_reserved":false,"is_disabled":false,"rental_uris":{"android":"levelo://app?vid=66e5459e-d2cb-4fae-a2bc-80cc88c6b56d","ios":"levelo://app?vid=66e5459e-d2cb-4fae-a2bc-80cc88c6b56d"},"vehicle_type_id":"4","last_reported":1722359258,"current_range_meters":30000,"station_id":"ce4bhbh2rcd13ifvqepg","pricing_plan_id":"cebpf4jnsgd1na2vs0mg"},{"bike_id":"1857b52a-8cf6-4c76-bf84-d049f7c87293","system_id":"levelo_inurba_marseille","lat":43.284216,"lon":5.349897,"is_reserved":false,"is_disabled":false,"rental_uris":{"android":"levelo://app?vid=1857b52a-8cf6-4c76-bf84-d049f7c87293","ios":"levelo://app?vid=1857b52a-8cf6-4c76-bf84-d049f7c87293"},"vehicle_type_id":"4","last_reported":1722359258,"current_range_meters":31200,"station_id":"ce4bhbh2rcd13ifvqepg","pricing_plan_id":"cebpf4jnsgd1na2vs0mg"},{"bike_id":"31017c64-e9ba-4d20-95b4-0b9d97331f2d","system_id":"levelo_inurba_marseille","lat":43.28425,"lon":5.34974,"is_reserved":false,"is_disabled":false,"rental_uris":{"android":"levelo://app?vid=31017c64-e9ba-4d20-95b4-0b9d97331f2d","ios":"levelo://app?vid=31017c64-e9ba-4d20-95b4-0b9d97331f2d"},"vehicle_type_id":"4","last_reported":1722359258,"current_range_meters":12400,"station_id":"ce4bhbh2rcd13ifvqepg","pricing_plan_id":"cebpf4jnsgd1na2vs0mg"},{"bike_id":"c28dbaa0-748f-4261-94ec-de9fc9abfd14","system_id":"levelo_inurba_marseille","lat":43.284214,"lon":5.349706,"is_reserved":false,"is_disabled":false,"rental_uris":{"android":"levelo://app?vid=c28dbaa0-748f-4261-94ec-de9fc9abfd14","ios":"levelo://app?vid=c28dbaa0-748f-4261-94ec-de9fc9abfd14"},"vehicle_type_id":"4","last_reported":1722359258,"current_range_meters":18400,"station_id":"ce4bhbh2rcd13ifvqepg","pricing_plan_id":"cebpf4jnsgd1na2vs0mg"},{"bike_id":"9920d2c1-999d-40c6-95c4-df6ce5b17d34","system_id":"levelo_inurba_marseille","lat":43.284217,"lon":5.349697,"is_reserved":false,"is_disabled":false,"rental_uris":{"android":"levelo://app?vid=9920d2c1-999d-40c6-95c4-df6ce5b17d34","ios":"levelo://app?vid=9920d2c1-999d-40c6-95c4-df6ce5b17d34"},"vehicle_type_id":"4","last_reported":1722359258,"current_range_meters":0,"station_id":"ce4bhbh2rcd13ifvqepg","pricing_plan_id":"cebpf4jnsgd1na2vs0mg"},{"bike_id":"e7e14634-ea6d-4355-964f-6addb910cf9f","system_id":"levelo_inurba_marseille","lat":43.284214,"lon":5.349706,"is_reserved":false,"is_disabled":false,"rental_uris":{"android":"levelo://app?vid=e7e14634-ea6d-4355-964f-6addb910cf9f","ios":"levelo://app?vid=e7e14634-ea6d-4355-964f-6addb910cf9f"},"vehicle_type_id":"4","last_reported":1722359258,"current_range_meters":28800,"station_id":"ce4bhbh2rcd13ifvqepg","pricing_plan_id":"cebpf4jnsgd1na2vs0mg"},{"bike_id":"91374d5a-ecb1-495e-bb19-f6a7e5ba718c","system_id":"levelo_inurba_marseille","lat":43.2842,"lon":5.349829,"is_reserved":false,"is_disabled":false,"rental_uris":{"android":"levelo://app?vid=91374d5a-ecb1-495e-bb19-f6a7e5ba718c","ios":"levelo://app?vid=91374d5a-ecb1-495e-bb19-f6a7e5ba718c"},"vehicle_type_id":"4","last_reported":1722359258,"current_range_meters":9600,"station_id":"ce4bhbh2rcd13ifvqepg","pricing_plan_id":"cebpf4jnsgd1na2vs0mg"},{"bike_id":"c4106f8b-5b79-44af-a638-ed5f140c9ff0","system_id":"levelo_inurba_marseille","lat":43.28423,"lon":5.34973,"is_reserved":false,"is_disabled":false,"rental_uris":{"android":"levelo://app?vid=c4106f8b-5b79-44af-a638-ed5f140c9ff0","ios":"levelo://app?vid=c4106f8b-5b79-44af-a638-ed5f140c9ff0"},"vehicle_type_id":"4","last_reported":1722359258,"current_range_meters":26800,"station_id":"ce4bhbh2rcd13ifvqepg","pricing_plan_id":"cebpf4jnsgd1na2vs0mg"},{"bike_id":"218ec7da-45b8-435a-aed3-40f24d9a3d8a","system_id":"levelo_inurba_marseille","lat":43.28418,"lon":5.34988,"is_reserved":false,"is_disabled":false,"rental_uris":{"android":"levelo://app?vid=218ec7da-45b8-435a-aed3-40f24d9a3d8a","ios":"levelo://app?vid=218ec7da-45b8-435a-aed3-40f24d9a3d8a"},"vehicle_type_id":"4","last_reported":1722359258,"current_range_meters":30000,"station_id":"ce4bhbh2rcd13ifvqepg","pricing_plan_id":"cebpf4jnsgd1na2vs0mg"},{"bike_id":"0f5232d2-38db-4048-90ee-729dde9555a3","system_id":"levelo_inurba_marseille","lat":43.284187,"lon":5.34985,"is_reserved":false,"is_disabled":false,"rental_uris":{"android":"levelo://app?vid=0f5232d2-38db-4048-90ee-729dde9555a3","ios":"levelo://app?vid=0f5232d2-38db-4048-90ee-729dde9555a3"},"vehicle_type_id":"4","last_reported":1722359258,"current_range_meters":27600,"station_id":"ce4bhbh2rcd13ifvqepg","pricing_plan_id":"cebpf4jnsgd1na2vs0mg"},{"bike_id":"1b3c04d4-1663-446e-8708-24565076026b","system_id":"levelo_inurba_marseille","lat":43.284193,"lon":5.349823,"is_reserved":false,"is_disabled":false,"rental_uris":{"android":"levelo://app?vid=1b3c04d4-1663-446e-8708-24565076026b","ios":"levelo://app?vid=1b3c04d4-1663-446e-8708-24565076026b"},"vehicle_type_id":"4","last_reported":1722359258,"current_range_meters":12400,"station_id":"ce4bhbh2rcd13ifvqepg","pricing_plan_id":"cebpf4jnsgd1na2vs0mg"},{"bike_id":"239ef51b-a56f-4b51-bc6e-e9c6710c9833","system_id":"levelo_inurba_marseille","lat":43.28419,"lon":5.34983,"is_reserved":false,"is_disabled":false,"rental_uris":{"android":"levelo://app?vid=239ef51b-a56f-4b51-bc6e-e9c6710c9833","ios":"levelo://app?vid=239ef51b-a56f-4b51-bc6e-e9c6710c9833"},"vehicle_type_id":"4","last_reported":1722359258,"current_range_meters":24000,"station_id":"ce4bhbh2rcd13ifvqepg","pricing_plan_id":"cebpf4jnsgd1na2vs0mg"},{"bike_id":"0e53cde6-baa9-444e-a2f1-1d679737390d","system_id":"levelo_inurba_marseille","lat":43.284192,"lon":5.349819,"is_reserved":false,"is_disabled":false,"rental_uris":{"android":"levelo://app?vid=0e53cde6-baa9-444e-a2f1-1d679737390d","ios":"levelo://app?vid=0e53cde6-baa9-444e-a2f1-1d679737390d"},"vehicle_type_id":"4","last_reported":1722359258,"current_range_meters":30000,"station_id":"ce4bhbh2rcd13ifvqepg","pricing_plan_id":"cebpf4jnsgd1na2vs0mg"},{"bike_id":"2e70fde1-ee8b-495f-8a38-0c2933c198f3","system_id":"levelo_inurba_marseille","lat":43.28421,"lon":5.34975,"is_reserved":false,"is_disabled":false,"rental_uris":{"android":"levelo://app?vid=2e70fde1-ee8b-495f-8a38-0c2933c198f3","ios":"levelo://app?vid=2e70fde1-ee8b-495f-8a38-0c2933c198f3"},"vehicle_type_id":"4","last_reported":1722359258,"current_range_meters":15600,"station_id":"ce4bhbh2rcd13ifvqepg","pricing_plan_id":"cebpf4jnsgd1na2vs0mg"},{"bike_id":"571eeb62-3273-4ed6-9b4d-664476220a74","system_id":"levelo_inurba_marseille","lat":43.28421,"lon":5.34975,"is_reserved":false,"is_disabled":false,"rental_uris":{"android":"levelo://app?vid=571eeb62-3273-4ed6-9b4d-664476220a74","ios":"levelo://app?vid=571eeb62-3273-4ed6-9b4d-664476220a74"},"vehicle_type_id":"4","last_reported":1722359258,"current_range_meters":21600,"station_id":"ce4bhbh2rcd13ifvqepg","pricing_plan_id":"cebpf4jnsgd1na2vs0mg"},{"bike_id":"24558342-7d9e-4508-a5c4-e6d7866b437b","system_id":"levelo_inurba_marseille","lat":43.284169,"lon":5.349855,"is_reserved":false,"is_disabled":false,"rental_uris":{"android":"levelo://app?vid=24558342-7d9e-4508-a5c4-e6d7866b437b","ios":"levelo://app?vid=24558342-7d9e-4508-a5c4-e6d7866b437b"},"vehicle_type_id":"4","last_reported":1722359258,"current_range_meters":12400,"station_id":"ce4bhbh2rcd13ifvqepg","pricing_plan_id":"cebpf4jnsgd1na2vs0mg"},{"bike_id":"49263073-db00-4e13-bdf0-501adeab9179","system_id":"levelo_inurba_marseille","lat":43.28419,"lon":5.34978,"is_reserved":false,"is_disabled":false,"rental_uris":{"android":"levelo://app?vid=49263073-db00-4e13-bdf0-501adeab9179","ios":"levelo://app?vid=49263073-db00-4e13-bdf0-501adeab9179"},"vehicle_type_id":"4","last_reported":1722359258,"current_range_meters":8400,"station_id":"ce4bhbh2rcd13ifvqepg","pricing_plan_id":"cebpf4jnsgd1na2vs0mg"},{"bike_id":"fee5ff83-ca7f-4246-a6d2-4aa5288931ce","system_id":"levelo_inurba_marseille","lat":43.28419,"lon":5.34978,"is_reserved":false,"is_disabled":false,"rental_uris":{"android":"levelo://app?vid=fee5ff83-ca7f-4246-a6d2-4aa5288931ce","ios":"levelo://app?vid=fee5ff83-ca7f-4246-a6d2-4aa5288931ce"},"vehicle_type_id":"4","last_reported":1722359258,"current_range_meters":3600,"station_id":"ce4bhbh2rcd13ifvqepg","pricing_plan_id":"cebpf4jnsgd1na2vs0mg"},{"bike_id":"ac5f0e72-4137-49e8-aa8c-91cc77abba5c","system_id":"levelo_inurba_marseille","lat":43.28418,"lon":5.3498,"is_reserved":false,"is_disabled":false,"rental_uris":{"android":"levelo://app?vid=ac5f0e72-4137-49e8-aa8c-91cc77abba5c","ios":"levelo://app?vid=ac5f0e72-4137-49e8-aa8c-91cc77abba5c"},"vehicle_type_id":"4","last_reported":1722359258,"current_range_meters":20800,"station_id":"ce4bhbh2rcd13ifvqepg","pricing_plan_id":"cebpf4jnsgd1na2vs0mg"},{"bike_id":"3af88045-a163-4bf8-9bac-cd840f4c1742","system_id":"levelo_inurba_marseille","lat":43.2842,"lon":5.34971,"is_reserved":false,"is_disabled":false,"rental_uris":{"android":"levelo://app?vid=3af88045-a163-4bf8-9bac-cd840f4c1742","ios":"levelo://app?vid=3af88045-a163-4bf8-9bac-cd840f4c1742"},"vehicle_type_id":"4","last_reported":1722359258,"current_range_meters":8400,"station_id":"ce4bhbh2rcd13ifvqepg","pricing_plan_id":"cebpf4jnsgd1na2vs0mg"},{"bike_id":"6d2a1f1c-697d-4da7-901d-61360efd134e","system_id":"levelo_inurba_marseille","lat":43.28417,"lon":5.34978,"is_reserved":false,"is_disabled":false,"rental_uris":{"android":"levelo://app?vid=6d2a1f1c-697d-4da7-901d-61360efd134e","ios":"levelo://app?vid=6d2a1f1c-697d-4da7-901d-61360efd134e"},"vehicle_type_id":"4","last_reported":1722359258,"current_range_meters":28800,"station_id":"ce4bhbh2rcd13ifvqepg","pricing_plan_id":"cebpf4jnsgd1na2vs0mg"},{"bike_id":"c632b29c-c1d4-4458-9813-02952a93498b","system_id":"levelo_inurba_marseille","lat":43.284217,"lon":5.349697,"is_reserved":false,"is_disabled":false,"rental_uris":{"android":"levelo://app?vid=c632b29c-c1d4-4458-9813-02952a93498b","ios":"levelo://app?vid=c632b29c-c1d4-4458-9813-02952a93498b"},"vehicle_type_id":"4","last_reported":1722359258,"current_range_meters":0,"station_id":"ce4bhbh2rcd13ifvqepg","pricing_plan_id":"cebpf4jnsgd1na2vs0mg"},{"bike_id":"a7613f88-85b3-4874-be73-86cafde32652","system_id":"levelo_inurba_marseille","lat":43.28415,"lon":5.34983,"is_reserved":false,"is_disabled":false,"rental_uris":{"android":"levelo://app?vid=a7613f88-85b3-4874-be73-86cafde32652","ios":"levelo://app?vid=a7613f88-85b3-4874-be73-86cafde32652"},"vehicle_type_id":"4","last_reported":1722359258,"current_range_meters":27200,"station_id":"ce4bhbh2rcd13ifvqepg","pricing_plan_id":"cebpf4jnsgd1na2vs0mg"},{"bike_id":"a493fe93-bede-4805-aeb8-0ffcb75f42bc","system_id":"levelo_inurba_marseille","lat":43.28414,"lon":5.34986,"is_reserved":false,"is_disabled":false,"rental_uris":{"android":"levelo://app?vid=a493fe93-bede-4805-aeb8-0ffcb75f42bc","ios":"levelo://app?vid=a493fe93-bede-4805-aeb8-0ffcb75f42bc"},"vehicle_type_id":"4","last_reported":1722359258,"current_range_meters":13200,"station_id":"ce4bhbh2rcd13ifvqepg","pricing_plan_id":"cebpf4jnsgd1na2vs0mg"},{"bike_id":"506ae3cc-f4d0-49c7-a905-ededb0327544","system_id":"levelo_inurba_marseille","lat":43.28418,"lon":5.34973,"is_reserved":false,"is_disabled":false,"rental_uris":{"android":"levelo://app?vid=506ae3cc-f4d0-49c7-a905-ededb0327544","ios":"levelo://app?vid=506ae3cc-f4d0-49c7-a905-ededb0327544"},"vehicle_type_id":"4","last_reported":1722359258,"current_range_meters":6000,"station_id":"ce4bhbh2rcd13ifvqepg","pricing_plan_id":"cebpf4jnsgd1na2vs0mg"},{"bike_id":"40df6dc7-c406-4622-9373-437d1929d723","system_id":"levelo_inurba_marseille","lat":43.284214,"lon":5.349706,"is_reserved":false,"is_disabled":false,"rental_uris":{"android":"levelo://app?vid=40df6dc7-c406-4622-9373-437d1929d723","ios":"levelo://app?vid=40df6dc7-c406-4622-9373-437d1929d723"},"vehicle_type_id":"4","last_reported":1722359258,"current_range_meters":0,"station_id":"ce4bhbh2rcd13ifvqepg","pricing_plan_id":"cebpf4jnsgd1na2vs0mg"},{"bike_id":"aefccedc-714d-4857-a102-4debb1b89bc6","system_id":"levelo_inurba_marseille","lat":43.28412,"lon":5.3499,"is_reserved":false,"is_disabled":false,"rental_uris":{"android":"levelo://app?vid=aefccedc-714d-4857-a102-4debb1b89bc6","ios":"levelo://app?vid=aefccedc-714d-4857-a102-4debb1b89bc6"},"vehicle_type_id":"4","last_reported":1722359258,"current_range_meters":16400,"station_id":"ce4bhbh2rcd13ifvqepg","pricing_plan_id":"cebpf4jnsgd1na2vs0mg"},{"bike_id":"721d606a-df8f-45e8-afe0-c7733cd0d68c","system_id":"levelo_inurba_marseille","lat":43.284147,"lon":5.349813,"is_reserved":false,"is_disabled":false,"rental_uris":{"android":"levelo://app?vid=721d606a-df8f-45e8-afe0-c7733cd0d68c","ios":"levelo://app?vid=721d606a-df8f-45e8-afe0-c7733cd0d68c"},"vehicle_type_id":"4","last_reported":1722359258,"current_range_meters":31200,"station_id":"ce4bhbh2rcd13ifvqepg","pricing_plan_id":"cebpf4jnsgd1na2vs0mg"},{"bike_id":"51ab3421-cc8b-40e6-a7ab-53ac7fea2400","system_id":"levelo_inurba_marseille","lat":43.28411,"lon":5.349898,"is_reserved":false,"is_disabled":false,"rental_uris":{"android":"levelo://app?vid=51ab3421-cc8b-40e6-a7ab-53ac7fea2400","ios":"levelo://app?vid=51ab3421-cc8b-40e6-a7ab-53ac7fea2400"},"vehicle_type_id":"4","last_reported":1722359258,"current_range_meters":0,"station_id":"ce4bhbh2rcd13ifvqepg","pricing_plan_id":"cebpf4jnsgd1na2vs0mg"},{"bike_id":"46e40419-d35f-4e23-a30a-fa4dee5fe208","system_id":"levelo_inurba_marseille","lat":43.284153,"lon":5.349747,"is_reserved":false,"is_disabled":false,"rental_uris":{"android":"levelo://app?vid=46e40419-d35f-4e23-a30a-fa4dee5fe208","ios":"levelo://app?vid=46e40419-d35f-4e23-a30a-fa4dee5fe208"},"vehicle_type_id":"4","last_reported":1722359258,"current_range_meters":27200,"station_id":"ce4bhbh2rcd13ifvqepg","pricing_plan_id":"cebpf4jnsgd1na2vs0mg"},{"bike_id":"6ec7d8e3-7c43-4cc0-90e8-259b214ed10b","system_id":"levelo_inurba_marseille","lat":43.284139,"lon":5.349767,"is_reserved":false,"is_disabled":false,"rental_uris":{"android":"levelo://app?vid=6ec7d8e3-7c43-4cc0-90e8-259b214ed10b","ios":"levelo://app?vid=6ec7d8e3-7c43-4cc0-90e8-259b214ed10b"},"vehicle_type_id":"4","last_reported":1722359258,"current_range_meters":30000,"station_id":"ce4bgh92rcd13ifvqb50","pricing_plan_id":"cebpf4jnsgd1na2vs0mg"},{"bike_id":"e44232b5-9c27-4bbb-83fd-984bae82a2b4","system_id":"levelo_inurba_marseille","lat":43.28412,"lon":5.34978,"is_reserved":false,"is_disabled":false,"rental_uris":{"android":"levelo://app?vid=e44232b5-9c27-4bbb-83fd-984bae82a2b4","ios":"levelo://app?vid=e44232b5-9c27-4bbb-83fd-984bae82a2b4"},"vehicle_type_id":"4","last_reported":1722359258,"current_range_meters":14000,"station_id":"ce4bhbh2rcd13ifvqepg","pricing_plan_id":"cebpf4jnsgd1na2vs0mg"},{"bike_id":"ce569411-6b2e-4aac-946a-d4791e2dd3d3","system_id":"levelo_inurba_marseille","lat":43.28414,"lon":5.3497,"is_reserved":false,"is_disabled":false,"rental_uris":{"android":"levelo://app?vid=ce569411-6b2e-4aac-946a-d4791e2dd3d3","ios":"levelo://app?vid=ce569411-6b2e-4aac-946a-d4791e2dd3d3"},"vehicle_type_id":"4","last_reported":1722359258,"current_range_meters":17600,"station_id":"ce4bhbh2rcd13ifvqepg","pricing_plan_id":"cebpf4jnsgd1na2vs0mg"},{"bike_id":"53153464-5577-4632-a3e3-96851dfec6e5","system_id":"levelo_inurba_marseille","lat":43.284214,"lon":5.349706,"is_reserved":false,"is_disabled":false,"rental_uris":{"android":"levelo://app?vid=53153464-5577-4632-a3e3-96851dfec6e5","ios":"levelo://app?vid=53153464-5577-4632-a3e3-96851dfec6e5"},"vehicle_type_id":"4","last_reported":1722359258,"current_range_meters":0,"station_id":"ce4bhbh2rcd13ifvqepg","pricing_plan_id":"cebpf4jnsgd1na2vs0mg"},{"bike_id":"8d1ea3b8-704d-42ae-9231-365ba66d0282","system_id":"levelo_inurba_marseille","lat":43.284127,"lon":5.34963,"is_reserved":false,"is_disabled":false,"rental_uris":{"android":"levelo://app?vid=8d1ea3b8-704d-42ae-9231-365ba66d0282","ios":"levelo://app?vid=8d1ea3b8-704d-42ae-9231-365ba66d0282"},"vehicle_type_id":"4","last_reported":1722359258,"current_range_meters":6800,"station_id":"ce4bhbh2rcd13ifvqepg","pricing_plan_id":"cebpf4jnsgd1na2vs0mg"},{"bike_id":"595a8206-3fc0-4376-a945-c4f107807c23","system_id":"levelo_inurba_marseille","lat":43.292724,"lon":5.401131,"is_reserved":false,"is_disabled":false,"rental_uris":{"android":"levelo://app?vid=595a8206-3fc0-4376-a945-c4f107807c23","ios":"levelo://app?vid=595a8206-3fc0-4376-a945-c4f107807c23"},"vehicle_type_id":"4","last_reported":1722359258,"current_range_meters":0,"station_id":"ce4bh312rcd13ifvqdk0","pricing_plan_id":"cebpf4jnsgd1na2vs0mg"},{"bike_id":"76ff4706-746c-4e62-949a-befb2ad252e8","system_id":"levelo_inurba_marseille","lat":43.28281,"lon":5.35077,"is_reserved":false,"is_disabled":false,"rental_uris":{"android":"levelo://app?vid=76ff4706-746c-4e62-949a-befb2ad252e8","ios":"levelo://app?vid=76ff4706-746c-4e62-949a-befb2ad252e8"},"vehicle_type_id":"4","last_reported":1722359258,"current_range_meters":31200,"station_id":"ce4bhbp2rcd13ifvqerg","pricing_plan_id":"cebpf4jnsgd1na2vs0mg"},{"bike_id":"81e2e24c-6543-4d3f-b9ed-5da2c5877f24","system_id":"levelo_inurba_marseille","lat":43.282805,"lon":5.350784,"is_reserved":false,"is_disabled":false,"rental_uris":{"android":"levelo://app?vid=81e2e24c-6543-4d3f-b9ed-5da2c5877f24","ios":"levelo://app?vid=81e2e24c-6543-4d3f-b9ed-5da2c5877f24"},"vehicle_type_id":"4","last_reported":1722359258,"current_range_meters":31200,"station_id":"ce4bhbp2rcd13ifvqerg","pricing_plan_id":"cebpf4jnsgd1na2vs0mg"},{"bike_id":"8410f743-5e4a-41bd-a456-b2cf4ce95c9f","system_id":"levelo_inurba_marseille","lat":43.282754,"lon":5.350519,"is_reserved":false,"is_disabled":false,"rental_uris":{"android":"levelo://app?vid=8410f743-5e4a-41bd-a456-b2cf4ce95c9f","ios":"levelo://app?vid=8410f743-5e4a-41bd-a456-b2cf4ce95c9f"},"vehicle_type_id":"4","last_reported":1722359258,"current_range_meters":29600,"station_id":"ce4bhbp2rcd13ifvqerg","pricing_plan_id":"cebpf4jnsgd1na2vs0mg"},{"bike_id":"5dbc2e1b-ab5e-4ffd-a29a-543f59bffcf5","system_id":"levelo_inurba_marseille","lat":43.2828,"lon":5.35069,"is_reserved":false,"is_disabled":false,"rental_uris":{"android":"levelo://app?vid=5dbc2e1b-ab5e-4ffd-a29a-543f59bffcf5","ios":"levelo://app?vid=5dbc2e1b-ab5e-4ffd-a29a-543f59bffcf5"},"vehicle_type_id":"4","last_reported":1722359258,"current_range_meters":29200,"station_id":"ce4bhbp2rcd13ifvqerg","pricing_plan_id":"cebpf4jnsgd1na2vs0mg"},{"bike_id":"a8f5d8d7-7304-4768-8c01-71f56571fc4f","system_id":"levelo_inurba_marseille","lat":43.282754,"lon":5.350519,"is_reserved":false,"is_disabled":false,"rental_uris":{"android":"levelo://app?vid=a8f5d8d7-7304-4768-8c01-71f56571fc4f","ios":"levelo://app?vid=a8f5d8d7-7304-4768-8c01-71f56571fc4f"},"vehicle_type_id":"4","last_reported":1722359258,"current_range_meters":31600,"station_id":"ce4bhbp2rcd13ifvqerg","pricing_plan_id":"cebpf4jnsgd1na2vs0mg"},{"bike_id":"a9f19adc-ba2c-41a8-94e7-3048e06d3dd1","system_id":"levelo_inurba_marseille","lat":43.28274,"lon":5.35069,"is_reserved":false,"is_disabled":false,"rental_uris":{"android":"levelo://app?vid=a9f19adc-ba2c-41a8-94e7-3048e06d3dd1","ios":"levelo://app?vid=a9f19adc-ba2c-41a8-94e7-3048e06d3dd1"},"vehicle_type_id":"4","last_reported":1722359258,"current_range_meters":31200,"station_id":"ce4bhbp2rcd13ifvqerg","pricing_plan_id":"cebpf4jnsgd1na2vs0mg"},{"bike_id":"b05ef7d6-1f89-41ae-bc84-06d1ba6a6313","system_id":"levelo_inurba_marseille","lat":43.28274,"lon":5.35068,"is_reserved":false,"is_disabled":false,"rental_uris":{"android":"levelo://app?vid=b05ef7d6-1f89-41ae-bc84-06d1ba6a6313","ios":"levelo://app?vid=b05ef7d6-1f89-41ae-bc84-06d1ba6a6313"},"vehicle_type_id":"4","last_reported":1722359258,"current_range_meters":0,"station_id":"ce4bhbp2rcd13ifvqerg","pricing_plan_id":"cebpf4jnsgd1na2vs0mg"},{"bike_id":"c137927c-8075-4817-91a3-04f791943ecb","system_id":"levelo_inurba_marseille","lat":43.28271,"lon":5.35074,"is_reserved":false,"is_disabled":false,"rental_uris":{"android":"levelo://app?vid=c137927c-8075-4817-91a3-04f791943ecb","ios":"levelo://app?vid=c137927c-8075-4817-91a3-04f791943ecb"},"vehicle_type_id":"4","last_reported":1722359258,"current_range_meters":10800,"station_id":"ce4bhbp2rcd13ifvqerg","pricing_plan_id":"cebpf4jnsgd1na2vs0mg"},{"bike_id":"4de37078-f0ae-4712-acda-d05c72f7b047","system_id":"levelo_inurba_marseille","lat":43.28275,"lon":5.3506,"is_reserved":false,"is_disabled":false,"rental_uris":{"android":"levelo://app?vid=4de37078-f0ae-4712-acda-d05c72f7b047","ios":"levelo://app?vid=4de37078-f0ae-4712-acda-d05c72f7b047"},"vehicle_type_id":"4","last_reported":1722359258,"current_range_meters":12400,"station_id":"ce4bhbp2rcd13ifvqerg","pricing_plan_id":"cebpf4jnsgd1na2vs0mg"},{"bike_id":"c14bf2ed-694b-4b84-b0d8-0c2bbe316d8e","system_id":"levelo_inurba_marseille","lat":43.28275,"lon":5.35057,"is_reserved":false,"is_disabled":false,"rental_uris":{"android":"levelo://app?vid=c14bf2ed-694b-4b84-b0d8-0c2bbe316d8e","ios":"levelo://app?vid=c14bf2ed-694b-4b84-b0d8-0c2bbe316d8e"},"vehicle_type_id":"4","last_reported":1722359258,"current_range_meters":11600,"station_id":"ce4bhbp2rcd13ifvqerg","pricing_plan_id":"cebpf4jnsgd1na2vs0mg"},{"bike_id":"4bd98c2b-e84e-4e62-88c7-e4f1c910683a","system_id":"levelo_inurba_marseille","lat":43.28271,"lon":5.3507,"is_reserved":false,"is_disabled":false,"rental_uris":{"android":"levelo://app?vid=4bd98c2b-e84e-4e62-88c7-e4f1c910683a","ios":"levelo://app?vid=4bd98c2b-e84e-4e62-88c7-e4f1c910683a"},"vehicle_type_id":"4","last_reported":1722359258,"current_range_meters":15600,"station_id":"ce4bhbp2rcd13ifvqerg","pricing_plan_id":"cebpf4jnsgd1na2vs0mg"},{"bike_id":"7e101b56-42e0-4b4a-875b-827d942dc627","system_id":"levelo_inurba_marseille","lat":43.282754,"lon":5.350519,"is_reserved":false,"is_disabled":false,"rental_uris":{"android":"levelo://app?vid=7e101b56-42e0-4b4a-875b-827d942dc627","ios":"levelo://app?vid=7e101b56-42e0-4b4a-875b-827d942dc627"},"vehicle_type_id":"4","last_reported":1722359258,"current_range_meters":32000,"station_id":"ce4bhbp2rcd13ifvqerg","pricing_plan_id":"cebpf4jnsgd1na2vs0mg"},{"bike_id":"e98ed9d4-586b-4359-a574-0640b1f9e949","system_id":"levelo_inurba_marseille","lat":43.282732,"lon":5.350598,"is_reserved":false,"is_disabled":false,"rental_uris":{"android":"levelo://app?vid=e98ed9d4-586b-4359-a574-0640b1f9e949","ios":"levelo://app?vid=e98ed9d4-586b-4359-a574-0640b1f9e949"},"vehicle_type_id":"4","last_reported":1722359258,"current_range_meters":21200,"station_id":"ce4bhbp2rcd13ifvqerg","pricing_plan_id":"cebpf4jnsgd1na2vs0mg"},{"bike_id":"1ad59b82-24ab-4704-bc9d-a41f21d0e962","system_id":"levelo_inurba_marseille","lat":43.28275,"lon":5.35053,"is_reserved":false,"is_disabled":false,"rental_uris":{"android":"levelo://app?vid=1ad59b82-24ab-4704-bc9d-a41f21d0e962","ios":"levelo://app?vid=1ad59b82-24ab-4704-bc9d-a41f21d0e962"},"vehicle_type_id":"4","last_reported":1722359258,"current_range_meters":31200,"station_id":"ce4bhbp2rcd13ifvqerg","pricing_plan_id":"cebpf4jnsgd1na2vs0mg"},{"bike_id":"6ee08397-5bab-41f9-aa6d-559f3f51de31","system_id":"levelo_inurba_marseille","lat":43.282744,"lon":5.350533,"is_reserved":false,"is_disabled":false,"rental_uris":{"android":"levelo://app?vid=6ee08397-5bab-41f9-aa6d-559f3f51de31","ios":"levelo://app?vid=6ee08397-5bab-41f9-aa6d-559f3f51de31"},"vehicle_type_id":"4","last_reported":1722359258,"current_range_meters":0,"station_id":"ce4bhbp2rcd13ifvqerg","pricing_plan_id":"cebpf4jnsgd1na2vs0mg"},{"bike_id":"4e9cbde3-2f03-4bf4-816c-7f454e4500e0","system_id":"levelo_inurba_marseille","lat":43.28272,"lon":5.35062,"is_reserved":false,"is_disabled":false,"rental_uris":{"android":"levelo://app?vid=4e9cbde3-2f03-4bf4-816c-7f454e4500e0","ios":"levelo://app?vid=4e9cbde3-2f03-4bf4-816c-7f454e4500e0"},"vehicle_type_id":"4","last_reported":1722359258,"current_range_meters":12000,"station_id":"ce4bhbp2rcd13ifvqerg","pricing_plan_id":"cebpf4jnsgd1na2vs0mg"},{"bike_id":"34451d6c-6bd3-40c2-b8e4-3c3e895fdf26","system_id":"levelo_inurba_marseille","lat":43.28269,"lon":5.35072,"is_reserved":false,"is_disabled":false,"rental_uris":{"android":"levelo://app?vid=34451d6c-6bd3-40c2-b8e4-3c3e895fdf26","ios":"levelo://app?vid=34451d6c-6bd3-40c2-b8e4-3c3e895fdf26"},"vehicle_type_id":"4","last_reported":1722359258,"current_range_meters":0,"station_id":"ce4bhbp2rcd13ifvqerg","pricing_plan_id":"cebpf4jnsgd1na2vs0mg"},